{"last_updated":1753107245,"ttl":60,"version":"2.2","data":{"bikes":[{"bike_id":"53b742a7-31ae-4272-9bba-7740339e2a2f","system_id":"levelo_inurba_marseille","lat":43.33747,"lon":5.37463,"is_reserved":false,"is_disabled":false,"rental_uris":{"android":"levelo://app?vid=53b742a7-31ae-4272-9bba-7740339e2a2f","ios":"levelo://app?vid=53b742a7-31ae-4272-9bba-7740339e2a2f"},"vehicle_type_id":"1","last_reported":1753107246,"current_range_meters":6000,"station_id":"","pricing_plan_id":"cebpf4jnsgd1na2vs0mg"},{"bike_id":"c84bc621-4c1d-4b47-9b89-dfb0f77b70c9","system_id":"levelo_inurba_marseille","lat":43.29573,"lon":5.37508,"is_reserved":false,"is_disabled":false,"rental_uris":{"android":"levelo://app?vid=c84bc621-4c1d-4b47-9b89-dfb0f77b70c9","ios":"levelo://app?vid=c84bc621-4c1d-4b47-9b89-dfb0f77b70c9"},"vehicle_type_id":"4","last_reported":1753107246,"current_range_meters":2800,"station_id":"ce4bgh92rcd13ifvqb50","pricing_plan_id":"cebpf4jnsgd1na2vs0mg"},{"bike_id":"57bb565d-2136-465a-803d-648474c4a3a7","system_id":"levelo_inurba_marseille","lat":43.33111,"lon":5.35498,"is_reserved":false,"is_disabled":false,"rental_uris":{"android":"levelo://app?vid=57bb565d-2136-465a-803d-648474c4a3a7","ios":"levelo://app?vid=57bb565d-2136-465a-803d-648474c4a3a7"},"vehicle_type_id":"4","last_reported":1753107246,"current_range_meters":2800,"station_id":"","pricing_plan_id":"cebpf4jnsgd1na2vs0mg"},{"bike_id":"433415c1-acea-4306-b3ad-c55437db8988","system_id":"levelo_inurba_marseille","lat":43.29491,"lon":5.38199,"is_reserved":false,"is_disabled":false,"rental_uris":{"android":"levelo://app?vid=433415c1-acea-4306-b3ad-c55437db8988","ios":"levelo://app?vid=433415c1-acea-4306-b3ad-c55437db8988"},"vehicle_type_id":"4","last_reported":1753107246,"current_range_meters":3200,"station_id":"","pricing_plan_id":"cebpf4jnsgd1na2vs0mg"},{"bike_id":"b332672b-dc34-47b7-a484-25fa7705e053","system_id":"levelo_inurba_marseille","lat":43.25866,"lon":5.39895,"is_reserved":false,"is_disabled":false,"rental_uris":{"android":"levelo://app?vid=b332672b-dc34-47b7-a484-25fa7705e053","ios":"levelo://app?vid=b332672b-dc34-47b7-a484-25fa7705e053"},"vehicle_type_id":"4","last_reported":1753107246,"current_range_meters":3600,"station_id":"ce4bhl92rcd13ifvqghg","pricing_plan_id":"cebpf4jnsgd1na2vs0mg"},{"bike_id":"8cc1dc5f-2b27-4111-89ee-e8a93c693b2f","system_id":"levelo_inurba_marseille","lat":43.29187,"lon":5.35792,"is_reserved":false,"is_disabled":false,"rental_uris":{"android":"levelo://app?vid=8cc1dc5f-2b27-4111-89ee-e8a93c693b2f","ios":"levelo://app?vid=8cc1dc5f-2b27-4111-89ee-e8a93c693b2f"},"vehicle_type_id":"4","last_reported":1753107246,"current_range_meters":3600,"station_id":"ce4bhb12rcd13ifvqel0","pricing_plan_id":"cebpf4jnsgd1na2vs0mg"},{"bike_id":"ac141403-2eff-454e-8bd1-3d400d40ed2b","system_id":"levelo_inurba_marseille","lat":43.33108,"lon":5.40013,"is_reserved":false,"is_disabled":false,"rental_uris":{"android":"levelo://app?vid=ac141403-2eff-454e-8bd1-3d400d40ed2b","ios":"levelo://app?vid=ac141403-2eff-454e-8bd1-3d400d40ed2b"},"vehicle_type_id":"4","last_reported":1753107246,"current_range_meters":3600,"station_id":"","pricing_plan_id":"cebpf4jnsgd1na2vs0mg"},{"bike_id":"192c0fa5-c826-4847-bdd0-11edb7180ff9","system_id":"levelo_inurba_marseille","lat":43.30675,"lon":5.4009,"is_reserved":false,"is_disabled":true,"rental_uris":{"android":"levelo://app?vid=192c0fa5-c826-4847-bdd0-11edb7180ff9","ios":"levelo://app?vid=192c0fa5-c826-4847-bdd0-11edb7180ff9"},"vehicle_type_id":"4","last_reported":1753107246,"current_range_meters":3600,"station_id":"ce4bh112rcd13ifvqda0","pricing_plan_id":"cebpf4jnsgd1na2vs0mg"},{"bike_id":"78d017cc-ddfa-49ba-9ef0-9355b5a69c32","system_id":"levelo_inurba_marseille","lat":43.31722,"lon":5.43697,"is_reserved":false,"is_disabled":false,"rental_uris":{"android":"levelo://app?vid=78d017cc-ddfa-49ba-9ef0-9355b5a69c32","ios":"levelo://app?vid=78d017cc-ddfa-49ba-9ef0-9355b5a69c32"},"vehicle_type_id":"4","last_reported":1753107246,"current_range_meters":4000,"station_id":"ce4bhp92rcd13ifvqhcg","pricing_plan_id":"cebpf4jnsgd1na2vs0mg"},{"bike_id":"0fd02cf6-67fb-4589-807f-241dd50b7e1a","system_id":"levelo_inurba_marseille","lat":43.29894,"lon":5.4366,"is_reserved":false,"is_disabled":true,"rental_uris":{"android":"levelo://app?vid=0fd02cf6-67fb-4589-807f-241dd50b7e1a","ios":"levelo://app?vid=0fd02cf6-67fb-4589-807f-241dd50b7e1a"},"vehicle_type_id":"4","last_reported":1753107246,"current_range_meters":5600,"station_id":"ce4bhpp2rcd13ifvqhfg","pricing_plan_id":"cebpf4jnsgd1na2vs0mg"},{"bike_id":"a6aeaa41-3ed9-448c-bb94-9301917e3794","system_id":"levelo_inurba_marseille","lat":43.22077,"lon":5.346155,"is_reserved":false,"is_disabled":false,"rental_uris":{"android":"levelo://app?vid=a6aeaa41-3ed9-448c-bb94-9301917e3794","ios":"levelo://app?vid=a6aeaa41-3ed9-448c-bb94-9301917e3794"},"vehicle_type_id":"4","last_reported":1753107246,"current_range_meters":5600,"station_id":"","pricing_plan_id":"cebpf4jnsgd1na2vs0mg"},{"bike_id":"d22367ef-7b44-4af8-a0d4-5a985507bd2e","system_id":"levelo_inurba_marseille","lat":43.24163,"lon":5.36388,"is_reserved":false,"is_disabled":false,"rental_uris":{"android":"levelo://app?vid=d22367ef-7b44-4af8-a0d4-5a985507bd2e","ios":"levelo://app?vid=d22367ef-7b44-4af8-a0d4-5a985507bd2e"},"vehicle_type_id":"4","last_reported":1753107246,"current_range_meters":5600,"station_id":"cpo36qri1sfpv3e86is0","pricing_plan_id":"cebpf4jnsgd1na2vs0mg"},{"bike_id":"3025fa32-a390-4952-af40-9846a914aacf","system_id":"levelo_inurba_marseille","lat":43.29029,"lon":5.37555,"is_reserved":false,"is_disabled":false,"rental_uris":{"android":"levelo://app?vid=3025fa32-a390-4952-af40-9846a914aacf","ios":"levelo://app?vid=3025fa32-a390-4952-af40-9846a914aacf"},"vehicle_type_id":"4","last_reported":1753107246,"current_range_meters":6000,"station_id":"ce4bh692rcd13ifvqe90","pricing_plan_id":"cebpf4jnsgd1na2vs0mg"},{"bike_id":"1689d950-aebd-4369-9ccd-adbf06e5611e","system_id":"levelo_inurba_marseille","lat":43.30792,"lon":5.43525,"is_reserved":false,"is_disabled":false,"rental_uris":{"android":"levelo://app?vid=1689d950-aebd-4369-9ccd-adbf06e5611e","ios":"levelo://app?vid=1689d950-aebd-4369-9ccd-adbf06e5611e"},"vehicle_type_id":"4","last_reported":1753107246,"current_range_meters":6400,"station_id":"ce4bhph2rcd13ifvqheg","pricing_plan_id":"cebpf4jnsgd1na2vs0mg"},{"bike_id":"ed415a14-b4b4-4caf-8a06-7fd1c907bac5","system_id":"levelo_inurba_marseille","lat":43.21529,"lon":5.34616,"is_reserved":false,"is_disabled":false,"rental_uris":{"android":"levelo://app?vid=ed415a14-b4b4-4caf-8a06-7fd1c907bac5","ios":"levelo://app?vid=ed415a14-b4b4-4caf-8a06-7fd1c907bac5"},"vehicle_type_id":"4","last_reported":1753107246,"current_range_meters":6400,"station_id":"","pricing_plan_id":"cebpf4jnsgd1na2vs0mg"},{"bike_id":"6834b706-a618-40f6-8722-8e5e5439ff2c","system_id":"levelo_inurba_marseille","lat":43.217503,"lon":5.346078,"is_reserved":false,"is_disabled":false,"rental_uris":{"android":"levelo://app?vid=6834b706-a618-40f6-8722-8e5e5439ff2c","ios":"levelo://app?vid=6834b706-a618-40f6-8722-8e5e5439ff2c"},"vehicle_type_id":"4","last_reported":1753107246,"current_range_meters":6800,"station_id":"st_cvj6r9ubvosntc0bgbag","pricing_plan_id":"cebpf4jnsgd1na2vs0mg"},{"bike_id":"f57b0abc-822e-4511-bf89-b16fa989f405","system_id":"levelo_inurba_marseille","lat":43.31073,"lon":5.383553,"is_reserved":false,"is_disabled":false,"rental_uris":{"android":"levelo://app?vid=f57b0abc-822e-4511-bf89-b16fa989f405","ios":"levelo://app?vid=f57b0abc-822e-4511-bf89-b16fa989f405"},"vehicle_type_id":"4","last_reported":1753107246,"current_range_meters":6800,"station_id":"ce4bgv92rcd13ifvqcr0","pricing_plan_id":"cebpf4jnsgd1na2vs0mg"},{"bike_id":"a6de290b-5c15-427b-bc37-8301607e1735","system_id":"levelo_inurba_marseille","lat":43.3377,"lon":5.374405,"is_reserved":false,"is_disabled":false,"rental_uris":{"android":"levelo://app?vid=a6de290b-5c15-427b-bc37-8301607e1735","ios":"levelo://app?vid=a6de290b-5c15-427b-bc37-8301607e1735"},"vehicle_type_id":"4","last_reported":1753107246,"current_range_meters":6800,"station_id":"","pricing_plan_id":"cebpf4jnsgd1na2vs0mg"},{"bike_id":"793e387b-3d17-4d7f-80e2-2632dc4c4506","system_id":"levelo_inurba_marseille","lat":43.25193,"lon":5.37902,"is_reserved":false,"is_disabled":true,"rental_uris":{"android":"levelo://app?vid=793e387b-3d17-4d7f-80e2-2632dc4c4506","ios":"levelo://app?vid=793e387b-3d17-4d7f-80e2-2632dc4c4506"},"vehicle_type_id":"4","last_reported":1753107246,"current_range_meters":7200,"station_id":"","pricing_plan_id":"cebpf4jnsgd1na2vs0mg"},{"bike_id":"ea811149-96f0-4c25-9e56-72a69bd2dbeb","system_id":"levelo_inurba_marseille","lat":43.26783,"lon":5.39415,"is_reserved":false,"is_disabled":false,"rental_uris":{"android":"levelo://app?vid=ea811149-96f0-4c25-9e56-72a69bd2dbeb","ios":"levelo://app?vid=ea811149-96f0-4c25-9e56-72a69bd2dbeb"},"vehicle_type_id":"4","last_reported":1753107246,"current_range_meters":7200,"station_id":"ce4bhh12rcd13ifvqfg0","pricing_plan_id":"cebpf4jnsgd1na2vs0mg"},{"bike_id":"f18952d9-de72-4b00-ac50-ca46d1bc16b9","system_id":"levelo_inurba_marseille","lat":43.21188,"lon":5.35074,"is_reserved":false,"is_disabled":false,"rental_uris":{"android":"levelo://app?vid=f18952d9-de72-4b00-ac50-ca46d1bc16b9","ios":"levelo://app?vid=f18952d9-de72-4b00-ac50-ca46d1bc16b9"},"vehicle_type_id":"4","last_reported":1753107246,"current_range_meters":8000,"station_id":"st_cvj6sg6p6f1abm77japg","pricing_plan_id":"cebpf4jnsgd1na2vs0mg"},{"bike_id":"84133b2c-54f7-40c0-9db6-ff896dc83184","system_id":"levelo_inurba_marseille","lat":43.30137,"lon":5.3992,"is_reserved":false,"is_disabled":true,"rental_uris":{"android":"levelo://app?vid=84133b2c-54f7-40c0-9db6-ff896dc83184","ios":"levelo://app?vid=84133b2c-54f7-40c0-9db6-ff896dc83184"},"vehicle_type_id":"4","last_reported":1753107246,"current_range_meters":8000,"station_id":"ce4bh0h2rcd13ifvqd40","pricing_plan_id":"cebpf4jnsgd1na2vs0mg"},{"bike_id":"08a28813-0d72-4079-9725-881dadc8618c","system_id":"levelo_inurba_marseille","lat":43.28102,"lon":5.37831,"is_reserved":false,"is_disabled":false,"rental_uris":{"android":"levelo://app?vid=08a28813-0d72-4079-9725-881dadc8618c","ios":"levelo://app?vid=08a28813-0d72-4079-9725-881dadc8618c"},"vehicle_type_id":"4","last_reported":1753107246,"current_range_meters":8000,"station_id":"ce4bha12rcd13ifvqee0","pricing_plan_id":"cebpf4jnsgd1na2vs0mg"},{"bike_id":"aa060a46-926b-42cd-9c04-3f263c91a19f","system_id":"levelo_inurba_marseille","lat":43.22501,"lon":5.34799,"is_reserved":false,"is_disabled":false,"rental_uris":{"android":"levelo://app?vid=aa060a46-926b-42cd-9c04-3f263c91a19f","ios":"levelo://app?vid=aa060a46-926b-42cd-9c04-3f263c91a19f"},"vehicle_type_id":"4","last_reported":1753107246,"current_range_meters":8000,"station_id":"st_cvj5dfep6f1abm77gieg","pricing_plan_id":"cebpf4jnsgd1na2vs0mg"},{"bike_id":"02860f1e-d711-4398-b757-6c9dd2b46894","system_id":"levelo_inurba_marseille","lat":43.25957,"lon":5.40918,"is_reserved":false,"is_disabled":true,"rental_uris":{"android":"levelo://app?vid=02860f1e-d711-4398-b757-6c9dd2b46894","ios":"levelo://app?vid=02860f1e-d711-4398-b757-6c9dd2b46894"},"vehicle_type_id":"4","last_reported":1753107246,"current_range_meters":8000,"station_id":"ce4bhm92rcd13ifvqglg","pricing_plan_id":"cebpf4jnsgd1na2vs0mg"},{"bike_id":"7072182f-29ea-4143-bfff-5c64633dd77c","system_id":"levelo_inurba_marseille","lat":43.225,"lon":5.34774,"is_reserved":false,"is_disabled":false,"rental_uris":{"android":"levelo://app?vid=7072182f-29ea-4143-bfff-5c64633dd77c","ios":"levelo://app?vid=7072182f-29ea-4143-bfff-5c64633dd77c"},"vehicle_type_id":"4","last_reported":1753107246,"current_range_meters":8400,"station_id":"st_cvj5dfep6f1abm77gieg","pricing_plan_id":"cebpf4jnsgd1na2vs0mg"},{"bike_id":"184c3ad9-4258-465e-ab3a-3ecc758f7620","system_id":"levelo_inurba_marseille","lat":43.2841,"lon":5.34983,"is_reserved":false,"is_disabled":false,"rental_uris":{"android":"levelo://app?vid=184c3ad9-4258-465e-ab3a-3ecc758f7620","ios":"levelo://app?vid=184c3ad9-4258-465e-ab3a-3ecc758f7620"},"vehicle_type_id":"4","last_reported":1753107246,"current_range_meters":8400,"station_id":"ce4bhbh2rcd13ifvqepg","pricing_plan_id":"cebpf4jnsgd1na2vs0mg"},{"bike_id":"c5838178-6925-4014-be00-fddf4f549984","system_id":"levelo_inurba_marseille","lat":43.2808,"lon":5.39664,"is_reserved":false,"is_disabled":false,"rental_uris":{"android":"levelo://app?vid=c5838178-6925-4014-be00-fddf4f549984","ios":"levelo://app?vid=c5838178-6925-4014-be00-fddf4f549984"},"vehicle_type_id":"4","last_reported":1753107246,"current_range_meters":8400,"station_id":"ce4bho12rcd13ifvqh2g","pricing_plan_id":"cebpf4jnsgd1na2vs0mg"},{"bike_id":"9036d315-4723-4cdd-9f68-856fe767f9c3","system_id":"levelo_inurba_marseille","lat":43.33153,"lon":5.38179,"is_reserved":false,"is_disabled":false,"rental_uris":{"android":"levelo://app?vid=9036d315-4723-4cdd-9f68-856fe767f9c3","ios":"levelo://app?vid=9036d315-4723-4cdd-9f68-856fe767f9c3"},"vehicle_type_id":"4","last_reported":1753107246,"current_range_meters":8800,"station_id":"","pricing_plan_id":"cebpf4jnsgd1na2vs0mg"},{"bike_id":"736c363b-3641-43dd-b890-bd43d8fd5283","system_id":"levelo_inurba_marseille","lat":43.21427,"lon":5.34855,"is_reserved":false,"is_disabled":false,"rental_uris":{"android":"levelo://app?vid=736c363b-3641-43dd-b890-bd43d8fd5283","ios":"levelo://app?vid=736c363b-3641-43dd-b890-bd43d8fd5283"},"vehicle_type_id":"4","last_reported":1753107246,"current_range_meters":8800,"station_id":"","pricing_plan_id":"cebpf4jnsgd1na2vs0mg"},{"bike_id":"79858504-6ef4-4763-b1fa-c35c29da615c","system_id":"levelo_inurba_marseille","lat":43.217499,"lon":5.345998,"is_reserved":false,"is_disabled":false,"rental_uris":{"android":"levelo://app?vid=79858504-6ef4-4763-b1fa-c35c29da615c","ios":"levelo://app?vid=79858504-6ef4-4763-b1fa-c35c29da615c"},"vehicle_type_id":"4","last_reported":1753107246,"current_range_meters":8800,"station_id":"st_cvj6r9ubvosntc0bgbag","pricing_plan_id":"cebpf4jnsgd1na2vs0mg"},{"bike_id":"54c62cfd-190d-4a0a-99a0-7a5cc5804e08","system_id":"levelo_inurba_marseille","lat":43.21185,"lon":5.35071,"is_reserved":false,"is_disabled":false,"rental_uris":{"android":"levelo://app?vid=54c62cfd-190d-4a0a-99a0-7a5cc5804e08","ios":"levelo://app?vid=54c62cfd-190d-4a0a-99a0-7a5cc5804e08"},"vehicle_type_id":"4","last_reported":1753107246,"current_range_meters":9200,"station_id":"st_cvj6sg6p6f1abm77japg","pricing_plan_id":"cebpf4jnsgd1na2vs0mg"},{"bike_id":"4b64f084-bdb0-499c-b436-5eeda543f327","system_id":"levelo_inurba_marseille","lat":43.27074,"lon":5.42273,"is_reserved":false,"is_disabled":false,"rental_uris":{"android":"levelo://app?vid=4b64f084-bdb0-499c-b436-5eeda543f327","ios":"levelo://app?vid=4b64f084-bdb0-499c-b436-5eeda543f327"},"vehicle_type_id":"4","last_reported":1753107246,"current_range_meters":8800,"station_id":"ce4bhk92rcd13ifvqgb0","pricing_plan_id":"cebpf4jnsgd1na2vs0mg"},{"bike_id":"7a4fe572-42b7-4c9c-b286-5ad677c109bb","system_id":"levelo_inurba_marseille","lat":43.33028,"lon":5.3905,"is_reserved":false,"is_disabled":false,"rental_uris":{"android":"levelo://app?vid=7a4fe572-42b7-4c9c-b286-5ad677c109bb","ios":"levelo://app?vid=7a4fe572-42b7-4c9c-b286-5ad677c109bb"},"vehicle_type_id":"4","last_reported":1753107246,"current_range_meters":9600,"station_id":"ce4bhr92rcd13ifvqhrg","pricing_plan_id":"cebpf4jnsgd1na2vs0mg"},{"bike_id":"cfd7c1d9-7bcd-4971-afe4-64d706646a62","system_id":"levelo_inurba_marseille","lat":43.32375,"lon":5.36771,"is_reserved":false,"is_disabled":false,"rental_uris":{"android":"levelo://app?vid=cfd7c1d9-7bcd-4971-afe4-64d706646a62","ios":"levelo://app?vid=cfd7c1d9-7bcd-4971-afe4-64d706646a62"},"vehicle_type_id":"4","last_reported":1753107246,"current_range_meters":9600,"station_id":"ce4bhsh2rcd13ifvqi2g","pricing_plan_id":"cebpf4jnsgd1na2vs0mg"},{"bike_id":"08b5cd9e-fadc-431c-80d3-8eb4a36d9c0c","system_id":"levelo_inurba_marseille","lat":43.314862,"lon":5.373036,"is_reserved":false,"is_disabled":false,"rental_uris":{"android":"levelo://app?vid=08b5cd9e-fadc-431c-80d3-8eb4a36d9c0c","ios":"levelo://app?vid=08b5cd9e-fadc-431c-80d3-8eb4a36d9c0c"},"vehicle_type_id":"4","last_reported":1753107246,"current_range_meters":10000,"station_id":"ce4bgt12rcd13ifvqcd0","pricing_plan_id":"cebpf4jnsgd1na2vs0mg"},{"bike_id":"8b70e333-db95-4dad-9f25-3f58617e52f2","system_id":"levelo_inurba_marseille","lat":43.29918,"lon":5.43606,"is_reserved":false,"is_disabled":false,"rental_uris":{"android":"levelo://app?vid=8b70e333-db95-4dad-9f25-3f58617e52f2","ios":"levelo://app?vid=8b70e333-db95-4dad-9f25-3f58617e52f2"},"vehicle_type_id":"4","last_reported":1753107246,"current_range_meters":10000,"station_id":"ce4bhpp2rcd13ifvqhfg","pricing_plan_id":"cebpf4jnsgd1na2vs0mg"},{"bike_id":"dee6628b-f370-478a-a4db-32c84542aee7","system_id":"levelo_inurba_marseille","lat":43.33279,"lon":5.39012,"is_reserved":false,"is_disabled":false,"rental_uris":{"android":"levelo://app?vid=dee6628b-f370-478a-a4db-32c84542aee7","ios":"levelo://app?vid=dee6628b-f370-478a-a4db-32c84542aee7"},"vehicle_type_id":"4","last_reported":1753107246,"current_range_meters":10000,"station_id":"","pricing_plan_id":"cebpf4jnsgd1na2vs0mg"},{"bike_id":"56c1bfac-d32c-4e23-80a3-0568579aaf23","system_id":"levelo_inurba_marseille","lat":43.287,"lon":5.39987,"is_reserved":false,"is_disabled":false,"rental_uris":{"android":"levelo://app?vid=56c1bfac-d32c-4e23-80a3-0568579aaf23","ios":"levelo://app?vid=56c1bfac-d32c-4e23-80a3-0568579aaf23"},"vehicle_type_id":"4","last_reported":1753107246,"current_range_meters":10000,"station_id":"ce4bho92rcd13ifvqh3g","pricing_plan_id":"cebpf4jnsgd1na2vs0mg"},{"bike_id":"37d8cb1b-1988-4390-9e4c-4eca73c82c19","system_id":"levelo_inurba_marseille","lat":43.261938,"lon":5.374506,"is_reserved":false,"is_disabled":true,"rental_uris":{"android":"levelo://app?vid=37d8cb1b-1988-4390-9e4c-4eca73c82c19","ios":"levelo://app?vid=37d8cb1b-1988-4390-9e4c-4eca73c82c19"},"vehicle_type_id":"4","last_reported":1753107246,"current_range_meters":10000,"station_id":"ce4bhgp2rcd13ifvqfc0","pricing_plan_id":"cebpf4jnsgd1na2vs0mg"},{"bike_id":"b7c4f4bd-3450-4ace-bba4-282d70613468","system_id":"levelo_inurba_marseille","lat":43.30138,"lon":5.37409,"is_reserved":false,"is_disabled":false,"rental_uris":{"android":"levelo://app?vid=b7c4f4bd-3450-4ace-bba4-282d70613468","ios":"levelo://app?vid=b7c4f4bd-3450-4ace-bba4-282d70613468"},"vehicle_type_id":"4","last_reported":1753107246,"current_range_meters":17200,"station_id":"ce4bgs92rcd13ifvqcc0","pricing_plan_id":"cebpf4jnsgd1na2vs0mg"},{"bike_id":"696c5e5f-ee49-4cdd-b0d3-ceab6c87d298","system_id":"levelo_inurba_marseille","lat":43.32117,"lon":5.36799,"is_reserved":false,"is_disabled":false,"rental_uris":{"android":"levelo://app?vid=696c5e5f-ee49-4cdd-b0d3-ceab6c87d298","ios":"levelo://app?vid=696c5e5f-ee49-4cdd-b0d3-ceab6c87d298"},"vehicle_type_id":"4","last_reported":1753107246,"current_range_meters":10800,"station_id":"ce4bhrh2rcd13ifvqhug","pricing_plan_id":"cebpf4jnsgd1na2vs0mg"},{"bike_id":"30efaa53-cf10-4ffa-bbcb-ea5f7a9db1bf","system_id":"levelo_inurba_marseille","lat":43.29265,"lon":5.36848,"is_reserved":false,"is_disabled":false,"rental_uris":{"android":"levelo://app?vid=30efaa53-cf10-4ffa-bbcb-ea5f7a9db1bf","ios":"levelo://app?vid=30efaa53-cf10-4ffa-bbcb-ea5f7a9db1bf"},"vehicle_type_id":"4","last_reported":1753107246,"current_range_meters":10800,"station_id":"ce4bhbp2rcd13ifvqesg","pricing_plan_id":"cebpf4jnsgd1na2vs0mg"},{"bike_id":"ccd4056b-dd8d-4a13-8d1a-7f5bcc2855b3","system_id":"levelo_inurba_marseille","lat":43.30278,"lon":5.37707,"is_reserved":false,"is_disabled":false,"rental_uris":{"android":"levelo://app?vid=ccd4056b-dd8d-4a13-8d1a-7f5bcc2855b3","ios":"levelo://app?vid=ccd4056b-dd8d-4a13-8d1a-7f5bcc2855b3"},"vehicle_type_id":"4","last_reported":1753107246,"current_range_meters":10800,"station_id":"ce4bguh2rcd13ifvqcj0","pricing_plan_id":"cebpf4jnsgd1na2vs0mg"},{"bike_id":"341eec4e-ddcf-4f75-95c6-ecd84ef432ec","system_id":"levelo_inurba_marseille","lat":43.22934,"lon":5.35373,"is_reserved":false,"is_disabled":false,"rental_uris":{"android":"levelo://app?vid=341eec4e-ddcf-4f75-95c6-ecd84ef432ec","ios":"levelo://app?vid=341eec4e-ddcf-4f75-95c6-ecd84ef432ec"},"vehicle_type_id":"4","last_reported":1753107246,"current_range_meters":11200,"station_id":"cpo3532slgdg3j2ikp40","pricing_plan_id":"cebpf4jnsgd1na2vs0mg"},{"bike_id":"53cb4f43-b1af-4efe-9f40-e0338804f4d4","system_id":"levelo_inurba_marseille","lat":43.31276,"lon":5.39028,"is_reserved":false,"is_disabled":false,"rental_uris":{"android":"levelo://app?vid=53cb4f43-b1af-4efe-9f40-e0338804f4d4","ios":"levelo://app?vid=53cb4f43-b1af-4efe-9f40-e0338804f4d4"},"vehicle_type_id":"4","last_reported":1753107246,"current_range_meters":11200,"station_id":"","pricing_plan_id":"cebpf4jnsgd1na2vs0mg"},{"bike_id":"523d528a-80ef-4c0a-986f-e24abf3cd641","system_id":"levelo_inurba_marseille","lat":43.27307,"lon":5.39105,"is_reserved":false,"is_disabled":true,"rental_uris":{"android":"levelo://app?vid=523d528a-80ef-4c0a-986f-e24abf3cd641","ios":"levelo://app?vid=523d528a-80ef-4c0a-986f-e24abf3cd641"},"vehicle_type_id":"4","last_reported":1753107246,"current_range_meters":11200,"station_id":"ce4bhgp2rcd13ifvqfe0","pricing_plan_id":"cebpf4jnsgd1na2vs0mg"},{"bike_id":"0cb2c80a-7457-4a4a-ad92-f0361b5225d6","system_id":"levelo_inurba_marseille","lat":43.24413,"lon":5.37413,"is_reserved":false,"is_disabled":false,"rental_uris":{"android":"levelo://app?vid=0cb2c80a-7457-4a4a-ad92-f0361b5225d6","ios":"levelo://app?vid=0cb2c80a-7457-4a4a-ad92-f0361b5225d6"},"vehicle_type_id":"4","last_reported":1753107246,"current_range_meters":11200,"station_id":"","pricing_plan_id":"cebpf4jnsgd1na2vs0mg"},{"bike_id":"479ce482-fb2f-46c6-be33-a1ea441dee7f","system_id":"levelo_inurba_marseille","lat":43.2762,"lon":5.36111,"is_reserved":false,"is_disabled":false,"rental_uris":{"android":"levelo://app?vid=479ce482-fb2f-46c6-be33-a1ea441dee7f","ios":"levelo://app?vid=479ce482-fb2f-46c6-be33-a1ea441dee7f"},"vehicle_type_id":"4","last_reported":1753107246,"current_range_meters":10800,"station_id":"ce4bgj92rcd13ifvqbe0","pricing_plan_id":"cebpf4jnsgd1na2vs0mg"},{"bike_id":"89954574-8c17-4192-a9ff-7a3c7f4c8faa","system_id":"levelo_inurba_marseille","lat":43.280017,"lon":5.400193,"is_reserved":false,"is_disabled":false,"rental_uris":{"android":"levelo://app?vid=89954574-8c17-4192-a9ff-7a3c7f4c8faa","ios":"levelo://app?vid=89954574-8c17-4192-a9ff-7a3c7f4c8faa"},"vehicle_type_id":"4","last_reported":1753107246,"current_range_meters":11200,"station_id":"ce4bho92rcd13ifvqh4g","pricing_plan_id":"cebpf4jnsgd1na2vs0mg"},{"bike_id":"b29e2d14-59cb-4e3a-a7d7-249c735e0321","system_id":"levelo_inurba_marseille","lat":43.241735,"lon":5.364086,"is_reserved":false,"is_disabled":false,"rental_uris":{"android":"levelo://app?vid=b29e2d14-59cb-4e3a-a7d7-249c735e0321","ios":"levelo://app?vid=b29e2d14-59cb-4e3a-a7d7-249c735e0321"},"vehicle_type_id":"4","last_reported":1753107246,"current_range_meters":11600,"station_id":"cpo36qri1sfpv3e86is0","pricing_plan_id":"cebpf4jnsgd1na2vs0mg"},{"bike_id":"8285725c-b467-485e-8c94-b177b48b6325","system_id":"levelo_inurba_marseille","lat":43.2996,"lon":5.41317,"is_reserved":false,"is_disabled":false,"rental_uris":{"android":"levelo://app?vid=8285725c-b467-485e-8c94-b177b48b6325","ios":"levelo://app?vid=8285725c-b467-485e-8c94-b177b48b6325"},"vehicle_type_id":"4","last_reported":1753107246,"current_range_meters":11200,"station_id":"ce4bhp12rcd13ifvqh9g","pricing_plan_id":"cebpf4jnsgd1na2vs0mg"},{"bike_id":"e0ec9339-f555-43d0-997d-93a70685102e","system_id":"levelo_inurba_marseille","lat":43.2511,"lon":5.4032,"is_reserved":false,"is_disabled":false,"rental_uris":{"android":"levelo://app?vid=e0ec9339-f555-43d0-997d-93a70685102e","ios":"levelo://app?vid=e0ec9339-f555-43d0-997d-93a70685102e"},"vehicle_type_id":"4","last_reported":1753107246,"current_range_meters":11600,"station_id":"ce4bhlh2rcd13ifvqgig","pricing_plan_id":"cebpf4jnsgd1na2vs0mg"},{"bike_id":"e5313bfa-b442-4685-9100-d8d666e8caa3","system_id":"levelo_inurba_marseille","lat":43.26213,"lon":5.37438,"is_reserved":false,"is_disabled":false,"rental_uris":{"android":"levelo://app?vid=e5313bfa-b442-4685-9100-d8d666e8caa3","ios":"levelo://app?vid=e5313bfa-b442-4685-9100-d8d666e8caa3"},"vehicle_type_id":"4","last_reported":1753107246,"current_range_meters":11600,"station_id":"ce4bhgp2rcd13ifvqfc0","pricing_plan_id":"cebpf4jnsgd1na2vs0mg"},{"bike_id":"819d0834-cee1-4b2f-9b89-a76a3278c968","system_id":"levelo_inurba_marseille","lat":43.26213,"lon":5.37453,"is_reserved":false,"is_disabled":false,"rental_uris":{"android":"levelo://app?vid=819d0834-cee1-4b2f-9b89-a76a3278c968","ios":"levelo://app?vid=819d0834-cee1-4b2f-9b89-a76a3278c968"},"vehicle_type_id":"4","last_reported":1753107246,"current_range_meters":11600,"station_id":"ce4bhgp2rcd13ifvqfc0","pricing_plan_id":"cebpf4jnsgd1na2vs0mg"},{"bike_id":"4e5823ac-9313-4e20-81da-720a18c2dac7","system_id":"levelo_inurba_marseille","lat":43.32105,"lon":5.36757,"is_reserved":false,"is_disabled":false,"rental_uris":{"android":"levelo://app?vid=4e5823ac-9313-4e20-81da-720a18c2dac7","ios":"levelo://app?vid=4e5823ac-9313-4e20-81da-720a18c2dac7"},"vehicle_type_id":"4","last_reported":1753107246,"current_range_meters":11600,"station_id":"ce4bhrh2rcd13ifvqhug","pricing_plan_id":"cebpf4jnsgd1na2vs0mg"},{"bike_id":"5237bdd7-bd58-4632-9ad6-3c2d14f3be13","system_id":"levelo_inurba_marseille","lat":43.2707,"lon":5.42276,"is_reserved":false,"is_disabled":false,"rental_uris":{"android":"levelo://app?vid=5237bdd7-bd58-4632-9ad6-3c2d14f3be13","ios":"levelo://app?vid=5237bdd7-bd58-4632-9ad6-3c2d14f3be13"},"vehicle_type_id":"4","last_reported":1753107246,"current_range_meters":14000,"station_id":"ce4bhk92rcd13ifvqgb0","pricing_plan_id":"cebpf4jnsgd1na2vs0mg"},{"bike_id":"45479d48-d63f-4c5b-8d79-eb6bc23909a0","system_id":"levelo_inurba_marseille","lat":43.29621,"lon":5.37161,"is_reserved":false,"is_disabled":false,"rental_uris":{"android":"levelo://app?vid=45479d48-d63f-4c5b-8d79-eb6bc23909a0","ios":"levelo://app?vid=45479d48-d63f-4c5b-8d79-eb6bc23909a0"},"vehicle_type_id":"4","last_reported":1753107246,"current_range_meters":12400,"station_id":"ce4bgnh2rcd13ifvqc0g","pricing_plan_id":"cebpf4jnsgd1na2vs0mg"},{"bike_id":"7230cb4d-8cd2-4957-9d99-c27265ab6ce1","system_id":"levelo_inurba_marseille","lat":43.29299,"lon":5.37168,"is_reserved":false,"is_disabled":false,"rental_uris":{"android":"levelo://app?vid=7230cb4d-8cd2-4957-9d99-c27265ab6ce1","ios":"levelo://app?vid=7230cb4d-8cd2-4957-9d99-c27265ab6ce1"},"vehicle_type_id":"4","last_reported":1753107246,"current_range_meters":12400,"station_id":"","pricing_plan_id":"cebpf4jnsgd1na2vs0mg"},{"bike_id":"52fc553f-1e8c-4701-a604-31e90c76b1d4","system_id":"levelo_inurba_marseille","lat":43.31486,"lon":5.37287,"is_reserved":false,"is_disabled":false,"rental_uris":{"android":"levelo://app?vid=52fc553f-1e8c-4701-a604-31e90c76b1d4","ios":"levelo://app?vid=52fc553f-1e8c-4701-a604-31e90c76b1d4"},"vehicle_type_id":"4","last_reported":1753107246,"current_range_meters":12800,"station_id":"ce4bgt12rcd13ifvqcd0","pricing_plan_id":"cebpf4jnsgd1na2vs0mg"},{"bike_id":"7e3a69dc-c332-4b2b-a8ff-cb7b1fe1df10","system_id":"levelo_inurba_marseille","lat":43.21752,"lon":5.346,"is_reserved":false,"is_disabled":false,"rental_uris":{"android":"levelo://app?vid=7e3a69dc-c332-4b2b-a8ff-cb7b1fe1df10","ios":"levelo://app?vid=7e3a69dc-c332-4b2b-a8ff-cb7b1fe1df10"},"vehicle_type_id":"4","last_reported":1753107246,"current_range_meters":12800,"station_id":"st_cvj6r9ubvosntc0bgbag","pricing_plan_id":"cebpf4jnsgd1na2vs0mg"},{"bike_id":"00cf4179-7871-4ed7-853c-e44397be7171","system_id":"levelo_inurba_marseille","lat":43.2953,"lon":5.38534,"is_reserved":false,"is_disabled":false,"rental_uris":{"android":"levelo://app?vid=00cf4179-7871-4ed7-853c-e44397be7171","ios":"levelo://app?vid=00cf4179-7871-4ed7-853c-e44397be7171"},"vehicle_type_id":"4","last_reported":1753107246,"current_range_meters":12400,"station_id":"ce4bgih2rcd13ifvqba0","pricing_plan_id":"cebpf4jnsgd1na2vs0mg"},{"bike_id":"5a42e90a-94ef-4a1b-b43d-3c279f1b53e1","system_id":"levelo_inurba_marseille","lat":43.23191,"lon":5.3555,"is_reserved":false,"is_disabled":false,"rental_uris":{"android":"levelo://app?vid=5a42e90a-94ef-4a1b-b43d-3c279f1b53e1","ios":"levelo://app?vid=5a42e90a-94ef-4a1b-b43d-3c279f1b53e1"},"vehicle_type_id":"4","last_reported":1753107246,"current_range_meters":12800,"station_id":"ce4bhu92rcd13ifvqi70","pricing_plan_id":"cebpf4jnsgd1na2vs0mg"},{"bike_id":"07481afa-6635-4dc1-8a31-8a97247e4afb","system_id":"levelo_inurba_marseille","lat":43.21214,"lon":5.35065,"is_reserved":false,"is_disabled":false,"rental_uris":{"android":"levelo://app?vid=07481afa-6635-4dc1-8a31-8a97247e4afb","ios":"levelo://app?vid=07481afa-6635-4dc1-8a31-8a97247e4afb"},"vehicle_type_id":"4","last_reported":1753107246,"current_range_meters":13600,"station_id":"st_cvj6sg6p6f1abm77japg","pricing_plan_id":"cebpf4jnsgd1na2vs0mg"},{"bike_id":"1779b213-4182-4f71-859f-042636a5d049","system_id":"levelo_inurba_marseille","lat":43.304248,"lon":5.388925,"is_reserved":false,"is_disabled":false,"rental_uris":{"android":"levelo://app?vid=1779b213-4182-4f71-859f-042636a5d049","ios":"levelo://app?vid=1779b213-4182-4f71-859f-042636a5d049"},"vehicle_type_id":"4","last_reported":1753107246,"current_range_meters":13600,"station_id":"ce4bgk12rcd13ifvqbi0","pricing_plan_id":"cebpf4jnsgd1na2vs0mg"},{"bike_id":"0921f7df-2f57-4078-aed8-d9e6f4afda21","system_id":"levelo_inurba_marseille","lat":43.2416,"lon":5.36396,"is_reserved":false,"is_disabled":false,"rental_uris":{"android":"levelo://app?vid=0921f7df-2f57-4078-aed8-d9e6f4afda21","ios":"levelo://app?vid=0921f7df-2f57-4078-aed8-d9e6f4afda21"},"vehicle_type_id":"4","last_reported":1753107246,"current_range_meters":13600,"station_id":"cpo36qri1sfpv3e86is0","pricing_plan_id":"cebpf4jnsgd1na2vs0mg"},{"bike_id":"0ca31726-affa-4d23-89b6-6cea1b5c38be","system_id":"levelo_inurba_marseille","lat":43.26224,"lon":5.40443,"is_reserved":false,"is_disabled":false,"rental_uris":{"android":"levelo://app?vid=0ca31726-affa-4d23-89b6-6cea1b5c38be","ios":"levelo://app?vid=0ca31726-affa-4d23-89b6-6cea1b5c38be"},"vehicle_type_id":"4","last_reported":1753107246,"current_range_meters":13600,"station_id":"ce4bhmh2rcd13ifvqgmg","pricing_plan_id":"cebpf4jnsgd1na2vs0mg"},{"bike_id":"d2a9ef2a-3ecf-454e-ac8d-c81b3a196753","system_id":"levelo_inurba_marseille","lat":43.28623,"lon":5.3822,"is_reserved":false,"is_disabled":false,"rental_uris":{"android":"levelo://app?vid=d2a9ef2a-3ecf-454e-ac8d-c81b3a196753","ios":"levelo://app?vid=d2a9ef2a-3ecf-454e-ac8d-c81b3a196753"},"vehicle_type_id":"4","last_reported":1753107246,"current_range_meters":13600,"station_id":"","pricing_plan_id":"cebpf4jnsgd1na2vs0mg"},{"bike_id":"fc274a44-96ac-4090-b399-a172ca8a5d67","system_id":"levelo_inurba_marseille","lat":43.30434,"lon":5.39742,"is_reserved":false,"is_disabled":false,"rental_uris":{"android":"levelo://app?vid=fc274a44-96ac-4090-b399-a172ca8a5d67","ios":"levelo://app?vid=fc274a44-96ac-4090-b399-a172ca8a5d67"},"vehicle_type_id":"4","last_reported":1753107246,"current_range_meters":13600,"station_id":"ce4bh092rcd13ifvqd20","pricing_plan_id":"cebpf4jnsgd1na2vs0mg"},{"bike_id":"0cacba45-7875-4453-8ad8-62c9329fee21","system_id":"levelo_inurba_marseille","lat":43.30141,"lon":5.37419,"is_reserved":false,"is_disabled":false,"rental_uris":{"android":"levelo://app?vid=0cacba45-7875-4453-8ad8-62c9329fee21","ios":"levelo://app?vid=0cacba45-7875-4453-8ad8-62c9329fee21"},"vehicle_type_id":"4","last_reported":1753107246,"current_range_meters":13600,"station_id":"ce4bgs92rcd13ifvqcc0","pricing_plan_id":"cebpf4jnsgd1na2vs0mg"},{"bike_id":"8ec3987c-4e5e-4f67-aba7-96e36709e826","system_id":"levelo_inurba_marseille","lat":43.32731,"lon":5.4091,"is_reserved":false,"is_disabled":false,"rental_uris":{"android":"levelo://app?vid=8ec3987c-4e5e-4f67-aba7-96e36709e826","ios":"levelo://app?vid=8ec3987c-4e5e-4f67-aba7-96e36709e826"},"vehicle_type_id":"4","last_reported":1753107246,"current_range_meters":13600,"station_id":"","pricing_plan_id":"cebpf4jnsgd1na2vs0mg"},{"bike_id":"c695f162-6b42-40d7-8780-ed224e75f8e8","system_id":"levelo_inurba_marseille","lat":43.21414,"lon":5.34852,"is_reserved":false,"is_disabled":false,"rental_uris":{"android":"levelo://app?vid=c695f162-6b42-40d7-8780-ed224e75f8e8","ios":"levelo://app?vid=c695f162-6b42-40d7-8780-ed224e75f8e8"},"vehicle_type_id":"4","last_reported":1753107246,"current_range_meters":14000,"station_id":"","pricing_plan_id":"cebpf4jnsgd1na2vs0mg"},{"bike_id":"b0851b2d-68e2-4d18-8a9b-2ae3d7cce819","system_id":"levelo_inurba_marseille","lat":43.23192,"lon":5.35547,"is_reserved":false,"is_disabled":false,"rental_uris":{"android":"levelo://app?vid=b0851b2d-68e2-4d18-8a9b-2ae3d7cce819","ios":"levelo://app?vid=b0851b2d-68e2-4d18-8a9b-2ae3d7cce819"},"vehicle_type_id":"4","last_reported":1753107246,"current_range_meters":14000,"station_id":"ce4bhu92rcd13ifvqi70","pricing_plan_id":"cebpf4jnsgd1na2vs0mg"},{"bike_id":"8a8eb7e5-922d-4fe1-8e4a-44e72845240a","system_id":"levelo_inurba_marseille","lat":43.27364,"lon":5.36248,"is_reserved":false,"is_disabled":false,"rental_uris":{"android":"levelo://app?vid=8a8eb7e5-922d-4fe1-8e4a-44e72845240a","ios":"levelo://app?vid=8a8eb7e5-922d-4fe1-8e4a-44e72845240a"},"vehicle_type_id":"4","last_reported":1753107246,"current_range_meters":14000,"station_id":"ce4bhbh2rcd13ifvqeo0","pricing_plan_id":"cebpf4jnsgd1na2vs0mg"},{"bike_id":"c2dc1d85-bbc9-4a9c-a5f5-4b66d08bf26b","system_id":"levelo_inurba_marseille","lat":43.28417,"lon":5.34982,"is_reserved":false,"is_disabled":false,"rental_uris":{"android":"levelo://app?vid=c2dc1d85-bbc9-4a9c-a5f5-4b66d08bf26b","ios":"levelo://app?vid=c2dc1d85-bbc9-4a9c-a5f5-4b66d08bf26b"},"vehicle_type_id":"4","last_reported":1753107246,"current_range_meters":14400,"station_id":"ce4bhbh2rcd13ifvqepg","pricing_plan_id":"cebpf4jnsgd1na2vs0mg"},{"bike_id":"9c838529-2f8d-4cf1-ba58-27067ac84219","system_id":"levelo_inurba_marseille","lat":43.24163,"lon":5.36411,"is_reserved":false,"is_disabled":false,"rental_uris":{"android":"levelo://app?vid=9c838529-2f8d-4cf1-ba58-27067ac84219","ios":"levelo://app?vid=9c838529-2f8d-4cf1-ba58-27067ac84219"},"vehicle_type_id":"4","last_reported":1753107246,"current_range_meters":14400,"station_id":"cpo36qri1sfpv3e86is0","pricing_plan_id":"cebpf4jnsgd1na2vs0mg"},{"bike_id":"ac49738a-4d4f-43d3-9c67-46980e61ae95","system_id":"levelo_inurba_marseille","lat":43.31729,"lon":5.37654,"is_reserved":false,"is_disabled":false,"rental_uris":{"android":"levelo://app?vid=ac49738a-4d4f-43d3-9c67-46980e61ae95","ios":"levelo://app?vid=ac49738a-4d4f-43d3-9c67-46980e61ae95"},"vehicle_type_id":"4","last_reported":1753107246,"current_range_meters":14400,"station_id":"","pricing_plan_id":"cebpf4jnsgd1na2vs0mg"},{"bike_id":"64318f78-93b0-43f9-b7d1-fef3103d94ab","system_id":"levelo_inurba_marseille","lat":43.26741,"lon":5.39503,"is_reserved":false,"is_disabled":false,"rental_uris":{"android":"levelo://app?vid=64318f78-93b0-43f9-b7d1-fef3103d94ab","ios":"levelo://app?vid=64318f78-93b0-43f9-b7d1-fef3103d94ab"},"vehicle_type_id":"4","last_reported":1753107246,"current_range_meters":14400,"station_id":"","pricing_plan_id":"cebpf4jnsgd1na2vs0mg"},{"bike_id":"9f12a5cf-3689-47b5-9168-a495273e84c9","system_id":"levelo_inurba_marseille","lat":43.29941,"lon":5.38613,"is_reserved":false,"is_disabled":false,"rental_uris":{"android":"levelo://app?vid=9f12a5cf-3689-47b5-9168-a495273e84c9","ios":"levelo://app?vid=9f12a5cf-3689-47b5-9168-a495273e84c9"},"vehicle_type_id":"4","last_reported":1753107246,"current_range_meters":14800,"station_id":"","pricing_plan_id":"cebpf4jnsgd1na2vs0mg"},{"bike_id":"3117258b-a0b2-4038-960e-7505313a6719","system_id":"levelo_inurba_marseille","lat":43.32102,"lon":5.36794,"is_reserved":false,"is_disabled":false,"rental_uris":{"android":"levelo://app?vid=3117258b-a0b2-4038-960e-7505313a6719","ios":"levelo://app?vid=3117258b-a0b2-4038-960e-7505313a6719"},"vehicle_type_id":"4","last_reported":1753107246,"current_range_meters":14800,"station_id":"ce4bhrh2rcd13ifvqhug","pricing_plan_id":"cebpf4jnsgd1na2vs0mg"},{"bike_id":"545d99d7-6f42-40ce-b244-1c2376ed3ebf","system_id":"levelo_inurba_marseille","lat":43.28405,"lon":5.34979,"is_reserved":false,"is_disabled":false,"rental_uris":{"android":"levelo://app?vid=545d99d7-6f42-40ce-b244-1c2376ed3ebf","ios":"levelo://app?vid=545d99d7-6f42-40ce-b244-1c2376ed3ebf"},"vehicle_type_id":"4","last_reported":1753107246,"current_range_meters":14800,"station_id":"ce4bhbh2rcd13ifvqepg","pricing_plan_id":"cebpf4jnsgd1na2vs0mg"},{"bike_id":"02bda465-5730-4d42-a0d1-5ffc89217a3f","system_id":"levelo_inurba_marseille","lat":43.28258,"lon":5.35066,"is_reserved":false,"is_disabled":false,"rental_uris":{"android":"levelo://app?vid=02bda465-5730-4d42-a0d1-5ffc89217a3f","ios":"levelo://app?vid=02bda465-5730-4d42-a0d1-5ffc89217a3f"},"vehicle_type_id":"4","last_reported":1753107246,"current_range_meters":14800,"station_id":"","pricing_plan_id":"cebpf4jnsgd1na2vs0mg"},{"bike_id":"b6e76832-b199-4086-875c-717f2f30f739","system_id":"levelo_inurba_marseille","lat":43.24166,"lon":5.36402,"is_reserved":false,"is_disabled":false,"rental_uris":{"android":"levelo://app?vid=b6e76832-b199-4086-875c-717f2f30f739","ios":"levelo://app?vid=b6e76832-b199-4086-875c-717f2f30f739"},"vehicle_type_id":"4","last_reported":1753107246,"current_range_meters":14800,"station_id":"cpo36qri1sfpv3e86is0","pricing_plan_id":"cebpf4jnsgd1na2vs0mg"},{"bike_id":"f0d8d162-6040-4d04-bf93-cf5be6be6485","system_id":"levelo_inurba_marseille","lat":43.24389,"lon":5.37054,"is_reserved":false,"is_disabled":false,"rental_uris":{"android":"levelo://app?vid=f0d8d162-6040-4d04-bf93-cf5be6be6485","ios":"levelo://app?vid=f0d8d162-6040-4d04-bf93-cf5be6be6485"},"vehicle_type_id":"4","last_reported":1753107246,"current_range_meters":14800,"station_id":"ce4bhhh2rcd13ifvqfk0","pricing_plan_id":"cebpf4jnsgd1na2vs0mg"},{"bike_id":"10d3d53d-ab5f-4d69-a7f5-4d94dfb281ea","system_id":"levelo_inurba_marseille","lat":43.29591,"lon":5.38098,"is_reserved":false,"is_disabled":false,"rental_uris":{"android":"levelo://app?vid=10d3d53d-ab5f-4d69-a7f5-4d94dfb281ea","ios":"levelo://app?vid=10d3d53d-ab5f-4d69-a7f5-4d94dfb281ea"},"vehicle_type_id":"4","last_reported":1753107246,"current_range_meters":14800,"station_id":"ce4bgl12rcd13ifvqbo0","pricing_plan_id":"cebpf4jnsgd1na2vs0mg"},{"bike_id":"43f3b61f-e0dd-45bb-8878-96ad2b2b0d21","system_id":"levelo_inurba_marseille","lat":43.2794,"lon":5.41044,"is_reserved":false,"is_disabled":false,"rental_uris":{"android":"levelo://app?vid=43f3b61f-e0dd-45bb-8878-96ad2b2b0d21","ios":"levelo://app?vid=43f3b61f-e0dd-45bb-8878-96ad2b2b0d21"},"vehicle_type_id":"4","last_reported":1753107246,"current_range_meters":14800,"station_id":"ce4bhnp2rcd13ifvqh0g","pricing_plan_id":"cebpf4jnsgd1na2vs0mg"},{"bike_id":"8a73538a-bac1-4636-ac5a-8d85e003f8c8","system_id":"levelo_inurba_marseille","lat":43.32649,"lon":5.40989,"is_reserved":false,"is_disabled":false,"rental_uris":{"android":"levelo://app?vid=8a73538a-bac1-4636-ac5a-8d85e003f8c8","ios":"levelo://app?vid=8a73538a-bac1-4636-ac5a-8d85e003f8c8"},"vehicle_type_id":"4","last_reported":1753107246,"current_range_meters":11200,"station_id":"ce4bhpp2rcd13ifvqhgg","pricing_plan_id":"cebpf4jnsgd1na2vs0mg"},{"bike_id":"a396a873-2939-4b54-918d-c86e94ae0964","system_id":"levelo_inurba_marseille","lat":43.28262,"lon":5.35068,"is_reserved":false,"is_disabled":false,"rental_uris":{"android":"levelo://app?vid=a396a873-2939-4b54-918d-c86e94ae0964","ios":"levelo://app?vid=a396a873-2939-4b54-918d-c86e94ae0964"},"vehicle_type_id":"4","last_reported":1753107246,"current_range_meters":15200,"station_id":"ce4bhbp2rcd13ifvqerg","pricing_plan_id":"cebpf4jnsgd1na2vs0mg"},{"bike_id":"68ad25bf-3ce4-4219-aae6-b4b4ca3df214","system_id":"levelo_inurba_marseille","lat":43.22501,"lon":5.3479,"is_reserved":false,"is_disabled":false,"rental_uris":{"android":"levelo://app?vid=68ad25bf-3ce4-4219-aae6-b4b4ca3df214","ios":"levelo://app?vid=68ad25bf-3ce4-4219-aae6-b4b4ca3df214"},"vehicle_type_id":"4","last_reported":1753107246,"current_range_meters":15200,"station_id":"st_cvj5dfep6f1abm77gieg","pricing_plan_id":"cebpf4jnsgd1na2vs0mg"},{"bike_id":"42c6daca-a04f-4385-b335-d79919ebfbf3","system_id":"levelo_inurba_marseille","lat":43.32484,"lon":5.36568,"is_reserved":false,"is_disabled":false,"rental_uris":{"android":"levelo://app?vid=42c6daca-a04f-4385-b335-d79919ebfbf3","ios":"levelo://app?vid=42c6daca-a04f-4385-b335-d79919ebfbf3"},"vehicle_type_id":"4","last_reported":1753107246,"current_range_meters":15200,"station_id":"ce4bhs12rcd13ifvqhvg","pricing_plan_id":"cebpf4jnsgd1na2vs0mg"},{"bike_id":"a60a4ede-7530-49cb-9e05-72dc1babd125","system_id":"levelo_inurba_marseille","lat":43.23959,"lon":5.36626,"is_reserved":false,"is_disabled":false,"rental_uris":{"android":"levelo://app?vid=a60a4ede-7530-49cb-9e05-72dc1babd125","ios":"levelo://app?vid=a60a4ede-7530-49cb-9e05-72dc1babd125"},"vehicle_type_id":"4","last_reported":1753107246,"current_range_meters":15200,"station_id":"ce4bhi12rcd13ifvqfp0","pricing_plan_id":"cebpf4jnsgd1na2vs0mg"},{"bike_id":"d778a561-0abe-4676-9dca-d85a214615cb","system_id":"levelo_inurba_marseille","lat":43.337694,"lon":5.374249,"is_reserved":false,"is_disabled":false,"rental_uris":{"android":"levelo://app?vid=d778a561-0abe-4676-9dca-d85a214615cb","ios":"levelo://app?vid=d778a561-0abe-4676-9dca-d85a214615cb"},"vehicle_type_id":"4","last_reported":1753107246,"current_range_meters":16000,"station_id":"","pricing_plan_id":"cebpf4jnsgd1na2vs0mg"},{"bike_id":"c4ddf749-008b-4a14-af16-f3a13a431402","system_id":"levelo_inurba_marseille","lat":43.21217,"lon":5.35055,"is_reserved":false,"is_disabled":false,"rental_uris":{"android":"levelo://app?vid=c4ddf749-008b-4a14-af16-f3a13a431402","ios":"levelo://app?vid=c4ddf749-008b-4a14-af16-f3a13a431402"},"vehicle_type_id":"4","last_reported":1753107246,"current_range_meters":16000,"station_id":"st_cvj6sg6p6f1abm77japg","pricing_plan_id":"cebpf4jnsgd1na2vs0mg"},{"bike_id":"736f95e3-fd06-405d-9353-8765373539d0","system_id":"levelo_inurba_marseille","lat":43.28608,"lon":5.35108,"is_reserved":false,"is_disabled":false,"rental_uris":{"android":"levelo://app?vid=736f95e3-fd06-405d-9353-8765373539d0","ios":"levelo://app?vid=736f95e3-fd06-405d-9353-8765373539d0"},"vehicle_type_id":"4","last_reported":1753107246,"current_range_meters":16000,"station_id":"ce4bhch2rcd13ifvqeug","pricing_plan_id":"cebpf4jnsgd1na2vs0mg"},{"bike_id":"96e48d28-168f-4543-9328-a4bf44e820ec","system_id":"levelo_inurba_marseille","lat":43.26229,"lon":5.37426,"is_reserved":false,"is_disabled":false,"rental_uris":{"android":"levelo://app?vid=96e48d28-168f-4543-9328-a4bf44e820ec","ios":"levelo://app?vid=96e48d28-168f-4543-9328-a4bf44e820ec"},"vehicle_type_id":"4","last_reported":1753107246,"current_range_meters":16000,"station_id":"ce4bhgp2rcd13ifvqfc0","pricing_plan_id":"cebpf4jnsgd1na2vs0mg"},{"bike_id":"9c3a4b2d-b63e-4143-9015-8c998eae265c","system_id":"levelo_inurba_marseille","lat":43.29552,"lon":5.42287,"is_reserved":false,"is_disabled":false,"rental_uris":{"android":"levelo://app?vid=9c3a4b2d-b63e-4143-9015-8c998eae265c","ios":"levelo://app?vid=9c3a4b2d-b63e-4143-9015-8c998eae265c"},"vehicle_type_id":"4","last_reported":1753107246,"current_range_meters":16000,"station_id":"ce4bhph2rcd13ifvqhdg","pricing_plan_id":"cebpf4jnsgd1na2vs0mg"},{"bike_id":"ecdfd721-9355-47ec-bb72-adc3ee5af59a","system_id":"levelo_inurba_marseille","lat":43.27193,"lon":5.40968,"is_reserved":false,"is_disabled":false,"rental_uris":{"android":"levelo://app?vid=ecdfd721-9355-47ec-bb72-adc3ee5af59a","ios":"levelo://app?vid=ecdfd721-9355-47ec-bb72-adc3ee5af59a"},"vehicle_type_id":"4","last_reported":1753107246,"current_range_meters":16000,"station_id":"ce4bhl12rcd13ifvqgf0","pricing_plan_id":"cebpf4jnsgd1na2vs0mg"},{"bike_id":"1c22819b-ef69-41c3-af80-068c7a58af48","system_id":"levelo_inurba_marseille","lat":43.32132,"lon":5.36782,"is_reserved":false,"is_disabled":false,"rental_uris":{"android":"levelo://app?vid=1c22819b-ef69-41c3-af80-068c7a58af48","ios":"levelo://app?vid=1c22819b-ef69-41c3-af80-068c7a58af48"},"vehicle_type_id":"4","last_reported":1753107246,"current_range_meters":16000,"station_id":"ce4bhrh2rcd13ifvqhug","pricing_plan_id":"cebpf4jnsgd1na2vs0mg"},{"bike_id":"c3901ec0-1229-4631-bcf1-238232393337","system_id":"levelo_inurba_marseille","lat":43.29692,"lon":5.37281,"is_reserved":false,"is_disabled":false,"rental_uris":{"android":"levelo://app?vid=c3901ec0-1229-4631-bcf1-238232393337","ios":"levelo://app?vid=c3901ec0-1229-4631-bcf1-238232393337"},"vehicle_type_id":"4","last_reported":1753107246,"current_range_meters":16000,"station_id":"ce4bgk12rcd13ifvqbj0","pricing_plan_id":"cebpf4jnsgd1na2vs0mg"},{"bike_id":"1d5aee7d-e6a6-410e-a6d4-4539731cae9a","system_id":"levelo_inurba_marseille","lat":43.27944,"lon":5.41035,"is_reserved":false,"is_disabled":false,"rental_uris":{"android":"levelo://app?vid=1d5aee7d-e6a6-410e-a6d4-4539731cae9a","ios":"levelo://app?vid=1d5aee7d-e6a6-410e-a6d4-4539731cae9a"},"vehicle_type_id":"4","last_reported":1753107246,"current_range_meters":16400,"station_id":"ce4bhnp2rcd13ifvqh0g","pricing_plan_id":"cebpf4jnsgd1na2vs0mg"},{"bike_id":"37eb163c-27b6-4f21-8e81-022abe2385c0","system_id":"levelo_inurba_marseille","lat":43.2842,"lon":5.34994,"is_reserved":false,"is_disabled":false,"rental_uris":{"android":"levelo://app?vid=37eb163c-27b6-4f21-8e81-022abe2385c0","ios":"levelo://app?vid=37eb163c-27b6-4f21-8e81-022abe2385c0"},"vehicle_type_id":"4","last_reported":1753107246,"current_range_meters":16400,"station_id":"ce4bhbh2rcd13ifvqepg","pricing_plan_id":"cebpf4jnsgd1na2vs0mg"},{"bike_id":"4faa3c8e-9b5a-4d55-aebc-2e52610bf132","system_id":"levelo_inurba_marseille","lat":43.3262,"lon":5.42355,"is_reserved":false,"is_disabled":false,"rental_uris":{"android":"levelo://app?vid=4faa3c8e-9b5a-4d55-aebc-2e52610bf132","ios":"levelo://app?vid=4faa3c8e-9b5a-4d55-aebc-2e52610bf132"},"vehicle_type_id":"4","last_reported":1753107246,"current_range_meters":16400,"station_id":"","pricing_plan_id":"cebpf4jnsgd1na2vs0mg"},{"bike_id":"01687e99-7702-4009-92cc-a8f70454a54a","system_id":"levelo_inurba_marseille","lat":43.304308,"lon":5.388945,"is_reserved":false,"is_disabled":false,"rental_uris":{"android":"levelo://app?vid=01687e99-7702-4009-92cc-a8f70454a54a","ios":"levelo://app?vid=01687e99-7702-4009-92cc-a8f70454a54a"},"vehicle_type_id":"4","last_reported":1753107246,"current_range_meters":16000,"station_id":"ce4bgk12rcd13ifvqbi0","pricing_plan_id":"cebpf4jnsgd1na2vs0mg"},{"bike_id":"8423e589-47bf-47a8-b90f-452fc938c46b","system_id":"levelo_inurba_marseille","lat":43.32363,"lon":5.36733,"is_reserved":false,"is_disabled":false,"rental_uris":{"android":"levelo://app?vid=8423e589-47bf-47a8-b90f-452fc938c46b","ios":"levelo://app?vid=8423e589-47bf-47a8-b90f-452fc938c46b"},"vehicle_type_id":"4","last_reported":1753107246,"current_range_meters":16400,"station_id":"ce4bhsh2rcd13ifvqi2g","pricing_plan_id":"cebpf4jnsgd1na2vs0mg"},{"bike_id":"50d16da1-39af-48c8-9080-8fc1a2184959","system_id":"levelo_inurba_marseille","lat":43.21189,"lon":5.3507,"is_reserved":false,"is_disabled":false,"rental_uris":{"android":"levelo://app?vid=50d16da1-39af-48c8-9080-8fc1a2184959","ios":"levelo://app?vid=50d16da1-39af-48c8-9080-8fc1a2184959"},"vehicle_type_id":"4","last_reported":1753107246,"current_range_meters":16400,"station_id":"st_cvj6sg6p6f1abm77japg","pricing_plan_id":"cebpf4jnsgd1na2vs0mg"},{"bike_id":"71acd3d2-29dd-406d-a079-b26eec8b8a47","system_id":"levelo_inurba_marseille","lat":43.28458,"lon":5.35889,"is_reserved":false,"is_disabled":false,"rental_uris":{"android":"levelo://app?vid=71acd3d2-29dd-406d-a079-b26eec8b8a47","ios":"levelo://app?vid=71acd3d2-29dd-406d-a079-b26eec8b8a47"},"vehicle_type_id":"4","last_reported":1753107246,"current_range_meters":17200,"station_id":"ce4bhah2rcd13ifvqei0","pricing_plan_id":"cebpf4jnsgd1na2vs0mg"},{"bike_id":"85b008dd-0f9f-4205-aa28-4f549082c3e6","system_id":"levelo_inurba_marseille","lat":43.21202,"lon":5.35058,"is_reserved":false,"is_disabled":false,"rental_uris":{"android":"levelo://app?vid=85b008dd-0f9f-4205-aa28-4f549082c3e6","ios":"levelo://app?vid=85b008dd-0f9f-4205-aa28-4f549082c3e6"},"vehicle_type_id":"4","last_reported":1753107246,"current_range_meters":16800,"station_id":"st_cvj6sg6p6f1abm77japg","pricing_plan_id":"cebpf4jnsgd1na2vs0mg"},{"bike_id":"5526d803-ee1d-4108-9587-051d0c7c90e7","system_id":"levelo_inurba_marseille","lat":43.2979,"lon":5.3809,"is_reserved":false,"is_disabled":false,"rental_uris":{"android":"levelo://app?vid=5526d803-ee1d-4108-9587-051d0c7c90e7","ios":"levelo://app?vid=5526d803-ee1d-4108-9587-051d0c7c90e7"},"vehicle_type_id":"4","last_reported":1753107246,"current_range_meters":16800,"station_id":"ce4bgip2rcd13ifvqbb0","pricing_plan_id":"cebpf4jnsgd1na2vs0mg"},{"bike_id":"8ff95b57-7279-4c28-a8db-d898e9db8585","system_id":"levelo_inurba_marseille","lat":43.26792,"lon":5.39419,"is_reserved":false,"is_disabled":false,"rental_uris":{"android":"levelo://app?vid=8ff95b57-7279-4c28-a8db-d898e9db8585","ios":"levelo://app?vid=8ff95b57-7279-4c28-a8db-d898e9db8585"},"vehicle_type_id":"4","last_reported":1753107246,"current_range_meters":16800,"station_id":"ce4bhh12rcd13ifvqfg0","pricing_plan_id":"cebpf4jnsgd1na2vs0mg"},{"bike_id":"4c94a550-6a1d-46ba-b9ea-83df30fd5195","system_id":"levelo_inurba_marseille","lat":43.21747,"lon":5.346,"is_reserved":false,"is_disabled":false,"rental_uris":{"android":"levelo://app?vid=4c94a550-6a1d-46ba-b9ea-83df30fd5195","ios":"levelo://app?vid=4c94a550-6a1d-46ba-b9ea-83df30fd5195"},"vehicle_type_id":"4","last_reported":1753107246,"current_range_meters":16800,"station_id":"st_cvj6r9ubvosntc0bgbag","pricing_plan_id":"cebpf4jnsgd1na2vs0mg"},{"bike_id":"e57606de-d549-4a50-8b75-91216215a181","system_id":"levelo_inurba_marseille","lat":43.27492,"lon":5.4245,"is_reserved":false,"is_disabled":true,"rental_uris":{"android":"levelo://app?vid=e57606de-d549-4a50-8b75-91216215a181","ios":"levelo://app?vid=e57606de-d549-4a50-8b75-91216215a181"},"vehicle_type_id":"4","last_reported":1753107246,"current_range_meters":16800,"station_id":"ce4bhn92rcd13ifvqgrg","pricing_plan_id":"cebpf4jnsgd1na2vs0mg"},{"bike_id":"d9bc54e3-567e-4ef1-abc5-6db3f52ce8cd","system_id":"levelo_inurba_marseille","lat":43.28457,"lon":5.385311,"is_reserved":false,"is_disabled":false,"rental_uris":{"android":"levelo://app?vid=d9bc54e3-567e-4ef1-abc5-6db3f52ce8cd","ios":"levelo://app?vid=d9bc54e3-567e-4ef1-abc5-6db3f52ce8cd"},"vehicle_type_id":"4","last_reported":1753107246,"current_range_meters":16800,"station_id":"ce4bh8p2rcd13ifvqeb0","pricing_plan_id":"cebpf4jnsgd1na2vs0mg"},{"bike_id":"70192f99-f1b3-4ab3-a4df-9f1b2d0930ed","system_id":"levelo_inurba_marseille","lat":43.29713,"lon":5.37697,"is_reserved":false,"is_disabled":false,"rental_uris":{"android":"levelo://app?vid=70192f99-f1b3-4ab3-a4df-9f1b2d0930ed","ios":"levelo://app?vid=70192f99-f1b3-4ab3-a4df-9f1b2d0930ed"},"vehicle_type_id":"4","last_reported":1753107246,"current_range_meters":16800,"station_id":"ce4bgkh2rcd13ifvqbl0","pricing_plan_id":"cebpf4jnsgd1na2vs0mg"},{"bike_id":"6ecd5a2b-6dae-44b3-a162-e5286af43d43","system_id":"levelo_inurba_marseille","lat":43.22535,"lon":5.34785,"is_reserved":false,"is_disabled":false,"rental_uris":{"android":"levelo://app?vid=6ecd5a2b-6dae-44b3-a162-e5286af43d43","ios":"levelo://app?vid=6ecd5a2b-6dae-44b3-a162-e5286af43d43"},"vehicle_type_id":"4","last_reported":1753107246,"current_range_meters":16800,"station_id":"st_cvj5dfep6f1abm77gieg","pricing_plan_id":"cebpf4jnsgd1na2vs0mg"},{"bike_id":"2d6095ea-f882-494d-a187-fa879408181e","system_id":"levelo_inurba_marseille","lat":43.25201,"lon":5.37347,"is_reserved":false,"is_disabled":false,"rental_uris":{"android":"levelo://app?vid=2d6095ea-f882-494d-a187-fa879408181e","ios":"levelo://app?vid=2d6095ea-f882-494d-a187-fa879408181e"},"vehicle_type_id":"4","last_reported":1753107246,"current_range_meters":16800,"station_id":"","pricing_plan_id":"cebpf4jnsgd1na2vs0mg"},{"bike_id":"8921ce94-3310-4813-a66c-72bebc48747f","system_id":"levelo_inurba_marseille","lat":43.29554,"lon":5.42292,"is_reserved":false,"is_disabled":false,"rental_uris":{"android":"levelo://app?vid=8921ce94-3310-4813-a66c-72bebc48747f","ios":"levelo://app?vid=8921ce94-3310-4813-a66c-72bebc48747f"},"vehicle_type_id":"4","last_reported":1753107246,"current_range_meters":17200,"station_id":"ce4bhph2rcd13ifvqhdg","pricing_plan_id":"cebpf4jnsgd1na2vs0mg"},{"bike_id":"298d7476-28c7-4c61-8302-df95a7d5d3d6","system_id":"levelo_inurba_marseille","lat":43.22507,"lon":5.34774,"is_reserved":false,"is_disabled":false,"rental_uris":{"android":"levelo://app?vid=298d7476-28c7-4c61-8302-df95a7d5d3d6","ios":"levelo://app?vid=298d7476-28c7-4c61-8302-df95a7d5d3d6"},"vehicle_type_id":"4","last_reported":1753107246,"current_range_meters":17200,"station_id":"st_cvj5dfep6f1abm77gieg","pricing_plan_id":"cebpf4jnsgd1na2vs0mg"},{"bike_id":"b6191c96-af83-462f-a3cc-e4778a781fff","system_id":"levelo_inurba_marseille","lat":43.2121,"lon":5.35073,"is_reserved":false,"is_disabled":false,"rental_uris":{"android":"levelo://app?vid=b6191c96-af83-462f-a3cc-e4778a781fff","ios":"levelo://app?vid=b6191c96-af83-462f-a3cc-e4778a781fff"},"vehicle_type_id":"4","last_reported":1753107246,"current_range_meters":17200,"station_id":"st_cvj6sg6p6f1abm77japg","pricing_plan_id":"cebpf4jnsgd1na2vs0mg"},{"bike_id":"c56f0310-e733-4877-846c-06c792a78914","system_id":"levelo_inurba_marseille","lat":43.29295,"lon":5.37176,"is_reserved":false,"is_disabled":false,"rental_uris":{"android":"levelo://app?vid=c56f0310-e733-4877-846c-06c792a78914","ios":"levelo://app?vid=c56f0310-e733-4877-846c-06c792a78914"},"vehicle_type_id":"4","last_reported":1753107246,"current_range_meters":17200,"station_id":"ce4bgh92rcd13ifvqb40","pricing_plan_id":"cebpf4jnsgd1na2vs0mg"},{"bike_id":"1b7bae2b-e58b-421b-88fb-afd1c833b87b","system_id":"levelo_inurba_marseille","lat":43.21197,"lon":5.350664,"is_reserved":false,"is_disabled":false,"rental_uris":{"android":"levelo://app?vid=1b7bae2b-e58b-421b-88fb-afd1c833b87b","ios":"levelo://app?vid=1b7bae2b-e58b-421b-88fb-afd1c833b87b"},"vehicle_type_id":"4","last_reported":1753107246,"current_range_meters":17200,"station_id":"st_cvj6sg6p6f1abm77japg","pricing_plan_id":"cebpf4jnsgd1na2vs0mg"},{"bike_id":"d889dd74-e967-44e4-9d99-495daa54d769","system_id":"levelo_inurba_marseille","lat":43.25497,"lon":5.37648,"is_reserved":false,"is_disabled":false,"rental_uris":{"android":"levelo://app?vid=d889dd74-e967-44e4-9d99-495daa54d769","ios":"levelo://app?vid=d889dd74-e967-44e4-9d99-495daa54d769"},"vehicle_type_id":"4","last_reported":1753107246,"current_range_meters":17200,"station_id":"ce4bhh12rcd13ifvqff0","pricing_plan_id":"cebpf4jnsgd1na2vs0mg"},{"bike_id":"813fdfa8-f8b2-4366-9cff-b1cb15aca41c","system_id":"levelo_inurba_marseille","lat":43.26367,"lon":5.42123,"is_reserved":false,"is_disabled":false,"rental_uris":{"android":"levelo://app?vid=813fdfa8-f8b2-4366-9cff-b1cb15aca41c","ios":"levelo://app?vid=813fdfa8-f8b2-4366-9cff-b1cb15aca41c"},"vehicle_type_id":"4","last_reported":1753107246,"current_range_meters":17200,"station_id":"","pricing_plan_id":"cebpf4jnsgd1na2vs0mg"},{"bike_id":"51931bf6-1eb4-445c-8f29-98888cfaefc7","system_id":"levelo_inurba_marseille","lat":43.29424,"lon":5.39865,"is_reserved":false,"is_disabled":false,"rental_uris":{"android":"levelo://app?vid=51931bf6-1eb4-445c-8f29-98888cfaefc7","ios":"levelo://app?vid=51931bf6-1eb4-445c-8f29-98888cfaefc7"},"vehicle_type_id":"4","last_reported":1753107246,"current_range_meters":17200,"station_id":"","pricing_plan_id":"cebpf4jnsgd1na2vs0mg"},{"bike_id":"a5d420c1-6f63-4560-9fe2-e08db2c4fecb","system_id":"levelo_inurba_marseille","lat":43.21239,"lon":5.35121,"is_reserved":false,"is_disabled":false,"rental_uris":{"android":"levelo://app?vid=a5d420c1-6f63-4560-9fe2-e08db2c4fecb","ios":"levelo://app?vid=a5d420c1-6f63-4560-9fe2-e08db2c4fecb"},"vehicle_type_id":"4","last_reported":1753107246,"current_range_meters":17200,"station_id":"","pricing_plan_id":"cebpf4jnsgd1na2vs0mg"},{"bike_id":"91faf937-6768-4101-98da-411036d125c4","system_id":"levelo_inurba_marseille","lat":43.22943,"lon":5.35473,"is_reserved":false,"is_disabled":false,"rental_uris":{"android":"levelo://app?vid=91faf937-6768-4101-98da-411036d125c4","ios":"levelo://app?vid=91faf937-6768-4101-98da-411036d125c4"},"vehicle_type_id":"4","last_reported":1753107246,"current_range_meters":17200,"station_id":"cpo3532slgdg3j2ikp40","pricing_plan_id":"cebpf4jnsgd1na2vs0mg"},{"bike_id":"1ef2503f-ea41-4c4a-a986-942aff558f83","system_id":"levelo_inurba_marseille","lat":43.31754,"lon":5.40453,"is_reserved":false,"is_disabled":false,"rental_uris":{"android":"levelo://app?vid=1ef2503f-ea41-4c4a-a986-942aff558f83","ios":"levelo://app?vid=1ef2503f-ea41-4c4a-a986-942aff558f83"},"vehicle_type_id":"4","last_reported":1753107246,"current_range_meters":17200,"station_id":"","pricing_plan_id":"cebpf4jnsgd1na2vs0mg"},{"bike_id":"ccb3a2c1-5335-4346-b5bb-08cb08061e0e","system_id":"levelo_inurba_marseille","lat":43.297777,"lon":5.381044,"is_reserved":false,"is_disabled":true,"rental_uris":{"android":"levelo://app?vid=ccb3a2c1-5335-4346-b5bb-08cb08061e0e","ios":"levelo://app?vid=ccb3a2c1-5335-4346-b5bb-08cb08061e0e"},"vehicle_type_id":"4","last_reported":1753107246,"current_range_meters":17200,"station_id":"ce4bgip2rcd13ifvqbb0","pricing_plan_id":"cebpf4jnsgd1na2vs0mg"},{"bike_id":"76e8a4c7-1966-4c02-a21a-c2d4f4e224d8","system_id":"levelo_inurba_marseille","lat":43.29251,"lon":5.37619,"is_reserved":false,"is_disabled":true,"rental_uris":{"android":"levelo://app?vid=76e8a4c7-1966-4c02-a21a-c2d4f4e224d8","ios":"levelo://app?vid=76e8a4c7-1966-4c02-a21a-c2d4f4e224d8"},"vehicle_type_id":"4","last_reported":1753107246,"current_range_meters":17600,"station_id":"ce4bgi12rcd13ifvqb80","pricing_plan_id":"cebpf4jnsgd1na2vs0mg"},{"bike_id":"3fb96fc8-d5fa-4cf5-a8ad-367ac5eda46c","system_id":"levelo_inurba_marseille","lat":43.32545,"lon":5.41423,"is_reserved":false,"is_disabled":false,"rental_uris":{"android":"levelo://app?vid=3fb96fc8-d5fa-4cf5-a8ad-367ac5eda46c","ios":"levelo://app?vid=3fb96fc8-d5fa-4cf5-a8ad-367ac5eda46c"},"vehicle_type_id":"4","last_reported":1753107246,"current_range_meters":17600,"station_id":"ce4bhq12rcd13ifvqhhg","pricing_plan_id":"cebpf4jnsgd1na2vs0mg"},{"bike_id":"740b7423-7a27-4daa-9991-c3141fb84b3f","system_id":"levelo_inurba_marseille","lat":43.27191,"lon":5.40977,"is_reserved":false,"is_disabled":false,"rental_uris":{"android":"levelo://app?vid=740b7423-7a27-4daa-9991-c3141fb84b3f","ios":"levelo://app?vid=740b7423-7a27-4daa-9991-c3141fb84b3f"},"vehicle_type_id":"4","last_reported":1753107246,"current_range_meters":17600,"station_id":"ce4bhl12rcd13ifvqgf0","pricing_plan_id":"cebpf4jnsgd1na2vs0mg"},{"bike_id":"8775308d-a91e-4abc-aa83-a4e1580af611","system_id":"levelo_inurba_marseille","lat":43.26264,"lon":5.40423,"is_reserved":false,"is_disabled":false,"rental_uris":{"android":"levelo://app?vid=8775308d-a91e-4abc-aa83-a4e1580af611","ios":"levelo://app?vid=8775308d-a91e-4abc-aa83-a4e1580af611"},"vehicle_type_id":"4","last_reported":1753107246,"current_range_meters":17600,"station_id":"","pricing_plan_id":"cebpf4jnsgd1na2vs0mg"},{"bike_id":"9a0afa66-837f-4ca5-a71c-c9928f34da67","system_id":"levelo_inurba_marseille","lat":43.25581,"lon":5.38243,"is_reserved":false,"is_disabled":false,"rental_uris":{"android":"levelo://app?vid=9a0afa66-837f-4ca5-a71c-c9928f34da67","ios":"levelo://app?vid=9a0afa66-837f-4ca5-a71c-c9928f34da67"},"vehicle_type_id":"4","last_reported":1753107246,"current_range_meters":17600,"station_id":"ce4bhih2rcd13ifvqfs0","pricing_plan_id":"cebpf4jnsgd1na2vs0mg"},{"bike_id":"f179510f-b81c-45fe-9555-e8a207850b63","system_id":"levelo_inurba_marseille","lat":43.25952,"lon":5.40884,"is_reserved":false,"is_disabled":false,"rental_uris":{"android":"levelo://app?vid=f179510f-b81c-45fe-9555-e8a207850b63","ios":"levelo://app?vid=f179510f-b81c-45fe-9555-e8a207850b63"},"vehicle_type_id":"4","last_reported":1753107246,"current_range_meters":17600,"station_id":"ce4bhm92rcd13ifvqglg","pricing_plan_id":"cebpf4jnsgd1na2vs0mg"},{"bike_id":"78b62d15-525a-4ed0-84df-48226f52b11a","system_id":"levelo_inurba_marseille","lat":43.28453,"lon":5.35884,"is_reserved":false,"is_disabled":false,"rental_uris":{"android":"levelo://app?vid=78b62d15-525a-4ed0-84df-48226f52b11a","ios":"levelo://app?vid=78b62d15-525a-4ed0-84df-48226f52b11a"},"vehicle_type_id":"4","last_reported":1753107246,"current_range_meters":20400,"station_id":"ce4bhah2rcd13ifvqei0","pricing_plan_id":"cebpf4jnsgd1na2vs0mg"},{"bike_id":"120eda27-60d5-49ec-aafc-bc4dc40d9cc0","system_id":"levelo_inurba_marseille","lat":43.27206,"lon":5.39173,"is_reserved":false,"is_disabled":false,"rental_uris":{"android":"levelo://app?vid=120eda27-60d5-49ec-aafc-bc4dc40d9cc0","ios":"levelo://app?vid=120eda27-60d5-49ec-aafc-bc4dc40d9cc0"},"vehicle_type_id":"4","last_reported":1753107246,"current_range_meters":17600,"station_id":"ce4bhhp2rcd13ifvqfm0","pricing_plan_id":"cebpf4jnsgd1na2vs0mg"},{"bike_id":"9a6393a8-34a4-401f-8426-79013b451607","system_id":"levelo_inurba_marseille","lat":43.3054,"lon":5.3654,"is_reserved":false,"is_disabled":false,"rental_uris":{"android":"levelo://app?vid=9a6393a8-34a4-401f-8426-79013b451607","ios":"levelo://app?vid=9a6393a8-34a4-401f-8426-79013b451607"},"vehicle_type_id":"4","last_reported":1753107246,"current_range_meters":17600,"station_id":"ce4bgs12rcd13ifvqcag","pricing_plan_id":"cebpf4jnsgd1na2vs0mg"},{"bike_id":"80a0cec6-f22a-497e-af7d-06d68cc10a4f","system_id":"levelo_inurba_marseille","lat":43.29844,"lon":5.36273,"is_reserved":false,"is_disabled":false,"rental_uris":{"android":"levelo://app?vid=80a0cec6-f22a-497e-af7d-06d68cc10a4f","ios":"levelo://app?vid=80a0cec6-f22a-497e-af7d-06d68cc10a4f"},"vehicle_type_id":"4","last_reported":1753107246,"current_range_meters":17600,"station_id":"ce4bgpp2rcd13ifvqc3g","pricing_plan_id":"cebpf4jnsgd1na2vs0mg"},{"bike_id":"263d4ced-6e04-4169-ac4b-7fa733c92fa6","system_id":"levelo_inurba_marseille","lat":43.32358,"lon":5.36744,"is_reserved":false,"is_disabled":false,"rental_uris":{"android":"levelo://app?vid=263d4ced-6e04-4169-ac4b-7fa733c92fa6","ios":"levelo://app?vid=263d4ced-6e04-4169-ac4b-7fa733c92fa6"},"vehicle_type_id":"4","last_reported":1753107246,"current_range_meters":17600,"station_id":"ce4bhsh2rcd13ifvqi2g","pricing_plan_id":"cebpf4jnsgd1na2vs0mg"},{"bike_id":"8375284e-2691-413a-83ad-f0707c45735e","system_id":"levelo_inurba_marseille","lat":43.24176,"lon":5.39724,"is_reserved":false,"is_disabled":false,"rental_uris":{"android":"levelo://app?vid=8375284e-2691-413a-83ad-f0707c45735e","ios":"levelo://app?vid=8375284e-2691-413a-83ad-f0707c45735e"},"vehicle_type_id":"4","last_reported":1753107246,"current_range_meters":17600,"station_id":"ce4bhn12rcd13ifvqgpg","pricing_plan_id":"cebpf4jnsgd1na2vs0mg"},{"bike_id":"71c06b91-27b9-4b1a-934b-62a5af12ec29","system_id":"levelo_inurba_marseille","lat":43.29268,"lon":5.36839,"is_reserved":false,"is_disabled":false,"rental_uris":{"android":"levelo://app?vid=71c06b91-27b9-4b1a-934b-62a5af12ec29","ios":"levelo://app?vid=71c06b91-27b9-4b1a-934b-62a5af12ec29"},"vehicle_type_id":"4","last_reported":1753107246,"current_range_meters":17600,"station_id":"ce4bhbp2rcd13ifvqesg","pricing_plan_id":"cebpf4jnsgd1na2vs0mg"},{"bike_id":"00a5c24b-99ea-4873-99ca-23695b647942","system_id":"levelo_inurba_marseille","lat":43.2623,"lon":5.40453,"is_reserved":false,"is_disabled":false,"rental_uris":{"android":"levelo://app?vid=00a5c24b-99ea-4873-99ca-23695b647942","ios":"levelo://app?vid=00a5c24b-99ea-4873-99ca-23695b647942"},"vehicle_type_id":"4","last_reported":1753107246,"current_range_meters":18000,"station_id":"ce4bhmh2rcd13ifvqgmg","pricing_plan_id":"cebpf4jnsgd1na2vs0mg"},{"bike_id":"74ff61ef-336f-4afc-9b7b-daa909f8bc5d","system_id":"levelo_inurba_marseille","lat":43.24071,"lon":5.37763,"is_reserved":false,"is_disabled":false,"rental_uris":{"android":"levelo://app?vid=74ff61ef-336f-4afc-9b7b-daa909f8bc5d","ios":"levelo://app?vid=74ff61ef-336f-4afc-9b7b-daa909f8bc5d"},"vehicle_type_id":"4","last_reported":1753107246,"current_range_meters":18000,"station_id":"ce4bhnp2rcd13ifvqgvg","pricing_plan_id":"cebpf4jnsgd1na2vs0mg"},{"bike_id":"4d2fb385-600a-460f-817d-c81c8838ad28","system_id":"levelo_inurba_marseille","lat":43.32355,"lon":5.36746,"is_reserved":false,"is_disabled":false,"rental_uris":{"android":"levelo://app?vid=4d2fb385-600a-460f-817d-c81c8838ad28","ios":"levelo://app?vid=4d2fb385-600a-460f-817d-c81c8838ad28"},"vehicle_type_id":"4","last_reported":1753107246,"current_range_meters":18000,"station_id":"ce4bhsh2rcd13ifvqi2g","pricing_plan_id":"cebpf4jnsgd1na2vs0mg"},{"bike_id":"8e3deb96-c66a-40c0-abbb-7b5a89f3c232","system_id":"levelo_inurba_marseille","lat":43.25003,"lon":5.3893,"is_reserved":false,"is_disabled":false,"rental_uris":{"android":"levelo://app?vid=8e3deb96-c66a-40c0-abbb-7b5a89f3c232","ios":"levelo://app?vid=8e3deb96-c66a-40c0-abbb-7b5a89f3c232"},"vehicle_type_id":"4","last_reported":1753107246,"current_range_meters":18000,"station_id":"ce4bhgp2rcd13ifvqfd0","pricing_plan_id":"cebpf4jnsgd1na2vs0mg"},{"bike_id":"e2f86886-eff5-42f7-b7a6-9956f7a22dc5","system_id":"levelo_inurba_marseille","lat":43.28485,"lon":5.38536,"is_reserved":false,"is_disabled":false,"rental_uris":{"android":"levelo://app?vid=e2f86886-eff5-42f7-b7a6-9956f7a22dc5","ios":"levelo://app?vid=e2f86886-eff5-42f7-b7a6-9956f7a22dc5"},"vehicle_type_id":"4","last_reported":1753107246,"current_range_meters":18000,"station_id":"","pricing_plan_id":"cebpf4jnsgd1na2vs0mg"},{"bike_id":"c565f3da-388a-443e-b841-7d114c3eb960","system_id":"levelo_inurba_marseille","lat":43.24656,"lon":5.38141,"is_reserved":false,"is_disabled":false,"rental_uris":{"android":"levelo://app?vid=c565f3da-388a-443e-b841-7d114c3eb960","ios":"levelo://app?vid=c565f3da-388a-443e-b841-7d114c3eb960"},"vehicle_type_id":"4","last_reported":1753107246,"current_range_meters":18000,"station_id":"ce4bhih2rcd13ifvqfr0","pricing_plan_id":"cebpf4jnsgd1na2vs0mg"},{"bike_id":"bfef84e9-8b7b-4f14-9a97-7a74788bf0a0","system_id":"levelo_inurba_marseille","lat":43.30454,"lon":5.37906,"is_reserved":false,"is_disabled":false,"rental_uris":{"android":"levelo://app?vid=bfef84e9-8b7b-4f14-9a97-7a74788bf0a0","ios":"levelo://app?vid=bfef84e9-8b7b-4f14-9a97-7a74788bf0a0"},"vehicle_type_id":"4","last_reported":1753107246,"current_range_meters":18000,"station_id":"ce4bgup2rcd13ifvqcn0","pricing_plan_id":"cebpf4jnsgd1na2vs0mg"},{"bike_id":"270a17cb-d400-4dcf-b95e-31f2bfe3b52d","system_id":"levelo_inurba_marseille","lat":43.22936,"lon":5.35372,"is_reserved":false,"is_disabled":false,"rental_uris":{"android":"levelo://app?vid=270a17cb-d400-4dcf-b95e-31f2bfe3b52d","ios":"levelo://app?vid=270a17cb-d400-4dcf-b95e-31f2bfe3b52d"},"vehicle_type_id":"4","last_reported":1753107246,"current_range_meters":18000,"station_id":"cpo3532slgdg3j2ikp40","pricing_plan_id":"cebpf4jnsgd1na2vs0mg"},{"bike_id":"f14b0233-0dce-4194-b854-e2f4fc5b12a7","system_id":"levelo_inurba_marseille","lat":43.29264,"lon":5.38439,"is_reserved":false,"is_disabled":false,"rental_uris":{"android":"levelo://app?vid=f14b0233-0dce-4194-b854-e2f4fc5b12a7","ios":"levelo://app?vid=f14b0233-0dce-4194-b854-e2f4fc5b12a7"},"vehicle_type_id":"4","last_reported":1753107246,"current_range_meters":18000,"station_id":"ce4bh692rcd13ifvqea0","pricing_plan_id":"cebpf4jnsgd1na2vs0mg"},{"bike_id":"97662646-2e67-43f3-b39d-37292cdb7854","system_id":"levelo_inurba_marseille","lat":43.30276,"lon":5.37713,"is_reserved":false,"is_disabled":false,"rental_uris":{"android":"levelo://app?vid=97662646-2e67-43f3-b39d-37292cdb7854","ios":"levelo://app?vid=97662646-2e67-43f3-b39d-37292cdb7854"},"vehicle_type_id":"4","last_reported":1753107246,"current_range_meters":18000,"station_id":"ce4bguh2rcd13ifvqcj0","pricing_plan_id":"cebpf4jnsgd1na2vs0mg"},{"bike_id":"4f19c5f6-e70b-4068-8f9e-2d12dbbe0f4c","system_id":"levelo_inurba_marseille","lat":43.27368,"lon":5.36251,"is_reserved":false,"is_disabled":false,"rental_uris":{"android":"levelo://app?vid=4f19c5f6-e70b-4068-8f9e-2d12dbbe0f4c","ios":"levelo://app?vid=4f19c5f6-e70b-4068-8f9e-2d12dbbe0f4c"},"vehicle_type_id":"4","last_reported":1753107246,"current_range_meters":18000,"station_id":"ce4bhbh2rcd13ifvqeo0","pricing_plan_id":"cebpf4jnsgd1na2vs0mg"},{"bike_id":"58cbfa7e-c704-4866-ba9b-204648f1391a","system_id":"levelo_inurba_marseille","lat":43.299579,"lon":5.380973,"is_reserved":false,"is_disabled":false,"rental_uris":{"android":"levelo://app?vid=58cbfa7e-c704-4866-ba9b-204648f1391a","ios":"levelo://app?vid=58cbfa7e-c704-4866-ba9b-204648f1391a"},"vehicle_type_id":"4","last_reported":1753107246,"current_range_meters":18000,"station_id":"","pricing_plan_id":"cebpf4jnsgd1na2vs0mg"},{"bike_id":"8f286a53-11b4-4d84-b9ef-1762d5ab74d4","system_id":"levelo_inurba_marseille","lat":43.292147,"lon":5.359382,"is_reserved":false,"is_disabled":false,"rental_uris":{"android":"levelo://app?vid=8f286a53-11b4-4d84-b9ef-1762d5ab74d4","ios":"levelo://app?vid=8f286a53-11b4-4d84-b9ef-1762d5ab74d4"},"vehicle_type_id":"4","last_reported":1753107246,"current_range_meters":18000,"station_id":"ce4bhbh2rcd13ifvqepg","pricing_plan_id":"cebpf4jnsgd1na2vs0mg"},{"bike_id":"e06695ae-a245-4711-a52d-2e4e9d5d9750","system_id":"levelo_inurba_marseille","lat":43.3016,"lon":5.38087,"is_reserved":false,"is_disabled":false,"rental_uris":{"android":"levelo://app?vid=e06695ae-a245-4711-a52d-2e4e9d5d9750","ios":"levelo://app?vid=e06695ae-a245-4711-a52d-2e4e9d5d9750"},"vehicle_type_id":"4","last_reported":1753107246,"current_range_meters":18800,"station_id":"ce4bgjp2rcd13ifvqbh0","pricing_plan_id":"cebpf4jnsgd1na2vs0mg"},{"bike_id":"fe732a6c-bff8-47cc-932a-3c976c2c7a76","system_id":"levelo_inurba_marseille","lat":43.280363,"lon":5.369555,"is_reserved":false,"is_disabled":true,"rental_uris":{"android":"levelo://app?vid=fe732a6c-bff8-47cc-932a-3c976c2c7a76","ios":"levelo://app?vid=fe732a6c-bff8-47cc-932a-3c976c2c7a76"},"vehicle_type_id":"4","last_reported":1753107246,"current_range_meters":18800,"station_id":"","pricing_plan_id":"cebpf4jnsgd1na2vs0mg"},{"bike_id":"2fd31598-6312-4917-95ca-e2f408b1867d","system_id":"levelo_inurba_marseille","lat":43.27373,"lon":5.36258,"is_reserved":false,"is_disabled":false,"rental_uris":{"android":"levelo://app?vid=2fd31598-6312-4917-95ca-e2f408b1867d","ios":"levelo://app?vid=2fd31598-6312-4917-95ca-e2f408b1867d"},"vehicle_type_id":"4","last_reported":1753107246,"current_range_meters":18800,"station_id":"ce4bhbh2rcd13ifvqeo0","pricing_plan_id":"cebpf4jnsgd1na2vs0mg"},{"bike_id":"b67ca3f0-e632-4b9e-ad2f-ba95e62966cd","system_id":"levelo_inurba_marseille","lat":43.320994,"lon":5.367711,"is_reserved":false,"is_disabled":false,"rental_uris":{"android":"levelo://app?vid=b67ca3f0-e632-4b9e-ad2f-ba95e62966cd","ios":"levelo://app?vid=b67ca3f0-e632-4b9e-ad2f-ba95e62966cd"},"vehicle_type_id":"4","last_reported":1753107246,"current_range_meters":18800,"station_id":"ce4bhrh2rcd13ifvqhug","pricing_plan_id":"cebpf4jnsgd1na2vs0mg"},{"bike_id":"2975a10e-052a-4ed4-8afb-b52549159b49","system_id":"levelo_inurba_marseille","lat":43.32404,"lon":5.39045,"is_reserved":false,"is_disabled":false,"rental_uris":{"android":"levelo://app?vid=2975a10e-052a-4ed4-8afb-b52549159b49","ios":"levelo://app?vid=2975a10e-052a-4ed4-8afb-b52549159b49"},"vehicle_type_id":"4","last_reported":1753107246,"current_range_meters":18800,"station_id":"","pricing_plan_id":"cebpf4jnsgd1na2vs0mg"},{"bike_id":"f00edc13-f36f-48e1-91ef-9c20dba77eb5","system_id":"levelo_inurba_marseille","lat":43.33766,"lon":5.374414,"is_reserved":false,"is_disabled":false,"rental_uris":{"android":"levelo://app?vid=f00edc13-f36f-48e1-91ef-9c20dba77eb5","ios":"levelo://app?vid=f00edc13-f36f-48e1-91ef-9c20dba77eb5"},"vehicle_type_id":"4","last_reported":1753107246,"current_range_meters":18800,"station_id":"","pricing_plan_id":"cebpf4jnsgd1na2vs0mg"},{"bike_id":"b13d7b0c-9cbe-4525-b330-0bd16b6a3033","system_id":"levelo_inurba_marseille","lat":43.28414,"lon":5.34976,"is_reserved":false,"is_disabled":false,"rental_uris":{"android":"levelo://app?vid=b13d7b0c-9cbe-4525-b330-0bd16b6a3033","ios":"levelo://app?vid=b13d7b0c-9cbe-4525-b330-0bd16b6a3033"},"vehicle_type_id":"4","last_reported":1753107246,"current_range_meters":18800,"station_id":"ce4bhbh2rcd13ifvqepg","pricing_plan_id":"cebpf4jnsgd1na2vs0mg"},{"bike_id":"dd42f033-eb85-4733-a94a-352d9d3b5b6e","system_id":"levelo_inurba_marseille","lat":43.30933,"lon":5.40142,"is_reserved":false,"is_disabled":false,"rental_uris":{"android":"levelo://app?vid=dd42f033-eb85-4733-a94a-352d9d3b5b6e","ios":"levelo://app?vid=dd42f033-eb85-4733-a94a-352d9d3b5b6e"},"vehicle_type_id":"4","last_reported":1753107246,"current_range_meters":18800,"station_id":"ce4bgvp2rcd13ifvqct0","pricing_plan_id":"cebpf4jnsgd1na2vs0mg"},{"bike_id":"668bfa40-7ae0-42dd-a6b6-6631a40f0c0f","system_id":"levelo_inurba_marseille","lat":43.3315,"lon":5.38595,"is_reserved":false,"is_disabled":false,"rental_uris":{"android":"levelo://app?vid=668bfa40-7ae0-42dd-a6b6-6631a40f0c0f","ios":"levelo://app?vid=668bfa40-7ae0-42dd-a6b6-6631a40f0c0f"},"vehicle_type_id":"4","last_reported":1753107246,"current_range_meters":18800,"station_id":"","pricing_plan_id":"cebpf4jnsgd1na2vs0mg"},{"bike_id":"e77da9ef-8155-42a4-a49c-30e2b59818cc","system_id":"levelo_inurba_marseille","lat":43.33794,"lon":5.37424,"is_reserved":false,"is_disabled":false,"rental_uris":{"android":"levelo://app?vid=e77da9ef-8155-42a4-a49c-30e2b59818cc","ios":"levelo://app?vid=e77da9ef-8155-42a4-a49c-30e2b59818cc"},"vehicle_type_id":"4","last_reported":1753107246,"current_range_meters":18800,"station_id":"","pricing_plan_id":"cebpf4jnsgd1na2vs0mg"},{"bike_id":"193fc99f-6bc4-441e-88c9-af2e807d8676","system_id":"levelo_inurba_marseille","lat":43.30418,"lon":5.39757,"is_reserved":false,"is_disabled":false,"rental_uris":{"android":"levelo://app?vid=193fc99f-6bc4-441e-88c9-af2e807d8676","ios":"levelo://app?vid=193fc99f-6bc4-441e-88c9-af2e807d8676"},"vehicle_type_id":"4","last_reported":1753107246,"current_range_meters":18800,"station_id":"ce4bh092rcd13ifvqd20","pricing_plan_id":"cebpf4jnsgd1na2vs0mg"},{"bike_id":"35a4bc41-2b31-4703-aafd-5dadb2a35d4d","system_id":"levelo_inurba_marseille","lat":43.25075,"lon":5.39518,"is_reserved":false,"is_disabled":false,"rental_uris":{"android":"levelo://app?vid=35a4bc41-2b31-4703-aafd-5dadb2a35d4d","ios":"levelo://app?vid=35a4bc41-2b31-4703-aafd-5dadb2a35d4d"},"vehicle_type_id":"4","last_reported":1753107246,"current_range_meters":19200,"station_id":"ce4bhm12rcd13ifvqgkg","pricing_plan_id":"cebpf4jnsgd1na2vs0mg"},{"bike_id":"13adf853-6ca7-4ebd-8c9f-f4512dd3a322","system_id":"levelo_inurba_marseille","lat":43.33301,"lon":5.39896,"is_reserved":false,"is_disabled":false,"rental_uris":{"android":"levelo://app?vid=13adf853-6ca7-4ebd-8c9f-f4512dd3a322","ios":"levelo://app?vid=13adf853-6ca7-4ebd-8c9f-f4512dd3a322"},"vehicle_type_id":"4","last_reported":1753107246,"current_range_meters":19200,"station_id":"","pricing_plan_id":"cebpf4jnsgd1na2vs0mg"},{"bike_id":"56c849d0-2fd7-4663-bd40-4459368ce979","system_id":"levelo_inurba_marseille","lat":43.31218,"lon":5.36875,"is_reserved":false,"is_disabled":false,"rental_uris":{"android":"levelo://app?vid=56c849d0-2fd7-4663-bd40-4459368ce979","ios":"levelo://app?vid=56c849d0-2fd7-4663-bd40-4459368ce979"},"vehicle_type_id":"4","last_reported":1753107246,"current_range_meters":19200,"station_id":"ce4bgl92rcd13ifvqbq0","pricing_plan_id":"cebpf4jnsgd1na2vs0mg"},{"bike_id":"a84faf0b-4b61-4363-9b8a-c88cc60c59a6","system_id":"levelo_inurba_marseille","lat":43.29893,"lon":5.43664,"is_reserved":false,"is_disabled":false,"rental_uris":{"android":"levelo://app?vid=a84faf0b-4b61-4363-9b8a-c88cc60c59a6","ios":"levelo://app?vid=a84faf0b-4b61-4363-9b8a-c88cc60c59a6"},"vehicle_type_id":"4","last_reported":1753107246,"current_range_meters":18800,"station_id":"ce4bhpp2rcd13ifvqhfg","pricing_plan_id":"cebpf4jnsgd1na2vs0mg"},{"bike_id":"b050b2a0-6d4d-4d6b-b7de-6a89501ce2b7","system_id":"levelo_inurba_marseille","lat":43.28944,"lon":5.36415,"is_reserved":false,"is_disabled":true,"rental_uris":{"android":"levelo://app?vid=b050b2a0-6d4d-4d6b-b7de-6a89501ce2b7","ios":"levelo://app?vid=b050b2a0-6d4d-4d6b-b7de-6a89501ce2b7"},"vehicle_type_id":"4","last_reported":1753107246,"current_range_meters":19200,"station_id":"ce4bhc92rcd13ifvqetg","pricing_plan_id":"cebpf4jnsgd1na2vs0mg"},{"bike_id":"773ce45a-6cb1-4c9d-9f59-6e78f60692dd","system_id":"levelo_inurba_marseille","lat":43.27374,"lon":5.362472,"is_reserved":false,"is_disabled":false,"rental_uris":{"android":"levelo://app?vid=773ce45a-6cb1-4c9d-9f59-6e78f60692dd","ios":"levelo://app?vid=773ce45a-6cb1-4c9d-9f59-6e78f60692dd"},"vehicle_type_id":"4","last_reported":1753107246,"current_range_meters":19200,"station_id":"ce4bhbh2rcd13ifvqeqg","pricing_plan_id":"cebpf4jnsgd1na2vs0mg"},{"bike_id":"f2ae3914-afd9-4ae9-b087-b6a8c5753948","system_id":"levelo_inurba_marseille","lat":43.32354,"lon":5.36764,"is_reserved":false,"is_disabled":false,"rental_uris":{"android":"levelo://app?vid=f2ae3914-afd9-4ae9-b087-b6a8c5753948","ios":"levelo://app?vid=f2ae3914-afd9-4ae9-b087-b6a8c5753948"},"vehicle_type_id":"4","last_reported":1753107246,"current_range_meters":19200,"station_id":"ce4bhsh2rcd13ifvqi2g","pricing_plan_id":"cebpf4jnsgd1na2vs0mg"},{"bike_id":"a8425362-197a-4dc6-a73b-d17d37743a9c","system_id":"levelo_inurba_marseille","lat":43.21754,"lon":5.34587,"is_reserved":false,"is_disabled":false,"rental_uris":{"android":"levelo://app?vid=a8425362-197a-4dc6-a73b-d17d37743a9c","ios":"levelo://app?vid=a8425362-197a-4dc6-a73b-d17d37743a9c"},"vehicle_type_id":"4","last_reported":1753107246,"current_range_meters":19200,"station_id":"st_cvj6r9ubvosntc0bgbag","pricing_plan_id":"cebpf4jnsgd1na2vs0mg"},{"bike_id":"4adc3908-9e6f-4e5f-bc1a-cefbea79aba1","system_id":"levelo_inurba_marseille","lat":43.30601,"lon":5.372,"is_reserved":false,"is_disabled":false,"rental_uris":{"android":"levelo://app?vid=4adc3908-9e6f-4e5f-bc1a-cefbea79aba1","ios":"levelo://app?vid=4adc3908-9e6f-4e5f-bc1a-cefbea79aba1"},"vehicle_type_id":"4","last_reported":1753107246,"current_range_meters":19600,"station_id":"ce4bgqh2rcd13ifvqc4g","pricing_plan_id":"cebpf4jnsgd1na2vs0mg"},{"bike_id":"6f7d32d6-b088-4c20-b9e3-585ba0fc1933","system_id":"levelo_inurba_marseille","lat":43.30565,"lon":5.3652,"is_reserved":false,"is_disabled":false,"rental_uris":{"android":"levelo://app?vid=6f7d32d6-b088-4c20-b9e3-585ba0fc1933","ios":"levelo://app?vid=6f7d32d6-b088-4c20-b9e3-585ba0fc1933"},"vehicle_type_id":"4","last_reported":1753107246,"current_range_meters":19600,"station_id":"ce4bgs12rcd13ifvqcag","pricing_plan_id":"cebpf4jnsgd1na2vs0mg"},{"bike_id":"534098fe-a2b0-45be-a076-83fc2f5e28f9","system_id":"levelo_inurba_marseille","lat":43.32105,"lon":5.36789,"is_reserved":false,"is_disabled":false,"rental_uris":{"android":"levelo://app?vid=534098fe-a2b0-45be-a076-83fc2f5e28f9","ios":"levelo://app?vid=534098fe-a2b0-45be-a076-83fc2f5e28f9"},"vehicle_type_id":"4","last_reported":1753107246,"current_range_meters":19600,"station_id":"ce4bhrh2rcd13ifvqhug","pricing_plan_id":"cebpf4jnsgd1na2vs0mg"},{"bike_id":"07cad5da-863b-4dcd-9b5f-8a55c0a76449","system_id":"levelo_inurba_marseille","lat":43.28794,"lon":5.39124,"is_reserved":false,"is_disabled":false,"rental_uris":{"android":"levelo://app?vid=07cad5da-863b-4dcd-9b5f-8a55c0a76449","ios":"levelo://app?vid=07cad5da-863b-4dcd-9b5f-8a55c0a76449"},"vehicle_type_id":"4","last_reported":1753107246,"current_range_meters":19600,"station_id":"","pricing_plan_id":"cebpf4jnsgd1na2vs0mg"},{"bike_id":"f1391980-885b-4246-b2b3-371895cf2b4c","system_id":"levelo_inurba_marseille","lat":43.310598,"lon":5.383653,"is_reserved":false,"is_disabled":false,"rental_uris":{"android":"levelo://app?vid=f1391980-885b-4246-b2b3-371895cf2b4c","ios":"levelo://app?vid=f1391980-885b-4246-b2b3-371895cf2b4c"},"vehicle_type_id":"4","last_reported":1753107246,"current_range_meters":19600,"station_id":"","pricing_plan_id":"cebpf4jnsgd1na2vs0mg"},{"bike_id":"59490d9f-a4a9-4458-91b0-8fbf969ca654","system_id":"levelo_inurba_marseille","lat":43.29644,"lon":5.37711,"is_reserved":false,"is_disabled":false,"rental_uris":{"android":"levelo://app?vid=59490d9f-a4a9-4458-91b0-8fbf969ca654","ios":"levelo://app?vid=59490d9f-a4a9-4458-91b0-8fbf969ca654"},"vehicle_type_id":"4","last_reported":1753107246,"current_range_meters":19600,"station_id":"ce4bgi92rcd13ifvqb90","pricing_plan_id":"cebpf4jnsgd1na2vs0mg"},{"bike_id":"0252eab3-c3f3-4486-b893-58cb3f957c57","system_id":"levelo_inurba_marseille","lat":43.31743,"lon":5.38505,"is_reserved":false,"is_disabled":false,"rental_uris":{"android":"levelo://app?vid=0252eab3-c3f3-4486-b893-58cb3f957c57","ios":"levelo://app?vid=0252eab3-c3f3-4486-b893-58cb3f957c57"},"vehicle_type_id":"4","last_reported":1753107246,"current_range_meters":19600,"station_id":"","pricing_plan_id":"cebpf4jnsgd1na2vs0mg"},{"bike_id":"b4c1aa2a-e931-4ce6-8816-30ad77bdd520","system_id":"levelo_inurba_marseille","lat":43.241448,"lon":5.363743,"is_reserved":false,"is_disabled":false,"rental_uris":{"android":"levelo://app?vid=b4c1aa2a-e931-4ce6-8816-30ad77bdd520","ios":"levelo://app?vid=b4c1aa2a-e931-4ce6-8816-30ad77bdd520"},"vehicle_type_id":"4","last_reported":1753107246,"current_range_meters":19600,"station_id":"","pricing_plan_id":"cebpf4jnsgd1na2vs0mg"},{"bike_id":"7227f2a0-48ac-47a6-aa2d-661ad6a7a763","system_id":"levelo_inurba_marseille","lat":43.29058,"lon":5.3717,"is_reserved":false,"is_disabled":true,"rental_uris":{"android":"levelo://app?vid=7227f2a0-48ac-47a6-aa2d-661ad6a7a763","ios":"levelo://app?vid=7227f2a0-48ac-47a6-aa2d-661ad6a7a763"},"vehicle_type_id":"4","last_reported":1753107246,"current_range_meters":19600,"station_id":"ce4bgh92rcd13ifvqb40","pricing_plan_id":"cebpf4jnsgd1na2vs0mg"},{"bike_id":"064a0862-531d-4977-ae56-d0c9f19c963e","system_id":"levelo_inurba_marseille","lat":43.245525,"lon":5.395233,"is_reserved":false,"is_disabled":false,"rental_uris":{"android":"levelo://app?vid=064a0862-531d-4977-ae56-d0c9f19c963e","ios":"levelo://app?vid=064a0862-531d-4977-ae56-d0c9f19c963e"},"vehicle_type_id":"4","last_reported":1753107246,"current_range_meters":19600,"station_id":"ce4bhlp2rcd13ifvqgjg","pricing_plan_id":"cebpf4jnsgd1na2vs0mg"},{"bike_id":"87bc9e6f-1d5b-4237-a1df-3b5cfd8a9777","system_id":"levelo_inurba_marseille","lat":43.21185,"lon":5.35072,"is_reserved":false,"is_disabled":false,"rental_uris":{"android":"levelo://app?vid=87bc9e6f-1d5b-4237-a1df-3b5cfd8a9777","ios":"levelo://app?vid=87bc9e6f-1d5b-4237-a1df-3b5cfd8a9777"},"vehicle_type_id":"4","last_reported":1753107246,"current_range_meters":19600,"station_id":"st_cvj6sg6p6f1abm77japg","pricing_plan_id":"cebpf4jnsgd1na2vs0mg"},{"bike_id":"84d5db7d-a6c3-4b4f-8444-cf44e73a17b0","system_id":"levelo_inurba_marseille","lat":43.26945,"lon":5.38645,"is_reserved":false,"is_disabled":false,"rental_uris":{"android":"levelo://app?vid=84d5db7d-a6c3-4b4f-8444-cf44e73a17b0","ios":"levelo://app?vid=84d5db7d-a6c3-4b4f-8444-cf44e73a17b0"},"vehicle_type_id":"4","last_reported":1753107246,"current_range_meters":19200,"station_id":"ce4bhh92rcd13ifvqfh0","pricing_plan_id":"cebpf4jnsgd1na2vs0mg"},{"bike_id":"117fab79-dbd7-4e20-91a1-c32dd8c47d23","system_id":"levelo_inurba_marseille","lat":43.30934,"lon":5.40144,"is_reserved":false,"is_disabled":false,"rental_uris":{"android":"levelo://app?vid=117fab79-dbd7-4e20-91a1-c32dd8c47d23","ios":"levelo://app?vid=117fab79-dbd7-4e20-91a1-c32dd8c47d23"},"vehicle_type_id":"4","last_reported":1753107246,"current_range_meters":19600,"station_id":"ce4bgvp2rcd13ifvqct0","pricing_plan_id":"cebpf4jnsgd1na2vs0mg"},{"bike_id":"b6407bd6-c394-4891-b6fc-05e9538eeb6c","system_id":"levelo_inurba_marseille","lat":43.23961,"lon":5.36627,"is_reserved":false,"is_disabled":false,"rental_uris":{"android":"levelo://app?vid=b6407bd6-c394-4891-b6fc-05e9538eeb6c","ios":"levelo://app?vid=b6407bd6-c394-4891-b6fc-05e9538eeb6c"},"vehicle_type_id":"4","last_reported":1753107246,"current_range_meters":19600,"station_id":"ce4bhi12rcd13ifvqfp0","pricing_plan_id":"cebpf4jnsgd1na2vs0mg"},{"bike_id":"ee09eda1-e075-4f4d-9c5f-ac6a4aa881c4","system_id":"levelo_inurba_marseille","lat":43.278195,"lon":5.407193,"is_reserved":false,"is_disabled":false,"rental_uris":{"android":"levelo://app?vid=ee09eda1-e075-4f4d-9c5f-ac6a4aa881c4","ios":"levelo://app?vid=ee09eda1-e075-4f4d-9c5f-ac6a4aa881c4"},"vehicle_type_id":"4","last_reported":1753107246,"current_range_meters":20000,"station_id":"ce4bhnh2rcd13ifvqgtg","pricing_plan_id":"cebpf4jnsgd1na2vs0mg"},{"bike_id":"5153e984-1abc-4d5b-91ef-21249865a3e6","system_id":"levelo_inurba_marseille","lat":43.21153,"lon":5.35108,"is_reserved":false,"is_disabled":false,"rental_uris":{"android":"levelo://app?vid=5153e984-1abc-4d5b-91ef-21249865a3e6","ios":"levelo://app?vid=5153e984-1abc-4d5b-91ef-21249865a3e6"},"vehicle_type_id":"4","last_reported":1753107246,"current_range_meters":20000,"station_id":"st_cvj6sg6p6f1abm77japg","pricing_plan_id":"cebpf4jnsgd1na2vs0mg"},{"bike_id":"72f56324-b905-4218-a3af-f51dbcc59179","system_id":"levelo_inurba_marseille","lat":43.3377,"lon":5.37498,"is_reserved":false,"is_disabled":false,"rental_uris":{"android":"levelo://app?vid=72f56324-b905-4218-a3af-f51dbcc59179","ios":"levelo://app?vid=72f56324-b905-4218-a3af-f51dbcc59179"},"vehicle_type_id":"4","last_reported":1753107246,"current_range_meters":20000,"station_id":"ce4bgvp2rcd13ifvqct0","pricing_plan_id":"cebpf4jnsgd1na2vs0mg"},{"bike_id":"a71aea1f-dac8-4380-84df-553d1015c6fe","system_id":"levelo_inurba_marseille","lat":43.30379,"lon":5.42482,"is_reserved":false,"is_disabled":false,"rental_uris":{"android":"levelo://app?vid=a71aea1f-dac8-4380-84df-553d1015c6fe","ios":"levelo://app?vid=a71aea1f-dac8-4380-84df-553d1015c6fe"},"vehicle_type_id":"4","last_reported":1753107246,"current_range_meters":20000,"station_id":"ce4bhoh2rcd13ifvqh6g","pricing_plan_id":"cebpf4jnsgd1na2vs0mg"},{"bike_id":"de5426ba-ae67-47a4-bece-c11c7065cd1e","system_id":"levelo_inurba_marseille","lat":43.21195,"lon":5.3506,"is_reserved":false,"is_disabled":false,"rental_uris":{"android":"levelo://app?vid=de5426ba-ae67-47a4-bece-c11c7065cd1e","ios":"levelo://app?vid=de5426ba-ae67-47a4-bece-c11c7065cd1e"},"vehicle_type_id":"4","last_reported":1753107246,"current_range_meters":20000,"station_id":"st_cvj6sg6p6f1abm77japg","pricing_plan_id":"cebpf4jnsgd1na2vs0mg"},{"bike_id":"bfa511fe-2f0b-4ea3-a8d6-1753c2a1765b","system_id":"levelo_inurba_marseille","lat":43.27998,"lon":5.40012,"is_reserved":false,"is_disabled":false,"rental_uris":{"android":"levelo://app?vid=bfa511fe-2f0b-4ea3-a8d6-1753c2a1765b","ios":"levelo://app?vid=bfa511fe-2f0b-4ea3-a8d6-1753c2a1765b"},"vehicle_type_id":"4","last_reported":1753107246,"current_range_meters":20000,"station_id":"ce4bho92rcd13ifvqh4g","pricing_plan_id":"cebpf4jnsgd1na2vs0mg"},{"bike_id":"dda96cde-9f78-4371-a72f-1d24145c396a","system_id":"levelo_inurba_marseille","lat":43.21188,"lon":5.35075,"is_reserved":false,"is_disabled":false,"rental_uris":{"android":"levelo://app?vid=dda96cde-9f78-4371-a72f-1d24145c396a","ios":"levelo://app?vid=dda96cde-9f78-4371-a72f-1d24145c396a"},"vehicle_type_id":"4","last_reported":1753107246,"current_range_meters":20400,"station_id":"st_cvj6sg6p6f1abm77japg","pricing_plan_id":"cebpf4jnsgd1na2vs0mg"},{"bike_id":"4a062b19-5034-4363-abce-0b66f8ef5116","system_id":"levelo_inurba_marseille","lat":43.30268,"lon":5.37702,"is_reserved":false,"is_disabled":false,"rental_uris":{"android":"levelo://app?vid=4a062b19-5034-4363-abce-0b66f8ef5116","ios":"levelo://app?vid=4a062b19-5034-4363-abce-0b66f8ef5116"},"vehicle_type_id":"4","last_reported":1753107246,"current_range_meters":20400,"station_id":"ce4bguh2rcd13ifvqcj0","pricing_plan_id":"cebpf4jnsgd1na2vs0mg"},{"bike_id":"013ba670-d36d-4e11-a3a9-be2cd39748e0","system_id":"levelo_inurba_marseille","lat":43.29992,"lon":5.3757,"is_reserved":false,"is_disabled":false,"rental_uris":{"android":"levelo://app?vid=013ba670-d36d-4e11-a3a9-be2cd39748e0","ios":"levelo://app?vid=013ba670-d36d-4e11-a3a9-be2cd39748e0"},"vehicle_type_id":"4","last_reported":1753107246,"current_range_meters":19200,"station_id":"","pricing_plan_id":"cebpf4jnsgd1na2vs0mg"},{"bike_id":"f5767321-03ff-4c6c-8a78-ad57e022e0a0","system_id":"levelo_inurba_marseille","lat":43.29021,"lon":5.38145,"is_reserved":false,"is_disabled":true,"rental_uris":{"android":"levelo://app?vid=f5767321-03ff-4c6c-8a78-ad57e022e0a0","ios":"levelo://app?vid=f5767321-03ff-4c6c-8a78-ad57e022e0a0"},"vehicle_type_id":"4","last_reported":1753107246,"current_range_meters":20400,"station_id":"ce4bh4p2rcd13ifvqe1g","pricing_plan_id":"cebpf4jnsgd1na2vs0mg"},{"bike_id":"e1821983-402d-4a49-a51f-17090930a3e9","system_id":"levelo_inurba_marseille","lat":43.21221,"lon":5.35051,"is_reserved":false,"is_disabled":false,"rental_uris":{"android":"levelo://app?vid=e1821983-402d-4a49-a51f-17090930a3e9","ios":"levelo://app?vid=e1821983-402d-4a49-a51f-17090930a3e9"},"vehicle_type_id":"4","last_reported":1753107246,"current_range_meters":20400,"station_id":"","pricing_plan_id":"cebpf4jnsgd1na2vs0mg"},{"bike_id":"c9267a94-d966-40df-b417-3cf2bf2a2f0e","system_id":"levelo_inurba_marseille","lat":43.26026,"lon":5.37553,"is_reserved":false,"is_disabled":false,"rental_uris":{"android":"levelo://app?vid=c9267a94-d966-40df-b417-3cf2bf2a2f0e","ios":"levelo://app?vid=c9267a94-d966-40df-b417-3cf2bf2a2f0e"},"vehicle_type_id":"4","last_reported":1753107246,"current_range_meters":20000,"station_id":"ce4bhgh2rcd13ifvqfa0","pricing_plan_id":"cebpf4jnsgd1na2vs0mg"},{"bike_id":"ba0a863e-61fa-42cc-a8a6-a46652441bed","system_id":"levelo_inurba_marseille","lat":43.30316,"lon":5.37685,"is_reserved":false,"is_disabled":false,"rental_uris":{"android":"levelo://app?vid=ba0a863e-61fa-42cc-a8a6-a46652441bed","ios":"levelo://app?vid=ba0a863e-61fa-42cc-a8a6-a46652441bed"},"vehicle_type_id":"4","last_reported":1753107246,"current_range_meters":20400,"station_id":"ce4bguh2rcd13ifvqcj0","pricing_plan_id":"cebpf4jnsgd1na2vs0mg"},{"bike_id":"266fd276-e4a0-471b-9664-efde30d260f2","system_id":"levelo_inurba_marseille","lat":43.30551,"lon":5.36687,"is_reserved":false,"is_disabled":false,"rental_uris":{"android":"levelo://app?vid=266fd276-e4a0-471b-9664-efde30d260f2","ios":"levelo://app?vid=266fd276-e4a0-471b-9664-efde30d260f2"},"vehicle_type_id":"4","last_reported":1753107246,"current_range_meters":20400,"station_id":"ce4bgrp2rcd13ifvqc9g","pricing_plan_id":"cebpf4jnsgd1na2vs0mg"},{"bike_id":"d10a467a-cfae-45bd-bd82-03f8db1b4e34","system_id":"levelo_inurba_marseille","lat":43.25726,"lon":5.41108,"is_reserved":false,"is_disabled":false,"rental_uris":{"android":"levelo://app?vid=d10a467a-cfae-45bd-bd82-03f8db1b4e34","ios":"levelo://app?vid=d10a467a-cfae-45bd-bd82-03f8db1b4e34"},"vehicle_type_id":"4","last_reported":1753107246,"current_range_meters":20000,"station_id":"ce4bhkp2rcd13ifvqgd0","pricing_plan_id":"cebpf4jnsgd1na2vs0mg"},{"bike_id":"5510ee41-91f5-4d91-be3a-6a9d872390ee","system_id":"levelo_inurba_marseille","lat":43.27413,"lon":5.39416,"is_reserved":false,"is_disabled":false,"rental_uris":{"android":"levelo://app?vid=5510ee41-91f5-4d91-be3a-6a9d872390ee","ios":"levelo://app?vid=5510ee41-91f5-4d91-be3a-6a9d872390ee"},"vehicle_type_id":"4","last_reported":1753107246,"current_range_meters":20400,"station_id":"ce4bhgp2rcd13ifvqfe0","pricing_plan_id":"cebpf4jnsgd1na2vs0mg"},{"bike_id":"64a2f514-4942-458d-b3fc-7d7fd0dfd1b1","system_id":"levelo_inurba_marseille","lat":43.21197,"lon":5.35062,"is_reserved":false,"is_disabled":false,"rental_uris":{"android":"levelo://app?vid=64a2f514-4942-458d-b3fc-7d7fd0dfd1b1","ios":"levelo://app?vid=64a2f514-4942-458d-b3fc-7d7fd0dfd1b1"},"vehicle_type_id":"4","last_reported":1753107246,"current_range_meters":20400,"station_id":"st_cvj6sg6p6f1abm77japg","pricing_plan_id":"cebpf4jnsgd1na2vs0mg"},{"bike_id":"43289c39-b43b-4745-8781-6d56ee0c5b1f","system_id":"levelo_inurba_marseille","lat":43.311909,"lon":5.368476,"is_reserved":false,"is_disabled":false,"rental_uris":{"android":"levelo://app?vid=43289c39-b43b-4745-8781-6d56ee0c5b1f","ios":"levelo://app?vid=43289c39-b43b-4745-8781-6d56ee0c5b1f"},"vehicle_type_id":"4","last_reported":1753107246,"current_range_meters":20400,"station_id":"ce4bgl92rcd13ifvqbq0","pricing_plan_id":"cebpf4jnsgd1na2vs0mg"},{"bike_id":"9d52708e-41b7-41e2-a650-eea265808909","system_id":"levelo_inurba_marseille","lat":43.29842,"lon":5.36265,"is_reserved":false,"is_disabled":false,"rental_uris":{"android":"levelo://app?vid=9d52708e-41b7-41e2-a650-eea265808909","ios":"levelo://app?vid=9d52708e-41b7-41e2-a650-eea265808909"},"vehicle_type_id":"4","last_reported":1753107246,"current_range_meters":20800,"station_id":"ce4bgpp2rcd13ifvqc3g","pricing_plan_id":"cebpf4jnsgd1na2vs0mg"},{"bike_id":"ad7f0a60-ce59-4747-9fdc-c03dcbd4556c","system_id":"levelo_inurba_marseille","lat":43.30932,"lon":5.4014,"is_reserved":false,"is_disabled":false,"rental_uris":{"android":"levelo://app?vid=ad7f0a60-ce59-4747-9fdc-c03dcbd4556c","ios":"levelo://app?vid=ad7f0a60-ce59-4747-9fdc-c03dcbd4556c"},"vehicle_type_id":"4","last_reported":1753107246,"current_range_meters":20800,"station_id":"ce4bgvp2rcd13ifvqct0","pricing_plan_id":"cebpf4jnsgd1na2vs0mg"},{"bike_id":"5318d43a-4761-49f5-a226-f37048bd84eb","system_id":"levelo_inurba_marseille","lat":43.24672,"lon":5.38171,"is_reserved":false,"is_disabled":false,"rental_uris":{"android":"levelo://app?vid=5318d43a-4761-49f5-a226-f37048bd84eb","ios":"levelo://app?vid=5318d43a-4761-49f5-a226-f37048bd84eb"},"vehicle_type_id":"4","last_reported":1753107246,"current_range_meters":20800,"station_id":"ce4bhih2rcd13ifvqfr0","pricing_plan_id":"cebpf4jnsgd1na2vs0mg"},{"bike_id":"22404279-60c0-402c-80cb-08e64d5ac5aa","system_id":"levelo_inurba_marseille","lat":43.21746,"lon":5.34593,"is_reserved":false,"is_disabled":false,"rental_uris":{"android":"levelo://app?vid=22404279-60c0-402c-80cb-08e64d5ac5aa","ios":"levelo://app?vid=22404279-60c0-402c-80cb-08e64d5ac5aa"},"vehicle_type_id":"4","last_reported":1753107246,"current_range_meters":20800,"station_id":"st_cvj6r9ubvosntc0bgbag","pricing_plan_id":"cebpf4jnsgd1na2vs0mg"},{"bike_id":"e730d36a-13f0-49bb-86fb-4a20da2e6767","system_id":"levelo_inurba_marseille","lat":43.24163,"lon":5.36401,"is_reserved":false,"is_disabled":false,"rental_uris":{"android":"levelo://app?vid=e730d36a-13f0-49bb-86fb-4a20da2e6767","ios":"levelo://app?vid=e730d36a-13f0-49bb-86fb-4a20da2e6767"},"vehicle_type_id":"4","last_reported":1753107246,"current_range_meters":20800,"station_id":"cpo36qri1sfpv3e86is0","pricing_plan_id":"cebpf4jnsgd1na2vs0mg"},{"bike_id":"b1d5754d-fa7b-4fb2-ae2d-5068d9c31d45","system_id":"levelo_inurba_marseille","lat":43.33687,"lon":5.39213,"is_reserved":false,"is_disabled":false,"rental_uris":{"android":"levelo://app?vid=b1d5754d-fa7b-4fb2-ae2d-5068d9c31d45","ios":"levelo://app?vid=b1d5754d-fa7b-4fb2-ae2d-5068d9c31d45"},"vehicle_type_id":"4","last_reported":1753107246,"current_range_meters":20800,"station_id":"ce4bhr92rcd13ifvqhsg","pricing_plan_id":"cebpf4jnsgd1na2vs0mg"},{"bike_id":"91f528de-626e-46cf-ba56-2b41f50873fe","system_id":"levelo_inurba_marseille","lat":43.29771,"lon":5.38126,"is_reserved":false,"is_disabled":false,"rental_uris":{"android":"levelo://app?vid=91f528de-626e-46cf-ba56-2b41f50873fe","ios":"levelo://app?vid=91f528de-626e-46cf-ba56-2b41f50873fe"},"vehicle_type_id":"4","last_reported":1753107246,"current_range_meters":20800,"station_id":"ce4bgip2rcd13ifvqbb0","pricing_plan_id":"cebpf4jnsgd1na2vs0mg"},{"bike_id":"99841499-c958-4e5a-a8a8-f74cf9b2d2c7","system_id":"levelo_inurba_marseille","lat":43.259705,"lon":5.40851,"is_reserved":false,"is_disabled":false,"rental_uris":{"android":"levelo://app?vid=99841499-c958-4e5a-a8a8-f74cf9b2d2c7","ios":"levelo://app?vid=99841499-c958-4e5a-a8a8-f74cf9b2d2c7"},"vehicle_type_id":"4","last_reported":1753107246,"current_range_meters":20800,"station_id":"ce4bht12rcd13ifvqi60","pricing_plan_id":"cebpf4jnsgd1na2vs0mg"},{"bike_id":"36106c15-a7c9-4bd2-afe6-c24e3f774659","system_id":"levelo_inurba_marseille","lat":43.308963,"lon":5.368417,"is_reserved":false,"is_disabled":false,"rental_uris":{"android":"levelo://app?vid=36106c15-a7c9-4bd2-afe6-c24e3f774659","ios":"levelo://app?vid=36106c15-a7c9-4bd2-afe6-c24e3f774659"},"vehicle_type_id":"4","last_reported":1753107246,"current_range_meters":20800,"station_id":"ce4bgn92rcd13ifvqbvg","pricing_plan_id":"cebpf4jnsgd1na2vs0mg"},{"bike_id":"6a68eaae-013e-4828-b419-52b86ba7d5b2","system_id":"levelo_inurba_marseille","lat":43.27671,"lon":5.38858,"is_reserved":false,"is_disabled":false,"rental_uris":{"android":"levelo://app?vid=6a68eaae-013e-4828-b419-52b86ba7d5b2","ios":"levelo://app?vid=6a68eaae-013e-4828-b419-52b86ba7d5b2"},"vehicle_type_id":"4","last_reported":1753107246,"current_range_meters":20400,"station_id":"ce4bhi12rcd13ifvqfo0","pricing_plan_id":"cebpf4jnsgd1na2vs0mg"},{"bike_id":"76ce6848-b3ec-411d-826e-fe6f5f277e84","system_id":"levelo_inurba_marseille","lat":43.29048,"lon":5.39927,"is_reserved":false,"is_disabled":true,"rental_uris":{"android":"levelo://app?vid=76ce6848-b3ec-411d-826e-fe6f5f277e84","ios":"levelo://app?vid=76ce6848-b3ec-411d-826e-fe6f5f277e84"},"vehicle_type_id":"4","last_reported":1753107246,"current_range_meters":21600,"station_id":"ce4bh392rcd13ifvqdm0","pricing_plan_id":"cebpf4jnsgd1na2vs0mg"},{"bike_id":"e80f062d-07e0-4564-b2a0-f9c94e191f16","system_id":"levelo_inurba_marseille","lat":43.26183,"lon":5.37461,"is_reserved":false,"is_disabled":false,"rental_uris":{"android":"levelo://app?vid=e80f062d-07e0-4564-b2a0-f9c94e191f16","ios":"levelo://app?vid=e80f062d-07e0-4564-b2a0-f9c94e191f16"},"vehicle_type_id":"4","last_reported":1753107246,"current_range_meters":21600,"station_id":"ce4bhgp2rcd13ifvqfc0","pricing_plan_id":"cebpf4jnsgd1na2vs0mg"},{"bike_id":"d4ae3d20-9dc0-4d9e-ad31-1b1b5924c74e","system_id":"levelo_inurba_marseille","lat":43.30522,"lon":5.366947,"is_reserved":false,"is_disabled":false,"rental_uris":{"android":"levelo://app?vid=d4ae3d20-9dc0-4d9e-ad31-1b1b5924c74e","ios":"levelo://app?vid=d4ae3d20-9dc0-4d9e-ad31-1b1b5924c74e"},"vehicle_type_id":"4","last_reported":1753107246,"current_range_meters":21600,"station_id":"ce4bgrp2rcd13ifvqc9g","pricing_plan_id":"cebpf4jnsgd1na2vs0mg"},{"bike_id":"69bc51f8-a7fe-4ea9-a95e-46aa06773691","system_id":"levelo_inurba_marseille","lat":43.21161,"lon":5.35074,"is_reserved":false,"is_disabled":false,"rental_uris":{"android":"levelo://app?vid=69bc51f8-a7fe-4ea9-a95e-46aa06773691","ios":"levelo://app?vid=69bc51f8-a7fe-4ea9-a95e-46aa06773691"},"vehicle_type_id":"4","last_reported":1753107246,"current_range_meters":21600,"station_id":"st_cvj6sg6p6f1abm77japg","pricing_plan_id":"cebpf4jnsgd1na2vs0mg"},{"bike_id":"7a3e8286-d23a-436c-a229-6ffa0c627ba2","system_id":"levelo_inurba_marseille","lat":43.21168,"lon":5.35068,"is_reserved":false,"is_disabled":false,"rental_uris":{"android":"levelo://app?vid=7a3e8286-d23a-436c-a229-6ffa0c627ba2","ios":"levelo://app?vid=7a3e8286-d23a-436c-a229-6ffa0c627ba2"},"vehicle_type_id":"4","last_reported":1753107246,"current_range_meters":21600,"station_id":"st_cvj6sg6p6f1abm77japg","pricing_plan_id":"cebpf4jnsgd1na2vs0mg"},{"bike_id":"5c5194ca-d4ff-4a4a-a8fd-9b6178c869b1","system_id":"levelo_inurba_marseille","lat":43.27934,"lon":5.4105,"is_reserved":false,"is_disabled":false,"rental_uris":{"android":"levelo://app?vid=5c5194ca-d4ff-4a4a-a8fd-9b6178c869b1","ios":"levelo://app?vid=5c5194ca-d4ff-4a4a-a8fd-9b6178c869b1"},"vehicle_type_id":"4","last_reported":1753107246,"current_range_meters":21600,"station_id":"ce4bhnp2rcd13ifvqh0g","pricing_plan_id":"cebpf4jnsgd1na2vs0mg"},