{"last_updated":1743952118,"ttl":60,"version":"2.2","data":{"bikes":[{"bike_id":"557dddb3-e057-4dac-b81b-407f1b639c9f","system_id":"levelo_inurba_marseille","lat":43.301417,"lon":5.374191,"is_reserved":false,"is_disabled":false,"rental_uris":{"android":"levelo://app?vid=557dddb3-e057-4dac-b81b-407f1b639c9f","ios":"levelo://app?vid=557dddb3-e057-4dac-b81b-407f1b639c9f"},"vehicle_type_id":"4","last_reported":1743952118,"current_range_meters":2800,"station_id":"ce4bgs92rcd13ifvqcc0","pricing_plan_id":"cebpf4jnsgd1na2vs0mg"},{"bike_id":"7a07085d-dbb7-4df3-8c04-ea5bd197e798","system_id":"levelo_inurba_marseille","lat":43.29071,"lon":5.37159,"is_reserved":false,"is_disabled":false,"rental_uris":{"android":"levelo://app?vid=7a07085d-dbb7-4df3-8c04-ea5bd197e798","ios":"levelo://app?vid=7a07085d-dbb7-4df3-8c04-ea5bd197e798"},"vehicle_type_id":"4","last_reported":1743952118,"current_range_meters":2800,"station_id":"ce4bh5p2rcd13ifvqe4g","pricing_plan_id":"cebpf4jnsgd1na2vs0mg"},{"bike_id":"e7b956ce-2ab2-4301-8fd3-6312d753e8f6","system_id":"levelo_inurba_marseille","lat":43.246667,"lon":5.38165,"is_reserved":false,"is_disabled":true,"rental_uris":{"android":"levelo://app?vid=e7b956ce-2ab2-4301-8fd3-6312d753e8f6","ios":"levelo://app?vid=e7b956ce-2ab2-4301-8fd3-6312d753e8f6"},"vehicle_type_id":"4","last_reported":1743952118,"current_range_meters":2800,"station_id":"ce4bhih2rcd13ifvqfr0","pricing_plan_id":"cebpf4jnsgd1na2vs0mg"},{"bike_id":"3a976253-80c2-4143-9206-af00bb4ee8a9","system_id":"levelo_inurba_marseille","lat":43.273804,"lon":5.362516,"is_reserved":false,"is_disabled":false,"rental_uris":{"android":"levelo://app?vid=3a976253-80c2-4143-9206-af00bb4ee8a9","ios":"levelo://app?vid=3a976253-80c2-4143-9206-af00bb4ee8a9"},"vehicle_type_id":"4","last_reported":1743952118,"current_range_meters":2000,"station_id":"ce4bgg92rcd13ifvqb30","pricing_plan_id":"cebpf4jnsgd1na2vs0mg"},{"bike_id":"df123ad0-1fbd-4491-b57a-3c597ab4e63b","system_id":"levelo_inurba_marseille","lat":43.30301,"lon":5.36869,"is_reserved":false,"is_disabled":false,"rental_uris":{"android":"levelo://app?vid=df123ad0-1fbd-4491-b57a-3c597ab4e63b","ios":"levelo://app?vid=df123ad0-1fbd-4491-b57a-3c597ab4e63b"},"vehicle_type_id":"4","last_reported":1743952118,"current_range_meters":2800,"station_id":"ce4bgqh2rcd13ifvqc5g","pricing_plan_id":"cebpf4jnsgd1na2vs0mg"},{"bike_id":"739133cc-35be-4a3f-80b2-574b721f97be","system_id":"levelo_inurba_marseille","lat":43.30292,"lon":5.39221,"is_reserved":false,"is_disabled":false,"rental_uris":{"android":"levelo://app?vid=739133cc-35be-4a3f-80b2-574b721f97be","ios":"levelo://app?vid=739133cc-35be-4a3f-80b2-574b721f97be"},"vehicle_type_id":"4","last_reported":1743952118,"current_range_meters":3200,"station_id":"ce4bgkh2rcd13ifvqbk0","pricing_plan_id":"cebpf4jnsgd1na2vs0mg"},{"bike_id":"8fa92ff1-c2cb-4fa2-b3ce-e14c12ce1bf4","system_id":"levelo_inurba_marseille","lat":43.28157,"lon":5.42643,"is_reserved":false,"is_disabled":false,"rental_uris":{"android":"levelo://app?vid=8fa92ff1-c2cb-4fa2-b3ce-e14c12ce1bf4","ios":"levelo://app?vid=8fa92ff1-c2cb-4fa2-b3ce-e14c12ce1bf4"},"vehicle_type_id":"4","last_reported":1743952118,"current_range_meters":3200,"station_id":"ce4bhnh2rcd13ifvqgug","pricing_plan_id":"cebpf4jnsgd1na2vs0mg"},{"bike_id":"fdcee6ed-c791-4583-9f7d-869c50953089","system_id":"levelo_inurba_marseille","lat":43.31498,"lon":5.37308,"is_reserved":false,"is_disabled":false,"rental_uris":{"android":"levelo://app?vid=fdcee6ed-c791-4583-9f7d-869c50953089","ios":"levelo://app?vid=fdcee6ed-c791-4583-9f7d-869c50953089"},"vehicle_type_id":"4","last_reported":1743952118,"current_range_meters":3200,"station_id":"ce4bgt12rcd13ifvqcd0","pricing_plan_id":"cebpf4jnsgd1na2vs0mg"},{"bike_id":"0ae82aa6-6389-43fc-80c8-365dc78d37ef","system_id":"levelo_inurba_marseille","lat":43.29006,"lon":5.35617,"is_reserved":false,"is_disabled":false,"rental_uris":{"android":"levelo://app?vid=0ae82aa6-6389-43fc-80c8-365dc78d37ef","ios":"levelo://app?vid=0ae82aa6-6389-43fc-80c8-365dc78d37ef"},"vehicle_type_id":"4","last_reported":1743952118,"current_range_meters":3200,"station_id":"ce4bhb92rcd13ifvqen0","pricing_plan_id":"cebpf4jnsgd1na2vs0mg"},{"bike_id":"058e7ace-d3c4-493b-9545-2db99b94b7d4","system_id":"levelo_inurba_marseille","lat":43.25719,"lon":5.41112,"is_reserved":false,"is_disabled":false,"rental_uris":{"android":"levelo://app?vid=058e7ace-d3c4-493b-9545-2db99b94b7d4","ios":"levelo://app?vid=058e7ace-d3c4-493b-9545-2db99b94b7d4"},"vehicle_type_id":"4","last_reported":1743952118,"current_range_meters":2800,"station_id":"ce4bhkp2rcd13ifvqgd0","pricing_plan_id":"cebpf4jnsgd1na2vs0mg"},{"bike_id":"9eb28498-f14b-42a6-abe4-ba78f77e9153","system_id":"levelo_inurba_marseille","lat":43.27973,"lon":5.387378,"is_reserved":false,"is_disabled":false,"rental_uris":{"android":"levelo://app?vid=9eb28498-f14b-42a6-abe4-ba78f77e9153","ios":"levelo://app?vid=9eb28498-f14b-42a6-abe4-ba78f77e9153"},"vehicle_type_id":"4","last_reported":1743952118,"current_range_meters":2800,"station_id":"ce4bh3p2rcd13ifvqdp0","pricing_plan_id":"cebpf4jnsgd1na2vs0mg"},{"bike_id":"c8c2b143-c957-408e-9859-0d785c1ee612","system_id":"levelo_inurba_marseille","lat":43.24164,"lon":5.36408,"is_reserved":false,"is_disabled":false,"rental_uris":{"android":"levelo://app?vid=c8c2b143-c957-408e-9859-0d785c1ee612","ios":"levelo://app?vid=c8c2b143-c957-408e-9859-0d785c1ee612"},"vehicle_type_id":"4","last_reported":1743952118,"current_range_meters":3200,"station_id":"cpo36qri1sfpv3e86is0","pricing_plan_id":"cebpf4jnsgd1na2vs0mg"},{"bike_id":"1be39a9a-f646-40a0-8375-a8f28bd477a0","system_id":"levelo_inurba_marseille","lat":43.23969,"lon":5.36626,"is_reserved":false,"is_disabled":false,"rental_uris":{"android":"levelo://app?vid=1be39a9a-f646-40a0-8375-a8f28bd477a0","ios":"levelo://app?vid=1be39a9a-f646-40a0-8375-a8f28bd477a0"},"vehicle_type_id":"4","last_reported":1743952118,"current_range_meters":3200,"station_id":"ce4bhi12rcd13ifvqfp0","pricing_plan_id":"cebpf4jnsgd1na2vs0mg"},{"bike_id":"629f92c7-0137-441a-a70c-ecf552b4b559","system_id":"levelo_inurba_marseille","lat":43.24392,"lon":5.37065,"is_reserved":false,"is_disabled":false,"rental_uris":{"android":"levelo://app?vid=629f92c7-0137-441a-a70c-ecf552b4b559","ios":"levelo://app?vid=629f92c7-0137-441a-a70c-ecf552b4b559"},"vehicle_type_id":"4","last_reported":1743952118,"current_range_meters":3200,"station_id":"ce4bhhh2rcd13ifvqfk0","pricing_plan_id":"cebpf4jnsgd1na2vs0mg"},{"bike_id":"feb6e46c-3fb2-45a9-a2fb-22ac62feb505","system_id":"levelo_inurba_marseille","lat":43.23059,"lon":5.35492,"is_reserved":false,"is_disabled":true,"rental_uris":{"android":"levelo://app?vid=feb6e46c-3fb2-45a9-a2fb-22ac62feb505","ios":"levelo://app?vid=feb6e46c-3fb2-45a9-a2fb-22ac62feb505"},"vehicle_type_id":"4","last_reported":1743952118,"current_range_meters":3200,"station_id":"","pricing_plan_id":"cebpf4jnsgd1na2vs0mg"},{"bike_id":"5dadd4c5-4089-4be1-a42e-9af02797d195","system_id":"levelo_inurba_marseille","lat":43.23195,"lon":5.35557,"is_reserved":false,"is_disabled":false,"rental_uris":{"android":"levelo://app?vid=5dadd4c5-4089-4be1-a42e-9af02797d195","ios":"levelo://app?vid=5dadd4c5-4089-4be1-a42e-9af02797d195"},"vehicle_type_id":"4","last_reported":1743952118,"current_range_meters":3600,"station_id":"ce4bhu92rcd13ifvqi70","pricing_plan_id":"cebpf4jnsgd1na2vs0mg"},{"bike_id":"28445ed2-ce07-4d0b-8e48-04f6b52979c7","system_id":"levelo_inurba_marseille","lat":43.3149,"lon":5.37309,"is_reserved":false,"is_disabled":false,"rental_uris":{"android":"levelo://app?vid=28445ed2-ce07-4d0b-8e48-04f6b52979c7","ios":"levelo://app?vid=28445ed2-ce07-4d0b-8e48-04f6b52979c7"},"vehicle_type_id":"4","last_reported":1743952118,"current_range_meters":3600,"station_id":"ce4bgt12rcd13ifvqcd0","pricing_plan_id":"cebpf4jnsgd1na2vs0mg"},{"bike_id":"aeaafdce-072b-410b-bb71-bd5216dc505b","system_id":"levelo_inurba_marseille","lat":43.22976,"lon":5.40362,"is_reserved":false,"is_disabled":false,"rental_uris":{"android":"levelo://app?vid=aeaafdce-072b-410b-bb71-bd5216dc505b","ios":"levelo://app?vid=aeaafdce-072b-410b-bb71-bd5216dc505b"},"vehicle_type_id":"4","last_reported":1743952118,"current_range_meters":3600,"station_id":"","pricing_plan_id":"cebpf4jnsgd1na2vs0mg"},{"bike_id":"2b5e7ee6-35f1-4d9a-aa54-97acf6b5e93f","system_id":"levelo_inurba_marseille","lat":43.24168,"lon":5.36397,"is_reserved":false,"is_disabled":false,"rental_uris":{"android":"levelo://app?vid=2b5e7ee6-35f1-4d9a-aa54-97acf6b5e93f","ios":"levelo://app?vid=2b5e7ee6-35f1-4d9a-aa54-97acf6b5e93f"},"vehicle_type_id":"4","last_reported":1743952118,"current_range_meters":3600,"station_id":"cpo36qri1sfpv3e86is0","pricing_plan_id":"cebpf4jnsgd1na2vs0mg"},{"bike_id":"9b2778b6-408d-4e25-a4cd-28e8fddece52","system_id":"levelo_inurba_marseille","lat":43.29421,"lon":5.38623,"is_reserved":false,"is_disabled":false,"rental_uris":{"android":"levelo://app?vid=9b2778b6-408d-4e25-a4cd-28e8fddece52","ios":"levelo://app?vid=9b2778b6-408d-4e25-a4cd-28e8fddece52"},"vehicle_type_id":"4","last_reported":1743952118,"current_range_meters":3200,"station_id":"ce4bh2h2rcd13ifvqdh0","pricing_plan_id":"cebpf4jnsgd1na2vs0mg"},{"bike_id":"9a36e749-313f-43fc-ac90-b52b5015306e","system_id":"levelo_inurba_marseille","lat":43.21199,"lon":5.35061,"is_reserved":false,"is_disabled":false,"rental_uris":{"android":"levelo://app?vid=9a36e749-313f-43fc-ac90-b52b5015306e","ios":"levelo://app?vid=9a36e749-313f-43fc-ac90-b52b5015306e"},"vehicle_type_id":"4","last_reported":1743952118,"current_range_meters":3600,"station_id":"st_cvj6sg6p6f1abm77japg","pricing_plan_id":"cebpf4jnsgd1na2vs0mg"},{"bike_id":"00cb19b4-d8e0-485f-a15a-3e8fa94a0c5e","system_id":"levelo_inurba_marseille","lat":43.23057,"lon":5.35498,"is_reserved":false,"is_disabled":false,"rental_uris":{"android":"levelo://app?vid=00cb19b4-d8e0-485f-a15a-3e8fa94a0c5e","ios":"levelo://app?vid=00cb19b4-d8e0-485f-a15a-3e8fa94a0c5e"},"vehicle_type_id":"4","last_reported":1743952118,"current_range_meters":3600,"station_id":"cpo3342slgdg3j2ifvpg","pricing_plan_id":"cebpf4jnsgd1na2vs0mg"},{"bike_id":"213477f4-c57c-4414-b62c-94f5462fca78","system_id":"levelo_inurba_marseille","lat":43.2119,"lon":5.35071,"is_reserved":false,"is_disabled":false,"rental_uris":{"android":"levelo://app?vid=213477f4-c57c-4414-b62c-94f5462fca78","ios":"levelo://app?vid=213477f4-c57c-4414-b62c-94f5462fca78"},"vehicle_type_id":"4","last_reported":1743952118,"current_range_meters":3600,"station_id":"st_cvj6sg6p6f1abm77japg","pricing_plan_id":"cebpf4jnsgd1na2vs0mg"},{"bike_id":"b94f63d3-7ff4-4c22-9b0e-5b597ec3667e","system_id":"levelo_inurba_marseille","lat":43.29229,"lon":5.36069,"is_reserved":false,"is_disabled":false,"rental_uris":{"android":"levelo://app?vid=b94f63d3-7ff4-4c22-9b0e-5b597ec3667e","ios":"levelo://app?vid=b94f63d3-7ff4-4c22-9b0e-5b597ec3667e"},"vehicle_type_id":"4","last_reported":1743952118,"current_range_meters":3600,"station_id":"ce4bhbh2rcd13ifvqeqg","pricing_plan_id":"cebpf4jnsgd1na2vs0mg"},{"bike_id":"372ec588-35a1-4f23-92bd-9b4c59321865","system_id":"levelo_inurba_marseille","lat":43.26942,"lon":5.40254,"is_reserved":false,"is_disabled":false,"rental_uris":{"android":"levelo://app?vid=372ec588-35a1-4f23-92bd-9b4c59321865","ios":"levelo://app?vid=372ec588-35a1-4f23-92bd-9b4c59321865"},"vehicle_type_id":"4","last_reported":1743952118,"current_range_meters":3600,"station_id":"cjm6bp8fraef2m0cb0m0","pricing_plan_id":"cebpf4jnsgd1na2vs0mg"},{"bike_id":"4d7aa6e0-f789-48cd-96b2-e670fb0d1e13","system_id":"levelo_inurba_marseille","lat":43.24388,"lon":5.37059,"is_reserved":false,"is_disabled":false,"rental_uris":{"android":"levelo://app?vid=4d7aa6e0-f789-48cd-96b2-e670fb0d1e13","ios":"levelo://app?vid=4d7aa6e0-f789-48cd-96b2-e670fb0d1e13"},"vehicle_type_id":"4","last_reported":1743952118,"current_range_meters":3600,"station_id":"ce4bhhh2rcd13ifvqfk0","pricing_plan_id":"cebpf4jnsgd1na2vs0mg"},{"bike_id":"2cbb6dc3-aafd-42a1-8326-324602b54fb8","system_id":"levelo_inurba_marseille","lat":43.23139,"lon":5.43692,"is_reserved":false,"is_disabled":false,"rental_uris":{"android":"levelo://app?vid=2cbb6dc3-aafd-42a1-8326-324602b54fb8","ios":"levelo://app?vid=2cbb6dc3-aafd-42a1-8326-324602b54fb8"},"vehicle_type_id":"4","last_reported":1743952118,"current_range_meters":3600,"station_id":"ce4bhmp2rcd13ifvqgog","pricing_plan_id":"cebpf4jnsgd1na2vs0mg"},{"bike_id":"3d56ab36-aaa6-4a4c-891b-63b97e495122","system_id":"levelo_inurba_marseille","lat":43.23056,"lon":5.3548,"is_reserved":false,"is_disabled":false,"rental_uris":{"android":"levelo://app?vid=3d56ab36-aaa6-4a4c-891b-63b97e495122","ios":"levelo://app?vid=3d56ab36-aaa6-4a4c-891b-63b97e495122"},"vehicle_type_id":"4","last_reported":1743952118,"current_range_meters":4000,"station_id":"cpo3342slgdg3j2ifvpg","pricing_plan_id":"cebpf4jnsgd1na2vs0mg"},{"bike_id":"b3a39ae3-43fe-4ed3-976f-7fefdf01e3de","system_id":"levelo_inurba_marseille","lat":43.25501,"lon":5.37648,"is_reserved":false,"is_disabled":false,"rental_uris":{"android":"levelo://app?vid=b3a39ae3-43fe-4ed3-976f-7fefdf01e3de","ios":"levelo://app?vid=b3a39ae3-43fe-4ed3-976f-7fefdf01e3de"},"vehicle_type_id":"4","last_reported":1743952118,"current_range_meters":4000,"station_id":"ce4bhh12rcd13ifvqff0","pricing_plan_id":"cebpf4jnsgd1na2vs0mg"},{"bike_id":"4240d895-dbbd-4c43-b866-8c6702fe9b21","system_id":"levelo_inurba_marseille","lat":43.290044,"lon":5.356116,"is_reserved":false,"is_disabled":false,"rental_uris":{"android":"levelo://app?vid=4240d895-dbbd-4c43-b866-8c6702fe9b21","ios":"levelo://app?vid=4240d895-dbbd-4c43-b866-8c6702fe9b21"},"vehicle_type_id":"4","last_reported":1743952118,"current_range_meters":3600,"station_id":"ce4bhb92rcd13ifvqen0","pricing_plan_id":"cebpf4jnsgd1na2vs0mg"},{"bike_id":"88bf54bd-94bc-4f68-9636-1722ec7d984e","system_id":"levelo_inurba_marseille","lat":43.28465,"lon":5.35886,"is_reserved":false,"is_disabled":false,"rental_uris":{"android":"levelo://app?vid=88bf54bd-94bc-4f68-9636-1722ec7d984e","ios":"levelo://app?vid=88bf54bd-94bc-4f68-9636-1722ec7d984e"},"vehicle_type_id":"4","last_reported":1743952118,"current_range_meters":4000,"station_id":"ce4bhah2rcd13ifvqei0","pricing_plan_id":"cebpf4jnsgd1na2vs0mg"},{"bike_id":"69f8a740-a0ff-4635-87ad-9b7d7d0db53e","system_id":"levelo_inurba_marseille","lat":43.24641,"lon":5.38892,"is_reserved":false,"is_disabled":true,"rental_uris":{"android":"levelo://app?vid=69f8a740-a0ff-4635-87ad-9b7d7d0db53e","ios":"levelo://app?vid=69f8a740-a0ff-4635-87ad-9b7d7d0db53e"},"vehicle_type_id":"4","last_reported":1743952118,"current_range_meters":4000,"station_id":"ce4bhg12rcd13ifvqf60","pricing_plan_id":"cebpf4jnsgd1na2vs0mg"},{"bike_id":"eebdd924-1860-4c9f-8fa2-49aca7f6cf89","system_id":"levelo_inurba_marseille","lat":43.280787,"lon":5.396637,"is_reserved":false,"is_disabled":false,"rental_uris":{"android":"levelo://app?vid=eebdd924-1860-4c9f-8fa2-49aca7f6cf89","ios":"levelo://app?vid=eebdd924-1860-4c9f-8fa2-49aca7f6cf89"},"vehicle_type_id":"4","last_reported":1743952118,"current_range_meters":4000,"station_id":"ce4bho12rcd13ifvqh2g","pricing_plan_id":"cebpf4jnsgd1na2vs0mg"},{"bike_id":"a8c5543f-0892-43cb-b96f-3c97bb120ec9","system_id":"levelo_inurba_marseille","lat":43.31713,"lon":5.43704,"is_reserved":false,"is_disabled":false,"rental_uris":{"android":"levelo://app?vid=a8c5543f-0892-43cb-b96f-3c97bb120ec9","ios":"levelo://app?vid=a8c5543f-0892-43cb-b96f-3c97bb120ec9"},"vehicle_type_id":"4","last_reported":1743952118,"current_range_meters":4400,"station_id":"ce4bhp92rcd13ifvqhcg","pricing_plan_id":"cebpf4jnsgd1na2vs0mg"},{"bike_id":"74ad9775-6240-40e3-b819-75c9a848a2fa","system_id":"levelo_inurba_marseille","lat":43.23146,"lon":5.43712,"is_reserved":false,"is_disabled":false,"rental_uris":{"android":"levelo://app?vid=74ad9775-6240-40e3-b819-75c9a848a2fa","ios":"levelo://app?vid=74ad9775-6240-40e3-b819-75c9a848a2fa"},"vehicle_type_id":"4","last_reported":1743952118,"current_range_meters":4400,"station_id":"ce4bhmp2rcd13ifvqgog","pricing_plan_id":"cebpf4jnsgd1na2vs0mg"},{"bike_id":"fb0d4993-67fa-4314-9525-ef2ba9197c72","system_id":"levelo_inurba_marseille","lat":43.30321,"lon":5.4059,"is_reserved":false,"is_disabled":false,"rental_uris":{"android":"levelo://app?vid=fb0d4993-67fa-4314-9525-ef2ba9197c72","ios":"levelo://app?vid=fb0d4993-67fa-4314-9525-ef2ba9197c72"},"vehicle_type_id":"4","last_reported":1743952118,"current_range_meters":4400,"station_id":"","pricing_plan_id":"cebpf4jnsgd1na2vs0mg"},{"bike_id":"14501fc9-095c-47d0-8fe7-acc8eb7d7cbe","system_id":"levelo_inurba_marseille","lat":43.28475,"lon":5.38432,"is_reserved":false,"is_disabled":false,"rental_uris":{"android":"levelo://app?vid=14501fc9-095c-47d0-8fe7-acc8eb7d7cbe","ios":"levelo://app?vid=14501fc9-095c-47d0-8fe7-acc8eb7d7cbe"},"vehicle_type_id":"4","last_reported":1743952118,"current_range_meters":800,"station_id":"ce4bh512rcd13ifvqe3g","pricing_plan_id":"cebpf4jnsgd1na2vs0mg"},{"bike_id":"435df996-23d0-4266-9397-8cf5564310cc","system_id":"levelo_inurba_marseille","lat":43.2417,"lon":5.36397,"is_reserved":false,"is_disabled":false,"rental_uris":{"android":"levelo://app?vid=435df996-23d0-4266-9397-8cf5564310cc","ios":"levelo://app?vid=435df996-23d0-4266-9397-8cf5564310cc"},"vehicle_type_id":"4","last_reported":1743952118,"current_range_meters":4400,"station_id":"cpo36qri1sfpv3e86is0","pricing_plan_id":"cebpf4jnsgd1na2vs0mg"},{"bike_id":"14a64ac4-bf6f-4bc7-bd47-235b8e111e99","system_id":"levelo_inurba_marseille","lat":43.24144,"lon":5.36398,"is_reserved":false,"is_disabled":false,"rental_uris":{"android":"levelo://app?vid=14a64ac4-bf6f-4bc7-bd47-235b8e111e99","ios":"levelo://app?vid=14a64ac4-bf6f-4bc7-bd47-235b8e111e99"},"vehicle_type_id":"4","last_reported":1743952118,"current_range_meters":4400,"station_id":"cpo36qri1sfpv3e86is0","pricing_plan_id":"cebpf4jnsgd1na2vs0mg"},{"bike_id":"8d880ec4-e7cd-45a5-bacf-543a952cab57","system_id":"levelo_inurba_marseille","lat":43.27373,"lon":5.36257,"is_reserved":false,"is_disabled":false,"rental_uris":{"android":"levelo://app?vid=8d880ec4-e7cd-45a5-bacf-543a952cab57","ios":"levelo://app?vid=8d880ec4-e7cd-45a5-bacf-543a952cab57"},"vehicle_type_id":"4","last_reported":1743952118,"current_range_meters":4400,"station_id":"ce4bhbh2rcd13ifvqeo0","pricing_plan_id":"cebpf4jnsgd1na2vs0mg"},{"bike_id":"ad9a8615-b70a-4b25-877b-2a4f604abcbb","system_id":"levelo_inurba_marseille","lat":43.21192,"lon":5.35072,"is_reserved":false,"is_disabled":false,"rental_uris":{"android":"levelo://app?vid=ad9a8615-b70a-4b25-877b-2a4f604abcbb","ios":"levelo://app?vid=ad9a8615-b70a-4b25-877b-2a4f604abcbb"},"vehicle_type_id":"4","last_reported":1743952118,"current_range_meters":4800,"station_id":"st_cvj6sg6p6f1abm77japg","pricing_plan_id":"cebpf4jnsgd1na2vs0mg"},{"bike_id":"dd14f742-54b5-4c67-a65c-b40cd2151065","system_id":"levelo_inurba_marseille","lat":43.22931,"lon":5.35379,"is_reserved":false,"is_disabled":false,"rental_uris":{"android":"levelo://app?vid=dd14f742-54b5-4c67-a65c-b40cd2151065","ios":"levelo://app?vid=dd14f742-54b5-4c67-a65c-b40cd2151065"},"vehicle_type_id":"4","last_reported":1743952118,"current_range_meters":4800,"station_id":"cpo3532slgdg3j2ikp40","pricing_plan_id":"cebpf4jnsgd1na2vs0mg"},{"bike_id":"40119a5c-8a48-4b5b-8b30-c09a5c53d9dc","system_id":"levelo_inurba_marseille","lat":43.23966,"lon":5.36625,"is_reserved":false,"is_disabled":false,"rental_uris":{"android":"levelo://app?vid=40119a5c-8a48-4b5b-8b30-c09a5c53d9dc","ios":"levelo://app?vid=40119a5c-8a48-4b5b-8b30-c09a5c53d9dc"},"vehicle_type_id":"4","last_reported":1743952118,"current_range_meters":4800,"station_id":"ce4bhi12rcd13ifvqfp0","pricing_plan_id":"cebpf4jnsgd1na2vs0mg"},{"bike_id":"c5a5a387-3e7a-437d-807f-0aa12d9b0fd9","system_id":"levelo_inurba_marseille","lat":43.30784,"lon":5.3764,"is_reserved":false,"is_disabled":false,"rental_uris":{"android":"levelo://app?vid=c5a5a387-3e7a-437d-807f-0aa12d9b0fd9","ios":"levelo://app?vid=c5a5a387-3e7a-437d-807f-0aa12d9b0fd9"},"vehicle_type_id":"4","last_reported":1743952118,"current_range_meters":4800,"station_id":"ce4bgv92rcd13ifvqcq0","pricing_plan_id":"cebpf4jnsgd1na2vs0mg"},{"bike_id":"ce2240bd-c95d-4810-8284-0637dc6d4618","system_id":"levelo_inurba_marseille","lat":43.29038,"lon":5.37566,"is_reserved":false,"is_disabled":false,"rental_uris":{"android":"levelo://app?vid=ce2240bd-c95d-4810-8284-0637dc6d4618","ios":"levelo://app?vid=ce2240bd-c95d-4810-8284-0637dc6d4618"},"vehicle_type_id":"4","last_reported":1743952118,"current_range_meters":4400,"station_id":"ce4bh692rcd13ifvqe90","pricing_plan_id":"cebpf4jnsgd1na2vs0mg"},{"bike_id":"8739ea41-f2be-441b-82fb-ac6608ea96ab","system_id":"levelo_inurba_marseille","lat":43.27125,"lon":5.38971,"is_reserved":false,"is_disabled":false,"rental_uris":{"android":"levelo://app?vid=8739ea41-f2be-441b-82fb-ac6608ea96ab","ios":"levelo://app?vid=8739ea41-f2be-441b-82fb-ac6608ea96ab"},"vehicle_type_id":"4","last_reported":1743952118,"current_range_meters":4800,"station_id":"ce4bh612rcd13ifvqe6g","pricing_plan_id":"cebpf4jnsgd1na2vs0mg"},{"bike_id":"c3c1aee6-514f-475e-927a-4b5fb58c50ed","system_id":"levelo_inurba_marseille","lat":43.26057,"lon":5.39401,"is_reserved":false,"is_disabled":false,"rental_uris":{"android":"levelo://app?vid=c3c1aee6-514f-475e-927a-4b5fb58c50ed","ios":"levelo://app?vid=c3c1aee6-514f-475e-927a-4b5fb58c50ed"},"vehicle_type_id":"4","last_reported":1743952118,"current_range_meters":6000,"station_id":"ce4bhh92rcd13ifvqfj0","pricing_plan_id":"cebpf4jnsgd1na2vs0mg"},{"bike_id":"976099b8-33f5-4b8f-8720-f316bc3a1612","system_id":"levelo_inurba_marseille","lat":43.21206,"lon":5.35068,"is_reserved":false,"is_disabled":false,"rental_uris":{"android":"levelo://app?vid=976099b8-33f5-4b8f-8720-f316bc3a1612","ios":"levelo://app?vid=976099b8-33f5-4b8f-8720-f316bc3a1612"},"vehicle_type_id":"4","last_reported":1743952118,"current_range_meters":4800,"station_id":"st_cvj6sg6p6f1abm77japg","pricing_plan_id":"cebpf4jnsgd1na2vs0mg"},{"bike_id":"e29dc969-6c28-44b9-98eb-cb258d755566","system_id":"levelo_inurba_marseille","lat":43.300912,"lon":5.390785,"is_reserved":false,"is_disabled":false,"rental_uris":{"android":"levelo://app?vid=e29dc969-6c28-44b9-98eb-cb258d755566","ios":"levelo://app?vid=e29dc969-6c28-44b9-98eb-cb258d755566"},"vehicle_type_id":"4","last_reported":1743952118,"current_range_meters":4400,"station_id":"ce4bh192rcd13ifvqdb0","pricing_plan_id":"cebpf4jnsgd1na2vs0mg"},{"bike_id":"d1413020-cf87-4a4c-929e-9a98675cd94d","system_id":"levelo_inurba_marseille","lat":43.28415,"lon":5.34986,"is_reserved":false,"is_disabled":false,"rental_uris":{"android":"levelo://app?vid=d1413020-cf87-4a4c-929e-9a98675cd94d","ios":"levelo://app?vid=d1413020-cf87-4a4c-929e-9a98675cd94d"},"vehicle_type_id":"4","last_reported":1743952118,"current_range_meters":5600,"station_id":"ce4bhbh2rcd13ifvqepg","pricing_plan_id":"cebpf4jnsgd1na2vs0mg"},{"bike_id":"8e8105ce-63e2-4441-9ebe-d6a09a08a22e","system_id":"levelo_inurba_marseille","lat":43.29668,"lon":5.36204,"is_reserved":false,"is_disabled":false,"rental_uris":{"android":"levelo://app?vid=8e8105ce-63e2-4441-9ebe-d6a09a08a22e","ios":"levelo://app?vid=8e8105ce-63e2-4441-9ebe-d6a09a08a22e"},"vehicle_type_id":"4","last_reported":1743952118,"current_range_meters":5600,"station_id":"","pricing_plan_id":"cebpf4jnsgd1na2vs0mg"},{"bike_id":"736f5d1e-a059-41e0-b9f5-e24f63300b54","system_id":"levelo_inurba_marseille","lat":43.251128,"lon":5.403474,"is_reserved":false,"is_disabled":false,"rental_uris":{"android":"levelo://app?vid=736f5d1e-a059-41e0-b9f5-e24f63300b54","ios":"levelo://app?vid=736f5d1e-a059-41e0-b9f5-e24f63300b54"},"vehicle_type_id":"4","last_reported":1743952118,"current_range_meters":5600,"station_id":"ce4bhlh2rcd13ifvqgig","pricing_plan_id":"cebpf4jnsgd1na2vs0mg"},{"bike_id":"eb79d1f9-7c91-4ea2-b5f8-796189743e1a","system_id":"levelo_inurba_marseille","lat":43.34766,"lon":5.38021,"is_reserved":false,"is_disabled":false,"rental_uris":{"android":"levelo://app?vid=eb79d1f9-7c91-4ea2-b5f8-796189743e1a","ios":"levelo://app?vid=eb79d1f9-7c91-4ea2-b5f8-796189743e1a"},"vehicle_type_id":"4","last_reported":1743952118,"current_range_meters":6000,"station_id":"","pricing_plan_id":"cebpf4jnsgd1na2vs0mg"},{"bike_id":"6b8fc1ae-1675-418c-81f6-303f3c85bbfa","system_id":"levelo_inurba_marseille","lat":43.2417,"lon":5.364,"is_reserved":false,"is_disabled":false,"rental_uris":{"android":"levelo://app?vid=6b8fc1ae-1675-418c-81f6-303f3c85bbfa","ios":"levelo://app?vid=6b8fc1ae-1675-418c-81f6-303f3c85bbfa"},"vehicle_type_id":"4","last_reported":1743952118,"current_range_meters":6000,"station_id":"cpo36qri1sfpv3e86is0","pricing_plan_id":"cebpf4jnsgd1na2vs0mg"},{"bike_id":"16a4ef28-c386-4451-8af2-41f507b21d41","system_id":"levelo_inurba_marseille","lat":43.21194,"lon":5.35071,"is_reserved":false,"is_disabled":false,"rental_uris":{"android":"levelo://app?vid=16a4ef28-c386-4451-8af2-41f507b21d41","ios":"levelo://app?vid=16a4ef28-c386-4451-8af2-41f507b21d41"},"vehicle_type_id":"4","last_reported":1743952118,"current_range_meters":6000,"station_id":"st_cvj6sg6p6f1abm77japg","pricing_plan_id":"cebpf4jnsgd1na2vs0mg"},{"bike_id":"9c85dd5d-b18d-44f9-8237-a4ef1524934c","system_id":"levelo_inurba_marseille","lat":43.32352,"lon":5.36739,"is_reserved":false,"is_disabled":false,"rental_uris":{"android":"levelo://app?vid=9c85dd5d-b18d-44f9-8237-a4ef1524934c","ios":"levelo://app?vid=9c85dd5d-b18d-44f9-8237-a4ef1524934c"},"vehicle_type_id":"4","last_reported":1743952118,"current_range_meters":6000,"station_id":"ce4bhsh2rcd13ifvqi2g","pricing_plan_id":"cebpf4jnsgd1na2vs0mg"},{"bike_id":"65c06576-4122-45d0-9a56-c9ddb6f06aaf","system_id":"levelo_inurba_marseille","lat":43.24167,"lon":5.36396,"is_reserved":false,"is_disabled":false,"rental_uris":{"android":"levelo://app?vid=65c06576-4122-45d0-9a56-c9ddb6f06aaf","ios":"levelo://app?vid=65c06576-4122-45d0-9a56-c9ddb6f06aaf"},"vehicle_type_id":"4","last_reported":1743952118,"current_range_meters":6000,"station_id":"cpo36qri1sfpv3e86is0","pricing_plan_id":"cebpf4jnsgd1na2vs0mg"},{"bike_id":"bf50a1aa-040c-4c62-9c08-1c1de9478aca","system_id":"levelo_inurba_marseille","lat":43.24069,"lon":5.37768,"is_reserved":false,"is_disabled":false,"rental_uris":{"android":"levelo://app?vid=bf50a1aa-040c-4c62-9c08-1c1de9478aca","ios":"levelo://app?vid=bf50a1aa-040c-4c62-9c08-1c1de9478aca"},"vehicle_type_id":"4","last_reported":1743952118,"current_range_meters":6400,"station_id":"ce4bhnp2rcd13ifvqgvg","pricing_plan_id":"cebpf4jnsgd1na2vs0mg"},{"bike_id":"a9de841e-a881-44da-ac68-c2b6f58b613d","system_id":"levelo_inurba_marseille","lat":43.25114,"lon":5.40321,"is_reserved":false,"is_disabled":false,"rental_uris":{"android":"levelo://app?vid=a9de841e-a881-44da-ac68-c2b6f58b613d","ios":"levelo://app?vid=a9de841e-a881-44da-ac68-c2b6f58b613d"},"vehicle_type_id":"4","last_reported":1743952118,"current_range_meters":6400,"station_id":"ce4bhlh2rcd13ifvqgig","pricing_plan_id":"cebpf4jnsgd1na2vs0mg"},{"bike_id":"22ce6c4e-a288-403d-b74e-51024dda4605","system_id":"levelo_inurba_marseille","lat":43.30785,"lon":5.37634,"is_reserved":false,"is_disabled":false,"rental_uris":{"android":"levelo://app?vid=22ce6c4e-a288-403d-b74e-51024dda4605","ios":"levelo://app?vid=22ce6c4e-a288-403d-b74e-51024dda4605"},"vehicle_type_id":"4","last_reported":1743952118,"current_range_meters":6400,"station_id":"ce4bgv92rcd13ifvqcq0","pricing_plan_id":"cebpf4jnsgd1na2vs0mg"},{"bike_id":"6e2b3622-96ed-41b7-b121-88d1783009af","system_id":"levelo_inurba_marseille","lat":43.23153,"lon":5.43715,"is_reserved":false,"is_disabled":false,"rental_uris":{"android":"levelo://app?vid=6e2b3622-96ed-41b7-b121-88d1783009af","ios":"levelo://app?vid=6e2b3622-96ed-41b7-b121-88d1783009af"},"vehicle_type_id":"4","last_reported":1743952118,"current_range_meters":6400,"station_id":"ce4bhmp2rcd13ifvqgog","pricing_plan_id":"cebpf4jnsgd1na2vs0mg"},{"bike_id":"abf828e0-bebc-4654-bc93-1d92f449deee","system_id":"levelo_inurba_marseille","lat":43.32369,"lon":5.3676,"is_reserved":false,"is_disabled":true,"rental_uris":{"android":"levelo://app?vid=abf828e0-bebc-4654-bc93-1d92f449deee","ios":"levelo://app?vid=abf828e0-bebc-4654-bc93-1d92f449deee"},"vehicle_type_id":"4","last_reported":1743952118,"current_range_meters":6400,"station_id":"ce4bhsh2rcd13ifvqi2g","pricing_plan_id":"cebpf4jnsgd1na2vs0mg"},{"bike_id":"45d1923a-b2c0-4b63-a486-9c68870a51ff","system_id":"levelo_inurba_marseille","lat":43.28027,"lon":5.397312,"is_reserved":false,"is_disabled":false,"rental_uris":{"android":"levelo://app?vid=45d1923a-b2c0-4b63-a486-9c68870a51ff","ios":"levelo://app?vid=45d1923a-b2c0-4b63-a486-9c68870a51ff"},"vehicle_type_id":"4","last_reported":1743952118,"current_range_meters":6400,"station_id":"ce4bho12rcd13ifvqh2g","pricing_plan_id":"cebpf4jnsgd1na2vs0mg"},{"bike_id":"c7f883e0-1efa-486f-8716-3d1716df1903","system_id":"levelo_inurba_marseille","lat":43.25099,"lon":5.40323,"is_reserved":false,"is_disabled":false,"rental_uris":{"android":"levelo://app?vid=c7f883e0-1efa-486f-8716-3d1716df1903","ios":"levelo://app?vid=c7f883e0-1efa-486f-8716-3d1716df1903"},"vehicle_type_id":"4","last_reported":1743952118,"current_range_meters":6400,"station_id":"ce4bhlh2rcd13ifvqgig","pricing_plan_id":"cebpf4jnsgd1na2vs0mg"},{"bike_id":"b5487276-eaa6-42e0-95f2-5101920b7161","system_id":"levelo_inurba_marseille","lat":43.23148,"lon":5.43707,"is_reserved":false,"is_disabled":false,"rental_uris":{"android":"levelo://app?vid=b5487276-eaa6-42e0-95f2-5101920b7161","ios":"levelo://app?vid=b5487276-eaa6-42e0-95f2-5101920b7161"},"vehicle_type_id":"4","last_reported":1743952118,"current_range_meters":6800,"station_id":"ce4bhmp2rcd13ifvqgog","pricing_plan_id":"cebpf4jnsgd1na2vs0mg"},{"bike_id":"47987ea5-f3bd-41ea-ae13-7d6493cdc7e2","system_id":"levelo_inurba_marseille","lat":43.23067,"lon":5.35495,"is_reserved":false,"is_disabled":false,"rental_uris":{"android":"levelo://app?vid=47987ea5-f3bd-41ea-ae13-7d6493cdc7e2","ios":"levelo://app?vid=47987ea5-f3bd-41ea-ae13-7d6493cdc7e2"},"vehicle_type_id":"4","last_reported":1743952118,"current_range_meters":6800,"station_id":"cpo3342slgdg3j2ifvpg","pricing_plan_id":"cebpf4jnsgd1na2vs0mg"},{"bike_id":"bae08e3c-9e8d-43b0-9f49-086813d73e87","system_id":"levelo_inurba_marseille","lat":43.27373,"lon":5.36251,"is_reserved":false,"is_disabled":false,"rental_uris":{"android":"levelo://app?vid=bae08e3c-9e8d-43b0-9f49-086813d73e87","ios":"levelo://app?vid=bae08e3c-9e8d-43b0-9f49-086813d73e87"},"vehicle_type_id":"4","last_reported":1743952118,"current_range_meters":6800,"station_id":"ce4bhbh2rcd13ifvqeo0","pricing_plan_id":"cebpf4jnsgd1na2vs0mg"},{"bike_id":"3d88e78d-f8f3-4a05-806c-f97e39d0c973","system_id":"levelo_inurba_marseille","lat":43.24159,"lon":5.36386,"is_reserved":false,"is_disabled":false,"rental_uris":{"android":"levelo://app?vid=3d88e78d-f8f3-4a05-806c-f97e39d0c973","ios":"levelo://app?vid=3d88e78d-f8f3-4a05-806c-f97e39d0c973"},"vehicle_type_id":"4","last_reported":1743952118,"current_range_meters":6800,"station_id":"cpo36qri1sfpv3e86is0","pricing_plan_id":"cebpf4jnsgd1na2vs0mg"},{"bike_id":"31a78237-f89c-4cbc-a0f4-d02eaa6c10cf","system_id":"levelo_inurba_marseille","lat":43.2736,"lon":5.36253,"is_reserved":false,"is_disabled":false,"rental_uris":{"android":"levelo://app?vid=31a78237-f89c-4cbc-a0f4-d02eaa6c10cf","ios":"levelo://app?vid=31a78237-f89c-4cbc-a0f4-d02eaa6c10cf"},"vehicle_type_id":"4","last_reported":1743952118,"current_range_meters":6800,"station_id":"ce4bhbh2rcd13ifvqeo0","pricing_plan_id":"cebpf4jnsgd1na2vs0mg"},{"bike_id":"c04f4dca-0416-474f-8610-712f13ca11e5","system_id":"levelo_inurba_marseille","lat":43.275001,"lon":5.384385,"is_reserved":false,"is_disabled":false,"rental_uris":{"android":"levelo://app?vid=c04f4dca-0416-474f-8610-712f13ca11e5","ios":"levelo://app?vid=c04f4dca-0416-474f-8610-712f13ca11e5"},"vehicle_type_id":"4","last_reported":1743952118,"current_range_meters":6800,"station_id":"ce4bhh92rcd13ifvqfi0","pricing_plan_id":"cebpf4jnsgd1na2vs0mg"},{"bike_id":"84a2fa6e-c872-4baf-8ea4-4d0270d3b0ec","system_id":"levelo_inurba_marseille","lat":43.24161,"lon":5.36395,"is_reserved":false,"is_disabled":false,"rental_uris":{"android":"levelo://app?vid=84a2fa6e-c872-4baf-8ea4-4d0270d3b0ec","ios":"levelo://app?vid=84a2fa6e-c872-4baf-8ea4-4d0270d3b0ec"},"vehicle_type_id":"4","last_reported":1743952118,"current_range_meters":6800,"station_id":"cpo36qri1sfpv3e86is0","pricing_plan_id":"cebpf4jnsgd1na2vs0mg"},{"bike_id":"72bf7179-d0ce-4574-88ef-9320fde316f7","system_id":"levelo_inurba_marseille","lat":43.23968,"lon":5.36621,"is_reserved":false,"is_disabled":false,"rental_uris":{"android":"levelo://app?vid=72bf7179-d0ce-4574-88ef-9320fde316f7","ios":"levelo://app?vid=72bf7179-d0ce-4574-88ef-9320fde316f7"},"vehicle_type_id":"4","last_reported":1743952118,"current_range_meters":6800,"station_id":"ce4bhi12rcd13ifvqfp0","pricing_plan_id":"cebpf4jnsgd1na2vs0mg"},{"bike_id":"6eaca609-15d4-492d-9fb7-82c71eb136d2","system_id":"levelo_inurba_marseille","lat":43.24172,"lon":5.36384,"is_reserved":false,"is_disabled":false,"rental_uris":{"android":"levelo://app?vid=6eaca609-15d4-492d-9fb7-82c71eb136d2","ios":"levelo://app?vid=6eaca609-15d4-492d-9fb7-82c71eb136d2"},"vehicle_type_id":"4","last_reported":1743952118,"current_range_meters":6800,"station_id":"cpo36qri1sfpv3e86is0","pricing_plan_id":"cebpf4jnsgd1na2vs0mg"},{"bike_id":"66b0852c-008e-465e-8fca-283d158dd3c7","system_id":"levelo_inurba_marseille","lat":43.23959,"lon":5.36636,"is_reserved":false,"is_disabled":false,"rental_uris":{"android":"levelo://app?vid=66b0852c-008e-465e-8fca-283d158dd3c7","ios":"levelo://app?vid=66b0852c-008e-465e-8fca-283d158dd3c7"},"vehicle_type_id":"4","last_reported":1743952118,"current_range_meters":6800,"station_id":"ce4bhi12rcd13ifvqfp0","pricing_plan_id":"cebpf4jnsgd1na2vs0mg"},{"bike_id":"5519561e-6a78-4e38-8de4-84b7f76a38b0","system_id":"levelo_inurba_marseille","lat":43.31046,"lon":5.4009,"is_reserved":false,"is_disabled":true,"rental_uris":{"android":"levelo://app?vid=5519561e-6a78-4e38-8de4-84b7f76a38b0","ios":"levelo://app?vid=5519561e-6a78-4e38-8de4-84b7f76a38b0"},"vehicle_type_id":"4","last_reported":1743952118,"current_range_meters":7200,"station_id":"","pricing_plan_id":"cebpf4jnsgd1na2vs0mg"},{"bike_id":"58a37062-8fa2-490f-86b4-113e7586372a","system_id":"levelo_inurba_marseille","lat":43.27943,"lon":5.41035,"is_reserved":false,"is_disabled":false,"rental_uris":{"android":"levelo://app?vid=58a37062-8fa2-490f-86b4-113e7586372a","ios":"levelo://app?vid=58a37062-8fa2-490f-86b4-113e7586372a"},"vehicle_type_id":"4","last_reported":1743952118,"current_range_meters":6800,"station_id":"ce4bhnp2rcd13ifvqh0g","pricing_plan_id":"cebpf4jnsgd1na2vs0mg"},{"bike_id":"369091ce-38c0-4ae6-a402-d25455d87c4e","system_id":"levelo_inurba_marseille","lat":43.26222,"lon":5.40454,"is_reserved":false,"is_disabled":false,"rental_uris":{"android":"levelo://app?vid=369091ce-38c0-4ae6-a402-d25455d87c4e","ios":"levelo://app?vid=369091ce-38c0-4ae6-a402-d25455d87c4e"},"vehicle_type_id":"4","last_reported":1743952118,"current_range_meters":6800,"station_id":"ce4bhmh2rcd13ifvqgmg","pricing_plan_id":"cebpf4jnsgd1na2vs0mg"},{"bike_id":"126b041e-f111-47c2-b7db-d5e4759694c2","system_id":"levelo_inurba_marseille","lat":43.27371,"lon":5.36264,"is_reserved":false,"is_disabled":false,"rental_uris":{"android":"levelo://app?vid=126b041e-f111-47c2-b7db-d5e4759694c2","ios":"levelo://app?vid=126b041e-f111-47c2-b7db-d5e4759694c2"},"vehicle_type_id":"4","last_reported":1743952118,"current_range_meters":7200,"station_id":"ce4bhbh2rcd13ifvqeo0","pricing_plan_id":"cebpf4jnsgd1na2vs0mg"},{"bike_id":"db29433a-c7f6-40d6-b0e1-3a1f0abf15ab","system_id":"levelo_inurba_marseille","lat":43.241712,"lon":5.364041,"is_reserved":false,"is_disabled":true,"rental_uris":{"android":"levelo://app?vid=db29433a-c7f6-40d6-b0e1-3a1f0abf15ab","ios":"levelo://app?vid=db29433a-c7f6-40d6-b0e1-3a1f0abf15ab"},"vehicle_type_id":"4","last_reported":1743952118,"current_range_meters":7200,"station_id":"ce4bh412rcd13ifvqdr0","pricing_plan_id":"cebpf4jnsgd1na2vs0mg"},{"bike_id":"628f1fce-8099-4b9f-87d9-7fbe0faa87b8","system_id":"levelo_inurba_marseille","lat":43.21207,"lon":5.35087,"is_reserved":false,"is_disabled":false,"rental_uris":{"android":"levelo://app?vid=628f1fce-8099-4b9f-87d9-7fbe0faa87b8","ios":"levelo://app?vid=628f1fce-8099-4b9f-87d9-7fbe0faa87b8"},"vehicle_type_id":"4","last_reported":1743952118,"current_range_meters":7200,"station_id":"st_cvj6sg6p6f1abm77japg","pricing_plan_id":"cebpf4jnsgd1na2vs0mg"},{"bike_id":"ff61d1fe-b59d-4d36-86fe-33e0ef9e2990","system_id":"levelo_inurba_marseille","lat":43.25115,"lon":5.40327,"is_reserved":false,"is_disabled":false,"rental_uris":{"android":"levelo://app?vid=ff61d1fe-b59d-4d36-86fe-33e0ef9e2990","ios":"levelo://app?vid=ff61d1fe-b59d-4d36-86fe-33e0ef9e2990"},"vehicle_type_id":"4","last_reported":1743952118,"current_range_meters":7200,"station_id":"ce4bhlh2rcd13ifvqgig","pricing_plan_id":"cebpf4jnsgd1na2vs0mg"},{"bike_id":"8d214504-79e4-4f50-888b-92da30a09583","system_id":"levelo_inurba_marseille","lat":43.29073,"lon":5.3716,"is_reserved":false,"is_disabled":false,"rental_uris":{"android":"levelo://app?vid=8d214504-79e4-4f50-888b-92da30a09583","ios":"levelo://app?vid=8d214504-79e4-4f50-888b-92da30a09583"},"vehicle_type_id":"4","last_reported":1743952118,"current_range_meters":6800,"station_id":"ce4bh5p2rcd13ifvqe4g","pricing_plan_id":"cebpf4jnsgd1na2vs0mg"},{"bike_id":"9378cab7-1ef7-47d6-af28-c6473192be1a","system_id":"levelo_inurba_marseille","lat":43.311813,"lon":5.407639,"is_reserved":false,"is_disabled":false,"rental_uris":{"android":"levelo://app?vid=9378cab7-1ef7-47d6-af28-c6473192be1a","ios":"levelo://app?vid=9378cab7-1ef7-47d6-af28-c6473192be1a"},"vehicle_type_id":"4","last_reported":1743952118,"current_range_meters":7200,"station_id":"","pricing_plan_id":"cebpf4jnsgd1na2vs0mg"},{"bike_id":"ffed1c87-e8a8-4763-9984-02934a6e21bc","system_id":"levelo_inurba_marseille","lat":43.27369,"lon":5.36255,"is_reserved":false,"is_disabled":false,"rental_uris":{"android":"levelo://app?vid=ffed1c87-e8a8-4763-9984-02934a6e21bc","ios":"levelo://app?vid=ffed1c87-e8a8-4763-9984-02934a6e21bc"},"vehicle_type_id":"4","last_reported":1743952118,"current_range_meters":7200,"station_id":"ce4bhbh2rcd13ifvqeo0","pricing_plan_id":"cebpf4jnsgd1na2vs0mg"},{"bike_id":"fdf84930-aa7a-457d-ad5a-ee507fd8a2e1","system_id":"levelo_inurba_marseille","lat":43.2963,"lon":5.37724,"is_reserved":false,"is_disabled":false,"rental_uris":{"android":"levelo://app?vid=fdf84930-aa7a-457d-ad5a-ee507fd8a2e1","ios":"levelo://app?vid=fdf84930-aa7a-457d-ad5a-ee507fd8a2e1"},"vehicle_type_id":"4","last_reported":1743952118,"current_range_meters":7200,"station_id":"","pricing_plan_id":"cebpf4jnsgd1na2vs0mg"},{"bike_id":"07dc9ffe-62e9-4b48-ac71-3d99e4a324df","system_id":"levelo_inurba_marseille","lat":43.262,"lon":5.37931,"is_reserved":false,"is_disabled":false,"rental_uris":{"android":"levelo://app?vid=07dc9ffe-62e9-4b48-ac71-3d99e4a324df","ios":"levelo://app?vid=07dc9ffe-62e9-4b48-ac71-3d99e4a324df"},"vehicle_type_id":"4","last_reported":1743952118,"current_range_meters":10000,"station_id":"ce4bhjp2rcd13ifvqg90","pricing_plan_id":"cebpf4jnsgd1na2vs0mg"},{"bike_id":"15b05ca2-af92-49f4-8d87-1b0b09da383b","system_id":"levelo_inurba_marseille","lat":43.23959,"lon":5.3663,"is_reserved":false,"is_disabled":false,"rental_uris":{"android":"levelo://app?vid=15b05ca2-af92-49f4-8d87-1b0b09da383b","ios":"levelo://app?vid=15b05ca2-af92-49f4-8d87-1b0b09da383b"},"vehicle_type_id":"4","last_reported":1743952118,"current_range_meters":8000,"station_id":"ce4bhi12rcd13ifvqfp0","pricing_plan_id":"cebpf4jnsgd1na2vs0mg"},{"bike_id":"d0baaaf3-52c6-4bfb-bf24-e4662ad75b6c","system_id":"levelo_inurba_marseille","lat":43.26574,"lon":5.390163,"is_reserved":false,"is_disabled":false,"rental_uris":{"android":"levelo://app?vid=d0baaaf3-52c6-4bfb-bf24-e4662ad75b6c","ios":"levelo://app?vid=d0baaaf3-52c6-4bfb-bf24-e4662ad75b6c"},"vehicle_type_id":"4","last_reported":1743952118,"current_range_meters":8000,"station_id":"ce4bhnh2rcd13ifvqgtg","pricing_plan_id":"cebpf4jnsgd1na2vs0mg"},{"bike_id":"301b6729-c45c-4915-8ef6-dadde3959d3d","system_id":"levelo_inurba_marseille","lat":43.26566,"lon":5.39017,"is_reserved":false,"is_disabled":true,"rental_uris":{"android":"levelo://app?vid=301b6729-c45c-4915-8ef6-dadde3959d3d","ios":"levelo://app?vid=301b6729-c45c-4915-8ef6-dadde3959d3d"},"vehicle_type_id":"4","last_reported":1743952118,"current_range_meters":8000,"station_id":"ce4bhe12rcd13ifvqf30","pricing_plan_id":"cebpf4jnsgd1na2vs0mg"},{"bike_id":"4c25fb76-cd0e-4544-8837-d2585ee48375","system_id":"levelo_inurba_marseille","lat":43.298941,"lon":5.436598,"is_reserved":false,"is_disabled":false,"rental_uris":{"android":"levelo://app?vid=4c25fb76-cd0e-4544-8837-d2585ee48375","ios":"levelo://app?vid=4c25fb76-cd0e-4544-8837-d2585ee48375"},"vehicle_type_id":"4","last_reported":1743952118,"current_range_meters":8000,"station_id":"ce4bhpp2rcd13ifvqhfg","pricing_plan_id":"cebpf4jnsgd1na2vs0mg"},{"bike_id":"b726ec3b-8f9d-4312-85b1-1ef3f1acb769","system_id":"levelo_inurba_marseille","lat":43.25501,"lon":5.37653,"is_reserved":false,"is_disabled":false,"rental_uris":{"android":"levelo://app?vid=b726ec3b-8f9d-4312-85b1-1ef3f1acb769","ios":"levelo://app?vid=b726ec3b-8f9d-4312-85b1-1ef3f1acb769"},"vehicle_type_id":"4","last_reported":1743952118,"current_range_meters":8000,"station_id":"ce4bhh12rcd13ifvqff0","pricing_plan_id":"cebpf4jnsgd1na2vs0mg"},{"bike_id":"94828f2b-87c1-4904-9e1f-ea8e6b0df218","system_id":"levelo_inurba_marseille","lat":43.22917,"lon":5.35383,"is_reserved":false,"is_disabled":false,"rental_uris":{"android":"levelo://app?vid=94828f2b-87c1-4904-9e1f-ea8e6b0df218","ios":"levelo://app?vid=94828f2b-87c1-4904-9e1f-ea8e6b0df218"},"vehicle_type_id":"4","last_reported":1743952118,"current_range_meters":8000,"station_id":"cpo3532slgdg3j2ikp40","pricing_plan_id":"cebpf4jnsgd1na2vs0mg"},{"bike_id":"6a7a1a52-ade5-45b3-8ea9-01e6af93083c","system_id":"levelo_inurba_marseille","lat":43.23192,"lon":5.39981,"is_reserved":false,"is_disabled":false,"rental_uris":{"android":"levelo://app?vid=6a7a1a52-ade5-45b3-8ea9-01e6af93083c","ios":"levelo://app?vid=6a7a1a52-ade5-45b3-8ea9-01e6af93083c"},"vehicle_type_id":"4","last_reported":1743952118,"current_range_meters":8000,"station_id":"ce4bhn12rcd13ifvqgqg","pricing_plan_id":"cebpf4jnsgd1na2vs0mg"},{"bike_id":"32aa713a-13fd-4f2f-9e67-00d857bd497b","system_id":"levelo_inurba_marseille","lat":43.26682,"lon":5.38262,"is_reserved":false,"is_disabled":false,"rental_uris":{"android":"levelo://app?vid=32aa713a-13fd-4f2f-9e67-00d857bd497b","ios":"levelo://app?vid=32aa713a-13fd-4f2f-9e67-00d857bd497b"},"vehicle_type_id":"4","last_reported":1743952118,"current_range_meters":7200,"station_id":"ce4bhg92rcd13ifvqf90","pricing_plan_id":"cebpf4jnsgd1na2vs0mg"},{"bike_id":"45b4008f-54c1-4d17-8bbf-96f80d4fa84f","system_id":"levelo_inurba_marseille","lat":43.32109,"lon":5.36774,"is_reserved":false,"is_disabled":false,"rental_uris":{"android":"levelo://app?vid=45b4008f-54c1-4d17-8bbf-96f80d4fa84f","ios":"levelo://app?vid=45b4008f-54c1-4d17-8bbf-96f80d4fa84f"},"vehicle_type_id":"4","last_reported":1743952118,"current_range_meters":8000,"station_id":"ce4bhrh2rcd13ifvqhug","pricing_plan_id":"cebpf4jnsgd1na2vs0mg"},{"bike_id":"0ce853a5-b135-4d7e-a8b6-ca895157ccf9","system_id":"levelo_inurba_marseille","lat":43.28274,"lon":5.35069,"is_reserved":false,"is_disabled":false,"rental_uris":{"android":"levelo://app?vid=0ce853a5-b135-4d7e-a8b6-ca895157ccf9","ios":"levelo://app?vid=0ce853a5-b135-4d7e-a8b6-ca895157ccf9"},"vehicle_type_id":"4","last_reported":1743952118,"current_range_meters":8400,"station_id":"ce4bhbp2rcd13ifvqerg","pricing_plan_id":"cebpf4jnsgd1na2vs0mg"},{"bike_id":"96286760-2917-4b53-9fe9-7d9a1033dfa5","system_id":"levelo_inurba_marseille","lat":43.23156,"lon":5.43716,"is_reserved":false,"is_disabled":false,"rental_uris":{"android":"levelo://app?vid=96286760-2917-4b53-9fe9-7d9a1033dfa5","ios":"levelo://app?vid=96286760-2917-4b53-9fe9-7d9a1033dfa5"},"vehicle_type_id":"4","last_reported":1743952118,"current_range_meters":8000,"station_id":"ce4bhmp2rcd13ifvqgog","pricing_plan_id":"cebpf4jnsgd1na2vs0mg"},{"bike_id":"f15ba88f-5aac-45f9-8380-292b55383a37","system_id":"levelo_inurba_marseille","lat":43.23059,"lon":5.35492,"is_reserved":false,"is_disabled":false,"rental_uris":{"android":"levelo://app?vid=f15ba88f-5aac-45f9-8380-292b55383a37","ios":"levelo://app?vid=f15ba88f-5aac-45f9-8380-292b55383a37"},"vehicle_type_id":"4","last_reported":1743952118,"current_range_meters":8400,"station_id":"cpo3342slgdg3j2ifvpg","pricing_plan_id":"cebpf4jnsgd1na2vs0mg"},{"bike_id":"a08012f1-1b6c-4271-8258-db6cde511905","system_id":"levelo_inurba_marseille","lat":43.2762,"lon":5.36108,"is_reserved":false,"is_disabled":false,"rental_uris":{"android":"levelo://app?vid=a08012f1-1b6c-4271-8258-db6cde511905","ios":"levelo://app?vid=a08012f1-1b6c-4271-8258-db6cde511905"},"vehicle_type_id":"4","last_reported":1743952118,"current_range_meters":8400,"station_id":"ce4bgj92rcd13ifvqbe0","pricing_plan_id":"cebpf4jnsgd1na2vs0mg"},{"bike_id":"9e3b5764-8142-480c-bebf-c27d87b47184","system_id":"levelo_inurba_marseille","lat":43.2319,"lon":5.35556,"is_reserved":false,"is_disabled":false,"rental_uris":{"android":"levelo://app?vid=9e3b5764-8142-480c-bebf-c27d87b47184","ios":"levelo://app?vid=9e3b5764-8142-480c-bebf-c27d87b47184"},"vehicle_type_id":"4","last_reported":1743952118,"current_range_meters":8400,"station_id":"ce4bhu92rcd13ifvqi70","pricing_plan_id":"cebpf4jnsgd1na2vs0mg"},{"bike_id":"7a935817-47e2-4cb3-8324-a647fdf3a140","system_id":"levelo_inurba_marseille","lat":43.29538,"lon":5.38537,"is_reserved":false,"is_disabled":true,"rental_uris":{"android":"levelo://app?vid=7a935817-47e2-4cb3-8324-a647fdf3a140","ios":"levelo://app?vid=7a935817-47e2-4cb3-8324-a647fdf3a140"},"vehicle_type_id":"4","last_reported":1743952118,"current_range_meters":8400,"station_id":"ce4bgih2rcd13ifvqba0","pricing_plan_id":"cebpf4jnsgd1na2vs0mg"},{"bike_id":"ec3e825e-43c6-41cc-be94-bdd7cb009d66","system_id":"levelo_inurba_marseille","lat":43.29873,"lon":5.39727,"is_reserved":false,"is_disabled":false,"rental_uris":{"android":"levelo://app?vid=ec3e825e-43c6-41cc-be94-bdd7cb009d66","ios":"levelo://app?vid=ec3e825e-43c6-41cc-be94-bdd7cb009d66"},"vehicle_type_id":"4","last_reported":1743952118,"current_range_meters":8400,"station_id":"ce4bh0h2rcd13ifvqd50","pricing_plan_id":"cebpf4jnsgd1na2vs0mg"},{"bike_id":"35ab22b3-936e-45f3-94ac-55f39baa451e","system_id":"levelo_inurba_marseille","lat":43.23199,"lon":5.35557,"is_reserved":false,"is_disabled":false,"rental_uris":{"android":"levelo://app?vid=35ab22b3-936e-45f3-94ac-55f39baa451e","ios":"levelo://app?vid=35ab22b3-936e-45f3-94ac-55f39baa451e"},"vehicle_type_id":"4","last_reported":1743952118,"current_range_meters":8400,"station_id":"ce4bhu92rcd13ifvqi70","pricing_plan_id":"cebpf4jnsgd1na2vs0mg"},{"bike_id":"3c5083ad-0cde-4233-8541-f3800eeb1f5e","system_id":"levelo_inurba_marseille","lat":43.26054,"lon":5.39404,"is_reserved":false,"is_disabled":false,"rental_uris":{"android":"levelo://app?vid=3c5083ad-0cde-4233-8541-f3800eeb1f5e","ios":"levelo://app?vid=3c5083ad-0cde-4233-8541-f3800eeb1f5e"},"vehicle_type_id":"4","last_reported":1743952118,"current_range_meters":8000,"station_id":"ce4bhh92rcd13ifvqfj0","pricing_plan_id":"cebpf4jnsgd1na2vs0mg"},{"bike_id":"38e02afc-974b-4aee-a9d7-0602836855d4","system_id":"levelo_inurba_marseille","lat":43.24169,"lon":5.36396,"is_reserved":false,"is_disabled":false,"rental_uris":{"android":"levelo://app?vid=38e02afc-974b-4aee-a9d7-0602836855d4","ios":"levelo://app?vid=38e02afc-974b-4aee-a9d7-0602836855d4"},"vehicle_type_id":"4","last_reported":1743952118,"current_range_meters":8400,"station_id":"cpo36qri1sfpv3e86is0","pricing_plan_id":"cebpf4jnsgd1na2vs0mg"},{"bike_id":"15799893-811e-4fd2-8da7-0f2d3e52ea75","system_id":"levelo_inurba_marseille","lat":43.28473,"lon":5.35901,"is_reserved":false,"is_disabled":false,"rental_uris":{"android":"levelo://app?vid=15799893-811e-4fd2-8da7-0f2d3e52ea75","ios":"levelo://app?vid=15799893-811e-4fd2-8da7-0f2d3e52ea75"},"vehicle_type_id":"4","last_reported":1743952118,"current_range_meters":8400,"station_id":"ce4bhah2rcd13ifvqei0","pricing_plan_id":"cebpf4jnsgd1na2vs0mg"},{"bike_id":"1b996ba0-5f03-45f2-9dbb-f157b9dad3dc","system_id":"levelo_inurba_marseille","lat":43.2119,"lon":5.35085,"is_reserved":false,"is_disabled":false,"rental_uris":{"android":"levelo://app?vid=1b996ba0-5f03-45f2-9dbb-f157b9dad3dc","ios":"levelo://app?vid=1b996ba0-5f03-45f2-9dbb-f157b9dad3dc"},"vehicle_type_id":"4","last_reported":1743952118,"current_range_meters":8800,"station_id":"st_cvj6sg6p6f1abm77japg","pricing_plan_id":"cebpf4jnsgd1na2vs0mg"},{"bike_id":"1622461e-25a5-4ec6-9188-643400d8cf0e","system_id":"levelo_inurba_marseille","lat":43.30793,"lon":5.4351,"is_reserved":false,"is_disabled":false,"rental_uris":{"android":"levelo://app?vid=1622461e-25a5-4ec6-9188-643400d8cf0e","ios":"levelo://app?vid=1622461e-25a5-4ec6-9188-643400d8cf0e"},"vehicle_type_id":"4","last_reported":1743952118,"current_range_meters":8800,"station_id":"ce4bhph2rcd13ifvqheg","pricing_plan_id":"cebpf4jnsgd1na2vs0mg"},{"bike_id":"85e4f26f-c6b0-4732-ab84-efc289f088fc","system_id":"levelo_inurba_marseille","lat":43.24169,"lon":5.36392,"is_reserved":false,"is_disabled":false,"rental_uris":{"android":"levelo://app?vid=85e4f26f-c6b0-4732-ab84-efc289f088fc","ios":"levelo://app?vid=85e4f26f-c6b0-4732-ab84-efc289f088fc"},"vehicle_type_id":"4","last_reported":1743952118,"current_range_meters":8800,"station_id":"cpo36qri1sfpv3e86is0","pricing_plan_id":"cebpf4jnsgd1na2vs0mg"},{"bike_id":"d45e12a1-e0b1-434a-9664-ecd990299001","system_id":"levelo_inurba_marseille","lat":43.27615,"lon":5.36125,"is_reserved":false,"is_disabled":false,"rental_uris":{"android":"levelo://app?vid=d45e12a1-e0b1-434a-9664-ecd990299001","ios":"levelo://app?vid=d45e12a1-e0b1-434a-9664-ecd990299001"},"vehicle_type_id":"4","last_reported":1743952118,"current_range_meters":8800,"station_id":"ce4bgj92rcd13ifvqbe0","pricing_plan_id":"cebpf4jnsgd1na2vs0mg"},{"bike_id":"42499dcb-dd25-4b33-87b7-6d6bb070ae2c","system_id":"levelo_inurba_marseille","lat":43.21196,"lon":5.35075,"is_reserved":false,"is_disabled":false,"rental_uris":{"android":"levelo://app?vid=42499dcb-dd25-4b33-87b7-6d6bb070ae2c","ios":"levelo://app?vid=42499dcb-dd25-4b33-87b7-6d6bb070ae2c"},"vehicle_type_id":"4","last_reported":1743952118,"current_range_meters":8800,"station_id":"st_cvj6sg6p6f1abm77japg","pricing_plan_id":"cebpf4jnsgd1na2vs0mg"},{"bike_id":"dfe033e5-eb50-4610-85ee-430cd4939587","system_id":"levelo_inurba_marseille","lat":43.27612,"lon":5.36118,"is_reserved":false,"is_disabled":true,"rental_uris":{"android":"levelo://app?vid=dfe033e5-eb50-4610-85ee-430cd4939587","ios":"levelo://app?vid=dfe033e5-eb50-4610-85ee-430cd4939587"},"vehicle_type_id":"4","last_reported":1743952118,"current_range_meters":8800,"station_id":"ce4bgj92rcd13ifvqbe0","pricing_plan_id":"cebpf4jnsgd1na2vs0mg"},{"bike_id":"94e019c4-03a7-4ce5-8bd8-0a03e0eb2912","system_id":"levelo_inurba_marseille","lat":43.2417,"lon":5.36391,"is_reserved":false,"is_disabled":false,"rental_uris":{"android":"levelo://app?vid=94e019c4-03a7-4ce5-8bd8-0a03e0eb2912","ios":"levelo://app?vid=94e019c4-03a7-4ce5-8bd8-0a03e0eb2912"},"vehicle_type_id":"4","last_reported":1743952118,"current_range_meters":8800,"station_id":"cpo36qri1sfpv3e86is0","pricing_plan_id":"cebpf4jnsgd1na2vs0mg"},{"bike_id":"910b001b-13d2-4516-8727-3feae7b0be05","system_id":"levelo_inurba_marseille","lat":43.27897,"lon":5.38006,"is_reserved":false,"is_disabled":false,"rental_uris":{"android":"levelo://app?vid=910b001b-13d2-4516-8727-3feae7b0be05","ios":"levelo://app?vid=910b001b-13d2-4516-8727-3feae7b0be05"},"vehicle_type_id":"4","last_reported":1743952118,"current_range_meters":8400,"station_id":"ce4bhf92rcd13ifvqf50","pricing_plan_id":"cebpf4jnsgd1na2vs0mg"},{"bike_id":"c365ed7b-b91f-4564-b167-e2bfe35370fc","system_id":"levelo_inurba_marseille","lat":43.31329,"lon":5.39693,"is_reserved":false,"is_disabled":false,"rental_uris":{"android":"levelo://app?vid=c365ed7b-b91f-4564-b167-e2bfe35370fc","ios":"levelo://app?vid=c365ed7b-b91f-4564-b167-e2bfe35370fc"},"vehicle_type_id":"4","last_reported":1743952118,"current_range_meters":8800,"station_id":"ce4bgvp2rcd13ifvqcu0","pricing_plan_id":"cebpf4jnsgd1na2vs0mg"},{"bike_id":"9b10742b-979a-4c66-8321-8f45b9239b17","system_id":"levelo_inurba_marseille","lat":43.29231,"lon":5.36073,"is_reserved":false,"is_disabled":false,"rental_uris":{"android":"levelo://app?vid=9b10742b-979a-4c66-8321-8f45b9239b17","ios":"levelo://app?vid=9b10742b-979a-4c66-8321-8f45b9239b17"},"vehicle_type_id":"4","last_reported":1743952118,"current_range_meters":9200,"station_id":"ce4bhbh2rcd13ifvqeqg","pricing_plan_id":"cebpf4jnsgd1na2vs0mg"},{"bike_id":"db9fbeb5-6c75-42e7-9181-a72b636c353c","system_id":"levelo_inurba_marseille","lat":43.275654,"lon":5.384285,"is_reserved":false,"is_disabled":false,"rental_uris":{"android":"levelo://app?vid=db9fbeb5-6c75-42e7-9181-a72b636c353c","ios":"levelo://app?vid=db9fbeb5-6c75-42e7-9181-a72b636c353c"},"vehicle_type_id":"4","last_reported":1743952118,"current_range_meters":9200,"station_id":"ce4bhh92rcd13ifvqfi0","pricing_plan_id":"cebpf4jnsgd1na2vs0mg"},{"bike_id":"7dc7c846-2ea9-4578-acd4-f33b1021d7a9","system_id":"levelo_inurba_marseille","lat":43.28957,"lon":5.36614,"is_reserved":false,"is_disabled":false,"rental_uris":{"android":"levelo://app?vid=7dc7c846-2ea9-4578-acd4-f33b1021d7a9","ios":"levelo://app?vid=7dc7c846-2ea9-4578-acd4-f33b1021d7a9"},"vehicle_type_id":"4","last_reported":1743952118,"current_range_meters":9200,"station_id":"ce4bhap2rcd13ifvqek0","pricing_plan_id":"cebpf4jnsgd1na2vs0mg"},{"bike_id":"66d1ccd2-9f1c-4c2f-9102-c8214f607ca5","system_id":"levelo_inurba_marseille","lat":43.211925,"lon":5.350738,"is_reserved":false,"is_disabled":false,"rental_uris":{"android":"levelo://app?vid=66d1ccd2-9f1c-4c2f-9102-c8214f607ca5","ios":"levelo://app?vid=66d1ccd2-9f1c-4c2f-9102-c8214f607ca5"},"vehicle_type_id":"4","last_reported":1743952118,"current_range_meters":9200,"station_id":"st_cvj6sg6p6f1abm77japg","pricing_plan_id":"cebpf4jnsgd1na2vs0mg"},{"bike_id":"4d3cf5dd-06e1-45ad-8ed9-a77342fcc053","system_id":"levelo_inurba_marseille","lat":43.23967,"lon":5.36649,"is_reserved":false,"is_disabled":false,"rental_uris":{"android":"levelo://app?vid=4d3cf5dd-06e1-45ad-8ed9-a77342fcc053","ios":"levelo://app?vid=4d3cf5dd-06e1-45ad-8ed9-a77342fcc053"},"vehicle_type_id":"4","last_reported":1743952118,"current_range_meters":9200,"station_id":"ce4bhi12rcd13ifvqfp0","pricing_plan_id":"cebpf4jnsgd1na2vs0mg"},{"bike_id":"3ae4bd0a-e972-4828-9024-6540812b2d8a","system_id":"levelo_inurba_marseille","lat":43.281595,"lon":5.426368,"is_reserved":false,"is_disabled":false,"rental_uris":{"android":"levelo://app?vid=3ae4bd0a-e972-4828-9024-6540812b2d8a","ios":"levelo://app?vid=3ae4bd0a-e972-4828-9024-6540812b2d8a"},"vehicle_type_id":"4","last_reported":1743952118,"current_range_meters":9200,"station_id":"","pricing_plan_id":"cebpf4jnsgd1na2vs0mg"},{"bike_id":"22182588-55f2-4f5c-8263-7245839ccb9e","system_id":"levelo_inurba_marseille","lat":43.2558,"lon":5.38229,"is_reserved":false,"is_disabled":false,"rental_uris":{"android":"levelo://app?vid=22182588-55f2-4f5c-8263-7245839ccb9e","ios":"levelo://app?vid=22182588-55f2-4f5c-8263-7245839ccb9e"},"vehicle_type_id":"4","last_reported":1743952118,"current_range_meters":9600,"station_id":"","pricing_plan_id":"cebpf4jnsgd1na2vs0mg"},{"bike_id":"93fc8dfc-462b-43f0-8db4-ed42e26eacff","system_id":"levelo_inurba_marseille","lat":43.27387,"lon":5.36258,"is_reserved":false,"is_disabled":false,"rental_uris":{"android":"levelo://app?vid=93fc8dfc-462b-43f0-8db4-ed42e26eacff","ios":"levelo://app?vid=93fc8dfc-462b-43f0-8db4-ed42e26eacff"},"vehicle_type_id":"4","last_reported":1743952118,"current_range_meters":9600,"station_id":"ce4bhbh2rcd13ifvqeo0","pricing_plan_id":"cebpf4jnsgd1na2vs0mg"},{"bike_id":"698becea-0b85-4e43-91a8-07779a0b5d72","system_id":"levelo_inurba_marseille","lat":43.27429,"lon":5.39415,"is_reserved":false,"is_disabled":false,"rental_uris":{"android":"levelo://app?vid=698becea-0b85-4e43-91a8-07779a0b5d72","ios":"levelo://app?vid=698becea-0b85-4e43-91a8-07779a0b5d72"},"vehicle_type_id":"4","last_reported":1743952118,"current_range_meters":9600,"station_id":"ce4bhdp2rcd13ifvqf20","pricing_plan_id":"cebpf4jnsgd1na2vs0mg"},{"bike_id":"00393ee2-317d-4e98-a30d-fd25773ef49f","system_id":"levelo_inurba_marseille","lat":43.35218,"lon":5.358,"is_reserved":false,"is_disabled":false,"rental_uris":{"android":"levelo://app?vid=00393ee2-317d-4e98-a30d-fd25773ef49f","ios":"levelo://app?vid=00393ee2-317d-4e98-a30d-fd25773ef49f"},"vehicle_type_id":"4","last_reported":1743952118,"current_range_meters":9600,"station_id":"","pricing_plan_id":"cebpf4jnsgd1na2vs0mg"},{"bike_id":"9c9e91df-e133-414a-8295-3f6a292805f6","system_id":"levelo_inurba_marseille","lat":43.23183,"lon":5.35573,"is_reserved":false,"is_disabled":true,"rental_uris":{"android":"levelo://app?vid=9c9e91df-e133-414a-8295-3f6a292805f6","ios":"levelo://app?vid=9c9e91df-e133-414a-8295-3f6a292805f6"},"vehicle_type_id":"4","last_reported":1743952118,"current_range_meters":9600,"station_id":"ce4bhu92rcd13ifvqi70","pricing_plan_id":"cebpf4jnsgd1na2vs0mg"},{"bike_id":"a73e9f82-a5de-415c-8b6b-e37e5533d9ab","system_id":"levelo_inurba_marseille","lat":43.27812,"lon":5.40716,"is_reserved":false,"is_disabled":false,"rental_uris":{"android":"levelo://app?vid=a73e9f82-a5de-415c-8b6b-e37e5533d9ab","ios":"levelo://app?vid=a73e9f82-a5de-415c-8b6b-e37e5533d9ab"},"vehicle_type_id":"4","last_reported":1743952118,"current_range_meters":9200,"station_id":"ce4bhnh2rcd13ifvqgtg","pricing_plan_id":"cebpf4jnsgd1na2vs0mg"},{"bike_id":"6023584e-870f-454d-88b0-bf3dc0e21fbe","system_id":"levelo_inurba_marseille","lat":43.24389,"lon":5.37066,"is_reserved":false,"is_disabled":true,"rental_uris":{"android":"levelo://app?vid=6023584e-870f-454d-88b0-bf3dc0e21fbe","ios":"levelo://app?vid=6023584e-870f-454d-88b0-bf3dc0e21fbe"},"vehicle_type_id":"4","last_reported":1743952118,"current_range_meters":9600,"station_id":"ce4bhhh2rcd13ifvqfk0","pricing_plan_id":"cebpf4jnsgd1na2vs0mg"},{"bike_id":"e0a8b8b3-d53b-40b2-a7c7-e286a88407ba","system_id":"levelo_inurba_marseille","lat":43.25123,"lon":5.40317,"is_reserved":false,"is_disabled":false,"rental_uris":{"android":"levelo://app?vid=e0a8b8b3-d53b-40b2-a7c7-e286a88407ba","ios":"levelo://app?vid=e0a8b8b3-d53b-40b2-a7c7-e286a88407ba"},"vehicle_type_id":"4","last_reported":1743952118,"current_range_meters":10000,"station_id":"ce4bhlh2rcd13ifvqgig","pricing_plan_id":"cebpf4jnsgd1na2vs0mg"},{"bike_id":"abde5d83-9b30-4b2f-8a88-f914ca452329","system_id":"levelo_inurba_marseille","lat":43.31233,"lon":5.38692,"is_reserved":false,"is_disabled":false,"rental_uris":{"android":"levelo://app?vid=abde5d83-9b30-4b2f-8a88-f914ca452329","ios":"levelo://app?vid=abde5d83-9b30-4b2f-8a88-f914ca452329"},"vehicle_type_id":"4","last_reported":1743952118,"current_range_meters":10000,"station_id":"","pricing_plan_id":"cebpf4jnsgd1na2vs0mg"},{"bike_id":"223c66c4-96b4-4c59-95d7-0ec2440c2f53","system_id":"levelo_inurba_marseille","lat":43.25083,"lon":5.39516,"is_reserved":false,"is_disabled":false,"rental_uris":{"android":"levelo://app?vid=223c66c4-96b4-4c59-95d7-0ec2440c2f53","ios":"levelo://app?vid=223c66c4-96b4-4c59-95d7-0ec2440c2f53"},"vehicle_type_id":"4","last_reported":1743952118,"current_range_meters":9600,"station_id":"ce4bhm12rcd13ifvqgkg","pricing_plan_id":"cebpf4jnsgd1na2vs0mg"},{"bike_id":"8c9c4a8b-8458-4198-a8fa-49c4e41dda49","system_id":"levelo_inurba_marseille","lat":43.21191,"lon":5.35077,"is_reserved":false,"is_disabled":false,"rental_uris":{"android":"levelo://app?vid=8c9c4a8b-8458-4198-a8fa-49c4e41dda49","ios":"levelo://app?vid=8c9c4a8b-8458-4198-a8fa-49c4e41dda49"},"vehicle_type_id":"4","last_reported":1743952118,"current_range_meters":10000,"station_id":"st_cvj6sg6p6f1abm77japg","pricing_plan_id":"cebpf4jnsgd1na2vs0mg"},{"bike_id":"29d2e67f-ecce-4d08-ad56-230bfaeccf2b","system_id":"levelo_inurba_marseille","lat":43.23193,"lon":5.355543,"is_reserved":false,"is_disabled":false,"rental_uris":{"android":"levelo://app?vid=29d2e67f-ecce-4d08-ad56-230bfaeccf2b","ios":"levelo://app?vid=29d2e67f-ecce-4d08-ad56-230bfaeccf2b"},"vehicle_type_id":"4","last_reported":1743952118,"current_range_meters":10000,"station_id":"ce4bhu92rcd13ifvqi70","pricing_plan_id":"cebpf4jnsgd1na2vs0mg"},{"bike_id":"d440eee5-3adc-4d2f-8a83-b8084f96a39e","system_id":"levelo_inurba_marseille","lat":43.25122,"lon":5.40321,"is_reserved":false,"is_disabled":false,"rental_uris":{"android":"levelo://app?vid=d440eee5-3adc-4d2f-8a83-b8084f96a39e","ios":"levelo://app?vid=d440eee5-3adc-4d2f-8a83-b8084f96a39e"},"vehicle_type_id":"4","last_reported":1743952118,"current_range_meters":10000,"station_id":"ce4bhlh2rcd13ifvqgig","pricing_plan_id":"cebpf4jnsgd1na2vs0mg"},{"bike_id":"aa9b59b6-65cb-49e0-b211-3fb1aecd03a8","system_id":"levelo_inurba_marseille","lat":43.29231,"lon":5.36052,"is_reserved":false,"is_disabled":true,"rental_uris":{"android":"levelo://app?vid=aa9b59b6-65cb-49e0-b211-3fb1aecd03a8","ios":"levelo://app?vid=aa9b59b6-65cb-49e0-b211-3fb1aecd03a8"},"vehicle_type_id":"4","last_reported":1743952118,"current_range_meters":10000,"station_id":"ce4bhbh2rcd13ifvqeqg","pricing_plan_id":"cebpf4jnsgd1na2vs0mg"},{"bike_id":"7fd0635d-68ad-4ce6-a52b-daef56987b4b","system_id":"levelo_inurba_marseille","lat":43.30857,"lon":5.38601,"is_reserved":false,"is_disabled":false,"rental_uris":{"android":"levelo://app?vid=7fd0635d-68ad-4ce6-a52b-daef56987b4b","ios":"levelo://app?vid=7fd0635d-68ad-4ce6-a52b-daef56987b4b"},"vehicle_type_id":"4","last_reported":1743952118,"current_range_meters":10000,"station_id":"","pricing_plan_id":"cebpf4jnsgd1na2vs0mg"},{"bike_id":"0db79626-80f8-4250-8bc9-558f5d952fb2","system_id":"levelo_inurba_marseille","lat":43.23159,"lon":5.43711,"is_reserved":false,"is_disabled":false,"rental_uris":{"android":"levelo://app?vid=0db79626-80f8-4250-8bc9-558f5d952fb2","ios":"levelo://app?vid=0db79626-80f8-4250-8bc9-558f5d952fb2"},"vehicle_type_id":"4","last_reported":1743952118,"current_range_meters":10000,"station_id":"ce4bhmp2rcd13ifvqgog","pricing_plan_id":"cebpf4jnsgd1na2vs0mg"},{"bike_id":"f087be1e-8291-4658-bae8-0168216b6082","system_id":"levelo_inurba_marseille","lat":43.28033,"lon":5.36946,"is_reserved":false,"is_disabled":false,"rental_uris":{"android":"levelo://app?vid=f087be1e-8291-4658-bae8-0168216b6082","ios":"levelo://app?vid=f087be1e-8291-4658-bae8-0168216b6082"},"vehicle_type_id":"4","last_reported":1743952118,"current_range_meters":10000,"station_id":"ce4bha12rcd13ifvqef0","pricing_plan_id":"cebpf4jnsgd1na2vs0mg"},{"bike_id":"ceba594e-ff69-4140-828e-f8a961103e51","system_id":"levelo_inurba_marseille","lat":43.24164,"lon":5.36395,"is_reserved":false,"is_disabled":false,"rental_uris":{"android":"levelo://app?vid=ceba594e-ff69-4140-828e-f8a961103e51","ios":"levelo://app?vid=ceba594e-ff69-4140-828e-f8a961103e51"},"vehicle_type_id":"4","last_reported":1743952118,"current_range_meters":10800,"station_id":"cpo36qri1sfpv3e86is0","pricing_plan_id":"cebpf4jnsgd1na2vs0mg"},{"bike_id":"9105ce6d-e133-4bc7-97da-a36cdf0aa31c","system_id":"levelo_inurba_marseille","lat":43.29905,"lon":5.43658,"is_reserved":false,"is_disabled":false,"rental_uris":{"android":"levelo://app?vid=9105ce6d-e133-4bc7-97da-a36cdf0aa31c","ios":"levelo://app?vid=9105ce6d-e133-4bc7-97da-a36cdf0aa31c"},"vehicle_type_id":"4","last_reported":1743952118,"current_range_meters":10800,"station_id":"ce4bhpp2rcd13ifvqhfg","pricing_plan_id":"cebpf4jnsgd1na2vs0mg"},{"bike_id":"335840f8-43f6-4ebf-8c1e-0d9ac795f563","system_id":"levelo_inurba_marseille","lat":43.27384,"lon":5.36252,"is_reserved":false,"is_disabled":false,"rental_uris":{"android":"levelo://app?vid=335840f8-43f6-4ebf-8c1e-0d9ac795f563","ios":"levelo://app?vid=335840f8-43f6-4ebf-8c1e-0d9ac795f563"},"vehicle_type_id":"4","last_reported":1743952118,"current_range_meters":10800,"station_id":"ce4bhbh2rcd13ifvqeo0","pricing_plan_id":"cebpf4jnsgd1na2vs0mg"},{"bike_id":"c1eb280b-aae9-48bd-bd47-36bd712edc92","system_id":"levelo_inurba_marseille","lat":43.27376,"lon":5.36263,"is_reserved":false,"is_disabled":false,"rental_uris":{"android":"levelo://app?vid=c1eb280b-aae9-48bd-bd47-36bd712edc92","ios":"levelo://app?vid=c1eb280b-aae9-48bd-bd47-36bd712edc92"},"vehicle_type_id":"4","last_reported":1743952118,"current_range_meters":10800,"station_id":"ce4bhbh2rcd13ifvqeo0","pricing_plan_id":"cebpf4jnsgd1na2vs0mg"},{"bike_id":"136b6e45-ee21-453e-aa22-e07947db9071","system_id":"levelo_inurba_marseille","lat":43.23187,"lon":5.4371,"is_reserved":false,"is_disabled":true,"rental_uris":{"android":"levelo://app?vid=136b6e45-ee21-453e-aa22-e07947db9071","ios":"levelo://app?vid=136b6e45-ee21-453e-aa22-e07947db9071"},"vehicle_type_id":"4","last_reported":1743952118,"current_range_meters":10800,"station_id":"ce4bhmp2rcd13ifvqgog","pricing_plan_id":"cebpf4jnsgd1na2vs0mg"},{"bike_id":"f8321878-9e9a-4e56-8919-d9cad8905f3c","system_id":"levelo_inurba_marseille","lat":43.30534,"lon":5.36544,"is_reserved":false,"is_disabled":true,"rental_uris":{"android":"levelo://app?vid=f8321878-9e9a-4e56-8919-d9cad8905f3c","ios":"levelo://app?vid=f8321878-9e9a-4e56-8919-d9cad8905f3c"},"vehicle_type_id":"4","last_reported":1743952118,"current_range_meters":11200,"station_id":"ce4bgs12rcd13ifvqcag","pricing_plan_id":"cebpf4jnsgd1na2vs0mg"},{"bike_id":"8908f5a3-3568-458d-bd58-b80b0bebbfd4","system_id":"levelo_inurba_marseille","lat":43.21751,"lon":5.34607,"is_reserved":false,"is_disabled":false,"rental_uris":{"android":"levelo://app?vid=8908f5a3-3568-458d-bd58-b80b0bebbfd4","ios":"levelo://app?vid=8908f5a3-3568-458d-bd58-b80b0bebbfd4"},"vehicle_type_id":"4","last_reported":1743952118,"current_range_meters":11200,"station_id":"st_cvj6r9ubvosntc0bgbag","pricing_plan_id":"cebpf4jnsgd1na2vs0mg"},{"bike_id":"dd38899b-0c87-4ee2-859d-20bb182a5827","system_id":"levelo_inurba_marseille","lat":43.24817,"lon":5.37452,"is_reserved":false,"is_disabled":false,"rental_uris":{"android":"levelo://app?vid=dd38899b-0c87-4ee2-859d-20bb182a5827","ios":"levelo://app?vid=dd38899b-0c87-4ee2-859d-20bb182a5827"},"vehicle_type_id":"4","last_reported":1743952118,"current_range_meters":11200,"station_id":"ce4bhgh2rcd13ifvqfb0","pricing_plan_id":"cebpf4jnsgd1na2vs0mg"},{"bike_id":"37f814b9-403f-40ad-b071-2087efed3713","system_id":"levelo_inurba_marseille","lat":43.2319,"lon":5.3556,"is_reserved":false,"is_disabled":false,"rental_uris":{"android":"levelo://app?vid=37f814b9-403f-40ad-b071-2087efed3713","ios":"levelo://app?vid=37f814b9-403f-40ad-b071-2087efed3713"},"vehicle_type_id":"4","last_reported":1743952118,"current_range_meters":11200,"station_id":"ce4bhu92rcd13ifvqi70","pricing_plan_id":"cebpf4jnsgd1na2vs0mg"},{"bike_id":"cbb71432-49a6-49d0-9431-9e974f6af088","system_id":"levelo_inurba_marseille","lat":43.26217,"lon":5.3744,"is_reserved":false,"is_disabled":false,"rental_uris":{"android":"levelo://app?vid=cbb71432-49a6-49d0-9431-9e974f6af088","ios":"levelo://app?vid=cbb71432-49a6-49d0-9431-9e974f6af088"},"vehicle_type_id":"4","last_reported":1743952118,"current_range_meters":11200,"station_id":"ce4bhgp2rcd13ifvqfc0","pricing_plan_id":"cebpf4jnsgd1na2vs0mg"},{"bike_id":"aab17747-ef50-479d-87f4-f5d51b95e7cd","system_id":"levelo_inurba_marseille","lat":43.27372,"lon":5.36256,"is_reserved":false,"is_disabled":false,"rental_uris":{"android":"levelo://app?vid=aab17747-ef50-479d-87f4-f5d51b95e7cd","ios":"levelo://app?vid=aab17747-ef50-479d-87f4-f5d51b95e7cd"},"vehicle_type_id":"4","last_reported":1743952118,"current_range_meters":11200,"station_id":"ce4bhbh2rcd13ifvqeo0","pricing_plan_id":"cebpf4jnsgd1na2vs0mg"},{"bike_id":"20a75d33-e820-4808-a3d1-9b7c7e8a7380","system_id":"levelo_inurba_marseille","lat":43.29551,"lon":5.42295,"is_reserved":false,"is_disabled":false,"rental_uris":{"android":"levelo://app?vid=20a75d33-e820-4808-a3d1-9b7c7e8a7380","ios":"levelo://app?vid=20a75d33-e820-4808-a3d1-9b7c7e8a7380"},"vehicle_type_id":"4","last_reported":1743952118,"current_range_meters":11200,"station_id":"ce4bhph2rcd13ifvqhdg","pricing_plan_id":"cebpf4jnsgd1na2vs0mg"},{"bike_id":"9abb6ec2-5acd-4327-9898-dd9dbedec59a","system_id":"levelo_inurba_marseille","lat":43.31714,"lon":5.43707,"is_reserved":false,"is_disabled":false,"rental_uris":{"android":"levelo://app?vid=9abb6ec2-5acd-4327-9898-dd9dbedec59a","ios":"levelo://app?vid=9abb6ec2-5acd-4327-9898-dd9dbedec59a"},"vehicle_type_id":"4","last_reported":1743952118,"current_range_meters":11200,"station_id":"ce4bhp92rcd13ifvqhcg","pricing_plan_id":"cebpf4jnsgd1na2vs0mg"},{"bike_id":"c14445a1-0326-40eb-a9f9-131d6afdb50a","system_id":"levelo_inurba_marseille","lat":43.23154,"lon":5.43719,"is_reserved":false,"is_disabled":false,"rental_uris":{"android":"levelo://app?vid=c14445a1-0326-40eb-a9f9-131d6afdb50a","ios":"levelo://app?vid=c14445a1-0326-40eb-a9f9-131d6afdb50a"},"vehicle_type_id":"4","last_reported":1743952118,"current_range_meters":11200,"station_id":"ce4bhmp2rcd13ifvqgog","pricing_plan_id":"cebpf4jnsgd1na2vs0mg"},{"bike_id":"7d90443d-5838-4b7e-b290-b28cc33129ba","system_id":"levelo_inurba_marseille","lat":43.27425,"lon":5.39411,"is_reserved":false,"is_disabled":false,"rental_uris":{"android":"levelo://app?vid=7d90443d-5838-4b7e-b290-b28cc33129ba","ios":"levelo://app?vid=7d90443d-5838-4b7e-b290-b28cc33129ba"},"vehicle_type_id":"4","last_reported":1743952118,"current_range_meters":11200,"station_id":"ce4bhdp2rcd13ifvqf20","pricing_plan_id":"cebpf4jnsgd1na2vs0mg"},{"bike_id":"7d2dde4f-5a6a-4005-a47e-231c9dacefe3","system_id":"levelo_inurba_marseille","lat":43.308009,"lon":5.435195,"is_reserved":false,"is_disabled":false,"rental_uris":{"android":"levelo://app?vid=7d2dde4f-5a6a-4005-a47e-231c9dacefe3","ios":"levelo://app?vid=7d2dde4f-5a6a-4005-a47e-231c9dacefe3"},"vehicle_type_id":"4","last_reported":1743952118,"current_range_meters":11600,"station_id":"ce4bhph2rcd13ifvqheg","pricing_plan_id":"cebpf4jnsgd1na2vs0mg"},{"bike_id":"c3e6d442-6282-4c88-9f90-93d85aff9e76","system_id":"levelo_inurba_marseille","lat":43.28153,"lon":5.42676,"is_reserved":false,"is_disabled":false,"rental_uris":{"android":"levelo://app?vid=c3e6d442-6282-4c88-9f90-93d85aff9e76","ios":"levelo://app?vid=c3e6d442-6282-4c88-9f90-93d85aff9e76"},"vehicle_type_id":"4","last_reported":1743952118,"current_range_meters":11600,"station_id":"ce4bhnh2rcd13ifvqgug","pricing_plan_id":"cebpf4jnsgd1na2vs0mg"},{"bike_id":"5d40b06b-f88c-438b-a124-c6e520eec699","system_id":"levelo_inurba_marseille","lat":43.27412,"lon":5.36292,"is_reserved":false,"is_disabled":false,"rental_uris":{"android":"levelo://app?vid=5d40b06b-f88c-438b-a124-c6e520eec699","ios":"levelo://app?vid=5d40b06b-f88c-438b-a124-c6e520eec699"},"vehicle_type_id":"4","last_reported":1743952118,"current_range_meters":11600,"station_id":"ce4bhbh2rcd13ifvqeo0","pricing_plan_id":"cebpf4jnsgd1na2vs0mg"},{"bike_id":"07c70779-485e-4f30-96f9-ae110958213e","system_id":"levelo_inurba_marseille","lat":43.21746,"lon":5.34606,"is_reserved":false,"is_disabled":false,"rental_uris":{"android":"levelo://app?vid=07c70779-485e-4f30-96f9-ae110958213e","ios":"levelo://app?vid=07c70779-485e-4f30-96f9-ae110958213e"},"vehicle_type_id":"4","last_reported":1743952118,"current_range_meters":11600,"station_id":"st_cvj6r9ubvosntc0bgbag","pricing_plan_id":"cebpf4jnsgd1na2vs0mg"},{"bike_id":"f7e3b8fa-9062-4469-bcee-58c5aa5cfb6e","system_id":"levelo_inurba_marseille","lat":43.29541,"lon":5.38542,"is_reserved":false,"is_disabled":true,"rental_uris":{"android":"levelo://app?vid=f7e3b8fa-9062-4469-bcee-58c5aa5cfb6e","ios":"levelo://app?vid=f7e3b8fa-9062-4469-bcee-58c5aa5cfb6e"},"vehicle_type_id":"4","last_reported":1743952118,"current_range_meters":11600,"station_id":"ce4bgih2rcd13ifvqba0","pricing_plan_id":"cebpf4jnsgd1na2vs0mg"},{"bike_id":"19379d7b-b3b4-46ff-9af1-6370bf06ecc3","system_id":"levelo_inurba_marseille","lat":43.29002,"lon":5.35626,"is_reserved":false,"is_disabled":true,"rental_uris":{"android":"levelo://app?vid=19379d7b-b3b4-46ff-9af1-6370bf06ecc3","ios":"levelo://app?vid=19379d7b-b3b4-46ff-9af1-6370bf06ecc3"},"vehicle_type_id":"4","last_reported":1743952118,"current_range_meters":11600,"station_id":"ce4bhb92rcd13ifvqen0","pricing_plan_id":"cebpf4jnsgd1na2vs0mg"},{"bike_id":"b758897f-2f9b-42d4-9f5c-6401ea3a6cda","system_id":"levelo_inurba_marseille","lat":43.27062,"lon":5.42284,"is_reserved":false,"is_disabled":false,"rental_uris":{"android":"levelo://app?vid=b758897f-2f9b-42d4-9f5c-6401ea3a6cda","ios":"levelo://app?vid=b758897f-2f9b-42d4-9f5c-6401ea3a6cda"},"vehicle_type_id":"4","last_reported":1743952118,"current_range_meters":11600,"station_id":"ce4bhk92rcd13ifvqgb0","pricing_plan_id":"cebpf4jnsgd1na2vs0mg"},{"bike_id":"c9bcb9ed-89fa-4f1d-bf29-12fb5d644696","system_id":"levelo_inurba_marseille","lat":43.27998,"lon":5.41667,"is_reserved":false,"is_disabled":false,"rental_uris":{"android":"levelo://app?vid=c9bcb9ed-89fa-4f1d-bf29-12fb5d644696","ios":"levelo://app?vid=c9bcb9ed-89fa-4f1d-bf29-12fb5d644696"},"vehicle_type_id":"4","last_reported":1743952118,"current_range_meters":12000,"station_id":"ce4bho12rcd13ifvqh1g","pricing_plan_id":"cebpf4jnsgd1na2vs0mg"},{"bike_id":"50ac7614-91d0-4209-b56a-f98b6dac3b05","system_id":"levelo_inurba_marseille","lat":43.279053,"lon":5.380162,"is_reserved":false,"is_disabled":false,"rental_uris":{"android":"levelo://app?vid=50ac7614-91d0-4209-b56a-f98b6dac3b05","ios":"levelo://app?vid=50ac7614-91d0-4209-b56a-f98b6dac3b05"},"vehicle_type_id":"4","last_reported":1743952118,"current_range_meters":12400,"station_id":"ce4bhf92rcd13ifvqf50","pricing_plan_id":"cebpf4jnsgd1na2vs0mg"},{"bike_id":"82583482-0259-432c-b81b-e2806f193735","system_id":"levelo_inurba_marseille","lat":43.2417,"lon":5.36397,"is_reserved":false,"is_disabled":false,"rental_uris":{"android":"levelo://app?vid=82583482-0259-432c-b81b-e2806f193735","ios":"levelo://app?vid=82583482-0259-432c-b81b-e2806f193735"},"vehicle_type_id":"4","last_reported":1743952118,"current_range_meters":12000,"station_id":"cpo36qri1sfpv3e86is0","pricing_plan_id":"cebpf4jnsgd1na2vs0mg"},{"bike_id":"d8166574-9558-46a9-89ec-127988bed1ce","system_id":"levelo_inurba_marseille","lat":43.23061,"lon":5.35492,"is_reserved":false,"is_disabled":false,"rental_uris":{"android":"levelo://app?vid=d8166574-9558-46a9-89ec-127988bed1ce","ios":"levelo://app?vid=d8166574-9558-46a9-89ec-127988bed1ce"},"vehicle_type_id":"4","last_reported":1743952118,"current_range_meters":12400,"station_id":"cpo3342slgdg3j2ifvpg","pricing_plan_id":"cebpf4jnsgd1na2vs0mg"},{"bike_id":"9ce62b34-bb8c-4242-a052-41bb4efe2583","system_id":"levelo_inurba_marseille","lat":43.33022,"lon":5.39037,"is_reserved":false,"is_disabled":false,"rental_uris":{"android":"levelo://app?vid=9ce62b34-bb8c-4242-a052-41bb4efe2583","ios":"levelo://app?vid=9ce62b34-bb8c-4242-a052-41bb4efe2583"},"vehicle_type_id":"4","last_reported":1743952118,"current_range_meters":12400,"station_id":"ce4bhr92rcd13ifvqhrg","pricing_plan_id":"cebpf4jnsgd1na2vs0mg"},{"bike_id":"8a38320c-a733-4cf5-8c8e-152497fe8f8f","system_id":"levelo_inurba_marseille","lat":43.2818,"lon":5.42604,"is_reserved":false,"is_disabled":false,"rental_uris":{"android":"levelo://app?vid=8a38320c-a733-4cf5-8c8e-152497fe8f8f","ios":"levelo://app?vid=8a38320c-a733-4cf5-8c8e-152497fe8f8f"},"vehicle_type_id":"4","last_reported":1743952118,"current_range_meters":12400,"station_id":"ce4bhnh2rcd13ifvqgug","pricing_plan_id":"cebpf4jnsgd1na2vs0mg"},{"bike_id":"6ee85d75-9576-48a6-9ea1-92da0dac2d73","system_id":"levelo_inurba_marseille","lat":43.30822,"lon":5.43534,"is_reserved":false,"is_disabled":false,"rental_uris":{"android":"levelo://app?vid=6ee85d75-9576-48a6-9ea1-92da0dac2d73","ios":"levelo://app?vid=6ee85d75-9576-48a6-9ea1-92da0dac2d73"},"vehicle_type_id":"4","last_reported":1743952118,"current_range_meters":12400,"station_id":"ce4bhph2rcd13ifvqheg","pricing_plan_id":"cebpf4jnsgd1na2vs0mg"},{"bike_id":"a409c3f0-8991-4228-afb5-57b19bb06658","system_id":"levelo_inurba_marseille","lat":43.32401,"lon":5.38997,"is_reserved":false,"is_disabled":false,"rental_uris":{"android":"levelo://app?vid=a409c3f0-8991-4228-afb5-57b19bb06658","ios":"levelo://app?vid=a409c3f0-8991-4228-afb5-57b19bb06658"},"vehicle_type_id":"4","last_reported":1743952118,"current_range_meters":12400,"station_id":"","pricing_plan_id":"cebpf4jnsgd1na2vs0mg"},{"bike_id":"c5a180ee-9b66-4c05-bdde-4100257c7dd0","system_id":"levelo_inurba_marseille","lat":43.21753,"lon":5.34594,"is_reserved":false,"is_disabled":false,"rental_uris":{"android":"levelo://app?vid=c5a180ee-9b66-4c05-bdde-4100257c7dd0","ios":"levelo://app?vid=c5a180ee-9b66-4c05-bdde-4100257c7dd0"},"vehicle_type_id":"4","last_reported":1743952118,"current_range_meters":12400,"station_id":"st_cvj6r9ubvosntc0bgbag","pricing_plan_id":"cebpf4jnsgd1na2vs0mg"},{"bike_id":"7de5474b-d922-449a-9c7c-e2be2aa81ba7","system_id":"levelo_inurba_marseille","lat":43.29534,"lon":5.38547,"is_reserved":false,"is_disabled":false,"rental_uris":{"android":"levelo://app?vid=7de5474b-d922-449a-9c7c-e2be2aa81ba7","ios":"levelo://app?vid=7de5474b-d922-449a-9c7c-e2be2aa81ba7"},"vehicle_type_id":"4","last_reported":1743952118,"current_range_meters":12400,"station_id":"ce4bgih2rcd13ifvqba0","pricing_plan_id":"cebpf4jnsgd1na2vs0mg"},{"bike_id":"74bc3e56-9efa-454d-b596-3e1f84ec7077","system_id":"levelo_inurba_marseille","lat":43.2417,"lon":5.36394,"is_reserved":false,"is_disabled":false,"rental_uris":{"android":"levelo://app?vid=74bc3e56-9efa-454d-b596-3e1f84ec7077","ios":"levelo://app?vid=74bc3e56-9efa-454d-b596-3e1f84ec7077"},"vehicle_type_id":"4","last_reported":1743952118,"current_range_meters":12400,"station_id":"cpo36qri1sfpv3e86is0","pricing_plan_id":"cebpf4jnsgd1na2vs0mg"},{"bike_id":"8539495d-a8db-48e8-999c-a0eec7f95200","system_id":"levelo_inurba_marseille","lat":43.25487,"lon":5.37656,"is_reserved":false,"is_disabled":true,"rental_uris":{"android":"levelo://app?vid=8539495d-a8db-48e8-999c-a0eec7f95200","ios":"levelo://app?vid=8539495d-a8db-48e8-999c-a0eec7f95200"},"vehicle_type_id":"4","last_reported":1743952118,"current_range_meters":12400,"station_id":"ce4bhh12rcd13ifvqff0","pricing_plan_id":"cebpf4jnsgd1na2vs0mg"},{"bike_id":"e332aab8-1fe3-40e9-8086-1f7d5ff35118","system_id":"levelo_inurba_marseille","lat":43.33173,"lon":5.38181,"is_reserved":false,"is_disabled":false,"rental_uris":{"android":"levelo://app?vid=e332aab8-1fe3-40e9-8086-1f7d5ff35118","ios":"levelo://app?vid=e332aab8-1fe3-40e9-8086-1f7d5ff35118"},"vehicle_type_id":"4","last_reported":1743952118,"current_range_meters":12800,"station_id":"","pricing_plan_id":"cebpf4jnsgd1na2vs0mg"},{"bike_id":"8f039e9b-908d-4671-8c31-c10c45ffd6ab","system_id":"levelo_inurba_marseille","lat":43.24166,"lon":5.36402,"is_reserved":false,"is_disabled":false,"rental_uris":{"android":"levelo://app?vid=8f039e9b-908d-4671-8c31-c10c45ffd6ab","ios":"levelo://app?vid=8f039e9b-908d-4671-8c31-c10c45ffd6ab"},"vehicle_type_id":"4","last_reported":1743952118,"current_range_meters":12800,"station_id":"cpo36qri1sfpv3e86is0","pricing_plan_id":"cebpf4jnsgd1na2vs0mg"},{"bike_id":"63e1d95c-79be-4b82-a868-e312bf827ceb","system_id":"levelo_inurba_marseille","lat":43.29017,"lon":5.38633,"is_reserved":false,"is_disabled":true,"rental_uris":{"android":"levelo://app?vid=63e1d95c-79be-4b82-a868-e312bf827ceb","ios":"levelo://app?vid=63e1d95c-79be-4b82-a868-e312bf827ceb"},"vehicle_type_id":"4","last_reported":1743952118,"current_range_meters":12800,"station_id":"ce4bh4p2rcd13ifvqe0g","pricing_plan_id":"cebpf4jnsgd1na2vs0mg"},{"bike_id":"e4d4dc7a-abcd-4c1d-8017-887f937d011f","system_id":"levelo_inurba_marseille","lat":43.29582,"lon":5.39986,"is_reserved":false,"is_disabled":true,"rental_uris":{"android":"levelo://app?vid=e4d4dc7a-abcd-4c1d-8017-887f937d011f","ios":"levelo://app?vid=e4d4dc7a-abcd-4c1d-8017-887f937d011f"},"vehicle_type_id":"4","last_reported":1743952118,"current_range_meters":12800,"station_id":"ce4bh312rcd13ifvqdj0","pricing_plan_id":"cebpf4jnsgd1na2vs0mg"},{"bike_id":"6309ffca-8ca1-4b0a-b7c1-a70b87d7bbee","system_id":"levelo_inurba_marseille","lat":43.29192,"lon":5.37147,"is_reserved":false,"is_disabled":false,"rental_uris":{"android":"levelo://app?vid=6309ffca-8ca1-4b0a-b7c1-a70b87d7bbee","ios":"levelo://app?vid=6309ffca-8ca1-4b0a-b7c1-a70b87d7bbee"},"vehicle_type_id":"4","last_reported":1743952118,"current_range_meters":12400,"station_id":"ce4bha92rcd13ifvqeh0","pricing_plan_id":"cebpf4jnsgd1na2vs0mg"},{"bike_id":"73272853-088e-4b39-8e6e-94fe10fc353c","system_id":"levelo_inurba_marseille","lat":43.33761,"lon":5.37496,"is_reserved":false,"is_disabled":false,"rental_uris":{"android":"levelo://app?vid=73272853-088e-4b39-8e6e-94fe10fc353c","ios":"levelo://app?vid=73272853-088e-4b39-8e6e-94fe10fc353c"},"vehicle_type_id":"4","last_reported":1743952118,"current_range_meters":12800,"station_id":"","pricing_plan_id":"cebpf4jnsgd1na2vs0mg"},{"bike_id":"d6c3d7f4-760c-422c-8667-25e15a7934b3","system_id":"levelo_inurba_marseille","lat":43.30794,"lon":5.37429,"is_reserved":false,"is_disabled":false,"rental_uris":{"android":"levelo://app?vid=d6c3d7f4-760c-422c-8667-25e15a7934b3","ios":"levelo://app?vid=d6c3d7f4-760c-422c-8667-25e15a7934b3"},"vehicle_type_id":"4","last_reported":1743952118,"current_range_meters":13600,"station_id":"","pricing_plan_id":"cebpf4jnsgd1na2vs0mg"},{"bike_id":"571de576-7f5a-4c0c-b42f-a83d3e894961","system_id":"levelo_inurba_marseille","lat":43.262033,"lon":5.403961,"is_reserved":false,"is_disabled":false,"rental_uris":{"android":"levelo://app?vid=571de576-7f5a-4c0c-b42f-a83d3e894961","ios":"levelo://app?vid=571de576-7f5a-4c0c-b42f-a83d3e894961"},"vehicle_type_id":"4","last_reported":1743952118,"current_range_meters":13600,"station_id":"ce4bhmh2rcd13ifvqgmg","pricing_plan_id":"cebpf4jnsgd1na2vs0mg"},{"bike_id":"90f0fd48-fe74-41df-b010-87109dc2aa71","system_id":"levelo_inurba_marseille","lat":43.24668,"lon":5.38167,"is_reserved":false,"is_disabled":false,"rental_uris":{"android":"levelo://app?vid=90f0fd48-fe74-41df-b010-87109dc2aa71","ios":"levelo://app?vid=90f0fd48-fe74-41df-b010-87109dc2aa71"},"vehicle_type_id":"4","last_reported":1743952118,"current_range_meters":13600,"station_id":"ce4bhih2rcd13ifvqfr0","pricing_plan_id":"cebpf4jnsgd1na2vs0mg"},{"bike_id":"4308a4e0-fa24-4c3a-94d8-db9aa39aa4ec","system_id":"levelo_inurba_marseille","lat":43.2737,"lon":5.36261,"is_reserved":false,"is_disabled":false,"rental_uris":{"android":"levelo://app?vid=4308a4e0-fa24-4c3a-94d8-db9aa39aa4ec","ios":"levelo://app?vid=4308a4e0-fa24-4c3a-94d8-db9aa39aa4ec"},"vehicle_type_id":"4","last_reported":1743952118,"current_range_meters":13600,"station_id":"ce4bhbh2rcd13ifvqeo0","pricing_plan_id":"cebpf4jnsgd1na2vs0mg"},{"bike_id":"a5bd5abf-e64b-49fb-9823-db9745ea97e7","system_id":"levelo_inurba_marseille","lat":43.2897,"lon":5.36619,"is_reserved":false,"is_disabled":true,"rental_uris":{"android":"levelo://app?vid=a5bd5abf-e64b-49fb-9823-db9745ea97e7","ios":"levelo://app?vid=a5bd5abf-e64b-49fb-9823-db9745ea97e7"},"vehicle_type_id":"4","last_reported":1743952118,"current_range_meters":10800,"station_id":"ce4bhap2rcd13ifvqek0","pricing_plan_id":"cebpf4jnsgd1na2vs0mg"},{"bike_id":"73da4ec2-07ab-49b0-840e-487dd77ca4ac","system_id":"levelo_inurba_marseille","lat":43.21197,"lon":5.35075,"is_reserved":false,"is_disabled":false,"rental_uris":{"android":"levelo://app?vid=73da4ec2-07ab-49b0-840e-487dd77ca4ac","ios":"levelo://app?vid=73da4ec2-07ab-49b0-840e-487dd77ca4ac"},"vehicle_type_id":"4","last_reported":1743952118,"current_range_meters":13600,"station_id":"st_cvj6sg6p6f1abm77japg","pricing_plan_id":"cebpf4jnsgd1na2vs0mg"},{"bike_id":"eb036402-0cb4-4e3c-8d1e-0b7a29d2ba31","system_id":"levelo_inurba_marseille","lat":43.34148,"lon":5.40916,"is_reserved":false,"is_disabled":false,"rental_uris":{"android":"levelo://app?vid=eb036402-0cb4-4e3c-8d1e-0b7a29d2ba31","ios":"levelo://app?vid=eb036402-0cb4-4e3c-8d1e-0b7a29d2ba31"},"vehicle_type_id":"4","last_reported":1743952118,"current_range_meters":13600,"station_id":"ce4bhqh2rcd13ifvqhlg","pricing_plan_id":"cebpf4jnsgd1na2vs0mg"},{"bike_id":"07486871-a0ff-4090-ad80-c7d852308ed3","system_id":"levelo_inurba_marseille","lat":43.2319,"lon":5.35559,"is_reserved":false,"is_disabled":false,"rental_uris":{"android":"levelo://app?vid=07486871-a0ff-4090-ad80-c7d852308ed3","ios":"levelo://app?vid=07486871-a0ff-4090-ad80-c7d852308ed3"},"vehicle_type_id":"4","last_reported":1743952118,"current_range_meters":13600,"station_id":"ce4bhu92rcd13ifvqi70","pricing_plan_id":"cebpf4jnsgd1na2vs0mg"},{"bike_id":"032f7873-4352-414a-ab11-8fe72e97383f","system_id":"levelo_inurba_marseille","lat":43.28616,"lon":5.35106,"is_reserved":false,"is_disabled":false,"rental_uris":{"android":"levelo://app?vid=032f7873-4352-414a-ab11-8fe72e97383f","ios":"levelo://app?vid=032f7873-4352-414a-ab11-8fe72e97383f"},"vehicle_type_id":"4","last_reported":1743952118,"current_range_meters":13600,"station_id":"ce4bhch2rcd13ifvqeug","pricing_plan_id":"cebpf4jnsgd1na2vs0mg"},{"bike_id":"6bb8e348-6b4e-47fe-84d3-39777a126739","system_id":"levelo_inurba_marseille","lat":43.29875,"lon":5.36329,"is_reserved":false,"is_disabled":false,"rental_uris":{"android":"levelo://app?vid=6bb8e348-6b4e-47fe-84d3-39777a126739","ios":"levelo://app?vid=6bb8e348-6b4e-47fe-84d3-39777a126739"},"vehicle_type_id":"4","last_reported":1743952118,"current_range_meters":14400,"station_id":"","pricing_plan_id":"cebpf4jnsgd1na2vs0mg"},{"bike_id":"8cfd8938-ab02-4f88-9086-591f1be1afd7","system_id":"levelo_inurba_marseille","lat":43.23062,"lon":5.35487,"is_reserved":false,"is_disabled":false,"rental_uris":{"android":"levelo://app?vid=8cfd8938-ab02-4f88-9086-591f1be1afd7","ios":"levelo://app?vid=8cfd8938-ab02-4f88-9086-591f1be1afd7"},"vehicle_type_id":"4","last_reported":1743952118,"current_range_meters":14400,"station_id":"cpo3342slgdg3j2ifvpg","pricing_plan_id":"cebpf4jnsgd1na2vs0mg"},{"bike_id":"a959694d-18ce-4d80-917f-23c91ed81065","system_id":"levelo_inurba_marseille","lat":43.29898,"lon":5.43654,"is_reserved":false,"is_disabled":false,"rental_uris":{"android":"levelo://app?vid=a959694d-18ce-4d80-917f-23c91ed81065","ios":"levelo://app?vid=a959694d-18ce-4d80-917f-23c91ed81065"},"vehicle_type_id":"4","last_reported":1743952118,"current_range_meters":14400,"station_id":"ce4bhpp2rcd13ifvqhfg","pricing_plan_id":"cebpf4jnsgd1na2vs0mg"},{"bike_id":"1688a2ac-8692-49d0-928b-7af26dbeed23","system_id":"levelo_inurba_marseille","lat":43.27963,"lon":5.38747,"is_reserved":false,"is_disabled":false,"rental_uris":{"android":"levelo://app?vid=1688a2ac-8692-49d0-928b-7af26dbeed23","ios":"levelo://app?vid=1688a2ac-8692-49d0-928b-7af26dbeed23"},"vehicle_type_id":"4","last_reported":1743952118,"current_range_meters":14400,"station_id":"ce4bhg12rcd13ifvqf80","pricing_plan_id":"cebpf4jnsgd1na2vs0mg"},{"bike_id":"83daaad8-ff1f-4a7b-91ec-f615ddb621a4","system_id":"levelo_inurba_marseille","lat":43.24172,"lon":5.36395,"is_reserved":false,"is_disabled":false,"rental_uris":{"android":"levelo://app?vid=83daaad8-ff1f-4a7b-91ec-f615ddb621a4","ios":"levelo://app?vid=83daaad8-ff1f-4a7b-91ec-f615ddb621a4"},"vehicle_type_id":"4","last_reported":1743952118,"current_range_meters":14400,"station_id":"cpo36qri1sfpv3e86is0","pricing_plan_id":"cebpf4jnsgd1na2vs0mg"},{"bike_id":"a1a74f1b-fb44-455f-8438-c57f314bba18","system_id":"levelo_inurba_marseille","lat":43.22508,"lon":5.3478,"is_reserved":false,"is_disabled":false,"rental_uris":{"android":"levelo://app?vid=a1a74f1b-fb44-455f-8438-c57f314bba18","ios":"levelo://app?vid=a1a74f1b-fb44-455f-8438-c57f314bba18"},"vehicle_type_id":"4","last_reported":1743952118,"current_range_meters":14400,"station_id":"st_cvj5dfep6f1abm77gieg","pricing_plan_id":"cebpf4jnsgd1na2vs0mg"},{"bike_id":"011cc122-d4ba-4750-994e-7597e9696a4b","system_id":"levelo_inurba_marseille","lat":43.30417,"lon":5.41299,"is_reserved":false,"is_disabled":false,"rental_uris":{"android":"levelo://app?vid=011cc122-d4ba-4750-994e-7597e9696a4b","ios":"levelo://app?vid=011cc122-d4ba-4750-994e-7597e9696a4b"},"vehicle_type_id":"4","last_reported":1743952118,"current_range_meters":14800,"station_id":"ce4bhop2rcd13ifvqh8g","pricing_plan_id":"cebpf4jnsgd1na2vs0mg"},{"bike_id":"0b019f27-b1b6-402a-b4d6-f9d063bf7adf","system_id":"levelo_inurba_marseille","lat":43.24173,"lon":5.36409,"is_reserved":false,"is_disabled":false,"rental_uris":{"android":"levelo://app?vid=0b019f27-b1b6-402a-b4d6-f9d063bf7adf","ios":"levelo://app?vid=0b019f27-b1b6-402a-b4d6-f9d063bf7adf"},"vehicle_type_id":"4","last_reported":1743952118,"current_range_meters":14800,"station_id":"cpo36qri1sfpv3e86is0","pricing_plan_id":"cebpf4jnsgd1na2vs0mg"},{"bike_id":"6f3d9e0a-4149-4e0f-b38b-0787f17204e6","system_id":"levelo_inurba_marseille","lat":43.29005,"lon":5.35614,"is_reserved":false,"is_disabled":false,"rental_uris":{"android":"levelo://app?vid=6f3d9e0a-4149-4e0f-b38b-0787f17204e6","ios":"levelo://app?vid=6f3d9e0a-4149-4e0f-b38b-0787f17204e6"},"vehicle_type_id":"4","last_reported":1743952118,"current_range_meters":14800,"station_id":"ce4bhb92rcd13ifvqen0","pricing_plan_id":"cebpf4jnsgd1na2vs0mg"},{"bike_id":"3919c91b-0f45-42e3-a407-6478d43bfeab","system_id":"levelo_inurba_marseille","lat":43.23067,"lon":5.355,"is_reserved":false,"is_disabled":false,"rental_uris":{"android":"levelo://app?vid=3919c91b-0f45-42e3-a407-6478d43bfeab","ios":"levelo://app?vid=3919c91b-0f45-42e3-a407-6478d43bfeab"},"vehicle_type_id":"4","last_reported":1743952118,"current_range_meters":14800,"station_id":"cpo3342slgdg3j2ifvpg","pricing_plan_id":"cebpf4jnsgd1na2vs0mg"},{"bike_id":"712fcb49-6ccf-4214-933d-9e22817ec623","system_id":"levelo_inurba_marseille","lat":43.27436,"lon":5.39423,"is_reserved":false,"is_disabled":false,"rental_uris":{"android":"levelo://app?vid=712fcb49-6ccf-4214-933d-9e22817ec623","ios":"levelo://app?vid=712fcb49-6ccf-4214-933d-9e22817ec623"},"vehicle_type_id":"4","last_reported":1743952118,"current_range_meters":15200,"station_id":"ce4bhdp2rcd13ifvqf20","pricing_plan_id":"cebpf4jnsgd1na2vs0mg"},{"bike_id":"be9176d2-fd73-44fc-b651-f4a229a2a64e","system_id":"levelo_inurba_marseille","lat":43.24649,"lon":5.38895,"is_reserved":false,"is_disabled":false,"rental_uris":{"android":"levelo://app?vid=be9176d2-fd73-44fc-b651-f4a229a2a64e","ios":"levelo://app?vid=be9176d2-fd73-44fc-b651-f4a229a2a64e"},"vehicle_type_id":"4","last_reported":1743952118,"current_range_meters":14800,"station_id":"ce4bhg12rcd13ifvqf60","pricing_plan_id":"cebpf4jnsgd1na2vs0mg"},{"bike_id":"d6023884-596c-4897-a7d3-370ccc6e2ec1","system_id":"levelo_inurba_marseille","lat":43.27422,"lon":5.39413,"is_reserved":false,"is_disabled":false,"rental_uris":{"android":"levelo://app?vid=d6023884-596c-4897-a7d3-370ccc6e2ec1","ios":"levelo://app?vid=d6023884-596c-4897-a7d3-370ccc6e2ec1"},"vehicle_type_id":"4","last_reported":1743952118,"current_range_meters":15200,"station_id":"ce4bhdp2rcd13ifvqf20","pricing_plan_id":"cebpf4jnsgd1na2vs0mg"},{"bike_id":"5422483a-eee0-479a-9073-9aa9fc88787e","system_id":"levelo_inurba_marseille","lat":43.27378,"lon":5.3625,"is_reserved":false,"is_disabled":false,"rental_uris":{"android":"levelo://app?vid=5422483a-eee0-479a-9073-9aa9fc88787e","ios":"levelo://app?vid=5422483a-eee0-479a-9073-9aa9fc88787e"},"vehicle_type_id":"4","last_reported":1743952118,"current_range_meters":15200,"station_id":"ce4bhbh2rcd13ifvqeo0","pricing_plan_id":"cebpf4jnsgd1na2vs0mg"},{"bike_id":"222e1e00-578b-4512-8bd3-f56c6fa61730","system_id":"levelo_inurba_marseille","lat":43.23954,"lon":5.36638,"is_reserved":false,"is_disabled":true,"rental_uris":{"android":"levelo://app?vid=222e1e00-578b-4512-8bd3-f56c6fa61730","ios":"levelo://app?vid=222e1e00-578b-4512-8bd3-f56c6fa61730"},"vehicle_type_id":"4","last_reported":1743952118,"current_range_meters":15200,"station_id":"ce4bhi12rcd13ifvqfp0","pricing_plan_id":"cebpf4jnsgd1na2vs0mg"},{"bike_id":"3421c882-3fa1-44aa-ba15-70b406af94eb","system_id":"levelo_inurba_marseille","lat":43.23183,"lon":5.35568,"is_reserved":false,"is_disabled":false,"rental_uris":{"android":"levelo://app?vid=3421c882-3fa1-44aa-ba15-70b406af94eb","ios":"levelo://app?vid=3421c882-3fa1-44aa-ba15-70b406af94eb"},"vehicle_type_id":"4","last_reported":1743952118,"current_range_meters":15200,"station_id":"ce4bhu92rcd13ifvqi70","pricing_plan_id":"cebpf4jnsgd1na2vs0mg"},{"bike_id":"4ca885ad-bf65-4540-b5d0-1baba23daec6","system_id":"levelo_inurba_marseille","lat":43.2251,"lon":5.34791,"is_reserved":false,"is_disabled":false,"rental_uris":{"android":"levelo://app?vid=4ca885ad-bf65-4540-b5d0-1baba23daec6","ios":"levelo://app?vid=4ca885ad-bf65-4540-b5d0-1baba23daec6"},"vehicle_type_id":"4","last_reported":1743952118,"current_range_meters":15200,"station_id":"ce4bh612rcd13ifvqe6g","pricing_plan_id":"cebpf4jnsgd1na2vs0mg"},{"bike_id":"6626fa81-7712-4f54-8603-69b155b17c40","system_id":"levelo_inurba_marseille","lat":43.2558,"lon":5.38281,"is_reserved":false,"is_disabled":true,"rental_uris":{"android":"levelo://app?vid=6626fa81-7712-4f54-8603-69b155b17c40","ios":"levelo://app?vid=6626fa81-7712-4f54-8603-69b155b17c40"},"vehicle_type_id":"4","last_reported":1743952118,"current_range_meters":16000,"station_id":"ce4bhih2rcd13ifvqfs0","pricing_plan_id":"cebpf4jnsgd1na2vs0mg"},{"bike_id":"d3940f6d-6c26-4ccb-aa36-1b12f0ca6ef4","system_id":"levelo_inurba_marseille","lat":43.31488,"lon":5.39022,"is_reserved":false,"is_disabled":false,"rental_uris":{"android":"levelo://app?vid=d3940f6d-6c26-4ccb-aa36-1b12f0ca6ef4","ios":"levelo://app?vid=d3940f6d-6c26-4ccb-aa36-1b12f0ca6ef4"},"vehicle_type_id":"4","last_reported":1743952118,"current_range_meters":16000,"station_id":"","pricing_plan_id":"cebpf4jnsgd1na2vs0mg"},{"bike_id":"d6316007-30e7-4a79-988d-f7ab8517ae62","system_id":"levelo_inurba_marseille","lat":43.2465,"lon":5.38898,"is_reserved":false,"is_disabled":false,"rental_uris":{"android":"levelo://app?vid=d6316007-30e7-4a79-988d-f7ab8517ae62","ios":"levelo://app?vid=d6316007-30e7-4a79-988d-f7ab8517ae62"},"vehicle_type_id":"4","last_reported":1743952118,"current_range_meters":16000,"station_id":"ce4bhg12rcd13ifvqf60","pricing_plan_id":"cebpf4jnsgd1na2vs0mg"},{"bike_id":"33f3816c-12e7-49be-befd-aeb487ab17aa","system_id":"levelo_inurba_marseille","lat":43.30808,"lon":5.43515,"is_reserved":false,"is_disabled":false,"rental_uris":{"android":"levelo://app?vid=33f3816c-12e7-49be-befd-aeb487ab17aa","ios":"levelo://app?vid=33f3816c-12e7-49be-befd-aeb487ab17aa"},"vehicle_type_id":"4","last_reported":1743952118,"current_range_meters":16000,"station_id":"ce4bhph2rcd13ifvqheg","pricing_plan_id":"cebpf4jnsgd1na2vs0mg"},{"bike_id":"0fd453bc-2d6e-4482-8ae4-2c4cd0a51bc1","system_id":"levelo_inurba_marseille","lat":43.30749,"lon":5.37966,"is_reserved":false,"is_disabled":false,"rental_uris":{"android":"levelo://app?vid=0fd453bc-2d6e-4482-8ae4-2c4cd0a51bc1","ios":"levelo://app?vid=0fd453bc-2d6e-4482-8ae4-2c4cd0a51bc1"},"vehicle_type_id":"4","last_reported":1743952118,"current_range_meters":16400,"station_id":"","pricing_plan_id":"cebpf4jnsgd1na2vs0mg"},{"bike_id":"750bc9c2-8244-4f27-a571-77c62d7d6b92","system_id":"levelo_inurba_marseille","lat":43.31279,"lon":5.37742,"is_reserved":false,"is_disabled":false,"rental_uris":{"android":"levelo://app?vid=750bc9c2-8244-4f27-a571-77c62d7d6b92","ios":"levelo://app?vid=750bc9c2-8244-4f27-a571-77c62d7d6b92"},"vehicle_type_id":"4","last_reported":1743952118,"current_range_meters":16400,"station_id":"","pricing_plan_id":"cebpf4jnsgd1na2vs0mg"},{"bike_id":"32abf96e-1251-4492-af5f-a64e6fe215ff","system_id":"levelo_inurba_marseille","lat":43.232,"lon":5.35557,"is_reserved":false,"is_disabled":false,"rental_uris":{"android":"levelo://app?vid=32abf96e-1251-4492-af5f-a64e6fe215ff","ios":"levelo://app?vid=32abf96e-1251-4492-af5f-a64e6fe215ff"},"vehicle_type_id":"4","last_reported":1743952118,"current_range_meters":16400,"station_id":"ce4bhu92rcd13ifvqi70","pricing_plan_id":"cebpf4jnsgd1na2vs0mg"},{"bike_id":"2670f8ec-74a4-4ac3-ba9d-c93728a399c7","system_id":"levelo_inurba_marseille","lat":43.27377,"lon":5.36253,"is_reserved":false,"is_disabled":false,"rental_uris":{"android":"levelo://app?vid=2670f8ec-74a4-4ac3-ba9d-c93728a399c7","ios":"levelo://app?vid=2670f8ec-74a4-4ac3-ba9d-c93728a399c7"},"vehicle_type_id":"4","last_reported":1743952118,"current_range_meters":16400,"station_id":"ce4bhbh2rcd13ifvqeo0","pricing_plan_id":"cebpf4jnsgd1na2vs0mg"},{"bike_id":"d0d11395-1d31-4975-80c5-5e6b692fbcc7","system_id":"levelo_inurba_marseille","lat":43.273785,"lon":5.362546,"is_reserved":false,"is_disabled":false,"rental_uris":{"android":"levelo://app?vid=d0d11395-1d31-4975-80c5-5e6b692fbcc7","ios":"levelo://app?vid=d0d11395-1d31-4975-80c5-5e6b692fbcc7"},"vehicle_type_id":"4","last_reported":1743952118,"current_range_meters":16400,"station_id":"ce4bhbh2rcd13ifvqeo0","pricing_plan_id":"cebpf4jnsgd1na2vs0mg"},{"bike_id":"c7c8eef1-08a6-47fd-a4ec-4f9b2cc2e07b","system_id":"levelo_inurba_marseille","lat":43.27623,"lon":5.36102,"is_reserved":false,"is_disabled":false,"rental_uris":{"android":"levelo://app?vid=c7c8eef1-08a6-47fd-a4ec-4f9b2cc2e07b","ios":"levelo://app?vid=c7c8eef1-08a6-47fd-a4ec-4f9b2cc2e07b"},"vehicle_type_id":"4","last_reported":1743952118,"current_range_meters":16400,"station_id":"ce4bgj92rcd13ifvqbe0","pricing_plan_id":"cebpf4jnsgd1na2vs0mg"},{"bike_id":"25af9be3-7385-453f-8c12-1ffa760f0106","system_id":"levelo_inurba_marseille","lat":43.25502,"lon":5.37651,"is_reserved":false,"is_disabled":false,"rental_uris":{"android":"levelo://app?vid=25af9be3-7385-453f-8c12-1ffa760f0106","ios":"levelo://app?vid=25af9be3-7385-453f-8c12-1ffa760f0106"},"vehicle_type_id":"4","last_reported":1743952118,"current_range_meters":16400,"station_id":"ce4bhh12rcd13ifvqff0","pricing_plan_id":"cebpf4jnsgd1na2vs0mg"},{"bike_id":"f6840086-8dc1-4f23-b044-ab71abda0c31","system_id":"levelo_inurba_marseille","lat":43.28941,"lon":5.36401,"is_reserved":false,"is_disabled":false,"rental_uris":{"android":"levelo://app?vid=f6840086-8dc1-4f23-b044-ab71abda0c31","ios":"levelo://app?vid=f6840086-8dc1-4f23-b044-ab71abda0c31"},"vehicle_type_id":"4","last_reported":1743952118,"current_range_meters":16400,"station_id":"ce4bhc92rcd13ifvqetg","pricing_plan_id":"cebpf4jnsgd1na2vs0mg"},{"bike_id":"3b1c9c48-fe20-4625-91f9-f90548a95a4f","system_id":"levelo_inurba_marseille","lat":43.23967,"lon":5.36637,"is_reserved":false,"is_disabled":false,"rental_uris":{"android":"levelo://app?vid=3b1c9c48-fe20-4625-91f9-f90548a95a4f","ios":"levelo://app?vid=3b1c9c48-fe20-4625-91f9-f90548a95a4f"},"vehicle_type_id":"4","last_reported":1743952118,"current_range_meters":16800,"station_id":"ce4bhi12rcd13ifvqfp0","pricing_plan_id":"cebpf4jnsgd1na2vs0mg"},{"bike_id":"46057c1a-ef15-49c0-8328-133f1962cf6c","system_id":"levelo_inurba_marseille","lat":43.32275,"lon":5.36798,"is_reserved":false,"is_disabled":false,"rental_uris":{"android":"levelo://app?vid=46057c1a-ef15-49c0-8328-133f1962cf6c","ios":"levelo://app?vid=46057c1a-ef15-49c0-8328-133f1962cf6c"},"vehicle_type_id":"4","last_reported":1743952118,"current_range_meters":16800,"station_id":"","pricing_plan_id":"cebpf4jnsgd1na2vs0mg"},{"bike_id":"e1d44a16-896a-4bf5-8fc0-8f8505100047","system_id":"levelo_inurba_marseille","lat":43.29483,"lon":5.37432,"is_reserved":false,"is_disabled":false,"rental_uris":{"android":"levelo://app?vid=e1d44a16-896a-4bf5-8fc0-8f8505100047","ios":"levelo://app?vid=e1d44a16-896a-4bf5-8fc0-8f8505100047"},"vehicle_type_id":"4","last_reported":1743952118,"current_range_meters":16800,"station_id":"","pricing_plan_id":"cebpf4jnsgd1na2vs0mg"},{"bike_id":"81ff7e24-56a0-48c0-a7aa-306ece6f3952","system_id":"levelo_inurba_marseille","lat":43.23192,"lon":5.35556,"is_reserved":false,"is_disabled":false,"rental_uris":{"android":"levelo://app?vid=81ff7e24-56a0-48c0-a7aa-306ece6f3952","ios":"levelo://app?vid=81ff7e24-56a0-48c0-a7aa-306ece6f3952"},