{"last_updated":1692453870,"ttl":30,"version":"2.2","data":{"bikes":[{"bike_id":"f9175c3d-f09f-4df2-8264-03e72d5e53a4","system_id":"levelo_inurba_marseille","lat":43.31341,"lon":5.367098,"is_reserved":false,"is_disabled":false,"rental_uris":{"android":"levelo://app?vid=f9175c3d-f09f-4df2-8264-03e72d5e53a4","ios":"levelo://app?vid=f9175c3d-f09f-4df2-8264-03e72d5e53a4"},"vehicle_type_id":"4","last_reported":1692453872,"current_range_meters":30000,"station_id":"ce4bgr92rcd13ifvqc6g","pricing_plan_id":"free"},{"bike_id":"34b5d219-0d80-476f-96ca-3c9be7f6e17e","system_id":"levelo_inurba_marseille","lat":43.313391,"lon":5.36706,"is_reserved":false,"is_disabled":false,"rental_uris":{"android":"levelo://app?vid=34b5d219-0d80-476f-96ca-3c9be7f6e17e","ios":"levelo://app?vid=34b5d219-0d80-476f-96ca-3c9be7f6e17e"},"vehicle_type_id":"4","last_reported":1692453872,"current_range_meters":29600,"station_id":"ce4bgr92rcd13ifvqc6g","pricing_plan_id":"free"},{"bike_id":"4849b30d-ff5f-4b6b-97b8-62a8b91ec7de","system_id":"levelo_inurba_marseille","lat":43.312239,"lon":5.368562,"is_reserved":false,"is_disabled":false,"rental_uris":{"android":"levelo://app?vid=4849b30d-ff5f-4b6b-97b8-62a8b91ec7de","ios":"levelo://app?vid=4849b30d-ff5f-4b6b-97b8-62a8b91ec7de"},"vehicle_type_id":"4","last_reported":1692453872,"current_range_meters":30000,"station_id":"ce4bgl92rcd13ifvqbq0","pricing_plan_id":"free"},{"bike_id":"28e7cf53-575d-41ed-b334-437a597705b5","system_id":"levelo_inurba_marseille","lat":43.312239,"lon":5.368562,"is_reserved":false,"is_disabled":false,"rental_uris":{"android":"levelo://app?vid=28e7cf53-575d-41ed-b334-437a597705b5","ios":"levelo://app?vid=28e7cf53-575d-41ed-b334-437a597705b5"},"vehicle_type_id":"4","last_reported":1692453872,"current_range_meters":31200,"station_id":"ce4bgl92rcd13ifvqbq0","pricing_plan_id":"free"},{"bike_id":"364dc0f9-c722-4a74-bc78-d8f7a5c4f1b7","system_id":"levelo_inurba_marseille","lat":43.312239,"lon":5.368562,"is_reserved":false,"is_disabled":false,"rental_uris":{"android":"levelo://app?vid=364dc0f9-c722-4a74-bc78-d8f7a5c4f1b7","ios":"levelo://app?vid=364dc0f9-c722-4a74-bc78-d8f7a5c4f1b7"},"vehicle_type_id":"4","last_reported":1692453872,"current_range_meters":30400,"station_id":"ce4bgl92rcd13ifvqbq0","pricing_plan_id":"free"},{"bike_id":"f22ca441-4e4e-4660-b824-b2f46943e54d","system_id":"levelo_inurba_marseille","lat":43.312239,"lon":5.368562,"is_reserved":false,"is_disabled":false,"rental_uris":{"android":"levelo://app?vid=f22ca441-4e4e-4660-b824-b2f46943e54d","ios":"levelo://app?vid=f22ca441-4e4e-4660-b824-b2f46943e54d"},"vehicle_type_id":"4","last_reported":1692453872,"current_range_meters":31200,"station_id":"ce4bgl92rcd13ifvqbq0","pricing_plan_id":"free"},{"bike_id":"cc0bddc4-403d-45fc-8b4a-c35198d4741b","system_id":"levelo_inurba_marseille","lat":43.312239,"lon":5.368562,"is_reserved":false,"is_disabled":false,"rental_uris":{"android":"levelo://app?vid=cc0bddc4-403d-45fc-8b4a-c35198d4741b","ios":"levelo://app?vid=cc0bddc4-403d-45fc-8b4a-c35198d4741b"},"vehicle_type_id":"4","last_reported":1692453872,"current_range_meters":31200,"station_id":"ce4bgl92rcd13ifvqbq0","pricing_plan_id":"free"},{"bike_id":"551d0656-3361-4e0c-88ea-5db1254628c5","system_id":"levelo_inurba_marseille","lat":43.312239,"lon":5.368562,"is_reserved":false,"is_disabled":false,"rental_uris":{"android":"levelo://app?vid=551d0656-3361-4e0c-88ea-5db1254628c5","ios":"levelo://app?vid=551d0656-3361-4e0c-88ea-5db1254628c5"},"vehicle_type_id":"4","last_reported":1692453872,"current_range_meters":31200,"station_id":"ce4bgl92rcd13ifvqbq0","pricing_plan_id":"free"},{"bike_id":"d968abd3-56a4-4d70-b2e2-d7ac7ecfa54b","system_id":"levelo_inurba_marseille","lat":43.312239,"lon":5.368562,"is_reserved":false,"is_disabled":false,"rental_uris":{"android":"levelo://app?vid=d968abd3-56a4-4d70-b2e2-d7ac7ecfa54b","ios":"levelo://app?vid=d968abd3-56a4-4d70-b2e2-d7ac7ecfa54b"},"vehicle_type_id":"4","last_reported":1692453872,"current_range_meters":31200,"station_id":"ce4bgl92rcd13ifvqbq0","pricing_plan_id":"free"},{"bike_id":"798484b3-d62c-4b6b-8973-f9fadb03d90c","system_id":"levelo_inurba_marseille","lat":43.312239,"lon":5.368562,"is_reserved":false,"is_disabled":false,"rental_uris":{"android":"levelo://app?vid=798484b3-d62c-4b6b-8973-f9fadb03d90c","ios":"levelo://app?vid=798484b3-d62c-4b6b-8973-f9fadb03d90c"},"vehicle_type_id":"4","last_reported":1692453872,"current_range_meters":31200,"station_id":"ce4bgl92rcd13ifvqbq0","pricing_plan_id":"free"},{"bike_id":"bc87bca4-24df-4796-abff-ca9583d327cb","system_id":"levelo_inurba_marseille","lat":43.30904,"lon":5.36852,"is_reserved":false,"is_disabled":false,"rental_uris":{"android":"levelo://app?vid=bc87bca4-24df-4796-abff-ca9583d327cb","ios":"levelo://app?vid=bc87bca4-24df-4796-abff-ca9583d327cb"},"vehicle_type_id":"4","last_reported":1692453872,"current_range_meters":30800,"station_id":"ce4bgn92rcd13ifvqbvg","pricing_plan_id":"free"},{"bike_id":"4826e2b0-40fd-4048-a5cd-9a32c2a4230f","system_id":"levelo_inurba_marseille","lat":43.309039,"lon":5.371797,"is_reserved":false,"is_disabled":false,"rental_uris":{"android":"levelo://app?vid=4826e2b0-40fd-4048-a5cd-9a32c2a4230f","ios":"levelo://app?vid=4826e2b0-40fd-4048-a5cd-9a32c2a4230f"},"vehicle_type_id":"4","last_reported":1692453872,"current_range_meters":7600,"station_id":"ce4bguh2rcd13ifvqckg","pricing_plan_id":"free"},{"bike_id":"f753345f-5943-4724-bdcc-64263f6f6e5e","system_id":"levelo_inurba_marseille","lat":43.309039,"lon":5.371797,"is_reserved":false,"is_disabled":false,"rental_uris":{"android":"levelo://app?vid=f753345f-5943-4724-bdcc-64263f6f6e5e","ios":"levelo://app?vid=f753345f-5943-4724-bdcc-64263f6f6e5e"},"vehicle_type_id":"4","last_reported":1692453872,"current_range_meters":18400,"station_id":"ce4bguh2rcd13ifvqckg","pricing_plan_id":"free"},{"bike_id":"df0d61d6-6763-4289-9e59-63e6c92307e4","system_id":"levelo_inurba_marseille","lat":43.30558,"lon":5.36542,"is_reserved":false,"is_disabled":false,"rental_uris":{"android":"levelo://app?vid=df0d61d6-6763-4289-9e59-63e6c92307e4","ios":"levelo://app?vid=df0d61d6-6763-4289-9e59-63e6c92307e4"},"vehicle_type_id":"4","last_reported":1692453872,"current_range_meters":26800,"station_id":"ce4bgs12rcd13ifvqcag","pricing_plan_id":"free"},{"bike_id":"a7b1ff53-4ae0-41e1-9939-453bb631642a","system_id":"levelo_inurba_marseille","lat":43.305418,"lon":5.367201,"is_reserved":false,"is_disabled":false,"rental_uris":{"android":"levelo://app?vid=a7b1ff53-4ae0-41e1-9939-453bb631642a","ios":"levelo://app?vid=a7b1ff53-4ae0-41e1-9939-453bb631642a"},"vehicle_type_id":"4","last_reported":1692453872,"current_range_meters":25600,"station_id":"ce4bgrp2rcd13ifvqc9g","pricing_plan_id":"free"},{"bike_id":"9fbe6e18-d192-44c2-98b5-cafb68b41aa4","system_id":"levelo_inurba_marseille","lat":43.30547,"lon":5.36535,"is_reserved":false,"is_disabled":false,"rental_uris":{"android":"levelo://app?vid=9fbe6e18-d192-44c2-98b5-cafb68b41aa4","ios":"levelo://app?vid=9fbe6e18-d192-44c2-98b5-cafb68b41aa4"},"vehicle_type_id":"4","last_reported":1692453872,"current_range_meters":11200,"station_id":"ce4bgs12rcd13ifvqcag","pricing_plan_id":"free"},{"bike_id":"386ed8e3-b71e-4f68-86af-202c5b76503e","system_id":"levelo_inurba_marseille","lat":43.30535,"lon":5.36717,"is_reserved":false,"is_disabled":false,"rental_uris":{"android":"levelo://app?vid=386ed8e3-b71e-4f68-86af-202c5b76503e","ios":"levelo://app?vid=386ed8e3-b71e-4f68-86af-202c5b76503e"},"vehicle_type_id":"4","last_reported":1692453872,"current_range_meters":25200,"station_id":"ce4bgrp2rcd13ifvqc9g","pricing_plan_id":"free"},{"bike_id":"dc258d8c-8ded-47ac-a09b-3cc2529c9f75","system_id":"levelo_inurba_marseille","lat":43.305706,"lon":5.365654,"is_reserved":false,"is_disabled":false,"rental_uris":{"android":"levelo://app?vid=dc258d8c-8ded-47ac-a09b-3cc2529c9f75","ios":"levelo://app?vid=dc258d8c-8ded-47ac-a09b-3cc2529c9f75"},"vehicle_type_id":"4","last_reported":1692453872,"current_range_meters":23200,"station_id":"ce4bgs12rcd13ifvqcag","pricing_plan_id":"free"},{"bike_id":"17f4ce02-451a-4440-ba04-3b308e2ed7e5","system_id":"levelo_inurba_marseille","lat":43.305714,"lon":5.365633,"is_reserved":false,"is_disabled":false,"rental_uris":{"android":"levelo://app?vid=17f4ce02-451a-4440-ba04-3b308e2ed7e5","ios":"levelo://app?vid=17f4ce02-451a-4440-ba04-3b308e2ed7e5"},"vehicle_type_id":"4","last_reported":1692453872,"current_range_meters":31200,"station_id":"ce4bgs12rcd13ifvqcag","pricing_plan_id":"free"},{"bike_id":"4b1165a9-70ad-4388-81cb-9aa4c66cd3c8","system_id":"levelo_inurba_marseille","lat":43.305706,"lon":5.365654,"is_reserved":false,"is_disabled":false,"rental_uris":{"android":"levelo://app?vid=4b1165a9-70ad-4388-81cb-9aa4c66cd3c8","ios":"levelo://app?vid=4b1165a9-70ad-4388-81cb-9aa4c66cd3c8"},"vehicle_type_id":"4","last_reported":1692453872,"current_range_meters":32000,"station_id":"ce4bgs12rcd13ifvqcag","pricing_plan_id":"free"},{"bike_id":"27cda452-acbc-413c-8009-71d101c425c3","system_id":"levelo_inurba_marseille","lat":43.30528,"lon":5.36721,"is_reserved":false,"is_disabled":false,"rental_uris":{"android":"levelo://app?vid=27cda452-acbc-413c-8009-71d101c425c3","ios":"levelo://app?vid=27cda452-acbc-413c-8009-71d101c425c3"},"vehicle_type_id":"4","last_reported":1692453872,"current_range_meters":14000,"station_id":"ce4bgrp2rcd13ifvqc9g","pricing_plan_id":"free"},{"bike_id":"bc3a4c00-147d-4bc8-8206-5c04642ad779","system_id":"levelo_inurba_marseille","lat":43.305989,"lon":5.37225,"is_reserved":false,"is_disabled":false,"rental_uris":{"android":"levelo://app?vid=bc3a4c00-147d-4bc8-8206-5c04642ad779","ios":"levelo://app?vid=bc3a4c00-147d-4bc8-8206-5c04642ad779"},"vehicle_type_id":"4","last_reported":1692453872,"current_range_meters":22800,"station_id":"ce4bgqh2rcd13ifvqc4g","pricing_plan_id":"free"},{"bike_id":"ab083b4e-bc50-44a2-a6b7-c08b6f9a1f50","system_id":"levelo_inurba_marseille","lat":43.30788,"lon":5.37649,"is_reserved":false,"is_disabled":false,"rental_uris":{"android":"levelo://app?vid=ab083b4e-bc50-44a2-a6b7-c08b6f9a1f50","ios":"levelo://app?vid=ab083b4e-bc50-44a2-a6b7-c08b6f9a1f50"},"vehicle_type_id":"4","last_reported":1692453872,"current_range_meters":12400,"station_id":"ce4bgv92rcd13ifvqcq0","pricing_plan_id":"free"},{"bike_id":"e92c44c6-bfb0-45fa-b2fe-a367fd139d46","system_id":"levelo_inurba_marseille","lat":43.317075,"lon":5.377367,"is_reserved":false,"is_disabled":false,"rental_uris":{"android":"levelo://app?vid=e92c44c6-bfb0-45fa-b2fe-a367fd139d46","ios":"levelo://app?vid=e92c44c6-bfb0-45fa-b2fe-a367fd139d46"},"vehicle_type_id":"4","last_reported":1692453872,"current_range_meters":21600,"station_id":"ce4bgth2rcd13ifvqch0","pricing_plan_id":"free"},{"bike_id":"afed6de6-bfcf-43e9-bfd4-eba25170a42b","system_id":"levelo_inurba_marseille","lat":43.317075,"lon":5.377367,"is_reserved":false,"is_disabled":false,"rental_uris":{"android":"levelo://app?vid=afed6de6-bfcf-43e9-bfd4-eba25170a42b","ios":"levelo://app?vid=afed6de6-bfcf-43e9-bfd4-eba25170a42b"},"vehicle_type_id":"4","last_reported":1692453872,"current_range_meters":28400,"station_id":"ce4bgth2rcd13ifvqch0","pricing_plan_id":"free"},{"bike_id":"a6651547-d993-431a-9bb2-3389a1270c4d","system_id":"levelo_inurba_marseille","lat":43.315293,"lon":5.380349,"is_reserved":false,"is_disabled":false,"rental_uris":{"android":"levelo://app?vid=a6651547-d993-431a-9bb2-3389a1270c4d","ios":"levelo://app?vid=a6651547-d993-431a-9bb2-3389a1270c4d"},"vehicle_type_id":"4","last_reported":1692453872,"current_range_meters":25600,"station_id":"ce4bhsp2rcd13ifvqi50","pricing_plan_id":"free"},{"bike_id":"bfd18b81-7891-4c2a-9875-8c3cac67fc01","system_id":"levelo_inurba_marseille","lat":43.31535,"lon":5.38034,"is_reserved":false,"is_disabled":false,"rental_uris":{"android":"levelo://app?vid=bfd18b81-7891-4c2a-9875-8c3cac67fc01","ios":"levelo://app?vid=bfd18b81-7891-4c2a-9875-8c3cac67fc01"},"vehicle_type_id":"4","last_reported":1692453872,"current_range_meters":26400,"station_id":"ce4bhsp2rcd13ifvqi50","pricing_plan_id":"free"},{"bike_id":"784dd607-42ba-4c87-aa30-553f0fab1303","system_id":"levelo_inurba_marseille","lat":43.3153,"lon":5.38037,"is_reserved":false,"is_disabled":false,"rental_uris":{"android":"levelo://app?vid=784dd607-42ba-4c87-aa30-553f0fab1303","ios":"levelo://app?vid=784dd607-42ba-4c87-aa30-553f0fab1303"},"vehicle_type_id":"4","last_reported":1692453872,"current_range_meters":14000,"station_id":"ce4bhsp2rcd13ifvqi50","pricing_plan_id":"free"},{"bike_id":"e3310298-fb10-4c18-ae38-2570af28e985","system_id":"levelo_inurba_marseille","lat":43.31527,"lon":5.38046,"is_reserved":false,"is_disabled":false,"rental_uris":{"android":"levelo://app?vid=e3310298-fb10-4c18-ae38-2570af28e985","ios":"levelo://app?vid=e3310298-fb10-4c18-ae38-2570af28e985"},"vehicle_type_id":"4","last_reported":1692453872,"current_range_meters":28800,"station_id":"ce4bhsp2rcd13ifvqi50","pricing_plan_id":"free"},{"bike_id":"b9179210-3ec5-41d7-8b7a-fb580c7c72a4","system_id":"levelo_inurba_marseille","lat":43.30186,"lon":5.36613,"is_reserved":false,"is_disabled":false,"rental_uris":{"android":"levelo://app?vid=b9179210-3ec5-41d7-8b7a-fb580c7c72a4","ios":"levelo://app?vid=b9179210-3ec5-41d7-8b7a-fb580c7c72a4"},"vehicle_type_id":"4","last_reported":1692453872,"current_range_meters":11600,"station_id":"ce4bgrh2rcd13ifvqc8g","pricing_plan_id":"free"},{"bike_id":"d265caa2-45f3-479c-9c49-3d7c224a30b9","system_id":"levelo_inurba_marseille","lat":43.301939,"lon":5.366286,"is_reserved":false,"is_disabled":false,"rental_uris":{"android":"levelo://app?vid=d265caa2-45f3-479c-9c49-3d7c224a30b9","ios":"levelo://app?vid=d265caa2-45f3-479c-9c49-3d7c224a30b9"},"vehicle_type_id":"4","last_reported":1692453872,"current_range_meters":8000,"station_id":"ce4bgrh2rcd13ifvqc8g","pricing_plan_id":"free"},{"bike_id":"b5e67212-0cca-4ea7-972c-50c4c32b9945","system_id":"levelo_inurba_marseille","lat":43.30806,"lon":5.38155,"is_reserved":false,"is_disabled":false,"rental_uris":{"android":"levelo://app?vid=b5e67212-0cca-4ea7-972c-50c4c32b9945","ios":"levelo://app?vid=b5e67212-0cca-4ea7-972c-50c4c32b9945"},"vehicle_type_id":"4","last_reported":1692453872,"current_range_meters":24000,"station_id":"ce4bgt12rcd13ifvqce0","pricing_plan_id":"free"},{"bike_id":"b56100e3-7b72-4a87-bb44-9a3bb350ee61","system_id":"levelo_inurba_marseille","lat":43.302784,"lon":5.377158,"is_reserved":false,"is_disabled":false,"rental_uris":{"android":"levelo://app?vid=b56100e3-7b72-4a87-bb44-9a3bb350ee61","ios":"levelo://app?vid=b56100e3-7b72-4a87-bb44-9a3bb350ee61"},"vehicle_type_id":"4","last_reported":1692453872,"current_range_meters":29600,"station_id":"ce4bguh2rcd13ifvqcj0","pricing_plan_id":"free"},{"bike_id":"6fb2fca4-dbd4-4a56-a961-8a7a6d721efc","system_id":"levelo_inurba_marseille","lat":43.31996,"lon":5.38146,"is_reserved":false,"is_disabled":false,"rental_uris":{"android":"levelo://app?vid=6fb2fca4-dbd4-4a56-a961-8a7a6d721efc","ios":"levelo://app?vid=6fb2fca4-dbd4-4a56-a961-8a7a6d721efc"},"vehicle_type_id":"4","last_reported":1692453872,"current_range_meters":24400,"station_id":"ce4bhr12rcd13ifvqhpg","pricing_plan_id":"free"},{"bike_id":"8f9423b6-2f75-4d37-9601-472d76ede970","system_id":"levelo_inurba_marseille","lat":43.31361,"lon":5.38477,"is_reserved":false,"is_disabled":false,"rental_uris":{"android":"levelo://app?vid=8f9423b6-2f75-4d37-9601-472d76ede970","ios":"levelo://app?vid=8f9423b6-2f75-4d37-9601-472d76ede970"},"vehicle_type_id":"4","last_reported":1692453872,"current_range_meters":7600,"station_id":"ce4bgt92rcd13ifvqcf0","pricing_plan_id":"free"},{"bike_id":"bfbd4221-dbc7-4730-9737-ec63a390bb89","system_id":"levelo_inurba_marseille","lat":43.2994,"lon":5.36553,"is_reserved":false,"is_disabled":false,"rental_uris":{"android":"levelo://app?vid=bfbd4221-dbc7-4730-9737-ec63a390bb89","ios":"levelo://app?vid=bfbd4221-dbc7-4730-9737-ec63a390bb89"},"vehicle_type_id":"4","last_reported":1692453872,"current_range_meters":29200,"station_id":"ce4bgm92rcd13ifvqbr0","pricing_plan_id":"free"},{"bike_id":"43f01d3e-f259-4b74-ae5a-207ec074eabb","system_id":"levelo_inurba_marseille","lat":43.299372,"lon":5.365463,"is_reserved":false,"is_disabled":false,"rental_uris":{"android":"levelo://app?vid=43f01d3e-f259-4b74-ae5a-207ec074eabb","ios":"levelo://app?vid=43f01d3e-f259-4b74-ae5a-207ec074eabb"},"vehicle_type_id":"4","last_reported":1692453872,"current_range_meters":21200,"station_id":"ce4bgm92rcd13ifvqbr0","pricing_plan_id":"free"},{"bike_id":"8b882b1c-971b-4cc4-b5c1-006ab190f8e4","system_id":"levelo_inurba_marseille","lat":43.29935,"lon":5.36545,"is_reserved":false,"is_disabled":false,"rental_uris":{"android":"levelo://app?vid=8b882b1c-971b-4cc4-b5c1-006ab190f8e4","ios":"levelo://app?vid=8b882b1c-971b-4cc4-b5c1-006ab190f8e4"},"vehicle_type_id":"4","last_reported":1692453872,"current_range_meters":19200,"station_id":"ce4bgm92rcd13ifvqbr0","pricing_plan_id":"free"},{"bike_id":"029eba37-91e4-4e53-804d-ef3223c98c31","system_id":"levelo_inurba_marseille","lat":43.29921,"lon":5.3655,"is_reserved":false,"is_disabled":false,"rental_uris":{"android":"levelo://app?vid=029eba37-91e4-4e53-804d-ef3223c98c31","ios":"levelo://app?vid=029eba37-91e4-4e53-804d-ef3223c98c31"},"vehicle_type_id":"4","last_reported":1692453872,"current_range_meters":23600,"station_id":"ce4bgm92rcd13ifvqbr0","pricing_plan_id":"free"},{"bike_id":"94d448e1-0de9-4e23-a98d-9ba298dcdf84","system_id":"levelo_inurba_marseille","lat":43.29853,"lon":5.36285,"is_reserved":false,"is_disabled":false,"rental_uris":{"android":"levelo://app?vid=94d448e1-0de9-4e23-a98d-9ba298dcdf84","ios":"levelo://app?vid=94d448e1-0de9-4e23-a98d-9ba298dcdf84"},"vehicle_type_id":"4","last_reported":1692453872,"current_range_meters":4000,"station_id":"ce4bgpp2rcd13ifvqc3g","pricing_plan_id":"free"},{"bike_id":"c9d85c5e-c17b-4cb5-94a9-55d29780ce07","system_id":"levelo_inurba_marseille","lat":43.29851,"lon":5.36286,"is_reserved":false,"is_disabled":false,"rental_uris":{"android":"levelo://app?vid=c9d85c5e-c17b-4cb5-94a9-55d29780ce07","ios":"levelo://app?vid=c9d85c5e-c17b-4cb5-94a9-55d29780ce07"},"vehicle_type_id":"4","last_reported":1692453872,"current_range_meters":30400,"station_id":"ce4bgpp2rcd13ifvqc3g","pricing_plan_id":"free"},{"bike_id":"b9ab17a1-2d0e-40b0-816f-8bc157ff8407","system_id":"levelo_inurba_marseille","lat":43.29848,"lon":5.36284,"is_reserved":false,"is_disabled":false,"rental_uris":{"android":"levelo://app?vid=b9ab17a1-2d0e-40b0-816f-8bc157ff8407","ios":"levelo://app?vid=b9ab17a1-2d0e-40b0-816f-8bc157ff8407"},"vehicle_type_id":"4","last_reported":1692453872,"current_range_meters":31200,"station_id":"ce4bgpp2rcd13ifvqc3g","pricing_plan_id":"free"},{"bike_id":"6ce608a7-e10c-41c8-8953-bf1f544a3864","system_id":"levelo_inurba_marseille","lat":43.29848,"lon":5.36284,"is_reserved":false,"is_disabled":false,"rental_uris":{"android":"levelo://app?vid=6ce608a7-e10c-41c8-8953-bf1f544a3864","ios":"levelo://app?vid=6ce608a7-e10c-41c8-8953-bf1f544a3864"},"vehicle_type_id":"4","last_reported":1692453872,"current_range_meters":17600,"station_id":"ce4bgpp2rcd13ifvqc3g","pricing_plan_id":"free"},{"bike_id":"eb01818b-ed01-40eb-b640-18a5e1bd3121","system_id":"levelo_inurba_marseille","lat":43.29845,"lon":5.36274,"is_reserved":false,"is_disabled":false,"rental_uris":{"android":"levelo://app?vid=eb01818b-ed01-40eb-b640-18a5e1bd3121","ios":"levelo://app?vid=eb01818b-ed01-40eb-b640-18a5e1bd3121"},"vehicle_type_id":"4","last_reported":1692453872,"current_range_meters":31600,"station_id":"ce4bgpp2rcd13ifvqc3g","pricing_plan_id":"free"},{"bike_id":"36a0a893-98e4-4939-ab77-57b6c42cb3eb","system_id":"levelo_inurba_marseille","lat":43.30209,"lon":5.38103,"is_reserved":false,"is_disabled":false,"rental_uris":{"android":"levelo://app?vid=36a0a893-98e4-4939-ab77-57b6c42cb3eb","ios":"levelo://app?vid=36a0a893-98e4-4939-ab77-57b6c42cb3eb"},"vehicle_type_id":"4","last_reported":1692453872,"current_range_meters":0,"station_id":"","pricing_plan_id":"free"},{"bike_id":"a374ba5c-ef64-4546-9d35-5dd7eb841b93","system_id":"levelo_inurba_marseille","lat":43.311722,"lon":5.387247,"is_reserved":false,"is_disabled":false,"rental_uris":{"android":"levelo://app?vid=a374ba5c-ef64-4546-9d35-5dd7eb841b93","ios":"levelo://app?vid=a374ba5c-ef64-4546-9d35-5dd7eb841b93"},"vehicle_type_id":"4","last_reported":1692453872,"current_range_meters":1200,"station_id":"ce4bgv12rcd13ifvqcp0","pricing_plan_id":"free"},{"bike_id":"227a4112-b247-420b-86c9-18c2a8cf2acf","system_id":"levelo_inurba_marseille","lat":43.311722,"lon":5.387247,"is_reserved":false,"is_disabled":false,"rental_uris":{"android":"levelo://app?vid=227a4112-b247-420b-86c9-18c2a8cf2acf","ios":"levelo://app?vid=227a4112-b247-420b-86c9-18c2a8cf2acf"},"vehicle_type_id":"4","last_reported":1692453872,"current_range_meters":25200,"station_id":"ce4bgv12rcd13ifvqcp0","pricing_plan_id":"free"},{"bike_id":"b9784bc4-a1f4-4e7b-a996-3746dcc4c656","system_id":"levelo_inurba_marseille","lat":43.32289,"lon":5.38271,"is_reserved":false,"is_disabled":false,"rental_uris":{"android":"levelo://app?vid=b9784bc4-a1f4-4e7b-a996-3746dcc4c656","ios":"levelo://app?vid=b9784bc4-a1f4-4e7b-a996-3746dcc4c656"},"vehicle_type_id":"4","last_reported":1692453872,"current_range_meters":10400,"station_id":"ce4bhr12rcd13ifvqhqg","pricing_plan_id":"free"},{"bike_id":"673200d6-9c00-4797-bd65-06254571f6fe","system_id":"levelo_inurba_marseille","lat":43.32294,"lon":5.38265,"is_reserved":false,"is_disabled":false,"rental_uris":{"android":"levelo://app?vid=673200d6-9c00-4797-bd65-06254571f6fe","ios":"levelo://app?vid=673200d6-9c00-4797-bd65-06254571f6fe"},"vehicle_type_id":"4","last_reported":1692453872,"current_range_meters":23600,"station_id":"ce4bhr12rcd13ifvqhqg","pricing_plan_id":"free"},{"bike_id":"a1f7b084-f437-4e0c-8b20-334f54c48d59","system_id":"levelo_inurba_marseille","lat":43.3229,"lon":5.3827,"is_reserved":false,"is_disabled":false,"rental_uris":{"android":"levelo://app?vid=a1f7b084-f437-4e0c-8b20-334f54c48d59","ios":"levelo://app?vid=a1f7b084-f437-4e0c-8b20-334f54c48d59"},"vehicle_type_id":"4","last_reported":1692453872,"current_range_meters":19200,"station_id":"ce4bhr12rcd13ifvqhqg","pricing_plan_id":"free"},{"bike_id":"5b5c8cae-b425-4976-9ba8-5ae205664d6b","system_id":"levelo_inurba_marseille","lat":43.32291,"lon":5.38269,"is_reserved":false,"is_disabled":false,"rental_uris":{"android":"levelo://app?vid=5b5c8cae-b425-4976-9ba8-5ae205664d6b","ios":"levelo://app?vid=5b5c8cae-b425-4976-9ba8-5ae205664d6b"},"vehicle_type_id":"4","last_reported":1692453872,"current_range_meters":19200,"station_id":"ce4bhr12rcd13ifvqhqg","pricing_plan_id":"free"},{"bike_id":"5f91fc7d-0833-4a7c-a0d8-21ec0ad5455a","system_id":"levelo_inurba_marseille","lat":43.32293,"lon":5.38267,"is_reserved":false,"is_disabled":false,"rental_uris":{"android":"levelo://app?vid=5f91fc7d-0833-4a7c-a0d8-21ec0ad5455a","ios":"levelo://app?vid=5f91fc7d-0833-4a7c-a0d8-21ec0ad5455a"},"vehicle_type_id":"4","last_reported":1692453872,"current_range_meters":21200,"station_id":"ce4bhr12rcd13ifvqhqg","pricing_plan_id":"free"},{"bike_id":"20066552-063e-4d3e-9e10-e0e8a6d2c838","system_id":"levelo_inurba_marseille","lat":43.32291,"lon":5.3827,"is_reserved":false,"is_disabled":false,"rental_uris":{"android":"levelo://app?vid=20066552-063e-4d3e-9e10-e0e8a6d2c838","ios":"levelo://app?vid=20066552-063e-4d3e-9e10-e0e8a6d2c838"},"vehicle_type_id":"4","last_reported":1692453872,"current_range_meters":30400,"station_id":"ce4bhr12rcd13ifvqhqg","pricing_plan_id":"free"},{"bike_id":"1b980555-d968-4010-9e58-8aaa96e9eae0","system_id":"levelo_inurba_marseille","lat":43.32289,"lon":5.38274,"is_reserved":false,"is_disabled":false,"rental_uris":{"android":"levelo://app?vid=1b980555-d968-4010-9e58-8aaa96e9eae0","ios":"levelo://app?vid=1b980555-d968-4010-9e58-8aaa96e9eae0"},"vehicle_type_id":"4","last_reported":1692453872,"current_range_meters":31200,"station_id":"ce4bhr12rcd13ifvqhqg","pricing_plan_id":"free"},{"bike_id":"648dadf8-ff22-438c-bfb7-5c83267bdf3f","system_id":"levelo_inurba_marseille","lat":43.32293,"lon":5.38273,"is_reserved":false,"is_disabled":false,"rental_uris":{"android":"levelo://app?vid=648dadf8-ff22-438c-bfb7-5c83267bdf3f","ios":"levelo://app?vid=648dadf8-ff22-438c-bfb7-5c83267bdf3f"},"vehicle_type_id":"4","last_reported":1692453872,"current_range_meters":31200,"station_id":"ce4bhr12rcd13ifvqhqg","pricing_plan_id":"free"},{"bike_id":"418f40db-23bc-4b66-8945-04cfb5eeb137","system_id":"levelo_inurba_marseille","lat":43.328371,"lon":5.366909,"is_reserved":false,"is_disabled":false,"rental_uris":{"android":"levelo://app?vid=418f40db-23bc-4b66-8945-04cfb5eeb137","ios":"levelo://app?vid=418f40db-23bc-4b66-8945-04cfb5eeb137"},"vehicle_type_id":"4","last_reported":1692453872,"current_range_meters":31200,"station_id":"ce4bhs92rcd13ifvqi0g","pricing_plan_id":"free"},{"bike_id":"e3a21d07-f446-4608-85be-12a81574bffc","system_id":"levelo_inurba_marseille","lat":43.32832,"lon":5.36674,"is_reserved":false,"is_disabled":false,"rental_uris":{"android":"levelo://app?vid=e3a21d07-f446-4608-85be-12a81574bffc","ios":"levelo://app?vid=e3a21d07-f446-4608-85be-12a81574bffc"},"vehicle_type_id":"4","last_reported":1692453872,"current_range_meters":16800,"station_id":"ce4bhs92rcd13ifvqi0g","pricing_plan_id":"free"},{"bike_id":"2ddd90e7-349a-4b85-8df6-298a58c64c73","system_id":"levelo_inurba_marseille","lat":43.328371,"lon":5.366909,"is_reserved":false,"is_disabled":false,"rental_uris":{"android":"levelo://app?vid=2ddd90e7-349a-4b85-8df6-298a58c64c73","ios":"levelo://app?vid=2ddd90e7-349a-4b85-8df6-298a58c64c73"},"vehicle_type_id":"4","last_reported":1692453872,"current_range_meters":2800,"station_id":"ce4bhs92rcd13ifvqi0g","pricing_plan_id":"free"},{"bike_id":"dd789220-e7b5-42c1-b9dc-dc4243148021","system_id":"levelo_inurba_marseille","lat":43.297163,"lon":5.365866,"is_reserved":false,"is_disabled":false,"rental_uris":{"android":"levelo://app?vid=dd789220-e7b5-42c1-b9dc-dc4243148021","ios":"levelo://app?vid=dd789220-e7b5-42c1-b9dc-dc4243148021"},"vehicle_type_id":"4","last_reported":1692453872,"current_range_meters":31200,"station_id":"ce4bgn12rcd13ifvqbt0","pricing_plan_id":"free"},{"bike_id":"bb155e93-116e-494a-9911-2df351c7dae8","system_id":"levelo_inurba_marseille","lat":43.296131,"lon":5.370791,"is_reserved":false,"is_disabled":false,"rental_uris":{"android":"levelo://app?vid=bb155e93-116e-494a-9911-2df351c7dae8","ios":"levelo://app?vid=bb155e93-116e-494a-9911-2df351c7dae8"},"vehicle_type_id":"4","last_reported":1692453872,"current_range_meters":29600,"station_id":"ce4bgnh2rcd13ifvqc0g","pricing_plan_id":"free"},{"bike_id":"d3139180-8ba9-4c91-b6e4-8baae3c22113","system_id":"levelo_inurba_marseille","lat":43.296131,"lon":5.370773,"is_reserved":false,"is_disabled":false,"rental_uris":{"android":"levelo://app?vid=d3139180-8ba9-4c91-b6e4-8baae3c22113","ios":"levelo://app?vid=d3139180-8ba9-4c91-b6e4-8baae3c22113"},"vehicle_type_id":"4","last_reported":1692453872,"current_range_meters":31200,"station_id":"ce4bgnh2rcd13ifvqc0g","pricing_plan_id":"free"},{"bike_id":"9627a390-3619-4e5f-a9d9-a435fdfe5d35","system_id":"levelo_inurba_marseille","lat":43.299028,"lon":5.381509,"is_reserved":false,"is_disabled":false,"rental_uris":{"android":"levelo://app?vid=9627a390-3619-4e5f-a9d9-a435fdfe5d35","ios":"levelo://app?vid=9627a390-3619-4e5f-a9d9-a435fdfe5d35"},"vehicle_type_id":"4","last_reported":1692453872,"current_range_meters":27600,"station_id":"ce4bgj12rcd13ifvqbc0","pricing_plan_id":"free"},{"bike_id":"9cc0679f-9cae-4638-8bc7-e5febe64c83c","system_id":"levelo_inurba_marseille","lat":43.3096,"lon":5.39021,"is_reserved":false,"is_disabled":false,"rental_uris":{"android":"levelo://app?vid=9cc0679f-9cae-4638-8bc7-e5febe64c83c","ios":"levelo://app?vid=9cc0679f-9cae-4638-8bc7-e5febe64c83c"},"vehicle_type_id":"4","last_reported":1692453872,"current_range_meters":22800,"station_id":"ce4bgup2rcd13ifvqco0","pricing_plan_id":"free"},{"bike_id":"af4f4e98-97aa-4e61-b5bb-86a144523b46","system_id":"levelo_inurba_marseille","lat":43.30947,"lon":5.39037,"is_reserved":false,"is_disabled":false,"rental_uris":{"android":"levelo://app?vid=af4f4e98-97aa-4e61-b5bb-86a144523b46","ios":"levelo://app?vid=af4f4e98-97aa-4e61-b5bb-86a144523b46"},"vehicle_type_id":"4","last_reported":1692453872,"current_range_meters":10400,"station_id":"ce4bgup2rcd13ifvqco0","pricing_plan_id":"free"},{"bike_id":"c8b1efba-19c0-4329-962b-8d2f420fd3f5","system_id":"levelo_inurba_marseille","lat":43.317557,"lon":5.390173,"is_reserved":false,"is_disabled":false,"rental_uris":{"android":"levelo://app?vid=c8b1efba-19c0-4329-962b-8d2f420fd3f5","ios":"levelo://app?vid=c8b1efba-19c0-4329-962b-8d2f420fd3f5"},"vehicle_type_id":"4","last_reported":1692453872,"current_range_meters":2400,"station_id":"ce4bhqp2rcd13ifvqhng","pricing_plan_id":"free"},{"bike_id":"88644978-c618-4073-a990-704475a91049","system_id":"levelo_inurba_marseille","lat":43.29796,"lon":5.38097,"is_reserved":false,"is_disabled":false,"rental_uris":{"android":"levelo://app?vid=88644978-c618-4073-a990-704475a91049","ios":"levelo://app?vid=88644978-c618-4073-a990-704475a91049"},"vehicle_type_id":"4","last_reported":1692453872,"current_range_meters":23200,"station_id":"ce4bgip2rcd13ifvqbb0","pricing_plan_id":"free"},{"bike_id":"a4df99ce-0488-49dd-a888-94686f562e88","system_id":"levelo_inurba_marseille","lat":43.295748,"lon":5.37522,"is_reserved":false,"is_disabled":false,"rental_uris":{"android":"levelo://app?vid=a4df99ce-0488-49dd-a888-94686f562e88","ios":"levelo://app?vid=a4df99ce-0488-49dd-a888-94686f562e88"},"vehicle_type_id":"4","last_reported":1692453872,"current_range_meters":28400,"station_id":"ce4bgh92rcd13ifvqb50","pricing_plan_id":"free"},{"bike_id":"e3fd5a27-ff62-4139-adc7-c36f441c29bc","system_id":"levelo_inurba_marseille","lat":43.296277,"lon":5.377108,"is_reserved":false,"is_disabled":false,"rental_uris":{"android":"levelo://app?vid=e3fd5a27-ff62-4139-adc7-c36f441c29bc","ios":"levelo://app?vid=e3fd5a27-ff62-4139-adc7-c36f441c29bc"},"vehicle_type_id":"4","last_reported":1692453872,"current_range_meters":11200,"station_id":"ce4bgi92rcd13ifvqb90","pricing_plan_id":"free"},{"bike_id":"7fc9d97c-15b8-4661-9b43-f4dd4fa23c88","system_id":"levelo_inurba_marseille","lat":43.304382,"lon":5.388961,"is_reserved":false,"is_disabled":false,"rental_uris":{"android":"levelo://app?vid=7fc9d97c-15b8-4661-9b43-f4dd4fa23c88","ios":"levelo://app?vid=7fc9d97c-15b8-4661-9b43-f4dd4fa23c88"},"vehicle_type_id":"4","last_reported":1692453872,"current_range_meters":22400,"station_id":"ce4bgk12rcd13ifvqbi0","pricing_plan_id":"free"},{"bike_id":"f4761d7e-0507-4a60-a952-bf238ca0bc1b","system_id":"levelo_inurba_marseille","lat":43.304274,"lon":5.388873,"is_reserved":false,"is_disabled":false,"rental_uris":{"android":"levelo://app?vid=f4761d7e-0507-4a60-a952-bf238ca0bc1b","ios":"levelo://app?vid=f4761d7e-0507-4a60-a952-bf238ca0bc1b"},"vehicle_type_id":"4","last_reported":1692453872,"current_range_meters":24000,"station_id":"ce4bgk12rcd13ifvqbi0","pricing_plan_id":"free"},{"bike_id":"afdcde34-005b-4288-ab34-2299d8778e53","system_id":"levelo_inurba_marseille","lat":43.295279,"lon":5.375048,"is_reserved":false,"is_disabled":false,"rental_uris":{"android":"levelo://app?vid=afdcde34-005b-4288-ab34-2299d8778e53","ios":"levelo://app?vid=afdcde34-005b-4288-ab34-2299d8778e53"},"vehicle_type_id":"4","last_reported":1692453872,"current_range_meters":25600,"station_id":"ce4bgkp2rcd13ifvqbmg","pricing_plan_id":"free"},{"bike_id":"fac083ac-05e8-4825-b3e7-d59a3c1a16d9","system_id":"levelo_inurba_marseille","lat":43.284217,"lon":5.349697,"is_reserved":false,"is_disabled":false,"rental_uris":{"android":"levelo://app?vid=fac083ac-05e8-4825-b3e7-d59a3c1a16d9","ios":"levelo://app?vid=fac083ac-05e8-4825-b3e7-d59a3c1a16d9"},"vehicle_type_id":"4","last_reported":1692453872,"current_range_meters":25600,"station_id":"ce4bhbh2rcd13ifvqepg","pricing_plan_id":"free"},{"bike_id":"21fcea45-e491-4a85-bcbf-bf5cd0b62ccf","system_id":"levelo_inurba_marseille","lat":43.32366,"lon":5.38879,"is_reserved":false,"is_disabled":false,"rental_uris":{"android":"levelo://app?vid=21fcea45-e491-4a85-bcbf-bf5cd0b62ccf","ios":"levelo://app?vid=21fcea45-e491-4a85-bcbf-bf5cd0b62ccf"},"vehicle_type_id":"4","last_reported":1692453872,"current_range_meters":31200,"station_id":"ce4bhqp2rcd13ifvqhog","pricing_plan_id":"free"},{"bike_id":"207f2f90-5396-4fe6-bd95-d438ab16c0b7","system_id":"levelo_inurba_marseille","lat":43.32364,"lon":5.38882,"is_reserved":false,"is_disabled":false,"rental_uris":{"android":"levelo://app?vid=207f2f90-5396-4fe6-bd95-d438ab16c0b7","ios":"levelo://app?vid=207f2f90-5396-4fe6-bd95-d438ab16c0b7"},"vehicle_type_id":"4","last_reported":1692453872,"current_range_meters":30000,"station_id":"ce4bhqp2rcd13ifvqhog","pricing_plan_id":"free"},{"bike_id":"55f08f4d-333e-4077-9882-16e72e12ddbf","system_id":"levelo_inurba_marseille","lat":43.32367,"lon":5.388836,"is_reserved":false,"is_disabled":false,"rental_uris":{"android":"levelo://app?vid=55f08f4d-333e-4077-9882-16e72e12ddbf","ios":"levelo://app?vid=55f08f4d-333e-4077-9882-16e72e12ddbf"},"vehicle_type_id":"4","last_reported":1692453872,"current_range_meters":28000,"station_id":"ce4bhqp2rcd13ifvqhog","pricing_plan_id":"free"},{"bike_id":"a97f77a2-1520-4bfc-9df0-0f9c62851caa","system_id":"levelo_inurba_marseille","lat":43.32358,"lon":5.38891,"is_reserved":false,"is_disabled":false,"rental_uris":{"android":"levelo://app?vid=a97f77a2-1520-4bfc-9df0-0f9c62851caa","ios":"levelo://app?vid=a97f77a2-1520-4bfc-9df0-0f9c62851caa"},"vehicle_type_id":"4","last_reported":1692453872,"current_range_meters":28400,"station_id":"ce4bhqp2rcd13ifvqhog","pricing_plan_id":"free"},{"bike_id":"03f2098f-b50c-4ca4-a765-8806d474ecf2","system_id":"levelo_inurba_marseille","lat":43.32367,"lon":5.388836,"is_reserved":false,"is_disabled":false,"rental_uris":{"android":"levelo://app?vid=03f2098f-b50c-4ca4-a765-8806d474ecf2","ios":"levelo://app?vid=03f2098f-b50c-4ca4-a765-8806d474ecf2"},"vehicle_type_id":"4","last_reported":1692453872,"current_range_meters":9200,"station_id":"ce4bhqp2rcd13ifvqhog","pricing_plan_id":"free"},{"bike_id":"3ca3f621-3ed1-46b4-b4f6-37a71d187fa3","system_id":"levelo_inurba_marseille","lat":43.32365,"lon":5.38887,"is_reserved":false,"is_disabled":false,"rental_uris":{"android":"levelo://app?vid=3ca3f621-3ed1-46b4-b4f6-37a71d187fa3","ios":"levelo://app?vid=3ca3f621-3ed1-46b4-b4f6-37a71d187fa3"},"vehicle_type_id":"4","last_reported":1692453872,"current_range_meters":26800,"station_id":"ce4bhqp2rcd13ifvqhog","pricing_plan_id":"free"},{"bike_id":"d49c7be8-2f16-4455-8835-7143b891d27c","system_id":"levelo_inurba_marseille","lat":43.32364,"lon":5.38888,"is_reserved":false,"is_disabled":false,"rental_uris":{"android":"levelo://app?vid=d49c7be8-2f16-4455-8835-7143b891d27c","ios":"levelo://app?vid=d49c7be8-2f16-4455-8835-7143b891d27c"},"vehicle_type_id":"4","last_reported":1692453872,"current_range_meters":26800,"station_id":"ce4bhqp2rcd13ifvqhog","pricing_plan_id":"free"},{"bike_id":"6b6cba89-d2b8-44bb-8454-5df08cf65f67","system_id":"levelo_inurba_marseille","lat":43.32367,"lon":5.38886,"is_reserved":false,"is_disabled":false,"rental_uris":{"android":"levelo://app?vid=6b6cba89-d2b8-44bb-8454-5df08cf65f67","ios":"levelo://app?vid=6b6cba89-d2b8-44bb-8454-5df08cf65f67"},"vehicle_type_id":"4","last_reported":1692453872,"current_range_meters":13200,"station_id":"ce4bhqp2rcd13ifvqhog","pricing_plan_id":"free"},{"bike_id":"0126f869-77bb-4690-a14f-53e2dd9d4689","system_id":"levelo_inurba_marseille","lat":43.32368,"lon":5.38894,"is_reserved":false,"is_disabled":false,"rental_uris":{"android":"levelo://app?vid=0126f869-77bb-4690-a14f-53e2dd9d4689","ios":"levelo://app?vid=0126f869-77bb-4690-a14f-53e2dd9d4689"},"vehicle_type_id":"4","last_reported":1692453872,"current_range_meters":26000,"station_id":"ce4bhqp2rcd13ifvqhog","pricing_plan_id":"free"},{"bike_id":"8c69aaf1-1640-4ac5-bd24-eca015b39f19","system_id":"levelo_inurba_marseille","lat":43.30601,"lon":5.3935,"is_reserved":false,"is_disabled":false,"rental_uris":{"android":"levelo://app?vid=8c69aaf1-1640-4ac5-bd24-eca015b39f19","ios":"levelo://app?vid=8c69aaf1-1640-4ac5-bd24-eca015b39f19"},"vehicle_type_id":"4","last_reported":1692453872,"current_range_meters":31200,"station_id":"ce4bh0p2rcd13ifvqd80","pricing_plan_id":"free"},{"bike_id":"38fef587-7cc5-4800-b069-87b8f296a10a","system_id":"levelo_inurba_marseille","lat":43.293009,"lon":5.374584,"is_reserved":false,"is_disabled":false,"rental_uris":{"android":"levelo://app?vid=38fef587-7cc5-4800-b069-87b8f296a10a","ios":"levelo://app?vid=38fef587-7cc5-4800-b069-87b8f296a10a"},"vehicle_type_id":"4","last_reported":1692453872,"current_range_meters":31200,"station_id":"ce4bgi12rcd13ifvqb70","pricing_plan_id":"free"},{"bike_id":"41aab203-6e0a-4e9a-8bfd-8826f512456e","system_id":"levelo_inurba_marseille","lat":43.30307,"lon":5.39202,"is_reserved":false,"is_disabled":false,"rental_uris":{"android":"levelo://app?vid=41aab203-6e0a-4e9a-8bfd-8826f512456e","ios":"levelo://app?vid=41aab203-6e0a-4e9a-8bfd-8826f512456e"},"vehicle_type_id":"4","last_reported":1692453872,"current_range_meters":22800,"station_id":"ce4bgkh2rcd13ifvqbk0","pricing_plan_id":"free"},{"bike_id":"e8669c99-0631-4645-b5d8-795b249abd2b","system_id":"levelo_inurba_marseille","lat":43.291671,"lon":5.371575,"is_reserved":false,"is_disabled":false,"rental_uris":{"android":"levelo://app?vid=e8669c99-0631-4645-b5d8-795b249abd2b","ios":"levelo://app?vid=e8669c99-0631-4645-b5d8-795b249abd2b"},"vehicle_type_id":"4","last_reported":1692453872,"current_range_meters":0,"station_id":"ce4bha92rcd13ifvqeh0","pricing_plan_id":"free"},{"bike_id":"751dbb80-361b-4ee5-a7f3-235f7fae6f5b","system_id":"levelo_inurba_marseille","lat":43.313338,"lon":5.396996,"is_reserved":false,"is_disabled":false,"rental_uris":{"android":"levelo://app?vid=751dbb80-361b-4ee5-a7f3-235f7fae6f5b","ios":"levelo://app?vid=751dbb80-361b-4ee5-a7f3-235f7fae6f5b"},"vehicle_type_id":"4","last_reported":1692453872,"current_range_meters":20800,"station_id":"ce4bgvp2rcd13ifvqcu0","pricing_plan_id":"free"},{"bike_id":"c9679dc2-2332-4481-8988-585942e8e552","system_id":"levelo_inurba_marseille","lat":43.290779,"lon":5.371482,"is_reserved":false,"is_disabled":false,"rental_uris":{"android":"levelo://app?vid=c9679dc2-2332-4481-8988-585942e8e552","ios":"levelo://app?vid=c9679dc2-2332-4481-8988-585942e8e552"},"vehicle_type_id":"4","last_reported":1692453872,"current_range_meters":30400,"station_id":"ce4bh5p2rcd13ifvqe4g","pricing_plan_id":"free"},{"bike_id":"3cd295bb-1b7f-4992-8dc1-497b83dfe99d","system_id":"levelo_inurba_marseille","lat":43.302008,"lon":5.394694,"is_reserved":false,"is_disabled":false,"rental_uris":{"android":"levelo://app?vid=3cd295bb-1b7f-4992-8dc1-497b83dfe99d","ios":"levelo://app?vid=3cd295bb-1b7f-4992-8dc1-497b83dfe99d"},"vehicle_type_id":"4","last_reported":1692453872,"current_range_meters":8800,"station_id":"ce4bh0p2rcd13ifvqd70","pricing_plan_id":"free"},{"bike_id":"550bc929-9370-4e4c-a2b9-101141cbdaa8","system_id":"levelo_inurba_marseille","lat":43.302008,"lon":5.394694,"is_reserved":false,"is_disabled":false,"rental_uris":{"android":"levelo://app?vid=550bc929-9370-4e4c-a2b9-101141cbdaa8","ios":"levelo://app?vid=550bc929-9370-4e4c-a2b9-101141cbdaa8"},"vehicle_type_id":"4","last_reported":1692453872,"current_range_meters":3600,"station_id":"ce4bh0p2rcd13ifvqd70","pricing_plan_id":"free"},{"bike_id":"b7067801-812f-44f1-a490-ceee49fa8d26","system_id":"levelo_inurba_marseille","lat":43.302008,"lon":5.394694,"is_reserved":false,"is_disabled":false,"rental_uris":{"android":"levelo://app?vid=b7067801-812f-44f1-a490-ceee49fa8d26","ios":"levelo://app?vid=b7067801-812f-44f1-a490-ceee49fa8d26"},"vehicle_type_id":"4","last_reported":1692453872,"current_range_meters":25600,"station_id":"ce4bh0p2rcd13ifvqd70","pricing_plan_id":"free"},{"bike_id":"6fcb4f75-73de-4752-b3ec-e4b578d6a810","system_id":"levelo_inurba_marseille","lat":43.289184,"lon":5.366408,"is_reserved":false,"is_disabled":false,"rental_uris":{"android":"levelo://app?vid=6fcb4f75-73de-4752-b3ec-e4b578d6a810","ios":"levelo://app?vid=6fcb4f75-73de-4752-b3ec-e4b578d6a810"},"vehicle_type_id":"4","last_reported":1692453872,"current_range_meters":5600,"station_id":"ce4bhap2rcd13ifvqek0","pricing_plan_id":"free"},{"bike_id":"769bc05c-7132-49f1-9238-728989396a2f","system_id":"levelo_inurba_marseille","lat":43.289468,"lon":5.363719,"is_reserved":false,"is_disabled":false,"rental_uris":{"android":"levelo://app?vid=769bc05c-7132-49f1-9238-728989396a2f","ios":"levelo://app?vid=769bc05c-7132-49f1-9238-728989396a2f"},"vehicle_type_id":"4","last_reported":1692453872,"current_range_meters":28800,"station_id":"ce4bhc92rcd13ifvqetg","pricing_plan_id":"free"},{"bike_id":"708f7f21-b221-4c14-94b6-b5d8e3289350","system_id":"levelo_inurba_marseille","lat":43.33047,"lon":5.38907,"is_reserved":false,"is_disabled":false,"rental_uris":{"android":"levelo://app?vid=708f7f21-b221-4c14-94b6-b5d8e3289350","ios":"levelo://app?vid=708f7f21-b221-4c14-94b6-b5d8e3289350"},"vehicle_type_id":"4","last_reported":1692453872,"current_range_meters":22800,"station_id":"ce4bhr92rcd13ifvqhrg","pricing_plan_id":"free"},{"bike_id":"8cec0a5e-a013-4bb5-bdd5-903ebe627f90","system_id":"levelo_inurba_marseille","lat":43.33045,"lon":5.38911,"is_reserved":false,"is_disabled":false,"rental_uris":{"android":"levelo://app?vid=8cec0a5e-a013-4bb5-bdd5-903ebe627f90","ios":"levelo://app?vid=8cec0a5e-a013-4bb5-bdd5-903ebe627f90"},"vehicle_type_id":"4","last_reported":1692453872,"current_range_meters":30000,"station_id":"ce4bhr92rcd13ifvqhrg","pricing_plan_id":"free"},{"bike_id":"e229ac2f-a21d-4dbf-b9bc-ce789ac22cbd","system_id":"levelo_inurba_marseille","lat":43.33045,"lon":5.38911,"is_reserved":false,"is_disabled":false,"rental_uris":{"android":"levelo://app?vid=e229ac2f-a21d-4dbf-b9bc-ce789ac22cbd","ios":"levelo://app?vid=e229ac2f-a21d-4dbf-b9bc-ce789ac22cbd"},"vehicle_type_id":"4","last_reported":1692453872,"current_range_meters":26800,"station_id":"ce4bhr92rcd13ifvqhrg","pricing_plan_id":"free"},{"bike_id":"7d19a255-9f7a-4d0e-beba-2bfebb3c7b5e","system_id":"levelo_inurba_marseille","lat":43.33043,"lon":5.38915,"is_reserved":false,"is_disabled":false,"rental_uris":{"android":"levelo://app?vid=7d19a255-9f7a-4d0e-beba-2bfebb3c7b5e","ios":"levelo://app?vid=7d19a255-9f7a-4d0e-beba-2bfebb3c7b5e"},"vehicle_type_id":"4","last_reported":1692453872,"current_range_meters":24400,"station_id":"ce4bhr92rcd13ifvqhrg","pricing_plan_id":"free"},{"bike_id":"932f3bab-515f-4791-9ce8-f1a24041f1ab","system_id":"levelo_inurba_marseille","lat":43.33041,"lon":5.38919,"is_reserved":false,"is_disabled":false,"rental_uris":{"android":"levelo://app?vid=932f3bab-515f-4791-9ce8-f1a24041f1ab","ios":"levelo://app?vid=932f3bab-515f-4791-9ce8-f1a24041f1ab"},"vehicle_type_id":"4","last_reported":1692453872,"current_range_meters":31200,"station_id":"ce4bhr92rcd13ifvqhrg","pricing_plan_id":"free"},{"bike_id":"4da18c6f-b0f5-43ff-8abf-bb0d0d54a446","system_id":"levelo_inurba_marseille","lat":43.33041,"lon":5.38919,"is_reserved":false,"is_disabled":false,"rental_uris":{"android":"levelo://app?vid=4da18c6f-b0f5-43ff-8abf-bb0d0d54a446","ios":"levelo://app?vid=4da18c6f-b0f5-43ff-8abf-bb0d0d54a446"},"vehicle_type_id":"4","last_reported":1692453872,"current_range_meters":31200,"station_id":"ce4bhr92rcd13ifvqhrg","pricing_plan_id":"free"},{"bike_id":"86eac789-1e56-496d-abfa-705e29d378c7","system_id":"levelo_inurba_marseille","lat":43.33046,"lon":5.38912,"is_reserved":false,"is_disabled":false,"rental_uris":{"android":"levelo://app?vid=86eac789-1e56-496d-abfa-705e29d378c7","ios":"levelo://app?vid=86eac789-1e56-496d-abfa-705e29d378c7"},"vehicle_type_id":"4","last_reported":1692453872,"current_range_meters":31200,"station_id":"ce4bhr92rcd13ifvqhrg","pricing_plan_id":"free"},{"bike_id":"70576a93-fbdb-4696-908e-c08c0f1995f8","system_id":"levelo_inurba_marseille","lat":43.33047,"lon":5.38912,"is_reserved":false,"is_disabled":false,"rental_uris":{"android":"levelo://app?vid=70576a93-fbdb-4696-908e-c08c0f1995f8","ios":"levelo://app?vid=70576a93-fbdb-4696-908e-c08c0f1995f8"},"vehicle_type_id":"4","last_reported":1692453872,"current_range_meters":28400,"station_id":"ce4bhr92rcd13ifvqhrg","pricing_plan_id":"free"},{"bike_id":"151dae30-0eb1-4e79-adc8-1c56285035b9","system_id":"levelo_inurba_marseille","lat":43.33045,"lon":5.38918,"is_reserved":false,"is_disabled":false,"rental_uris":{"android":"levelo://app?vid=151dae30-0eb1-4e79-adc8-1c56285035b9","ios":"levelo://app?vid=151dae30-0eb1-4e79-adc8-1c56285035b9"},"vehicle_type_id":"4","last_reported":1692453872,"current_range_meters":19600,"station_id":"ce4bhr92rcd13ifvqhrg","pricing_plan_id":"free"},{"bike_id":"b2277181-7878-4194-aebd-a2a3903700da","system_id":"levelo_inurba_marseille","lat":43.33046,"lon":5.38918,"is_reserved":false,"is_disabled":false,"rental_uris":{"android":"levelo://app?vid=b2277181-7878-4194-aebd-a2a3903700da","ios":"levelo://app?vid=b2277181-7878-4194-aebd-a2a3903700da"},"vehicle_type_id":"4","last_reported":1692453872,"current_range_meters":5600,"station_id":"ce4bhr92rcd13ifvqhrg","pricing_plan_id":"free"},{"bike_id":"425650fd-ae8d-4ac7-b7fc-c895fd9fa081","system_id":"levelo_inurba_marseille","lat":43.290104,"lon":5.356111,"is_reserved":false,"is_disabled":false,"rental_uris":{"android":"levelo://app?vid=425650fd-ae8d-4ac7-b7fc-c895fd9fa081","ios":"levelo://app?vid=425650fd-ae8d-4ac7-b7fc-c895fd9fa081"},"vehicle_type_id":"4","last_reported":1692453872,"current_range_meters":0,"station_id":"ce4bhb92rcd13ifvqen0","pricing_plan_id":"free"},{"bike_id":"5036c72a-6252-47f4-a9fb-50fd514d506a","system_id":"levelo_inurba_marseille","lat":43.33046,"lon":5.38919,"is_reserved":false,"is_disabled":false,"rental_uris":{"android":"levelo://app?vid=5036c72a-6252-47f4-a9fb-50fd514d506a","ios":"levelo://app?vid=5036c72a-6252-47f4-a9fb-50fd514d506a"},"vehicle_type_id":"4","last_reported":1692453872,"current_range_meters":24400,"station_id":"ce4bhr92rcd13ifvqhrg","pricing_plan_id":"free"},{"bike_id":"c2b69bac-bda9-4261-b39a-8c335d43eeb9","system_id":"levelo_inurba_marseille","lat":43.33049,"lon":5.38919,"is_reserved":false,"is_disabled":false,"rental_uris":{"android":"levelo://app?vid=c2b69bac-bda9-4261-b39a-8c335d43eeb9","ios":"levelo://app?vid=c2b69bac-bda9-4261-b39a-8c335d43eeb9"},"vehicle_type_id":"4","last_reported":1692453872,"current_range_meters":31200,"station_id":"ce4bhr92rcd13ifvqhrg","pricing_plan_id":"free"},{"bike_id":"9104af36-a269-4547-ba59-7600b379c29c","system_id":"levelo_inurba_marseille","lat":43.290103,"lon":5.356114,"is_reserved":false,"is_disabled":false,"rental_uris":{"android":"levelo://app?vid=9104af36-a269-4547-ba59-7600b379c29c","ios":"levelo://app?vid=9104af36-a269-4547-ba59-7600b379c29c"},"vehicle_type_id":"4","last_reported":1692453872,"current_range_meters":9600,"station_id":"ce4bhb92rcd13ifvqen0","pricing_plan_id":"free"},{"bike_id":"de450cac-4370-4660-9455-3e94463307a2","system_id":"levelo_inurba_marseille","lat":43.33047,"lon":5.38923,"is_reserved":false,"is_disabled":false,"rental_uris":{"android":"levelo://app?vid=de450cac-4370-4660-9455-3e94463307a2","ios":"levelo://app?vid=de450cac-4370-4660-9455-3e94463307a2"},"vehicle_type_id":"4","last_reported":1692453872,"current_range_meters":19600,"station_id":"ce4bhr92rcd13ifvqhrg","pricing_plan_id":"free"},{"bike_id":"78f1a325-e5b4-4a72-bb0e-b29d3285ba24","system_id":"levelo_inurba_marseille","lat":43.290104,"lon":5.356111,"is_reserved":false,"is_disabled":false,"rental_uris":{"android":"levelo://app?vid=78f1a325-e5b4-4a72-bb0e-b29d3285ba24","ios":"levelo://app?vid=78f1a325-e5b4-4a72-bb0e-b29d3285ba24"},"vehicle_type_id":"4","last_reported":1692453872,"current_range_meters":31200,"station_id":"ce4bhb92rcd13ifvqen0","pricing_plan_id":"free"},{"bike_id":"16105e4d-cb4a-4aae-91bb-2ecd41a7406b","system_id":"levelo_inurba_marseille","lat":43.33049,"lon":5.38925,"is_reserved":false,"is_disabled":false,"rental_uris":{"android":"levelo://app?vid=16105e4d-cb4a-4aae-91bb-2ecd41a7406b","ios":"levelo://app?vid=16105e4d-cb4a-4aae-91bb-2ecd41a7406b"},"vehicle_type_id":"4","last_reported":1692453872,"current_range_meters":24400,"station_id":"ce4bhr92rcd13ifvqhrg","pricing_plan_id":"free"},{"bike_id":"ebea3e90-b4a3-4a58-9d43-4dfbd0e962f3","system_id":"levelo_inurba_marseille","lat":43.337457,"lon":5.374633,"is_reserved":false,"is_disabled":false,"rental_uris":{"android":"levelo://app?vid=ebea3e90-b4a3-4a58-9d43-4dfbd0e962f3","ios":"levelo://app?vid=ebea3e90-b4a3-4a58-9d43-4dfbd0e962f3"},"vehicle_type_id":"4","last_reported":1692453872,"current_range_meters":31200,"station_id":"","pricing_plan_id":"free"},{"bike_id":"bddf776b-4bfb-4749-becc-d597ed1efad1","system_id":"levelo_inurba_marseille","lat":43.301117,"lon":5.398795,"is_reserved":false,"is_disabled":false,"rental_uris":{"android":"levelo://app?vid=bddf776b-4bfb-4749-becc-d597ed1efad1","ios":"levelo://app?vid=bddf776b-4bfb-4749-becc-d597ed1efad1"},"vehicle_type_id":"4","last_reported":1692453872,"current_range_meters":18800,"station_id":"ce4bh0h2rcd13ifvqd40","pricing_plan_id":"free"},{"bike_id":"55276747-6766-4431-8469-9a84f942bcdb","system_id":"levelo_inurba_marseille","lat":43.30137,"lon":5.39869,"is_reserved":false,"is_disabled":false,"rental_uris":{"android":"levelo://app?vid=55276747-6766-4431-8469-9a84f942bcdb","ios":"levelo://app?vid=55276747-6766-4431-8469-9a84f942bcdb"},"vehicle_type_id":"4","last_reported":1692453872,"current_range_meters":23200,"station_id":"ce4bh0h2rcd13ifvqd40","pricing_plan_id":"free"},{"bike_id":"75199276-b705-4ad7-b6a9-49aeaa84628a","system_id":"levelo_inurba_marseille","lat":43.286591,"lon":5.363346,"is_reserved":false,"is_disabled":false,"rental_uris":{"android":"levelo://app?vid=75199276-b705-4ad7-b6a9-49aeaa84628a","ios":"levelo://app?vid=75199276-b705-4ad7-b6a9-49aeaa84628a"},"vehicle_type_id":"4","last_reported":1692453872,"current_range_meters":30400,"station_id":"ce4bhah2rcd13ifvqej0","pricing_plan_id":"free"},{"bike_id":"18b94c5c-c59b-487c-98cf-c2f994b6080b","system_id":"levelo_inurba_marseille","lat":43.298681,"lon":5.397225,"is_reserved":false,"is_disabled":false,"rental_uris":{"android":"levelo://app?vid=18b94c5c-c59b-487c-98cf-c2f994b6080b","ios":"levelo://app?vid=18b94c5c-c59b-487c-98cf-c2f994b6080b"},"vehicle_type_id":"4","last_reported":1692453872,"current_range_meters":9200,"station_id":"ce4bh0h2rcd13ifvqd50","pricing_plan_id":"free"},{"bike_id":"cb06bc71-6a6c-4f63-93ab-04b2fb27ca57","system_id":"levelo_inurba_marseille","lat":43.3025,"lon":5.40056,"is_reserved":false,"is_disabled":false,"rental_uris":{"android":"levelo://app?vid=cb06bc71-6a6c-4f63-93ab-04b2fb27ca57","ios":"levelo://app?vid=cb06bc71-6a6c-4f63-93ab-04b2fb27ca57"},"vehicle_type_id":"4","last_reported":1692453872,"current_range_meters":24400,"station_id":"","pricing_plan_id":"free"},{"bike_id":"80744802-8aec-47c2-9be2-0cd9b779b3a8","system_id":"levelo_inurba_marseille","lat":43.28605,"lon":5.37064,"is_reserved":false,"is_disabled":false,"rental_uris":{"android":"levelo://app?vid=80744802-8aec-47c2-9be2-0cd9b779b3a8","ios":"levelo://app?vid=80744802-8aec-47c2-9be2-0cd9b779b3a8"},"vehicle_type_id":"4","last_reported":1692453872,"current_range_meters":6800,"station_id":"ce4bht12rcd13ifvqi60","pricing_plan_id":"free"},{"bike_id":"7da9e437-1e79-4b5f-9ab0-65254ac17dd7","system_id":"levelo_inurba_marseille","lat":43.31644,"lon":5.40436,"is_reserved":false,"is_disabled":false,"rental_uris":{"android":"levelo://app?vid=7da9e437-1e79-4b5f-9ab0-65254ac17dd7","ios":"levelo://app?vid=7da9e437-1e79-4b5f-9ab0-65254ac17dd7"},"vehicle_type_id":"4","last_reported":1692453872,"current_range_meters":26000,"station_id":"ce4bh012rcd13ifvqd00","pricing_plan_id":"free"},{"bike_id":"f7bd7668-8e41-4acd-8b56-2fb3ca4fdc97","system_id":"levelo_inurba_marseille","lat":43.316517,"lon":5.404375,"is_reserved":false,"is_disabled":false,"rental_uris":{"android":"levelo://app?vid=f7bd7668-8e41-4acd-8b56-2fb3ca4fdc97","ios":"levelo://app?vid=f7bd7668-8e41-4acd-8b56-2fb3ca4fdc97"},"vehicle_type_id":"4","last_reported":1692453872,"current_range_meters":0,"station_id":"ce4bh012rcd13ifvqd00","pricing_plan_id":"free"},{"bike_id":"941b8dbe-b6b7-44be-a914-589788304515","system_id":"levelo_inurba_marseille","lat":43.291994,"lon":5.392907,"is_reserved":false,"is_disabled":false,"rental_uris":{"android":"levelo://app?vid=941b8dbe-b6b7-44be-a914-589788304515","ios":"levelo://app?vid=941b8dbe-b6b7-44be-a914-589788304515"},"vehicle_type_id":"4","last_reported":1692453872,"current_range_meters":22800,"station_id":"ce4bh192rcd13ifvqdd0","pricing_plan_id":"free"},{"bike_id":"1c7f21f9-c8e8-41f2-94a3-debcaa2688f2","system_id":"levelo_inurba_marseille","lat":43.282754,"lon":5.350519,"is_reserved":false,"is_disabled":false,"rental_uris":{"android":"levelo://app?vid=1c7f21f9-c8e8-41f2-94a3-debcaa2688f2","ios":"levelo://app?vid=1c7f21f9-c8e8-41f2-94a3-debcaa2688f2"},"vehicle_type_id":"4","last_reported":1692453872,"current_range_meters":22400,"station_id":"ce4bhbp2rcd13ifvqerg","pricing_plan_id":"free"},{"bike_id":"fcb8881d-8098-4972-89d5-326331daa63e","system_id":"levelo_inurba_marseille","lat":43.29446,"lon":5.39735,"is_reserved":false,"is_disabled":false,"rental_uris":{"android":"levelo://app?vid=fcb8881d-8098-4972-89d5-326331daa63e","ios":"levelo://app?vid=fcb8881d-8098-4972-89d5-326331daa63e"},"vehicle_type_id":"4","last_reported":1692453872,"current_range_meters":4400,"station_id":"ce4bh3h2rcd13ifvqdo0","pricing_plan_id":"free"},{"bike_id":"e5f79ea9-2c6f-4f04-af24-79d78eca56d6","system_id":"levelo_inurba_marseille","lat":43.284538,"lon":5.358657,"is_reserved":false,"is_disabled":false,"rental_uris":{"android":"levelo://app?vid=e5f79ea9-2c6f-4f04-af24-79d78eca56d6","ios":"levelo://app?vid=e5f79ea9-2c6f-4f04-af24-79d78eca56d6"},"vehicle_type_id":"4","last_reported":1692453872,"current_range_meters":8000,"station_id":"ce4bhah2rcd13ifvqei0","pricing_plan_id":"free"},{"bike_id":"d182ac3a-924e-4785-bb47-0bd8d3114713","system_id":"levelo_inurba_marseille","lat":43.284534,"lon":5.358662,"is_reserved":false,"is_disabled":false,"rental_uris":{"android":"levelo://app?vid=d182ac3a-924e-4785-bb47-0bd8d3114713","ios":"levelo://app?vid=d182ac3a-924e-4785-bb47-0bd8d3114713"},"vehicle_type_id":"4","last_reported":1692453872,"current_range_meters":13600,"station_id":"ce4bhah2rcd13ifvqei0","pricing_plan_id":"free"},{"bike_id":"8d3d4062-ff94-4a56-b3b7-7ce498bc1900","system_id":"levelo_inurba_marseille","lat":43.284534,"lon":5.358662,"is_reserved":false,"is_disabled":false,"rental_uris":{"android":"levelo://app?vid=8d3d4062-ff94-4a56-b3b7-7ce498bc1900","ios":"levelo://app?vid=8d3d4062-ff94-4a56-b3b7-7ce498bc1900"},"vehicle_type_id":"4","last_reported":1692453872,"current_range_meters":21200,"station_id":"ce4bhah2rcd13ifvqei0","pricing_plan_id":"free"},{"bike_id":"60e46556-820c-477b-97f0-eaf2531fd43c","system_id":"levelo_inurba_marseille","lat":43.284538,"lon":5.358657,"is_reserved":false,"is_disabled":false,"rental_uris":{"android":"levelo://app?vid=60e46556-820c-477b-97f0-eaf2531fd43c","ios":"levelo://app?vid=60e46556-820c-477b-97f0-eaf2531fd43c"},"vehicle_type_id":"4","last_reported":1692453872,"current_range_meters":22400,"station_id":"ce4bhah2rcd13ifvqei0","pricing_plan_id":"free"},{"bike_id":"84aa9180-3604-490d-ad3a-0163ae0584ae","system_id":"levelo_inurba_marseille","lat":43.286185,"lon":5.351143,"is_reserved":false,"is_disabled":false,"rental_uris":{"android":"levelo://app?vid=84aa9180-3604-490d-ad3a-0163ae0584ae","ios":"levelo://app?vid=84aa9180-3604-490d-ad3a-0163ae0584ae"},"vehicle_type_id":"4","last_reported":1692453872,"current_range_meters":27600,"station_id":"ce4bhch2rcd13ifvqeug","pricing_plan_id":"free"},{"bike_id":"8405fb76-f9a9-47bd-9e8d-34b03dc00903","system_id":"levelo_inurba_marseille","lat":43.286182,"lon":5.351149,"is_reserved":false,"is_disabled":false,"rental_uris":{"android":"levelo://app?vid=8405fb76-f9a9-47bd-9e8d-34b03dc00903","ios":"levelo://app?vid=8405fb76-f9a9-47bd-9e8d-34b03dc00903"},"vehicle_type_id":"4","last_reported":1692453872,"current_range_meters":26400,"station_id":"ce4bhch2rcd13ifvqeug","pricing_plan_id":"free"},{"bike_id":"398b07dd-cfd7-489e-a155-98081182dba9","system_id":"levelo_inurba_marseille","lat":43.286175,"lon":5.351152,"is_reserved":false,"is_disabled":false,"rental_uris":{"android":"levelo://app?vid=398b07dd-cfd7-489e-a155-98081182dba9","ios":"levelo://app?vid=398b07dd-cfd7-489e-a155-98081182dba9"},"vehicle_type_id":"4","last_reported":1692453872,"current_range_meters":19200,"station_id":"ce4bhch2rcd13ifvqeug","pricing_plan_id":"free"},{"bike_id":"d3755feb-983f-4d79-bfbb-122015778741","system_id":"levelo_inurba_marseille","lat":43.286177,"lon":5.351141,"is_reserved":false,"is_disabled":false,"rental_uris":{"android":"levelo://app?vid=d3755feb-983f-4d79-bfbb-122015778741","ios":"levelo://app?vid=d3755feb-983f-4d79-bfbb-122015778741"},"vehicle_type_id":"4","last_reported":1692453872,"current_range_meters":17200,"station_id":"ce4bhch2rcd13ifvqeug","pricing_plan_id":"free"},{"bike_id":"35eec3a1-aa54-4990-8eb4-78e6c0dd24d0","system_id":"levelo_inurba_marseille","lat":43.286176,"lon":5.35114,"is_reserved":false,"is_disabled":false,"rental_uris":{"android":"levelo://app?vid=35eec3a1-aa54-4990-8eb4-78e6c0dd24d0","ios":"levelo://app?vid=35eec3a1-aa54-4990-8eb4-78e6c0dd24d0"},"vehicle_type_id":"4","last_reported":1692453872,"current_range_meters":10800,"station_id":"ce4bhch2rcd13ifvqeug","pricing_plan_id":"free"},{"bike_id":"ffc32115-b76f-4caa-9941-e5004edcde21","system_id":"levelo_inurba_marseille","lat":43.286162,"lon":5.351135,"is_reserved":false,"is_disabled":false,"rental_uris":{"android":"levelo://app?vid=ffc32115-b76f-4caa-9941-e5004edcde21","ios":"levelo://app?vid=ffc32115-b76f-4caa-9941-e5004edcde21"},"vehicle_type_id":"4","last_reported":1692453872,"current_range_meters":24000,"station_id":"ce4bhch2rcd13ifvqeug","pricing_plan_id":"free"},{"bike_id":"92231068-bff4-42d1-8417-51a89d9171c3","system_id":"levelo_inurba_marseille","lat":43.284538,"lon":5.358657,"is_reserved":false,"is_disabled":false,"rental_uris":{"android":"levelo://app?vid=92231068-bff4-42d1-8417-51a89d9171c3","ios":"levelo://app?vid=92231068-bff4-42d1-8417-51a89d9171c3"},"vehicle_type_id":"4","last_reported":1692453872,"current_range_meters":18400,"station_id":"ce4bhah2rcd13ifvqei0","pricing_plan_id":"free"},{"bike_id":"04ef29ec-5233-4275-adb0-f8bd17ab9921","system_id":"levelo_inurba_marseille","lat":43.28615,"lon":5.35099,"is_reserved":false,"is_disabled":false,"rental_uris":{"android":"levelo://app?vid=04ef29ec-5233-4275-adb0-f8bd17ab9921","ios":"levelo://app?vid=04ef29ec-5233-4275-adb0-f8bd17ab9921"},"vehicle_type_id":"4","last_reported":1692453872,"current_range_meters":30800,"station_id":"ce4bhch2rcd13ifvqeug","pricing_plan_id":"free"},{"bike_id":"6d953ac6-76f9-4bed-acd8-f772867480aa","system_id":"levelo_inurba_marseille","lat":43.295713,"lon":5.399639,"is_reserved":false,"is_disabled":false,"rental_uris":{"android":"levelo://app?vid=6d953ac6-76f9-4bed-acd8-f772867480aa","ios":"levelo://app?vid=6d953ac6-76f9-4bed-acd8-f772867480aa"},"vehicle_type_id":"4","last_reported":1692453872,"current_range_meters":22400,"station_id":"ce4bh312rcd13ifvqdj0","pricing_plan_id":"free"},{"bike_id":"2363d3b5-6c15-401a-a59c-ee80bd4af927","system_id":"levelo_inurba_marseille","lat":43.28415,"lon":5.37522,"is_reserved":false,"is_disabled":false,"rental_uris":{"android":"levelo://app?vid=2363d3b5-6c15-401a-a59c-ee80bd4af927","ios":"levelo://app?vid=2363d3b5-6c15-401a-a59c-ee80bd4af927"},"vehicle_type_id":"4","last_reported":1692453872,"current_range_meters":20800,"station_id":"ce4bh412rcd13ifvqds0","pricing_plan_id":"free"},{"bike_id":"c83175c1-dc44-41ba-8c30-632824b8a336","system_id":"levelo_inurba_marseille","lat":43.319179,"lon":5.407725,"is_reserved":false,"is_disabled":false,"rental_uris":{"android":"levelo://app?vid=c83175c1-dc44-41ba-8c30-632824b8a336","ios":"levelo://app?vid=c83175c1-dc44-41ba-8c30-632824b8a336"},"vehicle_type_id":"4","last_reported":1692453872,"current_range_meters":27200,"station_id":"ce4bhq12rcd13ifvqhig","pricing_plan_id":"free"},{"bike_id":"f16291b9-c3f9-44cb-b4a9-a0d6c35fecf9","system_id":"levelo_inurba_marseille","lat":43.31889,"lon":5.40733,"is_reserved":false,"is_disabled":false,"rental_uris":{"android":"levelo://app?vid=f16291b9-c3f9-44cb-b4a9-a0d6c35fecf9","ios":"levelo://app?vid=f16291b9-c3f9-44cb-b4a9-a0d6c35fecf9"},"vehicle_type_id":"4","last_reported":1692453872,"current_range_meters":30400,"station_id":"ce4bhq12rcd13ifvqhig","pricing_plan_id":"free"},{"bike_id":"8e0ec51e-5c84-4463-be9f-e6b04d2e1037","system_id":"levelo_inurba_marseille","lat":43.31895,"lon":5.40736,"is_reserved":false,"is_disabled":false,"rental_uris":{"android":"levelo://app?vid=8e0ec51e-5c84-4463-be9f-e6b04d2e1037","ios":"levelo://app?vid=8e0ec51e-5c84-4463-be9f-e6b04d2e1037"},"vehicle_type_id":"4","last_reported":1692453872,"current_range_meters":30400,"station_id":"ce4bhq12rcd13ifvqhig","pricing_plan_id":"free"},{"bike_id":"15ffcac1-c8a6-4a54-933d-481ec42727cf","system_id":"levelo_inurba_marseille","lat":43.28496,"lon":5.35092,"is_reserved":false,"is_disabled":false,"rental_uris":{"android":"levelo://app?vid=15ffcac1-c8a6-4a54-933d-481ec42727cf","ios":"levelo://app?vid=15ffcac1-c8a6-4a54-933d-481ec42727cf"},"vehicle_type_id":"4","last_reported":1692453872,"current_range_meters":16400,"station_id":"","pricing_plan_id":"free"},{"bike_id":"e78bd4e4-c14d-4a01-b72e-65351e2b8a18","system_id":"levelo_inurba_marseille","lat":43.3031,"lon":5.40623,"is_reserved":false,"is_disabled":false,"rental_uris":{"android":"levelo://app?vid=e78bd4e4-c14d-4a01-b72e-65351e2b8a18","ios":"levelo://app?vid=e78bd4e4-c14d-4a01-b72e-65351e2b8a18"},"vehicle_type_id":"4","last_reported":1692453872,"current_range_meters":1600,"station_id":"","pricing_plan_id":"free"},{"bike_id":"17105054-6fd8-493b-b0be-1ed88688055c","system_id":"levelo_inurba_marseille","lat":43.33713,"lon":5.39181,"is_reserved":false,"is_disabled":false,"rental_uris":{"android":"levelo://app?vid=17105054-6fd8-493b-b0be-1ed88688055c","ios":"levelo://app?vid=17105054-6fd8-493b-b0be-1ed88688055c"},"vehicle_type_id":"4","last_reported":1692453872,"current_range_meters":30800,"station_id":"ce4bhr92rcd13ifvqhsg","pricing_plan_id":"free"},{"bike_id":"72fc020d-a1d4-460a-a3d1-6187a1ea65d2","system_id":"levelo_inurba_marseille","lat":43.3372,"lon":5.39177,"is_reserved":false,"is_disabled":false,"rental_uris":{"android":"levelo://app?vid=72fc020d-a1d4-460a-a3d1-6187a1ea65d2","ios":"levelo://app?vid=72fc020d-a1d4-460a-a3d1-6187a1ea65d2"},"vehicle_type_id":"4","last_reported":1692453872,"current_range_meters":28400,"station_id":"ce4bhr92rcd13ifvqhsg","pricing_plan_id":"free"},{"bike_id":"c90c94e3-64fa-45e9-9fee-ad8bf120c218","system_id":"levelo_inurba_marseille","lat":43.337168,"lon":5.391825,"is_reserved":false,"is_disabled":false,"rental_uris":{"android":"levelo://app?vid=c90c94e3-64fa-45e9-9fee-ad8bf120c218","ios":"levelo://app?vid=c90c94e3-64fa-45e9-9fee-ad8bf120c218"},"vehicle_type_id":"4","last_reported":1692453872,"current_range_meters":28000,"station_id":"ce4bhr92rcd13ifvqhsg","pricing_plan_id":"free"},{"bike_id":"7d2969ab-a065-4a23-b19e-667095d799c9","system_id":"levelo_inurba_marseille","lat":43.33717,"lon":5.39188,"is_reserved":false,"is_disabled":false,"rental_uris":{"android":"levelo://app?vid=7d2969ab-a065-4a23-b19e-667095d799c9","ios":"levelo://app?vid=7d2969ab-a065-4a23-b19e-667095d799c9"},"vehicle_type_id":"4","last_reported":1692453872,"current_range_meters":11600,"station_id":"ce4bhr92rcd13ifvqhsg","pricing_plan_id":"free"},{"bike_id":"2b3f06e0-8f2d-4133-9563-f19f57fe46e5","system_id":"levelo_inurba_marseille","lat":43.33724,"lon":5.39178,"is_reserved":false,"is_disabled":false,"rental_uris":{"android":"levelo://app?vid=2b3f06e0-8f2d-4133-9563-f19f57fe46e5","ios":"levelo://app?vid=2b3f06e0-8f2d-4133-9563-f19f57fe46e5"},"vehicle_type_id":"4","last_reported":1692453872,"current_range_meters":11200,"station_id":"ce4bhr92rcd13ifvqhsg","pricing_plan_id":"free"},{"bike_id":"13c8ff33-a39b-43d5-ba08-92f155d4a21e","system_id":"levelo_inurba_marseille","lat":43.323464,"lon":5.406297,"is_reserved":false,"is_disabled":false,"rental_uris":{"android":"levelo://app?vid=13c8ff33-a39b-43d5-ba08-92f155d4a21e","ios":"levelo://app?vid=13c8ff33-a39b-43d5-ba08-92f155d4a21e"},"vehicle_type_id":"4","last_reported":1692453872,"current_range_meters":31200,"station_id":"ce4bhq92rcd13ifvqhjg","pricing_plan_id":"free"},{"bike_id":"12c0f407-4ac2-49d3-b1e8-783bd26a8644","system_id":"levelo_inurba_marseille","lat":43.33722,"lon":5.39186,"is_reserved":false,"is_disabled":false,"rental_uris":{"android":"levelo://app?vid=12c0f407-4ac2-49d3-b1e8-783bd26a8644","ios":"levelo://app?vid=12c0f407-4ac2-49d3-b1e8-783bd26a8644"},"vehicle_type_id":"4","last_reported":1692453872,"current_range_meters":30000,"station_id":"ce4bhr92rcd13ifvqhsg","pricing_plan_id":"free"},{"bike_id":"01f563c5-7ac0-4d44-b1b3-0549f3b949f3","system_id":"levelo_inurba_marseille","lat":43.3372,"lon":5.3919,"is_reserved":false,"is_disabled":false,"rental_uris":{"android":"levelo://app?vid=01f563c5-7ac0-4d44-b1b3-0549f3b949f3","ios":"levelo://app?vid=01f563c5-7ac0-4d44-b1b3-0549f3b949f3"},"vehicle_type_id":"4","last_reported":1692453872,"current_range_meters":30000,"station_id":"ce4bhr92rcd13ifvqhsg","pricing_plan_id":"free"},{"bike_id":"33aba6b2-5ed1-4e7c-af4c-fff3b257e3e7","system_id":"levelo_inurba_marseille","lat":43.323464,"lon":5.406297,"is_reserved":false,"is_disabled":false,"rental_uris":{"android":"levelo://app?vid=33aba6b2-5ed1-4e7c-af4c-fff3b257e3e7","ios":"levelo://app?vid=33aba6b2-5ed1-4e7c-af4c-fff3b257e3e7"},"vehicle_type_id":"4","last_reported":1692453872,"current_range_meters":31200,"station_id":"ce4bhq92rcd13ifvqhjg","pricing_plan_id":"free"},{"bike_id":"0dda2562-498f-4f90-abfb-f3c666db2d2e","system_id":"levelo_inurba_marseille","lat":43.33722,"lon":5.39189,"is_reserved":false,"is_disabled":false,"rental_uris":{"android":"levelo://app?vid=0dda2562-498f-4f90-abfb-f3c666db2d2e","ios":"levelo://app?vid=0dda2562-498f-4f90-abfb-f3c666db2d2e"},"vehicle_type_id":"4","last_reported":1692453872,"current_range_meters":24800,"station_id":"ce4bhr92rcd13ifvqhsg","pricing_plan_id":"free"},{"bike_id":"186ddf38-a5ca-44a9-9dd3-9bfe2a53544b","system_id":"levelo_inurba_marseille","lat":43.33726,"lon":5.39184,"is_reserved":false,"is_disabled":false,"rental_uris":{"android":"levelo://app?vid=186ddf38-a5ca-44a9-9dd3-9bfe2a53544b","ios":"levelo://app?vid=186ddf38-a5ca-44a9-9dd3-9bfe2a53544b"},"vehicle_type_id":"4","last_reported":1692453872,"current_range_meters":29600,"station_id":"ce4bhr92rcd13ifvqhsg","pricing_plan_id":"free"},{"bike_id":"c3f1a799-40b8-4098-9115-0b78fcf6eb78","system_id":"levelo_inurba_marseille","lat":43.32344,"lon":5.40623,"is_reserved":false,"is_disabled":false,"rental_uris":{"android":"levelo://app?vid=c3f1a799-40b8-4098-9115-0b78fcf6eb78","ios":"levelo://app?vid=c3f1a799-40b8-4098-9115-0b78fcf6eb78"},"vehicle_type_id":"4","last_reported":1692453872,"current_range_meters":29600,"station_id":"ce4bhq92rcd13ifvqhjg","pricing_plan_id":"free"},{"bike_id":"02f29c2d-847e-4148-9200-bdb4c19acc46","system_id":"levelo_inurba_marseille","lat":43.33731,"lon":5.39185,"is_reserved":false,"is_disabled":false,"rental_uris":{"android":"levelo://app?vid=02f29c2d-847e-4148-9200-bdb4c19acc46","ios":"levelo://app?vid=02f29c2d-847e-4148-9200-bdb4c19acc46"},"vehicle_type_id":"4","last_reported":1692453872,"current_range_meters":30000,"station_id":"ce4bhr92rcd13ifvqhsg","pricing_plan_id":"free"},{"bike_id":"6ac884cc-b74d-40a5-8e3a-f019457ca89a","system_id":"levelo_inurba_marseille","lat":43.32339,"lon":5.40627,"is_reserved":false,"is_disabled":false,"rental_uris":{"android":"levelo://app?vid=6ac884cc-b74d-40a5-8e3a-f019457ca89a","ios":"levelo://app?vid=6ac884cc-b74d-40a5-8e3a-f019457ca89a"},"vehicle_type_id":"4","last_reported":1692453872,"current_range_meters":31200,"station_id":"ce4bhq92rcd13ifvqhjg","pricing_plan_id":"free"},{"bike_id":"0cbfb6a8-9b06-4430-8280-ebadac27271d","system_id":"levelo_inurba_marseille","lat":43.323464,"lon":5.406297,"is_reserved":false,"is_disabled":false,"rental_uris":{"android":"levelo://app?vid=0cbfb6a8-9b06-4430-8280-ebadac27271d","ios":"levelo://app?vid=0cbfb6a8-9b06-4430-8280-ebadac27271d"},"vehicle_type_id":"4","last_reported":1692453872,"current_range_meters":28800,"station_id":"ce4bhq92rcd13ifvqhjg","pricing_plan_id":"free"},{"bike_id":"8bd09c71-02ae-4371-8b55-ce1e7e2bf2df","system_id":"levelo_inurba_marseille","lat":43.33731,"lon":5.39187,"is_reserved":false,"is_disabled":false,"rental_uris":{"android":"levelo://app?vid=8bd09c71-02ae-4371-8b55-ce1e7e2bf2df","ios":"levelo://app?vid=8bd09c71-02ae-4371-8b55-ce1e7e2bf2df"},"vehicle_type_id":"4","last_reported":1692453872,"current_range_meters":30400,"station_id":"ce4bhr92rcd13ifvqhsg","pricing_plan_id":"free"},{"bike_id":"c24cecf2-0503-470c-b3d3-fc37f377f710","system_id":"levelo_inurba_marseille","lat":43.33728,"lon":5.39193,"is_reserved":false,"is_disabled":false,"rental_uris":{"android":"levelo://app?vid=c24cecf2-0503-470c-b3d3-fc37f377f710","ios":"levelo://app?vid=c24cecf2-0503-470c-b3d3-fc37f377f710"},"vehicle_type_id":"4","last_reported":1692453872,"current_range_meters":30000,"station_id":"ce4bhr92rcd13ifvqhsg","pricing_plan_id":"free"},{"bike_id":"e45012d8-673a-4bd6-93d3-a427f767a00d","system_id":"levelo_inurba_marseille","lat":43.33729,"lon":5.39192,"is_reserved":false,"is_disabled":false,"rental_uris":{"android":"levelo://app?vid=e45012d8-673a-4bd6-93d3-a427f767a00d","ios":"levelo://app?vid=e45012d8-673a-4bd6-93d3-a427f767a00d"},"vehicle_type_id":"4","last_reported":1692453872,"current_range_meters":28800,"station_id":"ce4bhr92rcd13ifvqhsg","pricing_plan_id":"free"},{"bike_id":"6fb36002-bc24-427c-a16e-585470e55deb","system_id":"levelo_inurba_marseille","lat":43.32602,"lon":5.40481,"is_reserved":false,"is_disabled":false,"rental_uris":{"android":"levelo://app?vid=6fb36002-bc24-427c-a16e-585470e55deb","ios":"levelo://app?vid=6fb36002-bc24-427c-a16e-585470e55deb"},"vehicle_type_id":"4","last_reported":1692453872,"current_range_meters":20800,"station_id":"","pricing_plan_id":"free"},{"bike_id":"3ab37731-9f76-4778-aa4e-e0add92d1239","system_id":"levelo_inurba_marseille","lat":43.284793,"lon":5.384119,"is_reserved":false,"is_disabled":false,"rental_uris":{"android":"levelo://app?vid=3ab37731-9f76-4778-aa4e-e0add92d1239","ios":"levelo://app?vid=3ab37731-9f76-4778-aa4e-e0add92d1239"},"vehicle_type_id":"4","last_reported":1692453872,"current_range_meters":2800,"station_id":"ce4bh512rcd13ifvqe3g","pricing_plan_id":"free"},{"bike_id":"a1a8951d-e090-43e2-a99d-798bbd1230b7","system_id":"levelo_inurba_marseille","lat":43.288501,"lon":5.393087,"is_reserved":false,"is_disabled":false,"rental_uris":{"android":"levelo://app?vid=a1a8951d-e090-43e2-a99d-798bbd1230b7","ios":"levelo://app?vid=a1a8951d-e090-43e2-a99d-798bbd1230b7"},"vehicle_type_id":"4","last_reported":1692453872,"current_range_meters":22000,"station_id":"ce4bh2p2rcd13ifvqdi0","pricing_plan_id":"free"},{"bike_id":"8f5ddf32-c3f6-4dfa-a2b0-56cdb04b2f66","system_id":"levelo_inurba_marseille","lat":43.283498,"lon":5.380948,"is_reserved":false,"is_disabled":false,"rental_uris":{"android":"levelo://app?vid=8f5ddf32-c3f6-4dfa-a2b0-56cdb04b2f66","ios":"levelo://app?vid=8f5ddf32-c3f6-4dfa-a2b0-56cdb04b2f66"},"vehicle_type_id":"4","last_reported":1692453872,"current_range_meters":10400,"station_id":"ce4bh412rcd13ifvqdr0","pricing_plan_id":"free"},{"bike_id":"aded1766-0e9d-46f7-ba09-f88bcc3bbee7","system_id":"levelo_inurba_marseille","lat":43.284217,"lon":5.349697,"is_reserved":false,"is_disabled":false,"rental_uris":{"android":"levelo://app?vid=aded1766-0e9d-46f7-ba09-f88bcc3bbee7","ios":"levelo://app?vid=aded1766-0e9d-46f7-ba09-f88bcc3bbee7"},"vehicle_type_id":"4","last_reported":1692453872,"current_range_meters":31200,"station_id":"ce4bhbh2rcd13ifvqepg","pricing_plan_id":"free"},{"bike_id":"fbf94f4f-6616-4ec4-bf95-a5062e319425","system_id":"levelo_inurba_marseille","lat":43.28424,"lon":5.34986,"is_reserved":false,"is_disabled":false,"rental_uris":{"android":"levelo://app?vid=fbf94f4f-6616-4ec4-bf95-a5062e319425","ios":"levelo://app?vid=fbf94f4f-6616-4ec4-bf95-a5062e319425"},"vehicle_type_id":"4","last_reported":1692453872,"current_range_meters":30800,"station_id":"ce4bhbh2rcd13ifvqepg","pricing_plan_id":"free"},{"bike_id":"923c7893-ada0-44c7-a1f1-6c3fd310546d","system_id":"levelo_inurba_marseille","lat":43.284219,"lon":5.3497,"is_reserved":false,"is_disabled":false,"rental_uris":{"android":"levelo://app?vid=923c7893-ada0-44c7-a1f1-6c3fd310546d","ios":"levelo://app?vid=923c7893-ada0-44c7-a1f1-6c3fd310546d"},"vehicle_type_id":"4","last_reported":1692453872,"current_range_meters":23600,"station_id":"ce4bhbh2rcd13ifvqepg","pricing_plan_id":"free"},{"bike_id":"6cc910fc-9996-4516-85b7-8437db159249","system_id":"levelo_inurba_marseille","lat":43.284217,"lon":5.349697,"is_reserved":false,"is_disabled":false,"rental_uris":{"android":"levelo://app?vid=6cc910fc-9996-4516-85b7-8437db159249","ios":"levelo://app?vid=6cc910fc-9996-4516-85b7-8437db159249"},"vehicle_type_id":"4","last_reported":1692453872,"current_range_meters":10800,"station_id":"ce4bhbh2rcd13ifvqepg","pricing_plan_id":"free"},{"bike_id":"0311b965-eafe-4ce2-ac32-8fcc8b35d29a","system_id":"levelo_inurba_marseille","lat":43.284219,"lon":5.3497,"is_reserved":false,"is_disabled":false,"rental_uris":{"android":"levelo://app?vid=0311b965-eafe-4ce2-ac32-8fcc8b35d29a","ios":"levelo://app?vid=0311b965-eafe-4ce2-ac32-8fcc8b35d29a"},"vehicle_type_id":"4","last_reported":1692453872,"current_range_meters":21600,"station_id":"ce4bhbh2rcd13ifvqepg","pricing_plan_id":"free"},{"bike_id":"46d4eb94-68c7-474a-87be-d598f10400d4","system_id":"levelo_inurba_marseille","lat":43.284217,"lon":5.349697,"is_reserved":false,"is_disabled":false,"rental_uris":{"android":"levelo://app?vid=46d4eb94-68c7-474a-87be-d598f10400d4","ios":"levelo://app?vid=46d4eb94-68c7-474a-87be-d598f10400d4"},"vehicle_type_id":"4","last_reported":1692453872,"current_range_meters":22400,"station_id":"ce4bhbh2rcd13ifvqepg","pricing_plan_id":"free"},{"bike_id":"b85a90c0-ad78-4721-ac53-884ade846322","system_id":"levelo_inurba_marseille","lat":43.284217,"lon":5.349697,"is_reserved":false,"is_disabled":false,"rental_uris":{"android":"levelo://app?vid=b85a90c0-ad78-4721-ac53-884ade846322","ios":"levelo://app?vid=b85a90c0-ad78-4721-ac53-884ade846322"},"vehicle_type_id":"4","last_reported":1692453872,"current_range_meters":31200,"station_id":"ce4bhbh2rcd13ifvqepg","pricing_plan_id":"free"},{"bike_id":"66185e82-fa2e-44c2-aa7f-cde5fed472d8","system_id":"levelo_inurba_marseille","lat":43.284219,"lon":5.3497,"is_reserved":false,"is_disabled":false,"rental_uris":{"android":"levelo://app?vid=66185e82-fa2e-44c2-aa7f-cde5fed472d8","ios":"levelo://app?vid=66185e82-fa2e-44c2-aa7f-cde5fed472d8"},"vehicle_type_id":"4","last_reported":1692453872,"current_range_meters":20400,"station_id":"ce4bhbh2rcd13ifvqepg","pricing_plan_id":"free"},{"bike_id":"281abc2c-bb2b-495c-a478-e4ea1cfb0382","system_id":"levelo_inurba_marseille","lat":43.284217,"lon":5.349697,"is_reserved":false,"is_disabled":false,"rental_uris":{"android":"levelo://app?vid=281abc2c-bb2b-495c-a478-e4ea1cfb0382","ios":"levelo://app?vid=281abc2c-bb2b-495c-a478-e4ea1cfb0382"},"vehicle_type_id":"4","last_reported":1692453872,"current_range_meters":24000,"station_id":"ce4bhbh2rcd13ifvqepg","pricing_plan_id":"free"},{"bike_id":"9fff2845-1fd2-4764-b0c8-710dc165cae1","system_id":"levelo_inurba_marseille","lat":43.284219,"lon":5.3497,"is_reserved":false,"is_disabled":false,"rental_uris":{"android":"levelo://app?vid=9fff2845-1fd2-4764-b0c8-710dc165cae1","ios":"levelo://app?vid=9fff2845-1fd2-4764-b0c8-710dc165cae1"},"vehicle_type_id":"4","last_reported":1692453872,"current_range_meters":28000,"station_id":"ce4bhbh2rcd13ifvqepg","pricing_plan_id":"free"},{"bike_id":"376175fe-7047-409d-8bc5-b62cb0313755","system_id":"levelo_inurba_marseille","lat":43.28421,"lon":5.34976,"is_reserved":false,"is_disabled":false,"rental_uris":{"android":"levelo://app?vid=376175fe-7047-409d-8bc5-b62cb0313755","ios":"levelo://app?vid=376175fe-7047-409d-8bc5-b62cb0313755"},"vehicle_type_id":"4","last_reported":1692453872,"current_range_meters":16000,"station_id":"ce4bhbh2rcd13ifvqepg","pricing_plan_id":"free"},{"bike_id":"52492ab1-c637-4701-bf30-0273f47773bc","system_id":"levelo_inurba_marseille","lat":43.284219,"lon":5.3497,"is_reserved":false,"is_disabled":false,"rental_uris":{"android":"levelo://app?vid=52492ab1-c637-4701-bf30-0273f47773bc","ios":"levelo://app?vid=52492ab1-c637-4701-bf30-0273f47773bc"},"vehicle_type_id":"4","last_reported":1692453872,"current_range_meters":26400,"station_id":"ce4bhbh2rcd13ifvqepg","pricing_plan_id":"free"},{"bike_id":"076d1f57-8a63-43e0-86ff-5a2a6a002145","system_id":"levelo_inurba_marseille","lat":43.284217,"lon":5.349697,"is_reserved":false,"is_disabled":false,"rental_uris":{"android":"levelo://app?vid=076d1f57-8a63-43e0-86ff-5a2a6a002145","ios":"levelo://app?vid=076d1f57-8a63-43e0-86ff-5a2a6a002145"},"vehicle_type_id":"4","last_reported":1692453872,"current_range_meters":2800,"station_id":"ce4bhbh2rcd13ifvqepg","pricing_plan_id":"free"},{"bike_id":"91879e64-b1e8-42e4-882a-d221ba2e97bf","system_id":"levelo_inurba_marseille","lat":43.284217,"lon":5.349697,"is_reserved":false,"is_disabled":false,"rental_uris":{"android":"levelo://app?vid=91879e64-b1e8-42e4-882a-d221ba2e97bf","ios":"levelo://app?vid=91879e64-b1e8-42e4-882a-d221ba2e97bf"},"vehicle_type_id":"4","last_reported":1692453872,"current_range_meters":1600,"station_id":"ce4bhbh2rcd13ifvqepg","pricing_plan_id":"free"},{"bike_id":"71953eb7-9886-4efd-a362-29476a0a0546","system_id":"levelo_inurba_marseille","lat":43.284217,"lon":5.349697,"is_reserved":false,"is_disabled":false,"rental_uris":{"android":"levelo://app?vid=71953eb7-9886-4efd-a362-29476a0a0546","ios":"levelo://app?vid=71953eb7-9886-4efd-a362-29476a0a0546"},"vehicle_type_id":"4","last_reported":1692453872,"current_range_meters":17200,"station_id":"ce4bhbh2rcd13ifvqepg","pricing_plan_id":"free"},{"bike_id":"5a456184-5059-40ab-b49d-798f6e30176a","system_id":"levelo_inurba_marseille","lat":43.284219,"lon":5.3497,"is_reserved":false,"is_disabled":false,"rental_uris":{"android":"levelo://app?vid=5a456184-5059-40ab-b49d-798f6e30176a","ios":"levelo://app?vid=5a456184-5059-40ab-b49d-798f6e30176a"},"vehicle_type_id":"4","last_reported":1692453872,"current_range_meters":11200,"station_id":"ce4bhbh2rcd13ifvqepg","pricing_plan_id":"free"},{"bike_id":"1289af83-c80b-4260-b6a2-4f7490998cfd","system_id":"levelo_inurba_marseille","lat":43.284219,"lon":5.3497,"is_reserved":false,"is_disabled":false,"rental_uris":{"android":"levelo://app?vid=1289af83-c80b-4260-b6a2-4f7490998cfd","ios":"levelo://app?vid=1289af83-c80b-4260-b6a2-4f7490998cfd"},"vehicle_type_id":"4","last_reported":1692453872,"current_range_meters":29200,"station_id":"ce4bhbh2rcd13ifvqepg","pricing_plan_id":"free"},{"bike_id":"11029f8a-7429-4f01-bb03-b8e14837c9db","system_id":"levelo_inurba_marseille","lat":43.284219,"lon":5.3497,"is_reserved":false,"is_disabled":false,"rental_uris":{"android":"levelo://app?vid=11029f8a-7429-4f01-bb03-b8e14837c9db","ios":"levelo://app?vid=11029f8a-7429-4f01-bb03-b8e14837c9db"},"vehicle_type_id":"4","last_reported":1692453872,"current_range_meters":16800,"station_id":"ce4bhbh2rcd13ifvqepg","pricing_plan_id":"free"},{"bike_id":"cb7c2604-96f2-4d23-b28c-415970eeb34f","system_id":"levelo_inurba_marseille","lat":43.284219,"lon":5.3497,"is_reserved":false,"is_disabled":false,"rental_uris":{"android":"levelo://app?vid=cb7c2604-96f2-4d23-b28c-415970eeb34f","ios":"levelo://app?vid=cb7c2604-96f2-4d23-b28c-415970eeb34f"},"vehicle_type_id":"4","last_reported":1692453872,"current_range_meters":22800,"station_id":"ce4bhbh2rcd13ifvqepg","pricing_plan_id":"free"},{"bike_id":"f50aca5f-cf5b-4020-925f-826a2e34874f","system_id":"levelo_inurba_marseille","lat":43.289363,"lon":5.396322,"is_reserved":false,"is_disabled":false,"rental_uris":{"android":"levelo://app?vid=f50aca5f-cf5b-4020-925f-826a2e34874f","ios":"levelo://app?vid=f50aca5f-cf5b-4020-925f-826a2e34874f"},"vehicle_type_id":"4","last_reported":1692453872,"current_range_meters":29200,"station_id":"ce4bh3h2rcd13ifvqdn0","pricing_plan_id":"free"},{"bike_id":"5cec26ac-344f-432b-af34-450b75305b9b","system_id":"levelo_inurba_marseille","lat":43.292724,"lon":5.401131,"is_reserved":false,"is_disabled":false,"rental_uris":{"android":"levelo://app?vid=5cec26ac-344f-432b-af34-450b75305b9b","ios":"levelo://app?vid=5cec26ac-344f-432b-af34-450b75305b9b"},"vehicle_type_id":"4","last_reported":1692453872,"current_range_meters":30400,"station_id":"ce4bh312rcd13ifvqdk0","pricing_plan_id":"free"},{"bike_id":"15e23eb1-3035-4a2e-b283-5213cee389c3","system_id":"levelo_inurba_marseille","lat":43.28276,"lon":5.35083,"is_reserved":false,"is_disabled":false,"rental_uris":{"android":"levelo://app?vid=15e23eb1-3035-4a2e-b283-5213cee389c3","ios":"levelo://app?vid=15e23eb1-3035-4a2e-b283-5213cee389c3"},"vehicle_type_id":"4","last_reported":1692453872,"current_range_meters":29600,"station_id":"ce4bhbp2rcd13ifvqerg","pricing_plan_id":"free"},{"bike_id":"4fcf6915-9d9f-448d-8def-bb13ec9ef067","system_id":"levelo_inurba_marseille","lat":43.282754,"lon":5.350519,"is_reserved":false,"is_disabled":false,"rental_uris":{"android":"levelo://app?vid=4fcf6915-9d9f-448d-8def-bb13ec9ef067","ios":"levelo://app?vid=4fcf6915-9d9f-448d-8def-bb13ec9ef067"},"vehicle_type_id":"4","last_reported":1692453872,"current_range_meters":31200,"station_id":"ce4bhbp2rcd13ifvqerg","pricing_plan_id":"free"},{"bike_id":"9897a276-0506-4a04-b24e-c6bc1879aa9c","system_id":"levelo_inurba_marseille","lat":43.282754,"lon":5.350519,"is_reserved":false,"is_disabled":false,"rental_uris":{"android":"levelo://app?vid=9897a276-0506-4a04-b24e-c6bc1879aa9c","ios":"levelo://app?vid=9897a276-0506-4a04-b24e-c6bc1879aa9c"},"vehicle_type_id":"4","last_reported":1692453872,"current_range_meters":31200,"station_id":"ce4bhbp2rcd13ifvqerg","pricing_plan_id":"free"},{"bike_id":"24c01a58-bbf4-4f8e-bea2-9bce5cbc675b","system_id":"levelo_inurba_marseille","lat":43.28273,"lon":5.35072,"is_reserved":false,"is_disabled":false,"rental_uris":{"android":"levelo://app?vid=24c01a58-bbf4-4f8e-bea2-9bce5cbc675b","ios":"levelo://app?vid=24c01a58-bbf4-4f8e-bea2-9bce5cbc675b"},"vehicle_type_id":"4","last_reported":1692453872,"current_range_meters":18400,"station_id":"ce4bhbp2rcd13ifvqerg","pricing_plan_id":"free"},{"bike_id":"4ac8f7ae-3414-46cb-9052-7e27dc315dcf","system_id":"levelo_inurba_marseille","lat":43.28275,"lon":5.35063,"is_reserved":false,"is_disabled":false,"rental_uris":{"android":"levelo://app?vid=4ac8f7ae-3414-46cb-9052-7e27dc315dcf","ios":"levelo://app?vid=4ac8f7ae-3414-46cb-9052-7e27dc315dcf"},"vehicle_type_id":"4","last_reported":1692453872,"current_range_meters":31200,"station_id":"ce4bhbp2rcd13ifvqerg","pricing_plan_id":"free"},{"bike_id":"88940920-727e-47f8-bee6-24feedff1167","system_id":"levelo_inurba_marseille","lat":43.282754,"lon":5.350519,"is_reserved":false,"is_disabled":false,"rental_uris":{"android":"levelo://app?vid=88940920-727e-47f8-bee6-24feedff1167","ios":"levelo://app?vid=88940920-727e-47f8-bee6-24feedff1167"},"vehicle_type_id":"4","last_reported":1692453872,"current_range_meters":30400,"station_id":"ce4bhbp2rcd13ifvqerg","pricing_plan_id":"free"},{"bike_id":"8a8a1a41-3cb3-4cbd-86ab-2555c4ddd168","system_id":"levelo_inurba_marseille","lat":43.28271,"lon":5.35073,"is_reserved":false,"is_disabled":false,"rental_uris":{"android":"levelo://app?vid=8a8a1a41-3cb3-4cbd-86ab-2555c4ddd168","ios":"levelo://app?vid=8a8a1a41-3cb3-4cbd-86ab-2555c4ddd168"},"vehicle_type_id":"4","last_reported":1692453872,"current_range_meters":2000,"station_id":"ce4bhbp2rcd13ifvqerg","pricing_plan_id":"free"},{"bike_id":"3038b227-a2c0-4c5a-a347-5172921ca3a8","system_id":"levelo_inurba_marseille","lat":43.2827,"lon":5.35073,"is_reserved":false,"is_disabled":false,"rental_uris":{"android":"levelo://app?vid=3038b227-a2c0-4c5a-a347-5172921ca3a8","ios":"levelo://app?vid=3038b227-a2c0-4c5a-a347-5172921ca3a8"},"vehicle_type_id":"4","last_reported":1692453872,"current_range_meters":22400,"station_id":"ce4bhbp2rcd13ifvqerg","pricing_plan_id":"free"},{"bike_id":"1cc1cf33-5475-4bcf-a8db-997366c440e0","system_id":"levelo_inurba_marseille","lat":43.28271,"lon":5.35069,"is_reserved":false,"is_disabled":false,"rental_uris":{"android":"levelo://app?vid=1cc1cf33-5475-4bcf-a8db-997366c440e0","ios":"levelo://app?vid=1cc1cf33-5475-4bcf-a8db-997366c440e0"},"vehicle_type_id":"4","last_reported":1692453872,"current_range_meters":28400,"station_id":"ce4bhbp2rcd13ifvqerg","pricing_plan_id":"free"},{"bike_id":"11782008-ab28-4adc-9567-07e641ec570e","system_id":"levelo_inurba_marseille","lat":43.2827,"lon":5.35071,"is_reserved":false,"is_disabled":false,"rental_uris":{"android":"levelo://app?vid=11782008-ab28-4adc-9567-07e641ec570e","ios":"levelo://app?vid=11782008-ab28-4adc-9567-07e641ec570e"},"vehicle_type_id":"4","last_reported":1692453872,"current_range_meters":20400,"station_id":"ce4bhbp2rcd13ifvqerg","pricing_plan_id":"free"},{"bike_id":"5b72c66f-9b7c-4747-b09c-f20c879216f8","system_id":"levelo_inurba_marseille","lat":43.28272,"lon":5.35064,"is_reserved":false,"is_disabled":false,"rental_uris":{"android":"levelo://app?vid=5b72c66f-9b7c-4747-b09c-f20c879216f8","ios":"levelo://app?vid=5b72c66f-9b7c-4747-b09c-f20c879216f8"},"vehicle_type_id":"4","last_reported":1692453872,"current_range_meters":16800,"station_id":"ce4bhbp2rcd13ifvqerg","pricing_plan_id":"free"},{"bike_id":"a3bf40e5-0e8c-49a8-83ed-79360293c5ce","system_id":"levelo_inurba_marseille","lat":43.28271,"lon":5.35067,"is_reserved":false,"is_disabled":false,"rental_uris":{"android":"levelo://app?vid=a3bf40e5-0e8c-49a8-83ed-79360293c5ce","ios":"levelo://app?vid=a3bf40e5-0e8c-49a8-83ed-79360293c5ce"},"vehicle_type_id":"4","last_reported":1692453872,"current_range_meters":25200,"station_id":"ce4bhbp2rcd13ifvqerg","pricing_plan_id":"free"},{"bike_id":"d572b92e-97dc-4b52-b0ab-532e0b3dfcfc","system_id":"levelo_inurba_marseille","lat":43.28268,"lon":5.35077,"is_reserved":false,"is_disabled":false,"rental_uris":{"android":"levelo://app?vid=d572b92e-97dc-4b52-b0ab-532e0b3dfcfc","ios":"levelo://app?vid=d572b92e-97dc-4b52-b0ab-532e0b3dfcfc"},"vehicle_type_id":"4","last_reported":1692453872,"current_range_meters":25600,"station_id":"ce4bhbp2rcd13ifvqerg","pricing_plan_id":"free"},{"bike_id":"fe783032-ff40-46dc-be24-dd12fc35e995","system_id":"levelo_inurba_marseille","lat":43.282754,"lon":5.350519,"is_reserved":false,"is_disabled":false,"rental_uris":{"android":"levelo://app?vid=fe783032-ff40-46dc-be24-dd12fc35e995","ios":"levelo://app?vid=fe783032-ff40-46dc-be24-dd12fc35e995"},"vehicle_type_id":"4","last_reported":1692453872,"current_range_meters":31600,"station_id":"ce4bhbp2rcd13ifvqerg","pricing_plan_id":"free"},{"bike_id":"36a67ad8-cfe7-4ea0-a954-b2ac79271b68","system_id":"levelo_inurba_marseille","lat":43.28272,"lon":5.35059,"is_reserved":false,"is_disabled":false,"rental_uris":{"android":"levelo://app?vid=36a67ad8-cfe7-4ea0-a954-b2ac79271b68","ios":"levelo://app?vid=36a67ad8-cfe7-4ea0-a954-b2ac79271b68"},"vehicle_type_id":"4","last_reported":1692453872,"current_range_meters":18400,"station_id":"ce4bhbp2rcd13ifvqerg","pricing_plan_id":"free"},{"bike_id":"1a5e03ff-ea7e-4de9-bdb4-372368b74f58","system_id":"levelo_inurba_marseille","lat":43.28267,"lon":5.35074,"is_reserved":false,"is_disabled":false,"rental_uris":{"android":"levelo://app?vid=1a5e03ff-ea7e-4de9-bdb4-372368b74f58","ios":"levelo://app?vid=1a5e03ff-ea7e-4de9-bdb4-372368b74f58"},"vehicle_type_id":"4","last_reported":1692453872,"current_range_meters":22400,"station_id":"ce4bhbp2rcd13ifvqerg","pricing_plan_id":"free"},{"bike_id":"248b4af1-cebb-4b11-a45e-11d87517973a","system_id":"levelo_inurba_marseille","lat":43.28268,"lon":5.35069,"is_reserved":false,"is_disabled":false,"rental_uris":{"android":"levelo://app?vid=248b4af1-cebb-4b11-a45e-11d87517973a","ios":"levelo://app?vid=248b4af1-cebb-4b11-a45e-11d87517973a"},"vehicle_type_id":"4","last_reported":1692453872,"current_range_meters":15600,"station_id":"ce4bhbp2rcd13ifvqerg","pricing_plan_id":"free"},{"bike_id":"9479208c-e6c1-4313-aa37-06ebf0b134fd","system_id":"levelo_inurba_marseille","lat":43.28266,"lon":5.35074,"is_reserved":false,"is_disabled":false,"rental_uris":{"android":"levelo://app?vid=9479208c-e6c1-4313-aa37-06ebf0b134fd","ios":"levelo://app?vid=9479208c-e6c1-4313-aa37-06ebf0b134fd"},"vehicle_type_id":"4","last_reported":1692453872,"current_range_meters":11600,"station_id":"ce4bhbp2rcd13ifvqerg","pricing_plan_id":"free"},{"bike_id":"ca46187a-8af0-4325-942e-0a6924d674b4","system_id":"levelo_inurba_marseille","lat":43.28267,"lon":5.35069,"is_reserved":false,"is_disabled":false,"rental_uris":{"android":"levelo://app?vid=ca46187a-8af0-4325-942e-0a6924d674b4","ios":"levelo://app?vid=ca46187a-8af0-4325-942e-0a6924d674b4"},"vehicle_type_id":"4","last_reported":1692453872,"current_range_meters":23600,"station_id":"ce4bhbp2rcd13ifvqerg","pricing_plan_id":"free"},{"bike_id":"9b209bdc-9551-4008-9ce5-7af839294f7d","system_id":"levelo_inurba_marseille","lat":43.282744,"lon":5.350533,"is_reserved":false,"is_disabled":false,"rental_uris":{"android":"levelo://app?vid=9b209bdc-9551-4008-9ce5-7af839294f7d","ios":"levelo://app?vid=9b209bdc-9551-4008-9ce5-7af839294f7d"},"vehicle_type_id":"4","last_reported":1692453872,"current_range_meters":16400,"station_id":"ce4bhbp2rcd13ifvqerg","pricing_plan_id":"free"},{"bike_id":"7019ca0c-b21f-4a52-b039-4f2e2e32a89c","system_id":"levelo_inurba_marseille","lat":43.2827,"lon":5.35058,"is_reserved":false,"is_disabled":false,"rental_uris":{"android":"levelo://app?vid=7019ca0c-b21f-4a52-b039-4f2e2e32a89c","ios":"levelo://app?vid=7019ca0c-b21f-4a52-b039-4f2e2e32a89c"},"vehicle_type_id":"4","last_reported":1692453872,"current_range_meters":31200,"station_id":"ce4bhbp2rcd13ifvqerg","pricing_plan_id":"free"},{"bike_id":"698ab569-3165-412a-85a0-1064420976af","system_id":"levelo_inurba_marseille","lat":43.282754,"lon":5.350519,"is_reserved":false,"is_disabled":false,"rental_uris":{"android":"levelo://app?vid=698ab569-3165-412a-85a0-1064420976af","ios":"levelo://app?vid=698ab569-3165-412a-85a0-1064420976af"},"vehicle_type_id":"4","last_reported":1692453872,"current_range_meters":31600,"station_id":"ce4bhbp2rcd13ifvqerg","pricing_plan_id":"free"},{"bike_id":"ed307e7e-8c4e-4248-aefb-d53722504bbb","system_id":"levelo_inurba_marseille","lat":43.28265,"lon":5.35073,"is_reserved":false,"is_disabled":false,"rental_uris":{"android":"levelo://app?vid=ed307e7e-8c4e-4248-aefb-d53722504bbb","ios":"levelo://app?vid=ed307e7e-8c4e-4248-aefb-d53722504bbb"},"vehicle_type_id":"4","last_reported":1692453872,"current_range_meters":16000,"station_id":"ce4bhbp2rcd13ifvqerg","pricing_plan_id":"free"},{"bike_id":"04b5e856-8998-4270-aff8-c1e5cf89a08e","system_id":"levelo_inurba_marseille","lat":43.28265,"lon":5.35072,"is_reserved":false,"is_disabled":false,"rental_uris":{"android":"levelo://app?vid=04b5e856-8998-4270-aff8-c1e5cf89a08e","ios":"levelo://app?vid=04b5e856-8998-4270-aff8-c1e5cf89a08e"},"vehicle_type_id":"4","last_reported":1692453872,"current_range_meters":22400,"station_id":"ce4bhbp2rcd13ifvqerg","pricing_plan_id":"free"},{"bike_id":"e5c56f38-dd77-4657-a893-676920e82430","system_id":"levelo_inurba_marseille","lat":43.28265,"lon":5.35068,"is_reserved":false,"is_disabled":false,"rental_uris":{"android":"levelo://app?vid=e5c56f38-dd77-4657-a893-676920e82430","ios":"levelo://app?vid=e5c56f38-dd77-4657-a893-676920e82430"},"vehicle_type_id":"4","last_reported":1692453872,"current_range_meters":29200,"station_id":"ce4bhbp2rcd13ifvqerg","pricing_plan_id":"free"},{"bike_id":"926596df-df8c-46c9-92ed-1a2c9bb6ca2a","system_id":"levelo_inurba_marseille","lat":43.28265,"lon":5.35061,"is_reserved":false,"is_disabled":false,"rental_uris":{"android":"levelo://app?vid=926596df-df8c-46c9-92ed-1a2c9bb6ca2a","ios":"levelo://app?vid=926596df-df8c-46c9-92ed-1a2c9bb6ca2a"},"vehicle_type_id":"4","last_reported":1692453872,"current_range_meters":0,"station_id":"ce4bhbp2rcd13ifvqerg","pricing_plan_id":"free"},{"bike_id":"4abc87ca-df4d-4802-9180-234f0e1412fe","system_id":"levelo_inurba_marseille","lat":43.28262,"lon":5.35064,"is_reserved":false,"is_disabled":false,"rental_uris":{"android":"levelo://app?vid=4abc87ca-df4d-4802-9180-234f0e1412fe","ios":"levelo://app?vid=4abc87ca-df4d-4802-9180-234f0e1412fe"},"vehicle_type_id":"4","last_reported":1692453872,"current_range_meters":13200,"station_id":"ce4bhbp2rcd13ifvqerg","pricing_plan_id":"free"},{"bike_id":"061dfcc8-8f93-405f-afec-7d5bb40f64fb","system_id":"levelo_inurba_marseille","lat":43.282754,"lon":5.350519,"is_reserved":false,"is_disabled":false,"rental_uris":{"android":"levelo://app?vid=061dfcc8-8f93-405f-afec-7d5bb40f64fb","ios":"levelo://app?vid=061dfcc8-8f93-405f-afec-7d5bb40f64fb"},"vehicle_type_id":"4","last_reported":1692453872,"current_range_meters":26800,"station_id":"ce4bhbp2rcd13ifvqerg","pricing_plan_id":"free"},{"bike_id":"51217275-0a83-439a-8afd-230bdef24a0e","system_id":"levelo_inurba_marseille","lat":43.283502,"lon":5.386471,"is_reserved":false,"is_disabled":false,"rental_uris":{"android":"levelo://app?vid=51217275-0a83-439a-8afd-230bdef24a0e","ios":"levelo://app?vid=51217275-0a83-439a-8afd-230bdef24a0e"},"vehicle_type_id":"4","last_reported":1692453872,"current_range_meters":5600,"station_id":"ce4bh492rcd13ifvqdvg","pricing_plan_id":"free"},{"bike_id":"ab95aa95-05ca-4f44-9615-d58e08afc09f","system_id":"levelo_inurba_marseille","lat":43.282744,"lon":5.350533,"is_reserved":false,"is_disabled":false,"rental_uris":{"android":"levelo://app?vid=ab95aa95-05ca-4f44-9615-d58e08afc09f","ios":"levelo://app?vid=ab95aa95-05ca-4f44-9615-d58e08afc09f"},"vehicle_type_id":"4","last_reported":1692453872,"current_range_meters":31200,"station_id":"ce4bhbp2rcd13ifvqerg","pricing_plan_id":"free"},{"bike_id":"16304175-9d02-4b0e-a9cd-e3c67ecb850d","system_id":"levelo_inurba_marseille","lat":43.282744,"lon":5.350533,"is_reserved":false,"is_disabled":false,"rental_uris":{"android":"levelo://app?vid=16304175-9d02-4b0e-a9cd-e3c67ecb850d","ios":"levelo://app?vid=16304175-9d02-4b0e-a9cd-e3c67ecb850d"},"vehicle_type_id":"4","last_reported":1692453872,"current_range_meters":28400,"station_id":"ce4bhbp2rcd13ifvqerg","pricing_plan_id":"free"},{"bike_id":"9f46cfde-4f76-4076-bade-5765c2d3d473","system_id":"levelo_inurba_marseille","lat":43.28039,"lon":5.369297,"is_reserved":false,"is_disabled":false,"rental_uris":{"android":"levelo://app?vid=9f46cfde-4f76-4076-bade-5765c2d3d473","ios":"levelo://app?vid=9f46cfde-4f76-4076-bade-5765c2d3d473"},"vehicle_type_id":"4","last_reported":1692453872,"current_range_meters":31200,"station_id":"ce4bha12rcd13ifvqef0","pricing_plan_id":"free"},{"bike_id":"40a5d916-5bec-448c-a18d-5352a6137d6f","system_id":"levelo_inurba_marseille","lat":43.284462,"lon":5.392121,"is_reserved":false,"is_disabled":false,"rental_uris":{"android":"levelo://app?vid=40a5d916-5bec-448c-a18d-5352a6137d6f","ios":"levelo://app?vid=40a5d916-5bec-448c-a18d-5352a6137d6f"},"vehicle_type_id":"4","last_reported":1692453872,"current_range_meters":19200,"station_id":"ce4bhoh2rcd13ifvqh5g","pricing_plan_id":"free"},{"bike_id":"70e6f82a-294c-4960-95bc-0c3a49ea7d3f","system_id":"levelo_inurba_marseille","lat":43.284462,"lon":5.392121,"is_reserved":false,"is_disabled":false,"rental_uris":{"android":"levelo://app?vid=70e6f82a-294c-4960-95bc-0c3a49ea7d3f","ios":"levelo://app?vid=70e6f82a-294c-4960-95bc-0c3a49ea7d3f"},"vehicle_type_id":"4","last_reported":1692453872,"current_range_meters":18800,"station_id":"ce4bhoh2rcd13ifvqh5g","pricing_plan_id":"free"},{"bike_id":"f8ef4f78-badc-40d1-a4a9-077301466e56","system_id":"levelo_inurba_marseille","lat":43.32662,"lon":5.40978,"is_reserved":false,"is_disabled":false,"rental_uris":{"android":"levelo://app?vid=f8ef4f78-badc-40d1-a4a9-077301466e56","ios":"levelo://app?vid=f8ef4f78-badc-40d1-a4a9-077301466e56"},"vehicle_type_id":"4","last_reported":1692453872,"current_range_meters":12800,"station_id":"ce4bhpp2rcd13ifvqhgg","pricing_plan_id":"free"},{"bike_id":"1efafabf-5a38-427c-bc85-e184c0533f5f","system_id":"levelo_inurba_marseille","lat":43.30421,"lon":5.41277,"is_reserved":false,"is_disabled":false,"rental_uris":{"android":"levelo://app?vid=1efafabf-5a38-427c-bc85-e184c0533f5f","ios":"levelo://app?vid=1efafabf-5a38-427c-bc85-e184c0533f5f"},"vehicle_type_id":"4","last_reported":1692453872,"current_range_meters":26800,"station_id":"ce4bhop2rcd13ifvqh8g","pricing_plan_id":"free"},{"bike_id":"2a3fb477-3a84-460a-8ba1-89cdc563114b","system_id":"levelo_inurba_marseille","lat":43.30423,"lon":5.4128,"is_reserved":false,"is_disabled":false,"rental_uris":{"android":"levelo://app?vid=2a3fb477-3a84-460a-8ba1-89cdc563114b","ios":"levelo://app?vid=2a3fb477-3a84-460a-8ba1-89cdc563114b"},"vehicle_type_id":"4","last_reported":1692453872,"current_range_meters":31200,"station_id":"ce4bhop2rcd13ifvqh8g","pricing_plan_id":"free"},{"bike_id":"194e6000-deb6-4729-b2f1-db2c5b44b069","system_id":"levelo_inurba_marseille","lat":43.299579,"lon":5.413255,"is_reserved":false,"is_disabled":false,"rental_uris":{"android":"levelo://app?vid=194e6000-deb6-4729-b2f1-db2c5b44b069","ios":"levelo://app?vid=194e6000-deb6-4729-b2f1-db2c5b44b069"},"vehicle_type_id":"4","last_reported":1692453872,"current_range_meters":17200,"station_id":"ce4bhp12rcd13ifvqh9g","pricing_plan_id":"free"},{"bike_id":"3eb17d3c-6b3e-4d47-8b8b-711f56f764a6","system_id":"levelo_inurba_marseille","lat":43.299579,"lon":5.413255,"is_reserved":false,"is_disabled":false,"rental_uris":{"android":"levelo://app?vid=3eb17d3c-6b3e-4d47-8b8b-711f56f764a6","ios":"levelo://app?vid=3eb17d3c-6b3e-4d47-8b8b-711f56f764a6"},"vehicle_type_id":"4","last_reported":1692453872,"current_range_meters":31200,"station_id":"ce4bhp12rcd13ifvqh9g","pricing_plan_id":"free"},{"bike_id":"3b4496bf-b89d-4097-9845-ebff2f027088","system_id":"levelo_inurba_marseille","lat":43.299579,"lon":5.413255,"is_reserved":false,"is_disabled":false,"rental_uris":{"android":"levelo://app?vid=3b4496bf-b89d-4097-9845-ebff2f027088","ios":"levelo://app?vid=3b4496bf-b89d-4097-9845-ebff2f027088"},"vehicle_type_id":"4","last_reported":1692453872,"current_range_meters":3600,"station_id":"ce4bhp12rcd13ifvqh9g","pricing_plan_id":"free"},{"bike_id":"a32a39d0-a8d3-42f8-bde2-27a8ca911b9d","system_id":"levelo_inurba_marseille","lat":43.299579,"lon":5.413255,"is_reserved":false,"is_disabled":false,"rental_uris":{"android":"levelo://app?vid=a32a39d0-a8d3-42f8-bde2-27a8ca911b9d","ios":"levelo://app?vid=a32a39d0-a8d3-42f8-bde2-27a8ca911b9d"},"vehicle_type_id":"4","last_reported":1692453872,"current_range_meters":28400,"station_id":"ce4bhp12rcd13ifvqh9g","pricing_plan_id":"free"},{"bike_id":"8335d04a-eb81-4fe5-9371-08df6e2a1598","system_id":"levelo_inurba_marseille","lat":43.320045,"lon":5.415046,"is_reserved":false,"is_disabled":false,"rental_uris":{"android":"levelo://app?vid=8335d04a-eb81-4fe5-9371-08df6e2a1598","ios":"levelo://app?vid=8335d04a-eb81-4fe5-9371-08df6e2a1598"},"vehicle_type_id":"4","last_reported":1692453872,"current_range_meters":21200,"station_id":"ce4bhq92rcd13ifvqhkg","pricing_plan_id":"free"},{"bike_id":"8a026d53-88fa-495b-b4fa-d5a83e9e7f8a","system_id":"levelo_inurba_marseille","lat":43.299579,"lon":5.413255,"is_reserved":false,"is_disabled":false,"rental_uris":{"android":"levelo://app?vid=8a026d53-88fa-495b-b4fa-d5a83e9e7f8a","ios":"levelo://app?vid=8a026d53-88fa-495b-b4fa-d5a83e9e7f8a"},"vehicle_type_id":"4","last_reported":1692453872,"current_range_meters":28400,"station_id":"ce4bhp12rcd13ifvqh9g","pricing_plan_id":"free"},