{"last_updated":1703005518,"ttl":30,"version":"2.2","data":{"bikes":[{"bike_id":"4d58aaab-2dbe-4b91-8be3-19f272539e73","system_id":"levelo_inurba_marseille","lat":43.31341,"lon":5.367098,"is_reserved":false,"is_disabled":false,"rental_uris":{"android":"levelo://app?vid=4d58aaab-2dbe-4b91-8be3-19f272539e73","ios":"levelo://app?vid=4d58aaab-2dbe-4b91-8be3-19f272539e73"},"vehicle_type_id":"4","last_reported":1703005518,"current_range_meters":8800,"station_id":"ce4bgr92rcd13ifvqc6g","pricing_plan_id":"free"},{"bike_id":"7e1529e9-efbf-4bc5-8568-a894e6914b08","system_id":"levelo_inurba_marseille","lat":43.314811,"lon":5.373103,"is_reserved":false,"is_disabled":false,"rental_uris":{"android":"levelo://app?vid=7e1529e9-efbf-4bc5-8568-a894e6914b08","ios":"levelo://app?vid=7e1529e9-efbf-4bc5-8568-a894e6914b08"},"vehicle_type_id":"4","last_reported":1703005518,"current_range_meters":28800,"station_id":"ce4bgt12rcd13ifvqcd0","pricing_plan_id":"free"},{"bike_id":"e2f053cb-1513-416d-b32f-5051c56fde47","system_id":"levelo_inurba_marseille","lat":43.305368,"lon":5.367343,"is_reserved":false,"is_disabled":false,"rental_uris":{"android":"levelo://app?vid=e2f053cb-1513-416d-b32f-5051c56fde47","ios":"levelo://app?vid=e2f053cb-1513-416d-b32f-5051c56fde47"},"vehicle_type_id":"4","last_reported":1703005518,"current_range_meters":0,"station_id":"ce4bgrp2rcd13ifvqc9g","pricing_plan_id":"free"},{"bike_id":"ef654af0-4965-4832-9831-2e8e5b6af509","system_id":"levelo_inurba_marseille","lat":43.30533,"lon":5.36537,"is_reserved":false,"is_disabled":false,"rental_uris":{"android":"levelo://app?vid=ef654af0-4965-4832-9831-2e8e5b6af509","ios":"levelo://app?vid=ef654af0-4965-4832-9831-2e8e5b6af509"},"vehicle_type_id":"4","last_reported":1703005518,"current_range_meters":0,"station_id":"ce4bgs12rcd13ifvqcag","pricing_plan_id":"free"},{"bike_id":"283e6b3e-1ad1-49e9-9053-e95a39e7d688","system_id":"levelo_inurba_marseille","lat":43.305989,"lon":5.37225,"is_reserved":false,"is_disabled":false,"rental_uris":{"android":"levelo://app?vid=283e6b3e-1ad1-49e9-9053-e95a39e7d688","ios":"levelo://app?vid=283e6b3e-1ad1-49e9-9053-e95a39e7d688"},"vehicle_type_id":"4","last_reported":1703005518,"current_range_meters":2400,"station_id":"ce4bgqh2rcd13ifvqc4g","pricing_plan_id":"free"},{"bike_id":"8d6cb720-708b-4d35-adbb-9126e86b6bc5","system_id":"levelo_inurba_marseille","lat":43.305989,"lon":5.37225,"is_reserved":false,"is_disabled":false,"rental_uris":{"android":"levelo://app?vid=8d6cb720-708b-4d35-adbb-9126e86b6bc5","ios":"levelo://app?vid=8d6cb720-708b-4d35-adbb-9126e86b6bc5"},"vehicle_type_id":"4","last_reported":1703005518,"current_range_meters":31600,"station_id":"ce4bgqh2rcd13ifvqc4g","pricing_plan_id":"free"},{"bike_id":"ee30195e-cdfd-4184-af91-9166a9779a09","system_id":"levelo_inurba_marseille","lat":43.311125,"lon":5.377624,"is_reserved":false,"is_disabled":false,"rental_uris":{"android":"levelo://app?vid=ee30195e-cdfd-4184-af91-9166a9779a09","ios":"levelo://app?vid=ee30195e-cdfd-4184-af91-9166a9779a09"},"vehicle_type_id":"4","last_reported":1703005518,"current_range_meters":17200,"station_id":"ce4bgt92rcd13ifvqcg0","pricing_plan_id":"free"},{"bike_id":"e0b2b221-8d1d-45e9-aa6c-90fbc7d316e7","system_id":"levelo_inurba_marseille","lat":43.307945,"lon":5.376487,"is_reserved":false,"is_disabled":false,"rental_uris":{"android":"levelo://app?vid=e0b2b221-8d1d-45e9-aa6c-90fbc7d316e7","ios":"levelo://app?vid=e0b2b221-8d1d-45e9-aa6c-90fbc7d316e7"},"vehicle_type_id":"4","last_reported":1703005518,"current_range_meters":24000,"station_id":"ce4bgv92rcd13ifvqcq0","pricing_plan_id":"free"},{"bike_id":"97fd0064-58e6-4d1a-9cc8-17e1f5960cca","system_id":"levelo_inurba_marseille","lat":43.307945,"lon":5.376487,"is_reserved":false,"is_disabled":false,"rental_uris":{"android":"levelo://app?vid=97fd0064-58e6-4d1a-9cc8-17e1f5960cca","ios":"levelo://app?vid=97fd0064-58e6-4d1a-9cc8-17e1f5960cca"},"vehicle_type_id":"4","last_reported":1703005518,"current_range_meters":20400,"station_id":"ce4bgv92rcd13ifvqcq0","pricing_plan_id":"free"},{"bike_id":"434ac7bc-c4ee-4178-8066-57cd65d9dfc7","system_id":"levelo_inurba_marseille","lat":43.31388,"lon":5.37975,"is_reserved":false,"is_disabled":false,"rental_uris":{"android":"levelo://app?vid=434ac7bc-c4ee-4178-8066-57cd65d9dfc7","ios":"levelo://app?vid=434ac7bc-c4ee-4178-8066-57cd65d9dfc7"},"vehicle_type_id":"4","last_reported":1703005518,"current_range_meters":3200,"station_id":"","pricing_plan_id":"free"},{"bike_id":"3554a654-4ed0-45e4-800a-c1aa208f1a32","system_id":"levelo_inurba_marseille","lat":43.303046,"lon":5.368981,"is_reserved":false,"is_disabled":false,"rental_uris":{"android":"levelo://app?vid=3554a654-4ed0-45e4-800a-c1aa208f1a32","ios":"levelo://app?vid=3554a654-4ed0-45e4-800a-c1aa208f1a32"},"vehicle_type_id":"4","last_reported":1703005518,"current_range_meters":24400,"station_id":"ce4bgqh2rcd13ifvqc5g","pricing_plan_id":"free"},{"bike_id":"80ccea47-e2cc-4321-b9b2-a6a2b90fc8e5","system_id":"levelo_inurba_marseille","lat":43.308012,"lon":5.381511,"is_reserved":false,"is_disabled":false,"rental_uris":{"android":"levelo://app?vid=80ccea47-e2cc-4321-b9b2-a6a2b90fc8e5","ios":"levelo://app?vid=80ccea47-e2cc-4321-b9b2-a6a2b90fc8e5"},"vehicle_type_id":"4","last_reported":1703005518,"current_range_meters":8000,"station_id":"ce4bgt12rcd13ifvqce0","pricing_plan_id":"free"},{"bike_id":"8e5ff6d4-5cbe-4714-b3e9-2ac932598430","system_id":"levelo_inurba_marseille","lat":43.308012,"lon":5.381511,"is_reserved":false,"is_disabled":false,"rental_uris":{"android":"levelo://app?vid=8e5ff6d4-5cbe-4714-b3e9-2ac932598430","ios":"levelo://app?vid=8e5ff6d4-5cbe-4714-b3e9-2ac932598430"},"vehicle_type_id":"4","last_reported":1703005518,"current_range_meters":13600,"station_id":"ce4bgt12rcd13ifvqce0","pricing_plan_id":"free"},{"bike_id":"e58a0e4a-4466-4d25-b1c5-4eb13f76ae92","system_id":"levelo_inurba_marseille","lat":43.301429,"lon":5.37413,"is_reserved":false,"is_disabled":false,"rental_uris":{"android":"levelo://app?vid=e58a0e4a-4466-4d25-b1c5-4eb13f76ae92","ios":"levelo://app?vid=e58a0e4a-4466-4d25-b1c5-4eb13f76ae92"},"vehicle_type_id":"4","last_reported":1703005518,"current_range_meters":0,"station_id":"ce4bgs92rcd13ifvqcc0","pricing_plan_id":"free"},{"bike_id":"1d47b93b-fec2-43c7-b08d-ef8c42c093e5","system_id":"levelo_inurba_marseille","lat":43.319935,"lon":5.381699,"is_reserved":false,"is_disabled":false,"rental_uris":{"android":"levelo://app?vid=1d47b93b-fec2-43c7-b08d-ef8c42c093e5","ios":"levelo://app?vid=1d47b93b-fec2-43c7-b08d-ef8c42c093e5"},"vehicle_type_id":"4","last_reported":1703005518,"current_range_meters":25200,"station_id":"ce4bhr12rcd13ifvqhpg","pricing_plan_id":"free"},{"bike_id":"ff61b42d-58ff-4b73-913b-03f3caec66e0","system_id":"levelo_inurba_marseille","lat":43.319935,"lon":5.381699,"is_reserved":false,"is_disabled":false,"rental_uris":{"android":"levelo://app?vid=ff61b42d-58ff-4b73-913b-03f3caec66e0","ios":"levelo://app?vid=ff61b42d-58ff-4b73-913b-03f3caec66e0"},"vehicle_type_id":"4","last_reported":1703005518,"current_range_meters":26400,"station_id":"ce4bhr12rcd13ifvqhpg","pricing_plan_id":"free"},{"bike_id":"9ba98b26-e12e-48fb-a575-24e5c6bef54e","system_id":"levelo_inurba_marseille","lat":43.31367,"lon":5.38489,"is_reserved":false,"is_disabled":false,"rental_uris":{"android":"levelo://app?vid=9ba98b26-e12e-48fb-a575-24e5c6bef54e","ios":"levelo://app?vid=9ba98b26-e12e-48fb-a575-24e5c6bef54e"},"vehicle_type_id":"4","last_reported":1703005518,"current_range_meters":25200,"station_id":"ce4bgt92rcd13ifvqcf0","pricing_plan_id":"free"},{"bike_id":"61a6921e-2f41-4e83-b64e-bdd7a1c6ee77","system_id":"levelo_inurba_marseille","lat":43.31363,"lon":5.38491,"is_reserved":false,"is_disabled":false,"rental_uris":{"android":"levelo://app?vid=61a6921e-2f41-4e83-b64e-bdd7a1c6ee77","ios":"levelo://app?vid=61a6921e-2f41-4e83-b64e-bdd7a1c6ee77"},"vehicle_type_id":"4","last_reported":1703005518,"current_range_meters":1200,"station_id":"ce4bgt92rcd13ifvqcf0","pricing_plan_id":"free"},{"bike_id":"49e6fbff-48ad-4699-b140-c3ec3f3115ad","system_id":"levelo_inurba_marseille","lat":43.313571,"lon":5.384829,"is_reserved":false,"is_disabled":false,"rental_uris":{"android":"levelo://app?vid=49e6fbff-48ad-4699-b140-c3ec3f3115ad","ios":"levelo://app?vid=49e6fbff-48ad-4699-b140-c3ec3f3115ad"},"vehicle_type_id":"4","last_reported":1703005518,"current_range_meters":26000,"station_id":"ce4bgt92rcd13ifvqcf0","pricing_plan_id":"free"},{"bike_id":"3b9290ca-df0b-4a21-9f2b-50d24f2dd605","system_id":"levelo_inurba_marseille","lat":43.313571,"lon":5.384829,"is_reserved":false,"is_disabled":false,"rental_uris":{"android":"levelo://app?vid=3b9290ca-df0b-4a21-9f2b-50d24f2dd605","ios":"levelo://app?vid=3b9290ca-df0b-4a21-9f2b-50d24f2dd605"},"vehicle_type_id":"4","last_reported":1703005518,"current_range_meters":26400,"station_id":"ce4bgt92rcd13ifvqcf0","pricing_plan_id":"free"},{"bike_id":"8fae39fe-f351-4775-bf17-ce9800288018","system_id":"levelo_inurba_marseille","lat":43.313571,"lon":5.384829,"is_reserved":false,"is_disabled":false,"rental_uris":{"android":"levelo://app?vid=8fae39fe-f351-4775-bf17-ce9800288018","ios":"levelo://app?vid=8fae39fe-f351-4775-bf17-ce9800288018"},"vehicle_type_id":"4","last_reported":1703005518,"current_range_meters":31200,"station_id":"ce4bgt92rcd13ifvqcf0","pricing_plan_id":"free"},{"bike_id":"b94bc742-e48d-40ea-9ed4-e39890955bc0","system_id":"levelo_inurba_marseille","lat":43.31359,"lon":5.38497,"is_reserved":false,"is_disabled":false,"rental_uris":{"android":"levelo://app?vid=b94bc742-e48d-40ea-9ed4-e39890955bc0","ios":"levelo://app?vid=b94bc742-e48d-40ea-9ed4-e39890955bc0"},"vehicle_type_id":"4","last_reported":1703005518,"current_range_meters":26800,"station_id":"ce4bgt92rcd13ifvqcf0","pricing_plan_id":"free"},{"bike_id":"8fc63f90-e42f-45a5-8ef8-f3e9aca8ac5d","system_id":"levelo_inurba_marseille","lat":43.313571,"lon":5.384829,"is_reserved":false,"is_disabled":false,"rental_uris":{"android":"levelo://app?vid=8fc63f90-e42f-45a5-8ef8-f3e9aca8ac5d","ios":"levelo://app?vid=8fc63f90-e42f-45a5-8ef8-f3e9aca8ac5d"},"vehicle_type_id":"4","last_reported":1703005518,"current_range_meters":25200,"station_id":"ce4bgt92rcd13ifvqcf0","pricing_plan_id":"free"},{"bike_id":"9d72f84c-e239-4de9-a8d1-b1964ce4b190","system_id":"levelo_inurba_marseille","lat":43.313571,"lon":5.384829,"is_reserved":false,"is_disabled":false,"rental_uris":{"android":"levelo://app?vid=9d72f84c-e239-4de9-a8d1-b1964ce4b190","ios":"levelo://app?vid=9d72f84c-e239-4de9-a8d1-b1964ce4b190"},"vehicle_type_id":"4","last_reported":1703005518,"current_range_meters":29600,"station_id":"ce4bgt92rcd13ifvqcf0","pricing_plan_id":"free"},{"bike_id":"1d405565-81fe-483d-b06d-9ddd014114e3","system_id":"levelo_inurba_marseille","lat":43.313571,"lon":5.384829,"is_reserved":false,"is_disabled":false,"rental_uris":{"android":"levelo://app?vid=1d405565-81fe-483d-b06d-9ddd014114e3","ios":"levelo://app?vid=1d405565-81fe-483d-b06d-9ddd014114e3"},"vehicle_type_id":"4","last_reported":1703005518,"current_range_meters":31600,"station_id":"ce4bgt92rcd13ifvqcf0","pricing_plan_id":"free"},{"bike_id":"01ee7429-cfde-4b62-856f-75cf388216af","system_id":"levelo_inurba_marseille","lat":43.313571,"lon":5.384829,"is_reserved":false,"is_disabled":false,"rental_uris":{"android":"levelo://app?vid=01ee7429-cfde-4b62-856f-75cf388216af","ios":"levelo://app?vid=01ee7429-cfde-4b62-856f-75cf388216af"},"vehicle_type_id":"4","last_reported":1703005518,"current_range_meters":28400,"station_id":"ce4bgt92rcd13ifvqcf0","pricing_plan_id":"free"},{"bike_id":"93e3f275-51de-4ff5-beb2-171840114c6c","system_id":"levelo_inurba_marseille","lat":43.313571,"lon":5.384829,"is_reserved":false,"is_disabled":false,"rental_uris":{"android":"levelo://app?vid=93e3f275-51de-4ff5-beb2-171840114c6c","ios":"levelo://app?vid=93e3f275-51de-4ff5-beb2-171840114c6c"},"vehicle_type_id":"4","last_reported":1703005518,"current_range_meters":20800,"station_id":"ce4bgt92rcd13ifvqcf0","pricing_plan_id":"free"},{"bike_id":"1f9ee468-6986-488d-837b-9248feb85cf8","system_id":"levelo_inurba_marseille","lat":43.3137,"lon":5.38502,"is_reserved":false,"is_disabled":false,"rental_uris":{"android":"levelo://app?vid=1f9ee468-6986-488d-837b-9248feb85cf8","ios":"levelo://app?vid=1f9ee468-6986-488d-837b-9248feb85cf8"},"vehicle_type_id":"4","last_reported":1703005518,"current_range_meters":31200,"station_id":"ce4bgt92rcd13ifvqcf0","pricing_plan_id":"free"},{"bike_id":"5a7a5f49-f310-47bf-b0d7-3797701299c4","system_id":"levelo_inurba_marseille","lat":43.305364,"lon":5.384119,"is_reserved":false,"is_disabled":false,"rental_uris":{"android":"levelo://app?vid=5a7a5f49-f310-47bf-b0d7-3797701299c4","ios":"levelo://app?vid=5a7a5f49-f310-47bf-b0d7-3797701299c4"},"vehicle_type_id":"4","last_reported":1703005518,"current_range_meters":23200,"station_id":"ce4bgg92rcd13ifvqb30","pricing_plan_id":"free"},{"bike_id":"c5fb8244-5d1c-40fe-a905-e86a9cae7cc9","system_id":"levelo_inurba_marseille","lat":43.298433,"lon":5.362774,"is_reserved":false,"is_disabled":false,"rental_uris":{"android":"levelo://app?vid=c5fb8244-5d1c-40fe-a905-e86a9cae7cc9","ios":"levelo://app?vid=c5fb8244-5d1c-40fe-a905-e86a9cae7cc9"},"vehicle_type_id":"4","last_reported":1703005518,"current_range_meters":15200,"station_id":"ce4bgpp2rcd13ifvqc3g","pricing_plan_id":"free"},{"bike_id":"437e1bac-70af-4de7-819a-9a7f33c9162a","system_id":"levelo_inurba_marseille","lat":43.298433,"lon":5.362774,"is_reserved":false,"is_disabled":false,"rental_uris":{"android":"levelo://app?vid=437e1bac-70af-4de7-819a-9a7f33c9162a","ios":"levelo://app?vid=437e1bac-70af-4de7-819a-9a7f33c9162a"},"vehicle_type_id":"4","last_reported":1703005518,"current_range_meters":7200,"station_id":"ce4bgpp2rcd13ifvqc3g","pricing_plan_id":"free"},{"bike_id":"b317b12d-0aa1-49a8-81d2-f90919ef3140","system_id":"levelo_inurba_marseille","lat":43.299243,"lon":5.374807,"is_reserved":false,"is_disabled":false,"rental_uris":{"android":"levelo://app?vid=b317b12d-0aa1-49a8-81d2-f90919ef3140","ios":"levelo://app?vid=b317b12d-0aa1-49a8-81d2-f90919ef3140"},"vehicle_type_id":"4","last_reported":1703005518,"current_range_meters":6400,"station_id":"ce4bgjh2rcd13ifvqbg0","pricing_plan_id":"free"},{"bike_id":"a2a821e1-a4d1-4cf4-b600-769148036426","system_id":"levelo_inurba_marseille","lat":43.311722,"lon":5.387247,"is_reserved":false,"is_disabled":false,"rental_uris":{"android":"levelo://app?vid=a2a821e1-a4d1-4cf4-b600-769148036426","ios":"levelo://app?vid=a2a821e1-a4d1-4cf4-b600-769148036426"},"vehicle_type_id":"4","last_reported":1703005518,"current_range_meters":29200,"station_id":"ce4bgv12rcd13ifvqcp0","pricing_plan_id":"free"},{"bike_id":"594bea8f-7f4a-4609-8e99-e95c0d89ceda","system_id":"levelo_inurba_marseille","lat":43.311722,"lon":5.387247,"is_reserved":false,"is_disabled":false,"rental_uris":{"android":"levelo://app?vid=594bea8f-7f4a-4609-8e99-e95c0d89ceda","ios":"levelo://app?vid=594bea8f-7f4a-4609-8e99-e95c0d89ceda"},"vehicle_type_id":"4","last_reported":1703005518,"current_range_meters":30800,"station_id":"ce4bgv12rcd13ifvqcp0","pricing_plan_id":"free"},{"bike_id":"ca0834b0-077b-48e5-8d61-d563b65c06e3","system_id":"levelo_inurba_marseille","lat":43.305476,"lon":5.384555,"is_reserved":false,"is_disabled":false,"rental_uris":{"android":"levelo://app?vid=ca0834b0-077b-48e5-8d61-d563b65c06e3","ios":"levelo://app?vid=ca0834b0-077b-48e5-8d61-d563b65c06e3"},"vehicle_type_id":"4","last_reported":1703005518,"current_range_meters":2400,"station_id":"ce4bgg92rcd13ifvqb30","pricing_plan_id":"free"},{"bike_id":"7569f7a5-dbb7-4770-aeb2-e32f07635f6f","system_id":"levelo_inurba_marseille","lat":43.311722,"lon":5.387247,"is_reserved":false,"is_disabled":false,"rental_uris":{"android":"levelo://app?vid=7569f7a5-dbb7-4770-aeb2-e32f07635f6f","ios":"levelo://app?vid=7569f7a5-dbb7-4770-aeb2-e32f07635f6f"},"vehicle_type_id":"4","last_reported":1703005518,"current_range_meters":31200,"station_id":"ce4bgv12rcd13ifvqcp0","pricing_plan_id":"free"},{"bike_id":"067984ff-8481-4891-8efe-10bbed82dbd3","system_id":"levelo_inurba_marseille","lat":43.31167,"lon":5.38718,"is_reserved":false,"is_disabled":false,"rental_uris":{"android":"levelo://app?vid=067984ff-8481-4891-8efe-10bbed82dbd3","ios":"levelo://app?vid=067984ff-8481-4891-8efe-10bbed82dbd3"},"vehicle_type_id":"4","last_reported":1703005518,"current_range_meters":27200,"station_id":"ce4bgv12rcd13ifvqcp0","pricing_plan_id":"free"},{"bike_id":"f0fb0216-f098-4b37-9bdf-165487ad8530","system_id":"levelo_inurba_marseille","lat":43.311722,"lon":5.387247,"is_reserved":false,"is_disabled":false,"rental_uris":{"android":"levelo://app?vid=f0fb0216-f098-4b37-9bdf-165487ad8530","ios":"levelo://app?vid=f0fb0216-f098-4b37-9bdf-165487ad8530"},"vehicle_type_id":"4","last_reported":1703005518,"current_range_meters":10800,"station_id":"ce4bgv12rcd13ifvqcp0","pricing_plan_id":"free"},{"bike_id":"65b8a907-9c66-4690-8361-70f4b576d052","system_id":"levelo_inurba_marseille","lat":43.297798,"lon":5.371032,"is_reserved":false,"is_disabled":false,"rental_uris":{"android":"levelo://app?vid=65b8a907-9c66-4690-8361-70f4b576d052","ios":"levelo://app?vid=65b8a907-9c66-4690-8361-70f4b576d052"},"vehicle_type_id":"4","last_reported":1703005518,"current_range_meters":0,"station_id":"ce4bgop2rcd13ifvqc1g","pricing_plan_id":"free"},{"bike_id":"873a287b-4e8b-4542-834f-91bce629838e","system_id":"levelo_inurba_marseille","lat":43.322872,"lon":5.382756,"is_reserved":false,"is_disabled":false,"rental_uris":{"android":"levelo://app?vid=873a287b-4e8b-4542-834f-91bce629838e","ios":"levelo://app?vid=873a287b-4e8b-4542-834f-91bce629838e"},"vehicle_type_id":"4","last_reported":1703005518,"current_range_meters":24800,"station_id":"ce4bhr12rcd13ifvqhqg","pricing_plan_id":"free"},{"bike_id":"baee2575-8a26-47ab-a7b1-f2ffa11f77c5","system_id":"levelo_inurba_marseille","lat":43.322872,"lon":5.382756,"is_reserved":false,"is_disabled":false,"rental_uris":{"android":"levelo://app?vid=baee2575-8a26-47ab-a7b1-f2ffa11f77c5","ios":"levelo://app?vid=baee2575-8a26-47ab-a7b1-f2ffa11f77c5"},"vehicle_type_id":"4","last_reported":1703005518,"current_range_meters":14000,"station_id":"ce4bhr12rcd13ifvqhqg","pricing_plan_id":"free"},{"bike_id":"d6acffa9-1d1f-42e6-8d01-ac81190b6d3a","system_id":"levelo_inurba_marseille","lat":43.297163,"lon":5.365866,"is_reserved":false,"is_disabled":false,"rental_uris":{"android":"levelo://app?vid=d6acffa9-1d1f-42e6-8d01-ac81190b6d3a","ios":"levelo://app?vid=d6acffa9-1d1f-42e6-8d01-ac81190b6d3a"},"vehicle_type_id":"4","last_reported":1703005518,"current_range_meters":16800,"station_id":"ce4bgn12rcd13ifvqbt0","pricing_plan_id":"free"},{"bike_id":"652a0fbd-8bff-4d9f-8e4f-12db4251f747","system_id":"levelo_inurba_marseille","lat":43.297163,"lon":5.365866,"is_reserved":false,"is_disabled":false,"rental_uris":{"android":"levelo://app?vid=652a0fbd-8bff-4d9f-8e4f-12db4251f747","ios":"levelo://app?vid=652a0fbd-8bff-4d9f-8e4f-12db4251f747"},"vehicle_type_id":"4","last_reported":1703005518,"current_range_meters":15200,"station_id":"ce4bgn12rcd13ifvqbt0","pricing_plan_id":"free"},{"bike_id":"143e9672-0e43-471b-bea3-216cf1df08dc","system_id":"levelo_inurba_marseille","lat":43.297163,"lon":5.365866,"is_reserved":false,"is_disabled":false,"rental_uris":{"android":"levelo://app?vid=143e9672-0e43-471b-bea3-216cf1df08dc","ios":"levelo://app?vid=143e9672-0e43-471b-bea3-216cf1df08dc"},"vehicle_type_id":"4","last_reported":1703005518,"current_range_meters":19600,"station_id":"ce4bgn12rcd13ifvqbt0","pricing_plan_id":"free"},{"bike_id":"1db7644f-eec0-4f7b-8122-f24f401eb120","system_id":"levelo_inurba_marseille","lat":43.296129,"lon":5.370777,"is_reserved":false,"is_disabled":false,"rental_uris":{"android":"levelo://app?vid=1db7644f-eec0-4f7b-8122-f24f401eb120","ios":"levelo://app?vid=1db7644f-eec0-4f7b-8122-f24f401eb120"},"vehicle_type_id":"4","last_reported":1703005518,"current_range_meters":4400,"station_id":"ce4bgnh2rcd13ifvqc0g","pricing_plan_id":"free"},{"bike_id":"7403d9ba-9eff-462b-9eb1-096cc5a405b9","system_id":"levelo_inurba_marseille","lat":43.296129,"lon":5.370777,"is_reserved":false,"is_disabled":false,"rental_uris":{"android":"levelo://app?vid=7403d9ba-9eff-462b-9eb1-096cc5a405b9","ios":"levelo://app?vid=7403d9ba-9eff-462b-9eb1-096cc5a405b9"},"vehicle_type_id":"4","last_reported":1703005518,"current_range_meters":23600,"station_id":"ce4bgnh2rcd13ifvqc0g","pricing_plan_id":"free"},{"bike_id":"469c5e7a-2650-42cd-a8af-3cdf2510e7fc","system_id":"levelo_inurba_marseille","lat":43.296935,"lon":5.376544,"is_reserved":false,"is_disabled":false,"rental_uris":{"android":"levelo://app?vid=469c5e7a-2650-42cd-a8af-3cdf2510e7fc","ios":"levelo://app?vid=469c5e7a-2650-42cd-a8af-3cdf2510e7fc"},"vehicle_type_id":"4","last_reported":1703005518,"current_range_meters":16000,"station_id":"ce4bgkh2rcd13ifvqbl0","pricing_plan_id":"free"},{"bike_id":"b9ef0963-80d2-48e7-b32d-e4479f731998","system_id":"levelo_inurba_marseille","lat":43.309589,"lon":5.390258,"is_reserved":false,"is_disabled":false,"rental_uris":{"android":"levelo://app?vid=b9ef0963-80d2-48e7-b32d-e4479f731998","ios":"levelo://app?vid=b9ef0963-80d2-48e7-b32d-e4479f731998"},"vehicle_type_id":"4","last_reported":1703005518,"current_range_meters":28400,"station_id":"ce4bgup2rcd13ifvqco0","pricing_plan_id":"free"},{"bike_id":"8b309efd-acdb-46d9-9d24-1cfde628d883","system_id":"levelo_inurba_marseille","lat":43.309589,"lon":5.390258,"is_reserved":false,"is_disabled":false,"rental_uris":{"android":"levelo://app?vid=8b309efd-acdb-46d9-9d24-1cfde628d883","ios":"levelo://app?vid=8b309efd-acdb-46d9-9d24-1cfde628d883"},"vehicle_type_id":"4","last_reported":1703005518,"current_range_meters":28400,"station_id":"ce4bgup2rcd13ifvqco0","pricing_plan_id":"free"},{"bike_id":"066dffac-9e9f-4aed-bd0c-8923ffd186a0","system_id":"levelo_inurba_marseille","lat":43.309581,"lon":5.390275,"is_reserved":false,"is_disabled":false,"rental_uris":{"android":"levelo://app?vid=066dffac-9e9f-4aed-bd0c-8923ffd186a0","ios":"levelo://app?vid=066dffac-9e9f-4aed-bd0c-8923ffd186a0"},"vehicle_type_id":"4","last_reported":1703005518,"current_range_meters":19200,"station_id":"","pricing_plan_id":"free"},{"bike_id":"519ff7f2-9f23-4f6b-9069-503f30d5628b","system_id":"levelo_inurba_marseille","lat":43.30956,"lon":5.39028,"is_reserved":false,"is_disabled":false,"rental_uris":{"android":"levelo://app?vid=519ff7f2-9f23-4f6b-9069-503f30d5628b","ios":"levelo://app?vid=519ff7f2-9f23-4f6b-9069-503f30d5628b"},"vehicle_type_id":"4","last_reported":1703005518,"current_range_meters":30000,"station_id":"ce4bgup2rcd13ifvqco0","pricing_plan_id":"free"},{"bike_id":"1e4da2f1-feac-43f1-a637-418a078a722a","system_id":"levelo_inurba_marseille","lat":43.299028,"lon":5.381509,"is_reserved":false,"is_disabled":false,"rental_uris":{"android":"levelo://app?vid=1e4da2f1-feac-43f1-a637-418a078a722a","ios":"levelo://app?vid=1e4da2f1-feac-43f1-a637-418a078a722a"},"vehicle_type_id":"4","last_reported":1703005518,"current_range_meters":16400,"station_id":"ce4bgj12rcd13ifvqbc0","pricing_plan_id":"free"},{"bike_id":"248a2547-4f3f-4f6e-a924-7df14abc062e","system_id":"levelo_inurba_marseille","lat":43.30957,"lon":5.39035,"is_reserved":false,"is_disabled":false,"rental_uris":{"android":"levelo://app?vid=248a2547-4f3f-4f6e-a924-7df14abc062e","ios":"levelo://app?vid=248a2547-4f3f-4f6e-a924-7df14abc062e"},"vehicle_type_id":"4","last_reported":1703005518,"current_range_meters":25600,"station_id":"ce4bgup2rcd13ifvqco0","pricing_plan_id":"free"},{"bike_id":"8319249b-1d61-45b1-bdca-04f2b66795f8","system_id":"levelo_inurba_marseille","lat":43.309589,"lon":5.390258,"is_reserved":false,"is_disabled":false,"rental_uris":{"android":"levelo://app?vid=8319249b-1d61-45b1-bdca-04f2b66795f8","ios":"levelo://app?vid=8319249b-1d61-45b1-bdca-04f2b66795f8"},"vehicle_type_id":"4","last_reported":1703005518,"current_range_meters":28400,"station_id":"ce4bgup2rcd13ifvqco0","pricing_plan_id":"free"},{"bike_id":"448a7bcf-befd-4419-b82e-f07a4c5c7569","system_id":"levelo_inurba_marseille","lat":43.309589,"lon":5.390258,"is_reserved":false,"is_disabled":false,"rental_uris":{"android":"levelo://app?vid=448a7bcf-befd-4419-b82e-f07a4c5c7569","ios":"levelo://app?vid=448a7bcf-befd-4419-b82e-f07a4c5c7569"},"vehicle_type_id":"4","last_reported":1703005518,"current_range_meters":7200,"station_id":"ce4bgup2rcd13ifvqco0","pricing_plan_id":"free"},{"bike_id":"52fc2f30-afc2-4a55-a9f0-f1cc7d1f69c5","system_id":"levelo_inurba_marseille","lat":43.309589,"lon":5.390258,"is_reserved":false,"is_disabled":false,"rental_uris":{"android":"levelo://app?vid=52fc2f30-afc2-4a55-a9f0-f1cc7d1f69c5","ios":"levelo://app?vid=52fc2f30-afc2-4a55-a9f0-f1cc7d1f69c5"},"vehicle_type_id":"4","last_reported":1703005518,"current_range_meters":29200,"station_id":"ce4bgup2rcd13ifvqco0","pricing_plan_id":"free"},{"bike_id":"16add7a7-e139-49ef-9c2c-0df2b639abbd","system_id":"levelo_inurba_marseille","lat":43.31755,"lon":5.39021,"is_reserved":false,"is_disabled":false,"rental_uris":{"android":"levelo://app?vid=16add7a7-e139-49ef-9c2c-0df2b639abbd","ios":"levelo://app?vid=16add7a7-e139-49ef-9c2c-0df2b639abbd"},"vehicle_type_id":"4","last_reported":1703005518,"current_range_meters":20000,"station_id":"ce4bhqp2rcd13ifvqhng","pricing_plan_id":"free"},{"bike_id":"40554fe8-87bf-41d5-b75a-7fd0e2ec929c","system_id":"levelo_inurba_marseille","lat":43.317557,"lon":5.390173,"is_reserved":false,"is_disabled":false,"rental_uris":{"android":"levelo://app?vid=40554fe8-87bf-41d5-b75a-7fd0e2ec929c","ios":"levelo://app?vid=40554fe8-87bf-41d5-b75a-7fd0e2ec929c"},"vehicle_type_id":"4","last_reported":1703005518,"current_range_meters":31200,"station_id":"ce4bhqp2rcd13ifvqhng","pricing_plan_id":"free"},{"bike_id":"11dc3845-24ab-451d-9986-bc310c3302e6","system_id":"levelo_inurba_marseille","lat":43.298037,"lon":5.381066,"is_reserved":false,"is_disabled":false,"rental_uris":{"android":"levelo://app?vid=11dc3845-24ab-451d-9986-bc310c3302e6","ios":"levelo://app?vid=11dc3845-24ab-451d-9986-bc310c3302e6"},"vehicle_type_id":"4","last_reported":1703005518,"current_range_meters":19600,"station_id":"ce4bgip2rcd13ifvqbb0","pricing_plan_id":"free"},{"bike_id":"1adbf434-374c-4d10-b9c1-b7bdbe902c2a","system_id":"levelo_inurba_marseille","lat":43.295748,"lon":5.37522,"is_reserved":false,"is_disabled":false,"rental_uris":{"android":"levelo://app?vid=1adbf434-374c-4d10-b9c1-b7bdbe902c2a","ios":"levelo://app?vid=1adbf434-374c-4d10-b9c1-b7bdbe902c2a"},"vehicle_type_id":"4","last_reported":1703005518,"current_range_meters":0,"station_id":"ce4bgh92rcd13ifvqb50","pricing_plan_id":"free"},{"bike_id":"d1f4334b-f060-42fa-8486-2b797224f226","system_id":"levelo_inurba_marseille","lat":43.304278,"lon":5.388868,"is_reserved":false,"is_disabled":false,"rental_uris":{"android":"levelo://app?vid=d1f4334b-f060-42fa-8486-2b797224f226","ios":"levelo://app?vid=d1f4334b-f060-42fa-8486-2b797224f226"},"vehicle_type_id":"4","last_reported":1703005518,"current_range_meters":9200,"station_id":"ce4bgk12rcd13ifvqbi0","pricing_plan_id":"free"},{"bike_id":"fa3626dd-811e-437b-86ac-59e1658b051f","system_id":"levelo_inurba_marseille","lat":43.299707,"lon":5.384859,"is_reserved":false,"is_disabled":false,"rental_uris":{"android":"levelo://app?vid=fa3626dd-811e-437b-86ac-59e1658b051f","ios":"levelo://app?vid=fa3626dd-811e-437b-86ac-59e1658b051f"},"vehicle_type_id":"4","last_reported":1703005518,"current_range_meters":7600,"station_id":"ce4bgj92rcd13ifvqbd0","pricing_plan_id":"free"},{"bike_id":"1853d2f7-ee9e-4250-a0b3-f9c52dd6eee9","system_id":"levelo_inurba_marseille","lat":43.299707,"lon":5.384859,"is_reserved":false,"is_disabled":false,"rental_uris":{"android":"levelo://app?vid=1853d2f7-ee9e-4250-a0b3-f9c52dd6eee9","ios":"levelo://app?vid=1853d2f7-ee9e-4250-a0b3-f9c52dd6eee9"},"vehicle_type_id":"4","last_reported":1703005518,"current_range_meters":12000,"station_id":"ce4bgj92rcd13ifvqbd0","pricing_plan_id":"free"},{"bike_id":"e577d7c9-0d1b-4e33-a42f-0f6492fe33dc","system_id":"levelo_inurba_marseille","lat":43.299707,"lon":5.384859,"is_reserved":false,"is_disabled":false,"rental_uris":{"android":"levelo://app?vid=e577d7c9-0d1b-4e33-a42f-0f6492fe33dc","ios":"levelo://app?vid=e577d7c9-0d1b-4e33-a42f-0f6492fe33dc"},"vehicle_type_id":"4","last_reported":1703005518,"current_range_meters":4400,"station_id":"ce4bgj92rcd13ifvqbd0","pricing_plan_id":"free"},{"bike_id":"c6caf7f8-66f1-4a29-8753-d998fa6a3859","system_id":"levelo_inurba_marseille","lat":43.32365,"lon":5.38878,"is_reserved":false,"is_disabled":false,"rental_uris":{"android":"levelo://app?vid=c6caf7f8-66f1-4a29-8753-d998fa6a3859","ios":"levelo://app?vid=c6caf7f8-66f1-4a29-8753-d998fa6a3859"},"vehicle_type_id":"4","last_reported":1703005518,"current_range_meters":30800,"station_id":"ce4bhqp2rcd13ifvqhog","pricing_plan_id":"free"},{"bike_id":"70fda661-87d6-419e-9b40-f9c4076436b5","system_id":"levelo_inurba_marseille","lat":43.32367,"lon":5.388836,"is_reserved":false,"is_disabled":false,"rental_uris":{"android":"levelo://app?vid=70fda661-87d6-419e-9b40-f9c4076436b5","ios":"levelo://app?vid=70fda661-87d6-419e-9b40-f9c4076436b5"},"vehicle_type_id":"4","last_reported":1703005518,"current_range_meters":31200,"station_id":"ce4bhqp2rcd13ifvqhog","pricing_plan_id":"free"},{"bike_id":"f6c944ac-76c5-4af7-bad2-2080808a45f4","system_id":"levelo_inurba_marseille","lat":43.32367,"lon":5.388836,"is_reserved":false,"is_disabled":false,"rental_uris":{"android":"levelo://app?vid=f6c944ac-76c5-4af7-bad2-2080808a45f4","ios":"levelo://app?vid=f6c944ac-76c5-4af7-bad2-2080808a45f4"},"vehicle_type_id":"4","last_reported":1703005518,"current_range_meters":3200,"station_id":"ce4bhqp2rcd13ifvqhog","pricing_plan_id":"free"},{"bike_id":"3d4a41a1-01b2-4829-94b3-f9c82974da0b","system_id":"levelo_inurba_marseille","lat":43.292749,"lon":5.368398,"is_reserved":false,"is_disabled":false,"rental_uris":{"android":"levelo://app?vid=3d4a41a1-01b2-4829-94b3-f9c82974da0b","ios":"levelo://app?vid=3d4a41a1-01b2-4829-94b3-f9c82974da0b"},"vehicle_type_id":"4","last_reported":1703005518,"current_range_meters":1600,"station_id":"ce4bhbp2rcd13ifvqesg","pricing_plan_id":"free"},{"bike_id":"fb1ce02c-3e2b-46ed-b106-f7cf5dcf76e5","system_id":"levelo_inurba_marseille","lat":43.293009,"lon":5.374584,"is_reserved":false,"is_disabled":false,"rental_uris":{"android":"levelo://app?vid=fb1ce02c-3e2b-46ed-b106-f7cf5dcf76e5","ios":"levelo://app?vid=fb1ce02c-3e2b-46ed-b106-f7cf5dcf76e5"},"vehicle_type_id":"4","last_reported":1703005518,"current_range_meters":19200,"station_id":"ce4bgi12rcd13ifvqb70","pricing_plan_id":"free"},{"bike_id":"5bf71405-92cf-48b3-bdb9-c141f8d22e54","system_id":"levelo_inurba_marseille","lat":43.29295,"lon":5.374575,"is_reserved":false,"is_disabled":false,"rental_uris":{"android":"levelo://app?vid=5bf71405-92cf-48b3-bdb9-c141f8d22e54","ios":"levelo://app?vid=5bf71405-92cf-48b3-bdb9-c141f8d22e54"},"vehicle_type_id":"4","last_reported":1703005518,"current_range_meters":29600,"station_id":"ce4bgi12rcd13ifvqb70","pricing_plan_id":"free"},{"bike_id":"480c6e0b-f229-486c-af81-fd54accec5b7","system_id":"levelo_inurba_marseille","lat":43.29283,"lon":5.3746,"is_reserved":false,"is_disabled":false,"rental_uris":{"android":"levelo://app?vid=480c6e0b-f229-486c-af81-fd54accec5b7","ios":"levelo://app?vid=480c6e0b-f229-486c-af81-fd54accec5b7"},"vehicle_type_id":"4","last_reported":1703005518,"current_range_meters":28800,"station_id":"ce4bgi12rcd13ifvqb70","pricing_plan_id":"free"},{"bike_id":"81d3af7c-aa47-4e8d-9dde-bbefe7655c00","system_id":"levelo_inurba_marseille","lat":43.292311,"lon":5.360731,"is_reserved":false,"is_disabled":false,"rental_uris":{"android":"levelo://app?vid=81d3af7c-aa47-4e8d-9dde-bbefe7655c00","ios":"levelo://app?vid=81d3af7c-aa47-4e8d-9dde-bbefe7655c00"},"vehicle_type_id":"4","last_reported":1703005518,"current_range_meters":30800,"station_id":"ce4bhbh2rcd13ifvqeqg","pricing_plan_id":"free"},{"bike_id":"9fb85658-8c23-43fa-9153-4e93655a2b5d","system_id":"levelo_inurba_marseille","lat":43.300852,"lon":5.390859,"is_reserved":false,"is_disabled":false,"rental_uris":{"android":"levelo://app?vid=9fb85658-8c23-43fa-9153-4e93655a2b5d","ios":"levelo://app?vid=9fb85658-8c23-43fa-9153-4e93655a2b5d"},"vehicle_type_id":"4","last_reported":1703005518,"current_range_meters":19200,"station_id":"ce4bh192rcd13ifvqdb0","pricing_plan_id":"free"},{"bike_id":"d8c34936-381b-406d-b016-1e13e5d3b0a7","system_id":"levelo_inurba_marseille","lat":43.300961,"lon":5.390836,"is_reserved":false,"is_disabled":false,"rental_uris":{"android":"levelo://app?vid=d8c34936-381b-406d-b016-1e13e5d3b0a7","ios":"levelo://app?vid=d8c34936-381b-406d-b016-1e13e5d3b0a7"},"vehicle_type_id":"4","last_reported":1703005518,"current_range_meters":28000,"station_id":"","pricing_plan_id":"free"},{"bike_id":"67dbc710-e248-4701-92da-b94e6f063a32","system_id":"levelo_inurba_marseille","lat":43.32296,"lon":5.39245,"is_reserved":false,"is_disabled":false,"rental_uris":{"android":"levelo://app?vid=67dbc710-e248-4701-92da-b94e6f063a32","ios":"levelo://app?vid=67dbc710-e248-4701-92da-b94e6f063a32"},"vehicle_type_id":"4","last_reported":1703005518,"current_range_meters":9600,"station_id":"","pricing_plan_id":"free"},{"bike_id":"788a443f-0a16-4377-baf7-c191467b1ac0","system_id":"levelo_inurba_marseille","lat":43.29885,"lon":5.38902,"is_reserved":false,"is_disabled":false,"rental_uris":{"android":"levelo://app?vid=788a443f-0a16-4377-baf7-c191467b1ac0","ios":"levelo://app?vid=788a443f-0a16-4377-baf7-c191467b1ac0"},"vehicle_type_id":"4","last_reported":1703005518,"current_range_meters":18000,"station_id":"","pricing_plan_id":"free"},{"bike_id":"276bc40a-3cfe-440e-81f8-23ab8ddee6cd","system_id":"levelo_inurba_marseille","lat":43.291671,"lon":5.371575,"is_reserved":false,"is_disabled":false,"rental_uris":{"android":"levelo://app?vid=276bc40a-3cfe-440e-81f8-23ab8ddee6cd","ios":"levelo://app?vid=276bc40a-3cfe-440e-81f8-23ab8ddee6cd"},"vehicle_type_id":"4","last_reported":1703005518,"current_range_meters":8400,"station_id":"ce4bha92rcd13ifvqeh0","pricing_plan_id":"free"},{"bike_id":"39342fde-e2b6-4fe9-90ad-bef1999e0790","system_id":"levelo_inurba_marseille","lat":43.313291,"lon":5.396838,"is_reserved":false,"is_disabled":false,"rental_uris":{"android":"levelo://app?vid=39342fde-e2b6-4fe9-90ad-bef1999e0790","ios":"levelo://app?vid=39342fde-e2b6-4fe9-90ad-bef1999e0790"},"vehicle_type_id":"4","last_reported":1703005518,"current_range_meters":22000,"station_id":"ce4bgvp2rcd13ifvqcu0","pricing_plan_id":"free"},{"bike_id":"123f6846-4316-4d20-a0b1-d9640ea3a43d","system_id":"levelo_inurba_marseille","lat":43.313291,"lon":5.396838,"is_reserved":false,"is_disabled":false,"rental_uris":{"android":"levelo://app?vid=123f6846-4316-4d20-a0b1-d9640ea3a43d","ios":"levelo://app?vid=123f6846-4316-4d20-a0b1-d9640ea3a43d"},"vehicle_type_id":"4","last_reported":1703005518,"current_range_meters":28000,"station_id":"ce4bgvp2rcd13ifvqcu0","pricing_plan_id":"free"},{"bike_id":"8e672063-b80a-4e5c-bf41-eef17536e40a","system_id":"levelo_inurba_marseille","lat":43.313291,"lon":5.396838,"is_reserved":false,"is_disabled":false,"rental_uris":{"android":"levelo://app?vid=8e672063-b80a-4e5c-bf41-eef17536e40a","ios":"levelo://app?vid=8e672063-b80a-4e5c-bf41-eef17536e40a"},"vehicle_type_id":"4","last_reported":1703005518,"current_range_meters":31200,"station_id":"ce4bgvp2rcd13ifvqcu0","pricing_plan_id":"free"},{"bike_id":"129ec803-747a-4218-9a53-9026b91498f7","system_id":"levelo_inurba_marseille","lat":43.309047,"lon":5.396551,"is_reserved":false,"is_disabled":false,"rental_uris":{"android":"levelo://app?vid=129ec803-747a-4218-9a53-9026b91498f7","ios":"levelo://app?vid=129ec803-747a-4218-9a53-9026b91498f7"},"vehicle_type_id":"4","last_reported":1703005518,"current_range_meters":14800,"station_id":"ce4bh012rcd13ifvqcv0","pricing_plan_id":"free"},{"bike_id":"50c49121-0c48-4132-be6c-d91a92430399","system_id":"levelo_inurba_marseille","lat":43.29529,"lon":5.385581,"is_reserved":false,"is_disabled":false,"rental_uris":{"android":"levelo://app?vid=50c49121-0c48-4132-be6c-d91a92430399","ios":"levelo://app?vid=50c49121-0c48-4132-be6c-d91a92430399"},"vehicle_type_id":"4","last_reported":1703005518,"current_range_meters":2000,"station_id":"ce4bgih2rcd13ifvqba0","pricing_plan_id":"free"},{"bike_id":"fa83b5e7-4300-4210-a6b6-1cdd0011bdff","system_id":"levelo_inurba_marseille","lat":43.302008,"lon":5.394694,"is_reserved":false,"is_disabled":false,"rental_uris":{"android":"levelo://app?vid=fa83b5e7-4300-4210-a6b6-1cdd0011bdff","ios":"levelo://app?vid=fa83b5e7-4300-4210-a6b6-1cdd0011bdff"},"vehicle_type_id":"4","last_reported":1703005518,"current_range_meters":4800,"station_id":"ce4bh0p2rcd13ifvqd70","pricing_plan_id":"free"},{"bike_id":"9eee3467-f5ba-49ee-a833-4f8204072091","system_id":"levelo_inurba_marseille","lat":43.290631,"lon":5.359244,"is_reserved":false,"is_disabled":false,"rental_uris":{"android":"levelo://app?vid=9eee3467-f5ba-49ee-a833-4f8204072091","ios":"levelo://app?vid=9eee3467-f5ba-49ee-a833-4f8204072091"},"vehicle_type_id":"4","last_reported":1703005518,"current_range_meters":9200,"station_id":"ce4bha92rcd13ifvqeg0","pricing_plan_id":"free"},{"bike_id":"7bcaaf32-f5f8-4ab6-ad2c-6a77bd019b19","system_id":"levelo_inurba_marseille","lat":43.294153,"lon":5.386305,"is_reserved":false,"is_disabled":false,"rental_uris":{"android":"levelo://app?vid=7bcaaf32-f5f8-4ab6-ad2c-6a77bd019b19","ios":"levelo://app?vid=7bcaaf32-f5f8-4ab6-ad2c-6a77bd019b19"},"vehicle_type_id":"4","last_reported":1703005518,"current_range_meters":17600,"station_id":"ce4bh2h2rcd13ifvqdh0","pricing_plan_id":"free"},{"bike_id":"71e764da-1a77-4429-9e17-f73f21084086","system_id":"levelo_inurba_marseille","lat":43.292642,"lon":5.384254,"is_reserved":false,"is_disabled":false,"rental_uris":{"android":"levelo://app?vid=71e764da-1a77-4429-9e17-f73f21084086","ios":"levelo://app?vid=71e764da-1a77-4429-9e17-f73f21084086"},"vehicle_type_id":"4","last_reported":1703005518,"current_range_meters":23600,"station_id":"ce4bh692rcd13ifvqea0","pricing_plan_id":"free"},{"bike_id":"2289e397-2be7-4aa1-a2e7-c1c0bf3daab9","system_id":"levelo_inurba_marseille","lat":43.292644,"lon":5.384257,"is_reserved":false,"is_disabled":false,"rental_uris":{"android":"levelo://app?vid=2289e397-2be7-4aa1-a2e7-c1c0bf3daab9","ios":"levelo://app?vid=2289e397-2be7-4aa1-a2e7-c1c0bf3daab9"},"vehicle_type_id":"4","last_reported":1703005518,"current_range_meters":8400,"station_id":"ce4bh692rcd13ifvqea0","pricing_plan_id":"free"},{"bike_id":"fc1dcb35-738b-49f1-acca-d0d5cf35105c","system_id":"levelo_inurba_marseille","lat":43.292642,"lon":5.384254,"is_reserved":false,"is_disabled":false,"rental_uris":{"android":"levelo://app?vid=fc1dcb35-738b-49f1-acca-d0d5cf35105c","ios":"levelo://app?vid=fc1dcb35-738b-49f1-acca-d0d5cf35105c"},"vehicle_type_id":"4","last_reported":1703005518,"current_range_meters":12800,"station_id":"ce4bh692rcd13ifvqea0","pricing_plan_id":"free"},{"bike_id":"6cec88e9-6c63-4e4d-bcae-5d965916c9ba","system_id":"levelo_inurba_marseille","lat":43.292642,"lon":5.384254,"is_reserved":false,"is_disabled":false,"rental_uris":{"android":"levelo://app?vid=6cec88e9-6c63-4e4d-bcae-5d965916c9ba","ios":"levelo://app?vid=6cec88e9-6c63-4e4d-bcae-5d965916c9ba"},"vehicle_type_id":"4","last_reported":1703005518,"current_range_meters":30000,"station_id":"ce4bh692rcd13ifvqea0","pricing_plan_id":"free"},{"bike_id":"d42c8f63-2fa0-4308-b3e4-efb82774a50d","system_id":"levelo_inurba_marseille","lat":43.292644,"lon":5.384257,"is_reserved":false,"is_disabled":false,"rental_uris":{"android":"levelo://app?vid=d42c8f63-2fa0-4308-b3e4-efb82774a50d","ios":"levelo://app?vid=d42c8f63-2fa0-4308-b3e4-efb82774a50d"},"vehicle_type_id":"4","last_reported":1703005518,"current_range_meters":6400,"station_id":"ce4bh692rcd13ifvqea0","pricing_plan_id":"free"},{"bike_id":"2fb71484-fd85-4cf1-841b-c6fa44a405e2","system_id":"levelo_inurba_marseille","lat":43.330442,"lon":5.389148,"is_reserved":false,"is_disabled":false,"rental_uris":{"android":"levelo://app?vid=2fb71484-fd85-4cf1-841b-c6fa44a405e2","ios":"levelo://app?vid=2fb71484-fd85-4cf1-841b-c6fa44a405e2"},"vehicle_type_id":"4","last_reported":1703005518,"current_range_meters":2400,"station_id":"ce4bhr92rcd13ifvqhrg","pricing_plan_id":"free"},{"bike_id":"f5371324-d9ad-414a-875e-71119fff89cf","system_id":"levelo_inurba_marseille","lat":43.330442,"lon":5.389148,"is_reserved":false,"is_disabled":false,"rental_uris":{"android":"levelo://app?vid=f5371324-d9ad-414a-875e-71119fff89cf","ios":"levelo://app?vid=f5371324-d9ad-414a-875e-71119fff89cf"},"vehicle_type_id":"4","last_reported":1703005518,"current_range_meters":2800,"station_id":"ce4bhr92rcd13ifvqhrg","pricing_plan_id":"free"},{"bike_id":"f9de8fb0-d0f9-4855-8451-afff0b454db2","system_id":"levelo_inurba_marseille","lat":43.330442,"lon":5.389148,"is_reserved":false,"is_disabled":false,"rental_uris":{"android":"levelo://app?vid=f9de8fb0-d0f9-4855-8451-afff0b454db2","ios":"levelo://app?vid=f9de8fb0-d0f9-4855-8451-afff0b454db2"},"vehicle_type_id":"4","last_reported":1703005518,"current_range_meters":27200,"station_id":"ce4bhr92rcd13ifvqhrg","pricing_plan_id":"free"},{"bike_id":"be3cd32a-377f-4606-a3c0-ea58a640a16c","system_id":"levelo_inurba_marseille","lat":43.290995,"lon":5.381361,"is_reserved":false,"is_disabled":false,"rental_uris":{"android":"levelo://app?vid=be3cd32a-377f-4606-a3c0-ea58a640a16c","ios":"levelo://app?vid=be3cd32a-377f-4606-a3c0-ea58a640a16c"},"vehicle_type_id":"4","last_reported":1703005518,"current_range_meters":16800,"station_id":"ce4bh512rcd13ifvqe2g","pricing_plan_id":"free"},{"bike_id":"05a37584-3e4b-40fe-9414-3944d18f98f3","system_id":"levelo_inurba_marseille","lat":43.290995,"lon":5.381361,"is_reserved":false,"is_disabled":false,"rental_uris":{"android":"levelo://app?vid=05a37584-3e4b-40fe-9414-3944d18f98f3","ios":"levelo://app?vid=05a37584-3e4b-40fe-9414-3944d18f98f3"},"vehicle_type_id":"4","last_reported":1703005518,"current_range_meters":16400,"station_id":"ce4bh512rcd13ifvqe2g","pricing_plan_id":"free"},{"bike_id":"d616e1c3-faff-4281-be54-75754ac48024","system_id":"levelo_inurba_marseille","lat":43.29083,"lon":5.38132,"is_reserved":false,"is_disabled":false,"rental_uris":{"android":"levelo://app?vid=d616e1c3-faff-4281-be54-75754ac48024","ios":"levelo://app?vid=d616e1c3-faff-4281-be54-75754ac48024"},"vehicle_type_id":"4","last_reported":1703005518,"current_range_meters":23600,"station_id":"ce4bh512rcd13ifvqe2g","pricing_plan_id":"free"},{"bike_id":"61337a21-3d26-4cb5-89b1-12bda07340cd","system_id":"levelo_inurba_marseille","lat":43.29797,"lon":5.39349,"is_reserved":false,"is_disabled":false,"rental_uris":{"android":"levelo://app?vid=61337a21-3d26-4cb5-89b1-12bda07340cd","ios":"levelo://app?vid=61337a21-3d26-4cb5-89b1-12bda07340cd"},"vehicle_type_id":"4","last_reported":1703005518,"current_range_meters":30400,"station_id":"chh1huq6cuj3fo74tm60","pricing_plan_id":"free"},{"bike_id":"0ed13e98-2480-42ce-8f13-97223e0222aa","system_id":"levelo_inurba_marseille","lat":43.295296,"lon":5.390338,"is_reserved":false,"is_disabled":false,"rental_uris":{"android":"levelo://app?vid=0ed13e98-2480-42ce-8f13-97223e0222aa","ios":"levelo://app?vid=0ed13e98-2480-42ce-8f13-97223e0222aa"},"vehicle_type_id":"4","last_reported":1703005518,"current_range_meters":0,"station_id":"ce4bh3p2rcd13ifvqdp0","pricing_plan_id":"free"},{"bike_id":"437df175-8418-45bf-b2ea-bc1f9fde32e7","system_id":"levelo_inurba_marseille","lat":43.297722,"lon":5.393365,"is_reserved":false,"is_disabled":false,"rental_uris":{"android":"levelo://app?vid=437df175-8418-45bf-b2ea-bc1f9fde32e7","ios":"levelo://app?vid=437df175-8418-45bf-b2ea-bc1f9fde32e7"},"vehicle_type_id":"4","last_reported":1703005518,"current_range_meters":5200,"station_id":"chh1huq6cuj3fo74tm60","pricing_plan_id":"free"},{"bike_id":"fe718dfd-12e6-4c67-a13f-5a2ef2c04d32","system_id":"levelo_inurba_marseille","lat":43.289743,"lon":5.378304,"is_reserved":false,"is_disabled":false,"rental_uris":{"android":"levelo://app?vid=fe718dfd-12e6-4c67-a13f-5a2ef2c04d32","ios":"levelo://app?vid=fe718dfd-12e6-4c67-a13f-5a2ef2c04d32"},"vehicle_type_id":"4","last_reported":1703005518,"current_range_meters":19600,"station_id":"ce4bh9p2rcd13ifvqed0","pricing_plan_id":"free"},{"bike_id":"d5ad1331-aa7a-4dd0-b792-d332957293e6","system_id":"levelo_inurba_marseille","lat":43.28972,"lon":5.37817,"is_reserved":false,"is_disabled":false,"rental_uris":{"android":"levelo://app?vid=d5ad1331-aa7a-4dd0-b792-d332957293e6","ios":"levelo://app?vid=d5ad1331-aa7a-4dd0-b792-d332957293e6"},"vehicle_type_id":"4","last_reported":1703005518,"current_range_meters":6800,"station_id":"","pricing_plan_id":"free"},{"bike_id":"77ae86b2-25c4-48f5-b6cc-221d7820f402","system_id":"levelo_inurba_marseille","lat":43.295169,"lon":5.390426,"is_reserved":false,"is_disabled":false,"rental_uris":{"android":"levelo://app?vid=77ae86b2-25c4-48f5-b6cc-221d7820f402","ios":"levelo://app?vid=77ae86b2-25c4-48f5-b6cc-221d7820f402"},"vehicle_type_id":"4","last_reported":1703005518,"current_range_meters":23600,"station_id":"ce4bh3p2rcd13ifvqdp0","pricing_plan_id":"free"},{"bike_id":"4865ad7a-a562-4336-bf87-17371887e8f6","system_id":"levelo_inurba_marseille","lat":43.289743,"lon":5.378304,"is_reserved":false,"is_disabled":false,"rental_uris":{"android":"levelo://app?vid=4865ad7a-a562-4336-bf87-17371887e8f6","ios":"levelo://app?vid=4865ad7a-a562-4336-bf87-17371887e8f6"},"vehicle_type_id":"4","last_reported":1703005518,"current_range_meters":14800,"station_id":"ce4bh9p2rcd13ifvqed0","pricing_plan_id":"free"},{"bike_id":"1cbace50-0eef-4548-9d3c-540867716711","system_id":"levelo_inurba_marseille","lat":43.28856,"lon":5.358371,"is_reserved":false,"is_disabled":false,"rental_uris":{"android":"levelo://app?vid=1cbace50-0eef-4548-9d3c-540867716711","ios":"levelo://app?vid=1cbace50-0eef-4548-9d3c-540867716711"},"vehicle_type_id":"4","last_reported":1703005518,"current_range_meters":15200,"station_id":"ce4bhb12rcd13ifvqem0","pricing_plan_id":"free"},{"bike_id":"cbc16f04-6900-4419-b334-0042acb12a94","system_id":"levelo_inurba_marseille","lat":43.28856,"lon":5.358371,"is_reserved":false,"is_disabled":false,"rental_uris":{"android":"levelo://app?vid=cbc16f04-6900-4419-b334-0042acb12a94","ios":"levelo://app?vid=cbc16f04-6900-4419-b334-0042acb12a94"},"vehicle_type_id":"4","last_reported":1703005518,"current_range_meters":20800,"station_id":"ce4bhb12rcd13ifvqem0","pricing_plan_id":"free"},{"bike_id":"69e781f2-d1f0-46d5-9252-e9fd5d4a632d","system_id":"levelo_inurba_marseille","lat":43.312609,"lon":5.401662,"is_reserved":false,"is_disabled":false,"rental_uris":{"android":"levelo://app?vid=69e781f2-d1f0-46d5-9252-e9fd5d4a632d","ios":"levelo://app?vid=69e781f2-d1f0-46d5-9252-e9fd5d4a632d"},"vehicle_type_id":"4","last_reported":1703005518,"current_range_meters":24400,"station_id":"ce4bh092rcd13ifvqd30","pricing_plan_id":"free"},{"bike_id":"9d658dc6-9954-4e7c-ba3c-799a6fdf5508","system_id":"levelo_inurba_marseille","lat":43.30935,"lon":5.40144,"is_reserved":false,"is_disabled":false,"rental_uris":{"android":"levelo://app?vid=9d658dc6-9954-4e7c-ba3c-799a6fdf5508","ios":"levelo://app?vid=9d658dc6-9954-4e7c-ba3c-799a6fdf5508"},"vehicle_type_id":"4","last_reported":1703005518,"current_range_meters":13200,"station_id":"ce4bgvp2rcd13ifvqct0","pricing_plan_id":"free"},{"bike_id":"e8ddab2e-f850-47e3-bea4-53c6825b6b48","system_id":"levelo_inurba_marseille","lat":43.309371,"lon":5.401449,"is_reserved":false,"is_disabled":false,"rental_uris":{"android":"levelo://app?vid=e8ddab2e-f850-47e3-bea4-53c6825b6b48","ios":"levelo://app?vid=e8ddab2e-f850-47e3-bea4-53c6825b6b48"},"vehicle_type_id":"4","last_reported":1703005518,"current_range_meters":24000,"station_id":"ce4bgvp2rcd13ifvqct0","pricing_plan_id":"free"},{"bike_id":"1b661c53-839b-4f41-8d7f-0614e8dd80e1","system_id":"levelo_inurba_marseille","lat":43.33755,"lon":5.37462,"is_reserved":false,"is_disabled":false,"rental_uris":{"android":"levelo://app?vid=1b661c53-839b-4f41-8d7f-0614e8dd80e1","ios":"levelo://app?vid=1b661c53-839b-4f41-8d7f-0614e8dd80e1"},"vehicle_type_id":"4","last_reported":1703005518,"current_range_meters":27200,"station_id":"","pricing_plan_id":"free"},{"bike_id":"6e5f0fcf-e7d8-4342-872d-6f50e47d272f","system_id":"levelo_inurba_marseille","lat":43.30642,"lon":5.401031,"is_reserved":false,"is_disabled":false,"rental_uris":{"android":"levelo://app?vid=6e5f0fcf-e7d8-4342-872d-6f50e47d272f","ios":"levelo://app?vid=6e5f0fcf-e7d8-4342-872d-6f50e47d272f"},"vehicle_type_id":"4","last_reported":1703005518,"current_range_meters":19600,"station_id":"ce4bh112rcd13ifvqda0","pricing_plan_id":"free"},{"bike_id":"c3c3cbbb-aa08-4874-94d9-d40777882ceb","system_id":"levelo_inurba_marseille","lat":43.337675,"lon":5.374391,"is_reserved":false,"is_disabled":false,"rental_uris":{"android":"levelo://app?vid=c3c3cbbb-aa08-4874-94d9-d40777882ceb","ios":"levelo://app?vid=c3c3cbbb-aa08-4874-94d9-d40777882ceb"},"vehicle_type_id":"4","last_reported":1703005518,"current_range_meters":8400,"station_id":"","pricing_plan_id":"free"},{"bike_id":"187a5928-1dea-4a55-a57b-8dc0877abe4d","system_id":"levelo_inurba_marseille","lat":43.30135,"lon":5.39868,"is_reserved":false,"is_disabled":false,"rental_uris":{"android":"levelo://app?vid=187a5928-1dea-4a55-a57b-8dc0877abe4d","ios":"levelo://app?vid=187a5928-1dea-4a55-a57b-8dc0877abe4d"},"vehicle_type_id":"4","last_reported":1703005518,"current_range_meters":0,"station_id":"ce4bh0h2rcd13ifvqd40","pricing_plan_id":"free"},{"bike_id":"96cfbc76-0683-473d-85d4-9da98f48a261","system_id":"levelo_inurba_marseille","lat":43.286591,"lon":5.363346,"is_reserved":false,"is_disabled":false,"rental_uris":{"android":"levelo://app?vid=96cfbc76-0683-473d-85d4-9da98f48a261","ios":"levelo://app?vid=96cfbc76-0683-473d-85d4-9da98f48a261"},"vehicle_type_id":"4","last_reported":1703005518,"current_range_meters":10800,"station_id":"ce4bhah2rcd13ifvqej0","pricing_plan_id":"free"},{"bike_id":"59d5d60f-071b-4622-8f2f-9860bc5dde0b","system_id":"levelo_inurba_marseille","lat":43.286961,"lon":5.373785,"is_reserved":false,"is_disabled":false,"rental_uris":{"android":"levelo://app?vid=59d5d60f-071b-4622-8f2f-9860bc5dde0b","ios":"levelo://app?vid=59d5d60f-071b-4622-8f2f-9860bc5dde0b"},"vehicle_type_id":"4","last_reported":1703005518,"current_range_meters":22400,"station_id":"ce4bh3p2rcd13ifvqdq0","pricing_plan_id":"free"},{"bike_id":"93d30713-557d-45af-8c33-57028ae5b14b","system_id":"levelo_inurba_marseille","lat":43.298681,"lon":5.397225,"is_reserved":false,"is_disabled":false,"rental_uris":{"android":"levelo://app?vid=93d30713-557d-45af-8c33-57028ae5b14b","ios":"levelo://app?vid=93d30713-557d-45af-8c33-57028ae5b14b"},"vehicle_type_id":"4","last_reported":1703005518,"current_range_meters":31200,"station_id":"ce4bh0h2rcd13ifvqd50","pricing_plan_id":"free"},{"bike_id":"7b1fd0f0-4211-4496-ac38-ae6a924cb229","system_id":"levelo_inurba_marseille","lat":43.298681,"lon":5.397225,"is_reserved":false,"is_disabled":false,"rental_uris":{"android":"levelo://app?vid=7b1fd0f0-4211-4496-ac38-ae6a924cb229","ios":"levelo://app?vid=7b1fd0f0-4211-4496-ac38-ae6a924cb229"},"vehicle_type_id":"4","last_reported":1703005518,"current_range_meters":9600,"station_id":"ce4bh0h2rcd13ifvqd50","pricing_plan_id":"free"},{"bike_id":"3ce38805-571a-472e-92ac-6e2ceaa46b54","system_id":"levelo_inurba_marseille","lat":43.2987,"lon":5.39736,"is_reserved":false,"is_disabled":false,"rental_uris":{"android":"levelo://app?vid=3ce38805-571a-472e-92ac-6e2ceaa46b54","ios":"levelo://app?vid=3ce38805-571a-472e-92ac-6e2ceaa46b54"},"vehicle_type_id":"4","last_reported":1703005518,"current_range_meters":10800,"station_id":"ce4bh0h2rcd13ifvqd50","pricing_plan_id":"free"},{"bike_id":"0155c0f4-5c99-4952-a094-3b3413b30c4b","system_id":"levelo_inurba_marseille","lat":43.298681,"lon":5.397225,"is_reserved":false,"is_disabled":false,"rental_uris":{"android":"levelo://app?vid=0155c0f4-5c99-4952-a094-3b3413b30c4b","ios":"levelo://app?vid=0155c0f4-5c99-4952-a094-3b3413b30c4b"},"vehicle_type_id":"4","last_reported":1703005518,"current_range_meters":5200,"station_id":"ce4bh0h2rcd13ifvqd50","pricing_plan_id":"free"},{"bike_id":"207c56fb-3419-4b32-9f7b-e5407f0ca8ab","system_id":"levelo_inurba_marseille","lat":43.298681,"lon":5.397225,"is_reserved":false,"is_disabled":false,"rental_uris":{"android":"levelo://app?vid=207c56fb-3419-4b32-9f7b-e5407f0ca8ab","ios":"levelo://app?vid=207c56fb-3419-4b32-9f7b-e5407f0ca8ab"},"vehicle_type_id":"4","last_reported":1703005518,"current_range_meters":28000,"station_id":"ce4bh0h2rcd13ifvqd50","pricing_plan_id":"free"},{"bike_id":"8f04d3f0-fb60-45bd-b683-1bf12f973145","system_id":"levelo_inurba_marseille","lat":43.298681,"lon":5.397225,"is_reserved":false,"is_disabled":false,"rental_uris":{"android":"levelo://app?vid=8f04d3f0-fb60-45bd-b683-1bf12f973145","ios":"levelo://app?vid=8f04d3f0-fb60-45bd-b683-1bf12f973145"},"vehicle_type_id":"4","last_reported":1703005518,"current_range_meters":2000,"station_id":"ce4bh0h2rcd13ifvqd50","pricing_plan_id":"free"},{"bike_id":"ff672203-24bb-4e3a-ac29-7c1d1f25cf81","system_id":"levelo_inurba_marseille","lat":43.286961,"lon":5.373785,"is_reserved":false,"is_disabled":false,"rental_uris":{"android":"levelo://app?vid=ff672203-24bb-4e3a-ac29-7c1d1f25cf81","ios":"levelo://app?vid=ff672203-24bb-4e3a-ac29-7c1d1f25cf81"},"vehicle_type_id":"4","last_reported":1703005518,"current_range_meters":20000,"station_id":"ce4bh3p2rcd13ifvqdq0","pricing_plan_id":"free"},{"bike_id":"d3e1d1f6-1423-4436-ac87-fa2791c099e8","system_id":"levelo_inurba_marseille","lat":43.295196,"lon":5.39397,"is_reserved":false,"is_disabled":false,"rental_uris":{"android":"levelo://app?vid=d3e1d1f6-1423-4436-ac87-fa2791c099e8","ios":"levelo://app?vid=d3e1d1f6-1423-4436-ac87-fa2791c099e8"},"vehicle_type_id":"4","last_reported":1703005518,"current_range_meters":22400,"station_id":"ce4bh292rcd13ifvqdf0","pricing_plan_id":"free"},{"bike_id":"70c27311-7f48-42e0-bd4b-cfa34e2cb7bd","system_id":"levelo_inurba_marseille","lat":43.295196,"lon":5.39397,"is_reserved":false,"is_disabled":false,"rental_uris":{"android":"levelo://app?vid=70c27311-7f48-42e0-bd4b-cfa34e2cb7bd","ios":"levelo://app?vid=70c27311-7f48-42e0-bd4b-cfa34e2cb7bd"},"vehicle_type_id":"4","last_reported":1703005518,"current_range_meters":5600,"station_id":"ce4bh292rcd13ifvqdf0","pricing_plan_id":"free"},{"bike_id":"b2392ebc-723d-4be0-b3bf-35727a651b38","system_id":"levelo_inurba_marseille","lat":43.29028,"lon":5.38606,"is_reserved":false,"is_disabled":false,"rental_uris":{"android":"levelo://app?vid=b2392ebc-723d-4be0-b3bf-35727a651b38","ios":"levelo://app?vid=b2392ebc-723d-4be0-b3bf-35727a651b38"},"vehicle_type_id":"4","last_reported":1703005518,"current_range_meters":13600,"station_id":"ce4bh4p2rcd13ifvqe0g","pricing_plan_id":"free"},{"bike_id":"1f90c35a-f0f0-460c-8450-3ecee27413b7","system_id":"levelo_inurba_marseille","lat":43.290336,"lon":5.386425,"is_reserved":false,"is_disabled":false,"rental_uris":{"android":"levelo://app?vid=1f90c35a-f0f0-460c-8450-3ecee27413b7","ios":"levelo://app?vid=1f90c35a-f0f0-460c-8450-3ecee27413b7"},"vehicle_type_id":"4","last_reported":1703005518,"current_range_meters":28000,"station_id":"ce4bh4p2rcd13ifvqe0g","pricing_plan_id":"free"},{"bike_id":"02cb5ac7-6d71-4bef-a815-e331b11b9c77","system_id":"levelo_inurba_marseille","lat":43.290345,"lon":5.38646,"is_reserved":false,"is_disabled":false,"rental_uris":{"android":"levelo://app?vid=02cb5ac7-6d71-4bef-a815-e331b11b9c77","ios":"levelo://app?vid=02cb5ac7-6d71-4bef-a815-e331b11b9c77"},"vehicle_type_id":"4","last_reported":1703005518,"current_range_meters":22000,"station_id":"ce4bh4p2rcd13ifvqe0g","pricing_plan_id":"free"},{"bike_id":"d2c4f5ba-ee56-4ab4-a16c-7446d9ee9e70","system_id":"levelo_inurba_marseille","lat":43.302759,"lon":5.400793,"is_reserved":false,"is_disabled":false,"rental_uris":{"android":"levelo://app?vid=d2c4f5ba-ee56-4ab4-a16c-7446d9ee9e70","ios":"levelo://app?vid=d2c4f5ba-ee56-4ab4-a16c-7446d9ee9e70"},"vehicle_type_id":"4","last_reported":1703005518,"current_range_meters":23200,"station_id":"ce4bgvh2rcd13ifvqcs0","pricing_plan_id":"free"},{"bike_id":"962ef1a3-49f8-4b83-84b1-b147533734e0","system_id":"levelo_inurba_marseille","lat":43.291994,"lon":5.392907,"is_reserved":false,"is_disabled":false,"rental_uris":{"android":"levelo://app?vid=962ef1a3-49f8-4b83-84b1-b147533734e0","ios":"levelo://app?vid=962ef1a3-49f8-4b83-84b1-b147533734e0"},"vehicle_type_id":"4","last_reported":1703005518,"current_range_meters":22400,"station_id":"ce4bh192rcd13ifvqdd0","pricing_plan_id":"free"},{"bike_id":"6d355aa9-71ed-412c-abd0-3e64a968d029","system_id":"levelo_inurba_marseille","lat":43.284534,"lon":5.358662,"is_reserved":false,"is_disabled":false,"rental_uris":{"android":"levelo://app?vid=6d355aa9-71ed-412c-abd0-3e64a968d029","ios":"levelo://app?vid=6d355aa9-71ed-412c-abd0-3e64a968d029"},"vehicle_type_id":"4","last_reported":1703005518,"current_range_meters":13200,"station_id":"ce4bhah2rcd13ifvqei0","pricing_plan_id":"free"},{"bike_id":"7b14e073-fa53-4178-9383-44b6ae7767d8","system_id":"levelo_inurba_marseille","lat":43.284534,"lon":5.358662,"is_reserved":false,"is_disabled":false,"rental_uris":{"android":"levelo://app?vid=7b14e073-fa53-4178-9383-44b6ae7767d8","ios":"levelo://app?vid=7b14e073-fa53-4178-9383-44b6ae7767d8"},"vehicle_type_id":"4","last_reported":1703005518,"current_range_meters":21600,"station_id":"ce4bhah2rcd13ifvqei0","pricing_plan_id":"free"},{"bike_id":"dc9cc64c-67f8-4dda-8426-55637de28fe9","system_id":"levelo_inurba_marseille","lat":43.294314,"lon":5.397498,"is_reserved":false,"is_disabled":false,"rental_uris":{"android":"levelo://app?vid=dc9cc64c-67f8-4dda-8426-55637de28fe9","ios":"levelo://app?vid=dc9cc64c-67f8-4dda-8426-55637de28fe9"},"vehicle_type_id":"4","last_reported":1703005518,"current_range_meters":9200,"station_id":"ce4bh3h2rcd13ifvqdo0","pricing_plan_id":"free"},{"bike_id":"3a30aa75-a94c-4474-ae54-dc338016beed","system_id":"levelo_inurba_marseille","lat":43.284534,"lon":5.358662,"is_reserved":false,"is_disabled":false,"rental_uris":{"android":"levelo://app?vid=3a30aa75-a94c-4474-ae54-dc338016beed","ios":"levelo://app?vid=3a30aa75-a94c-4474-ae54-dc338016beed"},"vehicle_type_id":"4","last_reported":1703005518,"current_range_meters":28000,"station_id":"ce4bhah2rcd13ifvqei0","pricing_plan_id":"free"},{"bike_id":"edc97ede-d518-443b-9359-0f155f013c36","system_id":"levelo_inurba_marseille","lat":43.29448,"lon":5.3975,"is_reserved":false,"is_disabled":false,"rental_uris":{"android":"levelo://app?vid=edc97ede-d518-443b-9359-0f155f013c36","ios":"levelo://app?vid=edc97ede-d518-443b-9359-0f155f013c36"},"vehicle_type_id":"4","last_reported":1703005518,"current_range_meters":11200,"station_id":"ce4bh3h2rcd13ifvqdo0","pricing_plan_id":"free"},{"bike_id":"afe3b88d-7735-4b77-8a76-0455134eb518","system_id":"levelo_inurba_marseille","lat":43.29445,"lon":5.39752,"is_reserved":false,"is_disabled":false,"rental_uris":{"android":"levelo://app?vid=afe3b88d-7735-4b77-8a76-0455134eb518","ios":"levelo://app?vid=afe3b88d-7735-4b77-8a76-0455134eb518"},"vehicle_type_id":"4","last_reported":1703005518,"current_range_meters":23200,"station_id":"ce4bh3h2rcd13ifvqdo0","pricing_plan_id":"free"},{"bike_id":"6067ef92-b224-430f-81d7-d9fee16e604d","system_id":"levelo_inurba_marseille","lat":43.294314,"lon":5.397498,"is_reserved":false,"is_disabled":false,"rental_uris":{"android":"levelo://app?vid=6067ef92-b224-430f-81d7-d9fee16e604d","ios":"levelo://app?vid=6067ef92-b224-430f-81d7-d9fee16e604d"},"vehicle_type_id":"4","last_reported":1703005518,"current_range_meters":2400,"station_id":"ce4bh3h2rcd13ifvqdo0","pricing_plan_id":"free"},{"bike_id":"8d497a71-c25f-4dad-8500-e434d8bbc3c7","system_id":"levelo_inurba_marseille","lat":43.2944,"lon":5.39752,"is_reserved":false,"is_disabled":false,"rental_uris":{"android":"levelo://app?vid=8d497a71-c25f-4dad-8500-e434d8bbc3c7","ios":"levelo://app?vid=8d497a71-c25f-4dad-8500-e434d8bbc3c7"},"vehicle_type_id":"4","last_reported":1703005518,"current_range_meters":24800,"station_id":"ce4bh3h2rcd13ifvqdo0","pricing_plan_id":"free"},{"bike_id":"d0565ddd-42dd-4848-b253-57b92489d0e8","system_id":"levelo_inurba_marseille","lat":43.294314,"lon":5.397498,"is_reserved":false,"is_disabled":false,"rental_uris":{"android":"levelo://app?vid=d0565ddd-42dd-4848-b253-57b92489d0e8","ios":"levelo://app?vid=d0565ddd-42dd-4848-b253-57b92489d0e8"},"vehicle_type_id":"4","last_reported":1703005518,"current_range_meters":22800,"station_id":"ce4bh3h2rcd13ifvqdo0","pricing_plan_id":"free"},{"bike_id":"4a3bf0b1-66fa-4ba1-95be-5c0a76ccad27","system_id":"levelo_inurba_marseille","lat":43.285856,"lon":5.350771,"is_reserved":false,"is_disabled":false,"rental_uris":{"android":"levelo://app?vid=4a3bf0b1-66fa-4ba1-95be-5c0a76ccad27","ios":"levelo://app?vid=4a3bf0b1-66fa-4ba1-95be-5c0a76ccad27"},"vehicle_type_id":"4","last_reported":1703005518,"current_range_meters":24000,"station_id":"ce4bhch2rcd13ifvqeug","pricing_plan_id":"free"},{"bike_id":"f3b85f34-8342-42b3-9689-e6718d9bce90","system_id":"levelo_inurba_marseille","lat":43.285856,"lon":5.350771,"is_reserved":false,"is_disabled":false,"rental_uris":{"android":"levelo://app?vid=f3b85f34-8342-42b3-9689-e6718d9bce90","ios":"levelo://app?vid=f3b85f34-8342-42b3-9689-e6718d9bce90"},"vehicle_type_id":"4","last_reported":1703005518,"current_range_meters":14400,"station_id":"ce4bhch2rcd13ifvqeug","pricing_plan_id":"free"},{"bike_id":"a64aa472-d196-48ef-ba2c-9d8c6910349a","system_id":"levelo_inurba_marseille","lat":43.283998,"lon":5.375062,"is_reserved":false,"is_disabled":false,"rental_uris":{"android":"levelo://app?vid=a64aa472-d196-48ef-ba2c-9d8c6910349a","ios":"levelo://app?vid=a64aa472-d196-48ef-ba2c-9d8c6910349a"},"vehicle_type_id":"4","last_reported":1703005518,"current_range_meters":14000,"station_id":"ce4bh412rcd13ifvqds0","pricing_plan_id":"free"},{"bike_id":"8538e6dd-dbef-4a5a-a119-9a857fd021ad","system_id":"levelo_inurba_marseille","lat":43.33218,"lon":5.397067,"is_reserved":false,"is_disabled":false,"rental_uris":{"android":"levelo://app?vid=8538e6dd-dbef-4a5a-a119-9a857fd021ad","ios":"levelo://app?vid=8538e6dd-dbef-4a5a-a119-9a857fd021ad"},"vehicle_type_id":"4","last_reported":1703005518,"current_range_meters":800,"station_id":"","pricing_plan_id":"free"},{"bike_id":"0436c554-542e-4780-bbfe-185f89b2fecd","system_id":"levelo_inurba_marseille","lat":43.295713,"lon":5.399639,"is_reserved":false,"is_disabled":false,"rental_uris":{"android":"levelo://app?vid=0436c554-542e-4780-bbfe-185f89b2fecd","ios":"levelo://app?vid=0436c554-542e-4780-bbfe-185f89b2fecd"},"vehicle_type_id":"4","last_reported":1703005518,"current_range_meters":22800,"station_id":"ce4bh312rcd13ifvqdj0","pricing_plan_id":"free"},{"bike_id":"5453960e-798b-4500-afa8-58022c9a5333","system_id":"levelo_inurba_marseille","lat":43.297946,"lon":5.404063,"is_reserved":false,"is_disabled":false,"rental_uris":{"android":"levelo://app?vid=5453960e-798b-4500-afa8-58022c9a5333","ios":"levelo://app?vid=5453960e-798b-4500-afa8-58022c9a5333"},"vehicle_type_id":"4","last_reported":1703005518,"current_range_meters":27200,"station_id":"ce4bh112rcd13ifvqd90","pricing_plan_id":"free"},{"bike_id":"04f13297-eccf-467c-b98d-1ea34c0bc91b","system_id":"levelo_inurba_marseille","lat":43.29795,"lon":5.404086,"is_reserved":false,"is_disabled":false,"rental_uris":{"android":"levelo://app?vid=04f13297-eccf-467c-b98d-1ea34c0bc91b","ios":"levelo://app?vid=04f13297-eccf-467c-b98d-1ea34c0bc91b"},"vehicle_type_id":"4","last_reported":1703005518,"current_range_meters":22800,"station_id":"ce4bh112rcd13ifvqd90","pricing_plan_id":"free"},{"bike_id":"f5332b34-8259-4323-952e-7bd465eb247c","system_id":"levelo_inurba_marseille","lat":43.29795,"lon":5.404086,"is_reserved":false,"is_disabled":false,"rental_uris":{"android":"levelo://app?vid=f5332b34-8259-4323-952e-7bd465eb247c","ios":"levelo://app?vid=f5332b34-8259-4323-952e-7bd465eb247c"},"vehicle_type_id":"4","last_reported":1703005518,"current_range_meters":0,"station_id":"ce4bh112rcd13ifvqd90","pricing_plan_id":"free"},{"bike_id":"82612816-5ca6-44c8-bca9-38c38f10c953","system_id":"levelo_inurba_marseille","lat":43.273125,"lon":5.390731,"is_reserved":false,"is_disabled":false,"rental_uris":{"android":"levelo://app?vid=82612816-5ca6-44c8-bca9-38c38f10c953","ios":"levelo://app?vid=82612816-5ca6-44c8-bca9-38c38f10c953"},"vehicle_type_id":"4","last_reported":1703005518,"current_range_meters":12000,"station_id":"ce4bhgp2rcd13ifvqfe0","pricing_plan_id":"free"},{"bike_id":"35e5c977-c3ec-4302-85e4-7f44ba15ca6f","system_id":"levelo_inurba_marseille","lat":43.306412,"lon":5.401035,"is_reserved":false,"is_disabled":false,"rental_uris":{"android":"levelo://app?vid=35e5c977-c3ec-4302-85e4-7f44ba15ca6f","ios":"levelo://app?vid=35e5c977-c3ec-4302-85e4-7f44ba15ca6f"},"vehicle_type_id":"4","last_reported":1703005518,"current_range_meters":22400,"station_id":"ce4bh112rcd13ifvqda0","pricing_plan_id":"free"},{"bike_id":"7aecbcde-a0be-4ee7-9fb3-c08e2ed7a241","system_id":"levelo_inurba_marseille","lat":43.280382,"lon":5.369291,"is_reserved":false,"is_disabled":false,"rental_uris":{"android":"levelo://app?vid=7aecbcde-a0be-4ee7-9fb3-c08e2ed7a241","ios":"levelo://app?vid=7aecbcde-a0be-4ee7-9fb3-c08e2ed7a241"},"vehicle_type_id":"4","last_reported":1703005518,"current_range_meters":28800,"station_id":"ce4bha12rcd13ifvqef0","pricing_plan_id":"free"},{"bike_id":"12282228-6a8c-411b-b19a-8576703a5351","system_id":"levelo_inurba_marseille","lat":43.29041,"lon":5.399634,"is_reserved":false,"is_disabled":false,"rental_uris":{"android":"levelo://app?vid=12282228-6a8c-411b-b19a-8576703a5351","ios":"levelo://app?vid=12282228-6a8c-411b-b19a-8576703a5351"},"vehicle_type_id":"4","last_reported":1703005518,"current_range_meters":12800,"station_id":"ce4bh392rcd13ifvqdm0","pricing_plan_id":"free"},{"bike_id":"1f58cd8e-9acb-4bac-aa6b-2a59ad95f477","system_id":"levelo_inurba_marseille","lat":43.296263,"lon":5.40601,"is_reserved":false,"is_disabled":false,"rental_uris":{"android":"levelo://app?vid=1f58cd8e-9acb-4bac-aa6b-2a59ad95f477","ios":"levelo://app?vid=1f58cd8e-9acb-4bac-aa6b-2a59ad95f477"},"vehicle_type_id":"4","last_reported":1703005518,"current_range_meters":27200,"station_id":"ce4bh0h2rcd13ifvqd60","pricing_plan_id":"free"},{"bike_id":"ea298e6c-f9d8-427e-8df3-28d267b8464a","system_id":"levelo_inurba_marseille","lat":43.29644,"lon":5.40594,"is_reserved":false,"is_disabled":false,"rental_uris":{"android":"levelo://app?vid=ea298e6c-f9d8-427e-8df3-28d267b8464a","ios":"levelo://app?vid=ea298e6c-f9d8-427e-8df3-28d267b8464a"},"vehicle_type_id":"4","last_reported":1703005518,"current_range_meters":22000,"station_id":"ce4bh0h2rcd13ifvqd60","pricing_plan_id":"free"},{"bike_id":"06a15df0-306a-4244-bb18-4a74f9982875","system_id":"levelo_inurba_marseille","lat":43.296263,"lon":5.40601,"is_reserved":false,"is_disabled":false,"rental_uris":{"android":"levelo://app?vid=06a15df0-306a-4244-bb18-4a74f9982875","ios":"levelo://app?vid=06a15df0-306a-4244-bb18-4a74f9982875"},"vehicle_type_id":"4","last_reported":1703005518,"current_range_meters":8000,"station_id":"ce4bh0h2rcd13ifvqd60","pricing_plan_id":"free"},{"bike_id":"b5ae4e80-0ef7-4a29-8577-056a06b32503","system_id":"levelo_inurba_marseille","lat":43.281044,"lon":5.378308,"is_reserved":false,"is_disabled":false,"rental_uris":{"android":"levelo://app?vid=b5ae4e80-0ef7-4a29-8577-056a06b32503","ios":"levelo://app?vid=b5ae4e80-0ef7-4a29-8577-056a06b32503"},"vehicle_type_id":"4","last_reported":1703005518,"current_range_meters":3600,"station_id":"ce4bha12rcd13ifvqee0","pricing_plan_id":"free"},{"bike_id":"be7ed5c3-8519-46a5-bab2-60e422239ae0","system_id":"levelo_inurba_marseille","lat":43.281044,"lon":5.378308,"is_reserved":false,"is_disabled":false,"rental_uris":{"android":"levelo://app?vid=be7ed5c3-8519-46a5-bab2-60e422239ae0","ios":"levelo://app?vid=be7ed5c3-8519-46a5-bab2-60e422239ae0"},"vehicle_type_id":"4","last_reported":1703005518,"current_range_meters":30400,"station_id":"ce4bha12rcd13ifvqee0","pricing_plan_id":"free"},{"bike_id":"274bd324-dd58-4c87-a0be-932df48b9467","system_id":"levelo_inurba_marseille","lat":43.296263,"lon":5.40601,"is_reserved":false,"is_disabled":false,"rental_uris":{"android":"levelo://app?vid=274bd324-dd58-4c87-a0be-932df48b9467","ios":"levelo://app?vid=274bd324-dd58-4c87-a0be-932df48b9467"},"vehicle_type_id":"4","last_reported":1703005518,"current_range_meters":23200,"station_id":"ce4bh0h2rcd13ifvqd60","pricing_plan_id":"free"},{"bike_id":"cfc9b73d-f013-462b-a110-2b369aa80ede","system_id":"levelo_inurba_marseille","lat":43.281044,"lon":5.378308,"is_reserved":false,"is_disabled":false,"rental_uris":{"android":"levelo://app?vid=cfc9b73d-f013-462b-a110-2b369aa80ede","ios":"levelo://app?vid=cfc9b73d-f013-462b-a110-2b369aa80ede"},"vehicle_type_id":"4","last_reported":1703005518,"current_range_meters":24000,"station_id":"ce4bha12rcd13ifvqee0","pricing_plan_id":"free"},{"bike_id":"4c6868ab-3a56-4675-ada5-456a6bb75da6","system_id":"levelo_inurba_marseille","lat":43.284462,"lon":5.392121,"is_reserved":false,"is_disabled":false,"rental_uris":{"android":"levelo://app?vid=4c6868ab-3a56-4675-ada5-456a6bb75da6","ios":"levelo://app?vid=4c6868ab-3a56-4675-ada5-456a6bb75da6"},"vehicle_type_id":"4","last_reported":1703005518,"current_range_meters":5600,"station_id":"ce4bhoh2rcd13ifvqh5g","pricing_plan_id":"free"},{"bike_id":"68f5378e-b96c-4501-8f12-ad00f716fe47","system_id":"levelo_inurba_marseille","lat":43.28573,"lon":5.394992,"is_reserved":false,"is_disabled":false,"rental_uris":{"android":"levelo://app?vid=68f5378e-b96c-4501-8f12-ad00f716fe47","ios":"levelo://app?vid=68f5378e-b96c-4501-8f12-ad00f716fe47"},"vehicle_type_id":"4","last_reported":1703005518,"current_range_meters":26400,"station_id":"ce4bh292rcd13ifvqdg0","pricing_plan_id":"free"},{"bike_id":"fadd8973-e132-4204-aeed-f9a44f2ca7cc","system_id":"levelo_inurba_marseille","lat":43.304188,"lon":5.412904,"is_reserved":false,"is_disabled":false,"rental_uris":{"android":"levelo://app?vid=fadd8973-e132-4204-aeed-f9a44f2ca7cc","ios":"levelo://app?vid=fadd8973-e132-4204-aeed-f9a44f2ca7cc"},"vehicle_type_id":"4","last_reported":1703005518,"current_range_meters":25200,"station_id":"ce4bhop2rcd13ifvqh8g","pricing_plan_id":"free"},{"bike_id":"5a19dc98-4b6a-4cac-8617-bec854bef98e","system_id":"levelo_inurba_marseille","lat":43.304188,"lon":5.412904,"is_reserved":false,"is_disabled":false,"rental_uris":{"android":"levelo://app?vid=5a19dc98-4b6a-4cac-8617-bec854bef98e","ios":"levelo://app?vid=5a19dc98-4b6a-4cac-8617-bec854bef98e"},"vehicle_type_id":"4","last_reported":1703005518,"current_range_meters":31600,"station_id":"ce4bhop2rcd13ifvqh8g","pricing_plan_id":"free"},{"bike_id":"c4a04e14-0598-46d0-84da-c0735fee32e9","system_id":"levelo_inurba_marseille","lat":43.304188,"lon":5.412904,"is_reserved":false,"is_disabled":false,"rental_uris":{"android":"levelo://app?vid=c4a04e14-0598-46d0-84da-c0735fee32e9","ios":"levelo://app?vid=c4a04e14-0598-46d0-84da-c0735fee32e9"},"vehicle_type_id":"4","last_reported":1703005518,"current_range_meters":16000,"station_id":"ce4bhop2rcd13ifvqh8g","pricing_plan_id":"free"},{"bike_id":"746f53b1-38a5-4472-b00a-71a684776d07","system_id":"levelo_inurba_marseille","lat":43.304188,"lon":5.412904,"is_reserved":false,"is_disabled":false,"rental_uris":{"android":"levelo://app?vid=746f53b1-38a5-4472-b00a-71a684776d07","ios":"levelo://app?vid=746f53b1-38a5-4472-b00a-71a684776d07"},"vehicle_type_id":"4","last_reported":1703005518,"current_range_meters":16400,"station_id":"ce4bhop2rcd13ifvqh8g","pricing_plan_id":"free"},{"bike_id":"a80b6eca-5d38-451c-b21f-2e159b8fa4bf","system_id":"levelo_inurba_marseille","lat":43.279087,"lon":5.380114,"is_reserved":false,"is_disabled":false,"rental_uris":{"android":"levelo://app?vid=a80b6eca-5d38-451c-b21f-2e159b8fa4bf","ios":"levelo://app?vid=a80b6eca-5d38-451c-b21f-2e159b8fa4bf"},"vehicle_type_id":"4","last_reported":1703005518,"current_range_meters":25600,"station_id":"ce4bhf92rcd13ifvqf50","pricing_plan_id":"free"},{"bike_id":"7cffef9e-d427-4c80-aead-6195012b86bc","system_id":"levelo_inurba_marseille","lat":43.279087,"lon":5.380114,"is_reserved":false,"is_disabled":false,"rental_uris":{"android":"levelo://app?vid=7cffef9e-d427-4c80-aead-6195012b86bc","ios":"levelo://app?vid=7cffef9e-d427-4c80-aead-6195012b86bc"},"vehicle_type_id":"4","last_reported":1703005518,"current_range_meters":22400,"station_id":"ce4bhf92rcd13ifvqf50","pricing_plan_id":"free"},{"bike_id":"0b3841da-d162-46f8-a755-eae54cc4f992","system_id":"levelo_inurba_marseille","lat":43.28698,"lon":5.39988,"is_reserved":false,"is_disabled":false,"rental_uris":{"android":"levelo://app?vid=0b3841da-d162-46f8-a755-eae54cc4f992","ios":"levelo://app?vid=0b3841da-d162-46f8-a755-eae54cc4f992"},"vehicle_type_id":"4","last_reported":1703005518,"current_range_meters":2800,"station_id":"ce4bho92rcd13ifvqh3g","pricing_plan_id":"free"},{"bike_id":"cb0668d4-d46c-4efe-a7e0-185ebe495ab4","system_id":"levelo_inurba_marseille","lat":43.280479,"lon":5.38909,"is_reserved":false,"is_disabled":false,"rental_uris":{"android":"levelo://app?vid=cb0668d4-d46c-4efe-a7e0-185ebe495ab4","ios":"levelo://app?vid=cb0668d4-d46c-4efe-a7e0-185ebe495ab4"},"vehicle_type_id":"4","last_reported":1703005518,"current_range_meters":11600,"station_id":"","pricing_plan_id":"free"},{"bike_id":"1e9fe36f-fbe6-41d8-a9bd-3ad56b8376a1","system_id":"levelo_inurba_marseille","lat":43.320045,"lon":5.415046,"is_reserved":false,"is_disabled":false,"rental_uris":{"android":"levelo://app?vid=1e9fe36f-fbe6-41d8-a9bd-3ad56b8376a1","ios":"levelo://app?vid=1e9fe36f-fbe6-41d8-a9bd-3ad56b8376a1"},"vehicle_type_id":"4","last_reported":1703005518,"current_range_meters":5600,"station_id":"ce4bhq92rcd13ifvqhkg","pricing_plan_id":"free"},{"bike_id":"64691bd4-7c35-45a5-bb38-bdd2a0565868","system_id":"levelo_inurba_marseille","lat":43.299579,"lon":5.413255,"is_reserved":false,"is_disabled":false,"rental_uris":{"android":"levelo://app?vid=64691bd4-7c35-45a5-bb38-bdd2a0565868","ios":"levelo://app?vid=64691bd4-7c35-45a5-bb38-bdd2a0565868"},"vehicle_type_id":"4","last_reported":1703005518,"current_range_meters":20000,"station_id":"ce4bhp12rcd13ifvqh9g","pricing_plan_id":"free"},{"bike_id":"55937c13-b9d8-494a-90db-f33cfc5d18ed","system_id":"levelo_inurba_marseille","lat":43.279742,"lon":5.38744,"is_reserved":false,"is_disabled":false,"rental_uris":{"android":"levelo://app?vid=55937c13-b9d8-494a-90db-f33cfc5d18ed","ios":"levelo://app?vid=55937c13-b9d8-494a-90db-f33cfc5d18ed"},"vehicle_type_id":"4","last_reported":1703005518,"current_range_meters":0,"station_id":"ce4bhg12rcd13ifvqf80","pricing_plan_id":"free"},{"bike_id":"8289d867-1433-42bb-9250-6a20d198322c","system_id":"levelo_inurba_marseille","lat":43.279742,"lon":5.38744,"is_reserved":false,"is_disabled":false,"rental_uris":{"android":"levelo://app?vid=8289d867-1433-42bb-9250-6a20d198322c","ios":"levelo://app?vid=8289d867-1433-42bb-9250-6a20d198322c"},"vehicle_type_id":"4","last_reported":1703005518,"current_range_meters":15600,"station_id":"ce4bhg12rcd13ifvqf80","pricing_plan_id":"free"},{"bike_id":"96884667-0b52-4ba9-a723-cc9fecd9ad7a","system_id":"levelo_inurba_marseille","lat":43.292571,"lon":5.409107,"is_reserved":false,"is_disabled":false,"rental_uris":{"android":"levelo://app?vid=96884667-0b52-4ba9-a723-cc9fecd9ad7a","ios":"levelo://app?vid=96884667-0b52-4ba9-a723-cc9fecd9ad7a"},"vehicle_type_id":"4","last_reported":1703005518,"current_range_meters":8800,"station_id":"ce4bh192rcd13ifvqdc0","pricing_plan_id":"free"},{"bike_id":"e654705b-fb5d-4eb5-a39d-39856f9da381","system_id":"levelo_inurba_marseille","lat":43.29259,"lon":5.40903,"is_reserved":false,"is_disabled":false,"rental_uris":{"android":"levelo://app?vid=e654705b-fb5d-4eb5-a39d-39856f9da381","ios":"levelo://app?vid=e654705b-fb5d-4eb5-a39d-39856f9da381"},"vehicle_type_id":"4","last_reported":1703005518,"current_range_meters":0,"station_id":"ce4bh192rcd13ifvqdc0","pricing_plan_id":"free"},{"bike_id":"1de20776-256e-421b-bada-d83500127307","system_id":"levelo_inurba_marseille","lat":43.292571,"lon":5.409107,"is_reserved":false,"is_disabled":false,"rental_uris":{"android":"levelo://app?vid=1de20776-256e-421b-bada-d83500127307","ios":"levelo://app?vid=1de20776-256e-421b-bada-d83500127307"},"vehicle_type_id":"4","last_reported":1703005518,"current_range_meters":18400,"station_id":"ce4bh192rcd13ifvqdc0","pricing_plan_id":"free"},{"bike_id":"98989e73-b3eb-4839-b681-94334944276f","system_id":"levelo_inurba_marseille","lat":43.29261,"lon":5.40909,"is_reserved":false,"is_disabled":false,"rental_uris":{"android":"levelo://app?vid=98989e73-b3eb-4839-b681-94334944276f","ios":"levelo://app?vid=98989e73-b3eb-4839-b681-94334944276f"},"vehicle_type_id":"4","last_reported":1703005518,"current_range_meters":11600,"station_id":"ce4bh192rcd13ifvqdc0","pricing_plan_id":"free"},{"bike_id":"d9a874bd-8750-4ef6-94b0-0e3146c050bc","system_id":"levelo_inurba_marseille","lat":43.292571,"lon":5.409107,"is_reserved":false,"is_disabled":false,"rental_uris":{"android":"levelo://app?vid=d9a874bd-8750-4ef6-94b0-0e3146c050bc","ios":"levelo://app?vid=d9a874bd-8750-4ef6-94b0-0e3146c050bc"},"vehicle_type_id":"4","last_reported":1703005518,"current_range_meters":31200,"station_id":"ce4bh192rcd13ifvqdc0","pricing_plan_id":"free"},{"bike_id":"64f6857d-9635-4f9a-aa1f-0ca1465f75c6","system_id":"levelo_inurba_marseille","lat":43.29258,"lon":5.40909,"is_reserved":false,"is_disabled":false,"rental_uris":{"android":"levelo://app?vid=64f6857d-9635-4f9a-aa1f-0ca1465f75c6","ios":"levelo://app?vid=64f6857d-9635-4f9a-aa1f-0ca1465f75c6"},"vehicle_type_id":"4","last_reported":1703005518,"current_range_meters":17200,"station_id":"ce4bh192rcd13ifvqdc0","pricing_plan_id":"free"},{"bike_id":"6f268021-ae18-4493-8589-1466e4602782","system_id":"levelo_inurba_marseille","lat":43.27618,"lon":5.361009,"is_reserved":false,"is_disabled":false,"rental_uris":{"android":"levelo://app?vid=6f268021-ae18-4493-8589-1466e4602782","ios":"levelo://app?vid=6f268021-ae18-4493-8589-1466e4602782"},"vehicle_type_id":"4","last_reported":1703005518,"current_range_meters":20400,"station_id":"ce4bgj92rcd13ifvqbe0","pricing_plan_id":"free"},{"bike_id":"99b550ba-a514-4a55-b09d-c9c3b2168f95","system_id":"levelo_inurba_marseille","lat":43.292511,"lon":5.409151,"is_reserved":false,"is_disabled":false,"rental_uris":{"android":"levelo://app?vid=99b550ba-a514-4a55-b09d-c9c3b2168f95","ios":"levelo://app?vid=99b550ba-a514-4a55-b09d-c9c3b2168f95"},"vehicle_type_id":"4","last_reported":1703005518,"current_range_meters":12400,"station_id":"ce4bh192rcd13ifvqdc0","pricing_plan_id":"free"},{"bike_id":"5738191b-e612-4b8f-9df4-59c72dd704f3","system_id":"levelo_inurba_marseille","lat":43.325233,"lon":5.414318,"is_reserved":false,"is_disabled":false,"rental_uris":{"android":"levelo://app?vid=5738191b-e612-4b8f-9df4-59c72dd704f3","ios":"levelo://app?vid=5738191b-e612-4b8f-9df4-59c72dd704f3"},"vehicle_type_id":"4","last_reported":1703005518,"current_range_meters":3600,"station_id":"ce4bhq12rcd13ifvqhhg","pricing_plan_id":"free"},{"bike_id":"60a8f48b-682a-4b23-8e26-1add426f8533","system_id":"levelo_inurba_marseille","lat":43.27618,"lon":5.361009,"is_reserved":false,"is_disabled":false,"rental_uris":{"android":"levelo://app?vid=60a8f48b-682a-4b23-8e26-1add426f8533","ios":"levelo://app?vid=60a8f48b-682a-4b23-8e26-1add426f8533"},"vehicle_type_id":"4","last_reported":1703005518,"current_range_meters":19600,"station_id":"ce4bgj92rcd13ifvqbe0","pricing_plan_id":"free"},{"bike_id":"fbd8f1f5-b27b-420f-b06b-7480c09d4009","system_id":"levelo_inurba_marseille","lat":43.27618,"lon":5.361009,"is_reserved":false,"is_disabled":false,"rental_uris":{"android":"levelo://app?vid=fbd8f1f5-b27b-420f-b06b-7480c09d4009","ios":"levelo://app?vid=fbd8f1f5-b27b-420f-b06b-7480c09d4009"},"vehicle_type_id":"4","last_reported":1703005518,"current_range_meters":15200,"station_id":"ce4bgj92rcd13ifvqbe0","pricing_plan_id":"free"},{"bike_id":"a1663cc0-426c-41b1-957f-e66670b02145","system_id":"levelo_inurba_marseille","lat":43.280784,"lon":5.396622,"is_reserved":false,"is_disabled":false,"rental_uris":{"android":"levelo://app?vid=a1663cc0-426c-41b1-957f-e66670b02145","ios":"levelo://app?vid=a1663cc0-426c-41b1-957f-e66670b02145"},"vehicle_type_id":"4","last_reported":1703005518,"current_range_meters":10800,"station_id":"ce4bho12rcd13ifvqh2g","pricing_plan_id":"free"},{"bike_id":"4915a002-14a9-4b43-94ef-fd7b2f836e77","system_id":"levelo_inurba_marseille","lat":43.280784,"lon":5.396622,"is_reserved":false,"is_disabled":false,"rental_uris":{"android":"levelo://app?vid=4915a002-14a9-4b43-94ef-fd7b2f836e77","ios":"levelo://app?vid=4915a002-14a9-4b43-94ef-fd7b2f836e77"},"vehicle_type_id":"4","last_reported":1703005518,"current_range_meters":29200,"station_id":"ce4bho12rcd13ifvqh2g","pricing_plan_id":"free"},{"bike_id":"d3a9a33b-f693-4d57-9747-29321d00ac7f","system_id":"levelo_inurba_marseille","lat":43.280784,"lon":5.396622,"is_reserved":false,"is_disabled":false,"rental_uris":{"android":"levelo://app?vid=d3a9a33b-f693-4d57-9747-29321d00ac7f","ios":"levelo://app?vid=d3a9a33b-f693-4d57-9747-29321d00ac7f"},"vehicle_type_id":"4","last_reported":1703005518,"current_range_meters":9200,"station_id":"ce4bho12rcd13ifvqh2g","pricing_plan_id":"free"},{"bike_id":"35cfe3d6-3136-42c6-b92d-6a013b524182","system_id":"levelo_inurba_marseille","lat":43.280784,"lon":5.396622,"is_reserved":false,"is_disabled":false,"rental_uris":{"android":"levelo://app?vid=35cfe3d6-3136-42c6-b92d-6a013b524182","ios":"levelo://app?vid=35cfe3d6-3136-42c6-b92d-6a013b524182"},"vehicle_type_id":"4","last_reported":1703005518,"current_range_meters":31200,"station_id":"ce4bho12rcd13ifvqh2g","pricing_plan_id":"free"},{"bike_id":"cc1d7bf3-e5c0-4653-bf69-25a7c7d536b3","system_id":"levelo_inurba_marseille","lat":43.280784,"lon":5.396622,"is_reserved":false,"is_disabled":false,"rental_uris":{"android":"levelo://app?vid=cc1d7bf3-e5c0-4653-bf69-25a7c7d536b3","ios":"levelo://app?vid=cc1d7bf3-e5c0-4653-bf69-25a7c7d536b3"},"vehicle_type_id":"4","last_reported":1703005518,"current_range_meters":2000,"station_id":"ce4bho12rcd13ifvqh2g","pricing_plan_id":"free"},{"bike_id":"35495592-9e33-402b-8daf-71287eabeb7f","system_id":"levelo_inurba_marseille","lat":43.278401,"lon":5.392152,"is_reserved":false,"is_disabled":false,"rental_uris":{"android":"levelo://app?vid=35495592-9e33-402b-8daf-71287eabeb7f","ios":"levelo://app?vid=35495592-9e33-402b-8daf-71287eabeb7f"},"vehicle_type_id":"4","last_reported":1703005518,"current_range_meters":20400,"station_id":"ce4bhjp2rcd13ifvqga0","pricing_plan_id":"free"},{"bike_id":"2108355f-780a-42b7-9a09-0ff61bf8845b","system_id":"levelo_inurba_marseille","lat":43.27825,"lon":5.39196,"is_reserved":false,"is_disabled":false,"rental_uris":{"android":"levelo://app?vid=2108355f-780a-42b7-9a09-0ff61bf8845b","ios":"levelo://app?vid=2108355f-780a-42b7-9a09-0ff61bf8845b"},"vehicle_type_id":"4","last_reported":1703005518,"current_range_meters":27200,"station_id":"ce4bhjp2rcd13ifvqga0","pricing_plan_id":"free"},{"bike_id":"9d7100e1-eab9-40ba-9afc-3a26104171a0","system_id":"levelo_inurba_marseille","lat":43.275625,"lon":5.384392,"is_reserved":false,"is_disabled":false,"rental_uris":{"android":"levelo://app?vid=9d7100e1-eab9-40ba-9afc-3a26104171a0","ios":"levelo://app?vid=9d7100e1-eab9-40ba-9afc-3a26104171a0"},"vehicle_type_id":"4","last_reported":1703005518,"current_range_meters":19600,"station_id":"ce4bhh92rcd13ifvqfi0","pricing_plan_id":"free"},{"bike_id":"af3237b9-73d0-4fe3-9e27-bb58d3771da2","system_id":"levelo_inurba_marseille","lat":43.2783,"lon":5.39214,"is_reserved":false,"is_disabled":false,"rental_uris":{"android":"levelo://app?vid=af3237b9-73d0-4fe3-9e27-bb58d3771da2","ios":"levelo://app?vid=af3237b9-73d0-4fe3-9e27-bb58d3771da2"},"vehicle_type_id":"4","last_reported":1703005518,"current_range_meters":14000,"station_id":"ce4bhjp2rcd13ifvqga0","pricing_plan_id":"free"},{"bike_id":"13969288-6b42-4656-a80f-aacb40edbb03","system_id":"levelo_inurba_marseille","lat":43.278401,"lon":5.392152,"is_reserved":false,"is_disabled":false,"rental_uris":{"android":"levelo://app?vid=13969288-6b42-4656-a80f-aacb40edbb03","ios":"levelo://app?vid=13969288-6b42-4656-a80f-aacb40edbb03"},"vehicle_type_id":"4","last_reported":1703005518,"current_range_meters":11200,"station_id":"ce4bhjp2rcd13ifvqga0","pricing_plan_id":"free"},{"bike_id":"e7afcd31-b4d2-4656-8aa5-6d5afb88a6d0","system_id":"levelo_inurba_marseille","lat":43.278399,"lon":5.392139,"is_reserved":false,"is_disabled":false,"rental_uris":{"android":"levelo://app?vid=e7afcd31-b4d2-4656-8aa5-6d5afb88a6d0","ios":"levelo://app?vid=e7afcd31-b4d2-4656-8aa5-6d5afb88a6d0"},"vehicle_type_id":"4","last_reported":1703005518,"current_range_meters":0,"station_id":"ce4bhjp2rcd13ifvqga0","pricing_plan_id":"free"},{"bike_id":"235796f1-7964-4102-957d-590f1ecc39ab","system_id":"levelo_inurba_marseille","lat":43.275625,"lon":5.384392,"is_reserved":false,"is_disabled":false,"rental_uris":{"android":"levelo://app?vid=235796f1-7964-4102-957d-590f1ecc39ab","ios":"levelo://app?vid=235796f1-7964-4102-957d-590f1ecc39ab"},"vehicle_type_id":"4","last_reported":1703005518,"current_range_meters":20000,"station_id":"ce4bhh92rcd13ifvqfi0","pricing_plan_id":"free"},{"bike_id":"7f8d0007-1265-4ec0-bac8-a78db706d60d","system_id":"levelo_inurba_marseille","lat":43.275625,"lon":5.384392,"is_reserved":false,"is_disabled":false,"rental_uris":{"android":"levelo://app?vid=7f8d0007-1265-4ec0-bac8-a78db706d60d","ios":"levelo://app?vid=7f8d0007-1265-4ec0-bac8-a78db706d60d"},"vehicle_type_id":"4","last_reported":1703005518,"current_range_meters":24400,"station_id":"ce4bhh92rcd13ifvqfi0","pricing_plan_id":"free"},{"bike_id":"5b20525d-cf3e-4f3c-80c5-7a7e29cd1627","system_id":"levelo_inurba_marseille","lat":43.336148,"lon":5.410349,"is_reserved":false,"is_disabled":false,"rental_uris":{"android":"levelo://app?vid=5b20525d-cf3e-4f3c-80c5-7a7e29cd1627","ios":"levelo://app?vid=5b20525d-cf3e-4f3c-80c5-7a7e29cd1627"},"vehicle_type_id":"4","last_reported":1703005518,"current_range_meters":22400,"station_id":"ce4bhqh2rcd13ifvqhmg","pricing_plan_id":"free"},{"bike_id":"a229261f-88f2-44b4-a9da-fa609efeeee5","system_id":"levelo_inurba_marseille","lat":43.279952,"lon":5.400085,"is_reserved":false,"is_disabled":false,"rental_uris":{"android":"levelo://app?vid=a229261f-88f2-44b4-a9da-fa609efeeee5","ios":"levelo://app?vid=a229261f-88f2-44b4-a9da-fa609efeeee5"},"vehicle_type_id":"4","last_reported":1703005518,"current_range_meters":31600,"station_id":"ce4bho92rcd13ifvqh4g","pricing_plan_id":"free"},{"bike_id":"2bc432ac-2a84-40e7-9c66-6b1b838d9bc1","system_id":"levelo_inurba_marseille","lat":43.279952,"lon":5.400085,"is_reserved":false,"is_disabled":false,"rental_uris":{"android":"levelo://app?vid=2bc432ac-2a84-40e7-9c66-6b1b838d9bc1","ios":"levelo://app?vid=2bc432ac-2a84-40e7-9c66-6b1b838d9bc1"},"vehicle_type_id":"4","last_reported":1703005518,"current_range_meters":16000,"station_id":"ce4bho92rcd13ifvqh4g","pricing_plan_id":"free"},{"bike_id":"6aeb72c6-7795-421e-8c99-8e89a08bfac6","system_id":"levelo_inurba_marseille","lat":43.317121,"lon":5.423936,"is_reserved":false,"is_disabled":false,"rental_uris":{"android":"levelo://app?vid=6aeb72c6-7795-421e-8c99-8e89a08bfac6","ios":"levelo://app?vid=6aeb72c6-7795-421e-8c99-8e89a08bfac6"},"vehicle_type_id":"4","last_reported":1703005518,"current_range_meters":30000,"station_id":"ce4bhp92rcd13ifvqhbg","pricing_plan_id":"free"},{"bike_id":"974dc7db-ff3c-4554-8964-132f9db52d9b","system_id":"levelo_inurba_marseille","lat":43.276092,"lon":5.395289,"is_reserved":false,"is_disabled":false,"rental_uris":{"android":"levelo://app?vid=974dc7db-ff3c-4554-8964-132f9db52d9b","ios":"levelo://app?vid=974dc7db-ff3c-4554-8964-132f9db52d9b"},"vehicle_type_id":"4","last_reported":1703005518,"current_range_meters":6800,"station_id":"","pricing_plan_id":"free"},{"bike_id":"9ba08593-ba56-410e-ad8d-134c68f52064","system_id":"levelo_inurba_marseille","lat":43.304096,"lon":5.425385,"is_reserved":false,"is_disabled":false,"rental_uris":{"android":"levelo://app?vid=9ba08593-ba56-410e-ad8d-134c68f52064","ios":"levelo://app?vid=9ba08593-ba56-410e-ad8d-134c68f52064"},"vehicle_type_id":"4","last_reported":1703005518,"current_range_meters":16800,"station_id":"ce4bhoh2rcd13ifvqh6g","pricing_plan_id":"free"},{"bike_id":"c39f9c13-4eb9-4a69-963f-98f954c889f3","system_id":"levelo_inurba_marseille","lat":43.304096,"lon":5.425385,"is_reserved":false,"is_disabled":false,"rental_uris":{"android":"levelo://app?vid=c39f9c13-4eb9-4a69-963f-98f954c889f3","ios":"levelo://app?vid=c39f9c13-4eb9-4a69-963f-98f954c889f3"},"vehicle_type_id":"4","last_reported":1703005518,"current_range_meters":29600,"station_id":"ce4bhoh2rcd13ifvqh6g","pricing_plan_id":"free"},{"bike_id":"1aaeade2-16f7-4c2d-b598-dfecd6c04985","system_id":"levelo_inurba_marseille","lat":43.29551,"lon":5.42287,"is_reserved":false,"is_disabled":false,"rental_uris":{"android":"levelo://app?vid=1aaeade2-16f7-4c2d-b598-dfecd6c04985","ios":"levelo://app?vid=1aaeade2-16f7-4c2d-b598-dfecd6c04985"},"vehicle_type_id":"4","last_reported":1703005518,"current_range_meters":18400,"station_id":"ce4bhph2rcd13ifvqhdg","pricing_plan_id":"free"},{"bike_id":"ca314493-3848-477b-95b3-e1722a7aef04","system_id":"levelo_inurba_marseille","lat":43.295165,"lon":5.422679,"is_reserved":false,"is_disabled":false,"rental_uris":{"android":"levelo://app?vid=ca314493-3848-477b-95b3-e1722a7aef04","ios":"levelo://app?vid=ca314493-3848-477b-95b3-e1722a7aef04"},"vehicle_type_id":"4","last_reported":1703005518,"current_range_meters":15200,"station_id":"ce4bhph2rcd13ifvqhdg","pricing_plan_id":"free"},{"bike_id":"d9ded4ec-678c-420c-89a0-1b6eed2e695d","system_id":"levelo_inurba_marseille","lat":43.2955,"lon":5.42295,"is_reserved":false,"is_disabled":false,"rental_uris":{"android":"levelo://app?vid=d9ded4ec-678c-420c-89a0-1b6eed2e695d","ios":"levelo://app?vid=d9ded4ec-678c-420c-89a0-1b6eed2e695d"},"vehicle_type_id":"4","last_reported":1703005518,"current_range_meters":5200,"station_id":"ce4bhph2rcd13ifvqhdg","pricing_plan_id":"free"},{"bike_id":"c1981dd5-f41b-4a0f-8d23-b106453109ee","system_id":"levelo_inurba_marseille","lat":43.278128,"lon":5.407195,"is_reserved":false,"is_disabled":false,"rental_uris":{"android":"levelo://app?vid=c1981dd5-f41b-4a0f-8d23-b106453109ee","ios":"levelo://app?vid=c1981dd5-f41b-4a0f-8d23-b106453109ee"},"vehicle_type_id":"4","last_reported":1703005518,"current_range_meters":7600,"station_id":"ce4bhnh2rcd13ifvqgtg","pricing_plan_id":"free"},{"bike_id":"5dc28e01-a2d5-4372-9d68-124450645e51","system_id":"levelo_inurba_marseille","lat":43.278128,"lon":5.407195,"is_reserved":false,"is_disabled":false,"rental_uris":{"android":"levelo://app?vid=5dc28e01-a2d5-4372-9d68-124450645e51","ios":"levelo://app?vid=5dc28e01-a2d5-4372-9d68-124450645e51"},"vehicle_type_id":"4","last_reported":1703005518,"current_range_meters":23600,"station_id":"ce4bhnh2rcd13ifvqgtg","pricing_plan_id":"free"},{"bike_id":"0f006741-2ea6-452b-86d5-71b7854162c4","system_id":"levelo_inurba_marseille","lat":43.278128,"lon":5.407195,"is_reserved":false,"is_disabled":false,"rental_uris":{"android":"levelo://app?vid=0f006741-2ea6-452b-86d5-71b7854162c4","ios":"levelo://app?vid=0f006741-2ea6-452b-86d5-71b7854162c4"},"vehicle_type_id":"4","last_reported":1703005518,"current_range_meters":20400,"station_id":"ce4bhnh2rcd13ifvqgtg","pricing_plan_id":"free"},{"bike_id":"844301cd-a46c-49ea-8d2f-8302e613f261","system_id":"levelo_inurba_marseille","lat":43.269467,"lon":5.386439,"is_reserved":false,"is_disabled":false,"rental_uris":{"android":"levelo://app?vid=844301cd-a46c-49ea-8d2f-8302e613f261","ios":"levelo://app?vid=844301cd-a46c-49ea-8d2f-8302e613f261"},"vehicle_type_id":"4","last_reported":1703005518,"current_range_meters":25200,"station_id":"ce4bhh92rcd13ifvqfh0","pricing_plan_id":"free"},{"bike_id":"4946d4b0-531d-445a-bfaf-2e8e8f459290","system_id":"levelo_inurba_marseille","lat":43.26956,"lon":5.38631,"is_reserved":false,"is_disabled":false,"rental_uris":{"android":"levelo://app?vid=4946d4b0-531d-445a-bfaf-2e8e8f459290","ios":"levelo://app?vid=4946d4b0-531d-445a-bfaf-2e8e8f459290"},"vehicle_type_id":"4","last_reported":1703005518,"current_range_meters":400,"station_id":"ce4bhh92rcd13ifvqfh0","pricing_plan_id":"free"},{"bike_id":"faa655e6-e4fd-4d25-943f-f9e67924601a","system_id":"levelo_inurba_marseille","lat":43.265714,"lon":5.372891,"is_reserved":false,"is_disabled":false,"rental_uris":{"android":"levelo://app?vid=faa655e6-e4fd-4d25-943f-f9e67924601a","ios":"levelo://app?vid=faa655e6-e4fd-4d25-943f-f9e67924601a"},"vehicle_type_id":"4","last_reported":1703005518,"current_range_meters":4400,"station_id":"ce4bhg12rcd13ifvqf70","pricing_plan_id":"free"},{"bike_id":"4be37dd9-e7cc-4f0e-9038-cb5b5560fe1d","system_id":"levelo_inurba_marseille","lat":43.265714,"lon":5.372891,"is_reserved":false,"is_disabled":false,"rental_uris":{"android":"levelo://app?vid=4be37dd9-e7cc-4f0e-9038-cb5b5560fe1d","ios":"levelo://app?vid=4be37dd9-e7cc-4f0e-9038-cb5b5560fe1d"},"vehicle_type_id":"4","last_reported":1703005518,"current_range_meters":25200,"station_id":"ce4bhg12rcd13ifvqf70","pricing_plan_id":"free"},{"bike_id":"b4106770-cfc3-46ef-a15f-01fa16c0502a","system_id":"levelo_inurba_marseille","lat":43.265714,"lon":5.372891,"is_reserved":false,"is_disabled":false,"rental_uris":{"android":"levelo://app?vid=b4106770-cfc3-46ef-a15f-01fa16c0502a","ios":"levelo://app?vid=b4106770-cfc3-46ef-a15f-01fa16c0502a"},"vehicle_type_id":"4","last_reported":1703005518,"current_range_meters":0,"station_id":"ce4bhg12rcd13ifvqf70","pricing_plan_id":"free"},{"bike_id":"8a80415f-c97a-4218-a2ef-b79455f4bc69","system_id":"levelo_inurba_marseille","lat":43.308051,"lon":5.43527,"is_reserved":false,"is_disabled":false,"rental_uris":{"android":"levelo://app?vid=8a80415f-c97a-4218-a2ef-b79455f4bc69","ios":"levelo://app?vid=8a80415f-c97a-4218-a2ef-b79455f4bc69"},"vehicle_type_id":"4","last_reported":1703005518,"current_range_meters":30000,"station_id":"ce4bhph2rcd13ifvqheg","pricing_plan_id":"free"},{"bike_id":"54616f74-307c-44c4-8281-3f1e866684cf","system_id":"levelo_inurba_marseille","lat":43.265569,"lon":5.390047,"is_reserved":false,"is_disabled":false,"rental_uris":{"android":"levelo://app?vid=54616f74-307c-44c4-8281-3f1e866684cf","ios":"levelo://app?vid=54616f74-307c-44c4-8281-3f1e866684cf"},"vehicle_type_id":"4","last_reported":1703005518,"current_range_meters":14400,"station_id":"ce4bhe12rcd13ifvqf30","pricing_plan_id":"free"},{"bike_id":"19e5778a-0fec-4ae7-941a-1e270733f352","system_id":"levelo_inurba_marseille","lat":43.265571,"lon":5.390032,"is_reserved":false,"is_disabled":false,"rental_uris":{"android":"levelo://app?vid=19e5778a-0fec-4ae7-941a-1e270733f352","ios":"levelo://app?vid=19e5778a-0fec-4ae7-941a-1e270733f352"},"vehicle_type_id":"4","last_reported":1703005518,"current_range_meters":0,"station_id":"ce4bhe12rcd13ifvqf30","pricing_plan_id":"free"},{"bike_id":"676bddf4-51e3-40fe-a75d-b81ed8f0e32d","system_id":"levelo_inurba_marseille","lat":43.26942,"lon":5.40254,"is_reserved":false,"is_disabled":false,"rental_uris":{"android":"levelo://app?vid=676bddf4-51e3-40fe-a75d-b81ed8f0e32d","ios":"levelo://app?vid=676bddf4-51e3-40fe-a75d-b81ed8f0e32d"},"vehicle_type_id":"4","last_reported":1703005518,"current_range_meters":0,"station_id":"cjm6bp8fraef2m0cb0m0","pricing_plan_id":"free"},{"bike_id":"af5f8e5c-bf9b-42f3-bd4c-710e4f7b207d","system_id":"levelo_inurba_marseille","lat":43.261782,"lon":5.374515,"is_reserved":false,"is_disabled":false,"rental_uris":{"android":"levelo://app?vid=af5f8e5c-bf9b-42f3-bd4c-710e4f7b207d","ios":"levelo://app?vid=af5f8e5c-bf9b-42f3-bd4c-710e4f7b207d"},"vehicle_type_id":"4","last_reported":1703005518,"current_range_meters":0,"station_id":"ce4bhgp2rcd13ifvqfc0","pricing_plan_id":"free"},{"bike_id":"a1737239-074a-48ff-925e-03345e784648","system_id":"levelo_inurba_marseille","lat":43.271388,"lon":5.409269,"is_reserved":false,"is_disabled":false,"rental_uris":{"android":"levelo://app?vid=a1737239-074a-48ff-925e-03345e784648","ios":"levelo://app?vid=a1737239-074a-48ff-925e-03345e784648"},"vehicle_type_id":"4","last_reported":1703005518,"current_range_meters":29200,"station_id":"ce4bhl12rcd13ifvqgf0","pricing_plan_id":"free"},{"bike_id":"423fdb36-96ca-410e-86ba-1f528a1cf66f","system_id":"levelo_inurba_marseille","lat":43.271368,"lon":5.40928,"is_reserved":false,"is_disabled":false,"rental_uris":{"android":"levelo://app?vid=423fdb36-96ca-410e-86ba-1f528a1cf66f","ios":"levelo://app?vid=423fdb36-96ca-410e-86ba-1f528a1cf66f"},"vehicle_type_id":"4","last_reported":1703005518,"current_range_meters":27200,"station_id":"ce4bhl12rcd13ifvqgf0","pricing_plan_id":"free"},{"bike_id":"7025b7aa-66d1-48a6-86d9-45ec1cfd2ec2","system_id":"levelo_inurba_marseille","lat":43.271368,"lon":5.40928,"is_reserved":false,"is_disabled":false,"rental_uris":{"android":"levelo://app?vid=7025b7aa-66d1-48a6-86d9-45ec1cfd2ec2","ios":"levelo://app?vid=7025b7aa-66d1-48a6-86d9-45ec1cfd2ec2"},"vehicle_type_id":"4","last_reported":1703005518,"current_range_meters":25600,"station_id":"ce4bhl12rcd13ifvqgf0","pricing_plan_id":"free"},{"bike_id":"b9aad4a0-fde4-4cf9-8cd1-8cb7f8b527cb","system_id":"levelo_inurba_marseille","lat":43.271368,"lon":5.40928,"is_reserved":false,"is_disabled":false,"rental_uris":{"android":"levelo://app?vid=b9aad4a0-fde4-4cf9-8cd1-8cb7f8b527cb","ios":"levelo://app?vid=b9aad4a0-fde4-4cf9-8cd1-8cb7f8b527cb"},"vehicle_type_id":"4","last_reported":1703005518,"current_range_meters":23200,"station_id":"ce4bhl12rcd13ifvqgf0","pricing_plan_id":"free"},{"bike_id":"4bc9693d-48d8-45f6-aa29-721f664b7732","system_id":"levelo_inurba_marseille","lat":43.298768,"lon":5.43643,"is_reserved":false,"is_disabled":false,"rental_uris":{"android":"levelo://app?vid=4bc9693d-48d8-45f6-aa29-721f664b7732","ios":"levelo://app?vid=4bc9693d-48d8-45f6-aa29-721f664b7732"},"vehicle_type_id":"4","last_reported":1703005518,"current_range_meters":5600,"station_id":"ce4bhpp2rcd13ifvqhfg","pricing_plan_id":"free"},{"bike_id":"4045c651-a76f-4f34-936a-ba13b6567b65","system_id":"levelo_inurba_marseille","lat":43.298768,"lon":5.43643,"is_reserved":false,"is_disabled":false,"rental_uris":{"android":"levelo://app?vid=4045c651-a76f-4f34-936a-ba13b6567b65","ios":"levelo://app?vid=4045c651-a76f-4f34-936a-ba13b6567b65"},"vehicle_type_id":"4","last_reported":1703005518,"current_range_meters":18800,"station_id":"ce4bhpp2rcd13ifvqhfg","pricing_plan_id":"free"},{"bike_id":"57a291d5-639e-4bef-a70b-59e190c33c96","system_id":"levelo_inurba_marseille","lat":43.281548,"lon":5.42643,"is_reserved":false,"is_disabled":false,"rental_uris":{"android":"levelo://app?vid=57a291d5-639e-4bef-a70b-59e190c33c96","ios":"levelo://app?vid=57a291d5-639e-4bef-a70b-59e190c33c96"},"vehicle_type_id":"4","last_reported":1703005518,"current_range_meters":9200,"station_id":"ce4bhnh2rcd13ifvqgug","pricing_plan_id":"free"},{"bike_id":"f7d593a7-0d48-4d02-b2e4-3c42da07a2a1","system_id":"levelo_inurba_marseille","lat":43.281548,"lon":5.42643,"is_reserved":false,"is_disabled":false,"rental_uris":{"android":"levelo://app?vid=f7d593a7-0d48-4d02-b2e4-3c42da07a2a1","ios":"levelo://app?vid=f7d593a7-0d48-4d02-b2e4-3c42da07a2a1"},"vehicle_type_id":"4","last_reported":1703005518,"current_range_meters":6000,"station_id":"ce4bhnh2rcd13ifvqgug","pricing_plan_id":"free"},{"bike_id":"769096c9-d940-41e0-8492-aa2afa53e63d","system_id":"levelo_inurba_marseille","lat":43.2607,"lon":5.393983,"is_reserved":false,"is_disabled":false,"rental_uris":{"android":"levelo://app?vid=769096c9-d940-41e0-8492-aa2afa53e63d","ios":"levelo://app?vid=769096c9-d940-41e0-8492-aa2afa53e63d"},"vehicle_type_id":"4","last_reported":1703005518,"current_range_meters":400,"station_id":"ce4bhh92rcd13ifvqfj0","pricing_plan_id":"free"},