{"last_updated":1745968153,"ttl":60,"version":"2.2","data":{"bikes":[{"bike_id":"3975392c-4b3c-491d-8f40-00f73bb2a8a5","system_id":"levelo_inurba_marseille","lat":43.29664,"lon":5.37776,"is_reserved":false,"is_disabled":true,"rental_uris":{"android":"levelo://app?vid=3975392c-4b3c-491d-8f40-00f73bb2a8a5","ios":"levelo://app?vid=3975392c-4b3c-491d-8f40-00f73bb2a8a5"},"vehicle_type_id":"4","last_reported":1745968153,"current_range_meters":2800,"station_id":"","pricing_plan_id":"cebpf4jnsgd1na2vs0mg"},{"bike_id":"b1040775-cdbd-4461-a120-155006f740eb","system_id":"levelo_inurba_marseille","lat":43.2119,"lon":5.3507,"is_reserved":false,"is_disabled":false,"rental_uris":{"android":"levelo://app?vid=b1040775-cdbd-4461-a120-155006f740eb","ios":"levelo://app?vid=b1040775-cdbd-4461-a120-155006f740eb"},"vehicle_type_id":"4","last_reported":1745968153,"current_range_meters":2800,"station_id":"st_cvj6sg6p6f1abm77japg","pricing_plan_id":"cebpf4jnsgd1na2vs0mg"},{"bike_id":"a7d18e16-49bf-4595-8de6-b23f1fc76922","system_id":"levelo_inurba_marseille","lat":43.27571,"lon":5.38423,"is_reserved":false,"is_disabled":true,"rental_uris":{"android":"levelo://app?vid=a7d18e16-49bf-4595-8de6-b23f1fc76922","ios":"levelo://app?vid=a7d18e16-49bf-4595-8de6-b23f1fc76922"},"vehicle_type_id":"4","last_reported":1745968153,"current_range_meters":2800,"station_id":"ce4bhh92rcd13ifvqfi0","pricing_plan_id":"cebpf4jnsgd1na2vs0mg"},{"bike_id":"e288c1b9-de3d-40c0-ac27-e03c9556d880","system_id":"levelo_inurba_marseille","lat":43.29265,"lon":5.40918,"is_reserved":false,"is_disabled":true,"rental_uris":{"android":"levelo://app?vid=e288c1b9-de3d-40c0-ac27-e03c9556d880","ios":"levelo://app?vid=e288c1b9-de3d-40c0-ac27-e03c9556d880"},"vehicle_type_id":"4","last_reported":1745968153,"current_range_meters":3200,"station_id":"ce4bh192rcd13ifvqdc0","pricing_plan_id":"cebpf4jnsgd1na2vs0mg"},{"bike_id":"e5947a9e-4a57-41f9-abb9-a70b3d067d1d","system_id":"levelo_inurba_marseille","lat":43.284312,"lon":5.350012,"is_reserved":false,"is_disabled":false,"rental_uris":{"android":"levelo://app?vid=e5947a9e-4a57-41f9-abb9-a70b3d067d1d","ios":"levelo://app?vid=e5947a9e-4a57-41f9-abb9-a70b3d067d1d"},"vehicle_type_id":"4","last_reported":1745968153,"current_range_meters":3200,"station_id":"","pricing_plan_id":"cebpf4jnsgd1na2vs0mg"},{"bike_id":"027d1ca2-c316-4744-8c4f-5aa173fdb405","system_id":"levelo_inurba_marseille","lat":43.295258,"lon":5.385424,"is_reserved":false,"is_disabled":false,"rental_uris":{"android":"levelo://app?vid=027d1ca2-c316-4744-8c4f-5aa173fdb405","ios":"levelo://app?vid=027d1ca2-c316-4744-8c4f-5aa173fdb405"},"vehicle_type_id":"4","last_reported":1745968153,"current_range_meters":3200,"station_id":"ce4bgih2rcd13ifvqba0","pricing_plan_id":"cebpf4jnsgd1na2vs0mg"},{"bike_id":"26deac1f-c435-40bc-9469-9ae0b266bb77","system_id":"levelo_inurba_marseille","lat":43.30225,"lon":5.38433,"is_reserved":false,"is_disabled":false,"rental_uris":{"android":"levelo://app?vid=26deac1f-c435-40bc-9469-9ae0b266bb77","ios":"levelo://app?vid=26deac1f-c435-40bc-9469-9ae0b266bb77"},"vehicle_type_id":"4","last_reported":1745968153,"current_range_meters":3200,"station_id":"","pricing_plan_id":"cebpf4jnsgd1na2vs0mg"},{"bike_id":"ad679202-e281-4df4-834f-fe0848a785cc","system_id":"levelo_inurba_marseille","lat":43.29974,"lon":5.38493,"is_reserved":false,"is_disabled":false,"rental_uris":{"android":"levelo://app?vid=ad679202-e281-4df4-834f-fe0848a785cc","ios":"levelo://app?vid=ad679202-e281-4df4-834f-fe0848a785cc"},"vehicle_type_id":"4","last_reported":1745968153,"current_range_meters":2800,"station_id":"ce4bgj92rcd13ifvqbd0","pricing_plan_id":"cebpf4jnsgd1na2vs0mg"},{"bike_id":"76265f97-ca81-465f-bf4f-0f973c70a2ef","system_id":"levelo_inurba_marseille","lat":43.30119,"lon":5.39862,"is_reserved":false,"is_disabled":false,"rental_uris":{"android":"levelo://app?vid=76265f97-ca81-465f-bf4f-0f973c70a2ef","ios":"levelo://app?vid=76265f97-ca81-465f-bf4f-0f973c70a2ef"},"vehicle_type_id":"4","last_reported":1745968153,"current_range_meters":3600,"station_id":"ce4bh0h2rcd13ifvqd40","pricing_plan_id":"cebpf4jnsgd1na2vs0mg"},{"bike_id":"22c7b6e2-900d-49b2-a5fa-5c40e8e0d33b","system_id":"levelo_inurba_marseille","lat":43.28109,"lon":5.37843,"is_reserved":false,"is_disabled":false,"rental_uris":{"android":"levelo://app?vid=22c7b6e2-900d-49b2-a5fa-5c40e8e0d33b","ios":"levelo://app?vid=22c7b6e2-900d-49b2-a5fa-5c40e8e0d33b"},"vehicle_type_id":"4","last_reported":1745968153,"current_range_meters":3600,"station_id":"ce4bha12rcd13ifvqee0","pricing_plan_id":"cebpf4jnsgd1na2vs0mg"},{"bike_id":"af4f0c69-e62d-4155-b1d1-a67b45271ae1","system_id":"levelo_inurba_marseille","lat":43.24804,"lon":5.41165,"is_reserved":false,"is_disabled":false,"rental_uris":{"android":"levelo://app?vid=af4f0c69-e62d-4155-b1d1-a67b45271ae1","ios":"levelo://app?vid=af4f0c69-e62d-4155-b1d1-a67b45271ae1"},"vehicle_type_id":"4","last_reported":1745968153,"current_range_meters":4000,"station_id":"","pricing_plan_id":"cebpf4jnsgd1na2vs0mg"},{"bike_id":"110d42e0-e455-49c3-ba2f-a13b1f51573a","system_id":"levelo_inurba_marseille","lat":43.296503,"lon":5.411796,"is_reserved":false,"is_disabled":false,"rental_uris":{"android":"levelo://app?vid=110d42e0-e455-49c3-ba2f-a13b1f51573a","ios":"levelo://app?vid=110d42e0-e455-49c3-ba2f-a13b1f51573a"},"vehicle_type_id":"4","last_reported":1745968153,"current_range_meters":4000,"station_id":"","pricing_plan_id":"cebpf4jnsgd1na2vs0mg"},{"bike_id":"a018948b-711d-4708-887f-dbc136844385","system_id":"levelo_inurba_marseille","lat":43.2902,"lon":5.38135,"is_reserved":false,"is_disabled":true,"rental_uris":{"android":"levelo://app?vid=a018948b-711d-4708-887f-dbc136844385","ios":"levelo://app?vid=a018948b-711d-4708-887f-dbc136844385"},"vehicle_type_id":"4","last_reported":1745968153,"current_range_meters":3600,"station_id":"ce4bh4p2rcd13ifvqe1g","pricing_plan_id":"cebpf4jnsgd1na2vs0mg"},{"bike_id":"1f739055-8148-4574-abff-98a1f2db48ac","system_id":"levelo_inurba_marseille","lat":43.29182,"lon":5.35797,"is_reserved":false,"is_disabled":true,"rental_uris":{"android":"levelo://app?vid=1f739055-8148-4574-abff-98a1f2db48ac","ios":"levelo://app?vid=1f739055-8148-4574-abff-98a1f2db48ac"},"vehicle_type_id":"4","last_reported":1745968153,"current_range_meters":4000,"station_id":"ce4bhb12rcd13ifvqel0","pricing_plan_id":"cebpf4jnsgd1na2vs0mg"},{"bike_id":"9d010305-db17-4453-8752-e7a64080a1fa","system_id":"levelo_inurba_marseille","lat":43.28384,"lon":5.39595,"is_reserved":false,"is_disabled":false,"rental_uris":{"android":"levelo://app?vid=9d010305-db17-4453-8752-e7a64080a1fa","ios":"levelo://app?vid=9d010305-db17-4453-8752-e7a64080a1fa"},"vehicle_type_id":"4","last_reported":1745968153,"current_range_meters":4800,"station_id":"","pricing_plan_id":"cebpf4jnsgd1na2vs0mg"},{"bike_id":"94b2d82a-1098-4d34-a4ba-7ea60d57272a","system_id":"levelo_inurba_marseille","lat":43.28458,"lon":5.3589,"is_reserved":false,"is_disabled":false,"rental_uris":{"android":"levelo://app?vid=94b2d82a-1098-4d34-a4ba-7ea60d57272a","ios":"levelo://app?vid=94b2d82a-1098-4d34-a4ba-7ea60d57272a"},"vehicle_type_id":"4","last_reported":1745968153,"current_range_meters":4800,"station_id":"ce4bhah2rcd13ifvqei0","pricing_plan_id":"cebpf4jnsgd1na2vs0mg"},{"bike_id":"e37d8bc7-a4ee-4711-ada3-738b74336e54","system_id":"levelo_inurba_marseille","lat":43.28558,"lon":5.3949,"is_reserved":false,"is_disabled":false,"rental_uris":{"android":"levelo://app?vid=e37d8bc7-a4ee-4711-ada3-738b74336e54","ios":"levelo://app?vid=e37d8bc7-a4ee-4711-ada3-738b74336e54"},"vehicle_type_id":"4","last_reported":1745968153,"current_range_meters":4800,"station_id":"ce4bh292rcd13ifvqdg0","pricing_plan_id":"cebpf4jnsgd1na2vs0mg"},{"bike_id":"775481df-05c4-4f0e-8a67-b66aedbeddcf","system_id":"levelo_inurba_marseille","lat":43.241753,"lon":5.397237,"is_reserved":false,"is_disabled":false,"rental_uris":{"android":"levelo://app?vid=775481df-05c4-4f0e-8a67-b66aedbeddcf","ios":"levelo://app?vid=775481df-05c4-4f0e-8a67-b66aedbeddcf"},"vehicle_type_id":"4","last_reported":1745968153,"current_range_meters":5600,"station_id":"ce4bhn12rcd13ifvqgpg","pricing_plan_id":"cebpf4jnsgd1na2vs0mg"},{"bike_id":"0e7e556a-20bc-4951-97ef-c4e6eef9a278","system_id":"levelo_inurba_marseille","lat":43.289428,"lon":5.381744,"is_reserved":false,"is_disabled":false,"rental_uris":{"android":"levelo://app?vid=0e7e556a-20bc-4951-97ef-c4e6eef9a278","ios":"levelo://app?vid=0e7e556a-20bc-4951-97ef-c4e6eef9a278"},"vehicle_type_id":"4","last_reported":1745968153,"current_range_meters":5600,"station_id":"ce4bho92rcd13ifvqh4g","pricing_plan_id":"cebpf4jnsgd1na2vs0mg"},{"bike_id":"260981a5-60d4-4b38-97de-5fb58feade6c","system_id":"levelo_inurba_marseille","lat":43.24063,"lon":5.37768,"is_reserved":false,"is_disabled":false,"rental_uris":{"android":"levelo://app?vid=260981a5-60d4-4b38-97de-5fb58feade6c","ios":"levelo://app?vid=260981a5-60d4-4b38-97de-5fb58feade6c"},"vehicle_type_id":"4","last_reported":1745968153,"current_range_meters":5600,"station_id":"ce4bhnp2rcd13ifvqgvg","pricing_plan_id":"cebpf4jnsgd1na2vs0mg"},{"bike_id":"0a5341da-d064-46c5-b0f2-ab9a467ac050","system_id":"levelo_inurba_marseille","lat":43.2892,"lon":5.36408,"is_reserved":false,"is_disabled":false,"rental_uris":{"android":"levelo://app?vid=0a5341da-d064-46c5-b0f2-ab9a467ac050","ios":"levelo://app?vid=0a5341da-d064-46c5-b0f2-ab9a467ac050"},"vehicle_type_id":"4","last_reported":1745968153,"current_range_meters":5600,"station_id":"ce4bhc92rcd13ifvqetg","pricing_plan_id":"cebpf4jnsgd1na2vs0mg"},{"bike_id":"c847c66a-5d4b-43a0-b8ce-3c816716271e","system_id":"levelo_inurba_marseille","lat":43.29013,"lon":5.35596,"is_reserved":false,"is_disabled":true,"rental_uris":{"android":"levelo://app?vid=c847c66a-5d4b-43a0-b8ce-3c816716271e","ios":"levelo://app?vid=c847c66a-5d4b-43a0-b8ce-3c816716271e"},"vehicle_type_id":"4","last_reported":1745968153,"current_range_meters":5600,"station_id":"ce4bhb92rcd13ifvqen0","pricing_plan_id":"cebpf4jnsgd1na2vs0mg"},{"bike_id":"b039c152-f87b-436a-9b54-3e5c0bb27b9c","system_id":"levelo_inurba_marseille","lat":43.289472,"lon":5.396191,"is_reserved":false,"is_disabled":false,"rental_uris":{"android":"levelo://app?vid=b039c152-f87b-436a-9b54-3e5c0bb27b9c","ios":"levelo://app?vid=b039c152-f87b-436a-9b54-3e5c0bb27b9c"},"vehicle_type_id":"4","last_reported":1745968153,"current_range_meters":5600,"station_id":"ce4bh3h2rcd13ifvqdn0","pricing_plan_id":"cebpf4jnsgd1na2vs0mg"},{"bike_id":"82cc01f3-7575-47e6-afff-480c23ce1e51","system_id":"levelo_inurba_marseille","lat":43.26198,"lon":5.37933,"is_reserved":false,"is_disabled":false,"rental_uris":{"android":"levelo://app?vid=82cc01f3-7575-47e6-afff-480c23ce1e51","ios":"levelo://app?vid=82cc01f3-7575-47e6-afff-480c23ce1e51"},"vehicle_type_id":"4","last_reported":1745968153,"current_range_meters":5600,"station_id":"ce4bhjp2rcd13ifvqg90","pricing_plan_id":"cebpf4jnsgd1na2vs0mg"},{"bike_id":"83825a2b-3736-49ed-aeea-be993f789935","system_id":"levelo_inurba_marseille","lat":43.2748,"lon":5.42432,"is_reserved":false,"is_disabled":false,"rental_uris":{"android":"levelo://app?vid=83825a2b-3736-49ed-aeea-be993f789935","ios":"levelo://app?vid=83825a2b-3736-49ed-aeea-be993f789935"},"vehicle_type_id":"4","last_reported":1745968153,"current_range_meters":6000,"station_id":"ce4bhn92rcd13ifvqgrg","pricing_plan_id":"cebpf4jnsgd1na2vs0mg"},{"bike_id":"b05dbe43-6724-4fbf-bf5d-4b320183bb28","system_id":"levelo_inurba_marseille","lat":43.281,"lon":5.37827,"is_reserved":false,"is_disabled":false,"rental_uris":{"android":"levelo://app?vid=b05dbe43-6724-4fbf-bf5d-4b320183bb28","ios":"levelo://app?vid=b05dbe43-6724-4fbf-bf5d-4b320183bb28"},"vehicle_type_id":"4","last_reported":1745968153,"current_range_meters":6000,"station_id":"ce4bha12rcd13ifvqee0","pricing_plan_id":"cebpf4jnsgd1na2vs0mg"},{"bike_id":"533196cf-3fc3-41c8-bcd7-c601b53373ae","system_id":"levelo_inurba_marseille","lat":43.27683,"lon":5.3887,"is_reserved":false,"is_disabled":false,"rental_uris":{"android":"levelo://app?vid=533196cf-3fc3-41c8-bcd7-c601b53373ae","ios":"levelo://app?vid=533196cf-3fc3-41c8-bcd7-c601b53373ae"},"vehicle_type_id":"4","last_reported":1745968153,"current_range_meters":6000,"station_id":"ce4bhi12rcd13ifvqfo0","pricing_plan_id":"cebpf4jnsgd1na2vs0mg"},{"bike_id":"4e921bd6-7318-4e59-bc63-645afd4ef569","system_id":"levelo_inurba_marseille","lat":43.24176,"lon":5.36403,"is_reserved":false,"is_disabled":false,"rental_uris":{"android":"levelo://app?vid=4e921bd6-7318-4e59-bc63-645afd4ef569","ios":"levelo://app?vid=4e921bd6-7318-4e59-bc63-645afd4ef569"},"vehicle_type_id":"4","last_reported":1745968153,"current_range_meters":6000,"station_id":"cpo36qri1sfpv3e86is0","pricing_plan_id":"cebpf4jnsgd1na2vs0mg"},{"bike_id":"5e5e5b3b-13d3-4c3b-a8a8-3e15f6ffb693","system_id":"levelo_inurba_marseille","lat":43.28687,"lon":5.37386,"is_reserved":false,"is_disabled":false,"rental_uris":{"android":"levelo://app?vid=5e5e5b3b-13d3-4c3b-a8a8-3e15f6ffb693","ios":"levelo://app?vid=5e5e5b3b-13d3-4c3b-a8a8-3e15f6ffb693"},"vehicle_type_id":"4","last_reported":1745968153,"current_range_meters":6400,"station_id":"ce4bh3p2rcd13ifvqdq0","pricing_plan_id":"cebpf4jnsgd1na2vs0mg"},{"bike_id":"3ce2f589-6812-44f1-a5ef-73b7b7230f6d","system_id":"levelo_inurba_marseille","lat":43.29173,"lon":5.36894,"is_reserved":false,"is_disabled":false,"rental_uris":{"android":"levelo://app?vid=3ce2f589-6812-44f1-a5ef-73b7b7230f6d","ios":"levelo://app?vid=3ce2f589-6812-44f1-a5ef-73b7b7230f6d"},"vehicle_type_id":"4","last_reported":1745968153,"current_range_meters":6400,"station_id":"","pricing_plan_id":"cebpf4jnsgd1na2vs0mg"},{"bike_id":"f7074da7-d5a8-40ff-b087-f6b8e470a6e1","system_id":"levelo_inurba_marseille","lat":43.31533,"lon":5.3803,"is_reserved":false,"is_disabled":false,"rental_uris":{"android":"levelo://app?vid=f7074da7-d5a8-40ff-b087-f6b8e470a6e1","ios":"levelo://app?vid=f7074da7-d5a8-40ff-b087-f6b8e470a6e1"},"vehicle_type_id":"4","last_reported":1745968153,"current_range_meters":6800,"station_id":"ce4bhsp2rcd13ifvqi50","pricing_plan_id":"cebpf4jnsgd1na2vs0mg"},{"bike_id":"79af80e6-dae8-4366-9807-e3759055ac2e","system_id":"levelo_inurba_marseille","lat":43.26562,"lon":5.39017,"is_reserved":false,"is_disabled":false,"rental_uris":{"android":"levelo://app?vid=79af80e6-dae8-4366-9807-e3759055ac2e","ios":"levelo://app?vid=79af80e6-dae8-4366-9807-e3759055ac2e"},"vehicle_type_id":"4","last_reported":1745968153,"current_range_meters":6800,"station_id":"ce4bhe12rcd13ifvqf30","pricing_plan_id":"cebpf4jnsgd1na2vs0mg"},{"bike_id":"f129656c-8df3-4728-9fb0-0c3604ac311f","system_id":"levelo_inurba_marseille","lat":43.2792,"lon":5.39576,"is_reserved":false,"is_disabled":false,"rental_uris":{"android":"levelo://app?vid=f129656c-8df3-4728-9fb0-0c3604ac311f","ios":"levelo://app?vid=f129656c-8df3-4728-9fb0-0c3604ac311f"},"vehicle_type_id":"4","last_reported":1745968153,"current_range_meters":6800,"station_id":"ce4bhf92rcd13ifvqf40","pricing_plan_id":"cebpf4jnsgd1na2vs0mg"},{"bike_id":"e5b4b90d-e268-4de2-98f4-f6d0513f8801","system_id":"levelo_inurba_marseille","lat":43.26546,"lon":5.42213,"is_reserved":false,"is_disabled":false,"rental_uris":{"android":"levelo://app?vid=e5b4b90d-e268-4de2-98f4-f6d0513f8801","ios":"levelo://app?vid=e5b4b90d-e268-4de2-98f4-f6d0513f8801"},"vehicle_type_id":"4","last_reported":1745968153,"current_range_meters":6800,"station_id":"","pricing_plan_id":"cebpf4jnsgd1na2vs0mg"},{"bike_id":"dbdacbe4-4534-4d90-9d33-96b20d3b7463","system_id":"levelo_inurba_marseille","lat":43.29218,"lon":5.40005,"is_reserved":false,"is_disabled":false,"rental_uris":{"android":"levelo://app?vid=dbdacbe4-4534-4d90-9d33-96b20d3b7463","ios":"levelo://app?vid=dbdacbe4-4534-4d90-9d33-96b20d3b7463"},"vehicle_type_id":"4","last_reported":1745968153,"current_range_meters":6800,"station_id":"","pricing_plan_id":"cebpf4jnsgd1na2vs0mg"},{"bike_id":"9a56b234-08a9-44e3-96d8-08ff7eada60d","system_id":"levelo_inurba_marseille","lat":43.28714,"lon":5.375395,"is_reserved":false,"is_disabled":false,"rental_uris":{"android":"levelo://app?vid=9a56b234-08a9-44e3-96d8-08ff7eada60d","ios":"levelo://app?vid=9a56b234-08a9-44e3-96d8-08ff7eada60d"},"vehicle_type_id":"4","last_reported":1745968153,"current_range_meters":6800,"station_id":"ce4bh3p2rcd13ifvqdq0","pricing_plan_id":"cebpf4jnsgd1na2vs0mg"},{"bike_id":"6f91fbbb-182d-4f0b-90e1-9c6ae2771ac2","system_id":"levelo_inurba_marseille","lat":43.30131,"lon":5.39859,"is_reserved":false,"is_disabled":false,"rental_uris":{"android":"levelo://app?vid=6f91fbbb-182d-4f0b-90e1-9c6ae2771ac2","ios":"levelo://app?vid=6f91fbbb-182d-4f0b-90e1-9c6ae2771ac2"},"vehicle_type_id":"4","last_reported":1745968153,"current_range_meters":7200,"station_id":"ce4bh0h2rcd13ifvqd40","pricing_plan_id":"cebpf4jnsgd1na2vs0mg"},{"bike_id":"f1e3c12a-02a3-4893-b9e1-1aacd74f3f49","system_id":"levelo_inurba_marseille","lat":43.32081,"lon":5.3681,"is_reserved":false,"is_disabled":false,"rental_uris":{"android":"levelo://app?vid=f1e3c12a-02a3-4893-b9e1-1aacd74f3f49","ios":"levelo://app?vid=f1e3c12a-02a3-4893-b9e1-1aacd74f3f49"},"vehicle_type_id":"4","last_reported":1745968153,"current_range_meters":7200,"station_id":"ce4bhrh2rcd13ifvqhug","pricing_plan_id":"cebpf4jnsgd1na2vs0mg"},{"bike_id":"4495444d-abd9-4d15-ae65-abeb5470be26","system_id":"levelo_inurba_marseille","lat":43.30552,"lon":5.38431,"is_reserved":false,"is_disabled":false,"rental_uris":{"android":"levelo://app?vid=4495444d-abd9-4d15-ae65-abeb5470be26","ios":"levelo://app?vid=4495444d-abd9-4d15-ae65-abeb5470be26"},"vehicle_type_id":"4","last_reported":1745968153,"current_range_meters":7200,"station_id":"ce4bgg92rcd13ifvqb30","pricing_plan_id":"cebpf4jnsgd1na2vs0mg"},{"bike_id":"738568dc-408d-4c2d-88de-35ad23a92b23","system_id":"levelo_inurba_marseille","lat":43.24172,"lon":5.3639,"is_reserved":false,"is_disabled":false,"rental_uris":{"android":"levelo://app?vid=738568dc-408d-4c2d-88de-35ad23a92b23","ios":"levelo://app?vid=738568dc-408d-4c2d-88de-35ad23a92b23"},"vehicle_type_id":"4","last_reported":1745968153,"current_range_meters":7200,"station_id":"cpo36qri1sfpv3e86is0","pricing_plan_id":"cebpf4jnsgd1na2vs0mg"},{"bike_id":"c3701277-3ef8-4af1-aceb-6364bb93ea9e","system_id":"levelo_inurba_marseille","lat":43.322776,"lon":5.382401,"is_reserved":false,"is_disabled":false,"rental_uris":{"android":"levelo://app?vid=c3701277-3ef8-4af1-aceb-6364bb93ea9e","ios":"levelo://app?vid=c3701277-3ef8-4af1-aceb-6364bb93ea9e"},"vehicle_type_id":"4","last_reported":1745968153,"current_range_meters":7200,"station_id":"ce4bhr12rcd13ifvqhqg","pricing_plan_id":"cebpf4jnsgd1na2vs0mg"},{"bike_id":"ab7a35b2-b33f-4be5-84e4-9d6b0ec288e4","system_id":"levelo_inurba_marseille","lat":43.26565,"lon":5.3728,"is_reserved":false,"is_disabled":false,"rental_uris":{"android":"levelo://app?vid=ab7a35b2-b33f-4be5-84e4-9d6b0ec288e4","ios":"levelo://app?vid=ab7a35b2-b33f-4be5-84e4-9d6b0ec288e4"},"vehicle_type_id":"4","last_reported":1745968153,"current_range_meters":8000,"station_id":"ce4bhg12rcd13ifvqf70","pricing_plan_id":"cebpf4jnsgd1na2vs0mg"},{"bike_id":"6f38b2ef-8c68-4c77-9fb6-fb95536bec70","system_id":"levelo_inurba_marseille","lat":43.26232,"lon":5.40453,"is_reserved":false,"is_disabled":false,"rental_uris":{"android":"levelo://app?vid=6f38b2ef-8c68-4c77-9fb6-fb95536bec70","ios":"levelo://app?vid=6f38b2ef-8c68-4c77-9fb6-fb95536bec70"},"vehicle_type_id":"4","last_reported":1745968153,"current_range_meters":8000,"station_id":"ce4bhmh2rcd13ifvqgmg","pricing_plan_id":"cebpf4jnsgd1na2vs0mg"},{"bike_id":"fcf39cbd-8d86-44b1-994d-edea3f417da6","system_id":"levelo_inurba_marseille","lat":43.271767,"lon":5.40996,"is_reserved":false,"is_disabled":false,"rental_uris":{"android":"levelo://app?vid=fcf39cbd-8d86-44b1-994d-edea3f417da6","ios":"levelo://app?vid=fcf39cbd-8d86-44b1-994d-edea3f417da6"},"vehicle_type_id":"4","last_reported":1745968153,"current_range_meters":8000,"station_id":"ce4bhl12rcd13ifvqgf0","pricing_plan_id":"cebpf4jnsgd1na2vs0mg"},{"bike_id":"b91f9a69-4cb5-41b7-b305-31a14f27626b","system_id":"levelo_inurba_marseille","lat":43.28413,"lon":5.34988,"is_reserved":false,"is_disabled":true,"rental_uris":{"android":"levelo://app?vid=b91f9a69-4cb5-41b7-b305-31a14f27626b","ios":"levelo://app?vid=b91f9a69-4cb5-41b7-b305-31a14f27626b"},"vehicle_type_id":"4","last_reported":1745968153,"current_range_meters":8000,"station_id":"ce4bhbh2rcd13ifvqepg","pricing_plan_id":"cebpf4jnsgd1na2vs0mg"},{"bike_id":"58d96813-51d9-4691-82e4-fd7df8625fb2","system_id":"levelo_inurba_marseille","lat":43.30383,"lon":5.42476,"is_reserved":false,"is_disabled":false,"rental_uris":{"android":"levelo://app?vid=58d96813-51d9-4691-82e4-fd7df8625fb2","ios":"levelo://app?vid=58d96813-51d9-4691-82e4-fd7df8625fb2"},"vehicle_type_id":"4","last_reported":1745968153,"current_range_meters":8000,"station_id":"ce4bhoh2rcd13ifvqh6g","pricing_plan_id":"cebpf4jnsgd1na2vs0mg"},{"bike_id":"5836a6ba-325a-41e2-92c0-3359d340dd3d","system_id":"levelo_inurba_marseille","lat":43.29196,"lon":5.35788,"is_reserved":false,"is_disabled":true,"rental_uris":{"android":"levelo://app?vid=5836a6ba-325a-41e2-92c0-3359d340dd3d","ios":"levelo://app?vid=5836a6ba-325a-41e2-92c0-3359d340dd3d"},"vehicle_type_id":"4","last_reported":1745968153,"current_range_meters":8400,"station_id":"ce4bhb12rcd13ifvqel0","pricing_plan_id":"cebpf4jnsgd1na2vs0mg"},{"bike_id":"675f622c-7d55-4692-8fa9-36cb9fe77410","system_id":"levelo_inurba_marseille","lat":43.30333,"lon":5.40452,"is_reserved":false,"is_disabled":false,"rental_uris":{"android":"levelo://app?vid=675f622c-7d55-4692-8fa9-36cb9fe77410","ios":"levelo://app?vid=675f622c-7d55-4692-8fa9-36cb9fe77410"},"vehicle_type_id":"4","last_reported":1745968153,"current_range_meters":8400,"station_id":"ce4bh012rcd13ifvqd10","pricing_plan_id":"cebpf4jnsgd1na2vs0mg"},{"bike_id":"b96f21bb-69d8-4cbf-b464-f36a8f53d6e0","system_id":"levelo_inurba_marseille","lat":43.26033,"lon":5.41736,"is_reserved":false,"is_disabled":false,"rental_uris":{"android":"levelo://app?vid=b96f21bb-69d8-4cbf-b464-f36a8f53d6e0","ios":"levelo://app?vid=b96f21bb-69d8-4cbf-b464-f36a8f53d6e0"},"vehicle_type_id":"4","last_reported":1745968153,"current_range_meters":8400,"station_id":"","pricing_plan_id":"cebpf4jnsgd1na2vs0mg"},{"bike_id":"1b301f02-2962-490e-9968-7ce15bdd5405","system_id":"levelo_inurba_marseille","lat":43.28703,"lon":5.37393,"is_reserved":false,"is_disabled":false,"rental_uris":{"android":"levelo://app?vid=1b301f02-2962-490e-9968-7ce15bdd5405","ios":"levelo://app?vid=1b301f02-2962-490e-9968-7ce15bdd5405"},"vehicle_type_id":"4","last_reported":1745968153,"current_range_meters":8400,"station_id":"ce4bh3p2rcd13ifvqdq0","pricing_plan_id":"cebpf4jnsgd1na2vs0mg"},{"bike_id":"7497e739-0c50-4aa1-9f39-dfb008e37b83","system_id":"levelo_inurba_marseille","lat":43.30967,"lon":5.3709,"is_reserved":false,"is_disabled":false,"rental_uris":{"android":"levelo://app?vid=7497e739-0c50-4aa1-9f39-dfb008e37b83","ios":"levelo://app?vid=7497e739-0c50-4aa1-9f39-dfb008e37b83"},"vehicle_type_id":"4","last_reported":1745968153,"current_range_meters":8400,"station_id":"","pricing_plan_id":"cebpf4jnsgd1na2vs0mg"},{"bike_id":"e5450ef0-988d-4840-bb98-9127164e687d","system_id":"levelo_inurba_marseille","lat":43.30524,"lon":5.384283,"is_reserved":false,"is_disabled":false,"rental_uris":{"android":"levelo://app?vid=e5450ef0-988d-4840-bb98-9127164e687d","ios":"levelo://app?vid=e5450ef0-988d-4840-bb98-9127164e687d"},"vehicle_type_id":"4","last_reported":1745968153,"current_range_meters":8400,"station_id":"ce4bgg92rcd13ifvqb30","pricing_plan_id":"cebpf4jnsgd1na2vs0mg"},{"bike_id":"d693c143-5944-42c7-b7b1-448d4c6d229b","system_id":"levelo_inurba_marseille","lat":43.312821,"lon":5.401699,"is_reserved":false,"is_disabled":false,"rental_uris":{"android":"levelo://app?vid=d693c143-5944-42c7-b7b1-448d4c6d229b","ios":"levelo://app?vid=d693c143-5944-42c7-b7b1-448d4c6d229b"},"vehicle_type_id":"4","last_reported":1745968153,"current_range_meters":8800,"station_id":"ce4bh092rcd13ifvqd30","pricing_plan_id":"cebpf4jnsgd1na2vs0mg"},{"bike_id":"cdad098b-b6dd-4343-9d39-bb659f53ed4a","system_id":"levelo_inurba_marseille","lat":43.30767,"lon":5.37656,"is_reserved":false,"is_disabled":false,"rental_uris":{"android":"levelo://app?vid=cdad098b-b6dd-4343-9d39-bb659f53ed4a","ios":"levelo://app?vid=cdad098b-b6dd-4343-9d39-bb659f53ed4a"},"vehicle_type_id":"4","last_reported":1745968153,"current_range_meters":8800,"station_id":"ce4bgv92rcd13ifvqcq0","pricing_plan_id":"cebpf4jnsgd1na2vs0mg"},{"bike_id":"6b60bf79-15ce-44ac-ae2b-e41f2863a48b","system_id":"levelo_inurba_marseille","lat":43.30226,"lon":5.40049,"is_reserved":false,"is_disabled":true,"rental_uris":{"android":"levelo://app?vid=6b60bf79-15ce-44ac-ae2b-e41f2863a48b","ios":"levelo://app?vid=6b60bf79-15ce-44ac-ae2b-e41f2863a48b"},"vehicle_type_id":"4","last_reported":1745968153,"current_range_meters":8800,"station_id":"ce4bgvh2rcd13ifvqcs0","pricing_plan_id":"cebpf4jnsgd1na2vs0mg"},{"bike_id":"561b2f84-08e7-4121-bad8-f7a2a19f1511","system_id":"levelo_inurba_marseille","lat":43.280765,"lon":5.396388,"is_reserved":false,"is_disabled":false,"rental_uris":{"android":"levelo://app?vid=561b2f84-08e7-4121-bad8-f7a2a19f1511","ios":"levelo://app?vid=561b2f84-08e7-4121-bad8-f7a2a19f1511"},"vehicle_type_id":"4","last_reported":1745968153,"current_range_meters":8800,"station_id":"ce4bho12rcd13ifvqh2g","pricing_plan_id":"cebpf4jnsgd1na2vs0mg"},{"bike_id":"3c10f98c-2cb9-4204-927c-152300f9b3ce","system_id":"levelo_inurba_marseille","lat":43.34724,"lon":5.35187,"is_reserved":false,"is_disabled":false,"rental_uris":{"android":"levelo://app?vid=3c10f98c-2cb9-4204-927c-152300f9b3ce","ios":"levelo://app?vid=3c10f98c-2cb9-4204-927c-152300f9b3ce"},"vehicle_type_id":"4","last_reported":1745968153,"current_range_meters":8800,"station_id":"","pricing_plan_id":"cebpf4jnsgd1na2vs0mg"},{"bike_id":"1862fb6f-61c4-4c09-a828-864ab246ea11","system_id":"levelo_inurba_marseille","lat":43.235353,"lon":5.403235,"is_reserved":false,"is_disabled":false,"rental_uris":{"android":"levelo://app?vid=1862fb6f-61c4-4c09-a828-864ab246ea11","ios":"levelo://app?vid=1862fb6f-61c4-4c09-a828-864ab246ea11"},"vehicle_type_id":"4","last_reported":1745968153,"current_range_meters":8800,"station_id":"","pricing_plan_id":"cebpf4jnsgd1na2vs0mg"},{"bike_id":"3a3adc5f-c46c-4ddb-9f5b-addbfa5853df","system_id":"levelo_inurba_marseille","lat":43.30221,"lon":5.39459,"is_reserved":false,"is_disabled":false,"rental_uris":{"android":"levelo://app?vid=3a3adc5f-c46c-4ddb-9f5b-addbfa5853df","ios":"levelo://app?vid=3a3adc5f-c46c-4ddb-9f5b-addbfa5853df"},"vehicle_type_id":"4","last_reported":1745968153,"current_range_meters":9200,"station_id":"ce4bh0p2rcd13ifvqd70","pricing_plan_id":"cebpf4jnsgd1na2vs0mg"},{"bike_id":"a491bdd7-c56b-4ad9-9f1e-ed090c26045e","system_id":"levelo_inurba_marseille","lat":43.308428,"lon":5.378964,"is_reserved":false,"is_disabled":false,"rental_uris":{"android":"levelo://app?vid=a491bdd7-c56b-4ad9-9f1e-ed090c26045e","ios":"levelo://app?vid=a491bdd7-c56b-4ad9-9f1e-ed090c26045e"},"vehicle_type_id":"4","last_reported":1745968153,"current_range_meters":9200,"station_id":"","pricing_plan_id":"cebpf4jnsgd1na2vs0mg"},{"bike_id":"c7d4ca92-020f-4c6f-815a-ddc6fdf77b1f","system_id":"levelo_inurba_marseille","lat":43.234664,"lon":5.380417,"is_reserved":false,"is_disabled":false,"rental_uris":{"android":"levelo://app?vid=c7d4ca92-020f-4c6f-815a-ddc6fdf77b1f","ios":"levelo://app?vid=c7d4ca92-020f-4c6f-815a-ddc6fdf77b1f"},"vehicle_type_id":"4","last_reported":1745968153,"current_range_meters":9200,"station_id":"","pricing_plan_id":"cebpf4jnsgd1na2vs0mg"},{"bike_id":"950539c0-c2a7-4f10-9505-afe3371972fa","system_id":"levelo_inurba_marseille","lat":43.30635,"lon":5.40069,"is_reserved":false,"is_disabled":false,"rental_uris":{"android":"levelo://app?vid=950539c0-c2a7-4f10-9505-afe3371972fa","ios":"levelo://app?vid=950539c0-c2a7-4f10-9505-afe3371972fa"},"vehicle_type_id":"4","last_reported":1745968153,"current_range_meters":9600,"station_id":"ce4bh112rcd13ifvqda0","pricing_plan_id":"cebpf4jnsgd1na2vs0mg"},{"bike_id":"1c784351-9820-4386-9392-82ce87397468","system_id":"levelo_inurba_marseille","lat":43.306362,"lon":5.400942,"is_reserved":false,"is_disabled":false,"rental_uris":{"android":"levelo://app?vid=1c784351-9820-4386-9392-82ce87397468","ios":"levelo://app?vid=1c784351-9820-4386-9392-82ce87397468"},"vehicle_type_id":"4","last_reported":1745968153,"current_range_meters":9600,"station_id":"ce4bh112rcd13ifvqda0","pricing_plan_id":"cebpf4jnsgd1na2vs0mg"},{"bike_id":"0fbda7cd-f00d-4938-8e1e-60366b309981","system_id":"levelo_inurba_marseille","lat":43.28036,"lon":5.36932,"is_reserved":false,"is_disabled":false,"rental_uris":{"android":"levelo://app?vid=0fbda7cd-f00d-4938-8e1e-60366b309981","ios":"levelo://app?vid=0fbda7cd-f00d-4938-8e1e-60366b309981"},"vehicle_type_id":"4","last_reported":1745968153,"current_range_meters":9600,"station_id":"ce4bha12rcd13ifvqef0","pricing_plan_id":"cebpf4jnsgd1na2vs0mg"},{"bike_id":"bcbdece9-18a4-4ced-8494-9c131639e5f6","system_id":"levelo_inurba_marseille","lat":43.26084,"lon":5.41453,"is_reserved":false,"is_disabled":false,"rental_uris":{"android":"levelo://app?vid=bcbdece9-18a4-4ced-8494-9c131639e5f6","ios":"levelo://app?vid=bcbdece9-18a4-4ced-8494-9c131639e5f6"},"vehicle_type_id":"4","last_reported":1745968153,"current_range_meters":9600,"station_id":"","pricing_plan_id":"cebpf4jnsgd1na2vs0mg"},{"bike_id":"a588e75c-95ed-4ca0-b8c7-1d2dead0870f","system_id":"levelo_inurba_marseille","lat":43.27499,"lon":5.42446,"is_reserved":false,"is_disabled":false,"rental_uris":{"android":"levelo://app?vid=a588e75c-95ed-4ca0-b8c7-1d2dead0870f","ios":"levelo://app?vid=a588e75c-95ed-4ca0-b8c7-1d2dead0870f"},"vehicle_type_id":"4","last_reported":1745968153,"current_range_meters":9600,"station_id":"ce4bhn92rcd13ifvqgrg","pricing_plan_id":"cebpf4jnsgd1na2vs0mg"},{"bike_id":"1be6b8de-5ed4-4d8a-9cd6-aeff3b5c0661","system_id":"levelo_inurba_marseille","lat":43.289784,"lon":5.378326,"is_reserved":false,"is_disabled":true,"rental_uris":{"android":"levelo://app?vid=1be6b8de-5ed4-4d8a-9cd6-aeff3b5c0661","ios":"levelo://app?vid=1be6b8de-5ed4-4d8a-9cd6-aeff3b5c0661"},"vehicle_type_id":"4","last_reported":1745968153,"current_range_meters":10000,"station_id":"ce4bh9p2rcd13ifvqed0","pricing_plan_id":"cebpf4jnsgd1na2vs0mg"},{"bike_id":"7744fc4a-a864-4a95-995b-a7a1e63cfe78","system_id":"levelo_inurba_marseille","lat":43.317334,"lon":5.423806,"is_reserved":false,"is_disabled":false,"rental_uris":{"android":"levelo://app?vid=7744fc4a-a864-4a95-995b-a7a1e63cfe78","ios":"levelo://app?vid=7744fc4a-a864-4a95-995b-a7a1e63cfe78"},"vehicle_type_id":"4","last_reported":1745968153,"current_range_meters":10000,"station_id":"ce4bhp92rcd13ifvqhbg","pricing_plan_id":"cebpf4jnsgd1na2vs0mg"},{"bike_id":"001cc922-c08b-48c6-b124-2829e7acef22","system_id":"levelo_inurba_marseille","lat":43.28582,"lon":5.39479,"is_reserved":false,"is_disabled":false,"rental_uris":{"android":"levelo://app?vid=001cc922-c08b-48c6-b124-2829e7acef22","ios":"levelo://app?vid=001cc922-c08b-48c6-b124-2829e7acef22"},"vehicle_type_id":"4","last_reported":1745968153,"current_range_meters":10000,"station_id":"ce4bh292rcd13ifvqdg0","pricing_plan_id":"cebpf4jnsgd1na2vs0mg"},{"bike_id":"eb225726-eb05-424f-bbfe-17acb0ca5c72","system_id":"levelo_inurba_marseille","lat":43.31532,"lon":5.38012,"is_reserved":false,"is_disabled":false,"rental_uris":{"android":"levelo://app?vid=eb225726-eb05-424f-bbfe-17acb0ca5c72","ios":"levelo://app?vid=eb225726-eb05-424f-bbfe-17acb0ca5c72"},"vehicle_type_id":"4","last_reported":1745968153,"current_range_meters":10000,"station_id":"ce4bhsp2rcd13ifvqi50","pricing_plan_id":"cebpf4jnsgd1na2vs0mg"},{"bike_id":"c339bc39-8027-4a12-ba75-2c773ffe98b5","system_id":"levelo_inurba_marseille","lat":43.25724,"lon":5.41102,"is_reserved":false,"is_disabled":false,"rental_uris":{"android":"levelo://app?vid=c339bc39-8027-4a12-ba75-2c773ffe98b5","ios":"levelo://app?vid=c339bc39-8027-4a12-ba75-2c773ffe98b5"},"vehicle_type_id":"4","last_reported":1745968153,"current_range_meters":10000,"station_id":"ce4bhkp2rcd13ifvqgd0","pricing_plan_id":"cebpf4jnsgd1na2vs0mg"},{"bike_id":"27e2acdd-2add-407a-a835-796f76c27c03","system_id":"levelo_inurba_marseille","lat":43.32106,"lon":5.36762,"is_reserved":false,"is_disabled":false,"rental_uris":{"android":"levelo://app?vid=27e2acdd-2add-407a-a835-796f76c27c03","ios":"levelo://app?vid=27e2acdd-2add-407a-a835-796f76c27c03"},"vehicle_type_id":"4","last_reported":1745968153,"current_range_meters":10000,"station_id":"ce4bhrh2rcd13ifvqhug","pricing_plan_id":"cebpf4jnsgd1na2vs0mg"},{"bike_id":"d9d65adf-6c62-4fb9-b5a0-e8f6922a2a7d","system_id":"levelo_inurba_marseille","lat":43.28472,"lon":5.35895,"is_reserved":false,"is_disabled":false,"rental_uris":{"android":"levelo://app?vid=d9d65adf-6c62-4fb9-b5a0-e8f6922a2a7d","ios":"levelo://app?vid=d9d65adf-6c62-4fb9-b5a0-e8f6922a2a7d"},"vehicle_type_id":"4","last_reported":1745968153,"current_range_meters":10000,"station_id":"ce4bhah2rcd13ifvqei0","pricing_plan_id":"cebpf4jnsgd1na2vs0mg"},{"bike_id":"624ddcaa-e718-4c1d-bf4e-bba3a7650973","system_id":"levelo_inurba_marseille","lat":43.26573,"lon":5.37271,"is_reserved":false,"is_disabled":false,"rental_uris":{"android":"levelo://app?vid=624ddcaa-e718-4c1d-bf4e-bba3a7650973","ios":"levelo://app?vid=624ddcaa-e718-4c1d-bf4e-bba3a7650973"},"vehicle_type_id":"4","last_reported":1745968153,"current_range_meters":10000,"station_id":"ce4bhg12rcd13ifvqf70","pricing_plan_id":"cebpf4jnsgd1na2vs0mg"},{"bike_id":"c48d791e-48aa-41fb-bd56-d8ab9c9a075d","system_id":"levelo_inurba_marseille","lat":43.28559,"lon":5.39483,"is_reserved":false,"is_disabled":false,"rental_uris":{"android":"levelo://app?vid=c48d791e-48aa-41fb-bd56-d8ab9c9a075d","ios":"levelo://app?vid=c48d791e-48aa-41fb-bd56-d8ab9c9a075d"},"vehicle_type_id":"4","last_reported":1745968153,"current_range_meters":10000,"station_id":"ce4bh292rcd13ifvqdg0","pricing_plan_id":"cebpf4jnsgd1na2vs0mg"},{"bike_id":"b59ce27f-4cb5-4d5d-b008-e4c837d90135","system_id":"levelo_inurba_marseille","lat":43.24662,"lon":5.3815,"is_reserved":false,"is_disabled":false,"rental_uris":{"android":"levelo://app?vid=b59ce27f-4cb5-4d5d-b008-e4c837d90135","ios":"levelo://app?vid=b59ce27f-4cb5-4d5d-b008-e4c837d90135"},"vehicle_type_id":"4","last_reported":1745968153,"current_range_meters":10800,"station_id":"ce4bhih2rcd13ifvqfr0","pricing_plan_id":"cebpf4jnsgd1na2vs0mg"},{"bike_id":"77c59250-8359-4942-8c07-a9c82964e824","system_id":"levelo_inurba_marseille","lat":43.2847,"lon":5.35886,"is_reserved":false,"is_disabled":true,"rental_uris":{"android":"levelo://app?vid=77c59250-8359-4942-8c07-a9c82964e824","ios":"levelo://app?vid=77c59250-8359-4942-8c07-a9c82964e824"},"vehicle_type_id":"4","last_reported":1745968153,"current_range_meters":11200,"station_id":"ce4bhah2rcd13ifvqei0","pricing_plan_id":"cebpf4jnsgd1na2vs0mg"},{"bike_id":"958634e5-248c-4ae7-9b8f-819907b7feae","system_id":"levelo_inurba_marseille","lat":43.30539,"lon":5.38431,"is_reserved":false,"is_disabled":false,"rental_uris":{"android":"levelo://app?vid=958634e5-248c-4ae7-9b8f-819907b7feae","ios":"levelo://app?vid=958634e5-248c-4ae7-9b8f-819907b7feae"},"vehicle_type_id":"4","last_reported":1745968153,"current_range_meters":10800,"station_id":"ce4bgg92rcd13ifvqb30","pricing_plan_id":"cebpf4jnsgd1na2vs0mg"},{"bike_id":"9dd528f1-7987-4620-9e16-782da8c3e457","system_id":"levelo_inurba_marseille","lat":43.26559,"lon":5.39047,"is_reserved":false,"is_disabled":false,"rental_uris":{"android":"levelo://app?vid=9dd528f1-7987-4620-9e16-782da8c3e457","ios":"levelo://app?vid=9dd528f1-7987-4620-9e16-782da8c3e457"},"vehicle_type_id":"4","last_reported":1745968153,"current_range_meters":10800,"station_id":"ce4bhe12rcd13ifvqf30","pricing_plan_id":"cebpf4jnsgd1na2vs0mg"},{"bike_id":"a015aa72-4883-446b-a9a9-e16d84a5a524","system_id":"levelo_inurba_marseille","lat":43.308844,"lon":5.396478,"is_reserved":false,"is_disabled":false,"rental_uris":{"android":"levelo://app?vid=a015aa72-4883-446b-a9a9-e16d84a5a524","ios":"levelo://app?vid=a015aa72-4883-446b-a9a9-e16d84a5a524"},"vehicle_type_id":"4","last_reported":1745968153,"current_range_meters":10800,"station_id":"ce4bh012rcd13ifvqcv0","pricing_plan_id":"cebpf4jnsgd1na2vs0mg"},{"bike_id":"f6afadf8-e6ff-4c7a-8692-5caf68fd0b71","system_id":"levelo_inurba_marseille","lat":43.2293,"lon":5.35372,"is_reserved":false,"is_disabled":true,"rental_uris":{"android":"levelo://app?vid=f6afadf8-e6ff-4c7a-8692-5caf68fd0b71","ios":"levelo://app?vid=f6afadf8-e6ff-4c7a-8692-5caf68fd0b71"},"vehicle_type_id":"4","last_reported":1745968153,"current_range_meters":10800,"station_id":"cpo3532slgdg3j2ikp40","pricing_plan_id":"cebpf4jnsgd1na2vs0mg"},{"bike_id":"48ec7ae3-ab99-4db4-af94-1858a85ee192","system_id":"levelo_inurba_marseille","lat":43.26559,"lon":5.372791,"is_reserved":false,"is_disabled":false,"rental_uris":{"android":"levelo://app?vid=48ec7ae3-ab99-4db4-af94-1858a85ee192","ios":"levelo://app?vid=48ec7ae3-ab99-4db4-af94-1858a85ee192"},"vehicle_type_id":"4","last_reported":1745968153,"current_range_meters":10800,"station_id":"ce4bhg12rcd13ifvqf70","pricing_plan_id":"cebpf4jnsgd1na2vs0mg"},{"bike_id":"1c6e2801-d406-4688-a913-a775da6b0f13","system_id":"levelo_inurba_marseille","lat":43.229307,"lon":5.353717,"is_reserved":false,"is_disabled":false,"rental_uris":{"android":"levelo://app?vid=1c6e2801-d406-4688-a913-a775da6b0f13","ios":"levelo://app?vid=1c6e2801-d406-4688-a913-a775da6b0f13"},"vehicle_type_id":"4","last_reported":1745968153,"current_range_meters":10800,"station_id":"cpo3532slgdg3j2ikp40","pricing_plan_id":"cebpf4jnsgd1na2vs0mg"},{"bike_id":"489415b8-9254-45c1-b00c-e7554d56755c","system_id":"levelo_inurba_marseille","lat":43.245286,"lon":5.412138,"is_reserved":false,"is_disabled":false,"rental_uris":{"android":"levelo://app?vid=489415b8-9254-45c1-b00c-e7554d56755c","ios":"levelo://app?vid=489415b8-9254-45c1-b00c-e7554d56755c"},"vehicle_type_id":"4","last_reported":1745968153,"current_range_meters":11200,"station_id":"","pricing_plan_id":"cebpf4jnsgd1na2vs0mg"},{"bike_id":"06b23fcf-d155-46c0-acd2-5b59645454ea","system_id":"levelo_inurba_marseille","lat":43.28469,"lon":5.38422,"is_reserved":false,"is_disabled":true,"rental_uris":{"android":"levelo://app?vid=06b23fcf-d155-46c0-acd2-5b59645454ea","ios":"levelo://app?vid=06b23fcf-d155-46c0-acd2-5b59645454ea"},"vehicle_type_id":"4","last_reported":1745968153,"current_range_meters":11200,"station_id":"ce4bh512rcd13ifvqe3g","pricing_plan_id":"cebpf4jnsgd1na2vs0mg"},{"bike_id":"4033ecb0-e22a-4f26-bdb0-7177b773be4f","system_id":"levelo_inurba_marseille","lat":43.30595,"lon":5.37211,"is_reserved":false,"is_disabled":false,"rental_uris":{"android":"levelo://app?vid=4033ecb0-e22a-4f26-bdb0-7177b773be4f","ios":"levelo://app?vid=4033ecb0-e22a-4f26-bdb0-7177b773be4f"},"vehicle_type_id":"4","last_reported":1745968153,"current_range_meters":11200,"station_id":"ce4bgqh2rcd13ifvqc4g","pricing_plan_id":"cebpf4jnsgd1na2vs0mg"},{"bike_id":"9fef158f-32d9-4324-99f3-536a7be998bc","system_id":"levelo_inurba_marseille","lat":43.29261,"lon":5.37621,"is_reserved":false,"is_disabled":false,"rental_uris":{"android":"levelo://app?vid=9fef158f-32d9-4324-99f3-536a7be998bc","ios":"levelo://app?vid=9fef158f-32d9-4324-99f3-536a7be998bc"},"vehicle_type_id":"4","last_reported":1745968153,"current_range_meters":11200,"station_id":"ce4bgi12rcd13ifvqb80","pricing_plan_id":"cebpf4jnsgd1na2vs0mg"},{"bike_id":"312629db-7553-4f57-8655-a25196d01b88","system_id":"levelo_inurba_marseille","lat":43.30374,"lon":5.42486,"is_reserved":false,"is_disabled":false,"rental_uris":{"android":"levelo://app?vid=312629db-7553-4f57-8655-a25196d01b88","ios":"levelo://app?vid=312629db-7553-4f57-8655-a25196d01b88"},"vehicle_type_id":"4","last_reported":1745968153,"current_range_meters":11200,"station_id":"ce4bhoh2rcd13ifvqh6g","pricing_plan_id":"cebpf4jnsgd1na2vs0mg"},{"bike_id":"6ff32f17-7b9c-463f-a13f-79ee01c6a7e8","system_id":"levelo_inurba_marseille","lat":43.30267,"lon":5.40055,"is_reserved":false,"is_disabled":false,"rental_uris":{"android":"levelo://app?vid=6ff32f17-7b9c-463f-a13f-79ee01c6a7e8","ios":"levelo://app?vid=6ff32f17-7b9c-463f-a13f-79ee01c6a7e8"},"vehicle_type_id":"4","last_reported":1745968153,"current_range_meters":11200,"station_id":"ce4bgvh2rcd13ifvqcs0","pricing_plan_id":"cebpf4jnsgd1na2vs0mg"},{"bike_id":"421fd581-29e4-4138-8283-024d2e5349f4","system_id":"levelo_inurba_marseille","lat":43.32001,"lon":5.38143,"is_reserved":false,"is_disabled":false,"rental_uris":{"android":"levelo://app?vid=421fd581-29e4-4138-8283-024d2e5349f4","ios":"levelo://app?vid=421fd581-29e4-4138-8283-024d2e5349f4"},"vehicle_type_id":"4","last_reported":1745968153,"current_range_meters":11200,"station_id":"ce4bhr12rcd13ifvqhpg","pricing_plan_id":"cebpf4jnsgd1na2vs0mg"},{"bike_id":"071a671b-fb53-468b-ba8f-96ef79b57233","system_id":"levelo_inurba_marseille","lat":43.32345,"lon":5.36757,"is_reserved":false,"is_disabled":false,"rental_uris":{"android":"levelo://app?vid=071a671b-fb53-468b-ba8f-96ef79b57233","ios":"levelo://app?vid=071a671b-fb53-468b-ba8f-96ef79b57233"},"vehicle_type_id":"4","last_reported":1745968153,"current_range_meters":11200,"station_id":"ce4bhsh2rcd13ifvqi2g","pricing_plan_id":"cebpf4jnsgd1na2vs0mg"},{"bike_id":"7ca0b0fe-c2a9-4807-a912-8f162992eb76","system_id":"levelo_inurba_marseille","lat":43.31716,"lon":5.437,"is_reserved":false,"is_disabled":false,"rental_uris":{"android":"levelo://app?vid=7ca0b0fe-c2a9-4807-a912-8f162992eb76","ios":"levelo://app?vid=7ca0b0fe-c2a9-4807-a912-8f162992eb76"},"vehicle_type_id":"4","last_reported":1745968153,"current_range_meters":11200,"station_id":"ce4bhp92rcd13ifvqhcg","pricing_plan_id":"cebpf4jnsgd1na2vs0mg"},{"bike_id":"8677ec73-cb78-43f6-8771-8f65730b3bed","system_id":"levelo_inurba_marseille","lat":43.31073,"lon":5.38351,"is_reserved":false,"is_disabled":false,"rental_uris":{"android":"levelo://app?vid=8677ec73-cb78-43f6-8771-8f65730b3bed","ios":"levelo://app?vid=8677ec73-cb78-43f6-8771-8f65730b3bed"},"vehicle_type_id":"4","last_reported":1745968153,"current_range_meters":11600,"station_id":"ce4bgv92rcd13ifvqcr0","pricing_plan_id":"cebpf4jnsgd1na2vs0mg"},{"bike_id":"07edfd45-c3fa-4b57-b865-cf1bf9963264","system_id":"levelo_inurba_marseille","lat":43.23375,"lon":5.36402,"is_reserved":false,"is_disabled":false,"rental_uris":{"android":"levelo://app?vid=07edfd45-c3fa-4b57-b865-cf1bf9963264","ios":"levelo://app?vid=07edfd45-c3fa-4b57-b865-cf1bf9963264"},"vehicle_type_id":"4","last_reported":1745968153,"current_range_meters":11600,"station_id":"","pricing_plan_id":"cebpf4jnsgd1na2vs0mg"},{"bike_id":"2472b04f-0970-4637-81bb-9cc066bff2ed","system_id":"levelo_inurba_marseille","lat":43.29922,"lon":5.374902,"is_reserved":false,"is_disabled":false,"rental_uris":{"android":"levelo://app?vid=2472b04f-0970-4637-81bb-9cc066bff2ed","ios":"levelo://app?vid=2472b04f-0970-4637-81bb-9cc066bff2ed"},"vehicle_type_id":"4","last_reported":1745968153,"current_range_meters":12000,"station_id":"ce4bgjh2rcd13ifvqbg0","pricing_plan_id":"cebpf4jnsgd1na2vs0mg"},{"bike_id":"3ae641eb-772b-47f4-9c6f-a55115e8b3d3","system_id":"levelo_inurba_marseille","lat":43.29199,"lon":5.35785,"is_reserved":false,"is_disabled":true,"rental_uris":{"android":"levelo://app?vid=3ae641eb-772b-47f4-9c6f-a55115e8b3d3","ios":"levelo://app?vid=3ae641eb-772b-47f4-9c6f-a55115e8b3d3"},"vehicle_type_id":"4","last_reported":1745968153,"current_range_meters":12000,"station_id":"ce4bhb12rcd13ifvqel0","pricing_plan_id":"cebpf4jnsgd1na2vs0mg"},{"bike_id":"88c4b0a1-aac9-4a20-9e0d-30a4ebef6faf","system_id":"levelo_inurba_marseille","lat":43.30601,"lon":5.37226,"is_reserved":false,"is_disabled":false,"rental_uris":{"android":"levelo://app?vid=88c4b0a1-aac9-4a20-9e0d-30a4ebef6faf","ios":"levelo://app?vid=88c4b0a1-aac9-4a20-9e0d-30a4ebef6faf"},"vehicle_type_id":"4","last_reported":1745968153,"current_range_meters":12000,"station_id":"ce4bgqh2rcd13ifvqc4g","pricing_plan_id":"cebpf4jnsgd1na2vs0mg"},{"bike_id":"3da4f807-a9a7-4e80-80cc-47afecae7882","system_id":"levelo_inurba_marseille","lat":43.27991,"lon":5.40012,"is_reserved":false,"is_disabled":false,"rental_uris":{"android":"levelo://app?vid=3da4f807-a9a7-4e80-80cc-47afecae7882","ios":"levelo://app?vid=3da4f807-a9a7-4e80-80cc-47afecae7882"},"vehicle_type_id":"4","last_reported":1745968153,"current_range_meters":12000,"station_id":"ce4bho92rcd13ifvqh4g","pricing_plan_id":"cebpf4jnsgd1na2vs0mg"},{"bike_id":"3a9bd96a-1d84-454e-b55b-a4ef583e3749","system_id":"levelo_inurba_marseille","lat":43.266852,"lon":5.382586,"is_reserved":false,"is_disabled":true,"rental_uris":{"android":"levelo://app?vid=3a9bd96a-1d84-454e-b55b-a4ef583e3749","ios":"levelo://app?vid=3a9bd96a-1d84-454e-b55b-a4ef583e3749"},"vehicle_type_id":"4","last_reported":1745968153,"current_range_meters":12000,"station_id":"ce4bhg92rcd13ifvqf90","pricing_plan_id":"cebpf4jnsgd1na2vs0mg"},{"bike_id":"28a604ef-98c1-4aff-ab31-a10d3a8eae96","system_id":"levelo_inurba_marseille","lat":43.29531,"lon":5.37501,"is_reserved":false,"is_disabled":true,"rental_uris":{"android":"levelo://app?vid=28a604ef-98c1-4aff-ab31-a10d3a8eae96","ios":"levelo://app?vid=28a604ef-98c1-4aff-ab31-a10d3a8eae96"},"vehicle_type_id":"4","last_reported":1745968153,"current_range_meters":12000,"station_id":"ce4bgkp2rcd13ifvqbmg","pricing_plan_id":"cebpf4jnsgd1na2vs0mg"},{"bike_id":"9ecf076f-7bd8-490a-8c5a-c7a759e90882","system_id":"levelo_inurba_marseille","lat":43.28471,"lon":5.35885,"is_reserved":false,"is_disabled":false,"rental_uris":{"android":"levelo://app?vid=9ecf076f-7bd8-490a-8c5a-c7a759e90882","ios":"levelo://app?vid=9ecf076f-7bd8-490a-8c5a-c7a759e90882"},"vehicle_type_id":"4","last_reported":1745968153,"current_range_meters":12400,"station_id":"ce4bhah2rcd13ifvqei0","pricing_plan_id":"cebpf4jnsgd1na2vs0mg"},{"bike_id":"40cd9c09-5d6c-4b2c-a5ec-3d25d8f86287","system_id":"levelo_inurba_marseille","lat":43.25046,"lon":5.39507,"is_reserved":false,"is_disabled":false,"rental_uris":{"android":"levelo://app?vid=40cd9c09-5d6c-4b2c-a5ec-3d25d8f86287","ios":"levelo://app?vid=40cd9c09-5d6c-4b2c-a5ec-3d25d8f86287"},"vehicle_type_id":"4","last_reported":1745968153,"current_range_meters":12400,"station_id":"","pricing_plan_id":"cebpf4jnsgd1na2vs0mg"},{"bike_id":"ddf42e2f-5ba3-456f-b6b9-71a4fb220f7c","system_id":"levelo_inurba_marseille","lat":43.21753,"lon":5.34592,"is_reserved":false,"is_disabled":false,"rental_uris":{"android":"levelo://app?vid=ddf42e2f-5ba3-456f-b6b9-71a4fb220f7c","ios":"levelo://app?vid=ddf42e2f-5ba3-456f-b6b9-71a4fb220f7c"},"vehicle_type_id":"4","last_reported":1745968153,"current_range_meters":12400,"station_id":"st_cvj6r9ubvosntc0bgbag","pricing_plan_id":"cebpf4jnsgd1na2vs0mg"},{"bike_id":"fe0c4d1a-9874-47df-b868-a5e70081d8ce","system_id":"levelo_inurba_marseille","lat":43.22923,"lon":5.35392,"is_reserved":false,"is_disabled":false,"rental_uris":{"android":"levelo://app?vid=fe0c4d1a-9874-47df-b868-a5e70081d8ce","ios":"levelo://app?vid=fe0c4d1a-9874-47df-b868-a5e70081d8ce"},"vehicle_type_id":"4","last_reported":1745968153,"current_range_meters":12400,"station_id":"cpo3532slgdg3j2ikp40","pricing_plan_id":"cebpf4jnsgd1na2vs0mg"},{"bike_id":"cf832ada-1b81-4b54-a9ce-285379c5202b","system_id":"levelo_inurba_marseille","lat":43.28853,"lon":5.35853,"is_reserved":false,"is_disabled":false,"rental_uris":{"android":"levelo://app?vid=cf832ada-1b81-4b54-a9ce-285379c5202b","ios":"levelo://app?vid=cf832ada-1b81-4b54-a9ce-285379c5202b"},"vehicle_type_id":"4","last_reported":1745968153,"current_range_meters":12400,"station_id":"ce4bhb12rcd13ifvqem0","pricing_plan_id":"cebpf4jnsgd1na2vs0mg"},{"bike_id":"197839f2-0234-459c-be6d-43045265e278","system_id":"levelo_inurba_marseille","lat":43.30633,"lon":5.40068,"is_reserved":false,"is_disabled":false,"rental_uris":{"android":"levelo://app?vid=197839f2-0234-459c-be6d-43045265e278","ios":"levelo://app?vid=197839f2-0234-459c-be6d-43045265e278"},"vehicle_type_id":"4","last_reported":1745968153,"current_range_meters":12800,"station_id":"ce4bh112rcd13ifvqda0","pricing_plan_id":"cebpf4jnsgd1na2vs0mg"},{"bike_id":"0430e36d-ead8-48a2-9759-10a972502fd1","system_id":"levelo_inurba_marseille","lat":43.23157,"lon":5.43702,"is_reserved":false,"is_disabled":false,"rental_uris":{"android":"levelo://app?vid=0430e36d-ead8-48a2-9759-10a972502fd1","ios":"levelo://app?vid=0430e36d-ead8-48a2-9759-10a972502fd1"},"vehicle_type_id":"4","last_reported":1745968153,"current_range_meters":12400,"station_id":"ce4bhmp2rcd13ifvqgog","pricing_plan_id":"cebpf4jnsgd1na2vs0mg"},{"bike_id":"07a6b65e-5383-4334-babe-4808d811c7e7","system_id":"levelo_inurba_marseille","lat":43.28709,"lon":5.37395,"is_reserved":false,"is_disabled":false,"rental_uris":{"android":"levelo://app?vid=07a6b65e-5383-4334-babe-4808d811c7e7","ios":"levelo://app?vid=07a6b65e-5383-4334-babe-4808d811c7e7"},"vehicle_type_id":"4","last_reported":1745968153,"current_range_meters":12800,"station_id":"ce4bh3p2rcd13ifvqdq0","pricing_plan_id":"cebpf4jnsgd1na2vs0mg"},{"bike_id":"9c68c416-b63e-4646-876b-a6ce563ad522","system_id":"levelo_inurba_marseille","lat":43.30939,"lon":5.40142,"is_reserved":false,"is_disabled":false,"rental_uris":{"android":"levelo://app?vid=9c68c416-b63e-4646-876b-a6ce563ad522","ios":"levelo://app?vid=9c68c416-b63e-4646-876b-a6ce563ad522"},"vehicle_type_id":"4","last_reported":1745968153,"current_range_meters":12800,"station_id":"ce4bgvp2rcd13ifvqct0","pricing_plan_id":"cebpf4jnsgd1na2vs0mg"},{"bike_id":"aaa85670-74c9-4e21-978d-333bffbdf1a3","system_id":"levelo_inurba_marseille","lat":43.28084,"lon":5.396661,"is_reserved":false,"is_disabled":false,"rental_uris":{"android":"levelo://app?vid=aaa85670-74c9-4e21-978d-333bffbdf1a3","ios":"levelo://app?vid=aaa85670-74c9-4e21-978d-333bffbdf1a3"},"vehicle_type_id":"4","last_reported":1745968153,"current_range_meters":12800,"station_id":"ce4bho12rcd13ifvqh2g","pricing_plan_id":"cebpf4jnsgd1na2vs0mg"},{"bike_id":"2bb0f5c4-ac25-4582-ae12-024a3a7b1ca5","system_id":"levelo_inurba_marseille","lat":43.28578,"lon":5.39485,"is_reserved":false,"is_disabled":false,"rental_uris":{"android":"levelo://app?vid=2bb0f5c4-ac25-4582-ae12-024a3a7b1ca5","ios":"levelo://app?vid=2bb0f5c4-ac25-4582-ae12-024a3a7b1ca5"},"vehicle_type_id":"4","last_reported":1745968153,"current_range_meters":13600,"station_id":"ce4bh292rcd13ifvqdg0","pricing_plan_id":"cebpf4jnsgd1na2vs0mg"},{"bike_id":"50ef781b-c4c1-4448-a0d9-432667035f48","system_id":"levelo_inurba_marseille","lat":43.30589,"lon":5.393519,"is_reserved":false,"is_disabled":false,"rental_uris":{"android":"levelo://app?vid=50ef781b-c4c1-4448-a0d9-432667035f48","ios":"levelo://app?vid=50ef781b-c4c1-4448-a0d9-432667035f48"},"vehicle_type_id":"4","last_reported":1745968153,"current_range_meters":13600,"station_id":"ce4bh0p2rcd13ifvqd80","pricing_plan_id":"cebpf4jnsgd1na2vs0mg"},{"bike_id":"e499c783-5049-497f-8249-c1d53c1aa298","system_id":"levelo_inurba_marseille","lat":43.31074,"lon":5.38356,"is_reserved":false,"is_disabled":false,"rental_uris":{"android":"levelo://app?vid=e499c783-5049-497f-8249-c1d53c1aa298","ios":"levelo://app?vid=e499c783-5049-497f-8249-c1d53c1aa298"},"vehicle_type_id":"4","last_reported":1745968153,"current_range_meters":13600,"station_id":"ce4bgv92rcd13ifvqcr0","pricing_plan_id":"cebpf4jnsgd1na2vs0mg"},{"bike_id":"ac80e985-cfdf-4940-bf6d-bf2ebe2c2fd0","system_id":"levelo_inurba_marseille","lat":43.321047,"lon":5.367703,"is_reserved":false,"is_disabled":false,"rental_uris":{"android":"levelo://app?vid=ac80e985-cfdf-4940-bf6d-bf2ebe2c2fd0","ios":"levelo://app?vid=ac80e985-cfdf-4940-bf6d-bf2ebe2c2fd0"},"vehicle_type_id":"4","last_reported":1745968153,"current_range_meters":13600,"station_id":"ce4bhrh2rcd13ifvqhug","pricing_plan_id":"cebpf4jnsgd1na2vs0mg"},{"bike_id":"a94ff71c-9912-435c-847f-91e652907443","system_id":"levelo_inurba_marseille","lat":43.31066,"lon":5.38348,"is_reserved":false,"is_disabled":false,"rental_uris":{"android":"levelo://app?vid=a94ff71c-9912-435c-847f-91e652907443","ios":"levelo://app?vid=a94ff71c-9912-435c-847f-91e652907443"},"vehicle_type_id":"4","last_reported":1745968153,"current_range_meters":13600,"station_id":"ce4bgv92rcd13ifvqcr0","pricing_plan_id":"cebpf4jnsgd1na2vs0mg"},{"bike_id":"40a81f13-fb08-4154-bb4d-32834fddeadc","system_id":"levelo_inurba_marseille","lat":43.30146,"lon":5.37409,"is_reserved":false,"is_disabled":false,"rental_uris":{"android":"levelo://app?vid=40a81f13-fb08-4154-bb4d-32834fddeadc","ios":"levelo://app?vid=40a81f13-fb08-4154-bb4d-32834fddeadc"},"vehicle_type_id":"4","last_reported":1745968153,"current_range_meters":13600,"station_id":"ce4bgs92rcd13ifvqcc0","pricing_plan_id":"cebpf4jnsgd1na2vs0mg"},{"bike_id":"697ced8a-2a05-4cd9-8153-69869351863a","system_id":"levelo_inurba_marseille","lat":43.29201,"lon":5.39333,"is_reserved":false,"is_disabled":false,"rental_uris":{"android":"levelo://app?vid=697ced8a-2a05-4cd9-8153-69869351863a","ios":"levelo://app?vid=697ced8a-2a05-4cd9-8153-69869351863a"},"vehicle_type_id":"4","last_reported":1745968153,"current_range_meters":13600,"station_id":"ce4bh192rcd13ifvqdd0","pricing_plan_id":"cebpf4jnsgd1na2vs0mg"},{"bike_id":"6d1c5eaf-041b-4e46-be6f-e55c97ecb5cb","system_id":"levelo_inurba_marseille","lat":43.320013,"lon":5.381357,"is_reserved":false,"is_disabled":false,"rental_uris":{"android":"levelo://app?vid=6d1c5eaf-041b-4e46-be6f-e55c97ecb5cb","ios":"levelo://app?vid=6d1c5eaf-041b-4e46-be6f-e55c97ecb5cb"},"vehicle_type_id":"4","last_reported":1745968153,"current_range_meters":13600,"station_id":"ce4bhr12rcd13ifvqhpg","pricing_plan_id":"cebpf4jnsgd1na2vs0mg"},{"bike_id":"03ea244f-292f-4096-8468-3637ad73304b","system_id":"levelo_inurba_marseille","lat":43.290033,"lon":5.356314,"is_reserved":false,"is_disabled":false,"rental_uris":{"android":"levelo://app?vid=03ea244f-292f-4096-8468-3637ad73304b","ios":"levelo://app?vid=03ea244f-292f-4096-8468-3637ad73304b"},"vehicle_type_id":"4","last_reported":1745968153,"current_range_meters":13600,"station_id":"","pricing_plan_id":"cebpf4jnsgd1na2vs0mg"},{"bike_id":"d50cb595-81a6-406b-90c1-e39a8ffa9f99","system_id":"levelo_inurba_marseille","lat":43.24173,"lon":5.3972,"is_reserved":false,"is_disabled":false,"rental_uris":{"android":"levelo://app?vid=d50cb595-81a6-406b-90c1-e39a8ffa9f99","ios":"levelo://app?vid=d50cb595-81a6-406b-90c1-e39a8ffa9f99"},"vehicle_type_id":"4","last_reported":1745968153,"current_range_meters":13600,"station_id":"ce4bhn12rcd13ifvqgpg","pricing_plan_id":"cebpf4jnsgd1na2vs0mg"},{"bike_id":"af6337a5-0697-4d38-8b86-36aaefcc237a","system_id":"levelo_inurba_marseille","lat":43.30148,"lon":5.3742,"is_reserved":false,"is_disabled":false,"rental_uris":{"android":"levelo://app?vid=af6337a5-0697-4d38-8b86-36aaefcc237a","ios":"levelo://app?vid=af6337a5-0697-4d38-8b86-36aaefcc237a"},"vehicle_type_id":"4","last_reported":1745968153,"current_range_meters":13600,"station_id":"ce4bgs92rcd13ifvqcc0","pricing_plan_id":"cebpf4jnsgd1na2vs0mg"},{"bike_id":"3d4244a3-61e0-47ef-b17d-838bdcd21d4f","system_id":"levelo_inurba_marseille","lat":43.28482,"lon":5.38439,"is_reserved":false,"is_disabled":false,"rental_uris":{"android":"levelo://app?vid=3d4244a3-61e0-47ef-b17d-838bdcd21d4f","ios":"levelo://app?vid=3d4244a3-61e0-47ef-b17d-838bdcd21d4f"},"vehicle_type_id":"4","last_reported":1745968153,"current_range_meters":14000,"station_id":"ce4bh512rcd13ifvqe3g","pricing_plan_id":"cebpf4jnsgd1na2vs0mg"},{"bike_id":"67946696-e1b4-48e1-9aea-70b477d4f50c","system_id":"levelo_inurba_marseille","lat":43.306574,"lon":5.400865,"is_reserved":false,"is_disabled":false,"rental_uris":{"android":"levelo://app?vid=67946696-e1b4-48e1-9aea-70b477d4f50c","ios":"levelo://app?vid=67946696-e1b4-48e1-9aea-70b477d4f50c"},"vehicle_type_id":"4","last_reported":1745968153,"current_range_meters":14000,"station_id":"ce4bh112rcd13ifvqda0","pricing_plan_id":"cebpf4jnsgd1na2vs0mg"},{"bike_id":"dcb0b990-89f9-495c-a9c1-10b17ae39667","system_id":"levelo_inurba_marseille","lat":43.234774,"lon":5.380378,"is_reserved":false,"is_disabled":false,"rental_uris":{"android":"levelo://app?vid=dcb0b990-89f9-495c-a9c1-10b17ae39667","ios":"levelo://app?vid=dcb0b990-89f9-495c-a9c1-10b17ae39667"},"vehicle_type_id":"4","last_reported":1745968153,"current_range_meters":14000,"station_id":"","pricing_plan_id":"cebpf4jnsgd1na2vs0mg"},{"bike_id":"47890d83-8448-4b7f-bd1d-7aeb433e6435","system_id":"levelo_inurba_marseille","lat":43.243885,"lon":5.37045,"is_reserved":false,"is_disabled":false,"rental_uris":{"android":"levelo://app?vid=47890d83-8448-4b7f-bd1d-7aeb433e6435","ios":"levelo://app?vid=47890d83-8448-4b7f-bd1d-7aeb433e6435"},"vehicle_type_id":"4","last_reported":1745968153,"current_range_meters":13600,"station_id":"ce4bhhh2rcd13ifvqfk0","pricing_plan_id":"cebpf4jnsgd1na2vs0mg"},{"bike_id":"6f2a21fc-3600-4bf9-bb99-2b0dced460c4","system_id":"levelo_inurba_marseille","lat":43.31309,"lon":5.39704,"is_reserved":false,"is_disabled":false,"rental_uris":{"android":"levelo://app?vid=6f2a21fc-3600-4bf9-bb99-2b0dced460c4","ios":"levelo://app?vid=6f2a21fc-3600-4bf9-bb99-2b0dced460c4"},"vehicle_type_id":"4","last_reported":1745968153,"current_range_meters":14000,"station_id":"ce4bgvp2rcd13ifvqcu0","pricing_plan_id":"cebpf4jnsgd1na2vs0mg"},{"bike_id":"4d4778ed-b855-40e3-aed9-6ce2157d0719","system_id":"levelo_inurba_marseille","lat":43.313294,"lon":5.396919,"is_reserved":false,"is_disabled":false,"rental_uris":{"android":"levelo://app?vid=4d4778ed-b855-40e3-aed9-6ce2157d0719","ios":"levelo://app?vid=4d4778ed-b855-40e3-aed9-6ce2157d0719"},"vehicle_type_id":"4","last_reported":1745968153,"current_range_meters":14000,"station_id":"ce4bgvp2rcd13ifvqcu0","pricing_plan_id":"cebpf4jnsgd1na2vs0mg"},{"bike_id":"b3e60297-8beb-4af0-9fec-9a4f4f72afcf","system_id":"levelo_inurba_marseille","lat":43.28156,"lon":5.42641,"is_reserved":false,"is_disabled":false,"rental_uris":{"android":"levelo://app?vid=b3e60297-8beb-4af0-9fec-9a4f4f72afcf","ios":"levelo://app?vid=b3e60297-8beb-4af0-9fec-9a4f4f72afcf"},"vehicle_type_id":"4","last_reported":1745968153,"current_range_meters":14000,"station_id":"ce4bhnh2rcd13ifvqgug","pricing_plan_id":"cebpf4jnsgd1na2vs0mg"},{"bike_id":"151b0301-dcdb-49f4-8a86-3a559c1d86a0","system_id":"levelo_inurba_marseille","lat":43.28731,"lon":5.36073,"is_reserved":false,"is_disabled":false,"rental_uris":{"android":"levelo://app?vid=151b0301-dcdb-49f4-8a86-3a559c1d86a0","ios":"levelo://app?vid=151b0301-dcdb-49f4-8a86-3a559c1d86a0"},"vehicle_type_id":"4","last_reported":1745968153,"current_range_meters":14400,"station_id":"cki0cbj6b192h4jlfktg","pricing_plan_id":"cebpf4jnsgd1na2vs0mg"},{"bike_id":"69dd1e9e-ed56-49df-8341-c0a3bbb97a00","system_id":"levelo_inurba_marseille","lat":43.30395,"lon":5.38926,"is_reserved":false,"is_disabled":false,"rental_uris":{"android":"levelo://app?vid=69dd1e9e-ed56-49df-8341-c0a3bbb97a00","ios":"levelo://app?vid=69dd1e9e-ed56-49df-8341-c0a3bbb97a00"},"vehicle_type_id":"4","last_reported":1745968153,"current_range_meters":14400,"station_id":"ce4bgk12rcd13ifvqbi0","pricing_plan_id":"cebpf4jnsgd1na2vs0mg"},{"bike_id":"07fd015a-c321-4747-988e-5a04d55d2eb2","system_id":"levelo_inurba_marseille","lat":43.29275,"lon":5.40109,"is_reserved":false,"is_disabled":false,"rental_uris":{"android":"levelo://app?vid=07fd015a-c321-4747-988e-5a04d55d2eb2","ios":"levelo://app?vid=07fd015a-c321-4747-988e-5a04d55d2eb2"},"vehicle_type_id":"4","last_reported":1745968153,"current_range_meters":14400,"station_id":"ce4bh312rcd13ifvqdk0","pricing_plan_id":"cebpf4jnsgd1na2vs0mg"},{"bike_id":"01d8a4b0-b0e9-491f-8e4e-927b6a75a248","system_id":"levelo_inurba_marseille","lat":43.30798,"lon":5.38152,"is_reserved":false,"is_disabled":false,"rental_uris":{"android":"levelo://app?vid=01d8a4b0-b0e9-491f-8e4e-927b6a75a248","ios":"levelo://app?vid=01d8a4b0-b0e9-491f-8e4e-927b6a75a248"},"vehicle_type_id":"4","last_reported":1745968153,"current_range_meters":14000,"station_id":"ce4bgt12rcd13ifvqce0","pricing_plan_id":"cebpf4jnsgd1na2vs0mg"},{"bike_id":"19bc52c3-74db-454f-9839-b056878a7608","system_id":"levelo_inurba_marseille","lat":43.266917,"lon":5.382596,"is_reserved":false,"is_disabled":true,"rental_uris":{"android":"levelo://app?vid=19bc52c3-74db-454f-9839-b056878a7608","ios":"levelo://app?vid=19bc52c3-74db-454f-9839-b056878a7608"},"vehicle_type_id":"4","last_reported":1745968153,"current_range_meters":14800,"station_id":"ce4bhg92rcd13ifvqf90","pricing_plan_id":"cebpf4jnsgd1na2vs0mg"},{"bike_id":"1db9ca2a-10b1-4b9e-aa56-164f2c2ac111","system_id":"levelo_inurba_marseille","lat":43.283707,"lon":5.418513,"is_reserved":false,"is_disabled":false,"rental_uris":{"android":"levelo://app?vid=1db9ca2a-10b1-4b9e-aa56-164f2c2ac111","ios":"levelo://app?vid=1db9ca2a-10b1-4b9e-aa56-164f2c2ac111"},"vehicle_type_id":"4","last_reported":1745968153,"current_range_meters":14800,"station_id":"","pricing_plan_id":"cebpf4jnsgd1na2vs0mg"},{"bike_id":"51bb6eee-a6ae-4632-94f7-0cc698e86e5e","system_id":"levelo_inurba_marseille","lat":43.30297,"lon":5.39203,"is_reserved":false,"is_disabled":false,"rental_uris":{"android":"levelo://app?vid=51bb6eee-a6ae-4632-94f7-0cc698e86e5e","ios":"levelo://app?vid=51bb6eee-a6ae-4632-94f7-0cc698e86e5e"},"vehicle_type_id":"4","last_reported":1745968153,"current_range_meters":15200,"station_id":"ce4bgkh2rcd13ifvqbk0","pricing_plan_id":"cebpf4jnsgd1na2vs0mg"},{"bike_id":"828102e8-1f3e-4623-b0de-3c4b25ae4680","system_id":"levelo_inurba_marseille","lat":43.30277,"lon":5.37709,"is_reserved":false,"is_disabled":false,"rental_uris":{"android":"levelo://app?vid=828102e8-1f3e-4623-b0de-3c4b25ae4680","ios":"levelo://app?vid=828102e8-1f3e-4623-b0de-3c4b25ae4680"},"vehicle_type_id":"4","last_reported":1745968153,"current_range_meters":15200,"station_id":"ce4bguh2rcd13ifvqcj0","pricing_plan_id":"cebpf4jnsgd1na2vs0mg"},{"bike_id":"5a098e5b-e14a-473b-90bc-45a3ff50ef8d","system_id":"levelo_inurba_marseille","lat":43.2835,"lon":5.38101,"is_reserved":false,"is_disabled":false,"rental_uris":{"android":"levelo://app?vid=5a098e5b-e14a-473b-90bc-45a3ff50ef8d","ios":"levelo://app?vid=5a098e5b-e14a-473b-90bc-45a3ff50ef8d"},"vehicle_type_id":"4","last_reported":1745968153,"current_range_meters":15200,"station_id":"ce4bh412rcd13ifvqdr0","pricing_plan_id":"cebpf4jnsgd1na2vs0mg"},{"bike_id":"4d743c9b-a7e5-4d1f-a42d-1ca1c905c8af","system_id":"levelo_inurba_marseille","lat":43.27422,"lon":5.39412,"is_reserved":false,"is_disabled":false,"rental_uris":{"android":"levelo://app?vid=4d743c9b-a7e5-4d1f-a42d-1ca1c905c8af","ios":"levelo://app?vid=4d743c9b-a7e5-4d1f-a42d-1ca1c905c8af"},"vehicle_type_id":"4","last_reported":1745968153,"current_range_meters":15200,"station_id":"ce4bhdp2rcd13ifvqf20","pricing_plan_id":"cebpf4jnsgd1na2vs0mg"},{"bike_id":"b5a2cf2e-6d0d-4e35-831e-3fc08bfe9a8e","system_id":"levelo_inurba_marseille","lat":43.30876,"lon":5.39635,"is_reserved":false,"is_disabled":false,"rental_uris":{"android":"levelo://app?vid=b5a2cf2e-6d0d-4e35-831e-3fc08bfe9a8e","ios":"levelo://app?vid=b5a2cf2e-6d0d-4e35-831e-3fc08bfe9a8e"},"vehicle_type_id":"4","last_reported":1745968153,"current_range_meters":15200,"station_id":"ce4bh012rcd13ifvqcv0","pricing_plan_id":"cebpf4jnsgd1na2vs0mg"},{"bike_id":"8c2764fc-bc1c-48fc-a755-ccde3ff80a42","system_id":"levelo_inurba_marseille","lat":43.30324,"lon":5.40425,"is_reserved":false,"is_disabled":false,"rental_uris":{"android":"levelo://app?vid=8c2764fc-bc1c-48fc-a755-ccde3ff80a42","ios":"levelo://app?vid=8c2764fc-bc1c-48fc-a755-ccde3ff80a42"},"vehicle_type_id":"4","last_reported":1745968153,"current_range_meters":16000,"station_id":"ce4bh012rcd13ifvqd10","pricing_plan_id":"cebpf4jnsgd1na2vs0mg"},{"bike_id":"fb0daf1a-cefa-40b9-a6f4-b2612f0cf23f","system_id":"levelo_inurba_marseille","lat":43.262276,"lon":5.404508,"is_reserved":false,"is_disabled":false,"rental_uris":{"android":"levelo://app?vid=fb0daf1a-cefa-40b9-a6f4-b2612f0cf23f","ios":"levelo://app?vid=fb0daf1a-cefa-40b9-a6f4-b2612f0cf23f"},"vehicle_type_id":"4","last_reported":1745968153,"current_range_meters":16000,"station_id":"ce4bhmh2rcd13ifvqgmg","pricing_plan_id":"cebpf4jnsgd1na2vs0mg"},{"bike_id":"0946df0c-8b25-4d89-8f93-affc2e1828f1","system_id":"levelo_inurba_marseille","lat":43.30142,"lon":5.39837,"is_reserved":false,"is_disabled":false,"rental_uris":{"android":"levelo://app?vid=0946df0c-8b25-4d89-8f93-affc2e1828f1","ios":"levelo://app?vid=0946df0c-8b25-4d89-8f93-affc2e1828f1"},"vehicle_type_id":"4","last_reported":1745968153,"current_range_meters":16000,"station_id":"ce4bh0h2rcd13ifvqd40","pricing_plan_id":"cebpf4jnsgd1na2vs0mg"},{"bike_id":"760b60e9-75ef-4049-b9d3-91877d77a86e","system_id":"levelo_inurba_marseille","lat":43.3153,"lon":5.38037,"is_reserved":false,"is_disabled":false,"rental_uris":{"android":"levelo://app?vid=760b60e9-75ef-4049-b9d3-91877d77a86e","ios":"levelo://app?vid=760b60e9-75ef-4049-b9d3-91877d77a86e"},"vehicle_type_id":"4","last_reported":1745968153,"current_range_meters":16000,"station_id":"ce4bhsp2rcd13ifvqi50","pricing_plan_id":"cebpf4jnsgd1na2vs0mg"},{"bike_id":"8695b311-63ee-404f-ac27-93d23941e7ce","system_id":"levelo_inurba_marseille","lat":43.292302,"lon":5.40912,"is_reserved":false,"is_disabled":false,"rental_uris":{"android":"levelo://app?vid=8695b311-63ee-404f-ac27-93d23941e7ce","ios":"levelo://app?vid=8695b311-63ee-404f-ac27-93d23941e7ce"},"vehicle_type_id":"4","last_reported":1745968153,"current_range_meters":16000,"station_id":"ce4bh192rcd13ifvqdc0","pricing_plan_id":"cebpf4jnsgd1na2vs0mg"},{"bike_id":"e5e92a64-e709-4b1a-a9b1-cbffe85789ca","system_id":"levelo_inurba_marseille","lat":43.25449,"lon":5.38227,"is_reserved":false,"is_disabled":false,"rental_uris":{"android":"levelo://app?vid=e5e92a64-e709-4b1a-a9b1-cbffe85789ca","ios":"levelo://app?vid=e5e92a64-e709-4b1a-a9b1-cbffe85789ca"},"vehicle_type_id":"4","last_reported":1745968153,"current_range_meters":16000,"station_id":"","pricing_plan_id":"cebpf4jnsgd1na2vs0mg"},{"bike_id":"4a887373-4acb-4f1e-adbe-6517211605ca","system_id":"levelo_inurba_marseille","lat":43.31127,"lon":5.37754,"is_reserved":false,"is_disabled":false,"rental_uris":{"android":"levelo://app?vid=4a887373-4acb-4f1e-adbe-6517211605ca","ios":"levelo://app?vid=4a887373-4acb-4f1e-adbe-6517211605ca"},"vehicle_type_id":"4","last_reported":1745968153,"current_range_meters":16400,"station_id":"ce4bgt92rcd13ifvqcg0","pricing_plan_id":"cebpf4jnsgd1na2vs0mg"},{"bike_id":"b01cbeff-8157-416f-a4f0-9990745aa5ff","system_id":"levelo_inurba_marseille","lat":43.28033,"lon":5.36939,"is_reserved":false,"is_disabled":false,"rental_uris":{"android":"levelo://app?vid=b01cbeff-8157-416f-a4f0-9990745aa5ff","ios":"levelo://app?vid=b01cbeff-8157-416f-a4f0-9990745aa5ff"},"vehicle_type_id":"4","last_reported":1745968153,"current_range_meters":16400,"station_id":"ce4bha12rcd13ifvqef0","pricing_plan_id":"cebpf4jnsgd1na2vs0mg"},{"bike_id":"c9ed2f6b-66e9-47eb-8c4e-f305a541633a","system_id":"levelo_inurba_marseille","lat":43.335236,"lon":5.410425,"is_reserved":false,"is_disabled":false,"rental_uris":{"android":"levelo://app?vid=c9ed2f6b-66e9-47eb-8c4e-f305a541633a","ios":"levelo://app?vid=c9ed2f6b-66e9-47eb-8c4e-f305a541633a"},"vehicle_type_id":"4","last_reported":1745968153,"current_range_meters":16400,"station_id":"ce4bhqh2rcd13ifvqhmg","pricing_plan_id":"cebpf4jnsgd1na2vs0mg"},{"bike_id":"4fda502e-8180-4eb2-97e5-6521d9824005","system_id":"levelo_inurba_marseille","lat":43.304968,"lon":5.380866,"is_reserved":false,"is_disabled":false,"rental_uris":{"android":"levelo://app?vid=4fda502e-8180-4eb2-97e5-6521d9824005","ios":"levelo://app?vid=4fda502e-8180-4eb2-97e5-6521d9824005"},"vehicle_type_id":"4","last_reported":1745968153,"current_range_meters":16400,"station_id":"","pricing_plan_id":"cebpf4jnsgd1na2vs0mg"},{"bike_id":"142b21fe-e15a-4a65-b770-44381c311d71","system_id":"levelo_inurba_marseille","lat":43.313301,"lon":5.396949,"is_reserved":false,"is_disabled":false,"rental_uris":{"android":"levelo://app?vid=142b21fe-e15a-4a65-b770-44381c311d71","ios":"levelo://app?vid=142b21fe-e15a-4a65-b770-44381c311d71"},"vehicle_type_id":"4","last_reported":1745968153,"current_range_meters":16400,"station_id":"ce4bgvp2rcd13ifvqcu0","pricing_plan_id":"cebpf4jnsgd1na2vs0mg"},{"bike_id":"2770f79b-8ec1-4e42-b212-9c086495ad9f","system_id":"levelo_inurba_marseille","lat":43.3133,"lon":5.39701,"is_reserved":false,"is_disabled":false,"rental_uris":{"android":"levelo://app?vid=2770f79b-8ec1-4e42-b212-9c086495ad9f","ios":"levelo://app?vid=2770f79b-8ec1-4e42-b212-9c086495ad9f"},"vehicle_type_id":"4","last_reported":1745968153,"current_range_meters":16400,"station_id":"ce4bgvp2rcd13ifvqcu0","pricing_plan_id":"cebpf4jnsgd1na2vs0mg"},{"bike_id":"8e5e2c19-ba36-4f14-9873-ad98967d7a5b","system_id":"levelo_inurba_marseille","lat":43.32486,"lon":5.36575,"is_reserved":false,"is_disabled":true,"rental_uris":{"android":"levelo://app?vid=8e5e2c19-ba36-4f14-9873-ad98967d7a5b","ios":"levelo://app?vid=8e5e2c19-ba36-4f14-9873-ad98967d7a5b"},"vehicle_type_id":"4","last_reported":1745968153,"current_range_meters":16400,"station_id":"ce4bhs12rcd13ifvqhvg","pricing_plan_id":"cebpf4jnsgd1na2vs0mg"},{"bike_id":"a083dd87-c68e-4ae0-b50d-cafd8e4610b9","system_id":"levelo_inurba_marseille","lat":43.3094,"lon":5.40142,"is_reserved":false,"is_disabled":false,"rental_uris":{"android":"levelo://app?vid=a083dd87-c68e-4ae0-b50d-cafd8e4610b9","ios":"levelo://app?vid=a083dd87-c68e-4ae0-b50d-cafd8e4610b9"},"vehicle_type_id":"4","last_reported":1745968153,"current_range_meters":16400,"station_id":"ce4bgvp2rcd13ifvqct0","pricing_plan_id":"cebpf4jnsgd1na2vs0mg"},{"bike_id":"d0a437b0-184a-494b-b880-0f00c2405712","system_id":"levelo_inurba_marseille","lat":43.30947,"lon":5.39043,"is_reserved":false,"is_disabled":false,"rental_uris":{"android":"levelo://app?vid=d0a437b0-184a-494b-b880-0f00c2405712","ios":"levelo://app?vid=d0a437b0-184a-494b-b880-0f00c2405712"},"vehicle_type_id":"4","last_reported":1745968153,"current_range_meters":16800,"station_id":"ce4bgup2rcd13ifvqco0","pricing_plan_id":"cebpf4jnsgd1na2vs0mg"},{"bike_id":"e5c9e410-09a2-4a8b-8618-7674c87d16f0","system_id":"levelo_inurba_marseille","lat":43.29301,"lon":5.37444,"is_reserved":false,"is_disabled":true,"rental_uris":{"android":"levelo://app?vid=e5c9e410-09a2-4a8b-8618-7674c87d16f0","ios":"levelo://app?vid=e5c9e410-09a2-4a8b-8618-7674c87d16f0"},"vehicle_type_id":"4","last_reported":1745968153,"current_range_meters":16800,"station_id":"ce4bgi12rcd13ifvqb70","pricing_plan_id":"cebpf4jnsgd1na2vs0mg"},{"bike_id":"fce2c520-92d3-4d18-810b-8d643fc15a1a","system_id":"levelo_inurba_marseille","lat":43.230666,"lon":5.354906,"is_reserved":false,"is_disabled":false,"rental_uris":{"android":"levelo://app?vid=fce2c520-92d3-4d18-810b-8d643fc15a1a","ios":"levelo://app?vid=fce2c520-92d3-4d18-810b-8d643fc15a1a"},"vehicle_type_id":"4","last_reported":1745968153,"current_range_meters":16800,"station_id":"cpo3342slgdg3j2ifvpg","pricing_plan_id":"cebpf4jnsgd1na2vs0mg"},{"bike_id":"0bf054bc-7fc3-4c86-a291-33e81796d9c0","system_id":"levelo_inurba_marseille","lat":43.302536,"lon":5.400753,"is_reserved":false,"is_disabled":false,"rental_uris":{"android":"levelo://app?vid=0bf054bc-7fc3-4c86-a291-33e81796d9c0","ios":"levelo://app?vid=0bf054bc-7fc3-4c86-a291-33e81796d9c0"},"vehicle_type_id":"4","last_reported":1745968153,"current_range_meters":16800,"station_id":"ce4bgvh2rcd13ifvqcs0","pricing_plan_id":"cebpf4jnsgd1na2vs0mg"},{"bike_id":"90b503f5-a521-4fb8-add6-142051bc3549","system_id":"levelo_inurba_marseille","lat":43.33595,"lon":5.40963,"is_reserved":false,"is_disabled":false,"rental_uris":{"android":"levelo://app?vid=90b503f5-a521-4fb8-add6-142051bc3549","ios":"levelo://app?vid=90b503f5-a521-4fb8-add6-142051bc3549"},"vehicle_type_id":"4","last_reported":1745968153,"current_range_meters":16800,"station_id":"ce4bhqh2rcd13ifvqhmg","pricing_plan_id":"cebpf4jnsgd1na2vs0mg"},{"bike_id":"7c57f542-5d9b-4d47-962e-a6357ed443fa","system_id":"levelo_inurba_marseille","lat":43.25131,"lon":5.40318,"is_reserved":false,"is_disabled":false,"rental_uris":{"android":"levelo://app?vid=7c57f542-5d9b-4d47-962e-a6357ed443fa","ios":"levelo://app?vid=7c57f542-5d9b-4d47-962e-a6357ed443fa"},"vehicle_type_id":"4","last_reported":1745968153,"current_range_meters":16800,"station_id":"ce4bhlh2rcd13ifvqgig","pricing_plan_id":"cebpf4jnsgd1na2vs0mg"},{"bike_id":"657dd7f1-8927-48c0-9f5a-b8b60efd5be1","system_id":"levelo_inurba_marseille","lat":43.28855,"lon":5.39327,"is_reserved":false,"is_disabled":false,"rental_uris":{"android":"levelo://app?vid=657dd7f1-8927-48c0-9f5a-b8b60efd5be1","ios":"levelo://app?vid=657dd7f1-8927-48c0-9f5a-b8b60efd5be1"},"vehicle_type_id":"4","last_reported":1745968153,"current_range_meters":16800,"station_id":"ce4bh2p2rcd13ifvqdi0","pricing_plan_id":"cebpf4jnsgd1na2vs0mg"},{"bike_id":"70857dd2-f23a-44a9-9fcc-6d8a63652f2e","system_id":"levelo_inurba_marseille","lat":43.3018,"lon":5.39958,"is_reserved":false,"is_disabled":false,"rental_uris":{"android":"levelo://app?vid=70857dd2-f23a-44a9-9fcc-6d8a63652f2e","ios":"levelo://app?vid=70857dd2-f23a-44a9-9fcc-6d8a63652f2e"},"vehicle_type_id":"4","last_reported":1745968153,"current_range_meters":17200,"station_id":"","pricing_plan_id":"cebpf4jnsgd1na2vs0mg"},{"bike_id":"80a608e6-319a-42cb-afb5-e737f88c62ca","system_id":"levelo_inurba_marseille","lat":43.27916,"lon":5.39577,"is_reserved":false,"is_disabled":false,"rental_uris":{"android":"levelo://app?vid=80a608e6-319a-42cb-afb5-e737f88c62ca","ios":"levelo://app?vid=80a608e6-319a-42cb-afb5-e737f88c62ca"},"vehicle_type_id":"4","last_reported":1745968153,"current_range_meters":17200,"station_id":"ce4bhf92rcd13ifvqf40","pricing_plan_id":"cebpf4jnsgd1na2vs0mg"},{"bike_id":"a56f0186-6742-4321-af55-54f04b4d7b71","system_id":"levelo_inurba_marseille","lat":43.30888,"lon":5.3965,"is_reserved":false,"is_disabled":false,"rental_uris":{"android":"levelo://app?vid=a56f0186-6742-4321-af55-54f04b4d7b71","ios":"levelo://app?vid=a56f0186-6742-4321-af55-54f04b4d7b71"},"vehicle_type_id":"4","last_reported":1745968153,"current_range_meters":17200,"station_id":"ce4bh012rcd13ifvqcv0","pricing_plan_id":"cebpf4jnsgd1na2vs0mg"},{"bike_id":"2610bbd4-d8af-4bf9-a01b-5ebfbcbdde4b","system_id":"levelo_inurba_marseille","lat":43.31077,"lon":5.38346,"is_reserved":false,"is_disabled":false,"rental_uris":{"android":"levelo://app?vid=2610bbd4-d8af-4bf9-a01b-5ebfbcbdde4b","ios":"levelo://app?vid=2610bbd4-d8af-4bf9-a01b-5ebfbcbdde4b"},"vehicle_type_id":"4","last_reported":1745968153,"current_range_meters":17200,"station_id":"ce4bgv92rcd13ifvqcr0","pricing_plan_id":"cebpf4jnsgd1na2vs0mg"},{"bike_id":"c8ceb8e9-785b-4de9-9930-3fbc66d30b00","system_id":"levelo_inurba_marseille","lat":43.21786,"lon":5.34577,"is_reserved":false,"is_disabled":false,"rental_uris":{"android":"levelo://app?vid=c8ceb8e9-785b-4de9-9930-3fbc66d30b00","ios":"levelo://app?vid=c8ceb8e9-785b-4de9-9930-3fbc66d30b00"},"vehicle_type_id":"4","last_reported":1745968153,"current_range_meters":17200,"station_id":"","pricing_plan_id":"cebpf4jnsgd1na2vs0mg"},{"bike_id":"95ed37db-27cd-4a4f-82cb-24fa6a66f67c","system_id":"levelo_inurba_marseille","lat":43.29061,"lon":5.372,"is_reserved":false,"is_disabled":false,"rental_uris":{"android":"levelo://app?vid=95ed37db-27cd-4a4f-82cb-24fa6a66f67c","ios":"levelo://app?vid=95ed37db-27cd-4a4f-82cb-24fa6a66f67c"},"vehicle_type_id":"4","last_reported":1745968153,"current_range_meters":17200,"station_id":"ce4bh5p2rcd13ifvqe4g","pricing_plan_id":"cebpf4jnsgd1na2vs0mg"},{"bike_id":"86c2979e-8cf6-48ed-bdb1-835ff11e3adc","system_id":"levelo_inurba_marseille","lat":43.253903,"lon":5.418433,"is_reserved":false,"is_disabled":false,"rental_uris":{"android":"levelo://app?vid=86c2979e-8cf6-48ed-bdb1-835ff11e3adc","ios":"levelo://app?vid=86c2979e-8cf6-48ed-bdb1-835ff11e3adc"},"vehicle_type_id":"4","last_reported":1745968153,"current_range_meters":17600,"station_id":"","pricing_plan_id":"cebpf4jnsgd1na2vs0mg"},{"bike_id":"b9a06d99-7b0a-4db5-a1c3-c79d98838432","system_id":"levelo_inurba_marseille","lat":43.29509,"lon":5.39378,"is_reserved":false,"is_disabled":false,"rental_uris":{"android":"levelo://app?vid=b9a06d99-7b0a-4db5-a1c3-c79d98838432","ios":"levelo://app?vid=b9a06d99-7b0a-4db5-a1c3-c79d98838432"},"vehicle_type_id":"4","last_reported":1745968153,"current_range_meters":17600,"station_id":"ce4bh292rcd13ifvqdf0","pricing_plan_id":"cebpf4jnsgd1na2vs0mg"},{"bike_id":"4978a160-6490-4eee-a0b3-e1471feb0b81","system_id":"levelo_inurba_marseille","lat":43.28068,"lon":5.39639,"is_reserved":false,"is_disabled":false,"rental_uris":{"android":"levelo://app?vid=4978a160-6490-4eee-a0b3-e1471feb0b81","ios":"levelo://app?vid=4978a160-6490-4eee-a0b3-e1471feb0b81"},"vehicle_type_id":"4","last_reported":1745968153,"current_range_meters":17600,"station_id":"ce4bho12rcd13ifvqh2g","pricing_plan_id":"cebpf4jnsgd1na2vs0mg"},{"bike_id":"85f887bf-7f2a-41fd-b585-56beffb287c5","system_id":"levelo_inurba_marseille","lat":43.28416,"lon":5.34972,"is_reserved":false,"is_disabled":false,"rental_uris":{"android":"levelo://app?vid=85f887bf-7f2a-41fd-b585-56beffb287c5","ios":"levelo://app?vid=85f887bf-7f2a-41fd-b585-56beffb287c5"},"vehicle_type_id":"4","last_reported":1745968153,"current_range_meters":18000,"station_id":"ce4bhbh2rcd13ifvqepg","pricing_plan_id":"cebpf4jnsgd1na2vs0mg"},{"bike_id":"d677444c-5a0f-4c29-b839-d7d13f8af0cf","system_id":"levelo_inurba_marseille","lat":43.30145,"lon":5.39855,"is_reserved":false,"is_disabled":false,"rental_uris":{"android":"levelo://app?vid=d677444c-5a0f-4c29-b839-d7d13f8af0cf","ios":"levelo://app?vid=d677444c-5a0f-4c29-b839-d7d13f8af0cf"},"vehicle_type_id":"4","last_reported":1745968153,"current_range_meters":18000,"station_id":"ce4bh0h2rcd13ifvqd40","pricing_plan_id":"cebpf4jnsgd1na2vs0mg"},{"bike_id":"5e122a88-e9ff-4688-ab39-82005b04d2e7","system_id":"levelo_inurba_marseille","lat":43.30652,"lon":5.400814,"is_reserved":false,"is_disabled":false,"rental_uris":{"android":"levelo://app?vid=5e122a88-e9ff-4688-ab39-82005b04d2e7","ios":"levelo://app?vid=5e122a88-e9ff-4688-ab39-82005b04d2e7"},"vehicle_type_id":"4","last_reported":1745968153,"current_range_meters":18000,"station_id":"ce4bh112rcd13ifvqda0","pricing_plan_id":"cebpf4jnsgd1na2vs0mg"},{"bike_id":"28bfb2ce-cbf4-4cbb-a116-726fd02d1ad1","system_id":"levelo_inurba_marseille","lat":43.2969,"lon":5.366,"is_reserved":false,"is_disabled":false,"rental_uris":{"android":"levelo://app?vid=28bfb2ce-cbf4-4cbb-a116-726fd02d1ad1","ios":"levelo://app?vid=28bfb2ce-cbf4-4cbb-a116-726fd02d1ad1"},"vehicle_type_id":"4","last_reported":1745968153,"current_range_meters":18000,"station_id":"ce4bgn12rcd13ifvqbt0","pricing_plan_id":"cebpf4jnsgd1na2vs0mg"},{"bike_id":"201065a5-7739-457d-b6cb-8bceaff21c7b","system_id":"levelo_inurba_marseille","lat":43.28037,"lon":5.36941,"is_reserved":false,"is_disabled":false,"rental_uris":{"android":"levelo://app?vid=201065a5-7739-457d-b6cb-8bceaff21c7b","ios":"levelo://app?vid=201065a5-7739-457d-b6cb-8bceaff21c7b"},"vehicle_type_id":"4","last_reported":1745968153,"current_range_meters":18000,"station_id":"ce4bha12rcd13ifvqef0","pricing_plan_id":"cebpf4jnsgd1na2vs0mg"},{"bike_id":"529a568c-18c4-4161-87f4-156bbcdd065f","system_id":"levelo_inurba_marseille","lat":43.28567,"lon":5.39443,"is_reserved":false,"is_disabled":false,"rental_uris":{"android":"levelo://app?vid=529a568c-18c4-4161-87f4-156bbcdd065f","ios":"levelo://app?vid=529a568c-18c4-4161-87f4-156bbcdd065f"},"vehicle_type_id":"4","last_reported":1745968153,"current_range_meters":18000,"station_id":"ce4bh292rcd13ifvqdg0","pricing_plan_id":"cebpf4jnsgd1na2vs0mg"},{"bike_id":"9df9b88e-192f-4082-8618-a77e8c2aff16","system_id":"levelo_inurba_marseille","lat":43.287032,"lon":5.373776,"is_reserved":false,"is_disabled":false,"rental_uris":{"android":"levelo://app?vid=9df9b88e-192f-4082-8618-a77e8c2aff16","ios":"levelo://app?vid=9df9b88e-192f-4082-8618-a77e8c2aff16"},"vehicle_type_id":"4","last_reported":1745968153,"current_range_meters":18000,"station_id":"ce4bh3p2rcd13ifvqdq0","pricing_plan_id":"cebpf4jnsgd1na2vs0mg"},{"bike_id":"28b7c9a4-f8bb-49dc-8705-014ce1d938de","system_id":"levelo_inurba_marseille","lat":43.28708,"lon":5.39993,"is_reserved":false,"is_disabled":false,"rental_uris":{"android":"levelo://app?vid=28b7c9a4-f8bb-49dc-8705-014ce1d938de","ios":"levelo://app?vid=28b7c9a4-f8bb-49dc-8705-014ce1d938de"},"vehicle_type_id":"4","last_reported":1745968153,"current_range_meters":18000,"station_id":"ce4bho92rcd13ifvqh3g","pricing_plan_id":"cebpf4jnsgd1na2vs0mg"},{"bike_id":"6788f429-2161-4c75-94cc-aca32eee6067","system_id":"levelo_inurba_marseille","lat":43.28575,"lon":5.395,"is_reserved":false,"is_disabled":false,"rental_uris":{"android":"levelo://app?vid=6788f429-2161-4c75-94cc-aca32eee6067","ios":"levelo://app?vid=6788f429-2161-4c75-94cc-aca32eee6067"},"vehicle_type_id":"4","last_reported":1745968153,"current_range_meters":18800,"station_id":"ce4bh292rcd13ifvqdg0","pricing_plan_id":"cebpf4jnsgd1na2vs0mg"},{"bike_id":"e1b8350f-04b1-49c7-a0fd-660b07127573","system_id":"levelo_inurba_marseille","lat":43.31173,"lon":5.38708,"is_reserved":false,"is_disabled":false,"rental_uris":{"android":"levelo://app?vid=e1b8350f-04b1-49c7-a0fd-660b07127573","ios":"levelo://app?vid=e1b8350f-04b1-49c7-a0fd-660b07127573"},"vehicle_type_id":"4","last_reported":1745968153,"current_range_meters":18800,"station_id":"ce4bgv12rcd13ifvqcp0","pricing_plan_id":"cebpf4jnsgd1na2vs0mg"},{"bike_id":"473e1fa8-f870-444c-9739-223b20bd02ae","system_id":"levelo_inurba_marseille","lat":43.2319,"lon":5.39984,"is_reserved":false,"is_disabled":false,"rental_uris":{"android":"levelo://app?vid=473e1fa8-f870-444c-9739-223b20bd02ae","ios":"levelo://app?vid=473e1fa8-f870-444c-9739-223b20bd02ae"},"vehicle_type_id":"4","last_reported":1745968153,"current_range_meters":18800,"station_id":"ce4bhn12rcd13ifvqgqg","pricing_plan_id":"cebpf4jnsgd1na2vs0mg"},{"bike_id":"1f0faf4b-a17e-4119-b758-a373a364dc99","system_id":"levelo_inurba_marseille","lat":43.30891,"lon":5.37202,"is_reserved":false,"is_disabled":false,"rental_uris":{"android":"levelo://app?vid=1f0faf4b-a17e-4119-b758-a373a364dc99","ios":"levelo://app?vid=1f0faf4b-a17e-4119-b758-a373a364dc99"},"vehicle_type_id":"4","last_reported":1745968153,"current_range_meters":18800,"station_id":"ce4bguh2rcd13ifvqckg","pricing_plan_id":"cebpf4jnsgd1na2vs0mg"},{"bike_id":"7940bc1b-eaa7-4f49-a435-46dc9391f6a1","system_id":"levelo_inurba_marseille","lat":43.21201,"lon":5.35074,"is_reserved":false,"is_disabled":false,"rental_uris":{"android":"levelo://app?vid=7940bc1b-eaa7-4f49-a435-46dc9391f6a1","ios":"levelo://app?vid=7940bc1b-eaa7-4f49-a435-46dc9391f6a1"},"vehicle_type_id":"4","last_reported":1745968153,"current_range_meters":18800,"station_id":"st_cvj6sg6p6f1abm77japg","pricing_plan_id":"cebpf4jnsgd1na2vs0mg"},{"bike_id":"c746d294-d77c-4a5a-a6f2-b8bd8f60008f","system_id":"levelo_inurba_marseille","lat":43.27958,"lon":5.41053,"is_reserved":false,"is_disabled":true,"rental_uris":{"android":"levelo://app?vid=c746d294-d77c-4a5a-a6f2-b8bd8f60008f","ios":"levelo://app?vid=c746d294-d77c-4a5a-a6f2-b8bd8f60008f"},"vehicle_type_id":"4","last_reported":1745968153,"current_range_meters":19200,"station_id":"ce4bhnp2rcd13ifvqh0g","pricing_plan_id":"cebpf4jnsgd1na2vs0mg"},{"bike_id":"5d72f094-0502-4c70-aba7-3b99b334928c","system_id":"levelo_inurba_marseille","lat":43.309568,"lon":5.3904,"is_reserved":false,"is_disabled":false,"rental_uris":{"android":"levelo://app?vid=5d72f094-0502-4c70-aba7-3b99b334928c","ios":"levelo://app?vid=5d72f094-0502-4c70-aba7-3b99b334928c"},"vehicle_type_id":"4","last_reported":1745968153,"current_range_meters":18800,"station_id":"ce4bgup2rcd13ifvqco0","pricing_plan_id":"cebpf4jnsgd1na2vs0mg"},{"bike_id":"dd1d5a3f-d140-4e61-a85f-9fd03b0cfd3a","system_id":"levelo_inurba_marseille","lat":43.315326,"lon":5.380269,"is_reserved":false,"is_disabled":false,"rental_uris":{"android":"levelo://app?vid=dd1d5a3f-d140-4e61-a85f-9fd03b0cfd3a","ios":"levelo://app?vid=dd1d5a3f-d140-4e61-a85f-9fd03b0cfd3a"},"vehicle_type_id":"4","last_reported":1745968153,"current_range_meters":19200,"station_id":"ce4bhsp2rcd13ifvqi50","pricing_plan_id":"cebpf4jnsgd1na2vs0mg"},{"bike_id":"c664bae0-5573-409b-9e67-da14d19e0c37","system_id":"levelo_inurba_marseille","lat":43.28463,"lon":5.35894,"is_reserved":false,"is_disabled":false,"rental_uris":{"android":"levelo://app?vid=c664bae0-5573-409b-9e67-da14d19e0c37","ios":"levelo://app?vid=c664bae0-5573-409b-9e67-da14d19e0c37"},"vehicle_type_id":"4","last_reported":1745968153,"current_range_meters":19200,"station_id":"ce4bhah2rcd13ifvqei0","pricing_plan_id":"cebpf4jnsgd1na2vs0mg"},{"bike_id":"f0f1ba02-1129-4c1a-874f-736ed611f0f0","system_id":"levelo_inurba_marseille","lat":43.30598,"lon":5.37203,"is_reserved":false,"is_disabled":false,"rental_uris":{"android":"levelo://app?vid=f0f1ba02-1129-4c1a-874f-736ed611f0f0","ios":"levelo://app?vid=f0f1ba02-1129-4c1a-874f-736ed611f0f0"},"vehicle_type_id":"4","last_reported":1745968153,"current_range_meters":19200,"station_id":"ce4bgqh2rcd13ifvqc4g","pricing_plan_id":"cebpf4jnsgd1na2vs0mg"},{"bike_id":"80ebd813-d55d-43a7-b7dc-643c0e5fe631","system_id":"levelo_inurba_marseille","lat":43.30933,"lon":5.40149,"is_reserved":false,"is_disabled":false,"rental_uris":{"android":"levelo://app?vid=80ebd813-d55d-43a7-b7dc-643c0e5fe631","ios":"levelo://app?vid=80ebd813-d55d-43a7-b7dc-643c0e5fe631"},"vehicle_type_id":"4","last_reported":1745968153,"current_range_meters":19200,"station_id":"ce4bgvp2rcd13ifvqct0","pricing_plan_id":"cebpf4jnsgd1na2vs0mg"},{"bike_id":"0c9e4d09-31d9-4325-8d9f-13a37129f6e4","system_id":"levelo_inurba_marseille","lat":43.30597,"lon":5.37217,"is_reserved":false,"is_disabled":false,"rental_uris":{"android":"levelo://app?vid=0c9e4d09-31d9-4325-8d9f-13a37129f6e4","ios":"levelo://app?vid=0c9e4d09-31d9-4325-8d9f-13a37129f6e4"},"vehicle_type_id":"4","last_reported":1745968153,"current_range_meters":19200,"station_id":"ce4bgqh2rcd13ifvqc4g","pricing_plan_id":"cebpf4jnsgd1na2vs0mg"},{"bike_id":"a37e7cd9-056b-454a-82d7-af0c8ff0c86f","system_id":"levelo_inurba_marseille","lat":43.30932,"lon":5.40149,"is_reserved":false,"is_disabled":false,"rental_uris":{"android":"levelo://app?vid=a37e7cd9-056b-454a-82d7-af0c8ff0c86f","ios":"levelo://app?vid=a37e7cd9-056b-454a-82d7-af0c8ff0c86f"},"vehicle_type_id":"4","last_reported":1745968153,"current_range_meters":19200,"station_id":"ce4bgvp2rcd13ifvqct0","pricing_plan_id":"cebpf4jnsgd1na2vs0mg"},{"bike_id":"5bb930cb-f687-4afc-a3b1-7d364bf87093","system_id":"levelo_inurba_marseille","lat":43.3237,"lon":5.38887,"is_reserved":false,"is_disabled":false,"rental_uris":{"android":"levelo://app?vid=5bb930cb-f687-4afc-a3b1-7d364bf87093","ios":"levelo://app?vid=5bb930cb-f687-4afc-a3b1-7d364bf87093"},"vehicle_type_id":"4","last_reported":1745968153,"current_range_meters":19600,"station_id":"ce4bhqp2rcd13ifvqhog","pricing_plan_id":"cebpf4jnsgd1na2vs0mg"},{"bike_id":"9db70769-37b0-4f5b-8f55-d865fb9d4078","system_id":"levelo_inurba_marseille","lat":43.30648,"lon":5.40105,"is_reserved":false,"is_disabled":false,"rental_uris":{"android":"levelo://app?vid=9db70769-37b0-4f5b-8f55-d865fb9d4078","ios":"levelo://app?vid=9db70769-37b0-4f5b-8f55-d865fb9d4078"},"vehicle_type_id":"4","last_reported":1745968153,"current_range_meters":19600,"station_id":"ce4bh112rcd13ifvqda0","pricing_plan_id":"cebpf4jnsgd1na2vs0mg"},{"bike_id":"fd082a5a-ef5e-45ce-af41-0aee932d1101","system_id":"levelo_inurba_marseille","lat":43.30138,"lon":5.37411,"is_reserved":false,"is_disabled":false,"rental_uris":{"android":"levelo://app?vid=fd082a5a-ef5e-45ce-af41-0aee932d1101","ios":"levelo://app?vid=fd082a5a-ef5e-45ce-af41-0aee932d1101"},"vehicle_type_id":"4","last_reported":1745968153,"current_range_meters":19600,"station_id":"ce4bgs92rcd13ifvqcc0","pricing_plan_id":"cebpf4jnsgd1na2vs0mg"},{"bike_id":"d819eb38-84ad-4017-8782-84963502c537","system_id":"levelo_inurba_marseille","lat":43.27966,"lon":5.38724,"is_reserved":false,"is_disabled":false,"rental_uris":{"android":"levelo://app?vid=d819eb38-84ad-4017-8782-84963502c537","ios":"levelo://app?vid=d819eb38-84ad-4017-8782-84963502c537"},"vehicle_type_id":"4","last_reported":1745968153,"current_range_meters":19600,"station_id":"ce4bhg12rcd13ifvqf80","pricing_plan_id":"cebpf4jnsgd1na2vs0mg"},{"bike_id":"a9fab624-860f-4a9a-9b3a-1fbf42214f82","system_id":"levelo_inurba_marseille","lat":43.3043,"lon":5.38854,"is_reserved":false,"is_disabled":false,"rental_uris":{"android":"levelo://app?vid=a9fab624-860f-4a9a-9b3a-1fbf42214f82","ios":"levelo://app?vid=a9fab624-860f-4a9a-9b3a-1fbf42214f82"},"vehicle_type_id":"4","last_reported":1745968153,"current_range_meters":19600,"station_id":"ce4bgk12rcd13ifvqbi0","pricing_plan_id":"cebpf4jnsgd1na2vs0mg"},{"bike_id":"44ac9ef4-d679-4619-9bee-66ca056e7362","system_id":"levelo_inurba_marseille","lat":43.27901,"lon":5.38011,"is_reserved":false,"is_disabled":false,"rental_uris":{"android":"levelo://app?vid=44ac9ef4-d679-4619-9bee-66ca056e7362","ios":"levelo://app?vid=44ac9ef4-d679-4619-9bee-66ca056e7362"},"vehicle_type_id":"4","last_reported":1745968153,"current_range_meters":19600,"station_id":"ce4bhf92rcd13ifvqf50","pricing_plan_id":"cebpf4jnsgd1na2vs0mg"},{"bike_id":"ecbacc7d-9dbe-4fa2-b041-6ab5de3b6402","system_id":"levelo_inurba_marseille","lat":43.28864,"lon":5.39292,"is_reserved":false,"is_disabled":false,"rental_uris":{"android":"levelo://app?vid=ecbacc7d-9dbe-4fa2-b041-6ab5de3b6402","ios":"levelo://app?vid=ecbacc7d-9dbe-4fa2-b041-6ab5de3b6402"},"vehicle_type_id":"4","last_reported":1745968153,"current_range_meters":20000,"station_id":"ce4bh2p2rcd13ifvqdi0","pricing_plan_id":"cebpf4jnsgd1na2vs0mg"},{"bike_id":"bcb4a4d9-1d50-4d0e-94cb-4a3fe436984b","system_id":"levelo_inurba_marseille","lat":43.32298,"lon":5.38263,"is_reserved":false,"is_disabled":false,"rental_uris":{"android":"levelo://app?vid=bcb4a4d9-1d50-4d0e-94cb-4a3fe436984b","ios":"levelo://app?vid=bcb4a4d9-1d50-4d0e-94cb-4a3fe436984b"},"vehicle_type_id":"4","last_reported":1745968153,"current_range_meters":20800,"station_id":"ce4bhr12rcd13ifvqhqg","pricing_plan_id":"cebpf4jnsgd1na2vs0mg"},{"bike_id":"1197ea5e-c1b7-4a74-88b7-06654a658162","system_id":"levelo_inurba_marseille","lat":43.28407,"lon":5.37523,"is_reserved":false,"is_disabled":true,"rental_uris":{"android":"levelo://app?vid=1197ea5e-c1b7-4a74-88b7-06654a658162","ios":"levelo://app?vid=1197ea5e-c1b7-4a74-88b7-06654a658162"},"vehicle_type_id":"4","last_reported":1745968153,"current_range_meters":20400,"station_id":"ce4bh412rcd13ifvqds0","pricing_plan_id":"cebpf4jnsgd1na2vs0mg"},{"bike_id":"6dba4a1c-3bef-407f-8da7-a23bf652f17b","system_id":"levelo_inurba_marseille","lat":43.293865,"lon":5.382108,"is_reserved":false,"is_disabled":false,"rental_uris":{"android":"levelo://app?vid=6dba4a1c-3bef-407f-8da7-a23bf652f17b","ios":"levelo://app?vid=6dba4a1c-3bef-407f-8da7-a23bf652f17b"},"vehicle_type_id":"4","last_reported":1745968153,"current_range_meters":20400,"station_id":"ce4bgl12rcd13ifvqbo0","pricing_plan_id":"cebpf4jnsgd1na2vs0mg"},{"bike_id":"330ae0d8-2228-407b-80de-905ccac38fed","system_id":"levelo_inurba_marseille","lat":43.31481,"lon":5.37332,"is_reserved":false,"is_disabled":false,"rental_uris":{"android":"levelo://app?vid=330ae0d8-2228-407b-80de-905ccac38fed","ios":"levelo://app?vid=330ae0d8-2228-407b-80de-905ccac38fed"},"vehicle_type_id":"4","last_reported":1745968153,"current_range_meters":20400,"station_id":"ce4bgt12rcd13ifvqcd0","pricing_plan_id":"cebpf4jnsgd1na2vs0mg"},{"bike_id":"65b29515-b986-4fb4-abc3-a39496bac22e","system_id":"levelo_inurba_marseille","lat":43.27826,"lon":5.39191,"is_reserved":false,"is_disabled":false,"rental_uris":{"android":"levelo://app?vid=65b29515-b986-4fb4-abc3-a39496bac22e","ios":"levelo://app?vid=65b29515-b986-4fb4-abc3-a39496bac22e"},"vehicle_type_id":"4","last_reported":1745968153,"current_range_meters":20400,"station_id":"ce4bhjp2rcd13ifvqga0","pricing_plan_id":"cebpf4jnsgd1na2vs0mg"},{"bike_id":"b3a5d772-2205-4c8b-9b69-e745366b34c4","system_id":"levelo_inurba_marseille","lat":43.301302,"lon":5.398628,"is_reserved":false,"is_disabled":false,"rental_uris":{"android":"levelo://app?vid=b3a5d772-2205-4c8b-9b69-e745366b34c4","ios":"levelo://app?vid=b3a5d772-2205-4c8b-9b69-e745366b34c4"},"vehicle_type_id":"4","last_reported":1745968153,"current_range_meters":20400,"station_id":"ce4bh0h2rcd13ifvqd40","pricing_plan_id":"cebpf4jnsgd1na2vs0mg"},{"bike_id":"98ee01d4-3f32-439d-9e67-141de2548fbb","system_id":"levelo_inurba_marseille","lat":43.31177,"lon":5.38712,"is_reserved":false,"is_disabled":false,"rental_uris":{"android":"levelo://app?vid=98ee01d4-3f32-439d-9e67-141de2548fbb","ios":"levelo://app?vid=98ee01d4-3f32-439d-9e67-141de2548fbb"},"vehicle_type_id":"4","last_reported":1745968153,"current_range_meters":20400,"station_id":"ce4bgv12rcd13ifvqcp0","pricing_plan_id":"cebpf4jnsgd1na2vs0mg"},{"bike_id":"7a081fbe-2822-4a3c-9809-94ce2e701ea9","system_id":"levelo_inurba_marseille","lat":43.30939,"lon":5.40143,"is_reserved":false,"is_disabled":false,"rental_uris":{"android":"levelo://app?vid=7a081fbe-2822-4a3c-9809-94ce2e701ea9","ios":"levelo://app?vid=7a081fbe-2822-4a3c-9809-94ce2e701ea9"},"vehicle_type_id":"4","last_reported":1745968153,"current_range_meters":20400,"station_id":"ce4bgvp2rcd13ifvqct0","pricing_plan_id":"cebpf4jnsgd1na2vs0mg"},{"bike_id":"30c72144-e351-4b54-9c87-946bf36285fc","system_id":"levelo_inurba_marseille","lat":43.31486,"lon":5.37281,"is_reserved":false,"is_disabled":false,"rental_uris":{"android":"levelo://app?vid=30c72144-e351-4b54-9c87-946bf36285fc","ios":"levelo://app?vid=30c72144-e351-4b54-9c87-946bf36285fc"},"vehicle_type_id":"4","last_reported":1745968153,"current_range_meters":20400,"station_id":"ce4bgt12rcd13ifvqcd0","pricing_plan_id":"cebpf4jnsgd1na2vs0mg"},{"bike_id":"7afa8727-da3e-49a9-8e16-59412376dba0","system_id":"levelo_inurba_marseille","lat":43.30534,"lon":5.38422,"is_reserved":false,"is_disabled":false,"rental_uris":{"android":"levelo://app?vid=7afa8727-da3e-49a9-8e16-59412376dba0","ios":"levelo://app?vid=7afa8727-da3e-49a9-8e16-59412376dba0"},"vehicle_type_id":"4","last_reported":1745968153,"current_range_meters":20400,"station_id":"ce4bgg92rcd13ifvqb30","pricing_plan_id":"cebpf4jnsgd1na2vs0mg"},{"bike_id":"c0159cac-5d2f-48fb-8d8c-511c545d4d15","system_id":"levelo_inurba_marseille","lat":43.29876,"lon":5.39733,"is_reserved":false,"is_disabled":false,"rental_uris":{"android":"levelo://app?vid=c0159cac-5d2f-48fb-8d8c-511c545d4d15","ios":"levelo://app?vid=c0159cac-5d2f-48fb-8d8c-511c545d4d15"},"vehicle_type_id":"4","last_reported":1745968153,"current_range_meters":20800,"station_id":"ce4bh0h2rcd13ifvqd50","pricing_plan_id":"cebpf4jnsgd1na2vs0mg"},{"bike_id":"08ea55bf-23de-4d93-ad5d-d4a116d37a72","system_id":"levelo_inurba_marseille","lat":43.24811,"lon":5.37453,"is_reserved":false,"is_disabled":false,"rental_uris":{"android":"levelo://app?vid=08ea55bf-23de-4d93-ad5d-d4a116d37a72","ios":"levelo://app?vid=08ea55bf-23de-4d93-ad5d-d4a116d37a72"},"vehicle_type_id":"4","last_reported":1745968153,"current_range_meters":20800,"station_id":"ce4bhgh2rcd13ifvqfb0","pricing_plan_id":"cebpf4jnsgd1na2vs0mg"},{"bike_id":"1cf3d786-ac4e-4637-9f55-422b5b7f0270","system_id":"levelo_inurba_marseille","lat":43.311183,"lon":5.377598,"is_reserved":false,"is_disabled":false,"rental_uris":{"android":"levelo://app?vid=1cf3d786-ac4e-4637-9f55-422b5b7f0270","ios":"levelo://app?vid=1cf3d786-ac4e-4637-9f55-422b5b7f0270"},"vehicle_type_id":"4","last_reported":1745968153,"current_range_meters":21600,"station_id":"ce4bgt92rcd13ifvqcg0","pricing_plan_id":"cebpf4jnsgd1na2vs0mg"},{"bike_id":"9a6d1a0d-0520-4c44-b0a9-74ddbe754418","system_id":"levelo_inurba_marseille","lat":43.271123,"lon":5.40687,"is_reserved":false,"is_disabled":false,"rental_uris":{"android":"levelo://app?vid=9a6d1a0d-0520-4c44-b0a9-74ddbe754418","ios":"levelo://app?vid=9a6d1a0d-0520-4c44-b0a9-74ddbe754418"},"vehicle_type_id":"4","last_reported":1745968153,"current_range_meters":21600,"station_id":"","pricing_plan_id":"cebpf4jnsgd1na2vs0mg"},{"bike_id":"42a35420-007a-4577-adab-69a0906356d0","system_id":"levelo_inurba_marseille","lat":43.28153,"lon":5.42637,"is_reserved":false,"is_disabled":false,"rental_uris":{"android":"levelo://app?vid=42a35420-007a-4577-adab-69a0906356d0","ios":"levelo://app?vid=42a35420-007a-4577-adab-69a0906356d0"},"vehicle_type_id":"4","last_reported":1745968153,"current_range_meters":21600,"station_id":"ce4bhnh2rcd13ifvqgug","pricing_plan_id":"cebpf4jnsgd1na2vs0mg"},{"bike_id":"429fbf73-3937-48aa-9baf-1ba24da519fd","system_id":"levelo_inurba_marseille","lat":43.29258,"lon":5.40905,"is_reserved":false,"is_disabled":false,"rental_uris":{"android":"levelo://app?vid=429fbf73-3937-48aa-9baf-1ba24da519fd","ios":"levelo://app?vid=429fbf73-3937-48aa-9baf-1ba24da519fd"},"vehicle_type_id":"4","last_reported":1745968153,"current_range_meters":20800,"station_id":"ce4bh192rcd13ifvqdc0","pricing_plan_id":"cebpf4jnsgd1na2vs0mg"},{"bike_id":"ad3875fe-2d3d-4d95-a1f7-08b94f50e097","system_id":"levelo_inurba_marseille","lat":43.28726,"lon":5.37939,"is_reserved":false,"is_disabled":false,"rental_uris":{"android":"levelo://app?vid=ad3875fe-2d3d-4d95-a1f7-08b94f50e097","ios":"levelo://app?vid=ad3875fe-2d3d-4d95-a1f7-08b94f50e097"},"vehicle_type_id":"4","last_reported":1745968153,"current_range_meters":21600,"station_id":"ce4bh9p2rcd13ifvqec0","pricing_plan_id":"cebpf4jnsgd1na2vs0mg"},{"bike_id":"310d622f-a5db-4e3b-a8a9-748b6065bef9","system_id":"levelo_inurba_marseille","lat":43.284487,"lon":5.358833,"is_reserved":false,"is_disabled":false,"rental_uris":{"android":"levelo://app?vid=310d622f-a5db-4e3b-a8a9-748b6065bef9","ios":"levelo://app?vid=310d622f-a5db-4e3b-a8a9-748b6065bef9"},"vehicle_type_id":"4","last_reported":1745968153,"current_range_meters":21600,"station_id":"ce4bhah2rcd13ifvqei0","pricing_plan_id":"cebpf4jnsgd1na2vs0mg"},{"bike_id":"d29e62a1-3a78-426a-b8e4-8f27c2bce535","system_id":"levelo_inurba_marseille","lat":43.28466,"lon":5.35876,"is_reserved":false,"is_disabled":false,"rental_uris":{"android":"levelo://app?vid=d29e62a1-3a78-426a-b8e4-8f27c2bce535","ios":"levelo://app?vid=d29e62a1-3a78-426a-b8e4-8f27c2bce535"},"vehicle_type_id":"4","last_reported":1745968153,"current_range_meters":21600,"station_id":"ce4bhah2rcd13ifvqei0","pricing_plan_id":"cebpf4jnsgd1na2vs0mg"},{"bike_id":"24f9670e-ad78-42b7-a30f-8ec79558ce7a","system_id":"levelo_inurba_marseille","lat":43.315257,"lon":5.380363,"is_reserved":false,"is_disabled":false,"rental_uris":{"android":"levelo://app?vid=24f9670e-ad78-42b7-a30f-8ec79558ce7a","ios":"levelo://app?vid=24f9670e-ad78-42b7-a30f-8ec79558ce7a"},"vehicle_type_id":"4","last_reported":1745968153,"current_range_meters":21600,"station_id":"ce4bhsp2rcd13ifvqi50","pricing_plan_id":"cebpf4jnsgd1na2vs0mg"},{"bike_id":"93f75a02-b262-4b0e-9254-5767e1d8caf5","system_id":"levelo_inurba_marseille","lat":43.31074,"lon":5.38354,"is_reserved":false,"is_disabled":false,"rental_uris":{"android":"levelo://app?vid=93f75a02-b262-4b0e-9254-5767e1d8caf5","ios":"levelo://app?vid=93f75a02-b262-4b0e-9254-5767e1d8caf5"},"vehicle_type_id":"4","last_reported":1745968153,"current_range_meters":21600,"station_id":"ce4bgv92rcd13ifvqcr0","pricing_plan_id":"cebpf4jnsgd1na2vs0mg"},{"bike_id":"2aca1c18-24ba-40b2-b53c-be21b3f10a9f","system_id":"levelo_inurba_marseille","lat":43.28947,"lon":5.36388,"is_reserved":false,"is_disabled":false,"rental_uris":{"android":"levelo://app?vid=2aca1c18-24ba-40b2-b53c-be21b3f10a9f","ios":"levelo://app?vid=2aca1c18-24ba-40b2-b53c-be21b3f10a9f"},"vehicle_type_id":"4","last_reported":1745968153,"current_range_meters":21600,"station_id":"ce4bhc92rcd13ifvqetg","pricing_plan_id":"cebpf4jnsgd1na2vs0mg"},{"bike_id":"ccbbee8a-74a9-495a-940d-fbb51189a66e","system_id":"levelo_inurba_marseille","lat":43.24387,"lon":5.37056,"is_reserved":false,"is_disabled":false,"rental_uris":{"android":"levelo://app?vid=ccbbee8a-74a9-495a-940d-fbb51189a66e","ios":"levelo://app?vid=ccbbee8a-74a9-495a-940d-fbb51189a66e"},