{"last_updated":1705522046,"ttl":30,"version":"2.2","data":{"bikes":[{"bike_id":"b583a396-5034-4f77-a306-795f95f6e1aa","system_id":"levelo_inurba_marseille","lat":43.313391,"lon":5.36706,"is_reserved":false,"is_disabled":false,"rental_uris":{"android":"levelo://app?vid=b583a396-5034-4f77-a306-795f95f6e1aa","ios":"levelo://app?vid=b583a396-5034-4f77-a306-795f95f6e1aa"},"vehicle_type_id":"4","last_reported":1705522046,"current_range_meters":26400,"station_id":"ce4bgr92rcd13ifvqc6g","pricing_plan_id":"free"},{"bike_id":"bde9a313-f0b7-49d2-b695-7c2609d05c1e","system_id":"levelo_inurba_marseille","lat":43.313514,"lon":5.367178,"is_reserved":false,"is_disabled":false,"rental_uris":{"android":"levelo://app?vid=bde9a313-f0b7-49d2-b695-7c2609d05c1e","ios":"levelo://app?vid=bde9a313-f0b7-49d2-b695-7c2609d05c1e"},"vehicle_type_id":"4","last_reported":1705522046,"current_range_meters":20000,"station_id":"ce4bgr92rcd13ifvqc6g","pricing_plan_id":"free"},{"bike_id":"b971be56-0d34-41af-a304-2ab17fe49619","system_id":"levelo_inurba_marseille","lat":43.313556,"lon":5.367144,"is_reserved":false,"is_disabled":false,"rental_uris":{"android":"levelo://app?vid=b971be56-0d34-41af-a304-2ab17fe49619","ios":"levelo://app?vid=b971be56-0d34-41af-a304-2ab17fe49619"},"vehicle_type_id":"4","last_reported":1705522046,"current_range_meters":2400,"station_id":"ce4bgr92rcd13ifvqc6g","pricing_plan_id":"free"},{"bike_id":"0d5bffaa-2a7c-4b8a-81d6-6fa37b044d80","system_id":"levelo_inurba_marseille","lat":43.312239,"lon":5.368562,"is_reserved":false,"is_disabled":false,"rental_uris":{"android":"levelo://app?vid=0d5bffaa-2a7c-4b8a-81d6-6fa37b044d80","ios":"levelo://app?vid=0d5bffaa-2a7c-4b8a-81d6-6fa37b044d80"},"vehicle_type_id":"4","last_reported":1705522046,"current_range_meters":31200,"station_id":"ce4bgl92rcd13ifvqbq0","pricing_plan_id":"free"},{"bike_id":"1b8b2211-0599-4df2-958e-865ef08fa8df","system_id":"levelo_inurba_marseille","lat":43.312239,"lon":5.368562,"is_reserved":false,"is_disabled":false,"rental_uris":{"android":"levelo://app?vid=1b8b2211-0599-4df2-958e-865ef08fa8df","ios":"levelo://app?vid=1b8b2211-0599-4df2-958e-865ef08fa8df"},"vehicle_type_id":"4","last_reported":1705522046,"current_range_meters":31600,"station_id":"ce4bgl92rcd13ifvqbq0","pricing_plan_id":"free"},{"bike_id":"f3f4a518-7714-4b0a-bd44-5859e8ab86d4","system_id":"levelo_inurba_marseille","lat":43.312239,"lon":5.368562,"is_reserved":false,"is_disabled":false,"rental_uris":{"android":"levelo://app?vid=f3f4a518-7714-4b0a-bd44-5859e8ab86d4","ios":"levelo://app?vid=f3f4a518-7714-4b0a-bd44-5859e8ab86d4"},"vehicle_type_id":"4","last_reported":1705522046,"current_range_meters":26800,"station_id":"ce4bgl92rcd13ifvqbq0","pricing_plan_id":"free"},{"bike_id":"59ec84ac-235b-4c4e-84dc-a68e918cc7f8","system_id":"levelo_inurba_marseille","lat":43.31235,"lon":5.36867,"is_reserved":false,"is_disabled":false,"rental_uris":{"android":"levelo://app?vid=59ec84ac-235b-4c4e-84dc-a68e918cc7f8","ios":"levelo://app?vid=59ec84ac-235b-4c4e-84dc-a68e918cc7f8"},"vehicle_type_id":"4","last_reported":1705522046,"current_range_meters":4800,"station_id":"ce4bgl92rcd13ifvqbq0","pricing_plan_id":"free"},{"bike_id":"897ae299-b3ab-481c-adba-997e1f460526","system_id":"levelo_inurba_marseille","lat":43.312239,"lon":5.368562,"is_reserved":false,"is_disabled":false,"rental_uris":{"android":"levelo://app?vid=897ae299-b3ab-481c-adba-997e1f460526","ios":"levelo://app?vid=897ae299-b3ab-481c-adba-997e1f460526"},"vehicle_type_id":"4","last_reported":1705522046,"current_range_meters":30400,"station_id":"ce4bgl92rcd13ifvqbq0","pricing_plan_id":"free"},{"bike_id":"ca02a1fc-4b5a-4862-b417-379c2ed087c9","system_id":"levelo_inurba_marseille","lat":43.312239,"lon":5.368562,"is_reserved":false,"is_disabled":false,"rental_uris":{"android":"levelo://app?vid=ca02a1fc-4b5a-4862-b417-379c2ed087c9","ios":"levelo://app?vid=ca02a1fc-4b5a-4862-b417-379c2ed087c9"},"vehicle_type_id":"4","last_reported":1705522046,"current_range_meters":10800,"station_id":"ce4bgl92rcd13ifvqbq0","pricing_plan_id":"free"},{"bike_id":"61b93c57-6b08-4259-a460-f9bbda173b07","system_id":"levelo_inurba_marseille","lat":43.312239,"lon":5.368562,"is_reserved":false,"is_disabled":false,"rental_uris":{"android":"levelo://app?vid=61b93c57-6b08-4259-a460-f9bbda173b07","ios":"levelo://app?vid=61b93c57-6b08-4259-a460-f9bbda173b07"},"vehicle_type_id":"4","last_reported":1705522046,"current_range_meters":20800,"station_id":"ce4bgl92rcd13ifvqbq0","pricing_plan_id":"free"},{"bike_id":"eea6dd2e-fa08-4d68-81d7-26b1b29fcb36","system_id":"levelo_inurba_marseille","lat":43.312239,"lon":5.368562,"is_reserved":false,"is_disabled":false,"rental_uris":{"android":"levelo://app?vid=eea6dd2e-fa08-4d68-81d7-26b1b29fcb36","ios":"levelo://app?vid=eea6dd2e-fa08-4d68-81d7-26b1b29fcb36"},"vehicle_type_id":"4","last_reported":1705522046,"current_range_meters":19600,"station_id":"ce4bgl92rcd13ifvqbq0","pricing_plan_id":"free"},{"bike_id":"c6c3d459-51cc-41a1-812a-e8b470d2f921","system_id":"levelo_inurba_marseille","lat":43.312239,"lon":5.368562,"is_reserved":false,"is_disabled":false,"rental_uris":{"android":"levelo://app?vid=c6c3d459-51cc-41a1-812a-e8b470d2f921","ios":"levelo://app?vid=c6c3d459-51cc-41a1-812a-e8b470d2f921"},"vehicle_type_id":"4","last_reported":1705522046,"current_range_meters":12000,"station_id":"ce4bgl92rcd13ifvqbq0","pricing_plan_id":"free"},{"bike_id":"a70a786d-c26c-46ae-a2d3-16bd4d8a87ad","system_id":"levelo_inurba_marseille","lat":43.312239,"lon":5.368562,"is_reserved":false,"is_disabled":false,"rental_uris":{"android":"levelo://app?vid=a70a786d-c26c-46ae-a2d3-16bd4d8a87ad","ios":"levelo://app?vid=a70a786d-c26c-46ae-a2d3-16bd4d8a87ad"},"vehicle_type_id":"4","last_reported":1705522046,"current_range_meters":23200,"station_id":"ce4bgl92rcd13ifvqbq0","pricing_plan_id":"free"},{"bike_id":"a1445915-c1d2-4781-b44d-137557b639f0","system_id":"levelo_inurba_marseille","lat":43.312239,"lon":5.368562,"is_reserved":false,"is_disabled":false,"rental_uris":{"android":"levelo://app?vid=a1445915-c1d2-4781-b44d-137557b639f0","ios":"levelo://app?vid=a1445915-c1d2-4781-b44d-137557b639f0"},"vehicle_type_id":"4","last_reported":1705522046,"current_range_meters":20000,"station_id":"ce4bgl92rcd13ifvqbq0","pricing_plan_id":"free"},{"bike_id":"1419ddeb-e783-4a0b-ba4e-21e25b6a097d","system_id":"levelo_inurba_marseille","lat":43.312239,"lon":5.368562,"is_reserved":false,"is_disabled":false,"rental_uris":{"android":"levelo://app?vid=1419ddeb-e783-4a0b-ba4e-21e25b6a097d","ios":"levelo://app?vid=1419ddeb-e783-4a0b-ba4e-21e25b6a097d"},"vehicle_type_id":"4","last_reported":1705522046,"current_range_meters":29600,"station_id":"ce4bgl92rcd13ifvqbq0","pricing_plan_id":"free"},{"bike_id":"e4eb5cf9-bd23-4b6e-89c6-c0f95b186d32","system_id":"levelo_inurba_marseille","lat":43.309076,"lon":5.368465,"is_reserved":false,"is_disabled":false,"rental_uris":{"android":"levelo://app?vid=e4eb5cf9-bd23-4b6e-89c6-c0f95b186d32","ios":"levelo://app?vid=e4eb5cf9-bd23-4b6e-89c6-c0f95b186d32"},"vehicle_type_id":"4","last_reported":1705522046,"current_range_meters":31200,"station_id":"ce4bgn92rcd13ifvqbvg","pricing_plan_id":"free"},{"bike_id":"0fd1310f-eb7e-48e6-a8fb-29c28ffc1b12","system_id":"levelo_inurba_marseille","lat":43.309034,"lon":5.371783,"is_reserved":false,"is_disabled":false,"rental_uris":{"android":"levelo://app?vid=0fd1310f-eb7e-48e6-a8fb-29c28ffc1b12","ios":"levelo://app?vid=0fd1310f-eb7e-48e6-a8fb-29c28ffc1b12"},"vehicle_type_id":"4","last_reported":1705522046,"current_range_meters":10000,"station_id":"ce4bguh2rcd13ifvqckg","pricing_plan_id":"free"},{"bike_id":"bdcfa337-974b-478d-b158-990316e84cc9","system_id":"levelo_inurba_marseille","lat":43.309034,"lon":5.371783,"is_reserved":false,"is_disabled":false,"rental_uris":{"android":"levelo://app?vid=bdcfa337-974b-478d-b158-990316e84cc9","ios":"levelo://app?vid=bdcfa337-974b-478d-b158-990316e84cc9"},"vehicle_type_id":"4","last_reported":1705522046,"current_range_meters":0,"station_id":"ce4bguh2rcd13ifvqckg","pricing_plan_id":"free"},{"bike_id":"d75d6226-56af-4305-aa09-01f24bb28ef7","system_id":"levelo_inurba_marseille","lat":43.305368,"lon":5.367343,"is_reserved":false,"is_disabled":false,"rental_uris":{"android":"levelo://app?vid=d75d6226-56af-4305-aa09-01f24bb28ef7","ios":"levelo://app?vid=d75d6226-56af-4305-aa09-01f24bb28ef7"},"vehicle_type_id":"4","last_reported":1705522046,"current_range_meters":27600,"station_id":"ce4bgrp2rcd13ifvqc9g","pricing_plan_id":"free"},{"bike_id":"3319558b-6df8-4dc1-ae82-d6ce4a2fb101","system_id":"levelo_inurba_marseille","lat":43.305989,"lon":5.37225,"is_reserved":false,"is_disabled":false,"rental_uris":{"android":"levelo://app?vid=3319558b-6df8-4dc1-ae82-d6ce4a2fb101","ios":"levelo://app?vid=3319558b-6df8-4dc1-ae82-d6ce4a2fb101"},"vehicle_type_id":"4","last_reported":1705522046,"current_range_meters":21200,"station_id":"ce4bgqh2rcd13ifvqc4g","pricing_plan_id":"free"},{"bike_id":"65e9b800-65ee-45d2-92ee-071baf7b2862","system_id":"levelo_inurba_marseille","lat":43.311125,"lon":5.377624,"is_reserved":false,"is_disabled":false,"rental_uris":{"android":"levelo://app?vid=65e9b800-65ee-45d2-92ee-071baf7b2862","ios":"levelo://app?vid=65e9b800-65ee-45d2-92ee-071baf7b2862"},"vehicle_type_id":"4","last_reported":1705522046,"current_range_meters":14800,"station_id":"ce4bgt92rcd13ifvqcg0","pricing_plan_id":"free"},{"bike_id":"b77f132d-3438-4506-bf0d-83c6e8455112","system_id":"levelo_inurba_marseille","lat":43.311125,"lon":5.377624,"is_reserved":false,"is_disabled":false,"rental_uris":{"android":"levelo://app?vid=b77f132d-3438-4506-bf0d-83c6e8455112","ios":"levelo://app?vid=b77f132d-3438-4506-bf0d-83c6e8455112"},"vehicle_type_id":"4","last_reported":1705522046,"current_range_meters":15600,"station_id":"ce4bgt92rcd13ifvqcg0","pricing_plan_id":"free"},{"bike_id":"9a292592-554b-405c-b3b1-bedcd334b4c3","system_id":"levelo_inurba_marseille","lat":43.307945,"lon":5.376487,"is_reserved":false,"is_disabled":false,"rental_uris":{"android":"levelo://app?vid=9a292592-554b-405c-b3b1-bedcd334b4c3","ios":"levelo://app?vid=9a292592-554b-405c-b3b1-bedcd334b4c3"},"vehicle_type_id":"4","last_reported":1705522046,"current_range_meters":20000,"station_id":"ce4bgv92rcd13ifvqcq0","pricing_plan_id":"free"},{"bike_id":"43a81df7-3ff7-407d-ba55-2fd7c6ddcacf","system_id":"levelo_inurba_marseille","lat":43.307945,"lon":5.376487,"is_reserved":false,"is_disabled":false,"rental_uris":{"android":"levelo://app?vid=43a81df7-3ff7-407d-ba55-2fd7c6ddcacf","ios":"levelo://app?vid=43a81df7-3ff7-407d-ba55-2fd7c6ddcacf"},"vehicle_type_id":"4","last_reported":1705522046,"current_range_meters":31600,"station_id":"ce4bgv92rcd13ifvqcq0","pricing_plan_id":"free"},{"bike_id":"6f81a612-057b-4650-a66a-83d799e4c397","system_id":"levelo_inurba_marseille","lat":43.307945,"lon":5.376487,"is_reserved":false,"is_disabled":false,"rental_uris":{"android":"levelo://app?vid=6f81a612-057b-4650-a66a-83d799e4c397","ios":"levelo://app?vid=6f81a612-057b-4650-a66a-83d799e4c397"},"vehicle_type_id":"4","last_reported":1705522046,"current_range_meters":26800,"station_id":"ce4bgv92rcd13ifvqcq0","pricing_plan_id":"free"},{"bike_id":"a2ea8dd0-0119-4efb-af51-b9d4e5c84ffd","system_id":"levelo_inurba_marseille","lat":43.307945,"lon":5.376487,"is_reserved":false,"is_disabled":false,"rental_uris":{"android":"levelo://app?vid=a2ea8dd0-0119-4efb-af51-b9d4e5c84ffd","ios":"levelo://app?vid=a2ea8dd0-0119-4efb-af51-b9d4e5c84ffd"},"vehicle_type_id":"4","last_reported":1705522046,"current_range_meters":26000,"station_id":"ce4bgv92rcd13ifvqcq0","pricing_plan_id":"free"},{"bike_id":"de6ecae9-edc1-4c68-b725-ae99ee4d79f3","system_id":"levelo_inurba_marseille","lat":43.317075,"lon":5.377367,"is_reserved":false,"is_disabled":false,"rental_uris":{"android":"levelo://app?vid=de6ecae9-edc1-4c68-b725-ae99ee4d79f3","ios":"levelo://app?vid=de6ecae9-edc1-4c68-b725-ae99ee4d79f3"},"vehicle_type_id":"4","last_reported":1705522046,"current_range_meters":4800,"station_id":"ce4bgth2rcd13ifvqch0","pricing_plan_id":"free"},{"bike_id":"a456dfc1-e659-4d25-82cb-0c1c3844b77a","system_id":"levelo_inurba_marseille","lat":43.317075,"lon":5.377367,"is_reserved":false,"is_disabled":false,"rental_uris":{"android":"levelo://app?vid=a456dfc1-e659-4d25-82cb-0c1c3844b77a","ios":"levelo://app?vid=a456dfc1-e659-4d25-82cb-0c1c3844b77a"},"vehicle_type_id":"4","last_reported":1705522046,"current_range_meters":17200,"station_id":"ce4bgth2rcd13ifvqch0","pricing_plan_id":"free"},{"bike_id":"462a3997-f179-4714-a434-bd1c0d0c1acf","system_id":"levelo_inurba_marseille","lat":43.317075,"lon":5.377367,"is_reserved":false,"is_disabled":false,"rental_uris":{"android":"levelo://app?vid=462a3997-f179-4714-a434-bd1c0d0c1acf","ios":"levelo://app?vid=462a3997-f179-4714-a434-bd1c0d0c1acf"},"vehicle_type_id":"4","last_reported":1705522046,"current_range_meters":23600,"station_id":"ce4bgth2rcd13ifvqch0","pricing_plan_id":"free"},{"bike_id":"1e576a47-6937-45b2-8c36-b23f577e4397","system_id":"levelo_inurba_marseille","lat":43.317075,"lon":5.377367,"is_reserved":false,"is_disabled":false,"rental_uris":{"android":"levelo://app?vid=1e576a47-6937-45b2-8c36-b23f577e4397","ios":"levelo://app?vid=1e576a47-6937-45b2-8c36-b23f577e4397"},"vehicle_type_id":"4","last_reported":1705522046,"current_range_meters":12800,"station_id":"ce4bgth2rcd13ifvqch0","pricing_plan_id":"free"},{"bike_id":"f76f4704-41f3-41b9-91d8-3beb03c38fa0","system_id":"levelo_inurba_marseille","lat":43.317075,"lon":5.377367,"is_reserved":false,"is_disabled":false,"rental_uris":{"android":"levelo://app?vid=f76f4704-41f3-41b9-91d8-3beb03c38fa0","ios":"levelo://app?vid=f76f4704-41f3-41b9-91d8-3beb03c38fa0"},"vehicle_type_id":"4","last_reported":1705522046,"current_range_meters":29600,"station_id":"ce4bgth2rcd13ifvqch0","pricing_plan_id":"free"},{"bike_id":"9507b9a3-f418-4cd7-85c9-640f1d508976","system_id":"levelo_inurba_marseille","lat":43.317075,"lon":5.377367,"is_reserved":false,"is_disabled":false,"rental_uris":{"android":"levelo://app?vid=9507b9a3-f418-4cd7-85c9-640f1d508976","ios":"levelo://app?vid=9507b9a3-f418-4cd7-85c9-640f1d508976"},"vehicle_type_id":"4","last_reported":1705522046,"current_range_meters":12000,"station_id":"ce4bgth2rcd13ifvqch0","pricing_plan_id":"free"},{"bike_id":"ff33bb7d-c90b-41bd-a053-cd8c73fa345a","system_id":"levelo_inurba_marseille","lat":43.317075,"lon":5.377367,"is_reserved":false,"is_disabled":false,"rental_uris":{"android":"levelo://app?vid=ff33bb7d-c90b-41bd-a053-cd8c73fa345a","ios":"levelo://app?vid=ff33bb7d-c90b-41bd-a053-cd8c73fa345a"},"vehicle_type_id":"4","last_reported":1705522046,"current_range_meters":17200,"station_id":"ce4bgth2rcd13ifvqch0","pricing_plan_id":"free"},{"bike_id":"4fc78ff2-0528-428f-9db4-6c8d2b0b09de","system_id":"levelo_inurba_marseille","lat":43.303046,"lon":5.368981,"is_reserved":false,"is_disabled":false,"rental_uris":{"android":"levelo://app?vid=4fc78ff2-0528-428f-9db4-6c8d2b0b09de","ios":"levelo://app?vid=4fc78ff2-0528-428f-9db4-6c8d2b0b09de"},"vehicle_type_id":"4","last_reported":1705522046,"current_range_meters":25600,"station_id":"ce4bgqh2rcd13ifvqc5g","pricing_plan_id":"free"},{"bike_id":"7da63ef4-c654-4efa-9cd3-4f27f87953ea","system_id":"levelo_inurba_marseille","lat":43.31524,"lon":5.38038,"is_reserved":false,"is_disabled":false,"rental_uris":{"android":"levelo://app?vid=7da63ef4-c654-4efa-9cd3-4f27f87953ea","ios":"levelo://app?vid=7da63ef4-c654-4efa-9cd3-4f27f87953ea"},"vehicle_type_id":"4","last_reported":1705522046,"current_range_meters":20400,"station_id":"ce4bhsp2rcd13ifvqi50","pricing_plan_id":"free"},{"bike_id":"3d386a7d-55b1-48f1-95a0-a0e484d66162","system_id":"levelo_inurba_marseille","lat":43.301939,"lon":5.366286,"is_reserved":false,"is_disabled":false,"rental_uris":{"android":"levelo://app?vid=3d386a7d-55b1-48f1-95a0-a0e484d66162","ios":"levelo://app?vid=3d386a7d-55b1-48f1-95a0-a0e484d66162"},"vehicle_type_id":"4","last_reported":1705522046,"current_range_meters":9600,"station_id":"ce4bgrh2rcd13ifvqc8g","pricing_plan_id":"free"},{"bike_id":"01672474-0eea-4f15-8a5a-f1082a68ed33","system_id":"levelo_inurba_marseille","lat":43.304606,"lon":5.379026,"is_reserved":false,"is_disabled":false,"rental_uris":{"android":"levelo://app?vid=01672474-0eea-4f15-8a5a-f1082a68ed33","ios":"levelo://app?vid=01672474-0eea-4f15-8a5a-f1082a68ed33"},"vehicle_type_id":"4","last_reported":1705522046,"current_range_meters":17200,"station_id":"ce4bgup2rcd13ifvqcn0","pricing_plan_id":"free"},{"bike_id":"3e342df5-7ac4-4fe7-a9c2-468dee763e97","system_id":"levelo_inurba_marseille","lat":43.304606,"lon":5.379026,"is_reserved":false,"is_disabled":false,"rental_uris":{"android":"levelo://app?vid=3e342df5-7ac4-4fe7-a9c2-468dee763e97","ios":"levelo://app?vid=3e342df5-7ac4-4fe7-a9c2-468dee763e97"},"vehicle_type_id":"4","last_reported":1705522046,"current_range_meters":2000,"station_id":"ce4bgup2rcd13ifvqcn0","pricing_plan_id":"free"},{"bike_id":"b4f7b620-8b06-4bcc-ae7b-e3dba26f1b15","system_id":"levelo_inurba_marseille","lat":43.304606,"lon":5.379026,"is_reserved":false,"is_disabled":false,"rental_uris":{"android":"levelo://app?vid=b4f7b620-8b06-4bcc-ae7b-e3dba26f1b15","ios":"levelo://app?vid=b4f7b620-8b06-4bcc-ae7b-e3dba26f1b15"},"vehicle_type_id":"4","last_reported":1705522046,"current_range_meters":31200,"station_id":"ce4bgup2rcd13ifvqcn0","pricing_plan_id":"free"},{"bike_id":"b6665513-6ca2-42dc-9baf-3c5b43a49768","system_id":"levelo_inurba_marseille","lat":43.324771,"lon":5.36557,"is_reserved":false,"is_disabled":false,"rental_uris":{"android":"levelo://app?vid=b6665513-6ca2-42dc-9baf-3c5b43a49768","ios":"levelo://app?vid=b6665513-6ca2-42dc-9baf-3c5b43a49768"},"vehicle_type_id":"4","last_reported":1705522046,"current_range_meters":24000,"station_id":"ce4bhs12rcd13ifvqhvg","pricing_plan_id":"free"},{"bike_id":"70b6003b-c097-4556-9901-ccaad4bc262d","system_id":"levelo_inurba_marseille","lat":43.302815,"lon":5.37702,"is_reserved":false,"is_disabled":false,"rental_uris":{"android":"levelo://app?vid=70b6003b-c097-4556-9901-ccaad4bc262d","ios":"levelo://app?vid=70b6003b-c097-4556-9901-ccaad4bc262d"},"vehicle_type_id":"4","last_reported":1705522046,"current_range_meters":15600,"station_id":"","pricing_plan_id":"free"},{"bike_id":"46174414-2c6f-45ba-820b-555333d7b986","system_id":"levelo_inurba_marseille","lat":43.307945,"lon":5.376487,"is_reserved":false,"is_disabled":false,"rental_uris":{"android":"levelo://app?vid=46174414-2c6f-45ba-820b-555333d7b986","ios":"levelo://app?vid=46174414-2c6f-45ba-820b-555333d7b986"},"vehicle_type_id":"4","last_reported":1705522046,"current_range_meters":23200,"station_id":"ce4bgv92rcd13ifvqcq0","pricing_plan_id":"free"},{"bike_id":"e64ec3a8-eebd-4cdf-a91e-b0a283fed678","system_id":"levelo_inurba_marseille","lat":43.319935,"lon":5.381699,"is_reserved":false,"is_disabled":false,"rental_uris":{"android":"levelo://app?vid=e64ec3a8-eebd-4cdf-a91e-b0a283fed678","ios":"levelo://app?vid=e64ec3a8-eebd-4cdf-a91e-b0a283fed678"},"vehicle_type_id":"4","last_reported":1705522046,"current_range_meters":29200,"station_id":"ce4bhr12rcd13ifvqhpg","pricing_plan_id":"free"},{"bike_id":"d2edba53-b6fb-4937-aa17-e4cc1be26aea","system_id":"levelo_inurba_marseille","lat":43.319935,"lon":5.381699,"is_reserved":false,"is_disabled":false,"rental_uris":{"android":"levelo://app?vid=d2edba53-b6fb-4937-aa17-e4cc1be26aea","ios":"levelo://app?vid=d2edba53-b6fb-4937-aa17-e4cc1be26aea"},"vehicle_type_id":"4","last_reported":1705522046,"current_range_meters":13200,"station_id":"ce4bhr12rcd13ifvqhpg","pricing_plan_id":"free"},{"bike_id":"d7969d1d-a1b3-4043-b8e0-646e47c43f31","system_id":"levelo_inurba_marseille","lat":43.319938,"lon":5.381514,"is_reserved":false,"is_disabled":false,"rental_uris":{"android":"levelo://app?vid=d7969d1d-a1b3-4043-b8e0-646e47c43f31","ios":"levelo://app?vid=d7969d1d-a1b3-4043-b8e0-646e47c43f31"},"vehicle_type_id":"4","last_reported":1705522046,"current_range_meters":28000,"station_id":"ce4bhr12rcd13ifvqhpg","pricing_plan_id":"free"},{"bike_id":"58977b51-72c4-41b5-811b-3ff864e1122f","system_id":"levelo_inurba_marseille","lat":43.319935,"lon":5.381699,"is_reserved":false,"is_disabled":false,"rental_uris":{"android":"levelo://app?vid=58977b51-72c4-41b5-811b-3ff864e1122f","ios":"levelo://app?vid=58977b51-72c4-41b5-811b-3ff864e1122f"},"vehicle_type_id":"4","last_reported":1705522046,"current_range_meters":18400,"station_id":"ce4bhr12rcd13ifvqhpg","pricing_plan_id":"free"},{"bike_id":"2df3e643-7736-4b74-b37b-1e8b7f3b94d7","system_id":"levelo_inurba_marseille","lat":43.319935,"lon":5.381699,"is_reserved":false,"is_disabled":false,"rental_uris":{"android":"levelo://app?vid=2df3e643-7736-4b74-b37b-1e8b7f3b94d7","ios":"levelo://app?vid=2df3e643-7736-4b74-b37b-1e8b7f3b94d7"},"vehicle_type_id":"4","last_reported":1705522046,"current_range_meters":21200,"station_id":"ce4bhr12rcd13ifvqhpg","pricing_plan_id":"free"},{"bike_id":"814692ac-b473-4130-8719-0b5cf8a6c6f1","system_id":"levelo_inurba_marseille","lat":43.313571,"lon":5.384829,"is_reserved":false,"is_disabled":false,"rental_uris":{"android":"levelo://app?vid=814692ac-b473-4130-8719-0b5cf8a6c6f1","ios":"levelo://app?vid=814692ac-b473-4130-8719-0b5cf8a6c6f1"},"vehicle_type_id":"4","last_reported":1705522046,"current_range_meters":12400,"station_id":"ce4bgt92rcd13ifvqcf0","pricing_plan_id":"free"},{"bike_id":"b121b863-e8d2-4011-901e-87165fdee019","system_id":"levelo_inurba_marseille","lat":43.313571,"lon":5.384829,"is_reserved":false,"is_disabled":false,"rental_uris":{"android":"levelo://app?vid=b121b863-e8d2-4011-901e-87165fdee019","ios":"levelo://app?vid=b121b863-e8d2-4011-901e-87165fdee019"},"vehicle_type_id":"4","last_reported":1705522046,"current_range_meters":23600,"station_id":"ce4bgt92rcd13ifvqcf0","pricing_plan_id":"free"},{"bike_id":"1632a91d-1199-45bd-9df0-dd2fdd1ae80a","system_id":"levelo_inurba_marseille","lat":43.313571,"lon":5.384829,"is_reserved":false,"is_disabled":false,"rental_uris":{"android":"levelo://app?vid=1632a91d-1199-45bd-9df0-dd2fdd1ae80a","ios":"levelo://app?vid=1632a91d-1199-45bd-9df0-dd2fdd1ae80a"},"vehicle_type_id":"4","last_reported":1705522046,"current_range_meters":12000,"station_id":"ce4bgt92rcd13ifvqcf0","pricing_plan_id":"free"},{"bike_id":"a9fecdd8-54c6-42ba-9f80-f8cc0de47808","system_id":"levelo_inurba_marseille","lat":43.313571,"lon":5.384829,"is_reserved":false,"is_disabled":false,"rental_uris":{"android":"levelo://app?vid=a9fecdd8-54c6-42ba-9f80-f8cc0de47808","ios":"levelo://app?vid=a9fecdd8-54c6-42ba-9f80-f8cc0de47808"},"vehicle_type_id":"4","last_reported":1705522046,"current_range_meters":16800,"station_id":"ce4bgt92rcd13ifvqcf0","pricing_plan_id":"free"},{"bike_id":"3261db55-3177-4284-a75b-d10222dcdbd6","system_id":"levelo_inurba_marseille","lat":43.313571,"lon":5.384829,"is_reserved":false,"is_disabled":false,"rental_uris":{"android":"levelo://app?vid=3261db55-3177-4284-a75b-d10222dcdbd6","ios":"levelo://app?vid=3261db55-3177-4284-a75b-d10222dcdbd6"},"vehicle_type_id":"4","last_reported":1705522046,"current_range_meters":26000,"station_id":"ce4bgt92rcd13ifvqcf0","pricing_plan_id":"free"},{"bike_id":"dcea3bfa-82ec-4d23-b45a-fea0ef45a7e7","system_id":"levelo_inurba_marseille","lat":43.2994,"lon":5.36537,"is_reserved":false,"is_disabled":false,"rental_uris":{"android":"levelo://app?vid=dcea3bfa-82ec-4d23-b45a-fea0ef45a7e7","ios":"levelo://app?vid=dcea3bfa-82ec-4d23-b45a-fea0ef45a7e7"},"vehicle_type_id":"4","last_reported":1705522046,"current_range_meters":1600,"station_id":"ce4bgm92rcd13ifvqbr0","pricing_plan_id":"free"},{"bike_id":"b801d7d4-ff8c-4d7a-8d73-e61e5bb39e4b","system_id":"levelo_inurba_marseille","lat":43.299724,"lon":5.371829,"is_reserved":false,"is_disabled":false,"rental_uris":{"android":"levelo://app?vid=b801d7d4-ff8c-4d7a-8d73-e61e5bb39e4b","ios":"levelo://app?vid=b801d7d4-ff8c-4d7a-8d73-e61e5bb39e4b"},"vehicle_type_id":"4","last_reported":1705522046,"current_range_meters":26800,"station_id":"ce4bgr92rcd13ifvqc7g","pricing_plan_id":"free"},{"bike_id":"1ce24435-6b1a-42f8-8108-ae5690103358","system_id":"levelo_inurba_marseille","lat":43.299222,"lon":5.365554,"is_reserved":false,"is_disabled":false,"rental_uris":{"android":"levelo://app?vid=1ce24435-6b1a-42f8-8108-ae5690103358","ios":"levelo://app?vid=1ce24435-6b1a-42f8-8108-ae5690103358"},"vehicle_type_id":"4","last_reported":1705522046,"current_range_meters":12800,"station_id":"ce4bgm92rcd13ifvqbr0","pricing_plan_id":"free"},{"bike_id":"9235458f-6098-44b7-8031-a9ebc06555a1","system_id":"levelo_inurba_marseille","lat":43.299724,"lon":5.371829,"is_reserved":false,"is_disabled":false,"rental_uris":{"android":"levelo://app?vid=9235458f-6098-44b7-8031-a9ebc06555a1","ios":"levelo://app?vid=9235458f-6098-44b7-8031-a9ebc06555a1"},"vehicle_type_id":"4","last_reported":1705522046,"current_range_meters":20000,"station_id":"ce4bgr92rcd13ifvqc7g","pricing_plan_id":"free"},{"bike_id":"35034515-161d-4c12-a2ed-40862a7e1128","system_id":"levelo_inurba_marseille","lat":43.299724,"lon":5.371829,"is_reserved":false,"is_disabled":false,"rental_uris":{"android":"levelo://app?vid=35034515-161d-4c12-a2ed-40862a7e1128","ios":"levelo://app?vid=35034515-161d-4c12-a2ed-40862a7e1128"},"vehicle_type_id":"4","last_reported":1705522046,"current_range_meters":5200,"station_id":"ce4bgr92rcd13ifvqc7g","pricing_plan_id":"free"},{"bike_id":"a13648c1-6d6e-4e53-9950-50bddbf7bf1e","system_id":"levelo_inurba_marseille","lat":43.305364,"lon":5.384119,"is_reserved":false,"is_disabled":false,"rental_uris":{"android":"levelo://app?vid=a13648c1-6d6e-4e53-9950-50bddbf7bf1e","ios":"levelo://app?vid=a13648c1-6d6e-4e53-9950-50bddbf7bf1e"},"vehicle_type_id":"4","last_reported":1705522046,"current_range_meters":23600,"station_id":"ce4bgg92rcd13ifvqb30","pricing_plan_id":"free"},{"bike_id":"9dd086ec-6120-4e00-97c4-88394e9110dc","system_id":"levelo_inurba_marseille","lat":43.298433,"lon":5.362774,"is_reserved":false,"is_disabled":false,"rental_uris":{"android":"levelo://app?vid=9dd086ec-6120-4e00-97c4-88394e9110dc","ios":"levelo://app?vid=9dd086ec-6120-4e00-97c4-88394e9110dc"},"vehicle_type_id":"4","last_reported":1705522046,"current_range_meters":24400,"station_id":"ce4bgpp2rcd13ifvqc3g","pricing_plan_id":"free"},{"bike_id":"1a4e3468-89a0-47cf-91bf-7b8e805b975e","system_id":"levelo_inurba_marseille","lat":43.299243,"lon":5.37481,"is_reserved":false,"is_disabled":false,"rental_uris":{"android":"levelo://app?vid=1a4e3468-89a0-47cf-91bf-7b8e805b975e","ios":"levelo://app?vid=1a4e3468-89a0-47cf-91bf-7b8e805b975e"},"vehicle_type_id":"4","last_reported":1705522046,"current_range_meters":26800,"station_id":"ce4bgjh2rcd13ifvqbg0","pricing_plan_id":"free"},{"bike_id":"e13c9a92-369f-4166-a0e5-9fac82e9cf6b","system_id":"levelo_inurba_marseille","lat":43.305364,"lon":5.384119,"is_reserved":false,"is_disabled":false,"rental_uris":{"android":"levelo://app?vid=e13c9a92-369f-4166-a0e5-9fac82e9cf6b","ios":"levelo://app?vid=e13c9a92-369f-4166-a0e5-9fac82e9cf6b"},"vehicle_type_id":"4","last_reported":1705522046,"current_range_meters":7600,"station_id":"ce4bgg92rcd13ifvqb30","pricing_plan_id":"free"},{"bike_id":"ece942ec-6dd4-4148-93a4-84eb0dcc7674","system_id":"levelo_inurba_marseille","lat":43.31185,"lon":5.38712,"is_reserved":false,"is_disabled":false,"rental_uris":{"android":"levelo://app?vid=ece942ec-6dd4-4148-93a4-84eb0dcc7674","ios":"levelo://app?vid=ece942ec-6dd4-4148-93a4-84eb0dcc7674"},"vehicle_type_id":"4","last_reported":1705522046,"current_range_meters":21200,"station_id":"ce4bgv12rcd13ifvqcp0","pricing_plan_id":"free"},{"bike_id":"b84c78ec-20e4-4d01-bafc-cd5b6393e0f3","system_id":"levelo_inurba_marseille","lat":43.311722,"lon":5.387247,"is_reserved":false,"is_disabled":false,"rental_uris":{"android":"levelo://app?vid=b84c78ec-20e4-4d01-bafc-cd5b6393e0f3","ios":"levelo://app?vid=b84c78ec-20e4-4d01-bafc-cd5b6393e0f3"},"vehicle_type_id":"4","last_reported":1705522046,"current_range_meters":19600,"station_id":"ce4bgv12rcd13ifvqcp0","pricing_plan_id":"free"},{"bike_id":"7d17b622-a91f-40b5-819b-4b5aab7f5df7","system_id":"levelo_inurba_marseille","lat":43.299243,"lon":5.37481,"is_reserved":false,"is_disabled":false,"rental_uris":{"android":"levelo://app?vid=7d17b622-a91f-40b5-819b-4b5aab7f5df7","ios":"levelo://app?vid=7d17b622-a91f-40b5-819b-4b5aab7f5df7"},"vehicle_type_id":"4","last_reported":1705522046,"current_range_meters":20000,"station_id":"ce4bgjh2rcd13ifvqbg0","pricing_plan_id":"free"},{"bike_id":"5f482809-ab68-412b-bb04-77e29931565a","system_id":"levelo_inurba_marseille","lat":43.31168,"lon":5.38727,"is_reserved":false,"is_disabled":false,"rental_uris":{"android":"levelo://app?vid=5f482809-ab68-412b-bb04-77e29931565a","ios":"levelo://app?vid=5f482809-ab68-412b-bb04-77e29931565a"},"vehicle_type_id":"4","last_reported":1705522046,"current_range_meters":24800,"station_id":"ce4bgv12rcd13ifvqcp0","pricing_plan_id":"free"},{"bike_id":"abf28dbf-f6d9-4c1c-a0cd-c73a5b0d7917","system_id":"levelo_inurba_marseille","lat":43.297794,"lon":5.370888,"is_reserved":false,"is_disabled":false,"rental_uris":{"android":"levelo://app?vid=abf28dbf-f6d9-4c1c-a0cd-c73a5b0d7917","ios":"levelo://app?vid=abf28dbf-f6d9-4c1c-a0cd-c73a5b0d7917"},"vehicle_type_id":"4","last_reported":1705522046,"current_range_meters":24800,"station_id":"ce4bgop2rcd13ifvqc1g","pricing_plan_id":"free"},{"bike_id":"bfb71faf-a56f-404a-959c-a131124e2ba7","system_id":"levelo_inurba_marseille","lat":43.297774,"lon":5.370875,"is_reserved":false,"is_disabled":false,"rental_uris":{"android":"levelo://app?vid=bfb71faf-a56f-404a-959c-a131124e2ba7","ios":"levelo://app?vid=bfb71faf-a56f-404a-959c-a131124e2ba7"},"vehicle_type_id":"4","last_reported":1705522046,"current_range_meters":30400,"station_id":"ce4bgop2rcd13ifvqc1g","pricing_plan_id":"free"},{"bike_id":"3d9dc304-628f-44b2-8f4c-5243cce84408","system_id":"levelo_inurba_marseille","lat":43.297794,"lon":5.370888,"is_reserved":false,"is_disabled":false,"rental_uris":{"android":"levelo://app?vid=3d9dc304-628f-44b2-8f4c-5243cce84408","ios":"levelo://app?vid=3d9dc304-628f-44b2-8f4c-5243cce84408"},"vehicle_type_id":"4","last_reported":1705522046,"current_range_meters":8800,"station_id":"ce4bgop2rcd13ifvqc1g","pricing_plan_id":"free"},{"bike_id":"34c8b400-5074-46e3-aa02-f5d274dfaa4f","system_id":"levelo_inurba_marseille","lat":43.322876,"lon":5.382588,"is_reserved":false,"is_disabled":false,"rental_uris":{"android":"levelo://app?vid=34c8b400-5074-46e3-aa02-f5d274dfaa4f","ios":"levelo://app?vid=34c8b400-5074-46e3-aa02-f5d274dfaa4f"},"vehicle_type_id":"4","last_reported":1705522046,"current_range_meters":14400,"station_id":"ce4bhr12rcd13ifvqhqg","pricing_plan_id":"free"},{"bike_id":"350719fe-78ec-42e1-914a-0e8c7e320537","system_id":"levelo_inurba_marseille","lat":43.297774,"lon":5.370875,"is_reserved":false,"is_disabled":false,"rental_uris":{"android":"levelo://app?vid=350719fe-78ec-42e1-914a-0e8c7e320537","ios":"levelo://app?vid=350719fe-78ec-42e1-914a-0e8c7e320537"},"vehicle_type_id":"4","last_reported":1705522046,"current_range_meters":9600,"station_id":"ce4bgop2rcd13ifvqc1g","pricing_plan_id":"free"},{"bike_id":"602a17b0-b8f4-4e78-85df-303ed86c065f","system_id":"levelo_inurba_marseille","lat":43.322872,"lon":5.382756,"is_reserved":false,"is_disabled":false,"rental_uris":{"android":"levelo://app?vid=602a17b0-b8f4-4e78-85df-303ed86c065f","ios":"levelo://app?vid=602a17b0-b8f4-4e78-85df-303ed86c065f"},"vehicle_type_id":"4","last_reported":1705522046,"current_range_meters":16000,"station_id":"ce4bhr12rcd13ifvqhqg","pricing_plan_id":"free"},{"bike_id":"3f6079be-fb20-4733-af0c-85ab4c3940ea","system_id":"levelo_inurba_marseille","lat":43.322872,"lon":5.382756,"is_reserved":false,"is_disabled":false,"rental_uris":{"android":"levelo://app?vid=3f6079be-fb20-4733-af0c-85ab4c3940ea","ios":"levelo://app?vid=3f6079be-fb20-4733-af0c-85ab4c3940ea"},"vehicle_type_id":"4","last_reported":1705522046,"current_range_meters":30000,"station_id":"ce4bhr12rcd13ifvqhqg","pricing_plan_id":"free"},{"bike_id":"afe2d6ba-ebda-4981-9104-c77037901f05","system_id":"levelo_inurba_marseille","lat":43.322872,"lon":5.382756,"is_reserved":false,"is_disabled":false,"rental_uris":{"android":"levelo://app?vid=afe2d6ba-ebda-4981-9104-c77037901f05","ios":"levelo://app?vid=afe2d6ba-ebda-4981-9104-c77037901f05"},"vehicle_type_id":"4","last_reported":1705522046,"current_range_meters":14400,"station_id":"ce4bhr12rcd13ifvqhqg","pricing_plan_id":"free"},{"bike_id":"c59e915a-05cb-49b2-8b19-dcae4465ebcc","system_id":"levelo_inurba_marseille","lat":43.322872,"lon":5.382756,"is_reserved":false,"is_disabled":false,"rental_uris":{"android":"levelo://app?vid=c59e915a-05cb-49b2-8b19-dcae4465ebcc","ios":"levelo://app?vid=c59e915a-05cb-49b2-8b19-dcae4465ebcc"},"vehicle_type_id":"4","last_reported":1705522046,"current_range_meters":30000,"station_id":"ce4bhr12rcd13ifvqhqg","pricing_plan_id":"free"},{"bike_id":"aceabc87-d681-4c2c-a7db-fc99976ae55a","system_id":"levelo_inurba_marseille","lat":43.322872,"lon":5.382756,"is_reserved":false,"is_disabled":false,"rental_uris":{"android":"levelo://app?vid=aceabc87-d681-4c2c-a7db-fc99976ae55a","ios":"levelo://app?vid=aceabc87-d681-4c2c-a7db-fc99976ae55a"},"vehicle_type_id":"4","last_reported":1705522046,"current_range_meters":7200,"station_id":"ce4bhr12rcd13ifvqhqg","pricing_plan_id":"free"},{"bike_id":"bc668f13-2e56-47cf-a84f-2f5cc2560e83","system_id":"levelo_inurba_marseille","lat":43.322872,"lon":5.382756,"is_reserved":false,"is_disabled":false,"rental_uris":{"android":"levelo://app?vid=bc668f13-2e56-47cf-a84f-2f5cc2560e83","ios":"levelo://app?vid=bc668f13-2e56-47cf-a84f-2f5cc2560e83"},"vehicle_type_id":"4","last_reported":1705522046,"current_range_meters":26400,"station_id":"ce4bhr12rcd13ifvqhqg","pricing_plan_id":"free"},{"bike_id":"7f73b72d-cc5e-4953-9b4b-d396e1416c0e","system_id":"levelo_inurba_marseille","lat":43.322872,"lon":5.382756,"is_reserved":false,"is_disabled":false,"rental_uris":{"android":"levelo://app?vid=7f73b72d-cc5e-4953-9b4b-d396e1416c0e","ios":"levelo://app?vid=7f73b72d-cc5e-4953-9b4b-d396e1416c0e"},"vehicle_type_id":"4","last_reported":1705522046,"current_range_meters":14400,"station_id":"ce4bhr12rcd13ifvqhqg","pricing_plan_id":"free"},{"bike_id":"510e4003-ad50-4182-a4bb-6da1b111fff5","system_id":"levelo_inurba_marseille","lat":43.322872,"lon":5.382756,"is_reserved":false,"is_disabled":false,"rental_uris":{"android":"levelo://app?vid=510e4003-ad50-4182-a4bb-6da1b111fff5","ios":"levelo://app?vid=510e4003-ad50-4182-a4bb-6da1b111fff5"},"vehicle_type_id":"4","last_reported":1705522046,"current_range_meters":18400,"station_id":"ce4bhr12rcd13ifvqhqg","pricing_plan_id":"free"},{"bike_id":"9cda7071-0b99-4f13-a66f-99ee8455accb","system_id":"levelo_inurba_marseille","lat":43.32821,"lon":5.36669,"is_reserved":false,"is_disabled":false,"rental_uris":{"android":"levelo://app?vid=9cda7071-0b99-4f13-a66f-99ee8455accb","ios":"levelo://app?vid=9cda7071-0b99-4f13-a66f-99ee8455accb"},"vehicle_type_id":"4","last_reported":1705522046,"current_range_meters":17600,"station_id":"ce4bhs92rcd13ifvqi0g","pricing_plan_id":"free"},{"bike_id":"947a5c0b-0299-4cd2-aecd-5f351114aaf8","system_id":"levelo_inurba_marseille","lat":43.32822,"lon":5.3668,"is_reserved":false,"is_disabled":false,"rental_uris":{"android":"levelo://app?vid=947a5c0b-0299-4cd2-aecd-5f351114aaf8","ios":"levelo://app?vid=947a5c0b-0299-4cd2-aecd-5f351114aaf8"},"vehicle_type_id":"4","last_reported":1705522046,"current_range_meters":20800,"station_id":"ce4bhs92rcd13ifvqi0g","pricing_plan_id":"free"},{"bike_id":"8463d0da-e03a-4a02-8a84-4dd7b137838e","system_id":"levelo_inurba_marseille","lat":43.32822,"lon":5.36678,"is_reserved":false,"is_disabled":false,"rental_uris":{"android":"levelo://app?vid=8463d0da-e03a-4a02-8a84-4dd7b137838e","ios":"levelo://app?vid=8463d0da-e03a-4a02-8a84-4dd7b137838e"},"vehicle_type_id":"4","last_reported":1705522046,"current_range_meters":20400,"station_id":"ce4bhs92rcd13ifvqi0g","pricing_plan_id":"free"},{"bike_id":"09621f87-561a-4138-9bcf-5568c59432a9","system_id":"levelo_inurba_marseille","lat":43.328243,"lon":5.366824,"is_reserved":false,"is_disabled":false,"rental_uris":{"android":"levelo://app?vid=09621f87-561a-4138-9bcf-5568c59432a9","ios":"levelo://app?vid=09621f87-561a-4138-9bcf-5568c59432a9"},"vehicle_type_id":"4","last_reported":1705522046,"current_range_meters":0,"station_id":"ce4bhs92rcd13ifvqi0g","pricing_plan_id":"free"},{"bike_id":"85cedcff-9e9a-415d-8415-195178ea3cb7","system_id":"levelo_inurba_marseille","lat":43.328243,"lon":5.366771,"is_reserved":false,"is_disabled":false,"rental_uris":{"android":"levelo://app?vid=85cedcff-9e9a-415d-8415-195178ea3cb7","ios":"levelo://app?vid=85cedcff-9e9a-415d-8415-195178ea3cb7"},"vehicle_type_id":"4","last_reported":1705522046,"current_range_meters":19600,"station_id":"ce4bhs92rcd13ifvqi0g","pricing_plan_id":"free"},{"bike_id":"70f179dd-f28c-4384-b145-ec6cf77cd4b8","system_id":"levelo_inurba_marseille","lat":43.32825,"lon":5.36683,"is_reserved":false,"is_disabled":false,"rental_uris":{"android":"levelo://app?vid=70f179dd-f28c-4384-b145-ec6cf77cd4b8","ios":"levelo://app?vid=70f179dd-f28c-4384-b145-ec6cf77cd4b8"},"vehicle_type_id":"4","last_reported":1705522046,"current_range_meters":11200,"station_id":"ce4bhs92rcd13ifvqi0g","pricing_plan_id":"free"},{"bike_id":"6b4ea496-3016-42db-af64-ba8beb6e73fc","system_id":"levelo_inurba_marseille","lat":43.328258,"lon":5.366626,"is_reserved":false,"is_disabled":false,"rental_uris":{"android":"levelo://app?vid=6b4ea496-3016-42db-af64-ba8beb6e73fc","ios":"levelo://app?vid=6b4ea496-3016-42db-af64-ba8beb6e73fc"},"vehicle_type_id":"4","last_reported":1705522046,"current_range_meters":22800,"station_id":"ce4bhs92rcd13ifvqi0g","pricing_plan_id":"free"},{"bike_id":"ea0178f3-2c6b-4af6-b062-91b0b8dde1df","system_id":"levelo_inurba_marseille","lat":43.32826,"lon":5.366756,"is_reserved":false,"is_disabled":false,"rental_uris":{"android":"levelo://app?vid=ea0178f3-2c6b-4af6-b062-91b0b8dde1df","ios":"levelo://app?vid=ea0178f3-2c6b-4af6-b062-91b0b8dde1df"},"vehicle_type_id":"4","last_reported":1705522046,"current_range_meters":5600,"station_id":"ce4bhs92rcd13ifvqi0g","pricing_plan_id":"free"},{"bike_id":"1782ad4d-7cbc-4ac0-af82-b65688e9d34c","system_id":"levelo_inurba_marseille","lat":43.32826,"lon":5.36672,"is_reserved":false,"is_disabled":false,"rental_uris":{"android":"levelo://app?vid=1782ad4d-7cbc-4ac0-af82-b65688e9d34c","ios":"levelo://app?vid=1782ad4d-7cbc-4ac0-af82-b65688e9d34c"},"vehicle_type_id":"4","last_reported":1705522046,"current_range_meters":24400,"station_id":"ce4bhs92rcd13ifvqi0g","pricing_plan_id":"free"},{"bike_id":"bae0e6ef-8eeb-485a-a054-bea3431d2035","system_id":"levelo_inurba_marseille","lat":43.328288,"lon":5.366742,"is_reserved":false,"is_disabled":false,"rental_uris":{"android":"levelo://app?vid=bae0e6ef-8eeb-485a-a054-bea3431d2035","ios":"levelo://app?vid=bae0e6ef-8eeb-485a-a054-bea3431d2035"},"vehicle_type_id":"4","last_reported":1705522046,"current_range_meters":18400,"station_id":"ce4bhs92rcd13ifvqi0g","pricing_plan_id":"free"},{"bike_id":"a53b6dde-9c97-4a96-897c-ee7f9265222d","system_id":"levelo_inurba_marseille","lat":43.328288,"lon":5.366764,"is_reserved":false,"is_disabled":false,"rental_uris":{"android":"levelo://app?vid=a53b6dde-9c97-4a96-897c-ee7f9265222d","ios":"levelo://app?vid=a53b6dde-9c97-4a96-897c-ee7f9265222d"},"vehicle_type_id":"4","last_reported":1705522046,"current_range_meters":21200,"station_id":"ce4bhs92rcd13ifvqi0g","pricing_plan_id":"free"},{"bike_id":"641739e6-19de-47df-9491-35da26c3c9da","system_id":"levelo_inurba_marseille","lat":43.328299,"lon":5.366764,"is_reserved":false,"is_disabled":false,"rental_uris":{"android":"levelo://app?vid=641739e6-19de-47df-9491-35da26c3c9da","ios":"levelo://app?vid=641739e6-19de-47df-9491-35da26c3c9da"},"vehicle_type_id":"4","last_reported":1705522046,"current_range_meters":0,"station_id":"ce4bhs92rcd13ifvqi0g","pricing_plan_id":"free"},{"bike_id":"c6744f53-5428-4454-8fc7-2722f2a1bf4f","system_id":"levelo_inurba_marseille","lat":43.29719,"lon":5.36616,"is_reserved":false,"is_disabled":false,"rental_uris":{"android":"levelo://app?vid=c6744f53-5428-4454-8fc7-2722f2a1bf4f","ios":"levelo://app?vid=c6744f53-5428-4454-8fc7-2722f2a1bf4f"},"vehicle_type_id":"4","last_reported":1705522046,"current_range_meters":15200,"station_id":"ce4bgn12rcd13ifvqbt0","pricing_plan_id":"free"},{"bike_id":"02f97db8-1e1e-4f38-89f3-11868234f7c3","system_id":"levelo_inurba_marseille","lat":43.328314,"lon":5.366737,"is_reserved":false,"is_disabled":false,"rental_uris":{"android":"levelo://app?vid=02f97db8-1e1e-4f38-89f3-11868234f7c3","ios":"levelo://app?vid=02f97db8-1e1e-4f38-89f3-11868234f7c3"},"vehicle_type_id":"4","last_reported":1705522046,"current_range_meters":16800,"station_id":"ce4bhs92rcd13ifvqi0g","pricing_plan_id":"free"},{"bike_id":"88638e12-da12-4596-b7e2-600ab2f62219","system_id":"levelo_inurba_marseille","lat":43.328338,"lon":5.366787,"is_reserved":false,"is_disabled":false,"rental_uris":{"android":"levelo://app?vid=88638e12-da12-4596-b7e2-600ab2f62219","ios":"levelo://app?vid=88638e12-da12-4596-b7e2-600ab2f62219"},"vehicle_type_id":"4","last_reported":1705522046,"current_range_meters":9200,"station_id":"ce4bhs92rcd13ifvqi0g","pricing_plan_id":"free"},{"bike_id":"7a5cfd19-67b5-4404-837f-9d2597d5b4a4","system_id":"levelo_inurba_marseille","lat":43.32834,"lon":5.36685,"is_reserved":false,"is_disabled":false,"rental_uris":{"android":"levelo://app?vid=7a5cfd19-67b5-4404-837f-9d2597d5b4a4","ios":"levelo://app?vid=7a5cfd19-67b5-4404-837f-9d2597d5b4a4"},"vehicle_type_id":"4","last_reported":1705522046,"current_range_meters":13600,"station_id":"ce4bhs92rcd13ifvqi0g","pricing_plan_id":"free"},{"bike_id":"b4462b3d-7726-4d91-8012-ba1bac161ec5","system_id":"levelo_inurba_marseille","lat":43.297127,"lon":5.366037,"is_reserved":false,"is_disabled":false,"rental_uris":{"android":"levelo://app?vid=b4462b3d-7726-4d91-8012-ba1bac161ec5","ios":"levelo://app?vid=b4462b3d-7726-4d91-8012-ba1bac161ec5"},"vehicle_type_id":"4","last_reported":1705522046,"current_range_meters":23600,"station_id":"ce4bgn12rcd13ifvqbt0","pricing_plan_id":"free"},{"bike_id":"2b8c20f5-6691-4f06-b229-b5606672aa18","system_id":"levelo_inurba_marseille","lat":43.297163,"lon":5.365866,"is_reserved":false,"is_disabled":false,"rental_uris":{"android":"levelo://app?vid=2b8c20f5-6691-4f06-b229-b5606672aa18","ios":"levelo://app?vid=2b8c20f5-6691-4f06-b229-b5606672aa18"},"vehicle_type_id":"4","last_reported":1705522046,"current_range_meters":27200,"station_id":"ce4bgn12rcd13ifvqbt0","pricing_plan_id":"free"},{"bike_id":"38082c03-fac1-44d3-a79f-5142b4a113a9","system_id":"levelo_inurba_marseille","lat":43.328373,"lon":5.366902,"is_reserved":false,"is_disabled":false,"rental_uris":{"android":"levelo://app?vid=38082c03-fac1-44d3-a79f-5142b4a113a9","ios":"levelo://app?vid=38082c03-fac1-44d3-a79f-5142b4a113a9"},"vehicle_type_id":"4","last_reported":1705522046,"current_range_meters":22000,"station_id":"ce4bhs92rcd13ifvqi0g","pricing_plan_id":"free"},{"bike_id":"4618eaa8-7e55-4aa5-a8d1-202c0dd743eb","system_id":"levelo_inurba_marseille","lat":43.297163,"lon":5.365866,"is_reserved":false,"is_disabled":false,"rental_uris":{"android":"levelo://app?vid=4618eaa8-7e55-4aa5-a8d1-202c0dd743eb","ios":"levelo://app?vid=4618eaa8-7e55-4aa5-a8d1-202c0dd743eb"},"vehicle_type_id":"4","last_reported":1705522046,"current_range_meters":25200,"station_id":"ce4bgn12rcd13ifvqbt0","pricing_plan_id":"free"},{"bike_id":"8c8841e0-3da9-4ec9-ab3e-86fdfcff75fa","system_id":"levelo_inurba_marseille","lat":43.297093,"lon":5.366103,"is_reserved":false,"is_disabled":false,"rental_uris":{"android":"levelo://app?vid=8c8841e0-3da9-4ec9-ab3e-86fdfcff75fa","ios":"levelo://app?vid=8c8841e0-3da9-4ec9-ab3e-86fdfcff75fa"},"vehicle_type_id":"4","last_reported":1705522046,"current_range_meters":11600,"station_id":"ce4bgn12rcd13ifvqbt0","pricing_plan_id":"free"},{"bike_id":"d244dd42-e655-4246-9535-52092b7e8b8e","system_id":"levelo_inurba_marseille","lat":43.297163,"lon":5.365866,"is_reserved":false,"is_disabled":false,"rental_uris":{"android":"levelo://app?vid=d244dd42-e655-4246-9535-52092b7e8b8e","ios":"levelo://app?vid=d244dd42-e655-4246-9535-52092b7e8b8e"},"vehicle_type_id":"4","last_reported":1705522046,"current_range_meters":16400,"station_id":"ce4bgn12rcd13ifvqbt0","pricing_plan_id":"free"},{"bike_id":"a57fb72f-fba7-4d3c-bb6c-145fe89d9f7a","system_id":"levelo_inurba_marseille","lat":43.297163,"lon":5.365866,"is_reserved":false,"is_disabled":false,"rental_uris":{"android":"levelo://app?vid=a57fb72f-fba7-4d3c-bb6c-145fe89d9f7a","ios":"levelo://app?vid=a57fb72f-fba7-4d3c-bb6c-145fe89d9f7a"},"vehicle_type_id":"4","last_reported":1705522046,"current_range_meters":31600,"station_id":"ce4bgn12rcd13ifvqbt0","pricing_plan_id":"free"},{"bike_id":"d43c57c2-7bf4-4425-bc47-bf63cf92422b","system_id":"levelo_inurba_marseille","lat":43.297064,"lon":5.366044,"is_reserved":false,"is_disabled":false,"rental_uris":{"android":"levelo://app?vid=d43c57c2-7bf4-4425-bc47-bf63cf92422b","ios":"levelo://app?vid=d43c57c2-7bf4-4425-bc47-bf63cf92422b"},"vehicle_type_id":"4","last_reported":1705522046,"current_range_meters":13200,"station_id":"ce4bgn12rcd13ifvqbt0","pricing_plan_id":"free"},{"bike_id":"fca86b06-2160-4bc5-be0f-6c0b71564379","system_id":"levelo_inurba_marseille","lat":43.297048,"lon":5.366131,"is_reserved":false,"is_disabled":false,"rental_uris":{"android":"levelo://app?vid=fca86b06-2160-4bc5-be0f-6c0b71564379","ios":"levelo://app?vid=fca86b06-2160-4bc5-be0f-6c0b71564379"},"vehicle_type_id":"4","last_reported":1705522046,"current_range_meters":25200,"station_id":"ce4bgn12rcd13ifvqbt0","pricing_plan_id":"free"},{"bike_id":"09fac0c2-bb1f-4756-abfc-43c3e5de208d","system_id":"levelo_inurba_marseille","lat":43.2968,"lon":5.37291,"is_reserved":false,"is_disabled":false,"rental_uris":{"android":"levelo://app?vid=09fac0c2-bb1f-4756-abfc-43c3e5de208d","ios":"levelo://app?vid=09fac0c2-bb1f-4756-abfc-43c3e5de208d"},"vehicle_type_id":"4","last_reported":1705522046,"current_range_meters":19200,"station_id":"ce4bgk12rcd13ifvqbj0","pricing_plan_id":"free"},{"bike_id":"2f98e343-ddea-49a8-9ab8-bfeb1064263e","system_id":"levelo_inurba_marseille","lat":43.2968,"lon":5.37291,"is_reserved":false,"is_disabled":false,"rental_uris":{"android":"levelo://app?vid=2f98e343-ddea-49a8-9ab8-bfeb1064263e","ios":"levelo://app?vid=2f98e343-ddea-49a8-9ab8-bfeb1064263e"},"vehicle_type_id":"4","last_reported":1705522046,"current_range_meters":26800,"station_id":"ce4bgk12rcd13ifvqbj0","pricing_plan_id":"free"},{"bike_id":"16c69a55-1fa6-4a65-9316-50fe05eb4730","system_id":"levelo_inurba_marseille","lat":43.296131,"lon":5.370791,"is_reserved":false,"is_disabled":false,"rental_uris":{"android":"levelo://app?vid=16c69a55-1fa6-4a65-9316-50fe05eb4730","ios":"levelo://app?vid=16c69a55-1fa6-4a65-9316-50fe05eb4730"},"vehicle_type_id":"4","last_reported":1705522046,"current_range_meters":10800,"station_id":"ce4bgnh2rcd13ifvqc0g","pricing_plan_id":"free"},{"bike_id":"65adfcf7-a629-484a-9b33-f300917fa970","system_id":"levelo_inurba_marseille","lat":43.296131,"lon":5.370791,"is_reserved":false,"is_disabled":false,"rental_uris":{"android":"levelo://app?vid=65adfcf7-a629-484a-9b33-f300917fa970","ios":"levelo://app?vid=65adfcf7-a629-484a-9b33-f300917fa970"},"vehicle_type_id":"4","last_reported":1705522046,"current_range_meters":31600,"station_id":"ce4bgnh2rcd13ifvqc0g","pricing_plan_id":"free"},{"bike_id":"6695144b-7081-49b4-8eab-0f2fd23bd9da","system_id":"levelo_inurba_marseille","lat":43.296131,"lon":5.370791,"is_reserved":false,"is_disabled":false,"rental_uris":{"android":"levelo://app?vid=6695144b-7081-49b4-8eab-0f2fd23bd9da","ios":"levelo://app?vid=6695144b-7081-49b4-8eab-0f2fd23bd9da"},"vehicle_type_id":"4","last_reported":1705522046,"current_range_meters":16800,"station_id":"ce4bgnh2rcd13ifvqc0g","pricing_plan_id":"free"},{"bike_id":"7614405e-08d0-4fee-883d-0a874a835b92","system_id":"levelo_inurba_marseille","lat":43.29573,"lon":5.367355,"is_reserved":false,"is_disabled":false,"rental_uris":{"android":"levelo://app?vid=7614405e-08d0-4fee-883d-0a874a835b92","ios":"levelo://app?vid=7614405e-08d0-4fee-883d-0a874a835b92"},"vehicle_type_id":"4","last_reported":1705522046,"current_range_meters":3200,"station_id":"ce4bgph2rcd13ifvqc2g","pricing_plan_id":"free"},{"bike_id":"c6c2a42c-cb3e-4d36-a6b9-d2650d13a887","system_id":"levelo_inurba_marseille","lat":43.29573,"lon":5.367355,"is_reserved":false,"is_disabled":false,"rental_uris":{"android":"levelo://app?vid=c6c2a42c-cb3e-4d36-a6b9-d2650d13a887","ios":"levelo://app?vid=c6c2a42c-cb3e-4d36-a6b9-d2650d13a887"},"vehicle_type_id":"4","last_reported":1705522046,"current_range_meters":26800,"station_id":"ce4bgph2rcd13ifvqc2g","pricing_plan_id":"free"},{"bike_id":"d4bbc2a9-3b9d-43f6-a8ba-275be125d127","system_id":"levelo_inurba_marseille","lat":43.299028,"lon":5.381509,"is_reserved":false,"is_disabled":false,"rental_uris":{"android":"levelo://app?vid=d4bbc2a9-3b9d-43f6-a8ba-275be125d127","ios":"levelo://app?vid=d4bbc2a9-3b9d-43f6-a8ba-275be125d127"},"vehicle_type_id":"4","last_reported":1705522046,"current_range_meters":23200,"station_id":"ce4bgj12rcd13ifvqbc0","pricing_plan_id":"free"},{"bike_id":"8f1c5af4-df5d-4668-80e5-7c3f81d1df42","system_id":"levelo_inurba_marseille","lat":43.299028,"lon":5.381509,"is_reserved":false,"is_disabled":false,"rental_uris":{"android":"levelo://app?vid=8f1c5af4-df5d-4668-80e5-7c3f81d1df42","ios":"levelo://app?vid=8f1c5af4-df5d-4668-80e5-7c3f81d1df42"},"vehicle_type_id":"4","last_reported":1705522046,"current_range_meters":24800,"station_id":"ce4bgj12rcd13ifvqbc0","pricing_plan_id":"free"},{"bike_id":"32935f3e-9384-4f94-b00c-2513249f47cf","system_id":"levelo_inurba_marseille","lat":43.296701,"lon":5.375771,"is_reserved":false,"is_disabled":false,"rental_uris":{"android":"levelo://app?vid=32935f3e-9384-4f94-b00c-2513249f47cf","ios":"levelo://app?vid=32935f3e-9384-4f94-b00c-2513249f47cf"},"vehicle_type_id":"4","last_reported":1705522046,"current_range_meters":6400,"station_id":"","pricing_plan_id":"free"},{"bike_id":"3c30fbba-e5e0-4578-8529-e798bf0ea0c7","system_id":"levelo_inurba_marseille","lat":43.299028,"lon":5.381509,"is_reserved":false,"is_disabled":false,"rental_uris":{"android":"levelo://app?vid=3c30fbba-e5e0-4578-8529-e798bf0ea0c7","ios":"levelo://app?vid=3c30fbba-e5e0-4578-8529-e798bf0ea0c7"},"vehicle_type_id":"4","last_reported":1705522046,"current_range_meters":27600,"station_id":"ce4bgj12rcd13ifvqbc0","pricing_plan_id":"free"},{"bike_id":"ae04197c-27cd-44f2-a5dc-680c3f3e39b6","system_id":"levelo_inurba_marseille","lat":43.317557,"lon":5.390173,"is_reserved":false,"is_disabled":false,"rental_uris":{"android":"levelo://app?vid=ae04197c-27cd-44f2-a5dc-680c3f3e39b6","ios":"levelo://app?vid=ae04197c-27cd-44f2-a5dc-680c3f3e39b6"},"vehicle_type_id":"4","last_reported":1705522046,"current_range_meters":7200,"station_id":"ce4bhqp2rcd13ifvqhng","pricing_plan_id":"free"},{"bike_id":"b69b20a7-b4ab-42bc-9037-514380599765","system_id":"levelo_inurba_marseille","lat":43.317557,"lon":5.390173,"is_reserved":false,"is_disabled":false,"rental_uris":{"android":"levelo://app?vid=b69b20a7-b4ab-42bc-9037-514380599765","ios":"levelo://app?vid=b69b20a7-b4ab-42bc-9037-514380599765"},"vehicle_type_id":"4","last_reported":1705522046,"current_range_meters":4400,"station_id":"ce4bhqp2rcd13ifvqhng","pricing_plan_id":"free"},{"bike_id":"3fc1c41e-5148-4539-8611-6ae4c5633027","system_id":"levelo_inurba_marseille","lat":43.317557,"lon":5.390173,"is_reserved":false,"is_disabled":false,"rental_uris":{"android":"levelo://app?vid=3fc1c41e-5148-4539-8611-6ae4c5633027","ios":"levelo://app?vid=3fc1c41e-5148-4539-8611-6ae4c5633027"},"vehicle_type_id":"4","last_reported":1705522046,"current_range_meters":18800,"station_id":"ce4bhqp2rcd13ifvqhng","pricing_plan_id":"free"},{"bike_id":"adf57486-38ef-4e27-8d2d-b09313ee4b06","system_id":"levelo_inurba_marseille","lat":43.317557,"lon":5.390173,"is_reserved":false,"is_disabled":false,"rental_uris":{"android":"levelo://app?vid=adf57486-38ef-4e27-8d2d-b09313ee4b06","ios":"levelo://app?vid=adf57486-38ef-4e27-8d2d-b09313ee4b06"},"vehicle_type_id":"4","last_reported":1705522046,"current_range_meters":17600,"station_id":"ce4bhqp2rcd13ifvqhng","pricing_plan_id":"free"},{"bike_id":"bfc7212f-cbbc-4835-a892-a680b0e2a918","system_id":"levelo_inurba_marseille","lat":43.304274,"lon":5.388873,"is_reserved":false,"is_disabled":false,"rental_uris":{"android":"levelo://app?vid=bfc7212f-cbbc-4835-a892-a680b0e2a918","ios":"levelo://app?vid=bfc7212f-cbbc-4835-a892-a680b0e2a918"},"vehicle_type_id":"4","last_reported":1705522046,"current_range_meters":12800,"station_id":"ce4bgk12rcd13ifvqbi0","pricing_plan_id":"free"},{"bike_id":"1676df18-f514-40e7-b093-4f43e7d05307","system_id":"levelo_inurba_marseille","lat":43.304274,"lon":5.388873,"is_reserved":false,"is_disabled":false,"rental_uris":{"android":"levelo://app?vid=1676df18-f514-40e7-b093-4f43e7d05307","ios":"levelo://app?vid=1676df18-f514-40e7-b093-4f43e7d05307"},"vehicle_type_id":"4","last_reported":1705522046,"current_range_meters":31200,"station_id":"ce4bgk12rcd13ifvqbi0","pricing_plan_id":"free"},{"bike_id":"3af6fa72-00f9-4d0e-bd14-d37a4f9d8955","system_id":"levelo_inurba_marseille","lat":43.296263,"lon":5.377094,"is_reserved":false,"is_disabled":false,"rental_uris":{"android":"levelo://app?vid=3af6fa72-00f9-4d0e-bd14-d37a4f9d8955","ios":"levelo://app?vid=3af6fa72-00f9-4d0e-bd14-d37a4f9d8955"},"vehicle_type_id":"4","last_reported":1705522046,"current_range_meters":17200,"station_id":"ce4bgi92rcd13ifvqb90","pricing_plan_id":"free"},{"bike_id":"bf0f37c9-34e4-4880-b61b-32e123f04b88","system_id":"levelo_inurba_marseille","lat":43.299813,"lon":5.384828,"is_reserved":false,"is_disabled":false,"rental_uris":{"android":"levelo://app?vid=bf0f37c9-34e4-4880-b61b-32e123f04b88","ios":"levelo://app?vid=bf0f37c9-34e4-4880-b61b-32e123f04b88"},"vehicle_type_id":"4","last_reported":1705522046,"current_range_meters":26800,"station_id":"ce4bgj92rcd13ifvqbd0","pricing_plan_id":"free"},{"bike_id":"f65eac4e-0e58-4737-8917-e016bf9d4784","system_id":"levelo_inurba_marseille","lat":43.295279,"lon":5.375048,"is_reserved":false,"is_disabled":false,"rental_uris":{"android":"levelo://app?vid=f65eac4e-0e58-4737-8917-e016bf9d4784","ios":"levelo://app?vid=f65eac4e-0e58-4737-8917-e016bf9d4784"},"vehicle_type_id":"4","last_reported":1705522046,"current_range_meters":0,"station_id":"ce4bgkp2rcd13ifvqbmg","pricing_plan_id":"free"},{"bike_id":"b1a0b628-51fc-4997-be45-b087c4b9de75","system_id":"levelo_inurba_marseille","lat":43.29974,"lon":5.38498,"is_reserved":false,"is_disabled":false,"rental_uris":{"android":"levelo://app?vid=b1a0b628-51fc-4997-be45-b087c4b9de75","ios":"levelo://app?vid=b1a0b628-51fc-4997-be45-b087c4b9de75"},"vehicle_type_id":"4","last_reported":1705522046,"current_range_meters":0,"station_id":"ce4bgj92rcd13ifvqbd0","pricing_plan_id":"free"},{"bike_id":"dfaa302c-58f2-441b-8b66-a88d65e9e952","system_id":"levelo_inurba_marseille","lat":43.32367,"lon":5.388836,"is_reserved":false,"is_disabled":false,"rental_uris":{"android":"levelo://app?vid=dfaa302c-58f2-441b-8b66-a88d65e9e952","ios":"levelo://app?vid=dfaa302c-58f2-441b-8b66-a88d65e9e952"},"vehicle_type_id":"4","last_reported":1705522046,"current_range_meters":28800,"station_id":"ce4bhqp2rcd13ifvqhog","pricing_plan_id":"free"},{"bike_id":"4e1e9b11-3c6c-41ca-93a2-a6773594a990","system_id":"levelo_inurba_marseille","lat":43.32367,"lon":5.388836,"is_reserved":false,"is_disabled":false,"rental_uris":{"android":"levelo://app?vid=4e1e9b11-3c6c-41ca-93a2-a6773594a990","ios":"levelo://app?vid=4e1e9b11-3c6c-41ca-93a2-a6773594a990"},"vehicle_type_id":"4","last_reported":1705522046,"current_range_meters":28400,"station_id":"ce4bhqp2rcd13ifvqhog","pricing_plan_id":"free"},{"bike_id":"ebf063ec-fe68-439b-bf38-249e36edea5c","system_id":"levelo_inurba_marseille","lat":43.32367,"lon":5.388836,"is_reserved":false,"is_disabled":false,"rental_uris":{"android":"levelo://app?vid=ebf063ec-fe68-439b-bf38-249e36edea5c","ios":"levelo://app?vid=ebf063ec-fe68-439b-bf38-249e36edea5c"},"vehicle_type_id":"4","last_reported":1705522046,"current_range_meters":16800,"station_id":"ce4bhqp2rcd13ifvqhog","pricing_plan_id":"free"},{"bike_id":"ae329723-b6cd-4f52-99af-83cccf370dd2","system_id":"levelo_inurba_marseille","lat":43.32367,"lon":5.388836,"is_reserved":false,"is_disabled":false,"rental_uris":{"android":"levelo://app?vid=ae329723-b6cd-4f52-99af-83cccf370dd2","ios":"levelo://app?vid=ae329723-b6cd-4f52-99af-83cccf370dd2"},"vehicle_type_id":"4","last_reported":1705522046,"current_range_meters":10000,"station_id":"ce4bhqp2rcd13ifvqhog","pricing_plan_id":"free"},{"bike_id":"8c683a70-e779-4a8e-bf9c-8aaaf46b6f30","system_id":"levelo_inurba_marseille","lat":43.32367,"lon":5.388836,"is_reserved":false,"is_disabled":false,"rental_uris":{"android":"levelo://app?vid=8c683a70-e779-4a8e-bf9c-8aaaf46b6f30","ios":"levelo://app?vid=8c683a70-e779-4a8e-bf9c-8aaaf46b6f30"},"vehicle_type_id":"4","last_reported":1705522046,"current_range_meters":20000,"station_id":"ce4bhqp2rcd13ifvqhog","pricing_plan_id":"free"},{"bike_id":"37488e4d-837d-443b-a7f0-f22909aa2c7f","system_id":"levelo_inurba_marseille","lat":43.32367,"lon":5.388836,"is_reserved":false,"is_disabled":false,"rental_uris":{"android":"levelo://app?vid=37488e4d-837d-443b-a7f0-f22909aa2c7f","ios":"levelo://app?vid=37488e4d-837d-443b-a7f0-f22909aa2c7f"},"vehicle_type_id":"4","last_reported":1705522046,"current_range_meters":24000,"station_id":"ce4bhqp2rcd13ifvqhog","pricing_plan_id":"free"},{"bike_id":"48d01839-1c06-4604-a1d2-ae1f8bd3df35","system_id":"levelo_inurba_marseille","lat":43.32367,"lon":5.388836,"is_reserved":false,"is_disabled":false,"rental_uris":{"android":"levelo://app?vid=48d01839-1c06-4604-a1d2-ae1f8bd3df35","ios":"levelo://app?vid=48d01839-1c06-4604-a1d2-ae1f8bd3df35"},"vehicle_type_id":"4","last_reported":1705522046,"current_range_meters":14400,"station_id":"ce4bhqp2rcd13ifvqhog","pricing_plan_id":"free"},{"bike_id":"ab1d9b80-665e-4ca5-9110-b3e7655cdda0","system_id":"levelo_inurba_marseille","lat":43.32367,"lon":5.388836,"is_reserved":false,"is_disabled":false,"rental_uris":{"android":"levelo://app?vid=ab1d9b80-665e-4ca5-9110-b3e7655cdda0","ios":"levelo://app?vid=ab1d9b80-665e-4ca5-9110-b3e7655cdda0"},"vehicle_type_id":"4","last_reported":1705522046,"current_range_meters":16000,"station_id":"ce4bhqp2rcd13ifvqhog","pricing_plan_id":"free"},{"bike_id":"f7aa7bd5-9de4-4647-9d4c-974d2b3c6d5a","system_id":"levelo_inurba_marseille","lat":43.32367,"lon":5.388836,"is_reserved":false,"is_disabled":false,"rental_uris":{"android":"levelo://app?vid=f7aa7bd5-9de4-4647-9d4c-974d2b3c6d5a","ios":"levelo://app?vid=f7aa7bd5-9de4-4647-9d4c-974d2b3c6d5a"},"vehicle_type_id":"4","last_reported":1705522046,"current_range_meters":24800,"station_id":"ce4bhqp2rcd13ifvqhog","pricing_plan_id":"free"},{"bike_id":"5887ba77-b141-46e7-80f3-1e60b33b738c","system_id":"levelo_inurba_marseille","lat":43.32367,"lon":5.388836,"is_reserved":false,"is_disabled":false,"rental_uris":{"android":"levelo://app?vid=5887ba77-b141-46e7-80f3-1e60b33b738c","ios":"levelo://app?vid=5887ba77-b141-46e7-80f3-1e60b33b738c"},"vehicle_type_id":"4","last_reported":1705522046,"current_range_meters":20000,"station_id":"ce4bhqp2rcd13ifvqhog","pricing_plan_id":"free"},{"bike_id":"4ed8488a-f05c-4119-bfec-f892cce04e14","system_id":"levelo_inurba_marseille","lat":43.32367,"lon":5.388836,"is_reserved":false,"is_disabled":false,"rental_uris":{"android":"levelo://app?vid=4ed8488a-f05c-4119-bfec-f892cce04e14","ios":"levelo://app?vid=4ed8488a-f05c-4119-bfec-f892cce04e14"},"vehicle_type_id":"4","last_reported":1705522046,"current_range_meters":30000,"station_id":"ce4bhqp2rcd13ifvqhog","pricing_plan_id":"free"},{"bike_id":"4105c154-7a2e-4cd6-9ea7-4d06f6570656","system_id":"levelo_inurba_marseille","lat":43.32367,"lon":5.388836,"is_reserved":false,"is_disabled":false,"rental_uris":{"android":"levelo://app?vid=4105c154-7a2e-4cd6-9ea7-4d06f6570656","ios":"levelo://app?vid=4105c154-7a2e-4cd6-9ea7-4d06f6570656"},"vehicle_type_id":"4","last_reported":1705522046,"current_range_meters":24400,"station_id":"ce4bhqp2rcd13ifvqhog","pricing_plan_id":"free"},{"bike_id":"2ec4001f-5cf2-4614-bbfc-ffc6c5b765c3","system_id":"levelo_inurba_marseille","lat":43.32367,"lon":5.388836,"is_reserved":false,"is_disabled":false,"rental_uris":{"android":"levelo://app?vid=2ec4001f-5cf2-4614-bbfc-ffc6c5b765c3","ios":"levelo://app?vid=2ec4001f-5cf2-4614-bbfc-ffc6c5b765c3"},"vehicle_type_id":"4","last_reported":1705522046,"current_range_meters":23600,"station_id":"ce4bhqp2rcd13ifvqhog","pricing_plan_id":"free"},{"bike_id":"b7beb6a5-b030-4fe2-a25b-ee6b5b88bebb","system_id":"levelo_inurba_marseille","lat":43.32367,"lon":5.388836,"is_reserved":false,"is_disabled":false,"rental_uris":{"android":"levelo://app?vid=b7beb6a5-b030-4fe2-a25b-ee6b5b88bebb","ios":"levelo://app?vid=b7beb6a5-b030-4fe2-a25b-ee6b5b88bebb"},"vehicle_type_id":"4","last_reported":1705522046,"current_range_meters":30400,"station_id":"ce4bhqp2rcd13ifvqhog","pricing_plan_id":"free"},{"bike_id":"8f0e1443-d09a-4acb-ad91-fab1bc1db377","system_id":"levelo_inurba_marseille","lat":43.29601,"lon":5.381084,"is_reserved":false,"is_disabled":false,"rental_uris":{"android":"levelo://app?vid=8f0e1443-d09a-4acb-ad91-fab1bc1db377","ios":"levelo://app?vid=8f0e1443-d09a-4acb-ad91-fab1bc1db377"},"vehicle_type_id":"4","last_reported":1705522046,"current_range_meters":30400,"station_id":"ce4bgl12rcd13ifvqbo0","pricing_plan_id":"free"},{"bike_id":"a4d343a3-486f-48d9-aa66-24c4b9d7359c","system_id":"levelo_inurba_marseille","lat":43.295292,"lon":5.378978,"is_reserved":false,"is_disabled":false,"rental_uris":{"android":"levelo://app?vid=a4d343a3-486f-48d9-aa66-24c4b9d7359c","ios":"levelo://app?vid=a4d343a3-486f-48d9-aa66-24c4b9d7359c"},"vehicle_type_id":"4","last_reported":1705522046,"current_range_meters":9600,"station_id":"","pricing_plan_id":"free"},{"bike_id":"f21940c4-e7e6-4305-8cc4-ef09ea8d77cf","system_id":"levelo_inurba_marseille","lat":43.29601,"lon":5.381084,"is_reserved":false,"is_disabled":false,"rental_uris":{"android":"levelo://app?vid=f21940c4-e7e6-4305-8cc4-ef09ea8d77cf","ios":"levelo://app?vid=f21940c4-e7e6-4305-8cc4-ef09ea8d77cf"},"vehicle_type_id":"4","last_reported":1705522046,"current_range_meters":25600,"station_id":"ce4bgl12rcd13ifvqbo0","pricing_plan_id":"free"},{"bike_id":"b93d30f9-b026-495d-9922-1cc03f46100c","system_id":"levelo_inurba_marseille","lat":43.289184,"lon":5.366408,"is_reserved":false,"is_disabled":false,"rental_uris":{"android":"levelo://app?vid=b93d30f9-b026-495d-9922-1cc03f46100c","ios":"levelo://app?vid=b93d30f9-b026-495d-9922-1cc03f46100c"},"vehicle_type_id":"4","last_reported":1705522046,"current_range_meters":23200,"station_id":"ce4bhap2rcd13ifvqek0","pricing_plan_id":"free"},{"bike_id":"6dfd637d-f62b-464d-86fe-66e77bf654f1","system_id":"levelo_inurba_marseille","lat":43.305994,"lon":5.393687,"is_reserved":false,"is_disabled":false,"rental_uris":{"android":"levelo://app?vid=6dfd637d-f62b-464d-86fe-66e77bf654f1","ios":"levelo://app?vid=6dfd637d-f62b-464d-86fe-66e77bf654f1"},"vehicle_type_id":"4","last_reported":1705522046,"current_range_meters":18400,"station_id":"ce4bh0p2rcd13ifvqd80","pricing_plan_id":"free"},{"bike_id":"f54f1698-4b14-4ca4-b6e8-49a3236e5450","system_id":"levelo_inurba_marseille","lat":43.293009,"lon":5.374584,"is_reserved":false,"is_disabled":false,"rental_uris":{"android":"levelo://app?vid=f54f1698-4b14-4ca4-b6e8-49a3236e5450","ios":"levelo://app?vid=f54f1698-4b14-4ca4-b6e8-49a3236e5450"},"vehicle_type_id":"4","last_reported":1705522046,"current_range_meters":13600,"station_id":"ce4bgi12rcd13ifvqb70","pricing_plan_id":"free"},{"bike_id":"f2047c29-8af7-410d-a635-a0b885a7299a","system_id":"levelo_inurba_marseille","lat":43.2936,"lon":5.37835,"is_reserved":false,"is_disabled":false,"rental_uris":{"android":"levelo://app?vid=f2047c29-8af7-410d-a635-a0b885a7299a","ios":"levelo://app?vid=f2047c29-8af7-410d-a635-a0b885a7299a"},"vehicle_type_id":"4","last_reported":1705522046,"current_range_meters":22000,"station_id":"ce4bgjh2rcd13ifvqbf0","pricing_plan_id":"free"},{"bike_id":"f766acb5-5f5f-4f37-8940-8597ba83baf5","system_id":"levelo_inurba_marseille","lat":43.2936,"lon":5.37835,"is_reserved":false,"is_disabled":false,"rental_uris":{"android":"levelo://app?vid=f766acb5-5f5f-4f37-8940-8597ba83baf5","ios":"levelo://app?vid=f766acb5-5f5f-4f37-8940-8597ba83baf5"},"vehicle_type_id":"4","last_reported":1705522046,"current_range_meters":8000,"station_id":"ce4bgjh2rcd13ifvqbf0","pricing_plan_id":"free"},{"bike_id":"cec1818c-62f2-4343-84f2-3af6453291ed","system_id":"levelo_inurba_marseille","lat":43.29859,"lon":5.387967,"is_reserved":false,"is_disabled":false,"rental_uris":{"android":"levelo://app?vid=cec1818c-62f2-4343-84f2-3af6453291ed","ios":"levelo://app?vid=cec1818c-62f2-4343-84f2-3af6453291ed"},"vehicle_type_id":"4","last_reported":1705522046,"current_range_meters":20400,"station_id":"","pricing_plan_id":"free"},{"bike_id":"3860927a-807a-4d42-9891-c18a689f52bf","system_id":"levelo_inurba_marseille","lat":43.300852,"lon":5.390859,"is_reserved":false,"is_disabled":false,"rental_uris":{"android":"levelo://app?vid=3860927a-807a-4d42-9891-c18a689f52bf","ios":"levelo://app?vid=3860927a-807a-4d42-9891-c18a689f52bf"},"vehicle_type_id":"4","last_reported":1705522046,"current_range_meters":24000,"station_id":"ce4bh192rcd13ifvqdb0","pricing_plan_id":"free"},{"bike_id":"6abefd92-b233-417f-895a-1087c05877a3","system_id":"levelo_inurba_marseille","lat":43.291675,"lon":5.371583,"is_reserved":false,"is_disabled":false,"rental_uris":{"android":"levelo://app?vid=6abefd92-b233-417f-895a-1087c05877a3","ios":"levelo://app?vid=6abefd92-b233-417f-895a-1087c05877a3"},"vehicle_type_id":"4","last_reported":1705522046,"current_range_meters":18800,"station_id":"ce4bha92rcd13ifvqeh0","pricing_plan_id":"free"},{"bike_id":"ef0a4b5e-600f-4cda-bdb0-6a7e175387cc","system_id":"levelo_inurba_marseille","lat":43.291675,"lon":5.371583,"is_reserved":false,"is_disabled":false,"rental_uris":{"android":"levelo://app?vid=ef0a4b5e-600f-4cda-bdb0-6a7e175387cc","ios":"levelo://app?vid=ef0a4b5e-600f-4cda-bdb0-6a7e175387cc"},"vehicle_type_id":"4","last_reported":1705522046,"current_range_meters":9600,"station_id":"ce4bha92rcd13ifvqeh0","pricing_plan_id":"free"},{"bike_id":"6b74a105-9a42-4bf5-bf81-76e933f8039c","system_id":"levelo_inurba_marseille","lat":43.29882,"lon":5.38905,"is_reserved":false,"is_disabled":false,"rental_uris":{"android":"levelo://app?vid=6b74a105-9a42-4bf5-bf81-76e933f8039c","ios":"levelo://app?vid=6b74a105-9a42-4bf5-bf81-76e933f8039c"},"vehicle_type_id":"4","last_reported":1705522046,"current_range_meters":4800,"station_id":"","pricing_plan_id":"free"},{"bike_id":"dccbc61d-c98d-4cd3-baaf-52c8e6bd4f01","system_id":"levelo_inurba_marseille","lat":43.291994,"lon":5.357886,"is_reserved":false,"is_disabled":false,"rental_uris":{"android":"levelo://app?vid=dccbc61d-c98d-4cd3-baaf-52c8e6bd4f01","ios":"levelo://app?vid=dccbc61d-c98d-4cd3-baaf-52c8e6bd4f01"},"vehicle_type_id":"4","last_reported":1705522046,"current_range_meters":24400,"station_id":"ce4bhb12rcd13ifvqel0","pricing_plan_id":"free"},{"bike_id":"e9fea4c6-8b45-415b-9839-49f82288bde2","system_id":"levelo_inurba_marseille","lat":43.291994,"lon":5.357886,"is_reserved":false,"is_disabled":false,"rental_uris":{"android":"levelo://app?vid=e9fea4c6-8b45-415b-9839-49f82288bde2","ios":"levelo://app?vid=e9fea4c6-8b45-415b-9839-49f82288bde2"},"vehicle_type_id":"4","last_reported":1705522046,"current_range_meters":5600,"station_id":"ce4bhb12rcd13ifvqel0","pricing_plan_id":"free"},{"bike_id":"fd407a01-1013-4995-bf8d-97fb7a38d515","system_id":"levelo_inurba_marseille","lat":43.30886,"lon":5.39634,"is_reserved":false,"is_disabled":false,"rental_uris":{"android":"levelo://app?vid=fd407a01-1013-4995-bf8d-97fb7a38d515","ios":"levelo://app?vid=fd407a01-1013-4995-bf8d-97fb7a38d515"},"vehicle_type_id":"4","last_reported":1705522046,"current_range_meters":29200,"station_id":"ce4bh012rcd13ifvqcv0","pricing_plan_id":"free"},{"bike_id":"f8f27f20-8890-4d31-829a-826c8973d39f","system_id":"levelo_inurba_marseille","lat":43.291994,"lon":5.357886,"is_reserved":false,"is_disabled":false,"rental_uris":{"android":"levelo://app?vid=f8f27f20-8890-4d31-829a-826c8973d39f","ios":"levelo://app?vid=f8f27f20-8890-4d31-829a-826c8973d39f"},"vehicle_type_id":"4","last_reported":1705522046,"current_range_meters":10400,"station_id":"ce4bhb12rcd13ifvqel0","pricing_plan_id":"free"},{"bike_id":"0eacb962-916f-410b-94cd-25e6f7ef6523","system_id":"levelo_inurba_marseille","lat":43.309038,"lon":5.396546,"is_reserved":false,"is_disabled":false,"rental_uris":{"android":"levelo://app?vid=0eacb962-916f-410b-94cd-25e6f7ef6523","ios":"levelo://app?vid=0eacb962-916f-410b-94cd-25e6f7ef6523"},"vehicle_type_id":"4","last_reported":1705522046,"current_range_meters":31200,"station_id":"ce4bh012rcd13ifvqcv0","pricing_plan_id":"free"},{"bike_id":"972daad8-f292-4396-b8c2-7eb4ffa2e49e","system_id":"levelo_inurba_marseille","lat":43.309047,"lon":5.396551,"is_reserved":false,"is_disabled":false,"rental_uris":{"android":"levelo://app?vid=972daad8-f292-4396-b8c2-7eb4ffa2e49e","ios":"levelo://app?vid=972daad8-f292-4396-b8c2-7eb4ffa2e49e"},"vehicle_type_id":"4","last_reported":1705522046,"current_range_meters":24000,"station_id":"ce4bh012rcd13ifvqcv0","pricing_plan_id":"free"},{"bike_id":"7bc6dd94-c523-43fa-800b-fadb1a5b0ad0","system_id":"levelo_inurba_marseille","lat":43.291994,"lon":5.357886,"is_reserved":false,"is_disabled":false,"rental_uris":{"android":"levelo://app?vid=7bc6dd94-c523-43fa-800b-fadb1a5b0ad0","ios":"levelo://app?vid=7bc6dd94-c523-43fa-800b-fadb1a5b0ad0"},"vehicle_type_id":"4","last_reported":1705522046,"current_range_meters":19200,"station_id":"ce4bhb12rcd13ifvqel0","pricing_plan_id":"free"},{"bike_id":"8937de69-dc86-4c87-a75b-e6b4169157f1","system_id":"levelo_inurba_marseille","lat":43.313291,"lon":5.396838,"is_reserved":false,"is_disabled":false,"rental_uris":{"android":"levelo://app?vid=8937de69-dc86-4c87-a75b-e6b4169157f1","ios":"levelo://app?vid=8937de69-dc86-4c87-a75b-e6b4169157f1"},"vehicle_type_id":"4","last_reported":1705522046,"current_range_meters":24400,"station_id":"ce4bgvp2rcd13ifvqcu0","pricing_plan_id":"free"},{"bike_id":"5045406e-995a-4c59-8208-43bc63deaa15","system_id":"levelo_inurba_marseille","lat":43.291994,"lon":5.357886,"is_reserved":false,"is_disabled":false,"rental_uris":{"android":"levelo://app?vid=5045406e-995a-4c59-8208-43bc63deaa15","ios":"levelo://app?vid=5045406e-995a-4c59-8208-43bc63deaa15"},"vehicle_type_id":"4","last_reported":1705522046,"current_range_meters":4800,"station_id":"ce4bhb12rcd13ifvqel0","pricing_plan_id":"free"},{"bike_id":"824c12d2-5308-47ba-bec9-796f31427d25","system_id":"levelo_inurba_marseille","lat":43.313291,"lon":5.396838,"is_reserved":false,"is_disabled":false,"rental_uris":{"android":"levelo://app?vid=824c12d2-5308-47ba-bec9-796f31427d25","ios":"levelo://app?vid=824c12d2-5308-47ba-bec9-796f31427d25"},"vehicle_type_id":"4","last_reported":1705522046,"current_range_meters":16400,"station_id":"ce4bgvp2rcd13ifvqcu0","pricing_plan_id":"free"},{"bike_id":"85ac0da5-9138-415d-90ae-1ec76f0f5dbd","system_id":"levelo_inurba_marseille","lat":43.313291,"lon":5.396838,"is_reserved":false,"is_disabled":false,"rental_uris":{"android":"levelo://app?vid=85ac0da5-9138-415d-90ae-1ec76f0f5dbd","ios":"levelo://app?vid=85ac0da5-9138-415d-90ae-1ec76f0f5dbd"},"vehicle_type_id":"4","last_reported":1705522046,"current_range_meters":30800,"station_id":"ce4bgvp2rcd13ifvqcu0","pricing_plan_id":"free"},{"bike_id":"3c2b412c-7031-4f01-96fe-6731e1ab597e","system_id":"levelo_inurba_marseille","lat":43.309047,"lon":5.396551,"is_reserved":false,"is_disabled":false,"rental_uris":{"android":"levelo://app?vid=3c2b412c-7031-4f01-96fe-6731e1ab597e","ios":"levelo://app?vid=3c2b412c-7031-4f01-96fe-6731e1ab597e"},"vehicle_type_id":"4","last_reported":1705522046,"current_range_meters":28400,"station_id":"ce4bh012rcd13ifvqcv0","pricing_plan_id":"free"},{"bike_id":"0338deec-f261-43b3-8767-f8295841db88","system_id":"levelo_inurba_marseille","lat":43.29529,"lon":5.385581,"is_reserved":false,"is_disabled":false,"rental_uris":{"android":"levelo://app?vid=0338deec-f261-43b3-8767-f8295841db88","ios":"levelo://app?vid=0338deec-f261-43b3-8767-f8295841db88"},"vehicle_type_id":"4","last_reported":1705522046,"current_range_meters":11200,"station_id":"ce4bgih2rcd13ifvqba0","pricing_plan_id":"free"},{"bike_id":"60199a43-06e3-4865-9e45-f638c2608bab","system_id":"levelo_inurba_marseille","lat":43.291994,"lon":5.357886,"is_reserved":false,"is_disabled":false,"rental_uris":{"android":"levelo://app?vid=60199a43-06e3-4865-9e45-f638c2608bab","ios":"levelo://app?vid=60199a43-06e3-4865-9e45-f638c2608bab"},"vehicle_type_id":"4","last_reported":1705522046,"current_range_meters":13600,"station_id":"ce4bhb12rcd13ifvqel0","pricing_plan_id":"free"},{"bike_id":"5d724e7b-cde7-4b79-85c7-39fd817599c0","system_id":"levelo_inurba_marseille","lat":43.309038,"lon":5.396546,"is_reserved":false,"is_disabled":false,"rental_uris":{"android":"levelo://app?vid=5d724e7b-cde7-4b79-85c7-39fd817599c0","ios":"levelo://app?vid=5d724e7b-cde7-4b79-85c7-39fd817599c0"},"vehicle_type_id":"4","last_reported":1705522046,"current_range_meters":22400,"station_id":"ce4bh012rcd13ifvqcv0","pricing_plan_id":"free"},{"bike_id":"031f42bc-82ab-47fa-921e-d34a45a10a2f","system_id":"levelo_inurba_marseille","lat":43.29529,"lon":5.385581,"is_reserved":false,"is_disabled":false,"rental_uris":{"android":"levelo://app?vid=031f42bc-82ab-47fa-921e-d34a45a10a2f","ios":"levelo://app?vid=031f42bc-82ab-47fa-921e-d34a45a10a2f"},"vehicle_type_id":"4","last_reported":1705522046,"current_range_meters":30000,"station_id":"ce4bgih2rcd13ifvqba0","pricing_plan_id":"free"},{"bike_id":"c0ce3b3e-bc17-4f6b-84ca-5aba2f6292a1","system_id":"levelo_inurba_marseille","lat":43.29529,"lon":5.385581,"is_reserved":false,"is_disabled":false,"rental_uris":{"android":"levelo://app?vid=c0ce3b3e-bc17-4f6b-84ca-5aba2f6292a1","ios":"levelo://app?vid=c0ce3b3e-bc17-4f6b-84ca-5aba2f6292a1"},"vehicle_type_id":"4","last_reported":1705522046,"current_range_meters":25200,"station_id":"ce4bgih2rcd13ifvqba0","pricing_plan_id":"free"},{"bike_id":"d978da52-b758-4cc7-bf03-2ef95e5abd1d","system_id":"levelo_inurba_marseille","lat":43.290779,"lon":5.371482,"is_reserved":false,"is_disabled":false,"rental_uris":{"android":"levelo://app?vid=d978da52-b758-4cc7-bf03-2ef95e5abd1d","ios":"levelo://app?vid=d978da52-b758-4cc7-bf03-2ef95e5abd1d"},"vehicle_type_id":"4","last_reported":1705522046,"current_range_meters":15600,"station_id":"ce4bh5p2rcd13ifvqe4g","pricing_plan_id":"free"},{"bike_id":"edfa2086-7700-4466-8dbe-a85343915cd4","system_id":"levelo_inurba_marseille","lat":43.290779,"lon":5.371482,"is_reserved":false,"is_disabled":false,"rental_uris":{"android":"levelo://app?vid=edfa2086-7700-4466-8dbe-a85343915cd4","ios":"levelo://app?vid=edfa2086-7700-4466-8dbe-a85343915cd4"},"vehicle_type_id":"4","last_reported":1705522046,"current_range_meters":22800,"station_id":"ce4bh5p2rcd13ifvqe4g","pricing_plan_id":"free"},{"bike_id":"d5873de1-f2ad-4a77-bc02-7f36765fc0ba","system_id":"levelo_inurba_marseille","lat":43.302145,"lon":5.39466,"is_reserved":false,"is_disabled":false,"rental_uris":{"android":"levelo://app?vid=d5873de1-f2ad-4a77-bc02-7f36765fc0ba","ios":"levelo://app?vid=d5873de1-f2ad-4a77-bc02-7f36765fc0ba"},"vehicle_type_id":"4","last_reported":1705522046,"current_range_meters":23600,"station_id":"ce4bh0p2rcd13ifvqd70","pricing_plan_id":"free"},{"bike_id":"d213819d-8669-4388-859c-9af16b22029c","system_id":"levelo_inurba_marseille","lat":43.302008,"lon":5.394694,"is_reserved":false,"is_disabled":false,"rental_uris":{"android":"levelo://app?vid=d213819d-8669-4388-859c-9af16b22029c","ios":"levelo://app?vid=d213819d-8669-4388-859c-9af16b22029c"},"vehicle_type_id":"4","last_reported":1705522046,"current_range_meters":30400,"station_id":"ce4bh0p2rcd13ifvqd70","pricing_plan_id":"free"},{"bike_id":"0b456f8d-ff24-4c43-aa98-bea7bccbe72e","system_id":"levelo_inurba_marseille","lat":43.290779,"lon":5.371482,"is_reserved":false,"is_disabled":false,"rental_uris":{"android":"levelo://app?vid=0b456f8d-ff24-4c43-aa98-bea7bccbe72e","ios":"levelo://app?vid=0b456f8d-ff24-4c43-aa98-bea7bccbe72e"},"vehicle_type_id":"4","last_reported":1705522046,"current_range_meters":12800,"station_id":"ce4bh5p2rcd13ifvqe4g","pricing_plan_id":"free"},{"bike_id":"4f7f848b-68b1-478f-b20a-4844b48efb35","system_id":"levelo_inurba_marseille","lat":43.290631,"lon":5.359244,"is_reserved":false,"is_disabled":false,"rental_uris":{"android":"levelo://app?vid=4f7f848b-68b1-478f-b20a-4844b48efb35","ios":"levelo://app?vid=4f7f848b-68b1-478f-b20a-4844b48efb35"},"vehicle_type_id":"4","last_reported":1705522046,"current_range_meters":30000,"station_id":"ce4bha92rcd13ifvqeg0","pricing_plan_id":"free"},{"bike_id":"2b599fcd-d305-4794-bc6c-6f9f95e28638","system_id":"levelo_inurba_marseille","lat":43.290624,"lon":5.359245,"is_reserved":false,"is_disabled":false,"rental_uris":{"android":"levelo://app?vid=2b599fcd-d305-4794-bc6c-6f9f95e28638","ios":"levelo://app?vid=2b599fcd-d305-4794-bc6c-6f9f95e28638"},"vehicle_type_id":"4","last_reported":1705522046,"current_range_meters":30000,"station_id":"ce4bha92rcd13ifvqeg0","pricing_plan_id":"free"},{"bike_id":"11827248-e719-41d8-b1ec-609e61fedd58","system_id":"levelo_inurba_marseille","lat":43.290624,"lon":5.359245,"is_reserved":false,"is_disabled":false,"rental_uris":{"android":"levelo://app?vid=11827248-e719-41d8-b1ec-609e61fedd58","ios":"levelo://app?vid=11827248-e719-41d8-b1ec-609e61fedd58"},"vehicle_type_id":"4","last_reported":1705522046,"current_range_meters":30000,"station_id":"ce4bha92rcd13ifvqeg0","pricing_plan_id":"free"},{"bike_id":"5f84dda2-acaa-4a51-9f22-0e46a5ba83bc","system_id":"levelo_inurba_marseille","lat":43.29427,"lon":5.38622,"is_reserved":false,"is_disabled":false,"rental_uris":{"android":"levelo://app?vid=5f84dda2-acaa-4a51-9f22-0e46a5ba83bc","ios":"levelo://app?vid=5f84dda2-acaa-4a51-9f22-0e46a5ba83bc"},"vehicle_type_id":"4","last_reported":1705522046,"current_range_meters":8400,"station_id":"ce4bh2h2rcd13ifvqdh0","pricing_plan_id":"free"},{"bike_id":"66b9b178-f2fe-485d-916d-b16cbff729da","system_id":"levelo_inurba_marseille","lat":43.290327,"lon":5.375711,"is_reserved":false,"is_disabled":false,"rental_uris":{"android":"levelo://app?vid=66b9b178-f2fe-485d-916d-b16cbff729da","ios":"levelo://app?vid=66b9b178-f2fe-485d-916d-b16cbff729da"},"vehicle_type_id":"4","last_reported":1705522046,"current_range_meters":26400,"station_id":"ce4bh692rcd13ifvqe90","pricing_plan_id":"free"},{"bike_id":"cb0a56de-6d99-40de-8a51-a5dc1bae923b","system_id":"levelo_inurba_marseille","lat":43.294162,"lon":5.386292,"is_reserved":false,"is_disabled":false,"rental_uris":{"android":"levelo://app?vid=cb0a56de-6d99-40de-8a51-a5dc1bae923b","ios":"levelo://app?vid=cb0a56de-6d99-40de-8a51-a5dc1bae923b"},"vehicle_type_id":"4","last_reported":1705522046,"current_range_meters":26400,"station_id":"ce4bh2h2rcd13ifvqdh0","pricing_plan_id":"free"},{"bike_id":"e207e916-095d-4fbe-bc3e-0299a84f616c","system_id":"levelo_inurba_marseille","lat":43.29418,"lon":5.38628,"is_reserved":false,"is_disabled":false,"rental_uris":{"android":"levelo://app?vid=e207e916-095d-4fbe-bc3e-0299a84f616c","ios":"levelo://app?vid=e207e916-095d-4fbe-bc3e-0299a84f616c"},"vehicle_type_id":"4","last_reported":1705522046,"current_range_meters":12000,"station_id":"ce4bh2h2rcd13ifvqdh0","pricing_plan_id":"free"},{"bike_id":"790fe860-a9b0-4afb-9c90-54eeccee0831","system_id":"levelo_inurba_marseille","lat":43.289184,"lon":5.366408,"is_reserved":false,"is_disabled":false,"rental_uris":{"android":"levelo://app?vid=790fe860-a9b0-4afb-9c90-54eeccee0831","ios":"levelo://app?vid=790fe860-a9b0-4afb-9c90-54eeccee0831"},"vehicle_type_id":"4","last_reported":1705522046,"current_range_meters":5200,"station_id":"ce4bhap2rcd13ifvqek0","pricing_plan_id":"free"},{"bike_id":"a7a6c827-bc0b-4400-92cd-7f75c722a19c","system_id":"levelo_inurba_marseille","lat":43.289184,"lon":5.366408,"is_reserved":false,"is_disabled":false,"rental_uris":{"android":"levelo://app?vid=a7a6c827-bc0b-4400-92cd-7f75c722a19c","ios":"levelo://app?vid=a7a6c827-bc0b-4400-92cd-7f75c722a19c"},"vehicle_type_id":"4","last_reported":1705522046,"current_range_meters":9600,"station_id":"ce4bhap2rcd13ifvqek0","pricing_plan_id":"free"},{"bike_id":"01e3f15c-2e9b-4328-873b-453c066c7f0d","system_id":"levelo_inurba_marseille","lat":43.2942,"lon":5.38633,"is_reserved":false,"is_disabled":false,"rental_uris":{"android":"levelo://app?vid=01e3f15c-2e9b-4328-873b-453c066c7f0d","ios":"levelo://app?vid=01e3f15c-2e9b-4328-873b-453c066c7f0d"},"vehicle_type_id":"4","last_reported":1705522046,"current_range_meters":800,"station_id":"ce4bh2h2rcd13ifvqdh0","pricing_plan_id":"free"},{"bike_id":"a6c8bafb-a423-4c47-9676-ad5a7ca08c23","system_id":"levelo_inurba_marseille","lat":43.29418,"lon":5.3863,"is_reserved":false,"is_disabled":false,"rental_uris":{"android":"levelo://app?vid=a6c8bafb-a423-4c47-9676-ad5a7ca08c23","ios":"levelo://app?vid=a6c8bafb-a423-4c47-9676-ad5a7ca08c23"},"vehicle_type_id":"4","last_reported":1705522046,"current_range_meters":3600,"station_id":"ce4bh2h2rcd13ifvqdh0","pricing_plan_id":"free"},{"bike_id":"f1bb6957-5445-4dc2-94b4-6bf7b74b9b1e","system_id":"levelo_inurba_marseille","lat":43.29415,"lon":5.38626,"is_reserved":false,"is_disabled":false,"rental_uris":{"android":"levelo://app?vid=f1bb6957-5445-4dc2-94b4-6bf7b74b9b1e","ios":"levelo://app?vid=f1bb6957-5445-4dc2-94b4-6bf7b74b9b1e"},"vehicle_type_id":"4","last_reported":1705522046,"current_range_meters":17200,"station_id":"ce4bh2h2rcd13ifvqdh0","pricing_plan_id":"free"},{"bike_id":"ec432897-2b5f-4276-9db1-11fcc5ae4e1a","system_id":"levelo_inurba_marseille","lat":43.29419,"lon":5.38634,"is_reserved":false,"is_disabled":false,"rental_uris":{"android":"levelo://app?vid=ec432897-2b5f-4276-9db1-11fcc5ae4e1a","ios":"levelo://app?vid=ec432897-2b5f-4276-9db1-11fcc5ae4e1a"},"vehicle_type_id":"4","last_reported":1705522046,"current_range_meters":20400,"station_id":"ce4bh2h2rcd13ifvqdh0","pricing_plan_id":"free"},{"bike_id":"85d3504d-59ec-4200-9719-f087f5e8c097","system_id":"levelo_inurba_marseille","lat":43.294162,"lon":5.386292,"is_reserved":false,"is_disabled":false,"rental_uris":{"android":"levelo://app?vid=85d3504d-59ec-4200-9719-f087f5e8c097","ios":"levelo://app?vid=85d3504d-59ec-4200-9719-f087f5e8c097"},"vehicle_type_id":"4","last_reported":1705522046,"current_range_meters":25200,"station_id":"ce4bh2h2rcd13ifvqdh0","pricing_plan_id":"free"},{"bike_id":"4f24868f-0c19-42c3-813d-e6dc00078173","system_id":"levelo_inurba_marseille","lat":43.289184,"lon":5.366408,"is_reserved":false,"is_disabled":false,"rental_uris":{"android":"levelo://app?vid=4f24868f-0c19-42c3-813d-e6dc00078173","ios":"levelo://app?vid=4f24868f-0c19-42c3-813d-e6dc00078173"},"vehicle_type_id":"4","last_reported":1705522046,"current_range_meters":16400,"station_id":"ce4bhap2rcd13ifvqek0","pricing_plan_id":"free"},{"bike_id":"e10b8ab3-8df8-4016-8c17-001b0b41e938","system_id":"levelo_inurba_marseille","lat":43.29416,"lon":5.38637,"is_reserved":false,"is_disabled":false,"rental_uris":{"android":"levelo://app?vid=e10b8ab3-8df8-4016-8c17-001b0b41e938","ios":"levelo://app?vid=e10b8ab3-8df8-4016-8c17-001b0b41e938"},"vehicle_type_id":"4","last_reported":1705522046,"current_range_meters":20000,"station_id":"ce4bh2h2rcd13ifvqdh0","pricing_plan_id":"free"},{"bike_id":"1f07d051-700e-4479-87ff-d20f61b1b82c","system_id":"levelo_inurba_marseille","lat":43.289184,"lon":5.366408,"is_reserved":false,"is_disabled":false,"rental_uris":{"android":"levelo://app?vid=1f07d051-700e-4479-87ff-d20f61b1b82c","ios":"levelo://app?vid=1f07d051-700e-4479-87ff-d20f61b1b82c"},"vehicle_type_id":"4","last_reported":1705522046,"current_range_meters":22000,"station_id":"ce4bhap2rcd13ifvqek0","pricing_plan_id":"free"},{"bike_id":"f20104c3-1044-4109-b1ec-79c93c1fb023","system_id":"levelo_inurba_marseille","lat":43.289184,"lon":5.366408,"is_reserved":false,"is_disabled":false,"rental_uris":{"android":"levelo://app?vid=f20104c3-1044-4109-b1ec-79c93c1fb023","ios":"levelo://app?vid=f20104c3-1044-4109-b1ec-79c93c1fb023"},"vehicle_type_id":"4","last_reported":1705522046,"current_range_meters":31600,"station_id":"ce4bhap2rcd13ifvqek0","pricing_plan_id":"free"},{"bike_id":"7327f62f-d2e7-48e8-b86f-059f49e856ed","system_id":"levelo_inurba_marseille","lat":43.289468,"lon":5.363719,"is_reserved":false,"is_disabled":false,"rental_uris":{"android":"levelo://app?vid=7327f62f-d2e7-48e8-b86f-059f49e856ed","ios":"levelo://app?vid=7327f62f-d2e7-48e8-b86f-059f49e856ed"},"vehicle_type_id":"4","last_reported":1705522046,"current_range_meters":5600,"station_id":"ce4bhc92rcd13ifvqetg","pricing_plan_id":"free"},{"bike_id":"1f22b614-674a-4f57-b251-9f3c1d5057d1","system_id":"levelo_inurba_marseille","lat":43.289184,"lon":5.366408,"is_reserved":false,"is_disabled":false,"rental_uris":{"android":"levelo://app?vid=1f22b614-674a-4f57-b251-9f3c1d5057d1","ios":"levelo://app?vid=1f22b614-674a-4f57-b251-9f3c1d5057d1"},"vehicle_type_id":"4","last_reported":1705522046,"current_range_meters":4000,"station_id":"ce4bhap2rcd13ifvqek0","pricing_plan_id":"free"},{"bike_id":"5c945b40-f9e2-4271-a6a4-e29a9fee2c57","system_id":"levelo_inurba_marseille","lat":43.289184,"lon":5.366408,"is_reserved":false,"is_disabled":false,"rental_uris":{"android":"levelo://app?vid=5c945b40-f9e2-4271-a6a4-e29a9fee2c57","ios":"levelo://app?vid=5c945b40-f9e2-4271-a6a4-e29a9fee2c57"},"vehicle_type_id":"4","last_reported":1705522046,"current_range_meters":4000,"station_id":"ce4bhap2rcd13ifvqek0","pricing_plan_id":"free"},{"bike_id":"071f01ad-e008-42b6-b857-5206311b79c0","system_id":"levelo_inurba_marseille","lat":43.289468,"lon":5.363719,"is_reserved":false,"is_disabled":false,"rental_uris":{"android":"levelo://app?vid=071f01ad-e008-42b6-b857-5206311b79c0","ios":"levelo://app?vid=071f01ad-e008-42b6-b857-5206311b79c0"},"vehicle_type_id":"4","last_reported":1705522046,"current_range_meters":31200,"station_id":"ce4bhc92rcd13ifvqetg","pricing_plan_id":"free"},{"bike_id":"fed367ff-83bf-4195-b433-fddba7efb227","system_id":"levelo_inurba_marseille","lat":43.289184,"lon":5.366408,"is_reserved":false,"is_disabled":false,"rental_uris":{"android":"levelo://app?vid=fed367ff-83bf-4195-b433-fddba7efb227","ios":"levelo://app?vid=fed367ff-83bf-4195-b433-fddba7efb227"},"vehicle_type_id":"4","last_reported":1705522046,"current_range_meters":19200,"station_id":"ce4bhap2rcd13ifvqek0","pricing_plan_id":"free"},{"bike_id":"86280f13-63aa-493f-9ad0-20824fbcba35","system_id":"levelo_inurba_marseille","lat":43.289443,"lon":5.363937,"is_reserved":false,"is_disabled":false,"rental_uris":{"android":"levelo://app?vid=86280f13-63aa-493f-9ad0-20824fbcba35","ios":"levelo://app?vid=86280f13-63aa-493f-9ad0-20824fbcba35"},"vehicle_type_id":"4","last_reported":1705522046,"current_range_meters":18000,"station_id":"ce4bhc92rcd13ifvqetg","pricing_plan_id":"free"},{"bike_id":"98bce02d-57db-489d-9046-1fd464f2f6a6","system_id":"levelo_inurba_marseille","lat":43.289184,"lon":5.366408,"is_reserved":false,"is_disabled":false,"rental_uris":{"android":"levelo://app?vid=98bce02d-57db-489d-9046-1fd464f2f6a6","ios":"levelo://app?vid=98bce02d-57db-489d-9046-1fd464f2f6a6"},"vehicle_type_id":"4","last_reported":1705522046,"current_range_meters":27600,"station_id":"ce4bhap2rcd13ifvqek0","pricing_plan_id":"free"},{"bike_id":"c80081fe-c54c-4239-9bb9-c0802a11feaf","system_id":"levelo_inurba_marseille","lat":43.289184,"lon":5.366408,"is_reserved":false,"is_disabled":false,"rental_uris":{"android":"levelo://app?vid=c80081fe-c54c-4239-9bb9-c0802a11feaf","ios":"levelo://app?vid=c80081fe-c54c-4239-9bb9-c0802a11feaf"},"vehicle_type_id":"4","last_reported":1705522046,"current_range_meters":16800,"station_id":"ce4bhap2rcd13ifvqek0","pricing_plan_id":"free"},{"bike_id":"010cee77-a119-47b3-b0b8-8a4016070586","system_id":"levelo_inurba_marseille","lat":43.289468,"lon":5.363719,"is_reserved":false,"is_disabled":false,"rental_uris":{"android":"levelo://app?vid=010cee77-a119-47b3-b0b8-8a4016070586","ios":"levelo://app?vid=010cee77-a119-47b3-b0b8-8a4016070586"},"vehicle_type_id":"4","last_reported":1705522046,"current_range_meters":1600,"station_id":"ce4bhc92rcd13ifvqetg","pricing_plan_id":"free"},{"bike_id":"cf7e0728-078c-4289-929c-baa47e23986e","system_id":"levelo_inurba_marseille","lat":43.289468,"lon":5.363719,"is_reserved":false,"is_disabled":false,"rental_uris":{"android":"levelo://app?vid=cf7e0728-078c-4289-929c-baa47e23986e","ios":"levelo://app?vid=cf7e0728-078c-4289-929c-baa47e23986e"},"vehicle_type_id":"4","last_reported":1705522046,"current_range_meters":19200,"station_id":"ce4bhc92rcd13ifvqetg","pricing_plan_id":"free"},{"bike_id":"266d8215-ad07-4ad3-bbc6-d2eef2ee9fee","system_id":"levelo_inurba_marseille","lat":43.289184,"lon":5.366408,"is_reserved":false,"is_disabled":false,"rental_uris":{"android":"levelo://app?vid=266d8215-ad07-4ad3-bbc6-d2eef2ee9fee","ios":"levelo://app?vid=266d8215-ad07-4ad3-bbc6-d2eef2ee9fee"},"vehicle_type_id":"4","last_reported":1705522046,"current_range_meters":17200,"station_id":"ce4bhap2rcd13ifvqek0","pricing_plan_id":"free"},{"bike_id":"605d8770-7e10-4bbf-911b-a09272ce5a6b","system_id":"levelo_inurba_marseille","lat":43.302759,"lon":5.400793,"is_reserved":false,"is_disabled":false,"rental_uris":{"android":"levelo://app?vid=605d8770-7e10-4bbf-911b-a09272ce5a6b","ios":"levelo://app?vid=605d8770-7e10-4bbf-911b-a09272ce5a6b"},"vehicle_type_id":"4","last_reported":1705522046,"current_range_meters":6800,"station_id":"ce4bgvh2rcd13ifvqcs0","pricing_plan_id":"free"},{"bike_id":"95d890aa-5cdc-4e82-bd01-c86a67d131af","system_id":"levelo_inurba_marseille","lat":43.283998,"lon":5.375062,"is_reserved":false,"is_disabled":false,"rental_uris":{"android":"levelo://app?vid=95d890aa-5cdc-4e82-bd01-c86a67d131af","ios":"levelo://app?vid=95d890aa-5cdc-4e82-bd01-c86a67d131af"},"vehicle_type_id":"4","last_reported":1705522046,"current_range_meters":18000,"station_id":"ce4bh412rcd13ifvqds0","pricing_plan_id":"free"},{"bike_id":"e3e4dc2f-c28f-4522-b2a3-b266974afd6f","system_id":"levelo_inurba_marseille","lat":43.292644,"lon":5.384257,"is_reserved":false,"is_disabled":false,"rental_uris":{"android":"levelo://app?vid=e3e4dc2f-c28f-4522-b2a3-b266974afd6f","ios":"levelo://app?vid=e3e4dc2f-c28f-4522-b2a3-b266974afd6f"},"vehicle_type_id":"4","last_reported":1705522046,"current_range_meters":28400,"station_id":"ce4bh692rcd13ifvqea0","pricing_plan_id":"free"},{"bike_id":"8123d333-2e92-4160-9b3f-c5a36538f09e","system_id":"levelo_inurba_marseille","lat":43.292642,"lon":5.384254,"is_reserved":false,"is_disabled":false,"rental_uris":{"android":"levelo://app?vid=8123d333-2e92-4160-9b3f-c5a36538f09e","ios":"levelo://app?vid=8123d333-2e92-4160-9b3f-c5a36538f09e"},"vehicle_type_id":"4","last_reported":1705522046,"current_range_meters":21600,"station_id":"ce4bh692rcd13ifvqea0","pricing_plan_id":"free"},{"bike_id":"4862f9fc-7e64-41e1-b4e5-a553d8cdee7f","system_id":"levelo_inurba_marseille","lat":43.292644,"lon":5.384257,"is_reserved":false,"is_disabled":false,"rental_uris":{"android":"levelo://app?vid=4862f9fc-7e64-41e1-b4e5-a553d8cdee7f","ios":"levelo://app?vid=4862f9fc-7e64-41e1-b4e5-a553d8cdee7f"},"vehicle_type_id":"4","last_reported":1705522046,"current_range_meters":0,"station_id":"ce4bh692rcd13ifvqea0","pricing_plan_id":"free"},{"bike_id":"1ba8e8bc-1b7f-4225-8817-a3816852b1e3","system_id":"levelo_inurba_marseille","lat":43.288953,"lon":5.36506,"is_reserved":false,"is_disabled":false,"rental_uris":{"android":"levelo://app?vid=1ba8e8bc-1b7f-4225-8817-a3816852b1e3","ios":"levelo://app?vid=1ba8e8bc-1b7f-4225-8817-a3816852b1e3"},"vehicle_type_id":"4","last_reported":1705522046,"current_range_meters":6400,"station_id":"","pricing_plan_id":"free"},{"bike_id":"1883e2dc-270a-49a3-899b-2fe0f78716d1","system_id":"levelo_inurba_marseille","lat":43.292642,"lon":5.384254,"is_reserved":false,"is_disabled":false,"rental_uris":{"android":"levelo://app?vid=1883e2dc-270a-49a3-899b-2fe0f78716d1","ios":"levelo://app?vid=1883e2dc-270a-49a3-899b-2fe0f78716d1"},"vehicle_type_id":"4","last_reported":1705522046,"current_range_meters":26800,"station_id":"ce4bh692rcd13ifvqea0","pricing_plan_id":"free"},{"bike_id":"7168323a-7e0c-4ac7-a4da-cf825eb07fec","system_id":"levelo_inurba_marseille","lat":43.29262,"lon":5.38455,"is_reserved":false,"is_disabled":false,"rental_uris":{"android":"levelo://app?vid=7168323a-7e0c-4ac7-a4da-cf825eb07fec","ios":"levelo://app?vid=7168323a-7e0c-4ac7-a4da-cf825eb07fec"},"vehicle_type_id":"4","last_reported":1705522046,"current_range_meters":17600,"station_id":"ce4bh692rcd13ifvqea0","pricing_plan_id":"free"},{"bike_id":"a3f4d7b7-ec80-49bd-972e-005461d47478","system_id":"levelo_inurba_marseille","lat":43.292642,"lon":5.384254,"is_reserved":false,"is_disabled":false,"rental_uris":{"android":"levelo://app?vid=a3f4d7b7-ec80-49bd-972e-005461d47478","ios":"levelo://app?vid=a3f4d7b7-ec80-49bd-972e-005461d47478"},"vehicle_type_id":"4","last_reported":1705522046,"current_range_meters":30000,"station_id":"ce4bh692rcd13ifvqea0","pricing_plan_id":"free"},{"bike_id":"9f11964e-af43-47c4-aefe-0639bd7c631f","system_id":"levelo_inurba_marseille","lat":43.290103,"lon":5.356114,"is_reserved":false,"is_disabled":false,"rental_uris":{"android":"levelo://app?vid=9f11964e-af43-47c4-aefe-0639bd7c631f","ios":"levelo://app?vid=9f11964e-af43-47c4-aefe-0639bd7c631f"},"vehicle_type_id":"4","last_reported":1705522046,"current_range_meters":13200,"station_id":"ce4bhb92rcd13ifvqen0","pricing_plan_id":"free"},{"bike_id":"abacd75d-d0ee-43fc-b3f0-b1de37320bd5","system_id":"levelo_inurba_marseille","lat":43.290104,"lon":5.356111,"is_reserved":false,"is_disabled":false,"rental_uris":{"android":"levelo://app?vid=abacd75d-d0ee-43fc-b3f0-b1de37320bd5","ios":"levelo://app?vid=abacd75d-d0ee-43fc-b3f0-b1de37320bd5"},"vehicle_type_id":"4","last_reported":1705522046,"current_range_meters":30000,"station_id":"ce4bhb92rcd13ifvqen0","pricing_plan_id":"free"},{"bike_id":"1d49e974-4632-4c31-9b53-dae22d4ee7db","system_id":"levelo_inurba_marseille","lat":43.290104,"lon":5.356111,"is_reserved":false,"is_disabled":false,"rental_uris":{"android":"levelo://app?vid=1d49e974-4632-4c31-9b53-dae22d4ee7db","ios":"levelo://app?vid=1d49e974-4632-4c31-9b53-dae22d4ee7db"},"vehicle_type_id":"4","last_reported":1705522046,"current_range_meters":26000,"station_id":"ce4bhb92rcd13ifvqen0","pricing_plan_id":"free"},{"bike_id":"fe9aa7d3-e84c-402b-a422-7a5c3234d83a","system_id":"levelo_inurba_marseille","lat":43.290103,"lon":5.356114,"is_reserved":false,"is_disabled":false,"rental_uris":{"android":"levelo://app?vid=fe9aa7d3-e84c-402b-a422-7a5c3234d83a","ios":"levelo://app?vid=fe9aa7d3-e84c-402b-a422-7a5c3234d83a"},"vehicle_type_id":"4","last_reported":1705522046,"current_range_meters":25200,"station_id":"ce4bhb92rcd13ifvqen0","pricing_plan_id":"free"},{"bike_id":"d68aa186-3544-48e8-977d-d99a4b14ac52","system_id":"levelo_inurba_marseille","lat":43.295169,"lon":5.390426,"is_reserved":false,"is_disabled":false,"rental_uris":{"android":"levelo://app?vid=d68aa186-3544-48e8-977d-d99a4b14ac52","ios":"levelo://app?vid=d68aa186-3544-48e8-977d-d99a4b14ac52"},"vehicle_type_id":"4","last_reported":1705522046,"current_range_meters":16800,"station_id":"ce4bh3p2rcd13ifvqdp0","pricing_plan_id":"free"},{"bike_id":"0f98ff69-ebb5-4eee-911f-4978e26a2875","system_id":"levelo_inurba_marseille","lat":43.297765,"lon":5.39312,"is_reserved":false,"is_disabled":false,"rental_uris":{"android":"levelo://app?vid=0f98ff69-ebb5-4eee-911f-4978e26a2875","ios":"levelo://app?vid=0f98ff69-ebb5-4eee-911f-4978e26a2875"},"vehicle_type_id":"4","last_reported":1705522046,"current_range_meters":400,"station_id":"chh1huq6cuj3fo74tm60","pricing_plan_id":"free"},{"bike_id":"91cb3b6e-b9b6-4065-9410-f03391d79da2","system_id":"levelo_inurba_marseille","lat":43.29543,"lon":5.39031,"is_reserved":false,"is_disabled":false,"rental_uris":{"android":"levelo://app?vid=91cb3b6e-b9b6-4065-9410-f03391d79da2","ios":"levelo://app?vid=91cb3b6e-b9b6-4065-9410-f03391d79da2"},"vehicle_type_id":"4","last_reported":1705522046,"current_range_meters":17600,"station_id":"ce4bh3p2rcd13ifvqdp0","pricing_plan_id":"free"},{"bike_id":"371bcede-bcec-42ab-b8f9-246bb5b16208","system_id":"levelo_inurba_marseille","lat":43.29538,"lon":5.39034,"is_reserved":false,"is_disabled":false,"rental_uris":{"android":"levelo://app?vid=371bcede-bcec-42ab-b8f9-246bb5b16208","ios":"levelo://app?vid=371bcede-bcec-42ab-b8f9-246bb5b16208"},"vehicle_type_id":"4","last_reported":1705522046,"current_range_meters":19200,"station_id":"ce4bh3p2rcd13ifvqdp0","pricing_plan_id":"free"},{"bike_id":"1a343c76-e318-4dc9-9880-d28c86f14eba","system_id":"levelo_inurba_marseille","lat":43.295169,"lon":5.390426,"is_reserved":false,"is_disabled":false,"rental_uris":{"android":"levelo://app?vid=1a343c76-e318-4dc9-9880-d28c86f14eba","ios":"levelo://app?vid=1a343c76-e318-4dc9-9880-d28c86f14eba"},"vehicle_type_id":"4","last_reported":1705522046,"current_range_meters":28800,"station_id":"ce4bh3p2rcd13ifvqdp0","pricing_plan_id":"free"},{"bike_id":"110fcd72-1ea7-4e4f-a793-184e93b24271","system_id":"levelo_inurba_marseille","lat":43.29779,"lon":5.39341,"is_reserved":false,"is_disabled":false,"rental_uris":{"android":"levelo://app?vid=110fcd72-1ea7-4e4f-a793-184e93b24271","ios":"levelo://app?vid=110fcd72-1ea7-4e4f-a793-184e93b24271"},"vehicle_type_id":"4","last_reported":1705522046,"current_range_meters":14400,"station_id":"chh1huq6cuj3fo74tm60","pricing_plan_id":"free"},{"bike_id":"adaef058-44fd-48ad-b8b5-f7f5914b8a5a","system_id":"levelo_inurba_marseille","lat":43.29528,"lon":5.39035,"is_reserved":false,"is_disabled":false,"rental_uris":{"android":"levelo://app?vid=adaef058-44fd-48ad-b8b5-f7f5914b8a5a","ios":"levelo://app?vid=adaef058-44fd-48ad-b8b5-f7f5914b8a5a"},"vehicle_type_id":"4","last_reported":1705522046,"current_range_meters":26400,"station_id":"ce4bh3p2rcd13ifvqdp0","pricing_plan_id":"free"},{"bike_id":"ccd9cda7-74c6-43c7-b714-da7eabc54cee","system_id":"levelo_inurba_marseille","lat":43.33019,"lon":5.39041,"is_reserved":false,"is_disabled":false,"rental_uris":{"android":"levelo://app?vid=ccd9cda7-74c6-43c7-b714-da7eabc54cee","ios":"levelo://app?vid=ccd9cda7-74c6-43c7-b714-da7eabc54cee"},"vehicle_type_id":"4","last_reported":1705522046,"current_range_meters":4400,"station_id":"ce4bhr92rcd13ifvqhrg","pricing_plan_id":"free"},{"bike_id":"a104f9bc-d761-4319-b2a0-1a6f9c5e2ce2","system_id":"levelo_inurba_marseille","lat":43.33021,"lon":5.390402,"is_reserved":false,"is_disabled":false,"rental_uris":{"android":"levelo://app?vid=a104f9bc-d761-4319-b2a0-1a6f9c5e2ce2","ios":"levelo://app?vid=a104f9bc-d761-4319-b2a0-1a6f9c5e2ce2"},"vehicle_type_id":"4","last_reported":1705522046,"current_range_meters":28800,"station_id":"ce4bhr92rcd13ifvqhrg","pricing_plan_id":"free"},{"bike_id":"687150be-bdb0-4f9e-9b28-494fe8254c61","system_id":"levelo_inurba_marseille","lat":43.295169,"lon":5.390426,"is_reserved":false,"is_disabled":false,"rental_uris":{"android":"levelo://app?vid=687150be-bdb0-4f9e-9b28-494fe8254c61","ios":"levelo://app?vid=687150be-bdb0-4f9e-9b28-494fe8254c61"},"vehicle_type_id":"4","last_reported":1705522046,"current_range_meters":28400,"station_id":"ce4bh3p2rcd13ifvqdp0","pricing_plan_id":"free"},{"bike_id":"9f0b8373-8c23-425e-85dc-41c0552dc00d","system_id":"levelo_inurba_marseille","lat":43.330442,"lon":5.389148,"is_reserved":false,"is_disabled":false,"rental_uris":{"android":"levelo://app?vid=9f0b8373-8c23-425e-85dc-41c0552dc00d","ios":"levelo://app?vid=9f0b8373-8c23-425e-85dc-41c0552dc00d"},"vehicle_type_id":"4","last_reported":1705522046,"current_range_meters":7600,"station_id":"ce4bhr92rcd13ifvqhrg","pricing_plan_id":"free"},