{"last_updated":1769017523,"ttl":60,"version":"2.2","data":{"bikes":[{"bike_id":"891f6b82-5e33-4505-a6d8-10743050b11b","system_id":"levelo_inurba_marseille","lat":43.29541,"lon":5.39041,"is_reserved":false,"is_disabled":false,"rental_uris":{"android":"levelo://app?vid=891f6b82-5e33-4505-a6d8-10743050b11b","ios":"levelo://app?vid=891f6b82-5e33-4505-a6d8-10743050b11b"},"vehicle_type_id":"4","last_reported":1769017524,"current_range_meters":2800,"station_id":"ce4bh3p2rcd13ifvqdp0","pricing_plan_id":"cebpf4jnsgd1na2vs0mg"},{"bike_id":"9742d8c6-3acb-4294-a816-9234fb6b9330","system_id":"levelo_inurba_marseille","lat":43.28842,"lon":5.35846,"is_reserved":false,"is_disabled":false,"rental_uris":{"android":"levelo://app?vid=9742d8c6-3acb-4294-a816-9234fb6b9330","ios":"levelo://app?vid=9742d8c6-3acb-4294-a816-9234fb6b9330"},"vehicle_type_id":"4","last_reported":1769017524,"current_range_meters":2800,"station_id":"ce4bhb12rcd13ifvqem0","pricing_plan_id":"cebpf4jnsgd1na2vs0mg"},{"bike_id":"cfc88531-5dff-4a01-b504-ad9f7eb0e753","system_id":"levelo_inurba_marseille","lat":43.27994,"lon":5.40012,"is_reserved":false,"is_disabled":false,"rental_uris":{"android":"levelo://app?vid=cfc88531-5dff-4a01-b504-ad9f7eb0e753","ios":"levelo://app?vid=cfc88531-5dff-4a01-b504-ad9f7eb0e753"},"vehicle_type_id":"4","last_reported":1769017524,"current_range_meters":2800,"station_id":"ce4bho92rcd13ifvqh4g","pricing_plan_id":"cebpf4jnsgd1na2vs0mg"},{"bike_id":"258b4153-0ee8-4d31-b068-229f8c76496d","system_id":"levelo_inurba_marseille","lat":43.278157,"lon":5.407154,"is_reserved":false,"is_disabled":false,"rental_uris":{"android":"levelo://app?vid=258b4153-0ee8-4d31-b068-229f8c76496d","ios":"levelo://app?vid=258b4153-0ee8-4d31-b068-229f8c76496d"},"vehicle_type_id":"4","last_reported":1769017524,"current_range_meters":2800,"station_id":"ce4bhnh2rcd13ifvqgtg","pricing_plan_id":"cebpf4jnsgd1na2vs0mg"},{"bike_id":"d2cb0070-0422-466b-b462-1892f78475a2","system_id":"levelo_inurba_marseille","lat":43.229222,"lon":5.353759,"is_reserved":false,"is_disabled":false,"rental_uris":{"android":"levelo://app?vid=d2cb0070-0422-466b-b462-1892f78475a2","ios":"levelo://app?vid=d2cb0070-0422-466b-b462-1892f78475a2"},"vehicle_type_id":"4","last_reported":1769017524,"current_range_meters":2800,"station_id":"cpo3532slgdg3j2ikp40","pricing_plan_id":"cebpf4jnsgd1na2vs0mg"},{"bike_id":"26bd1e32-0e40-488f-8b10-e954188f606f","system_id":"levelo_inurba_marseille","lat":43.31484,"lon":5.37308,"is_reserved":false,"is_disabled":false,"rental_uris":{"android":"levelo://app?vid=26bd1e32-0e40-488f-8b10-e954188f606f","ios":"levelo://app?vid=26bd1e32-0e40-488f-8b10-e954188f606f"},"vehicle_type_id":"4","last_reported":1769017524,"current_range_meters":2800,"station_id":"ce4bgt12rcd13ifvqcd0","pricing_plan_id":"cebpf4jnsgd1na2vs0mg"},{"bike_id":"794db499-99d9-4d23-be55-6c9093cae435","system_id":"levelo_inurba_marseille","lat":43.26459,"lon":5.39526,"is_reserved":false,"is_disabled":false,"rental_uris":{"android":"levelo://app?vid=794db499-99d9-4d23-be55-6c9093cae435","ios":"levelo://app?vid=794db499-99d9-4d23-be55-6c9093cae435"},"vehicle_type_id":"4","last_reported":1769017524,"current_range_meters":2800,"station_id":"ce4bhi12rcd13ifvqfq0","pricing_plan_id":"cebpf4jnsgd1na2vs0mg"},{"bike_id":"10483c0a-1726-407f-8492-2530493c0d67","system_id":"levelo_inurba_marseille","lat":43.250048,"lon":5.389082,"is_reserved":false,"is_disabled":false,"rental_uris":{"android":"levelo://app?vid=10483c0a-1726-407f-8492-2530493c0d67","ios":"levelo://app?vid=10483c0a-1726-407f-8492-2530493c0d67"},"vehicle_type_id":"4","last_reported":1769017524,"current_range_meters":2800,"station_id":"ce4bhgp2rcd13ifvqfd0","pricing_plan_id":"cebpf4jnsgd1na2vs0mg"},{"bike_id":"07dae91d-f0c1-4d34-90fb-4a3bbe78eebb","system_id":"levelo_inurba_marseille","lat":43.30937,"lon":5.40138,"is_reserved":false,"is_disabled":false,"rental_uris":{"android":"levelo://app?vid=07dae91d-f0c1-4d34-90fb-4a3bbe78eebb","ios":"levelo://app?vid=07dae91d-f0c1-4d34-90fb-4a3bbe78eebb"},"vehicle_type_id":"4","last_reported":1769017524,"current_range_meters":2800,"station_id":"ce4bgvp2rcd13ifvqct0","pricing_plan_id":"cebpf4jnsgd1na2vs0mg"},{"bike_id":"e0dfbad4-de01-4abd-a5f8-33963cfdc543","system_id":"levelo_inurba_marseille","lat":43.28005,"lon":5.40004,"is_reserved":false,"is_disabled":false,"rental_uris":{"android":"levelo://app?vid=e0dfbad4-de01-4abd-a5f8-33963cfdc543","ios":"levelo://app?vid=e0dfbad4-de01-4abd-a5f8-33963cfdc543"},"vehicle_type_id":"4","last_reported":1769017524,"current_range_meters":2800,"station_id":"ce4bho92rcd13ifvqh4g","pricing_plan_id":"cebpf4jnsgd1na2vs0mg"},{"bike_id":"05445378-8a5d-473e-a02e-3796d63a29c8","system_id":"levelo_inurba_marseille","lat":43.263944,"lon":5.410882,"is_reserved":false,"is_disabled":false,"rental_uris":{"android":"levelo://app?vid=05445378-8a5d-473e-a02e-3796d63a29c8","ios":"levelo://app?vid=05445378-8a5d-473e-a02e-3796d63a29c8"},"vehicle_type_id":"4","last_reported":1769017524,"current_range_meters":2800,"station_id":"st_d4e5ca6na9uc73bfl5fg","pricing_plan_id":"cebpf4jnsgd1na2vs0mg"},{"bike_id":"ad473098-59c2-4c8e-8fd2-dd511975eb09","system_id":"levelo_inurba_marseille","lat":43.21751,"lon":5.34609,"is_reserved":false,"is_disabled":true,"rental_uris":{"android":"levelo://app?vid=ad473098-59c2-4c8e-8fd2-dd511975eb09","ios":"levelo://app?vid=ad473098-59c2-4c8e-8fd2-dd511975eb09"},"vehicle_type_id":"4","last_reported":1769017524,"current_range_meters":2800,"station_id":"st_cvj6r9ubvosntc0bgbag","pricing_plan_id":"cebpf4jnsgd1na2vs0mg"},{"bike_id":"5e959153-9c29-4327-84ee-e520495418c2","system_id":"levelo_inurba_marseille","lat":43.25343,"lon":5.42187,"is_reserved":false,"is_disabled":false,"rental_uris":{"android":"levelo://app?vid=5e959153-9c29-4327-84ee-e520495418c2","ios":"levelo://app?vid=5e959153-9c29-4327-84ee-e520495418c2"},"vehicle_type_id":"4","last_reported":1769017524,"current_range_meters":2800,"station_id":"st_d2m65c5bi1j21697t3ng","pricing_plan_id":"cebpf4jnsgd1na2vs0mg"},{"bike_id":"42591c06-b58a-42d0-bb1e-b4712e9f3bac","system_id":"levelo_inurba_marseille","lat":43.28677,"lon":5.373715,"is_reserved":false,"is_disabled":false,"rental_uris":{"android":"levelo://app?vid=42591c06-b58a-42d0-bb1e-b4712e9f3bac","ios":"levelo://app?vid=42591c06-b58a-42d0-bb1e-b4712e9f3bac"},"vehicle_type_id":"4","last_reported":1769017524,"current_range_meters":3200,"station_id":"ce4bh3p2rcd13ifvqdq0","pricing_plan_id":"cebpf4jnsgd1na2vs0mg"},{"bike_id":"2cd96adf-1d67-4835-b72b-8769ccb7fab3","system_id":"levelo_inurba_marseille","lat":43.27832,"lon":5.39211,"is_reserved":false,"is_disabled":false,"rental_uris":{"android":"levelo://app?vid=2cd96adf-1d67-4835-b72b-8769ccb7fab3","ios":"levelo://app?vid=2cd96adf-1d67-4835-b72b-8769ccb7fab3"},"vehicle_type_id":"4","last_reported":1769017524,"current_range_meters":3200,"station_id":"ce4bhjp2rcd13ifvqga0","pricing_plan_id":"cebpf4jnsgd1na2vs0mg"},{"bike_id":"9f5c540d-6898-4572-9558-d437f9b93635","system_id":"levelo_inurba_marseille","lat":43.3014,"lon":5.39857,"is_reserved":false,"is_disabled":false,"rental_uris":{"android":"levelo://app?vid=9f5c540d-6898-4572-9558-d437f9b93635","ios":"levelo://app?vid=9f5c540d-6898-4572-9558-d437f9b93635"},"vehicle_type_id":"4","last_reported":1769017524,"current_range_meters":3200,"station_id":"ce4bh0h2rcd13ifvqd40","pricing_plan_id":"cebpf4jnsgd1na2vs0mg"},{"bike_id":"d788a1e7-a5de-478b-b0c9-89f22edea960","system_id":"levelo_inurba_marseille","lat":43.26211,"lon":5.40464,"is_reserved":false,"is_disabled":false,"rental_uris":{"android":"levelo://app?vid=d788a1e7-a5de-478b-b0c9-89f22edea960","ios":"levelo://app?vid=d788a1e7-a5de-478b-b0c9-89f22edea960"},"vehicle_type_id":"4","last_reported":1769017524,"current_range_meters":3200,"station_id":"ce4bhmh2rcd13ifvqgmg","pricing_plan_id":"cebpf4jnsgd1na2vs0mg"},{"bike_id":"57594a68-1bbb-4772-89d3-d3ba34b95b9a","system_id":"levelo_inurba_marseille","lat":43.30302,"lon":5.3686,"is_reserved":false,"is_disabled":false,"rental_uris":{"android":"levelo://app?vid=57594a68-1bbb-4772-89d3-d3ba34b95b9a","ios":"levelo://app?vid=57594a68-1bbb-4772-89d3-d3ba34b95b9a"},"vehicle_type_id":"4","last_reported":1769017524,"current_range_meters":3200,"station_id":"ce4bgqh2rcd13ifvqc5g","pricing_plan_id":"cebpf4jnsgd1na2vs0mg"},{"bike_id":"f5f5d546-357d-4aca-8b44-3347c463a29b","system_id":"levelo_inurba_marseille","lat":43.31488,"lon":5.37309,"is_reserved":false,"is_disabled":false,"rental_uris":{"android":"levelo://app?vid=f5f5d546-357d-4aca-8b44-3347c463a29b","ios":"levelo://app?vid=f5f5d546-357d-4aca-8b44-3347c463a29b"},"vehicle_type_id":"4","last_reported":1769017524,"current_range_meters":3200,"station_id":"ce4bgt12rcd13ifvqcd0","pricing_plan_id":"cebpf4jnsgd1na2vs0mg"},{"bike_id":"51469472-4cc7-4fff-babd-738f91e7aa30","system_id":"levelo_inurba_marseille","lat":43.26244,"lon":5.40448,"is_reserved":false,"is_disabled":false,"rental_uris":{"android":"levelo://app?vid=51469472-4cc7-4fff-babd-738f91e7aa30","ios":"levelo://app?vid=51469472-4cc7-4fff-babd-738f91e7aa30"},"vehicle_type_id":"4","last_reported":1769017524,"current_range_meters":3200,"station_id":"ce4bhmh2rcd13ifvqgmg","pricing_plan_id":"cebpf4jnsgd1na2vs0mg"},{"bike_id":"77321c92-4e75-4d10-a065-584501435f47","system_id":"levelo_inurba_marseille","lat":43.279962,"lon":5.400109,"is_reserved":false,"is_disabled":false,"rental_uris":{"android":"levelo://app?vid=77321c92-4e75-4d10-a065-584501435f47","ios":"levelo://app?vid=77321c92-4e75-4d10-a065-584501435f47"},"vehicle_type_id":"4","last_reported":1769017524,"current_range_meters":3200,"station_id":"","pricing_plan_id":"cebpf4jnsgd1na2vs0mg"},{"bike_id":"56aebe64-5e14-40af-99f2-62c233e94a99","system_id":"levelo_inurba_marseille","lat":43.297136,"lon":5.38733,"is_reserved":false,"is_disabled":false,"rental_uris":{"android":"levelo://app?vid=56aebe64-5e14-40af-99f2-62c233e94a99","ios":"levelo://app?vid=56aebe64-5e14-40af-99f2-62c233e94a99"},"vehicle_type_id":"4","last_reported":1769017524,"current_range_meters":3200,"station_id":"","pricing_plan_id":"cebpf4jnsgd1na2vs0mg"},{"bike_id":"81e72154-ee60-47d1-b440-df42986292bd","system_id":"levelo_inurba_marseille","lat":43.29576,"lon":5.3751,"is_reserved":false,"is_disabled":false,"rental_uris":{"android":"levelo://app?vid=81e72154-ee60-47d1-b440-df42986292bd","ios":"levelo://app?vid=81e72154-ee60-47d1-b440-df42986292bd"},"vehicle_type_id":"4","last_reported":1769017524,"current_range_meters":3200,"station_id":"ce4bgh92rcd13ifvqb50","pricing_plan_id":"cebpf4jnsgd1na2vs0mg"},{"bike_id":"d9d259ef-225c-4373-ba75-518a5c906d5f","system_id":"levelo_inurba_marseille","lat":43.292272,"lon":5.360598,"is_reserved":false,"is_disabled":false,"rental_uris":{"android":"levelo://app?vid=d9d259ef-225c-4373-ba75-518a5c906d5f","ios":"levelo://app?vid=d9d259ef-225c-4373-ba75-518a5c906d5f"},"vehicle_type_id":"4","last_reported":1769017524,"current_range_meters":3200,"station_id":"ce4bhbh2rcd13ifvqeqg","pricing_plan_id":"cebpf4jnsgd1na2vs0mg"},{"bike_id":"6c19b020-8148-4c1c-801b-eea798a14237","system_id":"levelo_inurba_marseille","lat":43.32311,"lon":5.38502,"is_reserved":false,"is_disabled":false,"rental_uris":{"android":"levelo://app?vid=6c19b020-8148-4c1c-801b-eea798a14237","ios":"levelo://app?vid=6c19b020-8148-4c1c-801b-eea798a14237"},"vehicle_type_id":"4","last_reported":1769017524,"current_range_meters":3200,"station_id":"st_d45171o9ee8s73djdqug","pricing_plan_id":"cebpf4jnsgd1na2vs0mg"},{"bike_id":"8155f86b-6d64-4287-9ed7-7fbe9d103dde","system_id":"levelo_inurba_marseille","lat":43.22565,"lon":5.41622,"is_reserved":false,"is_disabled":false,"rental_uris":{"android":"levelo://app?vid=8155f86b-6d64-4287-9ed7-7fbe9d103dde","ios":"levelo://app?vid=8155f86b-6d64-4287-9ed7-7fbe9d103dde"},"vehicle_type_id":"4","last_reported":1769017524,"current_range_meters":3200,"station_id":"st_d2o4gvlbi1j2169b742g","pricing_plan_id":"cebpf4jnsgd1na2vs0mg"},{"bike_id":"0b857ada-bed9-47df-869a-44f8e17a76e1","system_id":"levelo_inurba_marseille","lat":43.22571,"lon":5.4161,"is_reserved":false,"is_disabled":false,"rental_uris":{"android":"levelo://app?vid=0b857ada-bed9-47df-869a-44f8e17a76e1","ios":"levelo://app?vid=0b857ada-bed9-47df-869a-44f8e17a76e1"},"vehicle_type_id":"4","last_reported":1769017524,"current_range_meters":3600,"station_id":"st_d2o4gvlbi1j2169b742g","pricing_plan_id":"cebpf4jnsgd1na2vs0mg"},{"bike_id":"04d1fa74-7078-4e54-86c0-c9d3f7b08c45","system_id":"levelo_inurba_marseille","lat":43.25571,"lon":5.38254,"is_reserved":false,"is_disabled":false,"rental_uris":{"android":"levelo://app?vid=04d1fa74-7078-4e54-86c0-c9d3f7b08c45","ios":"levelo://app?vid=04d1fa74-7078-4e54-86c0-c9d3f7b08c45"},"vehicle_type_id":"4","last_reported":1769017524,"current_range_meters":3600,"station_id":"ce4bhih2rcd13ifvqfs0","pricing_plan_id":"cebpf4jnsgd1na2vs0mg"},{"bike_id":"20f2e691-7ee8-4508-9b1c-b43a813819d1","system_id":"levelo_inurba_marseille","lat":43.26019,"lon":5.37601,"is_reserved":false,"is_disabled":false,"rental_uris":{"android":"levelo://app?vid=20f2e691-7ee8-4508-9b1c-b43a813819d1","ios":"levelo://app?vid=20f2e691-7ee8-4508-9b1c-b43a813819d1"},"vehicle_type_id":"4","last_reported":1769017524,"current_range_meters":3600,"station_id":"ce4bhgh2rcd13ifvqfa0","pricing_plan_id":"cebpf4jnsgd1na2vs0mg"},{"bike_id":"f7201e55-944f-4120-b76f-c56f6358adcc","system_id":"levelo_inurba_marseille","lat":43.27809,"lon":5.40717,"is_reserved":false,"is_disabled":false,"rental_uris":{"android":"levelo://app?vid=f7201e55-944f-4120-b76f-c56f6358adcc","ios":"levelo://app?vid=f7201e55-944f-4120-b76f-c56f6358adcc"},"vehicle_type_id":"4","last_reported":1769017524,"current_range_meters":3600,"station_id":"ce4bhnh2rcd13ifvqgtg","pricing_plan_id":"cebpf4jnsgd1na2vs0mg"},{"bike_id":"d2a8e19f-6ed6-4504-b758-97cfabc32c91","system_id":"levelo_inurba_marseille","lat":43.29902,"lon":5.37465,"is_reserved":false,"is_disabled":false,"rental_uris":{"android":"levelo://app?vid=d2a8e19f-6ed6-4504-b758-97cfabc32c91","ios":"levelo://app?vid=d2a8e19f-6ed6-4504-b758-97cfabc32c91"},"vehicle_type_id":"4","last_reported":1769017524,"current_range_meters":3600,"station_id":"ce4bgjh2rcd13ifvqbg0","pricing_plan_id":"cebpf4jnsgd1na2vs0mg"},{"bike_id":"394ccb93-cc2d-4e8a-ac01-18019d2f80ad","system_id":"levelo_inurba_marseille","lat":43.2989,"lon":5.43671,"is_reserved":false,"is_disabled":false,"rental_uris":{"android":"levelo://app?vid=394ccb93-cc2d-4e8a-ac01-18019d2f80ad","ios":"levelo://app?vid=394ccb93-cc2d-4e8a-ac01-18019d2f80ad"},"vehicle_type_id":"4","last_reported":1769017524,"current_range_meters":3600,"station_id":"ce4bhpp2rcd13ifvqhfg","pricing_plan_id":"cebpf4jnsgd1na2vs0mg"},{"bike_id":"dfa9a8c1-f2ad-4c6a-97fd-ce26a1d3ca78","system_id":"levelo_inurba_marseille","lat":43.28919,"lon":5.38406,"is_reserved":false,"is_disabled":false,"rental_uris":{"android":"levelo://app?vid=dfa9a8c1-f2ad-4c6a-97fd-ce26a1d3ca78","ios":"levelo://app?vid=dfa9a8c1-f2ad-4c6a-97fd-ce26a1d3ca78"},"vehicle_type_id":"4","last_reported":1769017524,"current_range_meters":3600,"station_id":"ce4bh612rcd13ifvqe6g","pricing_plan_id":"cebpf4jnsgd1na2vs0mg"},{"bike_id":"5dbfcf3f-7cec-4c29-8168-14f9c37f7762","system_id":"levelo_inurba_marseille","lat":43.2256,"lon":5.41632,"is_reserved":false,"is_disabled":false,"rental_uris":{"android":"levelo://app?vid=5dbfcf3f-7cec-4c29-8168-14f9c37f7762","ios":"levelo://app?vid=5dbfcf3f-7cec-4c29-8168-14f9c37f7762"},"vehicle_type_id":"4","last_reported":1769017524,"current_range_meters":3600,"station_id":"st_d2o4gvlbi1j2169b742g","pricing_plan_id":"cebpf4jnsgd1na2vs0mg"},{"bike_id":"66160d64-23f9-4d70-b989-daa254cf260e","system_id":"levelo_inurba_marseille","lat":43.2817,"lon":5.4267,"is_reserved":false,"is_disabled":true,"rental_uris":{"android":"levelo://app?vid=66160d64-23f9-4d70-b989-daa254cf260e","ios":"levelo://app?vid=66160d64-23f9-4d70-b989-daa254cf260e"},"vehicle_type_id":"4","last_reported":1769017524,"current_range_meters":3600,"station_id":"ce4bhnh2rcd13ifvqgug","pricing_plan_id":"cebpf4jnsgd1na2vs0mg"},{"bike_id":"fe4ee268-4ab1-4c42-a504-b3b14996ea3d","system_id":"levelo_inurba_marseille","lat":43.29084,"lon":5.3717,"is_reserved":false,"is_disabled":false,"rental_uris":{"android":"levelo://app?vid=fe4ee268-4ab1-4c42-a504-b3b14996ea3d","ios":"levelo://app?vid=fe4ee268-4ab1-4c42-a504-b3b14996ea3d"},"vehicle_type_id":"4","last_reported":1769017524,"current_range_meters":3600,"station_id":"ce4bh5p2rcd13ifvqe4g","pricing_plan_id":"cebpf4jnsgd1na2vs0mg"},{"bike_id":"0fa28a04-32dc-43ce-8812-67e72a800fc0","system_id":"levelo_inurba_marseille","lat":43.284914,"lon":5.391813,"is_reserved":false,"is_disabled":false,"rental_uris":{"android":"levelo://app?vid=0fa28a04-32dc-43ce-8812-67e72a800fc0","ios":"levelo://app?vid=0fa28a04-32dc-43ce-8812-67e72a800fc0"},"vehicle_type_id":"4","last_reported":1769017524,"current_range_meters":3600,"station_id":"ce4bhoh2rcd13ifvqh5g","pricing_plan_id":"cebpf4jnsgd1na2vs0mg"},{"bike_id":"35eb0f0f-42a8-4fd5-956e-bec6aa3f7ee3","system_id":"levelo_inurba_marseille","lat":43.231788,"lon":5.399988,"is_reserved":false,"is_disabled":false,"rental_uris":{"android":"levelo://app?vid=35eb0f0f-42a8-4fd5-956e-bec6aa3f7ee3","ios":"levelo://app?vid=35eb0f0f-42a8-4fd5-956e-bec6aa3f7ee3"},"vehicle_type_id":"4","last_reported":1769017524,"current_range_meters":3600,"station_id":"ce4bhn12rcd13ifvqgqg","pricing_plan_id":"cebpf4jnsgd1na2vs0mg"},{"bike_id":"2cf1ea64-26bb-4964-939a-03465aee6659","system_id":"levelo_inurba_marseille","lat":43.22564,"lon":5.41621,"is_reserved":false,"is_disabled":false,"rental_uris":{"android":"levelo://app?vid=2cf1ea64-26bb-4964-939a-03465aee6659","ios":"levelo://app?vid=2cf1ea64-26bb-4964-939a-03465aee6659"},"vehicle_type_id":"4","last_reported":1769017524,"current_range_meters":3600,"station_id":"st_d2o4gvlbi1j2169b742g","pricing_plan_id":"cebpf4jnsgd1na2vs0mg"},{"bike_id":"49ee8068-323c-4982-9f04-b36244e91a24","system_id":"levelo_inurba_marseille","lat":43.303239,"lon":5.404337,"is_reserved":false,"is_disabled":false,"rental_uris":{"android":"levelo://app?vid=49ee8068-323c-4982-9f04-b36244e91a24","ios":"levelo://app?vid=49ee8068-323c-4982-9f04-b36244e91a24"},"vehicle_type_id":"4","last_reported":1769017524,"current_range_meters":3600,"station_id":"ce4bh012rcd13ifvqd10","pricing_plan_id":"cebpf4jnsgd1na2vs0mg"},{"bike_id":"8f8f8bf1-c46a-4711-a485-2ebb4e0a471e","system_id":"levelo_inurba_marseille","lat":43.267901,"lon":5.394137,"is_reserved":false,"is_disabled":false,"rental_uris":{"android":"levelo://app?vid=8f8f8bf1-c46a-4711-a485-2ebb4e0a471e","ios":"levelo://app?vid=8f8f8bf1-c46a-4711-a485-2ebb4e0a471e"},"vehicle_type_id":"4","last_reported":1769017524,"current_range_meters":3600,"station_id":"ce4bhh12rcd13ifvqfg0","pricing_plan_id":"cebpf4jnsgd1na2vs0mg"},{"bike_id":"15bbd91d-a95d-4e6b-a1a6-794c9f427184","system_id":"levelo_inurba_marseille","lat":43.29529,"lon":5.38546,"is_reserved":false,"is_disabled":false,"rental_uris":{"android":"levelo://app?vid=15bbd91d-a95d-4e6b-a1a6-794c9f427184","ios":"levelo://app?vid=15bbd91d-a95d-4e6b-a1a6-794c9f427184"},"vehicle_type_id":"4","last_reported":1769017524,"current_range_meters":3600,"station_id":"ce4bgih2rcd13ifvqba0","pricing_plan_id":"cebpf4jnsgd1na2vs0mg"},{"bike_id":"00d13be8-f5ba-411a-9ab3-e17b60014e24","system_id":"levelo_inurba_marseille","lat":43.2799,"lon":5.4001,"is_reserved":false,"is_disabled":false,"rental_uris":{"android":"levelo://app?vid=00d13be8-f5ba-411a-9ab3-e17b60014e24","ios":"levelo://app?vid=00d13be8-f5ba-411a-9ab3-e17b60014e24"},"vehicle_type_id":"4","last_reported":1769017524,"current_range_meters":4000,"station_id":"ce4bho92rcd13ifvqh4g","pricing_plan_id":"cebpf4jnsgd1na2vs0mg"},{"bike_id":"b879bdb0-3364-4e43-95d1-60b6b5fbc4d0","system_id":"levelo_inurba_marseille","lat":43.24659,"lon":5.38881,"is_reserved":false,"is_disabled":false,"rental_uris":{"android":"levelo://app?vid=b879bdb0-3364-4e43-95d1-60b6b5fbc4d0","ios":"levelo://app?vid=b879bdb0-3364-4e43-95d1-60b6b5fbc4d0"},"vehicle_type_id":"4","last_reported":1769017524,"current_range_meters":4000,"station_id":"ce4bhg12rcd13ifvqf60","pricing_plan_id":"cebpf4jnsgd1na2vs0mg"},{"bike_id":"02b19501-ae2b-4d21-ae93-ce26586838ae","system_id":"levelo_inurba_marseille","lat":43.29562,"lon":5.4227,"is_reserved":false,"is_disabled":false,"rental_uris":{"android":"levelo://app?vid=02b19501-ae2b-4d21-ae93-ce26586838ae","ios":"levelo://app?vid=02b19501-ae2b-4d21-ae93-ce26586838ae"},"vehicle_type_id":"4","last_reported":1769017524,"current_range_meters":4000,"station_id":"ce4bhph2rcd13ifvqhdg","pricing_plan_id":"cebpf4jnsgd1na2vs0mg"},{"bike_id":"7d2f250a-191b-441d-876b-7325dd6245a6","system_id":"levelo_inurba_marseille","lat":43.24995,"lon":5.38937,"is_reserved":false,"is_disabled":false,"rental_uris":{"android":"levelo://app?vid=7d2f250a-191b-441d-876b-7325dd6245a6","ios":"levelo://app?vid=7d2f250a-191b-441d-876b-7325dd6245a6"},"vehicle_type_id":"4","last_reported":1769017524,"current_range_meters":4000,"station_id":"ce4bhgp2rcd13ifvqfd0","pricing_plan_id":"cebpf4jnsgd1na2vs0mg"},{"bike_id":"ee0649f4-b809-4aef-add5-3c8ad98310f4","system_id":"levelo_inurba_marseille","lat":43.24997,"lon":5.38919,"is_reserved":false,"is_disabled":false,"rental_uris":{"android":"levelo://app?vid=ee0649f4-b809-4aef-add5-3c8ad98310f4","ios":"levelo://app?vid=ee0649f4-b809-4aef-add5-3c8ad98310f4"},"vehicle_type_id":"4","last_reported":1769017524,"current_range_meters":4000,"station_id":"ce4bhgp2rcd13ifvqfd0","pricing_plan_id":"cebpf4jnsgd1na2vs0mg"},{"bike_id":"370a6405-fdf1-423e-a465-6cdd23b50ee2","system_id":"levelo_inurba_marseille","lat":43.29025,"lon":5.38649,"is_reserved":false,"is_disabled":true,"rental_uris":{"android":"levelo://app?vid=370a6405-fdf1-423e-a465-6cdd23b50ee2","ios":"levelo://app?vid=370a6405-fdf1-423e-a465-6cdd23b50ee2"},"vehicle_type_id":"4","last_reported":1769017524,"current_range_meters":4000,"station_id":"ce4bh4p2rcd13ifvqe0g","pricing_plan_id":"cebpf4jnsgd1na2vs0mg"},{"bike_id":"23e7e55c-e0a7-4c21-9c7b-401f7a4b5220","system_id":"levelo_inurba_marseille","lat":43.27996,"lon":5.40017,"is_reserved":false,"is_disabled":false,"rental_uris":{"android":"levelo://app?vid=23e7e55c-e0a7-4c21-9c7b-401f7a4b5220","ios":"levelo://app?vid=23e7e55c-e0a7-4c21-9c7b-401f7a4b5220"},"vehicle_type_id":"4","last_reported":1769017524,"current_range_meters":4000,"station_id":"ce4bho92rcd13ifvqh4g","pricing_plan_id":"cebpf4jnsgd1na2vs0mg"},{"bike_id":"6c5d67ac-a0b5-4ae3-98cf-834741f53acd","system_id":"levelo_inurba_marseille","lat":43.25582,"lon":5.3824,"is_reserved":false,"is_disabled":false,"rental_uris":{"android":"levelo://app?vid=6c5d67ac-a0b5-4ae3-98cf-834741f53acd","ios":"levelo://app?vid=6c5d67ac-a0b5-4ae3-98cf-834741f53acd"},"vehicle_type_id":"4","last_reported":1769017524,"current_range_meters":4000,"station_id":"ce4bhih2rcd13ifvqfs0","pricing_plan_id":"cebpf4jnsgd1na2vs0mg"},{"bike_id":"2c8c3ab1-1576-42a6-8b80-ae6ee4ddf8d7","system_id":"levelo_inurba_marseille","lat":43.258265,"lon":5.39401,"is_reserved":false,"is_disabled":false,"rental_uris":{"android":"levelo://app?vid=2c8c3ab1-1576-42a6-8b80-ae6ee4ddf8d7","ios":"levelo://app?vid=2c8c3ab1-1576-42a6-8b80-ae6ee4ddf8d7"},"vehicle_type_id":"4","last_reported":1769017524,"current_range_meters":4000,"station_id":"ce4bhip2rcd13ifvqft0","pricing_plan_id":"cebpf4jnsgd1na2vs0mg"},{"bike_id":"48214cab-a20a-430a-8300-e70f3a4adf2b","system_id":"levelo_inurba_marseille","lat":43.2954,"lon":5.39042,"is_reserved":false,"is_disabled":false,"rental_uris":{"android":"levelo://app?vid=48214cab-a20a-430a-8300-e70f3a4adf2b","ios":"levelo://app?vid=48214cab-a20a-430a-8300-e70f3a4adf2b"},"vehicle_type_id":"4","last_reported":1769017524,"current_range_meters":4000,"station_id":"ce4bh3p2rcd13ifvqdp0","pricing_plan_id":"cebpf4jnsgd1na2vs0mg"},{"bike_id":"5445ee27-e4be-4675-b622-fd84ed7ee8e7","system_id":"levelo_inurba_marseille","lat":43.28448,"lon":5.39205,"is_reserved":false,"is_disabled":false,"rental_uris":{"android":"levelo://app?vid=5445ee27-e4be-4675-b622-fd84ed7ee8e7","ios":"levelo://app?vid=5445ee27-e4be-4675-b622-fd84ed7ee8e7"},"vehicle_type_id":"4","last_reported":1769017524,"current_range_meters":4000,"station_id":"ce4bhoh2rcd13ifvqh5g","pricing_plan_id":"cebpf4jnsgd1na2vs0mg"},{"bike_id":"d89723de-e603-4547-b826-b6b41cf5109c","system_id":"levelo_inurba_marseille","lat":43.24655,"lon":5.38156,"is_reserved":false,"is_disabled":false,"rental_uris":{"android":"levelo://app?vid=d89723de-e603-4547-b826-b6b41cf5109c","ios":"levelo://app?vid=d89723de-e603-4547-b826-b6b41cf5109c"},"vehicle_type_id":"4","last_reported":1769017524,"current_range_meters":4000,"station_id":"ce4bhih2rcd13ifvqfr0","pricing_plan_id":"cebpf4jnsgd1na2vs0mg"},{"bike_id":"6ded5397-c2f0-42e8-b246-f33d3955879d","system_id":"levelo_inurba_marseille","lat":43.2859,"lon":5.39886,"is_reserved":false,"is_disabled":false,"rental_uris":{"android":"levelo://app?vid=6ded5397-c2f0-42e8-b246-f33d3955879d","ios":"levelo://app?vid=6ded5397-c2f0-42e8-b246-f33d3955879d"},"vehicle_type_id":"4","last_reported":1769017524,"current_range_meters":4400,"station_id":"st_d4a7ka997mjs738ck50g","pricing_plan_id":"cebpf4jnsgd1na2vs0mg"},{"bike_id":"6350f5d4-7761-4468-bb7f-cdf46e78a4e2","system_id":"levelo_inurba_marseille","lat":43.27915,"lon":5.39581,"is_reserved":false,"is_disabled":false,"rental_uris":{"android":"levelo://app?vid=6350f5d4-7761-4468-bb7f-cdf46e78a4e2","ios":"levelo://app?vid=6350f5d4-7761-4468-bb7f-cdf46e78a4e2"},"vehicle_type_id":"4","last_reported":1769017524,"current_range_meters":4400,"station_id":"ce4bhf92rcd13ifvqf40","pricing_plan_id":"cebpf4jnsgd1na2vs0mg"},{"bike_id":"be2dffc9-8dbc-4271-91b0-e4d805ff071b","system_id":"levelo_inurba_marseille","lat":43.24083,"lon":5.37752,"is_reserved":false,"is_disabled":false,"rental_uris":{"android":"levelo://app?vid=be2dffc9-8dbc-4271-91b0-e4d805ff071b","ios":"levelo://app?vid=be2dffc9-8dbc-4271-91b0-e4d805ff071b"},"vehicle_type_id":"4","last_reported":1769017524,"current_range_meters":4400,"station_id":"ce4bhnp2rcd13ifvqgvg","pricing_plan_id":"cebpf4jnsgd1na2vs0mg"},{"bike_id":"fb90fa15-2592-4ccc-b435-09066c897f87","system_id":"levelo_inurba_marseille","lat":43.31072,"lon":5.38342,"is_reserved":false,"is_disabled":false,"rental_uris":{"android":"levelo://app?vid=fb90fa15-2592-4ccc-b435-09066c897f87","ios":"levelo://app?vid=fb90fa15-2592-4ccc-b435-09066c897f87"},"vehicle_type_id":"4","last_reported":1769017524,"current_range_meters":4400,"station_id":"ce4bgv92rcd13ifvqcr0","pricing_plan_id":"cebpf4jnsgd1na2vs0mg"},{"bike_id":"a6162ebd-92d7-418c-bf32-eea6d9cd65e5","system_id":"levelo_inurba_marseille","lat":43.28461,"lon":5.35885,"is_reserved":false,"is_disabled":false,"rental_uris":{"android":"levelo://app?vid=a6162ebd-92d7-418c-bf32-eea6d9cd65e5","ios":"levelo://app?vid=a6162ebd-92d7-418c-bf32-eea6d9cd65e5"},"vehicle_type_id":"4","last_reported":1769017524,"current_range_meters":4400,"station_id":"ce4bhah2rcd13ifvqei0","pricing_plan_id":"cebpf4jnsgd1na2vs0mg"},{"bike_id":"34c0e104-8ac5-4f79-b594-51b7631e1c5d","system_id":"levelo_inurba_marseille","lat":43.29967,"lon":5.37155,"is_reserved":false,"is_disabled":false,"rental_uris":{"android":"levelo://app?vid=34c0e104-8ac5-4f79-b594-51b7631e1c5d","ios":"levelo://app?vid=34c0e104-8ac5-4f79-b594-51b7631e1c5d"},"vehicle_type_id":"4","last_reported":1769017524,"current_range_meters":4400,"station_id":"ce4bgr92rcd13ifvqc7g","pricing_plan_id":"cebpf4jnsgd1na2vs0mg"},{"bike_id":"e33484e0-7a35-4b93-ab20-96b6be2bd7f2","system_id":"levelo_inurba_marseille","lat":43.317544,"lon":5.39021,"is_reserved":false,"is_disabled":false,"rental_uris":{"android":"levelo://app?vid=e33484e0-7a35-4b93-ab20-96b6be2bd7f2","ios":"levelo://app?vid=e33484e0-7a35-4b93-ab20-96b6be2bd7f2"},"vehicle_type_id":"4","last_reported":1769017524,"current_range_meters":4400,"station_id":"ce4bhqp2rcd13ifvqhng","pricing_plan_id":"cebpf4jnsgd1na2vs0mg"},{"bike_id":"ba5cf8bf-3fab-4906-a539-9829815d5bcb","system_id":"levelo_inurba_marseille","lat":43.27061,"lon":5.40254,"is_reserved":false,"is_disabled":false,"rental_uris":{"android":"levelo://app?vid=ba5cf8bf-3fab-4906-a539-9829815d5bcb","ios":"levelo://app?vid=ba5cf8bf-3fab-4906-a539-9829815d5bcb"},"vehicle_type_id":"4","last_reported":1769017524,"current_range_meters":4400,"station_id":"ce4bhk92rcd13ifvqgc0","pricing_plan_id":"cebpf4jnsgd1na2vs0mg"},{"bike_id":"5e6a2e23-cc18-498f-9f67-276968f75f61","system_id":"levelo_inurba_marseille","lat":43.27429,"lon":5.3941,"is_reserved":false,"is_disabled":false,"rental_uris":{"android":"levelo://app?vid=5e6a2e23-cc18-498f-9f67-276968f75f61","ios":"levelo://app?vid=5e6a2e23-cc18-498f-9f67-276968f75f61"},"vehicle_type_id":"4","last_reported":1769017524,"current_range_meters":4400,"station_id":"ce4bhdp2rcd13ifvqf20","pricing_plan_id":"cebpf4jnsgd1na2vs0mg"},{"bike_id":"8fd37eb2-3b65-4481-aaea-413cb5168da8","system_id":"levelo_inurba_marseille","lat":43.333701,"lon":5.410674,"is_reserved":false,"is_disabled":false,"rental_uris":{"android":"levelo://app?vid=8fd37eb2-3b65-4481-aaea-413cb5168da8","ios":"levelo://app?vid=8fd37eb2-3b65-4481-aaea-413cb5168da8"},"vehicle_type_id":"4","last_reported":1769017524,"current_range_meters":4400,"station_id":"","pricing_plan_id":"cebpf4jnsgd1na2vs0mg"},{"bike_id":"ae4cbac6-6846-4173-b883-6d8e161f66d9","system_id":"levelo_inurba_marseille","lat":43.26465,"lon":5.3954,"is_reserved":false,"is_disabled":false,"rental_uris":{"android":"levelo://app?vid=ae4cbac6-6846-4173-b883-6d8e161f66d9","ios":"levelo://app?vid=ae4cbac6-6846-4173-b883-6d8e161f66d9"},"vehicle_type_id":"4","last_reported":1769017524,"current_range_meters":4400,"station_id":"ce4bhi12rcd13ifvqfq0","pricing_plan_id":"cebpf4jnsgd1na2vs0mg"},{"bike_id":"75d212f5-2dae-4b21-9e67-495cb3723ca2","system_id":"levelo_inurba_marseille","lat":43.23968,"lon":5.36629,"is_reserved":false,"is_disabled":false,"rental_uris":{"android":"levelo://app?vid=75d212f5-2dae-4b21-9e67-495cb3723ca2","ios":"levelo://app?vid=75d212f5-2dae-4b21-9e67-495cb3723ca2"},"vehicle_type_id":"4","last_reported":1769017524,"current_range_meters":4400,"station_id":"ce4bhi12rcd13ifvqfp0","pricing_plan_id":"cebpf4jnsgd1na2vs0mg"},{"bike_id":"38317d29-d34c-4881-8240-77c6cf70dc5c","system_id":"levelo_inurba_marseille","lat":43.29002,"lon":5.35605,"is_reserved":false,"is_disabled":false,"rental_uris":{"android":"levelo://app?vid=38317d29-d34c-4881-8240-77c6cf70dc5c","ios":"levelo://app?vid=38317d29-d34c-4881-8240-77c6cf70dc5c"},"vehicle_type_id":"4","last_reported":1769017524,"current_range_meters":4400,"station_id":"ce4bhb92rcd13ifvqen0","pricing_plan_id":"cebpf4jnsgd1na2vs0mg"},{"bike_id":"8071b732-6495-4355-8bd2-d391f59dfffd","system_id":"levelo_inurba_marseille","lat":43.21745,"lon":5.34584,"is_reserved":false,"is_disabled":false,"rental_uris":{"android":"levelo://app?vid=8071b732-6495-4355-8bd2-d391f59dfffd","ios":"levelo://app?vid=8071b732-6495-4355-8bd2-d391f59dfffd"},"vehicle_type_id":"4","last_reported":1769017524,"current_range_meters":4400,"station_id":"","pricing_plan_id":"cebpf4jnsgd1na2vs0mg"},{"bike_id":"a2424baa-0e5e-4ed2-9ae6-78591e46955c","system_id":"levelo_inurba_marseille","lat":43.28477,"lon":5.48391,"is_reserved":false,"is_disabled":false,"rental_uris":{"android":"levelo://app?vid=a2424baa-0e5e-4ed2-9ae6-78591e46955c","ios":"levelo://app?vid=a2424baa-0e5e-4ed2-9ae6-78591e46955c"},"vehicle_type_id":"4","last_reported":1769017524,"current_range_meters":4400,"station_id":"st_d3svhcjqgbts73a3dn0g","pricing_plan_id":"cebpf4jnsgd1na2vs0mg"},{"bike_id":"57fbe3ca-f98b-4c21-be4e-b24c928dc094","system_id":"levelo_inurba_marseille","lat":43.279977,"lon":5.400101,"is_reserved":false,"is_disabled":false,"rental_uris":{"android":"levelo://app?vid=57fbe3ca-f98b-4c21-be4e-b24c928dc094","ios":"levelo://app?vid=57fbe3ca-f98b-4c21-be4e-b24c928dc094"},"vehicle_type_id":"4","last_reported":1769017524,"current_range_meters":4400,"station_id":"ce4bho92rcd13ifvqh4g","pricing_plan_id":"cebpf4jnsgd1na2vs0mg"},{"bike_id":"7f57e4b7-adcc-40f6-a2f9-1294ef7abba0","system_id":"levelo_inurba_marseille","lat":43.309055,"lon":5.368363,"is_reserved":false,"is_disabled":false,"rental_uris":{"android":"levelo://app?vid=7f57e4b7-adcc-40f6-a2f9-1294ef7abba0","ios":"levelo://app?vid=7f57e4b7-adcc-40f6-a2f9-1294ef7abba0"},"vehicle_type_id":"4","last_reported":1769017524,"current_range_meters":4800,"station_id":"ce4bgn92rcd13ifvqbvg","pricing_plan_id":"cebpf4jnsgd1na2vs0mg"},{"bike_id":"e9cf4d98-a47d-4cc7-82f6-b2e075f45c6a","system_id":"levelo_inurba_marseille","lat":43.22567,"lon":5.41611,"is_reserved":false,"is_disabled":false,"rental_uris":{"android":"levelo://app?vid=e9cf4d98-a47d-4cc7-82f6-b2e075f45c6a","ios":"levelo://app?vid=e9cf4d98-a47d-4cc7-82f6-b2e075f45c6a"},"vehicle_type_id":"4","last_reported":1769017524,"current_range_meters":4800,"station_id":"st_d2o4gvlbi1j2169b742g","pricing_plan_id":"cebpf4jnsgd1na2vs0mg"},{"bike_id":"8ddc3993-0403-4843-93e9-18ba2266df94","system_id":"levelo_inurba_marseille","lat":43.303025,"lon":5.392152,"is_reserved":false,"is_disabled":false,"rental_uris":{"android":"levelo://app?vid=8ddc3993-0403-4843-93e9-18ba2266df94","ios":"levelo://app?vid=8ddc3993-0403-4843-93e9-18ba2266df94"},"vehicle_type_id":"4","last_reported":1769017524,"current_range_meters":4800,"station_id":"ce4bgl12rcd13ifvqbo0","pricing_plan_id":"cebpf4jnsgd1na2vs0mg"},{"bike_id":"8069f374-6bb2-4df8-950d-be2e50fcd180","system_id":"levelo_inurba_marseille","lat":43.311227,"lon":5.377688,"is_reserved":false,"is_disabled":true,"rental_uris":{"android":"levelo://app?vid=8069f374-6bb2-4df8-950d-be2e50fcd180","ios":"levelo://app?vid=8069f374-6bb2-4df8-950d-be2e50fcd180"},"vehicle_type_id":"4","last_reported":1769017524,"current_range_meters":4800,"station_id":"ce4bgt92rcd13ifvqcg0","pricing_plan_id":"cebpf4jnsgd1na2vs0mg"},{"bike_id":"5f6a0a0c-aaf7-41c1-be98-33b50db68fe6","system_id":"levelo_inurba_marseille","lat":43.26468,"lon":5.39541,"is_reserved":false,"is_disabled":true,"rental_uris":{"android":"levelo://app?vid=5f6a0a0c-aaf7-41c1-be98-33b50db68fe6","ios":"levelo://app?vid=5f6a0a0c-aaf7-41c1-be98-33b50db68fe6"},"vehicle_type_id":"4","last_reported":1769017524,"current_range_meters":4800,"station_id":"ce4bhi12rcd13ifvqfq0","pricing_plan_id":"cebpf4jnsgd1na2vs0mg"},{"bike_id":"50ff2d9d-f5d9-4ccb-87cb-b3fe162d64e5","system_id":"levelo_inurba_marseille","lat":43.29275,"lon":5.36837,"is_reserved":false,"is_disabled":false,"rental_uris":{"android":"levelo://app?vid=50ff2d9d-f5d9-4ccb-87cb-b3fe162d64e5","ios":"levelo://app?vid=50ff2d9d-f5d9-4ccb-87cb-b3fe162d64e5"},"vehicle_type_id":"4","last_reported":1769017524,"current_range_meters":4800,"station_id":"ce4bhbp2rcd13ifvqesg","pricing_plan_id":"cebpf4jnsgd1na2vs0mg"},{"bike_id":"de824407-e0fb-48a0-b1ab-637082cede3f","system_id":"levelo_inurba_marseille","lat":43.25107,"lon":5.40326,"is_reserved":false,"is_disabled":false,"rental_uris":{"android":"levelo://app?vid=de824407-e0fb-48a0-b1ab-637082cede3f","ios":"levelo://app?vid=de824407-e0fb-48a0-b1ab-637082cede3f"},"vehicle_type_id":"4","last_reported":1769017524,"current_range_meters":4800,"station_id":"ce4bhlh2rcd13ifvqgig","pricing_plan_id":"cebpf4jnsgd1na2vs0mg"},{"bike_id":"4e8d555e-b9e3-4ccb-8544-1c38eef5dd70","system_id":"levelo_inurba_marseille","lat":43.26501,"lon":5.39529,"is_reserved":false,"is_disabled":false,"rental_uris":{"android":"levelo://app?vid=4e8d555e-b9e3-4ccb-8544-1c38eef5dd70","ios":"levelo://app?vid=4e8d555e-b9e3-4ccb-8544-1c38eef5dd70"},"vehicle_type_id":"4","last_reported":1769017524,"current_range_meters":4800,"station_id":"ce4bhi12rcd13ifvqfq0","pricing_plan_id":"cebpf4jnsgd1na2vs0mg"},{"bike_id":"09e4c095-60db-401b-8871-2bd566e771ec","system_id":"levelo_inurba_marseille","lat":43.23961,"lon":5.36633,"is_reserved":false,"is_disabled":false,"rental_uris":{"android":"levelo://app?vid=09e4c095-60db-401b-8871-2bd566e771ec","ios":"levelo://app?vid=09e4c095-60db-401b-8871-2bd566e771ec"},"vehicle_type_id":"4","last_reported":1769017524,"current_range_meters":4800,"station_id":"ce4bhi12rcd13ifvqfp0","pricing_plan_id":"cebpf4jnsgd1na2vs0mg"},{"bike_id":"1c9f2e94-25b8-432d-aac8-42f703544d49","system_id":"levelo_inurba_marseille","lat":43.225325,"lon":5.34829,"is_reserved":false,"is_disabled":false,"rental_uris":{"android":"levelo://app?vid=1c9f2e94-25b8-432d-aac8-42f703544d49","ios":"levelo://app?vid=1c9f2e94-25b8-432d-aac8-42f703544d49"},"vehicle_type_id":"4","last_reported":1769017524,"current_range_meters":4800,"station_id":"","pricing_plan_id":"cebpf4jnsgd1na2vs0mg"},{"bike_id":"f1d361c8-08f0-4ae2-b277-236dec5ef5cd","system_id":"levelo_inurba_marseille","lat":43.241846,"lon":5.397272,"is_reserved":false,"is_disabled":false,"rental_uris":{"android":"levelo://app?vid=f1d361c8-08f0-4ae2-b277-236dec5ef5cd","ios":"levelo://app?vid=f1d361c8-08f0-4ae2-b277-236dec5ef5cd"},"vehicle_type_id":"4","last_reported":1769017524,"current_range_meters":5600,"station_id":"ce4bhn12rcd13ifvqgpg","pricing_plan_id":"cebpf4jnsgd1na2vs0mg"},{"bike_id":"2c764d7e-d42c-4007-b5cd-02a2acd16493","system_id":"levelo_inurba_marseille","lat":43.29032,"lon":5.38648,"is_reserved":false,"is_disabled":false,"rental_uris":{"android":"levelo://app?vid=2c764d7e-d42c-4007-b5cd-02a2acd16493","ios":"levelo://app?vid=2c764d7e-d42c-4007-b5cd-02a2acd16493"},"vehicle_type_id":"4","last_reported":1769017524,"current_range_meters":5600,"station_id":"ce4bh4p2rcd13ifvqe0g","pricing_plan_id":"cebpf4jnsgd1na2vs0mg"},{"bike_id":"fb2014f7-1d5f-4062-89cd-f41381344fc0","system_id":"levelo_inurba_marseille","lat":43.26912,"lon":5.40264,"is_reserved":false,"is_disabled":false,"rental_uris":{"android":"levelo://app?vid=fb2014f7-1d5f-4062-89cd-f41381344fc0","ios":"levelo://app?vid=fb2014f7-1d5f-4062-89cd-f41381344fc0"},"vehicle_type_id":"4","last_reported":1769017524,"current_range_meters":5600,"station_id":"cjm6bp8fraef2m0cb0m0","pricing_plan_id":"cebpf4jnsgd1na2vs0mg"},{"bike_id":"951d8829-e976-4f3c-b7cf-ce8d37c31a72","system_id":"levelo_inurba_marseille","lat":43.26566,"lon":5.39045,"is_reserved":false,"is_disabled":false,"rental_uris":{"android":"levelo://app?vid=951d8829-e976-4f3c-b7cf-ce8d37c31a72","ios":"levelo://app?vid=951d8829-e976-4f3c-b7cf-ce8d37c31a72"},"vehicle_type_id":"4","last_reported":1769017524,"current_range_meters":5600,"station_id":"ce4bhe12rcd13ifvqf30","pricing_plan_id":"cebpf4jnsgd1na2vs0mg"},{"bike_id":"f32f99ba-3ead-4e04-9bcb-0439bdc4e6db","system_id":"levelo_inurba_marseille","lat":43.29875,"lon":5.40312,"is_reserved":false,"is_disabled":false,"rental_uris":{"android":"levelo://app?vid=f32f99ba-3ead-4e04-9bcb-0439bdc4e6db","ios":"levelo://app?vid=f32f99ba-3ead-4e04-9bcb-0439bdc4e6db"},"vehicle_type_id":"4","last_reported":1769017524,"current_range_meters":5600,"station_id":"","pricing_plan_id":"cebpf4jnsgd1na2vs0mg"},{"bike_id":"93c7a025-127d-40b2-862c-98919fbc02da","system_id":"levelo_inurba_marseille","lat":43.23177,"lon":5.39968,"is_reserved":false,"is_disabled":false,"rental_uris":{"android":"levelo://app?vid=93c7a025-127d-40b2-862c-98919fbc02da","ios":"levelo://app?vid=93c7a025-127d-40b2-862c-98919fbc02da"},"vehicle_type_id":"4","last_reported":1769017524,"current_range_meters":5600,"station_id":"ce4bhn12rcd13ifvqgqg","pricing_plan_id":"cebpf4jnsgd1na2vs0mg"},{"bike_id":"81e064df-319d-4cae-bb05-3e047943ab91","system_id":"levelo_inurba_marseille","lat":43.24086,"lon":5.37754,"is_reserved":false,"is_disabled":false,"rental_uris":{"android":"levelo://app?vid=81e064df-319d-4cae-bb05-3e047943ab91","ios":"levelo://app?vid=81e064df-319d-4cae-bb05-3e047943ab91"},"vehicle_type_id":"4","last_reported":1769017524,"current_range_meters":5600,"station_id":"ce4bhnp2rcd13ifvqgvg","pricing_plan_id":"cebpf4jnsgd1na2vs0mg"},{"bike_id":"36fa4b07-032d-466e-8745-2fbc3f9d7d71","system_id":"levelo_inurba_marseille","lat":43.295344,"lon":5.385464,"is_reserved":false,"is_disabled":false,"rental_uris":{"android":"levelo://app?vid=36fa4b07-032d-466e-8745-2fbc3f9d7d71","ios":"levelo://app?vid=36fa4b07-032d-466e-8745-2fbc3f9d7d71"},"vehicle_type_id":"4","last_reported":1769017524,"current_range_meters":5600,"station_id":"","pricing_plan_id":"cebpf4jnsgd1na2vs0mg"},{"bike_id":"bc53fded-5652-4ab5-920f-ec142a69c388","system_id":"levelo_inurba_marseille","lat":43.29788,"lon":5.393619,"is_reserved":false,"is_disabled":false,"rental_uris":{"android":"levelo://app?vid=bc53fded-5652-4ab5-920f-ec142a69c388","ios":"levelo://app?vid=bc53fded-5652-4ab5-920f-ec142a69c388"},"vehicle_type_id":"4","last_reported":1769017524,"current_range_meters":5600,"station_id":"chh1huq6cuj3fo74tm60","pricing_plan_id":"cebpf4jnsgd1na2vs0mg"},{"bike_id":"1e9683fd-3419-4707-ab97-e3b80d5f4bea","system_id":"levelo_inurba_marseille","lat":43.27158,"lon":5.40458,"is_reserved":false,"is_disabled":false,"rental_uris":{"android":"levelo://app?vid=1e9683fd-3419-4707-ab97-e3b80d5f4bea","ios":"levelo://app?vid=1e9683fd-3419-4707-ab97-e3b80d5f4bea"},"vehicle_type_id":"4","last_reported":1769017524,"current_range_meters":5600,"station_id":"","pricing_plan_id":"cebpf4jnsgd1na2vs0mg"},{"bike_id":"10401468-a1c0-4808-9a86-ca28e16c0382","system_id":"levelo_inurba_marseille","lat":43.27959,"lon":5.38756,"is_reserved":false,"is_disabled":false,"rental_uris":{"android":"levelo://app?vid=10401468-a1c0-4808-9a86-ca28e16c0382","ios":"levelo://app?vid=10401468-a1c0-4808-9a86-ca28e16c0382"},"vehicle_type_id":"4","last_reported":1769017524,"current_range_meters":5600,"station_id":"ce4bhg12rcd13ifvqf80","pricing_plan_id":"cebpf4jnsgd1na2vs0mg"},{"bike_id":"29bfec45-ad76-429c-882a-34b6f5ca4191","system_id":"levelo_inurba_marseille","lat":43.32098,"lon":5.36799,"is_reserved":false,"is_disabled":false,"rental_uris":{"android":"levelo://app?vid=29bfec45-ad76-429c-882a-34b6f5ca4191","ios":"levelo://app?vid=29bfec45-ad76-429c-882a-34b6f5ca4191"},"vehicle_type_id":"4","last_reported":1769017524,"current_range_meters":5600,"station_id":"ce4bhrh2rcd13ifvqhug","pricing_plan_id":"cebpf4jnsgd1na2vs0mg"},{"bike_id":"f4ad0bce-9c2f-4a46-a697-7832a01fa382","system_id":"levelo_inurba_marseille","lat":43.2756,"lon":5.39238,"is_reserved":false,"is_disabled":false,"rental_uris":{"android":"levelo://app?vid=f4ad0bce-9c2f-4a46-a697-7832a01fa382","ios":"levelo://app?vid=f4ad0bce-9c2f-4a46-a697-7832a01fa382"},"vehicle_type_id":"4","last_reported":1769017524,"current_range_meters":5600,"station_id":"ce4bhdp2rcd13ifvqf20","pricing_plan_id":"cebpf4jnsgd1na2vs0mg"},{"bike_id":"4d755896-9582-4758-91af-66367ae21645","system_id":"levelo_inurba_marseille","lat":43.28924,"lon":5.38391,"is_reserved":false,"is_disabled":false,"rental_uris":{"android":"levelo://app?vid=4d755896-9582-4758-91af-66367ae21645","ios":"levelo://app?vid=4d755896-9582-4758-91af-66367ae21645"},"vehicle_type_id":"4","last_reported":1769017524,"current_range_meters":5600,"station_id":"ce4bh612rcd13ifvqe6g","pricing_plan_id":"cebpf4jnsgd1na2vs0mg"},{"bike_id":"e9a42ead-0d12-40f0-b190-b1b6a6eb7802","system_id":"levelo_inurba_marseille","lat":43.24805,"lon":5.37456,"is_reserved":false,"is_disabled":false,"rental_uris":{"android":"levelo://app?vid=e9a42ead-0d12-40f0-b190-b1b6a6eb7802","ios":"levelo://app?vid=e9a42ead-0d12-40f0-b190-b1b6a6eb7802"},"vehicle_type_id":"4","last_reported":1769017524,"current_range_meters":5600,"station_id":"ce4bhgh2rcd13ifvqfb0","pricing_plan_id":"cebpf4jnsgd1na2vs0mg"},{"bike_id":"176ed226-8266-4b4b-a453-b4e4f11a848d","system_id":"levelo_inurba_marseille","lat":43.24385,"lon":5.37054,"is_reserved":false,"is_disabled":false,"rental_uris":{"android":"levelo://app?vid=176ed226-8266-4b4b-a453-b4e4f11a848d","ios":"levelo://app?vid=176ed226-8266-4b4b-a453-b4e4f11a848d"},"vehicle_type_id":"4","last_reported":1769017524,"current_range_meters":5600,"station_id":"ce4bhhh2rcd13ifvqfk0","pricing_plan_id":"cebpf4jnsgd1na2vs0mg"},{"bike_id":"92627d90-ac48-4227-8b3f-dad6aa59d4b3","system_id":"levelo_inurba_marseille","lat":43.21182,"lon":5.35075,"is_reserved":false,"is_disabled":false,"rental_uris":{"android":"levelo://app?vid=92627d90-ac48-4227-8b3f-dad6aa59d4b3","ios":"levelo://app?vid=92627d90-ac48-4227-8b3f-dad6aa59d4b3"},"vehicle_type_id":"4","last_reported":1769017524,"current_range_meters":6000,"station_id":"","pricing_plan_id":"cebpf4jnsgd1na2vs0mg"},{"bike_id":"5ccd4b49-397b-4ce5-a22c-752ca0560289","system_id":"levelo_inurba_marseille","lat":43.295726,"lon":5.399726,"is_reserved":false,"is_disabled":false,"rental_uris":{"android":"levelo://app?vid=5ccd4b49-397b-4ce5-a22c-752ca0560289","ios":"levelo://app?vid=5ccd4b49-397b-4ce5-a22c-752ca0560289"},"vehicle_type_id":"4","last_reported":1769017524,"current_range_meters":6000,"station_id":"ce4bh312rcd13ifvqdj0","pricing_plan_id":"cebpf4jnsgd1na2vs0mg"},{"bike_id":"fc4e3a66-55ac-450e-a159-861862597655","system_id":"levelo_inurba_marseille","lat":43.273331,"lon":5.390789,"is_reserved":false,"is_disabled":false,"rental_uris":{"android":"levelo://app?vid=fc4e3a66-55ac-450e-a159-861862597655","ios":"levelo://app?vid=fc4e3a66-55ac-450e-a159-861862597655"},"vehicle_type_id":"4","last_reported":1769017524,"current_range_meters":6000,"station_id":"ce4bhgp2rcd13ifvqfe0","pricing_plan_id":"cebpf4jnsgd1na2vs0mg"},{"bike_id":"99d65f09-c0e6-4f0f-b72f-6e110c0f1bd4","system_id":"levelo_inurba_marseille","lat":43.29009,"lon":5.37624,"is_reserved":false,"is_disabled":false,"rental_uris":{"android":"levelo://app?vid=99d65f09-c0e6-4f0f-b72f-6e110c0f1bd4","ios":"levelo://app?vid=99d65f09-c0e6-4f0f-b72f-6e110c0f1bd4"},"vehicle_type_id":"4","last_reported":1769017524,"current_range_meters":6000,"station_id":"ce4bh692rcd13ifvqe90","pricing_plan_id":"cebpf4jnsgd1na2vs0mg"},{"bike_id":"9fe9b7fa-bf5e-456b-b148-d56a572e2392","system_id":"levelo_inurba_marseille","lat":43.22564,"lon":5.41621,"is_reserved":false,"is_disabled":false,"rental_uris":{"android":"levelo://app?vid=9fe9b7fa-bf5e-456b-b148-d56a572e2392","ios":"levelo://app?vid=9fe9b7fa-bf5e-456b-b148-d56a572e2392"},"vehicle_type_id":"4","last_reported":1769017524,"current_range_meters":6000,"station_id":"st_d2o4gvlbi1j2169b742g","pricing_plan_id":"cebpf4jnsgd1na2vs0mg"},{"bike_id":"2351e1c9-97c0-42ed-8ba7-93d168c64106","system_id":"levelo_inurba_marseille","lat":43.297712,"lon":5.427746,"is_reserved":false,"is_disabled":false,"rental_uris":{"android":"levelo://app?vid=2351e1c9-97c0-42ed-8ba7-93d168c64106","ios":"levelo://app?vid=2351e1c9-97c0-42ed-8ba7-93d168c64106"},"vehicle_type_id":"4","last_reported":1769017524,"current_range_meters":6000,"station_id":"st_d3md5207bmas73dh9klg","pricing_plan_id":"cebpf4jnsgd1na2vs0mg"},{"bike_id":"00729f81-defe-4949-ab38-da427b717ebf","system_id":"levelo_inurba_marseille","lat":43.26212,"lon":5.40449,"is_reserved":false,"is_disabled":false,"rental_uris":{"android":"levelo://app?vid=00729f81-defe-4949-ab38-da427b717ebf","ios":"levelo://app?vid=00729f81-defe-4949-ab38-da427b717ebf"},"vehicle_type_id":"4","last_reported":1769017524,"current_range_meters":6000,"station_id":"ce4bhmh2rcd13ifvqgmg","pricing_plan_id":"cebpf4jnsgd1na2vs0mg"},{"bike_id":"8aff6676-2b7b-4e1c-8fd2-cdf2f7d7e594","system_id":"levelo_inurba_marseille","lat":43.272098,"lon":5.391841,"is_reserved":false,"is_disabled":false,"rental_uris":{"android":"levelo://app?vid=8aff6676-2b7b-4e1c-8fd2-cdf2f7d7e594","ios":"levelo://app?vid=8aff6676-2b7b-4e1c-8fd2-cdf2f7d7e594"},"vehicle_type_id":"4","last_reported":1769017524,"current_range_meters":6000,"station_id":"ce4bhhp2rcd13ifvqfm0","pricing_plan_id":"cebpf4jnsgd1na2vs0mg"},{"bike_id":"f30fc8da-417f-42e9-86d5-d77b18ff7687","system_id":"levelo_inurba_marseille","lat":43.30797,"lon":5.38131,"is_reserved":false,"is_disabled":false,"rental_uris":{"android":"levelo://app?vid=f30fc8da-417f-42e9-86d5-d77b18ff7687","ios":"levelo://app?vid=f30fc8da-417f-42e9-86d5-d77b18ff7687"},"vehicle_type_id":"4","last_reported":1769017524,"current_range_meters":6000,"station_id":"ce4bgt12rcd13ifvqce0","pricing_plan_id":"cebpf4jnsgd1na2vs0mg"},{"bike_id":"56496f15-285b-4dff-92b3-54ffdff3e399","system_id":"levelo_inurba_marseille","lat":43.2683,"lon":5.39607,"is_reserved":false,"is_disabled":false,"rental_uris":{"android":"levelo://app?vid=56496f15-285b-4dff-92b3-54ffdff3e399","ios":"levelo://app?vid=56496f15-285b-4dff-92b3-54ffdff3e399"},"vehicle_type_id":"4","last_reported":1769017524,"current_range_meters":6000,"station_id":"","pricing_plan_id":"cebpf4jnsgd1na2vs0mg"},{"bike_id":"6b0a7910-4f3c-47d6-b165-5319282e4ed9","system_id":"levelo_inurba_marseille","lat":43.33529,"lon":5.37461,"is_reserved":false,"is_disabled":false,"rental_uris":{"android":"levelo://app?vid=6b0a7910-4f3c-47d6-b165-5319282e4ed9","ios":"levelo://app?vid=6b0a7910-4f3c-47d6-b165-5319282e4ed9"},"vehicle_type_id":"4","last_reported":1769017524,"current_range_meters":6000,"station_id":"","pricing_plan_id":"cebpf4jnsgd1na2vs0mg"},{"bike_id":"12d50624-36fb-429d-be6d-b5122cf2de21","system_id":"levelo_inurba_marseille","lat":43.31744,"lon":5.38993,"is_reserved":false,"is_disabled":false,"rental_uris":{"android":"levelo://app?vid=12d50624-36fb-429d-be6d-b5122cf2de21","ios":"levelo://app?vid=12d50624-36fb-429d-be6d-b5122cf2de21"},"vehicle_type_id":"4","last_reported":1769017524,"current_range_meters":6000,"station_id":"ce4bhqp2rcd13ifvqhng","pricing_plan_id":"cebpf4jnsgd1na2vs0mg"},{"bike_id":"f72efe51-12d3-4c91-8eb1-b0d276f7cb47","system_id":"levelo_inurba_marseille","lat":43.248039,"lon":5.374545,"is_reserved":false,"is_disabled":false,"rental_uris":{"android":"levelo://app?vid=f72efe51-12d3-4c91-8eb1-b0d276f7cb47","ios":"levelo://app?vid=f72efe51-12d3-4c91-8eb1-b0d276f7cb47"},"vehicle_type_id":"4","last_reported":1769017524,"current_range_meters":6000,"station_id":"ce4bhgh2rcd13ifvqfb0","pricing_plan_id":"cebpf4jnsgd1na2vs0mg"},{"bike_id":"6d09b170-d748-4db4-94ae-370b751350fc","system_id":"levelo_inurba_marseille","lat":43.28936,"lon":5.36636,"is_reserved":false,"is_disabled":false,"rental_uris":{"android":"levelo://app?vid=6d09b170-d748-4db4-94ae-370b751350fc","ios":"levelo://app?vid=6d09b170-d748-4db4-94ae-370b751350fc"},"vehicle_type_id":"4","last_reported":1769017524,"current_range_meters":6000,"station_id":"ce4bhap2rcd13ifvqek0","pricing_plan_id":"cebpf4jnsgd1na2vs0mg"},{"bike_id":"f5df5dab-005e-4afd-ac33-6b6937a1daf8","system_id":"levelo_inurba_marseille","lat":43.279959,"lon":5.400183,"is_reserved":false,"is_disabled":false,"rental_uris":{"android":"levelo://app?vid=f5df5dab-005e-4afd-ac33-6b6937a1daf8","ios":"levelo://app?vid=f5df5dab-005e-4afd-ac33-6b6937a1daf8"},"vehicle_type_id":"4","last_reported":1769017524,"current_range_meters":6400,"station_id":"ce4bho92rcd13ifvqh4g","pricing_plan_id":"cebpf4jnsgd1na2vs0mg"},{"bike_id":"803733c4-b819-4927-bf05-40aac469076a","system_id":"levelo_inurba_marseille","lat":43.29621,"lon":5.37157,"is_reserved":false,"is_disabled":false,"rental_uris":{"android":"levelo://app?vid=803733c4-b819-4927-bf05-40aac469076a","ios":"levelo://app?vid=803733c4-b819-4927-bf05-40aac469076a"},"vehicle_type_id":"4","last_reported":1769017524,"current_range_meters":6400,"station_id":"ce4bgnh2rcd13ifvqc0g","pricing_plan_id":"cebpf4jnsgd1na2vs0mg"},{"bike_id":"c9eb4a7c-b5cf-4b11-bd8b-0d94782c2293","system_id":"levelo_inurba_marseille","lat":43.25571,"lon":5.38228,"is_reserved":false,"is_disabled":false,"rental_uris":{"android":"levelo://app?vid=c9eb4a7c-b5cf-4b11-bd8b-0d94782c2293","ios":"levelo://app?vid=c9eb4a7c-b5cf-4b11-bd8b-0d94782c2293"},"vehicle_type_id":"4","last_reported":1769017524,"current_range_meters":6400,"station_id":"ce4bhih2rcd13ifvqfs0","pricing_plan_id":"cebpf4jnsgd1na2vs0mg"},{"bike_id":"f73788f7-dec5-4308-a431-6e346b811946","system_id":"levelo_inurba_marseille","lat":43.301868,"lon":5.38056,"is_reserved":false,"is_disabled":false,"rental_uris":{"android":"levelo://app?vid=f73788f7-dec5-4308-a431-6e346b811946","ios":"levelo://app?vid=f73788f7-dec5-4308-a431-6e346b811946"},"vehicle_type_id":"4","last_reported":1769017524,"current_range_meters":6400,"station_id":"","pricing_plan_id":"cebpf4jnsgd1na2vs0mg"},{"bike_id":"7f4c43aa-f55e-410a-8834-b40a17232eb4","system_id":"levelo_inurba_marseille","lat":43.2619,"lon":5.37447,"is_reserved":false,"is_disabled":false,"rental_uris":{"android":"levelo://app?vid=7f4c43aa-f55e-410a-8834-b40a17232eb4","ios":"levelo://app?vid=7f4c43aa-f55e-410a-8834-b40a17232eb4"},"vehicle_type_id":"4","last_reported":1769017524,"current_range_meters":6400,"station_id":"ce4bhgp2rcd13ifvqfc0","pricing_plan_id":"cebpf4jnsgd1na2vs0mg"},{"bike_id":"5f477738-733e-4c98-961a-33429c5938fd","system_id":"levelo_inurba_marseille","lat":43.260586,"lon":5.393984,"is_reserved":false,"is_disabled":false,"rental_uris":{"android":"levelo://app?vid=5f477738-733e-4c98-961a-33429c5938fd","ios":"levelo://app?vid=5f477738-733e-4c98-961a-33429c5938fd"},"vehicle_type_id":"4","last_reported":1769017524,"current_range_meters":6400,"station_id":"ce4bhh92rcd13ifvqfj0","pricing_plan_id":"cebpf4jnsgd1na2vs0mg"},{"bike_id":"6f1b9a2a-353a-4450-9878-491b3917ba7d","system_id":"levelo_inurba_marseille","lat":43.26566,"lon":5.390084,"is_reserved":false,"is_disabled":false,"rental_uris":{"android":"levelo://app?vid=6f1b9a2a-353a-4450-9878-491b3917ba7d","ios":"levelo://app?vid=6f1b9a2a-353a-4450-9878-491b3917ba7d"},"vehicle_type_id":"4","last_reported":1769017524,"current_range_meters":6400,"station_id":"ce4bhe12rcd13ifvqf30","pricing_plan_id":"cebpf4jnsgd1na2vs0mg"},{"bike_id":"cd49692c-4008-4f7f-815f-119877d0dd64","system_id":"levelo_inurba_marseille","lat":43.27997,"lon":5.40009,"is_reserved":false,"is_disabled":false,"rental_uris":{"android":"levelo://app?vid=cd49692c-4008-4f7f-815f-119877d0dd64","ios":"levelo://app?vid=cd49692c-4008-4f7f-815f-119877d0dd64"},"vehicle_type_id":"4","last_reported":1769017524,"current_range_meters":6400,"station_id":"ce4bho92rcd13ifvqh4g","pricing_plan_id":"cebpf4jnsgd1na2vs0mg"},{"bike_id":"5bdad711-817a-42cc-84b1-10d4beae812a","system_id":"levelo_inurba_marseille","lat":43.2255,"lon":5.41621,"is_reserved":false,"is_disabled":false,"rental_uris":{"android":"levelo://app?vid=5bdad711-817a-42cc-84b1-10d4beae812a","ios":"levelo://app?vid=5bdad711-817a-42cc-84b1-10d4beae812a"},"vehicle_type_id":"4","last_reported":1769017524,"current_range_meters":6400,"station_id":"st_d2o4gvlbi1j2169b742g","pricing_plan_id":"cebpf4jnsgd1na2vs0mg"},{"bike_id":"3cb52365-3475-43ce-910a-74831879f7d9","system_id":"levelo_inurba_marseille","lat":43.25106,"lon":5.40319,"is_reserved":false,"is_disabled":false,"rental_uris":{"android":"levelo://app?vid=3cb52365-3475-43ce-910a-74831879f7d9","ios":"levelo://app?vid=3cb52365-3475-43ce-910a-74831879f7d9"},"vehicle_type_id":"4","last_reported":1769017524,"current_range_meters":6400,"station_id":"ce4bhlh2rcd13ifvqgig","pricing_plan_id":"cebpf4jnsgd1na2vs0mg"},{"bike_id":"8c9d9dd5-6ae3-4a8b-ab79-ea51ac5d3931","system_id":"levelo_inurba_marseille","lat":43.27999,"lon":5.41642,"is_reserved":false,"is_disabled":false,"rental_uris":{"android":"levelo://app?vid=8c9d9dd5-6ae3-4a8b-ab79-ea51ac5d3931","ios":"levelo://app?vid=8c9d9dd5-6ae3-4a8b-ab79-ea51ac5d3931"},"vehicle_type_id":"4","last_reported":1769017524,"current_range_meters":6400,"station_id":"ce4bho12rcd13ifvqh1g","pricing_plan_id":"cebpf4jnsgd1na2vs0mg"},{"bike_id":"73ed81be-ef1c-4945-8c5c-fd760cd0acd3","system_id":"levelo_inurba_marseille","lat":43.2987,"lon":5.39738,"is_reserved":false,"is_disabled":false,"rental_uris":{"android":"levelo://app?vid=73ed81be-ef1c-4945-8c5c-fd760cd0acd3","ios":"levelo://app?vid=73ed81be-ef1c-4945-8c5c-fd760cd0acd3"},"vehicle_type_id":"4","last_reported":1769017524,"current_range_meters":6400,"station_id":"ce4bh0h2rcd13ifvqd50","pricing_plan_id":"cebpf4jnsgd1na2vs0mg"},{"bike_id":"31c21be6-18ca-494d-8d01-2f205767068d","system_id":"levelo_inurba_marseille","lat":43.31867,"lon":5.37456,"is_reserved":false,"is_disabled":false,"rental_uris":{"android":"levelo://app?vid=31c21be6-18ca-494d-8d01-2f205767068d","ios":"levelo://app?vid=31c21be6-18ca-494d-8d01-2f205767068d"},"vehicle_type_id":"4","last_reported":1769017524,"current_range_meters":6400,"station_id":"","pricing_plan_id":"cebpf4jnsgd1na2vs0mg"},{"bike_id":"1b7535e7-29f2-4cef-a34e-eae7e23e0ac7","system_id":"levelo_inurba_marseille","lat":43.25687,"lon":5.41081,"is_reserved":false,"is_disabled":false,"rental_uris":{"android":"levelo://app?vid=1b7535e7-29f2-4cef-a34e-eae7e23e0ac7","ios":"levelo://app?vid=1b7535e7-29f2-4cef-a34e-eae7e23e0ac7"},"vehicle_type_id":"4","last_reported":1769017524,"current_range_meters":6400,"station_id":"ce4bhkp2rcd13ifvqgd0","pricing_plan_id":"cebpf4jnsgd1na2vs0mg"},{"bike_id":"0e37b52c-57cd-4fc7-b10e-ab1e434f4b99","system_id":"levelo_inurba_marseille","lat":43.29071,"lon":5.371589,"is_reserved":false,"is_disabled":false,"rental_uris":{"android":"levelo://app?vid=0e37b52c-57cd-4fc7-b10e-ab1e434f4b99","ios":"levelo://app?vid=0e37b52c-57cd-4fc7-b10e-ab1e434f4b99"},"vehicle_type_id":"4","last_reported":1769017524,"current_range_meters":6400,"station_id":"","pricing_plan_id":"cebpf4jnsgd1na2vs0mg"},{"bike_id":"38fdc6f7-8bc2-4eca-a052-22800321bb32","system_id":"levelo_inurba_marseille","lat":43.265591,"lon":5.390175,"is_reserved":false,"is_disabled":false,"rental_uris":{"android":"levelo://app?vid=38fdc6f7-8bc2-4eca-a052-22800321bb32","ios":"levelo://app?vid=38fdc6f7-8bc2-4eca-a052-22800321bb32"},"vehicle_type_id":"4","last_reported":1769017524,"current_range_meters":6400,"station_id":"","pricing_plan_id":"cebpf4jnsgd1na2vs0mg"},{"bike_id":"e6df6fb7-994b-4037-99d6-76175fe9a7d0","system_id":"levelo_inurba_marseille","lat":43.2318,"lon":5.39993,"is_reserved":false,"is_disabled":false,"rental_uris":{"android":"levelo://app?vid=e6df6fb7-994b-4037-99d6-76175fe9a7d0","ios":"levelo://app?vid=e6df6fb7-994b-4037-99d6-76175fe9a7d0"},"vehicle_type_id":"4","last_reported":1769017524,"current_range_meters":6400,"station_id":"ce4bhn12rcd13ifvqgqg","pricing_plan_id":"cebpf4jnsgd1na2vs0mg"},{"bike_id":"0f52188f-7530-4a1c-922c-967fa0cd99b4","system_id":"levelo_inurba_marseille","lat":43.279989,"lon":5.400072,"is_reserved":false,"is_disabled":false,"rental_uris":{"android":"levelo://app?vid=0f52188f-7530-4a1c-922c-967fa0cd99b4","ios":"levelo://app?vid=0f52188f-7530-4a1c-922c-967fa0cd99b4"},"vehicle_type_id":"4","last_reported":1769017524,"current_range_meters":6400,"station_id":"ce4bho92rcd13ifvqh4g","pricing_plan_id":"cebpf4jnsgd1na2vs0mg"},{"bike_id":"779c5370-daaa-4d54-ab12-1755b8458758","system_id":"levelo_inurba_marseille","lat":43.29213,"lon":5.40092,"is_reserved":false,"is_disabled":false,"rental_uris":{"android":"levelo://app?vid=779c5370-daaa-4d54-ab12-1755b8458758","ios":"levelo://app?vid=779c5370-daaa-4d54-ab12-1755b8458758"},"vehicle_type_id":"4","last_reported":1769017524,"current_range_meters":6400,"station_id":"","pricing_plan_id":"cebpf4jnsgd1na2vs0mg"},{"bike_id":"72e1655d-aec3-4349-93c1-06571442ed3a","system_id":"levelo_inurba_marseille","lat":43.24656,"lon":5.38161,"is_reserved":false,"is_disabled":false,"rental_uris":{"android":"levelo://app?vid=72e1655d-aec3-4349-93c1-06571442ed3a","ios":"levelo://app?vid=72e1655d-aec3-4349-93c1-06571442ed3a"},"vehicle_type_id":"4","last_reported":1769017524,"current_range_meters":6400,"station_id":"ce4bhih2rcd13ifvqfr0","pricing_plan_id":"cebpf4jnsgd1na2vs0mg"},{"bike_id":"09708090-eb01-48c4-a317-0b7bbbd48bc6","system_id":"levelo_inurba_marseille","lat":43.27679,"lon":5.36174,"is_reserved":false,"is_disabled":false,"rental_uris":{"android":"levelo://app?vid=09708090-eb01-48c4-a317-0b7bbbd48bc6","ios":"levelo://app?vid=09708090-eb01-48c4-a317-0b7bbbd48bc6"},"vehicle_type_id":"4","last_reported":1769017524,"current_range_meters":6400,"station_id":"","pricing_plan_id":"cebpf4jnsgd1na2vs0mg"},{"bike_id":"fd603ab1-7fba-4f8b-9938-c63d3924c1a0","system_id":"levelo_inurba_marseille","lat":43.276242,"lon":5.361057,"is_reserved":false,"is_disabled":false,"rental_uris":{"android":"levelo://app?vid=fd603ab1-7fba-4f8b-9938-c63d3924c1a0","ios":"levelo://app?vid=fd603ab1-7fba-4f8b-9938-c63d3924c1a0"},"vehicle_type_id":"4","last_reported":1769017524,"current_range_meters":6400,"station_id":"ce4bgj92rcd13ifvqbe0","pricing_plan_id":"cebpf4jnsgd1na2vs0mg"},{"bike_id":"416786c9-5441-4ae2-97be-8dd18ff4a833","system_id":"levelo_inurba_marseille","lat":43.26563,"lon":5.40322,"is_reserved":false,"is_disabled":false,"rental_uris":{"android":"levelo://app?vid=416786c9-5441-4ae2-97be-8dd18ff4a833","ios":"levelo://app?vid=416786c9-5441-4ae2-97be-8dd18ff4a833"},"vehicle_type_id":"4","last_reported":1769017524,"current_range_meters":6400,"station_id":"ce4bhmp2rcd13ifvqgng","pricing_plan_id":"cebpf4jnsgd1na2vs0mg"},{"bike_id":"ebde3039-175b-4706-8d4f-00c45a33142c","system_id":"levelo_inurba_marseille","lat":43.29276,"lon":5.40901,"is_reserved":false,"is_disabled":false,"rental_uris":{"android":"levelo://app?vid=ebde3039-175b-4706-8d4f-00c45a33142c","ios":"levelo://app?vid=ebde3039-175b-4706-8d4f-00c45a33142c"},"vehicle_type_id":"4","last_reported":1769017524,"current_range_meters":6400,"station_id":"ce4bh192rcd13ifvqdc0","pricing_plan_id":"cebpf4jnsgd1na2vs0mg"},{"bike_id":"36379ecc-f580-4cc3-ac28-1068980e3530","system_id":"levelo_inurba_marseille","lat":43.290017,"lon":5.356116,"is_reserved":false,"is_disabled":false,"rental_uris":{"android":"levelo://app?vid=36379ecc-f580-4cc3-ac28-1068980e3530","ios":"levelo://app?vid=36379ecc-f580-4cc3-ac28-1068980e3530"},"vehicle_type_id":"4","last_reported":1769017524,"current_range_meters":6400,"station_id":"ce4bhbh2rcd13ifvqeo0","pricing_plan_id":"cebpf4jnsgd1na2vs0mg"},{"bike_id":"1bc2b2c9-4c2c-41cd-b03b-c1704cfebf07","system_id":"levelo_inurba_marseille","lat":43.26565,"lon":5.39006,"is_reserved":false,"is_disabled":false,"rental_uris":{"android":"levelo://app?vid=1bc2b2c9-4c2c-41cd-b03b-c1704cfebf07","ios":"levelo://app?vid=1bc2b2c9-4c2c-41cd-b03b-c1704cfebf07"},"vehicle_type_id":"4","last_reported":1769017524,"current_range_meters":6400,"station_id":"ce4bhe12rcd13ifvqf30","pricing_plan_id":"cebpf4jnsgd1na2vs0mg"},{"bike_id":"f3f27d86-0784-4222-889b-15433e5b0baf","system_id":"levelo_inurba_marseille","lat":43.24474,"lon":5.42528,"is_reserved":false,"is_disabled":false,"rental_uris":{"android":"levelo://app?vid=f3f27d86-0784-4222-889b-15433e5b0baf","ios":"levelo://app?vid=f3f27d86-0784-4222-889b-15433e5b0baf"},"vehicle_type_id":"4","last_reported":1769017524,"current_range_meters":6800,"station_id":"st_d4a3vfp97mjs738cd8kg","pricing_plan_id":"cebpf4jnsgd1na2vs0mg"},{"bike_id":"f09c06aa-a05d-4b00-b228-d8bee2b62b4f","system_id":"levelo_inurba_marseille","lat":43.323435,"lon":5.367406,"is_reserved":false,"is_disabled":false,"rental_uris":{"android":"levelo://app?vid=f09c06aa-a05d-4b00-b228-d8bee2b62b4f","ios":"levelo://app?vid=f09c06aa-a05d-4b00-b228-d8bee2b62b4f"},"vehicle_type_id":"4","last_reported":1769017524,"current_range_meters":6800,"station_id":"ce4bhsh2rcd13ifvqi2g","pricing_plan_id":"cebpf4jnsgd1na2vs0mg"},{"bike_id":"0379376e-0eb6-46fc-a08a-b7751f70a695","system_id":"levelo_inurba_marseille","lat":43.30549,"lon":5.36501,"is_reserved":false,"is_disabled":false,"rental_uris":{"android":"levelo://app?vid=0379376e-0eb6-46fc-a08a-b7751f70a695","ios":"levelo://app?vid=0379376e-0eb6-46fc-a08a-b7751f70a695"},"vehicle_type_id":"4","last_reported":1769017524,"current_range_meters":6800,"station_id":"","pricing_plan_id":"cebpf4jnsgd1na2vs0mg"},{"bike_id":"e07cc4c7-f8da-43b9-86b7-9b5a29a91e8f","system_id":"levelo_inurba_marseille","lat":43.27898,"lon":5.38025,"is_reserved":false,"is_disabled":false,"rental_uris":{"android":"levelo://app?vid=e07cc4c7-f8da-43b9-86b7-9b5a29a91e8f","ios":"levelo://app?vid=e07cc4c7-f8da-43b9-86b7-9b5a29a91e8f"},"vehicle_type_id":"4","last_reported":1769017524,"current_range_meters":6800,"station_id":"ce4bhf92rcd13ifvqf50","pricing_plan_id":"cebpf4jnsgd1na2vs0mg"},{"bike_id":"054e163b-1e47-4a0a-a038-a7939885860e","system_id":"levelo_inurba_marseille","lat":43.32355,"lon":5.36741,"is_reserved":false,"is_disabled":false,"rental_uris":{"android":"levelo://app?vid=054e163b-1e47-4a0a-a038-a7939885860e","ios":"levelo://app?vid=054e163b-1e47-4a0a-a038-a7939885860e"},"vehicle_type_id":"4","last_reported":1769017524,"current_range_meters":6800,"station_id":"ce4bhsh2rcd13ifvqi2g","pricing_plan_id":"cebpf4jnsgd1na2vs0mg"},{"bike_id":"ef0caeef-5da7-45f2-83f5-7f8bad51e985","system_id":"levelo_inurba_marseille","lat":43.28672,"lon":5.38668,"is_reserved":false,"is_disabled":false,"rental_uris":{"android":"levelo://app?vid=ef0caeef-5da7-45f2-83f5-7f8bad51e985","ios":"levelo://app?vid=ef0caeef-5da7-45f2-83f5-7f8bad51e985"},"vehicle_type_id":"4","last_reported":1769017524,"current_range_meters":6800,"station_id":"ce4bh492rcd13ifvqdug","pricing_plan_id":"cebpf4jnsgd1na2vs0mg"},{"bike_id":"01742311-3f12-409f-a5e8-bc53a3d5ac79","system_id":"levelo_inurba_marseille","lat":43.2657,"lon":5.39009,"is_reserved":false,"is_disabled":false,"rental_uris":{"android":"levelo://app?vid=01742311-3f12-409f-a5e8-bc53a3d5ac79","ios":"levelo://app?vid=01742311-3f12-409f-a5e8-bc53a3d5ac79"},"vehicle_type_id":"4","last_reported":1769017524,"current_range_meters":6800,"station_id":"ce4bhe12rcd13ifvqf30","pricing_plan_id":"cebpf4jnsgd1na2vs0mg"},{"bike_id":"d219e86e-7bd2-4634-893c-c4dc3b412045","system_id":"levelo_inurba_marseille","lat":43.2558,"lon":5.38228,"is_reserved":false,"is_disabled":false,"rental_uris":{"android":"levelo://app?vid=d219e86e-7bd2-4634-893c-c4dc3b412045","ios":"levelo://app?vid=d219e86e-7bd2-4634-893c-c4dc3b412045"},"vehicle_type_id":"4","last_reported":1769017524,"current_range_meters":6800,"station_id":"ce4bhih2rcd13ifvqfs0","pricing_plan_id":"cebpf4jnsgd1na2vs0mg"},{"bike_id":"c70e0bb4-fab0-4654-bdca-7c1110702f66","system_id":"levelo_inurba_marseille","lat":43.23962,"lon":5.36637,"is_reserved":false,"is_disabled":false,"rental_uris":{"android":"levelo://app?vid=c70e0bb4-fab0-4654-bdca-7c1110702f66","ios":"levelo://app?vid=c70e0bb4-fab0-4654-bdca-7c1110702f66"},"vehicle_type_id":"4","last_reported":1769017524,"current_range_meters":6800,"station_id":"ce4bhi12rcd13ifvqfp0","pricing_plan_id":"cebpf4jnsgd1na2vs0mg"},{"bike_id":"673852a4-6416-4b33-a80d-5a20f826521f","system_id":"levelo_inurba_marseille","lat":43.29001,"lon":5.39019,"is_reserved":false,"is_disabled":false,"rental_uris":{"android":"levelo://app?vid=673852a4-6416-4b33-a80d-5a20f826521f","ios":"levelo://app?vid=673852a4-6416-4b33-a80d-5a20f826521f"},"vehicle_type_id":"4","last_reported":1769017524,"current_range_meters":6800,"station_id":"","pricing_plan_id":"cebpf4jnsgd1na2vs0mg"},{"bike_id":"ec3505f8-2e5f-442c-868b-c38116e6be45","system_id":"levelo_inurba_marseille","lat":43.24783,"lon":5.37415,"is_reserved":false,"is_disabled":false,"rental_uris":{"android":"levelo://app?vid=ec3505f8-2e5f-442c-868b-c38116e6be45","ios":"levelo://app?vid=ec3505f8-2e5f-442c-868b-c38116e6be45"},"vehicle_type_id":"4","last_reported":1769017524,"current_range_meters":6800,"station_id":"ce4bhgh2rcd13ifvqfb0","pricing_plan_id":"cebpf4jnsgd1na2vs0mg"},{"bike_id":"87376c51-7b52-4611-acd2-49441baafe3f","system_id":"levelo_inurba_marseille","lat":43.246108,"lon":5.402146,"is_reserved":false,"is_disabled":false,"rental_uris":{"android":"levelo://app?vid=87376c51-7b52-4611-acd2-49441baafe3f","ios":"levelo://app?vid=87376c51-7b52-4611-acd2-49441baafe3f"},"vehicle_type_id":"4","last_reported":1769017524,"current_range_meters":6800,"station_id":"","pricing_plan_id":"cebpf4jnsgd1na2vs0mg"},{"bike_id":"cc08d2b6-69fb-4c32-9f0f-91f88c556b74","system_id":"levelo_inurba_marseille","lat":43.22933,"lon":5.3537,"is_reserved":false,"is_disabled":false,"rental_uris":{"android":"levelo://app?vid=cc08d2b6-69fb-4c32-9f0f-91f88c556b74","ios":"levelo://app?vid=cc08d2b6-69fb-4c32-9f0f-91f88c556b74"},"vehicle_type_id":"4","last_reported":1769017524,"current_range_meters":6800,"station_id":"cpo3532slgdg3j2ikp40","pricing_plan_id":"cebpf4jnsgd1na2vs0mg"},{"bike_id":"5b0065d8-a357-4952-8f9e-b4b3d77b8821","system_id":"levelo_inurba_marseille","lat":43.24654,"lon":5.43161,"is_reserved":false,"is_disabled":false,"rental_uris":{"android":"levelo://app?vid=5b0065d8-a357-4952-8f9e-b4b3d77b8821","ios":"levelo://app?vid=5b0065d8-a357-4952-8f9e-b4b3d77b8821"},"vehicle_type_id":"4","last_reported":1769017524,"current_range_meters":6800,"station_id":"st_d2m6c4gdas8pm72e190g","pricing_plan_id":"cebpf4jnsgd1na2vs0mg"},{"bike_id":"c055199c-bd62-490e-8577-d64c0f179897","system_id":"levelo_inurba_marseille","lat":43.28535,"lon":5.44099,"is_reserved":false,"is_disabled":false,"rental_uris":{"android":"levelo://app?vid=c055199c-bd62-490e-8577-d64c0f179897","ios":"levelo://app?vid=c055199c-bd62-490e-8577-d64c0f179897"},"vehicle_type_id":"4","last_reported":1769017524,"current_range_meters":6800,"station_id":"st_d3j3df2ikq2c7380ej80","pricing_plan_id":"cebpf4jnsgd1na2vs0mg"},{"bike_id":"f1bb088f-7852-4bdc-bd02-6065110d0872","system_id":"levelo_inurba_marseille","lat":43.28537,"lon":5.441005,"is_reserved":false,"is_disabled":false,"rental_uris":{"android":"levelo://app?vid=f1bb088f-7852-4bdc-bd02-6065110d0872","ios":"levelo://app?vid=f1bb088f-7852-4bdc-bd02-6065110d0872"},"vehicle_type_id":"4","last_reported":1769017524,"current_range_meters":7200,"station_id":"st_d3j3df2ikq2c7380ej80","pricing_plan_id":"cebpf4jnsgd1na2vs0mg"},{"bike_id":"37c63ada-e150-41e2-82df-b37bec394ca5","system_id":"levelo_inurba_marseille","lat":43.31754,"lon":5.39016,"is_reserved":false,"is_disabled":false,"rental_uris":{"android":"levelo://app?vid=37c63ada-e150-41e2-82df-b37bec394ca5","ios":"levelo://app?vid=37c63ada-e150-41e2-82df-b37bec394ca5"},"vehicle_type_id":"4","last_reported":1769017524,"current_range_meters":7200,"station_id":"ce4bhqp2rcd13ifvqhng","pricing_plan_id":"cebpf4jnsgd1na2vs0mg"},{"bike_id":"07334ae3-a27a-46ae-b685-938785481481","system_id":"levelo_inurba_marseille","lat":43.28533,"lon":5.44107,"is_reserved":false,"is_disabled":false,"rental_uris":{"android":"levelo://app?vid=07334ae3-a27a-46ae-b685-938785481481","ios":"levelo://app?vid=07334ae3-a27a-46ae-b685-938785481481"},"vehicle_type_id":"4","last_reported":1769017524,"current_range_meters":7200,"station_id":"st_d3j3df2ikq2c7380ej80","pricing_plan_id":"cebpf4jnsgd1na2vs0mg"},{"bike_id":"5ba0a526-7cc4-4f15-8152-b96475f9c783","system_id":"levelo_inurba_marseille","lat":43.27401,"lon":5.39382,"is_reserved":false,"is_disabled":false,"rental_uris":{"android":"levelo://app?vid=5ba0a526-7cc4-4f15-8152-b96475f9c783","ios":"levelo://app?vid=5ba0a526-7cc4-4f15-8152-b96475f9c783"},"vehicle_type_id":"4","last_reported":1769017524,"current_range_meters":7200,"station_id":"ce4bhdp2rcd13ifvqf20","pricing_plan_id":"cebpf4jnsgd1na2vs0mg"},{"bike_id":"f3a01c85-86e9-4a7c-837b-602faf4bbfde","system_id":"levelo_inurba_marseille","lat":43.28007,"lon":5.38644,"is_reserved":false,"is_disabled":false,"rental_uris":{"android":"levelo://app?vid=f3a01c85-86e9-4a7c-837b-602faf4bbfde","ios":"levelo://app?vid=f3a01c85-86e9-4a7c-837b-602faf4bbfde"},"vehicle_type_id":"4","last_reported":1769017524,"current_range_meters":7200,"station_id":"","pricing_plan_id":"cebpf4jnsgd1na2vs0mg"},{"bike_id":"ffabd398-f54b-45bd-9851-1b3115defcf6","system_id":"levelo_inurba_marseille","lat":43.24189,"lon":5.39695,"is_reserved":false,"is_disabled":false,"rental_uris":{"android":"levelo://app?vid=ffabd398-f54b-45bd-9851-1b3115defcf6","ios":"levelo://app?vid=ffabd398-f54b-45bd-9851-1b3115defcf6"},"vehicle_type_id":"4","last_reported":1769017524,"current_range_meters":7200,"station_id":"ce4bhn12rcd13ifvqgpg","pricing_plan_id":"cebpf4jnsgd1na2vs0mg"},{"bike_id":"0c39f0d8-be10-4e6d-9b77-03ab45f27e26","system_id":"levelo_inurba_marseille","lat":43.27817,"lon":5.40728,"is_reserved":false,"is_disabled":false,"rental_uris":{"android":"levelo://app?vid=0c39f0d8-be10-4e6d-9b77-03ab45f27e26","ios":"levelo://app?vid=0c39f0d8-be10-4e6d-9b77-03ab45f27e26"},"vehicle_type_id":"4","last_reported":1769017524,"current_range_meters":7200,"station_id":"ce4bhnh2rcd13ifvqgtg","pricing_plan_id":"cebpf4jnsgd1na2vs0mg"},{"bike_id":"e26301b9-2ba6-4110-823c-43c3e31eef15","system_id":"levelo_inurba_marseille","lat":43.30638,"lon":5.39316,"is_reserved":false,"is_disabled":false,"rental_uris":{"android":"levelo://app?vid=e26301b9-2ba6-4110-823c-43c3e31eef15","ios":"levelo://app?vid=e26301b9-2ba6-4110-823c-43c3e31eef15"},"vehicle_type_id":"4","last_reported":1769017524,"current_range_meters":7200,"station_id":"","pricing_plan_id":"cebpf4jnsgd1na2vs0mg"},{"bike_id":"fd26867a-ef95-4bc6-b983-f15c0bcf3e49","system_id":"levelo_inurba_marseille","lat":43.31157,"lon":5.38726,"is_reserved":false,"is_disabled":false,"rental_uris":{"android":"levelo://app?vid=fd26867a-ef95-4bc6-b983-f15c0bcf3e49","ios":"levelo://app?vid=fd26867a-ef95-4bc6-b983-f15c0bcf3e49"},"vehicle_type_id":"4","last_reported":1769017524,"current_range_meters":7200,"station_id":"ce4bgv12rcd13ifvqcp0","pricing_plan_id":"cebpf4jnsgd1na2vs0mg"},{"bike_id":"d68cd528-87dc-4a28-8471-721b0cea6df0","system_id":"levelo_inurba_marseille","lat":43.28171,"lon":5.39226,"is_reserved":false,"is_disabled":false,"rental_uris":{"android":"levelo://app?vid=d68cd528-87dc-4a28-8471-721b0cea6df0","ios":"levelo://app?vid=d68cd528-87dc-4a28-8471-721b0cea6df0"},"vehicle_type_id":"4","last_reported":1769017524,"current_range_meters":7200,"station_id":"","pricing_plan_id":"cebpf4jnsgd1na2vs0mg"},{"bike_id":"bb547469-b71c-42d8-b75c-998691cb0a0b","system_id":"levelo_inurba_marseille","lat":43.30778,"lon":5.37643,"is_reserved":false,"is_disabled":false,"rental_uris":{"android":"levelo://app?vid=bb547469-b71c-42d8-b75c-998691cb0a0b","ios":"levelo://app?vid=bb547469-b71c-42d8-b75c-998691cb0a0b"},"vehicle_type_id":"4","last_reported":1769017524,"current_range_meters":7200,"station_id":"ce4bgv92rcd13ifvqcq0","pricing_plan_id":"cebpf4jnsgd1na2vs0mg"},{"bike_id":"43448dd5-9537-449d-8160-6a955b585b98","system_id":"levelo_inurba_marseille","lat":43.25592,"lon":5.38207,"is_reserved":false,"is_disabled":false,"rental_uris":{"android":"levelo://app?vid=43448dd5-9537-449d-8160-6a955b585b98","ios":"levelo://app?vid=43448dd5-9537-449d-8160-6a955b585b98"},"vehicle_type_id":"4","last_reported":1769017524,"current_range_meters":7200,"station_id":"ce4bhih2rcd13ifvqfs0","pricing_plan_id":"cebpf4jnsgd1na2vs0mg"},{"bike_id":"15323a66-193b-4084-987d-2a29bba519f3","system_id":"levelo_inurba_marseille","lat":43.301306,"lon":5.431109,"is_reserved":false,"is_disabled":false,"rental_uris":{"android":"levelo://app?vid=15323a66-193b-4084-987d-2a29bba519f3","ios":"levelo://app?vid=15323a66-193b-4084-987d-2a29bba519f3"},"vehicle_type_id":"4","last_reported":1769017524,"current_range_meters":7200,"station_id":"st_d3js3co5814s73ftftug","pricing_plan_id":"cebpf4jnsgd1na2vs0mg"},{"bike_id":"6ec86b6a-11af-44ec-aa58-beb1b9c8a19f","system_id":"levelo_inurba_marseille","lat":43.32484,"lon":5.36569,"is_reserved":false,"is_disabled":false,"rental_uris":{"android":"levelo://app?vid=6ec86b6a-11af-44ec-aa58-beb1b9c8a19f","ios":"levelo://app?vid=6ec86b6a-11af-44ec-aa58-beb1b9c8a19f"},"vehicle_type_id":"4","last_reported":1769017524,"current_range_meters":7200,"station_id":"ce4bhs12rcd13ifvqhvg","pricing_plan_id":"cebpf4jnsgd1na2vs0mg"},{"bike_id":"ca0a0ee0-7689-4afe-a2bf-fc4a508e2fa3","system_id":"levelo_inurba_marseille","lat":43.298815,"lon":5.389091,"is_reserved":false,"is_disabled":false,"rental_uris":{"android":"levelo://app?vid=ca0a0ee0-7689-4afe-a2bf-fc4a508e2fa3","ios":"levelo://app?vid=ca0a0ee0-7689-4afe-a2bf-fc4a508e2fa3"},"vehicle_type_id":"4","last_reported":1769017524,"current_range_meters":7200,"station_id":"ce4bh392rcd13ifvqdl0","pricing_plan_id":"cebpf4jnsgd1na2vs0mg"},{"bike_id":"7ec101ea-d201-4e11-904d-9f7bc5ea228f","system_id":"levelo_inurba_marseille","lat":43.29525,"lon":5.39047,"is_reserved":false,"is_disabled":false,"rental_uris":{"android":"levelo://app?vid=7ec101ea-d201-4e11-904d-9f7bc5ea228f","ios":"levelo://app?vid=7ec101ea-d201-4e11-904d-9f7bc5ea228f"},"vehicle_type_id":"4","last_reported":1769017524,"current_range_meters":8000,"station_id":"ce4bh3p2rcd13ifvqdp0","pricing_plan_id":"cebpf4jnsgd1na2vs0mg"},{"bike_id":"1c5b23bd-2ff7-41ce-9b81-d371fc2b68a7","system_id":"levelo_inurba_marseille","lat":43.29531,"lon":5.390318,"is_reserved":false,"is_disabled":false,"rental_uris":{"android":"levelo://app?vid=1c5b23bd-2ff7-41ce-9b81-d371fc2b68a7","ios":"levelo://app?vid=1c5b23bd-2ff7-41ce-9b81-d371fc2b68a7"},"vehicle_type_id":"4","last_reported":1769017524,"current_range_meters":8000,"station_id":"ce4bh3p2rcd13ifvqdp0","pricing_plan_id":"cebpf4jnsgd1na2vs0mg"},{"bike_id":"e6c27473-494f-4950-ae51-f7ba3ec3688d","system_id":"levelo_inurba_marseille","lat":43.28486,"lon":5.38422,"is_reserved":false,"is_disabled":false,"rental_uris":{"android":"levelo://app?vid=e6c27473-494f-4950-ae51-f7ba3ec3688d","ios":"levelo://app?vid=e6c27473-494f-4950-ae51-f7ba3ec3688d"},"vehicle_type_id":"4","last_reported":1769017524,"current_range_meters":8000,"station_id":"ce4bh512rcd13ifvqe3g","pricing_plan_id":"cebpf4jnsgd1na2vs0mg"},{"bike_id":"19c9b524-76f1-4e5d-8be9-000b11a19079","system_id":"levelo_inurba_marseille","lat":43.250094,"lon":5.389139,"is_reserved":false,"is_disabled":false,"rental_uris":{"android":"levelo://app?vid=19c9b524-76f1-4e5d-8be9-000b11a19079","ios":"levelo://app?vid=19c9b524-76f1-4e5d-8be9-000b11a19079"},"vehicle_type_id":"4","last_reported":1769017524,"current_range_meters":8000,"station_id":"ce4bhgp2rcd13ifvqfd0","pricing_plan_id":"cebpf4jnsgd1na2vs0mg"},{"bike_id":"ebc59118-e1a4-482d-84d0-eafb34b0b9ea","system_id":"levelo_inurba_marseille","lat":43.23784,"lon":5.36631,"is_reserved":false,"is_disabled":false,"rental_uris":{"android":"levelo://app?vid=ebc59118-e1a4-482d-84d0-eafb34b0b9ea","ios":"levelo://app?vid=ebc59118-e1a4-482d-84d0-eafb34b0b9ea"},"vehicle_type_id":"4","last_reported":1769017524,"current_range_meters":8000,"station_id":"st_d3nk18o9ro0c73en2l3g","pricing_plan_id":"cebpf4jnsgd1na2vs0mg"},{"bike_id":"13e12cdd-1c1d-4ea7-b9b1-666fea679fee","system_id":"levelo_inurba_marseille","lat":43.292264,"lon":5.360586,"is_reserved":false,"is_disabled":false,"rental_uris":{"android":"levelo://app?vid=13e12cdd-1c1d-4ea7-b9b1-666fea679fee","ios":"levelo://app?vid=13e12cdd-1c1d-4ea7-b9b1-666fea679fee"},"vehicle_type_id":"4","last_reported":1769017524,"current_range_meters":8000,"station_id":"ce4bhbh2rcd13ifvqeqg","pricing_plan_id":"cebpf4jnsgd1na2vs0mg"},{"bike_id":"ae72a7f7-0a78-43a1-a80c-a2893de3e9bb","system_id":"levelo_inurba_marseille","lat":43.24811,"lon":5.3746,"is_reserved":false,"is_disabled":false,"rental_uris":{"android":"levelo://app?vid=ae72a7f7-0a78-43a1-a80c-a2893de3e9bb","ios":"levelo://app?vid=ae72a7f7-0a78-43a1-a80c-a2893de3e9bb"},"vehicle_type_id":"4","last_reported":1769017524,"current_range_meters":8000,"station_id":"ce4bhgh2rcd13ifvqfb0","pricing_plan_id":"cebpf4jnsgd1na2vs0mg"},{"bike_id":"fe2a828f-710f-491e-b529-f22ca09a8365","system_id":"levelo_inurba_marseille","lat":43.307359,"lon":5.409472,"is_reserved":false,"is_disabled":false,"rental_uris":{"android":"levelo://app?vid=fe2a828f-710f-491e-b529-f22ca09a8365","ios":"levelo://app?vid=fe2a828f-710f-491e-b529-f22ca09a8365"},"vehicle_type_id":"4","last_reported":1769017524,"current_range_meters":8000,"station_id":"","pricing_plan_id":"cebpf4jnsgd1na2vs0mg"},{"bike_id":"607c435d-5fb0-4f63-b221-a58bdcfdc9c2","system_id":"levelo_inurba_marseille","lat":43.25004,"lon":5.38921,"is_reserved":false,"is_disabled":false,"rental_uris":{"android":"levelo://app?vid=607c435d-5fb0-4f63-b221-a58bdcfdc9c2","ios":"levelo://app?vid=607c435d-5fb0-4f63-b221-a58bdcfdc9c2"},"vehicle_type_id":"4","last_reported":1769017524,"current_range_meters":8000,"station_id":"ce4bhgp2rcd13ifvqfd0","pricing_plan_id":"cebpf4jnsgd1na2vs0mg"},{"bike_id":"eaad7dcc-c797-4d78-96ea-aa702bdcc172","system_id":"levelo_inurba_marseille","lat":43.315303,"lon":5.380229,"is_reserved":false,"is_disabled":false,"rental_uris":{"android":"levelo://app?vid=eaad7dcc-c797-4d78-96ea-aa702bdcc172","ios":"levelo://app?vid=eaad7dcc-c797-4d78-96ea-aa702bdcc172"},"vehicle_type_id":"4","last_reported":1769017524,"current_range_meters":8000,"station_id":"ce4bhsp2rcd13ifvqi50","pricing_plan_id":"cebpf4jnsgd1na2vs0mg"},{"bike_id":"f6de2d43-1f49-448d-9d89-c685ca8fe5a3","system_id":"levelo_inurba_marseille","lat":43.30537,"lon":5.36524,"is_reserved":false,"is_disabled":false,"rental_uris":{"android":"levelo://app?vid=f6de2d43-1f49-448d-9d89-c685ca8fe5a3","ios":"levelo://app?vid=f6de2d43-1f49-448d-9d89-c685ca8fe5a3"},"vehicle_type_id":"4","last_reported":1769017524,"current_range_meters":8000,"station_id":"ce4bgs12rcd13ifvqcag","pricing_plan_id":"cebpf4jnsgd1na2vs0mg"},{"bike_id":"fddbb7cb-a21d-46ff-8d07-df9eecd44019","system_id":"levelo_inurba_marseille","lat":43.3211,"lon":5.36769,"is_reserved":false,"is_disabled":false,"rental_uris":{"android":"levelo://app?vid=fddbb7cb-a21d-46ff-8d07-df9eecd44019","ios":"levelo://app?vid=fddbb7cb-a21d-46ff-8d07-df9eecd44019"},"vehicle_type_id":"4","last_reported":1769017524,"current_range_meters":8000,"station_id":"ce4bhrh2rcd13ifvqhug","pricing_plan_id":"cebpf4jnsgd1na2vs0mg"},{"bike_id":"0b64e895-792b-4498-9172-5f40249c5668","system_id":"levelo_inurba_marseille","lat":43.260663,"lon":5.394044,"is_reserved":false,"is_disabled":false,"rental_uris":{"android":"levelo://app?vid=0b64e895-792b-4498-9172-5f40249c5668","ios":"levelo://app?vid=0b64e895-792b-4498-9172-5f40249c5668"},"vehicle_type_id":"4","last_reported":1769017524,"current_range_meters":8000,"station_id":"ce4bhh92rcd13ifvqfj0","pricing_plan_id":"cebpf4jnsgd1na2vs0mg"},{"bike_id":"dde7b0e0-bbd1-44de-82f6-999f8e69694c","system_id":"levelo_inurba_marseille","lat":43.25508,"lon":5.37649,"is_reserved":false,"is_disabled":false,"rental_uris":{"android":"levelo://app?vid=dde7b0e0-bbd1-44de-82f6-999f8e69694c","ios":"levelo://app?vid=dde7b0e0-bbd1-44de-82f6-999f8e69694c"},"vehicle_type_id":"4","last_reported":1769017524,"current_range_meters":8000,"station_id":"ce4bhh12rcd13ifvqff0","pricing_plan_id":"cebpf4jnsgd1na2vs0mg"},{"bike_id":"800ac751-b72d-4eb8-b5ef-7e899db1abd8","system_id":"levelo_inurba_marseille","lat":43.32734,"lon":5.39235,"is_reserved":false,"is_disabled":false,"rental_uris":{"android":"levelo://app?vid=800ac751-b72d-4eb8-b5ef-7e899db1abd8","ios":"levelo://app?vid=800ac751-b72d-4eb8-b5ef-7e899db1abd8"},"vehicle_type_id":"4","last_reported":1769017524,"current_range_meters":8000,"station_id":"","pricing_plan_id":"cebpf4jnsgd1na2vs0mg"},{"bike_id":"f67035e4-7e2f-4f61-9362-74370903fc82","system_id":"levelo_inurba_marseille","lat":43.26945,"lon":5.40251,"is_reserved":false,"is_disabled":false,"rental_uris":{"android":"levelo://app?vid=f67035e4-7e2f-4f61-9362-74370903fc82","ios":"levelo://app?vid=f67035e4-7e2f-4f61-9362-74370903fc82"},"vehicle_type_id":"4","last_reported":1769017524,"current_range_meters":8000,"station_id":"cjm6bp8fraef2m0cb0m0","pricing_plan_id":"cebpf4jnsgd1na2vs0mg"},{"bike_id":"42ad3ecc-0a5c-4850-9931-a019c27979e1","system_id":"levelo_inurba_marseille","lat":43.286088,"lon":5.351044,"is_reserved":false,"is_disabled":false,"rental_uris":{"android":"levelo://app?vid=42ad3ecc-0a5c-4850-9931-a019c27979e1","ios":"levelo://app?vid=42ad3ecc-0a5c-4850-9931-a019c27979e1"},"vehicle_type_id":"4","last_reported":1769017524,"current_range_meters":8000,"station_id":"ce4bhch2rcd13ifvqeug","pricing_plan_id":"cebpf4jnsgd1na2vs0mg"},{"bike_id":"33ce8eba-0922-46bc-83fc-0d6558d66cc9","system_id":"levelo_inurba_marseille","lat":43.26047,"lon":5.37547,"is_reserved":false,"is_disabled":false,"rental_uris":{"android":"levelo://app?vid=33ce8eba-0922-46bc-83fc-0d6558d66cc9","ios":"levelo://app?vid=33ce8eba-0922-46bc-83fc-0d6558d66cc9"},"vehicle_type_id":"4","last_reported":1769017524,"current_range_meters":8000,"station_id":"ce4bhgh2rcd13ifvqfa0","pricing_plan_id":"cebpf4jnsgd1na2vs0mg"},{"bike_id":"019ceb53-5592-4d8b-8ed7-8ec71fe45a46","system_id":"levelo_inurba_marseille","lat":43.29277,"lon":5.38443,"is_reserved":false,"is_disabled":false,"rental_uris":{"android":"levelo://app?vid=019ceb53-5592-4d8b-8ed7-8ec71fe45a46","ios":"levelo://app?vid=019ceb53-5592-4d8b-8ed7-8ec71fe45a46"},"vehicle_type_id":"4","last_reported":1769017524,"current_range_meters":8000,"station_id":"ce4bh692rcd13ifvqea0","pricing_plan_id":"cebpf4jnsgd1na2vs0mg"},{"bike_id":"f777e9b2-f70e-45a7-92e5-3fe8d0087d0a","system_id":"levelo_inurba_marseille","lat":43.27672,"lon":5.38856,"is_reserved":false,"is_disabled":false,"rental_uris":{"android":"levelo://app?vid=f777e9b2-f70e-45a7-92e5-3fe8d0087d0a","ios":"levelo://app?vid=f777e9b2-f70e-45a7-92e5-3fe8d0087d0a"},"vehicle_type_id":"4","last_reported":1769017524,"current_range_meters":8000,"station_id":"ce4bhi12rcd13ifvqfo0","pricing_plan_id":"cebpf4jnsgd1na2vs0mg"},{"bike_id":"83461687-2d6f-44e3-8195-fb721f9fb181","system_id":"levelo_inurba_marseille","lat":43.28476,"lon":5.48408,"is_reserved":false,"is_disabled":false,"rental_uris":{"android":"levelo://app?vid=83461687-2d6f-44e3-8195-fb721f9fb181","ios":"levelo://app?vid=83461687-2d6f-44e3-8195-fb721f9fb181"},"vehicle_type_id":"4","last_reported":1769017524,"current_range_meters":8000,"station_id":"","pricing_plan_id":"cebpf4jnsgd1na2vs0mg"},{"bike_id":"746b55f8-81ba-4eaa-9c07-9f88ff5a1ef1","system_id":"levelo_inurba_marseille","lat":43.3011,"lon":5.3741,"is_reserved":false,"is_disabled":false,"rental_uris":{"android":"levelo://app?vid=746b55f8-81ba-4eaa-9c07-9f88ff5a1ef1","ios":"levelo://app?vid=746b55f8-81ba-4eaa-9c07-9f88ff5a1ef1"},"vehicle_type_id":"4","last_reported":1769017524,"current_range_meters":8000,"station_id":"ce4bgs92rcd13ifvqcc0","pricing_plan_id":"cebpf4jnsgd1na2vs0mg"},{"bike_id":"db5c533d-ad6a-4cca-9da6-b7b91ac05bc1","system_id":"levelo_inurba_marseille","lat":43.21705,"lon":5.346,"is_reserved":false,"is_disabled":false,"rental_uris":{"android":"levelo://app?vid=db5c533d-ad6a-4cca-9da6-b7b91ac05bc1","ios":"levelo://app?vid=db5c533d-ad6a-4cca-9da6-b7b91ac05bc1"},"vehicle_type_id":"4","last_reported":1769017524,"current_range_meters":8000,"station_id":"st_cvj6r9ubvosntc0bgbag","pricing_plan_id":"cebpf4jnsgd1na2vs0mg"},{"bike_id":"6e369d95-457e-4444-95fe-0731dcd7955d","system_id":"levelo_inurba_marseille","lat":43.26562,"lon":5.39014,"is_reserved":false,"is_disabled":false,"rental_uris":{"android":"levelo://app?vid=6e369d95-457e-4444-95fe-0731dcd7955d","ios":"levelo://app?vid=6e369d95-457e-4444-95fe-0731dcd7955d"},"vehicle_type_id":"4","last_reported":1769017524,"current_range_meters":8000,"station_id":"ce4bhe12rcd13ifvqf30","pricing_plan_id":"cebpf4jnsgd1na2vs0mg"},{"bike_id":"131d083d-d299-49de-ae79-91ebeb210640","system_id":"levelo_inurba_marseille","lat":43.25703,"lon":5.41798,"is_reserved":false,"is_disabled":false,"rental_uris":{"android":"levelo://app?vid=131d083d-d299-49de-ae79-91ebeb210640","ios":"levelo://app?vid=131d083d-d299-49de-ae79-91ebeb210640"},"vehicle_type_id":"4","last_reported":1769017524,"current_range_meters":8000,"station_id":"","pricing_plan_id":"cebpf4jnsgd1na2vs0mg"},{"bike_id":"8de790dd-fe23-45e9-9276-e68df92777bf","system_id":"levelo_inurba_marseille","lat":43.301917,"lon":5.366338,"is_reserved":false,"is_disabled":false,"rental_uris":{"android":"levelo://app?vid=8de790dd-fe23-45e9-9276-e68df92777bf","ios":"levelo://app?vid=8de790dd-fe23-45e9-9276-e68df92777bf"},"vehicle_type_id":"4","last_reported":1769017524,"current_range_meters":8000,"station_id":"ce4bgrh2rcd13ifvqc8g","pricing_plan_id":"cebpf4jnsgd1na2vs0mg"},{"bike_id":"ae81f703-6fce-4689-aec6-93c71bd3ec52","system_id":"levelo_inurba_marseille","lat":43.30546,"lon":5.36526,"is_reserved":false,"is_disabled":false,"rental_uris":{"android":"levelo://app?vid=ae81f703-6fce-4689-aec6-93c71bd3ec52","ios":"levelo://app?vid=ae81f703-6fce-4689-aec6-93c71bd3ec52"},"vehicle_type_id":"4","last_reported":1769017524,"current_range_meters":8000,"station_id":"ce4bgs12rcd13ifvqcag","pricing_plan_id":"cebpf4jnsgd1na2vs0mg"},{"bike_id":"a8bc5c8b-9059-4657-a42a-9ea139a9b64c","system_id":"levelo_inurba_marseille","lat":43.25827,"lon":5.39435,"is_reserved":false,"is_disabled":false,"rental_uris":{"android":"levelo://app?vid=a8bc5c8b-9059-4657-a42a-9ea139a9b64c","ios":"levelo://app?vid=a8bc5c8b-9059-4657-a42a-9ea139a9b64c"},"vehicle_type_id":"4","last_reported":1769017524,"current_range_meters":8000,"station_id":"ce4bhip2rcd13ifvqft0","pricing_plan_id":"cebpf4jnsgd1na2vs0mg"},{"bike_id":"34a04fbe-a7f0-4fa5-9d69-02269d70972d","system_id":"levelo_inurba_marseille","lat":43.2949,"lon":5.43297,"is_reserved":false,"is_disabled":false,"rental_uris":{"android":"levelo://app?vid=34a04fbe-a7f0-4fa5-9d69-02269d70972d","ios":"levelo://app?vid=34a04fbe-a7f0-4fa5-9d69-02269d70972d"},"vehicle_type_id":"4","last_reported":1769017524,"current_range_meters":8400,"station_id":"st_d3j5ugp08ojc73fj9d10","pricing_plan_id":"cebpf4jnsgd1na2vs0mg"},{"bike_id":"0d039f66-11a1-4daa-9c3e-527b4b511ff8","system_id":"levelo_inurba_marseille","lat":43.2606,"lon":5.39398,"is_reserved":false,"is_disabled":true,"rental_uris":{"android":"levelo://app?vid=0d039f66-11a1-4daa-9c3e-527b4b511ff8","ios":"levelo://app?vid=0d039f66-11a1-4daa-9c3e-527b4b511ff8"},"vehicle_type_id":"4","last_reported":1769017524,"current_range_meters":8400,"station_id":"ce4bhh92rcd13ifvqfj0","pricing_plan_id":"cebpf4jnsgd1na2vs0mg"},{"bike_id":"bf9df301-dc0d-41cc-96a1-27301e9f819b","system_id":"levelo_inurba_marseille","lat":43.28487,"lon":5.483907,"is_reserved":false,"is_disabled":false,"rental_uris":{"android":"levelo://app?vid=bf9df301-dc0d-41cc-96a1-27301e9f819b","ios":"levelo://app?vid=bf9df301-dc0d-41cc-96a1-27301e9f819b"},"vehicle_type_id":"4","last_reported":1769017524,"current_range_meters":8400,"station_id":"","pricing_plan_id":"cebpf4jnsgd1na2vs0mg"},{"bike_id":"92a7b094-8419-42a8-92bc-cde61631e7f4","system_id":"levelo_inurba_marseille","lat":43.29251,"lon":5.36848,"is_reserved":false,"is_disabled":false,"rental_uris":{"android":"levelo://app?vid=92a7b094-8419-42a8-92bc-cde61631e7f4","ios":"levelo://app?vid=92a7b094-8419-42a8-92bc-cde61631e7f4"},"vehicle_type_id":"4","last_reported":1769017524,"current_range_meters":8400,"station_id":"ce4bhbp2rcd13ifvqesg","pricing_plan_id":"cebpf4jnsgd1na2vs0mg"},{"bike_id":"488d3d36-c3f0-4390-80be-f0194a76248a","system_id":"levelo_inurba_marseille","lat":43.25575,"lon":5.40407,"is_reserved":false,"is_disabled":false,"rental_uris":{"android":"levelo://app?vid=488d3d36-c3f0-4390-80be-f0194a76248a","ios":"levelo://app?vid=488d3d36-c3f0-4390-80be-f0194a76248a"},"vehicle_type_id":"4","last_reported":1769017524,"current_range_meters":8400,"station_id":"","pricing_plan_id":"cebpf4jnsgd1na2vs0mg"},{"bike_id":"aec5c08c-9f05-47e9-bb02-2d63b83fc483","system_id":"levelo_inurba_marseille","lat":43.26754,"lon":5.39238,"is_reserved":false,"is_disabled":false,"rental_uris":{"android":"levelo://app?vid=aec5c08c-9f05-47e9-bb02-2d63b83fc483","ios":"levelo://app?vid=aec5c08c-9f05-47e9-bb02-2d63b83fc483"},"vehicle_type_id":"4","last_reported":1769017524,"current_range_meters":8400,"station_id":"","pricing_plan_id":"cebpf4jnsgd1na2vs0mg"},{"bike_id":"22caeec2-da70-40d3-ba6c-589983664b8b","system_id":"levelo_inurba_marseille","lat":43.24813,"lon":5.37454,"is_reserved":false,"is_disabled":false,"rental_uris":{"android":"levelo://app?vid=22caeec2-da70-40d3-ba6c-589983664b8b","ios":"levelo://app?vid=22caeec2-da70-40d3-ba6c-589983664b8b"},"vehicle_type_id":"4","last_reported":1769017524,"current_range_meters":8400,"station_id":"ce4bhgh2rcd13ifvqfb0","pricing_plan_id":"cebpf4jnsgd1na2vs0mg"},{"bike_id":"1ff59be9-7fec-4530-9c53-87b8b14c7862","system_id":"levelo_inurba_marseille","lat":43.25494,"lon":5.37649,"is_reserved":false,"is_disabled":false,"rental_uris":{"android":"levelo://app?vid=1ff59be9-7fec-4530-9c53-87b8b14c7862","ios":"levelo://app?vid=1ff59be9-7fec-4530-9c53-87b8b14c7862"},"vehicle_type_id":"4","last_reported":1769017524,"current_range_meters":8400,"station_id":"ce4bhh12rcd13ifvqff0","pricing_plan_id":"cebpf4jnsgd1na2vs0mg"},{"bike_id":"b14b7864-c78c-4d3b-8985-7705cba3866f","system_id":"levelo_inurba_marseille","lat":43.2293,"lon":5.35379,"is_reserved":false,"is_disabled":false,"rental_uris":{"android":"levelo://app?vid=b14b7864-c78c-4d3b-8985-7705cba3866f","ios":"levelo://app?vid=b14b7864-c78c-4d3b-8985-7705cba3866f"},"vehicle_type_id":"4","last_reported":1769017524,"current_range_meters":8400,"station_id":"cpo3532slgdg3j2ikp40","pricing_plan_id":"cebpf4jnsgd1na2vs0mg"},{"bike_id":"7b20c607-8c93-4243-a22a-7e746d66d327","system_id":"levelo_inurba_marseille","lat":43.281514,"lon":5.426469,"is_reserved":false,"is_disabled":false,"rental_uris":{"android":"levelo://app?vid=7b20c607-8c93-4243-a22a-7e746d66d327","ios":"levelo://app?vid=7b20c607-8c93-4243-a22a-7e746d66d327"},"vehicle_type_id":"4","last_reported":1769017524,"current_range_meters":8400,"station_id":"ce4bhnh2rcd13ifvqgug","pricing_plan_id":"cebpf4jnsgd1na2vs0mg"},{"bike_id":"19c9b4d2-1ea0-4167-80ed-614d6330d907","system_id":"levelo_inurba_marseille","lat":43.23186,"lon":5.39974,"is_reserved":false,"is_disabled":false,"rental_uris":{"android":"levelo://app?vid=19c9b4d2-1ea0-4167-80ed-614d6330d907","ios":"levelo://app?vid=19c9b4d2-1ea0-4167-80ed-614d6330d907"},"vehicle_type_id":"4","last_reported":1769017524,"current_range_meters":8400,"station_id":"ce4bhn12rcd13ifvqgqg","pricing_plan_id":"cebpf4jnsgd1na2vs0mg"},{"bike_id":"5e8edb14-a10e-4051-ad51-9f338d749bfd","system_id":"levelo_inurba_marseille","lat":43.28352,"lon":5.38637,"is_reserved":false,"is_disabled":false,"rental_uris":{"android":"levelo://app?vid=5e8edb14-a10e-4051-ad51-9f338d749bfd","ios":"levelo://app?vid=5e8edb14-a10e-4051-ad51-9f338d749bfd"},"vehicle_type_id":"4","last_reported":1769017524,"current_range_meters":8400,"station_id":"ce4bh492rcd13ifvqdvg","pricing_plan_id":"cebpf4jnsgd1na2vs0mg"},{"bike_id":"d8903209-6fa2-4155-9052-85954318829d","system_id":"levelo_inurba_marseille","lat":43.24172,"lon":5.39742,"is_reserved":false,"is_disabled":false,"rental_uris":{"android":"levelo://app?vid=d8903209-6fa2-4155-9052-85954318829d","ios":"levelo://app?vid=d8903209-6fa2-4155-9052-85954318829d"},"vehicle_type_id":"4","last_reported":1769017524,"current_range_meters":8400,"station_id":"ce4bhn12rcd13ifvqgpg","pricing_plan_id":"cebpf4jnsgd1na2vs0mg"},{"bike_id":"86ee93fa-eb34-4316-9dd9-fbe8d7eee803","system_id":"levelo_inurba_marseille","lat":43.279896,"lon":5.400051,"is_reserved":false,"is_disabled":false,"rental_uris":{"android":"levelo://app?vid=86ee93fa-eb34-4316-9dd9-fbe8d7eee803","ios":"levelo://app?vid=86ee93fa-eb34-4316-9dd9-fbe8d7eee803"},"vehicle_type_id":"4","last_reported":1769017524,"current_range_meters":8800,"station_id":"ce4bho92rcd13ifvqh4g","pricing_plan_id":"cebpf4jnsgd1na2vs0mg"},{"bike_id":"fc5d102e-6a36-4a5b-99d5-23cf30eec9b5","system_id":"levelo_inurba_marseille","lat":43.231928,"lon":5.355544,"is_reserved":false,"is_disabled":false,"rental_uris":{"android":"levelo://app?vid=fc5d102e-6a36-4a5b-99d5-23cf30eec9b5","ios":"levelo://app?vid=fc5d102e-6a36-4a5b-99d5-23cf30eec9b5"},"vehicle_type_id":"4","last_reported":1769017524,"current_range_meters":8800,"station_id":"ce4bhu92rcd13ifvqi70","pricing_plan_id":"cebpf4jnsgd1na2vs0mg"},{"bike_id":"bd3222b3-dffe-4214-a25c-da1b23e1c71b","system_id":"levelo_inurba_marseille","lat":43.32351,"lon":5.36736,"is_reserved":false,"is_disabled":false,"rental_uris":{"android":"levelo://app?vid=bd3222b3-dffe-4214-a25c-da1b23e1c71b","ios":"levelo://app?vid=bd3222b3-dffe-4214-a25c-da1b23e1c71b"},"vehicle_type_id":"4","last_reported":1769017524,"current_range_meters":8800,"station_id":"ce4bhsh2rcd13ifvqi2g","pricing_plan_id":"cebpf4jnsgd1na2vs0mg"},{"bike_id":"ddf339b8-b7a3-4c6c-8007-3bc27ee91d0a","system_id":"levelo_inurba_marseille","lat":43.291,"lon":5.38124,"is_reserved":false,"is_disabled":false,"rental_uris":{"android":"levelo://app?vid=ddf339b8-b7a3-4c6c-8007-3bc27ee91d0a","ios":"levelo://app?vid=ddf339b8-b7a3-4c6c-8007-3bc27ee91d0a"},"vehicle_type_id":"4","last_reported":1769017524,"current_range_meters":8800,"station_id":"ce4bh512rcd13ifvqe2g","pricing_plan_id":"cebpf4jnsgd1na2vs0mg"},{"bike_id":"4b5aa404-a223-4202-a9b4-4364010f0fb4","system_id":"levelo_inurba_marseille","lat":43.33763,"lon":5.37473,"is_reserved":false,"is_disabled":false,"rental_uris":{"android":"levelo://app?vid=4b5aa404-a223-4202-a9b4-4364010f0fb4","ios":"levelo://app?vid=4b5aa404-a223-4202-a9b4-4364010f0fb4"},"vehicle_type_id":"4","last_reported":1769017524,"current_range_meters":8800,"station_id":"","pricing_plan_id":"cebpf4jnsgd1na2vs0mg"},{"bike_id":"fce217f8-f4fd-42bc-87ff-3580d8db4654","system_id":"levelo_inurba_marseille","lat":43.29034,"lon":5.3865,"is_reserved":false,"is_disabled":false,"rental_uris":{"android":"levelo://app?vid=fce217f8-f4fd-42bc-87ff-3580d8db4654","ios":"levelo://app?vid=fce217f8-f4fd-42bc-87ff-3580d8db4654"},"vehicle_type_id":"4","last_reported":1769017524,"current_range_meters":8800,"station_id":"ce4bh4p2rcd13ifvqe0g","pricing_plan_id":"cebpf4jnsgd1na2vs0mg"},{"bike_id":"4df6fac4-f1df-499f-9ef5-7769dacf07ea","system_id":"levelo_inurba_marseille","lat":43.29585,"lon":5.39966,"is_reserved":false,"is_disabled":false,"rental_uris":{"android":"levelo://app?vid=4df6fac4-f1df-499f-9ef5-7769dacf07ea","ios":"levelo://app?vid=4df6fac4-f1df-499f-9ef5-7769dacf07ea"},"vehicle_type_id":"4","last_reported":1769017524,"current_range_meters":8800,"station_id":"ce4bh312rcd13ifvqdj0","pricing_plan_id":"cebpf4jnsgd1na2vs0mg"},{"bike_id":"d8f34b5e-d831-4a3d-8643-93f2f2dfecae","system_id":"levelo_inurba_marseille","lat":43.24168,"lon":5.36391,"is_reserved":false,"is_disabled":false,"rental_uris":{"android":"levelo://app?vid=d8f34b5e-d831-4a3d-8643-93f2f2dfecae","ios":"levelo://app?vid=d8f34b5e-d831-4a3d-8643-93f2f2dfecae"},"vehicle_type_id":"4","last_reported":1769017524,"current_range_meters":8800,"station_id":"cpo36qri1sfpv3e86is0","pricing_plan_id":"cebpf4jnsgd1na2vs0mg"},{"bike_id":"ddac16df-da7b-4c1e-8c96-25bd2dbc1226","system_id":"levelo_inurba_marseille","lat":43.32358,"lon":5.36745,"is_reserved":false,"is_disabled":false,"rental_uris":{"android":"levelo://app?vid=ddac16df-da7b-4c1e-8c96-25bd2dbc1226","ios":"levelo://app?vid=ddac16df-da7b-4c1e-8c96-25bd2dbc1226"},"vehicle_type_id":"4","last_reported":1769017524,"current_range_meters":8800,"station_id":"ce4bhsh2rcd13ifvqi2g","pricing_plan_id":"cebpf4jnsgd1na2vs0mg"},{"bike_id":"9f8e0f69-e8aa-431b-90fd-f8da016d1756","system_id":"levelo_inurba_marseille","lat":43.27937,"lon":5.41047,"is_reserved":false,"is_disabled":false,"rental_uris":{"android":"levelo://app?vid=9f8e0f69-e8aa-431b-90fd-f8da016d1756","ios":"levelo://app?vid=9f8e0f69-e8aa-431b-90fd-f8da016d1756"},"vehicle_type_id":"4","last_reported":1769017524,"current_range_meters":8800,"station_id":"ce4bhnp2rcd13ifvqh0g","pricing_plan_id":"cebpf4jnsgd1na2vs0mg"},{"bike_id":"22bc6d8e-7e0c-4234-afe0-c88e2589ac70","system_id":"levelo_inurba_marseille","lat":43.27041,"lon":5.39907,"is_reserved":false,"is_disabled":false,"rental_uris":{"android":"levelo://app?vid=22bc6d8e-7e0c-4234-afe0-c88e2589ac70","ios":"levelo://app?vid=22bc6d8e-7e0c-4234-afe0-c88e2589ac70"},"vehicle_type_id":"4","last_reported":1769017524,"current_range_meters":8800,"station_id":"","pricing_plan_id":"cebpf4jnsgd1na2vs0mg"},{"bike_id":"63550df3-d87e-4087-bfb2-31599e2ca646","system_id":"levelo_inurba_marseille","lat":43.25812,"lon":5.39421,"is_reserved":false,"is_disabled":false,"rental_uris":{"android":"levelo://app?vid=63550df3-d87e-4087-bfb2-31599e2ca646","ios":"levelo://app?vid=63550df3-d87e-4087-bfb2-31599e2ca646"},"vehicle_type_id":"4","last_reported":1769017524,"current_range_meters":8800,"station_id":"ce4bhip2rcd13ifvqft0","pricing_plan_id":"cebpf4jnsgd1na2vs0mg"},{"bike_id":"352c2966-bf5f-4208-9d33-9f870658c915","system_id":"levelo_inurba_marseille","lat":43.29238,"lon":5.36067,"is_reserved":false,"is_disabled":false,"rental_uris":{"android":"levelo://app?vid=352c2966-bf5f-4208-9d33-9f870658c915","ios":"levelo://app?vid=352c2966-bf5f-4208-9d33-9f870658c915"},"vehicle_type_id":"4","last_reported":1769017524,"current_range_meters":8800,"station_id":"ce4bhbh2rcd13ifvqeqg","pricing_plan_id":"cebpf4jnsgd1na2vs0mg"},