{"last_updated":1734880074,"ttl":60,"version":"2.2","data":{"bikes":[{"bike_id":"7ad89813-c805-4a98-8b1c-b32cadfaa9c0","system_id":"levelo_inurba_marseille","lat":43.29419,"lon":5.38622,"is_reserved":false,"is_disabled":false,"rental_uris":{"android":"levelo://app?vid=7ad89813-c805-4a98-8b1c-b32cadfaa9c0","ios":"levelo://app?vid=7ad89813-c805-4a98-8b1c-b32cadfaa9c0"},"vehicle_type_id":"4","last_reported":1734880074,"current_range_meters":36000,"station_id":"ce4bh2h2rcd13ifvqdh0","pricing_plan_id":"cebpf4jnsgd1na2vs0mg"},{"bike_id":"3f3fc3c1-8a6b-4f98-afae-6032bf97e88b","system_id":"levelo_inurba_marseille","lat":43.31272,"lon":5.40169,"is_reserved":false,"is_disabled":false,"rental_uris":{"android":"levelo://app?vid=3f3fc3c1-8a6b-4f98-afae-6032bf97e88b","ios":"levelo://app?vid=3f3fc3c1-8a6b-4f98-afae-6032bf97e88b"},"vehicle_type_id":"4","last_reported":1734880074,"current_range_meters":38800,"station_id":"ce4bh092rcd13ifvqd30","pricing_plan_id":"cebpf4jnsgd1na2vs0mg"},{"bike_id":"9ac1c4ec-436f-43f4-b149-448f8ccbdce1","system_id":"levelo_inurba_marseille","lat":43.30538,"lon":5.3653,"is_reserved":false,"is_disabled":false,"rental_uris":{"android":"levelo://app?vid=9ac1c4ec-436f-43f4-b149-448f8ccbdce1","ios":"levelo://app?vid=9ac1c4ec-436f-43f4-b149-448f8ccbdce1"},"vehicle_type_id":"4","last_reported":1734880074,"current_range_meters":30000,"station_id":"ce4bgs12rcd13ifvqcag","pricing_plan_id":"cebpf4jnsgd1na2vs0mg"},{"bike_id":"b5251cd0-66bc-4e10-9cd1-311b5de694fa","system_id":"levelo_inurba_marseille","lat":43.2762,"lon":5.36115,"is_reserved":false,"is_disabled":false,"rental_uris":{"android":"levelo://app?vid=b5251cd0-66bc-4e10-9cd1-311b5de694fa","ios":"levelo://app?vid=b5251cd0-66bc-4e10-9cd1-311b5de694fa"},"vehicle_type_id":"4","last_reported":1734880074,"current_range_meters":18800,"station_id":"ce4bgj92rcd13ifvqbe0","pricing_plan_id":"cebpf4jnsgd1na2vs0mg"},{"bike_id":"28b8a15a-7f28-47ea-b172-8f52c9a24f10","system_id":"levelo_inurba_marseille","lat":43.29037,"lon":5.37572,"is_reserved":false,"is_disabled":false,"rental_uris":{"android":"levelo://app?vid=28b8a15a-7f28-47ea-b172-8f52c9a24f10","ios":"levelo://app?vid=28b8a15a-7f28-47ea-b172-8f52c9a24f10"},"vehicle_type_id":"4","last_reported":1734880074,"current_range_meters":38400,"station_id":"ce4bh692rcd13ifvqe90","pricing_plan_id":"cebpf4jnsgd1na2vs0mg"},{"bike_id":"a5dc6bde-b5b7-4366-84a3-c8ba7babf44e","system_id":"levelo_inurba_marseille","lat":43.29043,"lon":5.39964,"is_reserved":false,"is_disabled":false,"rental_uris":{"android":"levelo://app?vid=a5dc6bde-b5b7-4366-84a3-c8ba7babf44e","ios":"levelo://app?vid=a5dc6bde-b5b7-4366-84a3-c8ba7babf44e"},"vehicle_type_id":"4","last_reported":1734880074,"current_range_meters":15200,"station_id":"ce4bh392rcd13ifvqdm0","pricing_plan_id":"cebpf4jnsgd1na2vs0mg"},{"bike_id":"98e4f0a9-f922-4219-bfa1-62a223a7d25c","system_id":"levelo_inurba_marseille","lat":43.31364,"lon":5.38507,"is_reserved":false,"is_disabled":false,"rental_uris":{"android":"levelo://app?vid=98e4f0a9-f922-4219-bfa1-62a223a7d25c","ios":"levelo://app?vid=98e4f0a9-f922-4219-bfa1-62a223a7d25c"},"vehicle_type_id":"4","last_reported":1734880074,"current_range_meters":28800,"station_id":"ce4bgt92rcd13ifvqcf0","pricing_plan_id":"cebpf4jnsgd1na2vs0mg"},{"bike_id":"3dd40088-9df1-4be5-ace3-c0a13f2e3050","system_id":"levelo_inurba_marseille","lat":43.29579,"lon":5.3751,"is_reserved":false,"is_disabled":false,"rental_uris":{"android":"levelo://app?vid=3dd40088-9df1-4be5-ace3-c0a13f2e3050","ios":"levelo://app?vid=3dd40088-9df1-4be5-ace3-c0a13f2e3050"},"vehicle_type_id":"4","last_reported":1734880074,"current_range_meters":35600,"station_id":"ce4bgh92rcd13ifvqb50","pricing_plan_id":"cebpf4jnsgd1na2vs0mg"},{"bike_id":"31389d71-7dbf-49f1-b789-8b313b9821e9","system_id":"levelo_inurba_marseille","lat":43.27553,"lon":5.38444,"is_reserved":false,"is_disabled":false,"rental_uris":{"android":"levelo://app?vid=31389d71-7dbf-49f1-b789-8b313b9821e9","ios":"levelo://app?vid=31389d71-7dbf-49f1-b789-8b313b9821e9"},"vehicle_type_id":"4","last_reported":1734880074,"current_range_meters":35200,"station_id":"ce4bhh92rcd13ifvqfi0","pricing_plan_id":"cebpf4jnsgd1na2vs0mg"},{"bike_id":"96f67906-c94f-4a78-ae6e-fdff28a17019","system_id":"levelo_inurba_marseille","lat":43.337444,"lon":5.374475,"is_reserved":false,"is_disabled":false,"rental_uris":{"android":"levelo://app?vid=96f67906-c94f-4a78-ae6e-fdff28a17019","ios":"levelo://app?vid=96f67906-c94f-4a78-ae6e-fdff28a17019"},"vehicle_type_id":"4","last_reported":1734880074,"current_range_meters":33600,"station_id":"","pricing_plan_id":"cebpf4jnsgd1na2vs0mg"},{"bike_id":"4ae04926-163e-4ffb-be62-88da4a5836ca","system_id":"levelo_inurba_marseille","lat":43.29223,"lon":5.36084,"is_reserved":false,"is_disabled":false,"rental_uris":{"android":"levelo://app?vid=4ae04926-163e-4ffb-be62-88da4a5836ca","ios":"levelo://app?vid=4ae04926-163e-4ffb-be62-88da4a5836ca"},"vehicle_type_id":"4","last_reported":1734880074,"current_range_meters":18000,"station_id":"ce4bhbh2rcd13ifvqeqg","pricing_plan_id":"cebpf4jnsgd1na2vs0mg"},{"bike_id":"6de2ca40-3ae5-44f8-9307-a60516ee191c","system_id":"levelo_inurba_marseille","lat":43.30565,"lon":5.36698,"is_reserved":false,"is_disabled":false,"rental_uris":{"android":"levelo://app?vid=6de2ca40-3ae5-44f8-9307-a60516ee191c","ios":"levelo://app?vid=6de2ca40-3ae5-44f8-9307-a60516ee191c"},"vehicle_type_id":"4","last_reported":1734880074,"current_range_meters":39200,"station_id":"ce4bgrp2rcd13ifvqc9g","pricing_plan_id":"cebpf4jnsgd1na2vs0mg"},{"bike_id":"2f7534c3-fccc-4f67-ba8d-d65501b10efc","system_id":"levelo_inurba_marseille","lat":43.2408,"lon":5.37753,"is_reserved":false,"is_disabled":false,"rental_uris":{"android":"levelo://app?vid=2f7534c3-fccc-4f67-ba8d-d65501b10efc","ios":"levelo://app?vid=2f7534c3-fccc-4f67-ba8d-d65501b10efc"},"vehicle_type_id":"4","last_reported":1734880074,"current_range_meters":34800,"station_id":"ce4bhnp2rcd13ifvqgvg","pricing_plan_id":"cebpf4jnsgd1na2vs0mg"},{"bike_id":"7fecf7cd-57c8-4918-98c5-481fc257cd30","system_id":"levelo_inurba_marseille","lat":43.307909,"lon":5.376522,"is_reserved":false,"is_disabled":false,"rental_uris":{"android":"levelo://app?vid=7fecf7cd-57c8-4918-98c5-481fc257cd30","ios":"levelo://app?vid=7fecf7cd-57c8-4918-98c5-481fc257cd30"},"vehicle_type_id":"4","last_reported":1734880074,"current_range_meters":21600,"station_id":"ce4bgv92rcd13ifvqcq0","pricing_plan_id":"cebpf4jnsgd1na2vs0mg"},{"bike_id":"361b9e5a-2cd0-4d96-b9ee-d40b69447a2b","system_id":"levelo_inurba_marseille","lat":43.29437,"lon":5.39755,"is_reserved":false,"is_disabled":false,"rental_uris":{"android":"levelo://app?vid=361b9e5a-2cd0-4d96-b9ee-d40b69447a2b","ios":"levelo://app?vid=361b9e5a-2cd0-4d96-b9ee-d40b69447a2b"},"vehicle_type_id":"4","last_reported":1734880074,"current_range_meters":9200,"station_id":"ce4bh3h2rcd13ifvqdo0","pricing_plan_id":"cebpf4jnsgd1na2vs0mg"},{"bike_id":"5481ebd9-b3a3-4db6-ba37-c92c821046b1","system_id":"levelo_inurba_marseille","lat":43.27619,"lon":5.36111,"is_reserved":false,"is_disabled":false,"rental_uris":{"android":"levelo://app?vid=5481ebd9-b3a3-4db6-ba37-c92c821046b1","ios":"levelo://app?vid=5481ebd9-b3a3-4db6-ba37-c92c821046b1"},"vehicle_type_id":"4","last_reported":1734880074,"current_range_meters":39200,"station_id":"ce4bgj92rcd13ifvqbe0","pricing_plan_id":"cebpf4jnsgd1na2vs0mg"},{"bike_id":"cf825564-7327-4f5c-875e-1464f171aecc","system_id":"levelo_inurba_marseille","lat":43.29975,"lon":5.38496,"is_reserved":false,"is_disabled":true,"rental_uris":{"android":"levelo://app?vid=cf825564-7327-4f5c-875e-1464f171aecc","ios":"levelo://app?vid=cf825564-7327-4f5c-875e-1464f171aecc"},"vehicle_type_id":"4","last_reported":1734880074,"current_range_meters":8000,"station_id":"ce4bgj92rcd13ifvqbd0","pricing_plan_id":"cebpf4jnsgd1na2vs0mg"},{"bike_id":"23ba2a08-b337-4cae-8fc3-3109046ca384","system_id":"levelo_inurba_marseille","lat":43.27999,"lon":5.40013,"is_reserved":false,"is_disabled":false,"rental_uris":{"android":"levelo://app?vid=23ba2a08-b337-4cae-8fc3-3109046ca384","ios":"levelo://app?vid=23ba2a08-b337-4cae-8fc3-3109046ca384"},"vehicle_type_id":"4","last_reported":1734880074,"current_range_meters":17200,"station_id":"ce4bho92rcd13ifvqh4g","pricing_plan_id":"cebpf4jnsgd1na2vs0mg"},{"bike_id":"483c1a88-3d76-4ce2-b8a0-18ab3d6306de","system_id":"levelo_inurba_marseille","lat":43.29935,"lon":5.36536,"is_reserved":false,"is_disabled":false,"rental_uris":{"android":"levelo://app?vid=483c1a88-3d76-4ce2-b8a0-18ab3d6306de","ios":"levelo://app?vid=483c1a88-3d76-4ce2-b8a0-18ab3d6306de"},"vehicle_type_id":"4","last_reported":1734880074,"current_range_meters":16400,"station_id":"ce4bgm92rcd13ifvqbr0","pricing_plan_id":"cebpf4jnsgd1na2vs0mg"},{"bike_id":"c07ab0de-7138-4d81-945e-9c9a167e8c5f","system_id":"levelo_inurba_marseille","lat":43.29065,"lon":5.3717,"is_reserved":false,"is_disabled":false,"rental_uris":{"android":"levelo://app?vid=c07ab0de-7138-4d81-945e-9c9a167e8c5f","ios":"levelo://app?vid=c07ab0de-7138-4d81-945e-9c9a167e8c5f"},"vehicle_type_id":"4","last_reported":1734880074,"current_range_meters":20000,"station_id":"","pricing_plan_id":"cebpf4jnsgd1na2vs0mg"},{"bike_id":"d5456196-a2d9-4cb1-9fbc-229d51a04abd","system_id":"levelo_inurba_marseille","lat":43.2849,"lon":5.38558,"is_reserved":false,"is_disabled":false,"rental_uris":{"android":"levelo://app?vid=d5456196-a2d9-4cb1-9fbc-229d51a04abd","ios":"levelo://app?vid=d5456196-a2d9-4cb1-9fbc-229d51a04abd"},"vehicle_type_id":"4","last_reported":1734880074,"current_range_meters":38800,"station_id":"ce4bh8p2rcd13ifvqeb0","pricing_plan_id":"cebpf4jnsgd1na2vs0mg"},{"bike_id":"843c6878-0e3f-4b01-b1b7-bbb9a0523c31","system_id":"levelo_inurba_marseille","lat":43.32664,"lon":5.4099,"is_reserved":false,"is_disabled":true,"rental_uris":{"android":"levelo://app?vid=843c6878-0e3f-4b01-b1b7-bbb9a0523c31","ios":"levelo://app?vid=843c6878-0e3f-4b01-b1b7-bbb9a0523c31"},"vehicle_type_id":"4","last_reported":1734880074,"current_range_meters":30000,"station_id":"ce4bhpp2rcd13ifvqhgg","pricing_plan_id":"cebpf4jnsgd1na2vs0mg"},{"bike_id":"122e5731-49d1-47ac-8569-8da0f2b96421","system_id":"levelo_inurba_marseille","lat":43.25725,"lon":5.41112,"is_reserved":false,"is_disabled":false,"rental_uris":{"android":"levelo://app?vid=122e5731-49d1-47ac-8569-8da0f2b96421","ios":"levelo://app?vid=122e5731-49d1-47ac-8569-8da0f2b96421"},"vehicle_type_id":"4","last_reported":1734880074,"current_range_meters":36400,"station_id":"ce4bhkp2rcd13ifvqgd0","pricing_plan_id":"cebpf4jnsgd1na2vs0mg"},{"bike_id":"db6d4cd6-324d-40d9-b2a7-d53d9856d610","system_id":"levelo_inurba_marseille","lat":43.29371,"lon":5.4284,"is_reserved":false,"is_disabled":true,"rental_uris":{"android":"levelo://app?vid=db6d4cd6-324d-40d9-b2a7-d53d9856d610","ios":"levelo://app?vid=db6d4cd6-324d-40d9-b2a7-d53d9856d610"},"vehicle_type_id":"4","last_reported":1734880074,"current_range_meters":0,"station_id":"","pricing_plan_id":"cebpf4jnsgd1na2vs0mg"},{"bike_id":"bda588c3-913c-4799-8f76-44ae246e58cc","system_id":"levelo_inurba_marseille","lat":43.27073,"lon":5.42279,"is_reserved":false,"is_disabled":false,"rental_uris":{"android":"levelo://app?vid=bda588c3-913c-4799-8f76-44ae246e58cc","ios":"levelo://app?vid=bda588c3-913c-4799-8f76-44ae246e58cc"},"vehicle_type_id":"4","last_reported":1734880074,"current_range_meters":24400,"station_id":"ce4bhk92rcd13ifvqgb0","pricing_plan_id":"cebpf4jnsgd1na2vs0mg"},{"bike_id":"4e2e6240-5440-4ed7-ace9-4c9e6bd778e5","system_id":"levelo_inurba_marseille","lat":43.24064,"lon":5.37758,"is_reserved":false,"is_disabled":false,"rental_uris":{"android":"levelo://app?vid=4e2e6240-5440-4ed7-ace9-4c9e6bd778e5","ios":"levelo://app?vid=4e2e6240-5440-4ed7-ace9-4c9e6bd778e5"},"vehicle_type_id":"4","last_reported":1734880074,"current_range_meters":32800,"station_id":"ce4bhnp2rcd13ifvqgvg","pricing_plan_id":"cebpf4jnsgd1na2vs0mg"},{"bike_id":"df357b14-4c6a-4905-8927-9863400f5dca","system_id":"levelo_inurba_marseille","lat":43.25863,"lon":5.39921,"is_reserved":false,"is_disabled":false,"rental_uris":{"android":"levelo://app?vid=df357b14-4c6a-4905-8927-9863400f5dca","ios":"levelo://app?vid=df357b14-4c6a-4905-8927-9863400f5dca"},"vehicle_type_id":"4","last_reported":1734880074,"current_range_meters":33600,"station_id":"ce4bhl92rcd13ifvqghg","pricing_plan_id":"cebpf4jnsgd1na2vs0mg"},{"bike_id":"710cbb4b-92a3-4fcb-a674-51cdb538a062","system_id":"levelo_inurba_marseille","lat":43.26062,"lon":5.39403,"is_reserved":false,"is_disabled":true,"rental_uris":{"android":"levelo://app?vid=710cbb4b-92a3-4fcb-a674-51cdb538a062","ios":"levelo://app?vid=710cbb4b-92a3-4fcb-a674-51cdb538a062"},"vehicle_type_id":"4","last_reported":1734880074,"current_range_meters":33200,"station_id":"ce4bhh92rcd13ifvqfj0","pricing_plan_id":"cebpf4jnsgd1na2vs0mg"},{"bike_id":"999c2d36-bd8a-44d4-b830-e02989956a93","system_id":"levelo_inurba_marseille","lat":43.30136,"lon":5.38784,"is_reserved":false,"is_disabled":false,"rental_uris":{"android":"levelo://app?vid=999c2d36-bd8a-44d4-b830-e02989956a93","ios":"levelo://app?vid=999c2d36-bd8a-44d4-b830-e02989956a93"},"vehicle_type_id":"4","last_reported":1734880074,"current_range_meters":37600,"station_id":"ce4bhoh2rcd13ifvqh6g","pricing_plan_id":"cebpf4jnsgd1na2vs0mg"},{"bike_id":"19c0be92-b0d6-42d1-8836-5f912360d8ff","system_id":"levelo_inurba_marseille","lat":43.29571,"lon":5.37517,"is_reserved":false,"is_disabled":false,"rental_uris":{"android":"levelo://app?vid=19c0be92-b0d6-42d1-8836-5f912360d8ff","ios":"levelo://app?vid=19c0be92-b0d6-42d1-8836-5f912360d8ff"},"vehicle_type_id":"4","last_reported":1734880074,"current_range_meters":25200,"station_id":"ce4bgh92rcd13ifvqb50","pricing_plan_id":"cebpf4jnsgd1na2vs0mg"},{"bike_id":"16bb9f65-b9f5-40a9-9726-c4dff35f2018","system_id":"levelo_inurba_marseille","lat":43.29846,"lon":5.36279,"is_reserved":false,"is_disabled":false,"rental_uris":{"android":"levelo://app?vid=16bb9f65-b9f5-40a9-9726-c4dff35f2018","ios":"levelo://app?vid=16bb9f65-b9f5-40a9-9726-c4dff35f2018"},"vehicle_type_id":"4","last_reported":1734880074,"current_range_meters":16800,"station_id":"ce4bgpp2rcd13ifvqc3g","pricing_plan_id":"cebpf4jnsgd1na2vs0mg"},{"bike_id":"edb14f37-b362-44a7-b897-eefdea2d548f","system_id":"levelo_inurba_marseille","lat":43.25821,"lon":5.39423,"is_reserved":false,"is_disabled":false,"rental_uris":{"android":"levelo://app?vid=edb14f37-b362-44a7-b897-eefdea2d548f","ios":"levelo://app?vid=edb14f37-b362-44a7-b897-eefdea2d548f"},"vehicle_type_id":"4","last_reported":1734880074,"current_range_meters":38800,"station_id":"ce4bhip2rcd13ifvqft0","pricing_plan_id":"cebpf4jnsgd1na2vs0mg"},{"bike_id":"b1cb7caf-cd10-4192-80a8-c86a988958fb","system_id":"levelo_inurba_marseille","lat":43.3056,"lon":5.36547,"is_reserved":false,"is_disabled":false,"rental_uris":{"android":"levelo://app?vid=b1cb7caf-cd10-4192-80a8-c86a988958fb","ios":"levelo://app?vid=b1cb7caf-cd10-4192-80a8-c86a988958fb"},"vehicle_type_id":"4","last_reported":1734880074,"current_range_meters":32800,"station_id":"ce4bgs12rcd13ifvqcag","pricing_plan_id":"cebpf4jnsgd1na2vs0mg"},{"bike_id":"5d29fc56-dbb2-4006-96bc-27e181f8d4f5","system_id":"levelo_inurba_marseille","lat":43.29848,"lon":5.36291,"is_reserved":false,"is_disabled":false,"rental_uris":{"android":"levelo://app?vid=5d29fc56-dbb2-4006-96bc-27e181f8d4f5","ios":"levelo://app?vid=5d29fc56-dbb2-4006-96bc-27e181f8d4f5"},"vehicle_type_id":"4","last_reported":1734880074,"current_range_meters":32800,"station_id":"ce4bgpp2rcd13ifvqc3g","pricing_plan_id":"cebpf4jnsgd1na2vs0mg"},{"bike_id":"412e5206-3583-4403-a717-025662f3aadd","system_id":"levelo_inurba_marseille","lat":43.28717,"lon":5.3794,"is_reserved":false,"is_disabled":false,"rental_uris":{"android":"levelo://app?vid=412e5206-3583-4403-a717-025662f3aadd","ios":"levelo://app?vid=412e5206-3583-4403-a717-025662f3aadd"},"vehicle_type_id":"4","last_reported":1734880074,"current_range_meters":30800,"station_id":"ce4bh9p2rcd13ifvqec0","pricing_plan_id":"cebpf4jnsgd1na2vs0mg"},{"bike_id":"a7cfd2b8-b9ad-4ad6-a840-d70d03c4d9f6","system_id":"levelo_inurba_marseille","lat":43.27983,"lon":5.41658,"is_reserved":false,"is_disabled":false,"rental_uris":{"android":"levelo://app?vid=a7cfd2b8-b9ad-4ad6-a840-d70d03c4d9f6","ios":"levelo://app?vid=a7cfd2b8-b9ad-4ad6-a840-d70d03c4d9f6"},"vehicle_type_id":"4","last_reported":1734880074,"current_range_meters":38800,"station_id":"ce4bho12rcd13ifvqh1g","pricing_plan_id":"cebpf4jnsgd1na2vs0mg"},{"bike_id":"1b5a52a5-c29e-450a-825c-02bf211ee890","system_id":"levelo_inurba_marseille","lat":43.27972,"lon":5.41658,"is_reserved":false,"is_disabled":false,"rental_uris":{"android":"levelo://app?vid=1b5a52a5-c29e-450a-825c-02bf211ee890","ios":"levelo://app?vid=1b5a52a5-c29e-450a-825c-02bf211ee890"},"vehicle_type_id":"4","last_reported":1734880074,"current_range_meters":25600,"station_id":"ce4bho12rcd13ifvqh1g","pricing_plan_id":"cebpf4jnsgd1na2vs0mg"},{"bike_id":"28f6f38a-41c0-4c21-b1dc-cf46d6287cde","system_id":"levelo_inurba_marseille","lat":43.29199,"lon":5.35806,"is_reserved":false,"is_disabled":false,"rental_uris":{"android":"levelo://app?vid=28f6f38a-41c0-4c21-b1dc-cf46d6287cde","ios":"levelo://app?vid=28f6f38a-41c0-4c21-b1dc-cf46d6287cde"},"vehicle_type_id":"4","last_reported":1734880074,"current_range_meters":28400,"station_id":"ce4bhb12rcd13ifvqel0","pricing_plan_id":"cebpf4jnsgd1na2vs0mg"},{"bike_id":"9cf72440-b25a-4df3-b036-3590a3e9673c","system_id":"levelo_inurba_marseille","lat":43.28912,"lon":5.36879,"is_reserved":false,"is_disabled":false,"rental_uris":{"android":"levelo://app?vid=9cf72440-b25a-4df3-b036-3590a3e9673c","ios":"levelo://app?vid=9cf72440-b25a-4df3-b036-3590a3e9673c"},"vehicle_type_id":"4","last_reported":1734880074,"current_range_meters":36400,"station_id":"","pricing_plan_id":"cebpf4jnsgd1na2vs0mg"},{"bike_id":"008971e0-f1f1-4e47-a97b-408107f3d3d2","system_id":"levelo_inurba_marseille","lat":43.31169,"lon":5.38716,"is_reserved":false,"is_disabled":false,"rental_uris":{"android":"levelo://app?vid=008971e0-f1f1-4e47-a97b-408107f3d3d2","ios":"levelo://app?vid=008971e0-f1f1-4e47-a97b-408107f3d3d2"},"vehicle_type_id":"4","last_reported":1734880074,"current_range_meters":38800,"station_id":"ce4bgv12rcd13ifvqcp0","pricing_plan_id":"cebpf4jnsgd1na2vs0mg"},{"bike_id":"41d0d9f5-bb31-41f6-8358-898df39bf21c","system_id":"levelo_inurba_marseille","lat":43.25872,"lon":5.39902,"is_reserved":false,"is_disabled":false,"rental_uris":{"android":"levelo://app?vid=41d0d9f5-bb31-41f6-8358-898df39bf21c","ios":"levelo://app?vid=41d0d9f5-bb31-41f6-8358-898df39bf21c"},"vehicle_type_id":"4","last_reported":1734880074,"current_range_meters":38800,"station_id":"ce4bhl92rcd13ifvqghg","pricing_plan_id":"cebpf4jnsgd1na2vs0mg"},{"bike_id":"3781ad36-1b7f-4a8d-b722-7dd0c1a7b17c","system_id":"levelo_inurba_marseille","lat":43.26786,"lon":5.39414,"is_reserved":false,"is_disabled":false,"rental_uris":{"android":"levelo://app?vid=3781ad36-1b7f-4a8d-b722-7dd0c1a7b17c","ios":"levelo://app?vid=3781ad36-1b7f-4a8d-b722-7dd0c1a7b17c"},"vehicle_type_id":"4","last_reported":1734880074,"current_range_meters":28000,"station_id":"ce4bhh12rcd13ifvqfg0","pricing_plan_id":"cebpf4jnsgd1na2vs0mg"},{"bike_id":"dcbabd84-263c-429f-a50a-d7251f36ed59","system_id":"levelo_inurba_marseille","lat":43.283885,"lon":5.37519,"is_reserved":false,"is_disabled":false,"rental_uris":{"android":"levelo://app?vid=dcbabd84-263c-429f-a50a-d7251f36ed59","ios":"levelo://app?vid=dcbabd84-263c-429f-a50a-d7251f36ed59"},"vehicle_type_id":"4","last_reported":1734880074,"current_range_meters":17200,"station_id":"ce4bh412rcd13ifvqds0","pricing_plan_id":"cebpf4jnsgd1na2vs0mg"},{"bike_id":"e724f4e5-0922-4e36-91f4-8a4c9d514ff5","system_id":"levelo_inurba_marseille","lat":43.29845,"lon":5.36263,"is_reserved":false,"is_disabled":false,"rental_uris":{"android":"levelo://app?vid=e724f4e5-0922-4e36-91f4-8a4c9d514ff5","ios":"levelo://app?vid=e724f4e5-0922-4e36-91f4-8a4c9d514ff5"},"vehicle_type_id":"4","last_reported":1734880074,"current_range_meters":38800,"station_id":"ce4bgpp2rcd13ifvqc3g","pricing_plan_id":"cebpf4jnsgd1na2vs0mg"},{"bike_id":"9f1feb61-f0c8-4351-9b1a-a6cf0e163e13","system_id":"levelo_inurba_marseille","lat":43.3035,"lon":5.41873,"is_reserved":false,"is_disabled":false,"rental_uris":{"android":"levelo://app?vid=9f1feb61-f0c8-4351-9b1a-a6cf0e163e13","ios":"levelo://app?vid=9f1feb61-f0c8-4351-9b1a-a6cf0e163e13"},"vehicle_type_id":"4","last_reported":1734880074,"current_range_meters":23200,"station_id":"ce4bhop2rcd13ifvqh7g","pricing_plan_id":"cebpf4jnsgd1na2vs0mg"},{"bike_id":"b567452d-1653-4b1e-8f57-3d9ff57e59c9","system_id":"levelo_inurba_marseille","lat":43.29578,"lon":5.37503,"is_reserved":false,"is_disabled":false,"rental_uris":{"android":"levelo://app?vid=b567452d-1653-4b1e-8f57-3d9ff57e59c9","ios":"levelo://app?vid=b567452d-1653-4b1e-8f57-3d9ff57e59c9"},"vehicle_type_id":"4","last_reported":1734880074,"current_range_meters":22800,"station_id":"ce4bgh92rcd13ifvqb50","pricing_plan_id":"cebpf4jnsgd1na2vs0mg"},{"bike_id":"d98f0b8a-1ef4-43b4-85a1-12b00b5f4de1","system_id":"levelo_inurba_marseille","lat":43.28414,"lon":5.3499,"is_reserved":false,"is_disabled":false,"rental_uris":{"android":"levelo://app?vid=d98f0b8a-1ef4-43b4-85a1-12b00b5f4de1","ios":"levelo://app?vid=d98f0b8a-1ef4-43b4-85a1-12b00b5f4de1"},"vehicle_type_id":"4","last_reported":1734880074,"current_range_meters":35600,"station_id":"ce4bhbh2rcd13ifvqepg","pricing_plan_id":"cebpf4jnsgd1na2vs0mg"},{"bike_id":"db793b2b-b07f-400f-9e62-a0c928414636","system_id":"levelo_inurba_marseille","lat":43.33025,"lon":5.39041,"is_reserved":false,"is_disabled":false,"rental_uris":{"android":"levelo://app?vid=db793b2b-b07f-400f-9e62-a0c928414636","ios":"levelo://app?vid=db793b2b-b07f-400f-9e62-a0c928414636"},"vehicle_type_id":"4","last_reported":1734880074,"current_range_meters":22000,"station_id":"ce4bhr92rcd13ifvqhrg","pricing_plan_id":"cebpf4jnsgd1na2vs0mg"},{"bike_id":"71bbaaf0-30fa-412b-9088-f880a672af88","system_id":"levelo_inurba_marseille","lat":43.26023,"lon":5.37559,"is_reserved":false,"is_disabled":false,"rental_uris":{"android":"levelo://app?vid=71bbaaf0-30fa-412b-9088-f880a672af88","ios":"levelo://app?vid=71bbaaf0-30fa-412b-9088-f880a672af88"},"vehicle_type_id":"4","last_reported":1734880074,"current_range_meters":36400,"station_id":"ce4bhgh2rcd13ifvqfa0","pricing_plan_id":"cebpf4jnsgd1na2vs0mg"},{"bike_id":"e0982767-088c-4563-a7f9-6e3714ed3445","system_id":"levelo_inurba_marseille","lat":43.3015,"lon":5.38094,"is_reserved":false,"is_disabled":false,"rental_uris":{"android":"levelo://app?vid=e0982767-088c-4563-a7f9-6e3714ed3445","ios":"levelo://app?vid=e0982767-088c-4563-a7f9-6e3714ed3445"},"vehicle_type_id":"4","last_reported":1734880074,"current_range_meters":28800,"station_id":"ce4bgjp2rcd13ifvqbh0","pricing_plan_id":"cebpf4jnsgd1na2vs0mg"},{"bike_id":"4ba2d8d3-19b4-4608-b134-5f2d86707690","system_id":"levelo_inurba_marseille","lat":43.29575,"lon":5.37441,"is_reserved":false,"is_disabled":false,"rental_uris":{"android":"levelo://app?vid=4ba2d8d3-19b4-4608-b134-5f2d86707690","ios":"levelo://app?vid=4ba2d8d3-19b4-4608-b134-5f2d86707690"},"vehicle_type_id":"4","last_reported":1734880074,"current_range_meters":9600,"station_id":"","pricing_plan_id":"cebpf4jnsgd1na2vs0mg"},{"bike_id":"d1aed847-98af-41ac-a611-c35d33b973ea","system_id":"levelo_inurba_marseille","lat":43.27925,"lon":5.39582,"is_reserved":false,"is_disabled":true,"rental_uris":{"android":"levelo://app?vid=d1aed847-98af-41ac-a611-c35d33b973ea","ios":"levelo://app?vid=d1aed847-98af-41ac-a611-c35d33b973ea"},"vehicle_type_id":"4","last_reported":1734880074,"current_range_meters":0,"station_id":"ce4bhf92rcd13ifvqf40","pricing_plan_id":"cebpf4jnsgd1na2vs0mg"},{"bike_id":"56f1e802-0d31-4b85-8171-4fcfa9248948","system_id":"levelo_inurba_marseille","lat":43.26525,"lon":5.39595,"is_reserved":false,"is_disabled":false,"rental_uris":{"android":"levelo://app?vid=56f1e802-0d31-4b85-8171-4fcfa9248948","ios":"levelo://app?vid=56f1e802-0d31-4b85-8171-4fcfa9248948"},"vehicle_type_id":"4","last_reported":1734880074,"current_range_meters":38000,"station_id":"ce4bhi12rcd13ifvqfq0","pricing_plan_id":"cebpf4jnsgd1na2vs0mg"},{"bike_id":"252b4c9e-12c7-4a8a-8059-ec130627e2f7","system_id":"levelo_inurba_marseille","lat":43.25876,"lon":5.39909,"is_reserved":false,"is_disabled":false,"rental_uris":{"android":"levelo://app?vid=252b4c9e-12c7-4a8a-8059-ec130627e2f7","ios":"levelo://app?vid=252b4c9e-12c7-4a8a-8059-ec130627e2f7"},"vehicle_type_id":"4","last_reported":1734880074,"current_range_meters":25200,"station_id":"ce4bhl92rcd13ifvqghg","pricing_plan_id":"cebpf4jnsgd1na2vs0mg"},{"bike_id":"3309bc6a-7598-41ba-9eb3-09c9119e8592","system_id":"levelo_inurba_marseille","lat":43.26569,"lon":5.39009,"is_reserved":false,"is_disabled":false,"rental_uris":{"android":"levelo://app?vid=3309bc6a-7598-41ba-9eb3-09c9119e8592","ios":"levelo://app?vid=3309bc6a-7598-41ba-9eb3-09c9119e8592"},"vehicle_type_id":"4","last_reported":1734880074,"current_range_meters":30000,"station_id":"ce4bhe12rcd13ifvqf30","pricing_plan_id":"cebpf4jnsgd1na2vs0mg"},{"bike_id":"ce7a2d1b-18cb-4800-9137-33a0e0fe7fcc","system_id":"levelo_inurba_marseille","lat":43.28937,"lon":5.39622,"is_reserved":false,"is_disabled":false,"rental_uris":{"android":"levelo://app?vid=ce7a2d1b-18cb-4800-9137-33a0e0fe7fcc","ios":"levelo://app?vid=ce7a2d1b-18cb-4800-9137-33a0e0fe7fcc"},"vehicle_type_id":"4","last_reported":1734880074,"current_range_meters":38800,"station_id":"ce4bh3h2rcd13ifvqdn0","pricing_plan_id":"cebpf4jnsgd1na2vs0mg"},{"bike_id":"6534c60b-8eca-4d57-8c85-aca4943822f1","system_id":"levelo_inurba_marseille","lat":43.29872,"lon":5.39743,"is_reserved":false,"is_disabled":false,"rental_uris":{"android":"levelo://app?vid=6534c60b-8eca-4d57-8c85-aca4943822f1","ios":"levelo://app?vid=6534c60b-8eca-4d57-8c85-aca4943822f1"},"vehicle_type_id":"4","last_reported":1734880074,"current_range_meters":35200,"station_id":"ce4bh0h2rcd13ifvqd50","pricing_plan_id":"cebpf4jnsgd1na2vs0mg"},{"bike_id":"c9b88195-e7cd-4734-9416-e0daab0d058c","system_id":"levelo_inurba_marseille","lat":43.304637,"lon":5.379097,"is_reserved":false,"is_disabled":false,"rental_uris":{"android":"levelo://app?vid=c9b88195-e7cd-4734-9416-e0daab0d058c","ios":"levelo://app?vid=c9b88195-e7cd-4734-9416-e0daab0d058c"},"vehicle_type_id":"4","last_reported":1734880074,"current_range_meters":30000,"station_id":"ce4bgup2rcd13ifvqcn0","pricing_plan_id":"cebpf4jnsgd1na2vs0mg"},{"bike_id":"5de55ec3-b446-45b5-9e6a-b67b9996a2b3","system_id":"levelo_inurba_marseille","lat":43.2732,"lon":5.39105,"is_reserved":false,"is_disabled":true,"rental_uris":{"android":"levelo://app?vid=5de55ec3-b446-45b5-9e6a-b67b9996a2b3","ios":"levelo://app?vid=5de55ec3-b446-45b5-9e6a-b67b9996a2b3"},"vehicle_type_id":"4","last_reported":1734880074,"current_range_meters":32000,"station_id":"ce4bhgp2rcd13ifvqfe0","pricing_plan_id":"cebpf4jnsgd1na2vs0mg"},{"bike_id":"5a5c04a8-ac3e-41aa-8b09-fe959ffa35cb","system_id":"levelo_inurba_marseille","lat":43.31089,"lon":5.3778,"is_reserved":false,"is_disabled":false,"rental_uris":{"android":"levelo://app?vid=5a5c04a8-ac3e-41aa-8b09-fe959ffa35cb","ios":"levelo://app?vid=5a5c04a8-ac3e-41aa-8b09-fe959ffa35cb"},"vehicle_type_id":"4","last_reported":1734880074,"current_range_meters":26000,"station_id":"ce4bgt92rcd13ifvqcg0","pricing_plan_id":"cebpf4jnsgd1na2vs0mg"},{"bike_id":"9c5ba4f1-cf99-4485-9aef-5eac0529dc31","system_id":"levelo_inurba_marseille","lat":43.292273,"lon":5.360586,"is_reserved":false,"is_disabled":false,"rental_uris":{"android":"levelo://app?vid=9c5ba4f1-cf99-4485-9aef-5eac0529dc31","ios":"levelo://app?vid=9c5ba4f1-cf99-4485-9aef-5eac0529dc31"},"vehicle_type_id":"4","last_reported":1734880074,"current_range_meters":12800,"station_id":"ce4bhbh2rcd13ifvqeqg","pricing_plan_id":"cebpf4jnsgd1na2vs0mg"},{"bike_id":"0e27c564-6325-49c7-b7a3-a13ce86cb482","system_id":"levelo_inurba_marseille","lat":43.27958,"lon":5.38753,"is_reserved":false,"is_disabled":false,"rental_uris":{"android":"levelo://app?vid=0e27c564-6325-49c7-b7a3-a13ce86cb482","ios":"levelo://app?vid=0e27c564-6325-49c7-b7a3-a13ce86cb482"},"vehicle_type_id":"4","last_reported":1734880074,"current_range_meters":30800,"station_id":"ce4bhg12rcd13ifvqf80","pricing_plan_id":"cebpf4jnsgd1na2vs0mg"},{"bike_id":"cea7a48b-f6f3-44c8-9bdb-57d63d158c06","system_id":"levelo_inurba_marseille","lat":43.30556,"lon":5.36524,"is_reserved":false,"is_disabled":false,"rental_uris":{"android":"levelo://app?vid=cea7a48b-f6f3-44c8-9bdb-57d63d158c06","ios":"levelo://app?vid=cea7a48b-f6f3-44c8-9bdb-57d63d158c06"},"vehicle_type_id":"4","last_reported":1734880074,"current_range_meters":38800,"station_id":"ce4bgs12rcd13ifvqcag","pricing_plan_id":"cebpf4jnsgd1na2vs0mg"},{"bike_id":"a3f20b06-fbbc-488d-ab74-510676955d57","system_id":"levelo_inurba_marseille","lat":43.31883,"lon":5.40741,"is_reserved":false,"is_disabled":false,"rental_uris":{"android":"levelo://app?vid=a3f20b06-fbbc-488d-ab74-510676955d57","ios":"levelo://app?vid=a3f20b06-fbbc-488d-ab74-510676955d57"},"vehicle_type_id":"4","last_reported":1734880074,"current_range_meters":35600,"station_id":"ce4bhq12rcd13ifvqhig","pricing_plan_id":"cebpf4jnsgd1na2vs0mg"},{"bike_id":"04418a9a-a7c6-4832-811e-4b7252d70390","system_id":"levelo_inurba_marseille","lat":43.27217,"lon":5.39185,"is_reserved":false,"is_disabled":false,"rental_uris":{"android":"levelo://app?vid=04418a9a-a7c6-4832-811e-4b7252d70390","ios":"levelo://app?vid=04418a9a-a7c6-4832-811e-4b7252d70390"},"vehicle_type_id":"4","last_reported":1734880074,"current_range_meters":25200,"station_id":"ce4bhhp2rcd13ifvqfm0","pricing_plan_id":"cebpf4jnsgd1na2vs0mg"},{"bike_id":"a07eceb2-1351-4067-b582-d11fa256825d","system_id":"levelo_inurba_marseille","lat":43.29004,"lon":5.35617,"is_reserved":false,"is_disabled":false,"rental_uris":{"android":"levelo://app?vid=a07eceb2-1351-4067-b582-d11fa256825d","ios":"levelo://app?vid=a07eceb2-1351-4067-b582-d11fa256825d"},"vehicle_type_id":"4","last_reported":1734880074,"current_range_meters":33600,"station_id":"ce4bhb92rcd13ifvqen0","pricing_plan_id":"cebpf4jnsgd1na2vs0mg"},{"bike_id":"59fd5769-8a07-4d67-9caf-6945eb075031","system_id":"levelo_inurba_marseille","lat":43.26062,"lon":5.39399,"is_reserved":false,"is_disabled":false,"rental_uris":{"android":"levelo://app?vid=59fd5769-8a07-4d67-9caf-6945eb075031","ios":"levelo://app?vid=59fd5769-8a07-4d67-9caf-6945eb075031"},"vehicle_type_id":"4","last_reported":1734880074,"current_range_meters":16800,"station_id":"ce4bhh92rcd13ifvqfj0","pricing_plan_id":"cebpf4jnsgd1na2vs0mg"},{"bike_id":"ff19ce84-10b6-4ffc-b9fc-1625914b166c","system_id":"levelo_inurba_marseille","lat":43.29709,"lon":5.3662,"is_reserved":false,"is_disabled":false,"rental_uris":{"android":"levelo://app?vid=ff19ce84-10b6-4ffc-b9fc-1625914b166c","ios":"levelo://app?vid=ff19ce84-10b6-4ffc-b9fc-1625914b166c"},"vehicle_type_id":"4","last_reported":1734880074,"current_range_meters":33600,"station_id":"ce4bgn12rcd13ifvqbt0","pricing_plan_id":"cebpf4jnsgd1na2vs0mg"},{"bike_id":"e41b0b0a-7fc1-4d2c-99e6-38d294487f67","system_id":"levelo_inurba_marseille","lat":43.28662,"lon":5.3636,"is_reserved":false,"is_disabled":false,"rental_uris":{"android":"levelo://app?vid=e41b0b0a-7fc1-4d2c-99e6-38d294487f67","ios":"levelo://app?vid=e41b0b0a-7fc1-4d2c-99e6-38d294487f67"},"vehicle_type_id":"4","last_reported":1734880074,"current_range_meters":38000,"station_id":"ce4bhah2rcd13ifvqej0","pricing_plan_id":"cebpf4jnsgd1na2vs0mg"},{"bike_id":"2ecd7a5c-6b03-4906-a193-c1bc16b7668c","system_id":"levelo_inurba_marseille","lat":43.30251,"lon":5.40044,"is_reserved":false,"is_disabled":true,"rental_uris":{"android":"levelo://app?vid=2ecd7a5c-6b03-4906-a193-c1bc16b7668c","ios":"levelo://app?vid=2ecd7a5c-6b03-4906-a193-c1bc16b7668c"},"vehicle_type_id":"4","last_reported":1734880074,"current_range_meters":36400,"station_id":"ce4bgvh2rcd13ifvqcs0","pricing_plan_id":"cebpf4jnsgd1na2vs0mg"},{"bike_id":"4bcb37c0-9249-499d-890c-0bbf93d29f8b","system_id":"levelo_inurba_marseille","lat":43.23191,"lon":5.35552,"is_reserved":false,"is_disabled":true,"rental_uris":{"android":"levelo://app?vid=4bcb37c0-9249-499d-890c-0bbf93d29f8b","ios":"levelo://app?vid=4bcb37c0-9249-499d-890c-0bbf93d29f8b"},"vehicle_type_id":"4","last_reported":1734880074,"current_range_meters":26800,"station_id":"ce4bhu92rcd13ifvqi70","pricing_plan_id":"cebpf4jnsgd1na2vs0mg"},{"bike_id":"57263b19-bd39-4f7b-b29d-fb59d05995ff","system_id":"levelo_inurba_marseille","lat":43.24671,"lon":5.377,"is_reserved":false,"is_disabled":false,"rental_uris":{"android":"levelo://app?vid=57263b19-bd39-4f7b-b29d-fb59d05995ff","ios":"levelo://app?vid=57263b19-bd39-4f7b-b29d-fb59d05995ff"},"vehicle_type_id":"4","last_reported":1734880074,"current_range_meters":16000,"station_id":"","pricing_plan_id":"cebpf4jnsgd1na2vs0mg"},{"bike_id":"ba23e652-739f-4377-ab3a-1c9bd4208041","system_id":"levelo_inurba_marseille","lat":43.25085,"lon":5.39515,"is_reserved":false,"is_disabled":false,"rental_uris":{"android":"levelo://app?vid=ba23e652-739f-4377-ab3a-1c9bd4208041","ios":"levelo://app?vid=ba23e652-739f-4377-ab3a-1c9bd4208041"},"vehicle_type_id":"4","last_reported":1734880074,"current_range_meters":38800,"station_id":"ce4bhm12rcd13ifvqgkg","pricing_plan_id":"cebpf4jnsgd1na2vs0mg"},{"bike_id":"e512a51e-355e-4ca8-9ee6-3df83dcc8b7b","system_id":"levelo_inurba_marseille","lat":43.29619,"lon":5.37153,"is_reserved":false,"is_disabled":false,"rental_uris":{"android":"levelo://app?vid=e512a51e-355e-4ca8-9ee6-3df83dcc8b7b","ios":"levelo://app?vid=e512a51e-355e-4ca8-9ee6-3df83dcc8b7b"},"vehicle_type_id":"4","last_reported":1734880074,"current_range_meters":10800,"station_id":"ce4bgnh2rcd13ifvqc0g","pricing_plan_id":"cebpf4jnsgd1na2vs0mg"},{"bike_id":"ee8d4cb3-c7a1-467b-b3ac-f9755b922268","system_id":"levelo_inurba_marseille","lat":43.30486,"lon":5.37906,"is_reserved":false,"is_disabled":false,"rental_uris":{"android":"levelo://app?vid=ee8d4cb3-c7a1-467b-b3ac-f9755b922268","ios":"levelo://app?vid=ee8d4cb3-c7a1-467b-b3ac-f9755b922268"},"vehicle_type_id":"4","last_reported":1734880074,"current_range_meters":28800,"station_id":"ce4bgup2rcd13ifvqcn0","pricing_plan_id":"cebpf4jnsgd1na2vs0mg"},{"bike_id":"343bc065-3555-49ac-90b9-9f9335d87211","system_id":"levelo_inurba_marseille","lat":43.25823,"lon":5.394335,"is_reserved":false,"is_disabled":false,"rental_uris":{"android":"levelo://app?vid=343bc065-3555-49ac-90b9-9f9335d87211","ios":"levelo://app?vid=343bc065-3555-49ac-90b9-9f9335d87211"},"vehicle_type_id":"4","last_reported":1734880074,"current_range_meters":37600,"station_id":"ce4bhip2rcd13ifvqft0","pricing_plan_id":"cebpf4jnsgd1na2vs0mg"},{"bike_id":"fe5ae011-c19e-41b7-b7ad-d4ed62f50fe7","system_id":"levelo_inurba_marseille","lat":43.27207,"lon":5.39183,"is_reserved":false,"is_disabled":false,"rental_uris":{"android":"levelo://app?vid=fe5ae011-c19e-41b7-b7ad-d4ed62f50fe7","ios":"levelo://app?vid=fe5ae011-c19e-41b7-b7ad-d4ed62f50fe7"},"vehicle_type_id":"4","last_reported":1734880074,"current_range_meters":38800,"station_id":"ce4bhhp2rcd13ifvqfm0","pricing_plan_id":"cebpf4jnsgd1na2vs0mg"},{"bike_id":"f05c7e32-ee1f-4822-9688-1d8bdc5b4813","system_id":"levelo_inurba_marseille","lat":43.26681,"lon":5.38269,"is_reserved":false,"is_disabled":false,"rental_uris":{"android":"levelo://app?vid=f05c7e32-ee1f-4822-9688-1d8bdc5b4813","ios":"levelo://app?vid=f05c7e32-ee1f-4822-9688-1d8bdc5b4813"},"vehicle_type_id":"4","last_reported":1734880074,"current_range_meters":14800,"station_id":"ce4bhg92rcd13ifvqf90","pricing_plan_id":"cebpf4jnsgd1na2vs0mg"},{"bike_id":"3216941d-b90f-4166-9789-4659f8e52f65","system_id":"levelo_inurba_marseille","lat":43.26556,"lon":5.37288,"is_reserved":false,"is_disabled":false,"rental_uris":{"android":"levelo://app?vid=3216941d-b90f-4166-9789-4659f8e52f65","ios":"levelo://app?vid=3216941d-b90f-4166-9789-4659f8e52f65"},"vehicle_type_id":"4","last_reported":1734880074,"current_range_meters":14000,"station_id":"ce4bhg12rcd13ifvqf70","pricing_plan_id":"cebpf4jnsgd1na2vs0mg"},{"bike_id":"dad6db58-f5bc-4da2-b0b4-3d5d1002166b","system_id":"levelo_inurba_marseille","lat":43.32111,"lon":5.36776,"is_reserved":false,"is_disabled":false,"rental_uris":{"android":"levelo://app?vid=dad6db58-f5bc-4da2-b0b4-3d5d1002166b","ios":"levelo://app?vid=dad6db58-f5bc-4da2-b0b4-3d5d1002166b"},"vehicle_type_id":"4","last_reported":1734880074,"current_range_meters":9600,"station_id":"ce4bhrh2rcd13ifvqhug","pricing_plan_id":"cebpf4jnsgd1na2vs0mg"},{"bike_id":"9b379081-9400-478a-a0c1-7fdb9eae259e","system_id":"levelo_inurba_marseille","lat":43.23191,"lon":5.39998,"is_reserved":false,"is_disabled":true,"rental_uris":{"android":"levelo://app?vid=9b379081-9400-478a-a0c1-7fdb9eae259e","ios":"levelo://app?vid=9b379081-9400-478a-a0c1-7fdb9eae259e"},"vehicle_type_id":"4","last_reported":1734880074,"current_range_meters":20800,"station_id":"ce4bhn12rcd13ifvqgqg","pricing_plan_id":"cebpf4jnsgd1na2vs0mg"},{"bike_id":"60770c9f-5288-402e-a2f3-9eefe1cc354e","system_id":"levelo_inurba_marseille","lat":43.29562,"lon":5.37508,"is_reserved":false,"is_disabled":false,"rental_uris":{"android":"levelo://app?vid=60770c9f-5288-402e-a2f3-9eefe1cc354e","ios":"levelo://app?vid=60770c9f-5288-402e-a2f3-9eefe1cc354e"},"vehicle_type_id":"4","last_reported":1734880074,"current_range_meters":17200,"station_id":"ce4bgh92rcd13ifvqb50","pricing_plan_id":"cebpf4jnsgd1na2vs0mg"},{"bike_id":"d3686b5b-a829-479e-a14a-439694ed183e","system_id":"levelo_inurba_marseille","lat":43.27071,"lon":5.42279,"is_reserved":false,"is_disabled":false,"rental_uris":{"android":"levelo://app?vid=d3686b5b-a829-479e-a14a-439694ed183e","ios":"levelo://app?vid=d3686b5b-a829-479e-a14a-439694ed183e"},"vehicle_type_id":"4","last_reported":1734880074,"current_range_meters":28400,"station_id":"ce4bhk92rcd13ifvqgb0","pricing_plan_id":"cebpf4jnsgd1na2vs0mg"},{"bike_id":"9c40d531-c649-49cb-8395-3f2c6509ecbc","system_id":"levelo_inurba_marseille","lat":43.29293,"lon":5.374516,"is_reserved":false,"is_disabled":false,"rental_uris":{"android":"levelo://app?vid=9c40d531-c649-49cb-8395-3f2c6509ecbc","ios":"levelo://app?vid=9c40d531-c649-49cb-8395-3f2c6509ecbc"},"vehicle_type_id":"4","last_reported":1734880074,"current_range_meters":39200,"station_id":"ce4bgi12rcd13ifvqb70","pricing_plan_id":"cebpf4jnsgd1na2vs0mg"},{"bike_id":"6507bce1-e9b4-4aad-bbab-13ef4b5297a4","system_id":"levelo_inurba_marseille","lat":43.31728,"lon":5.42393,"is_reserved":false,"is_disabled":false,"rental_uris":{"android":"levelo://app?vid=6507bce1-e9b4-4aad-bbab-13ef4b5297a4","ios":"levelo://app?vid=6507bce1-e9b4-4aad-bbab-13ef4b5297a4"},"vehicle_type_id":"4","last_reported":1734880074,"current_range_meters":39200,"station_id":"ce4bhp92rcd13ifvqhbg","pricing_plan_id":"cebpf4jnsgd1na2vs0mg"},{"bike_id":"44127e4e-8e84-4a38-89f7-8f4efb63f7a5","system_id":"levelo_inurba_marseille","lat":43.31172,"lon":5.3676,"is_reserved":false,"is_disabled":true,"rental_uris":{"android":"levelo://app?vid=44127e4e-8e84-4a38-89f7-8f4efb63f7a5","ios":"levelo://app?vid=44127e4e-8e84-4a38-89f7-8f4efb63f7a5"},"vehicle_type_id":"4","last_reported":1734880074,"current_range_meters":0,"station_id":"","pricing_plan_id":"cebpf4jnsgd1na2vs0mg"},{"bike_id":"1eef5757-2a74-4727-868d-9821df78eaa2","system_id":"levelo_inurba_marseille","lat":43.25865,"lon":5.399,"is_reserved":false,"is_disabled":false,"rental_uris":{"android":"levelo://app?vid=1eef5757-2a74-4727-868d-9821df78eaa2","ios":"levelo://app?vid=1eef5757-2a74-4727-868d-9821df78eaa2"},"vehicle_type_id":"4","last_reported":1734880074,"current_range_meters":38800,"station_id":"ce4bhl92rcd13ifvqghg","pricing_plan_id":"cebpf4jnsgd1na2vs0mg"},{"bike_id":"ab786567-8bd4-45bd-b8e6-badf38aee9ee","system_id":"levelo_inurba_marseille","lat":43.31362,"lon":5.36711,"is_reserved":false,"is_disabled":false,"rental_uris":{"android":"levelo://app?vid=ab786567-8bd4-45bd-b8e6-badf38aee9ee","ios":"levelo://app?vid=ab786567-8bd4-45bd-b8e6-badf38aee9ee"},"vehicle_type_id":"4","last_reported":1734880074,"current_range_meters":38400,"station_id":"ce4bgr92rcd13ifvqc6g","pricing_plan_id":"cebpf4jnsgd1na2vs0mg"},{"bike_id":"25537870-c0aa-4ef5-b432-169fbe979bd9","system_id":"levelo_inurba_marseille","lat":43.30463,"lon":5.37903,"is_reserved":false,"is_disabled":false,"rental_uris":{"android":"levelo://app?vid=25537870-c0aa-4ef5-b432-169fbe979bd9","ios":"levelo://app?vid=25537870-c0aa-4ef5-b432-169fbe979bd9"},"vehicle_type_id":"4","last_reported":1734880074,"current_range_meters":22800,"station_id":"ce4bgup2rcd13ifvqcn0","pricing_plan_id":"cebpf4jnsgd1na2vs0mg"},{"bike_id":"6014ebd4-e8ca-4bce-8e30-b2491ea8684f","system_id":"levelo_inurba_marseille","lat":43.2418,"lon":5.39725,"is_reserved":false,"is_disabled":true,"rental_uris":{"android":"levelo://app?vid=6014ebd4-e8ca-4bce-8e30-b2491ea8684f","ios":"levelo://app?vid=6014ebd4-e8ca-4bce-8e30-b2491ea8684f"},"vehicle_type_id":"4","last_reported":1734880074,"current_range_meters":17200,"station_id":"ce4bhn12rcd13ifvqgpg","pricing_plan_id":"cebpf4jnsgd1na2vs0mg"},{"bike_id":"02e83870-d112-4c46-989d-2569e12a05c3","system_id":"levelo_inurba_marseille","lat":43.27073,"lon":5.42282,"is_reserved":false,"is_disabled":false,"rental_uris":{"android":"levelo://app?vid=02e83870-d112-4c46-989d-2569e12a05c3","ios":"levelo://app?vid=02e83870-d112-4c46-989d-2569e12a05c3"},"vehicle_type_id":"4","last_reported":1734880074,"current_range_meters":9600,"station_id":"ce4bhk92rcd13ifvqgb0","pricing_plan_id":"cebpf4jnsgd1na2vs0mg"},{"bike_id":"8f13b184-1f81-4295-b253-c00df2fe43ab","system_id":"levelo_inurba_marseille","lat":43.3053,"lon":5.36542,"is_reserved":false,"is_disabled":false,"rental_uris":{"android":"levelo://app?vid=8f13b184-1f81-4295-b253-c00df2fe43ab","ios":"levelo://app?vid=8f13b184-1f81-4295-b253-c00df2fe43ab"},"vehicle_type_id":"4","last_reported":1734880074,"current_range_meters":22400,"station_id":"ce4bgs12rcd13ifvqcag","pricing_plan_id":"cebpf4jnsgd1na2vs0mg"},{"bike_id":"1c8f9743-4deb-4e15-8ba2-1dc2049f6ca6","system_id":"levelo_inurba_marseille","lat":43.28611,"lon":5.37066,"is_reserved":false,"is_disabled":false,"rental_uris":{"android":"levelo://app?vid=1c8f9743-4deb-4e15-8ba2-1dc2049f6ca6","ios":"levelo://app?vid=1c8f9743-4deb-4e15-8ba2-1dc2049f6ca6"},"vehicle_type_id":"4","last_reported":1734880074,"current_range_meters":37600,"station_id":"ce4bht12rcd13ifvqi60","pricing_plan_id":"cebpf4jnsgd1na2vs0mg"},{"bike_id":"a59b4cb8-90c9-45c9-b1be-98d2502dd8e7","system_id":"levelo_inurba_marseille","lat":43.24663,"lon":5.38156,"is_reserved":false,"is_disabled":false,"rental_uris":{"android":"levelo://app?vid=a59b4cb8-90c9-45c9-b1be-98d2502dd8e7","ios":"levelo://app?vid=a59b4cb8-90c9-45c9-b1be-98d2502dd8e7"},"vehicle_type_id":"4","last_reported":1734880074,"current_range_meters":30000,"station_id":"ce4bhih2rcd13ifvqfr0","pricing_plan_id":"cebpf4jnsgd1na2vs0mg"},{"bike_id":"4c4857d7-70f5-4e5f-9880-b0ffae53456c","system_id":"levelo_inurba_marseille","lat":43.31231,"lon":5.36856,"is_reserved":false,"is_disabled":false,"rental_uris":{"android":"levelo://app?vid=4c4857d7-70f5-4e5f-9880-b0ffae53456c","ios":"levelo://app?vid=4c4857d7-70f5-4e5f-9880-b0ffae53456c"},"vehicle_type_id":"4","last_reported":1734880074,"current_range_meters":33200,"station_id":"ce4bgl92rcd13ifvqbq0","pricing_plan_id":"cebpf4jnsgd1na2vs0mg"},{"bike_id":"d3e9461f-341e-4280-8cd8-2a479325805e","system_id":"levelo_inurba_marseille","lat":43.24649,"lon":5.38892,"is_reserved":false,"is_disabled":false,"rental_uris":{"android":"levelo://app?vid=d3e9461f-341e-4280-8cd8-2a479325805e","ios":"levelo://app?vid=d3e9461f-341e-4280-8cd8-2a479325805e"},"vehicle_type_id":"4","last_reported":1734880074,"current_range_meters":10000,"station_id":"ce4bhg12rcd13ifvqf60","pricing_plan_id":"cebpf4jnsgd1na2vs0mg"},{"bike_id":"cb4b0459-eadc-4c1d-8da4-e2da5b66641a","system_id":"levelo_inurba_marseille","lat":43.27203,"lon":5.39186,"is_reserved":false,"is_disabled":false,"rental_uris":{"android":"levelo://app?vid=cb4b0459-eadc-4c1d-8da4-e2da5b66641a","ios":"levelo://app?vid=cb4b0459-eadc-4c1d-8da4-e2da5b66641a"},"vehicle_type_id":"4","last_reported":1734880074,"current_range_meters":38800,"station_id":"ce4bhhp2rcd13ifvqfm0","pricing_plan_id":"cebpf4jnsgd1na2vs0mg"},{"bike_id":"e4be980c-7ad0-4c3c-aec4-ec6202de5beb","system_id":"levelo_inurba_marseille","lat":43.30546,"lon":5.36562,"is_reserved":false,"is_disabled":false,"rental_uris":{"android":"levelo://app?vid=e4be980c-7ad0-4c3c-aec4-ec6202de5beb","ios":"levelo://app?vid=e4be980c-7ad0-4c3c-aec4-ec6202de5beb"},"vehicle_type_id":"4","last_reported":1734880074,"current_range_meters":35200,"station_id":"ce4bgs12rcd13ifvqcag","pricing_plan_id":"cebpf4jnsgd1na2vs0mg"},{"bike_id":"84e09380-e07c-4182-a487-97ea66008fd0","system_id":"levelo_inurba_marseille","lat":43.297851,"lon":5.381214,"is_reserved":false,"is_disabled":true,"rental_uris":{"android":"levelo://app?vid=84e09380-e07c-4182-a487-97ea66008fd0","ios":"levelo://app?vid=84e09380-e07c-4182-a487-97ea66008fd0"},"vehicle_type_id":"4","last_reported":1734880074,"current_range_meters":29600,"station_id":"ce4bgip2rcd13ifvqbb0","pricing_plan_id":"cebpf4jnsgd1na2vs0mg"},{"bike_id":"9c7eeb5b-f97e-4fc2-ab19-aaf7531bd9e2","system_id":"levelo_inurba_marseille","lat":43.30156,"lon":5.38086,"is_reserved":false,"is_disabled":false,"rental_uris":{"android":"levelo://app?vid=9c7eeb5b-f97e-4fc2-ab19-aaf7531bd9e2","ios":"levelo://app?vid=9c7eeb5b-f97e-4fc2-ab19-aaf7531bd9e2"},"vehicle_type_id":"4","last_reported":1734880074,"current_range_meters":35200,"station_id":"ce4bgjp2rcd13ifvqbh0","pricing_plan_id":"cebpf4jnsgd1na2vs0mg"},{"bike_id":"493b6713-3b2c-40b1-b0c8-19740d0fa284","system_id":"levelo_inurba_marseille","lat":43.30532,"lon":5.38436,"is_reserved":false,"is_disabled":false,"rental_uris":{"android":"levelo://app?vid=493b6713-3b2c-40b1-b0c8-19740d0fa284","ios":"levelo://app?vid=493b6713-3b2c-40b1-b0c8-19740d0fa284"},"vehicle_type_id":"4","last_reported":1734880074,"current_range_meters":36000,"station_id":"ce4bgg92rcd13ifvqb30","pricing_plan_id":"cebpf4jnsgd1na2vs0mg"},{"bike_id":"d64f2b92-771a-4148-be55-805b917dd082","system_id":"levelo_inurba_marseille","lat":43.25832,"lon":5.39428,"is_reserved":false,"is_disabled":false,"rental_uris":{"android":"levelo://app?vid=d64f2b92-771a-4148-be55-805b917dd082","ios":"levelo://app?vid=d64f2b92-771a-4148-be55-805b917dd082"},"vehicle_type_id":"4","last_reported":1734880074,"current_range_meters":1200,"station_id":"ce4bhip2rcd13ifvqft0","pricing_plan_id":"cebpf4jnsgd1na2vs0mg"},{"bike_id":"88519fb0-b454-4ab8-b506-301574b7b800","system_id":"levelo_inurba_marseille","lat":43.29004,"lon":5.3561,"is_reserved":false,"is_disabled":false,"rental_uris":{"android":"levelo://app?vid=88519fb0-b454-4ab8-b506-301574b7b800","ios":"levelo://app?vid=88519fb0-b454-4ab8-b506-301574b7b800"},"vehicle_type_id":"4","last_reported":1734880074,"current_range_meters":26000,"station_id":"ce4bhb92rcd13ifvqen0","pricing_plan_id":"cebpf4jnsgd1na2vs0mg"},{"bike_id":"a19c95a1-5ade-4f9c-a7ac-b95ba19bdc30","system_id":"levelo_inurba_marseille","lat":43.28486,"lon":5.38418,"is_reserved":false,"is_disabled":false,"rental_uris":{"android":"levelo://app?vid=a19c95a1-5ade-4f9c-a7ac-b95ba19bdc30","ios":"levelo://app?vid=a19c95a1-5ade-4f9c-a7ac-b95ba19bdc30"},"vehicle_type_id":"4","last_reported":1734880074,"current_range_meters":22400,"station_id":"ce4bh512rcd13ifvqe3g","pricing_plan_id":"cebpf4jnsgd1na2vs0mg"},{"bike_id":"e470a00f-2480-4338-8ba2-ac6ecf79cc42","system_id":"levelo_inurba_marseille","lat":43.26934,"lon":5.38922,"is_reserved":false,"is_disabled":false,"rental_uris":{"android":"levelo://app?vid=e470a00f-2480-4338-8ba2-ac6ecf79cc42","ios":"levelo://app?vid=e470a00f-2480-4338-8ba2-ac6ecf79cc42"},"vehicle_type_id":"4","last_reported":1734880074,"current_range_meters":32400,"station_id":"ce4bhhh2rcd13ifvqfl0","pricing_plan_id":"cebpf4jnsgd1na2vs0mg"},{"bike_id":"8cd1dbfd-3e4f-4abc-b619-6fa4a3f1a8ad","system_id":"levelo_inurba_marseille","lat":43.26784,"lon":5.39434,"is_reserved":false,"is_disabled":false,"rental_uris":{"android":"levelo://app?vid=8cd1dbfd-3e4f-4abc-b619-6fa4a3f1a8ad","ios":"levelo://app?vid=8cd1dbfd-3e4f-4abc-b619-6fa4a3f1a8ad"},"vehicle_type_id":"4","last_reported":1734880074,"current_range_meters":36000,"station_id":"ce4bhh12rcd13ifvqfg0","pricing_plan_id":"cebpf4jnsgd1na2vs0mg"},{"bike_id":"06c950bf-a847-427e-9be9-4c544219c97d","system_id":"levelo_inurba_marseille","lat":43.3047,"lon":5.37903,"is_reserved":false,"is_disabled":false,"rental_uris":{"android":"levelo://app?vid=06c950bf-a847-427e-9be9-4c544219c97d","ios":"levelo://app?vid=06c950bf-a847-427e-9be9-4c544219c97d"},"vehicle_type_id":"4","last_reported":1734880074,"current_range_meters":26000,"station_id":"ce4bgup2rcd13ifvqcn0","pricing_plan_id":"cebpf4jnsgd1na2vs0mg"},{"bike_id":"54c315b6-ce30-4d23-99a7-a112ef2b7153","system_id":"levelo_inurba_marseille","lat":43.26685,"lon":5.38268,"is_reserved":false,"is_disabled":false,"rental_uris":{"android":"levelo://app?vid=54c315b6-ce30-4d23-99a7-a112ef2b7153","ios":"levelo://app?vid=54c315b6-ce30-4d23-99a7-a112ef2b7153"},"vehicle_type_id":"4","last_reported":1734880074,"current_range_meters":16000,"station_id":"ce4bhg92rcd13ifvqf90","pricing_plan_id":"cebpf4jnsgd1na2vs0mg"},{"bike_id":"7e8975c6-da2c-404e-97b8-cabbfa211dd8","system_id":"levelo_inurba_marseille","lat":43.28937,"lon":5.39628,"is_reserved":false,"is_disabled":true,"rental_uris":{"android":"levelo://app?vid=7e8975c6-da2c-404e-97b8-cabbfa211dd8","ios":"levelo://app?vid=7e8975c6-da2c-404e-97b8-cabbfa211dd8"},"vehicle_type_id":"4","last_reported":1734880074,"current_range_meters":20800,"station_id":"ce4bh3h2rcd13ifvqdn0","pricing_plan_id":"cebpf4jnsgd1na2vs0mg"},{"bike_id":"53350377-5a23-4e0b-a35e-934fe2a3a1f7","system_id":"levelo_inurba_marseille","lat":43.28154,"lon":5.42645,"is_reserved":false,"is_disabled":false,"rental_uris":{"android":"levelo://app?vid=53350377-5a23-4e0b-a35e-934fe2a3a1f7","ios":"levelo://app?vid=53350377-5a23-4e0b-a35e-934fe2a3a1f7"},"vehicle_type_id":"4","last_reported":1734880074,"current_range_meters":22800,"station_id":"ce4bhnh2rcd13ifvqgug","pricing_plan_id":"cebpf4jnsgd1na2vs0mg"},{"bike_id":"fa46f150-8345-4c47-89dc-dd714e8f2794","system_id":"levelo_inurba_marseille","lat":43.29706,"lon":5.36622,"is_reserved":false,"is_disabled":false,"rental_uris":{"android":"levelo://app?vid=fa46f150-8345-4c47-89dc-dd714e8f2794","ios":"levelo://app?vid=fa46f150-8345-4c47-89dc-dd714e8f2794"},"vehicle_type_id":"4","last_reported":1734880074,"current_range_meters":29600,"station_id":"ce4bgn12rcd13ifvqbt0","pricing_plan_id":"cebpf4jnsgd1na2vs0mg"},{"bike_id":"d67e77fe-33d0-4f2c-9baa-01a12ea64716","system_id":"levelo_inurba_marseille","lat":43.25575,"lon":5.38239,"is_reserved":false,"is_disabled":false,"rental_uris":{"android":"levelo://app?vid=d67e77fe-33d0-4f2c-9baa-01a12ea64716","ios":"levelo://app?vid=d67e77fe-33d0-4f2c-9baa-01a12ea64716"},"vehicle_type_id":"4","last_reported":1734880074,"current_range_meters":38800,"station_id":"ce4bhih2rcd13ifvqfs0","pricing_plan_id":"cebpf4jnsgd1na2vs0mg"},{"bike_id":"26201faa-1024-4c0f-999f-cbd5dff65ccd","system_id":"levelo_inurba_marseille","lat":43.27314,"lon":5.39076,"is_reserved":false,"is_disabled":false,"rental_uris":{"android":"levelo://app?vid=26201faa-1024-4c0f-999f-cbd5dff65ccd","ios":"levelo://app?vid=26201faa-1024-4c0f-999f-cbd5dff65ccd"},"vehicle_type_id":"4","last_reported":1734880074,"current_range_meters":30000,"station_id":"ce4bhgp2rcd13ifvqfe0","pricing_plan_id":"cebpf4jnsgd1na2vs0mg"},{"bike_id":"baed2c0c-3b69-471a-8da0-b437e603acd3","system_id":"levelo_inurba_marseille","lat":43.25728,"lon":5.41107,"is_reserved":false,"is_disabled":false,"rental_uris":{"android":"levelo://app?vid=baed2c0c-3b69-471a-8da0-b437e603acd3","ios":"levelo://app?vid=baed2c0c-3b69-471a-8da0-b437e603acd3"},"vehicle_type_id":"4","last_reported":1734880074,"current_range_meters":35200,"station_id":"ce4bhkp2rcd13ifvqgd0","pricing_plan_id":"cebpf4jnsgd1na2vs0mg"},{"bike_id":"70816a9d-23a1-47ff-902a-f7c679bbe762","system_id":"levelo_inurba_marseille","lat":43.29724,"lon":5.37695,"is_reserved":false,"is_disabled":false,"rental_uris":{"android":"levelo://app?vid=70816a9d-23a1-47ff-902a-f7c679bbe762","ios":"levelo://app?vid=70816a9d-23a1-47ff-902a-f7c679bbe762"},"vehicle_type_id":"4","last_reported":1734880074,"current_range_meters":20400,"station_id":"ce4bgkh2rcd13ifvqbl0","pricing_plan_id":"cebpf4jnsgd1na2vs0mg"},{"bike_id":"0ca649f5-0792-4975-9f7d-493eadec5e61","system_id":"levelo_inurba_marseille","lat":43.30128,"lon":5.3984,"is_reserved":false,"is_disabled":false,"rental_uris":{"android":"levelo://app?vid=0ca649f5-0792-4975-9f7d-493eadec5e61","ios":"levelo://app?vid=0ca649f5-0792-4975-9f7d-493eadec5e61"},"vehicle_type_id":"4","last_reported":1734880074,"current_range_meters":38800,"station_id":"ce4bh0h2rcd13ifvqd40","pricing_plan_id":"cebpf4jnsgd1na2vs0mg"},{"bike_id":"c7e84c7a-efe7-4b69-8778-0a6eeef5820e","system_id":"levelo_inurba_marseille","lat":43.30142,"lon":5.39855,"is_reserved":false,"is_disabled":false,"rental_uris":{"android":"levelo://app?vid=c7e84c7a-efe7-4b69-8778-0a6eeef5820e","ios":"levelo://app?vid=c7e84c7a-efe7-4b69-8778-0a6eeef5820e"},"vehicle_type_id":"4","last_reported":1734880074,"current_range_meters":27600,"station_id":"ce4bh0h2rcd13ifvqd40","pricing_plan_id":"cebpf4jnsgd1na2vs0mg"},{"bike_id":"bf9a15af-c387-4e0e-83c2-5db944adc348","system_id":"levelo_inurba_marseille","lat":43.28,"lon":5.40026,"is_reserved":false,"is_disabled":false,"rental_uris":{"android":"levelo://app?vid=bf9a15af-c387-4e0e-83c2-5db944adc348","ios":"levelo://app?vid=bf9a15af-c387-4e0e-83c2-5db944adc348"},"vehicle_type_id":"4","last_reported":1734880074,"current_range_meters":25600,"station_id":"ce4bho92rcd13ifvqh4g","pricing_plan_id":"cebpf4jnsgd1na2vs0mg"},{"bike_id":"591e56d3-570f-4000-8104-235340497ab2","system_id":"levelo_inurba_marseille","lat":43.2803,"lon":5.369454,"is_reserved":false,"is_disabled":false,"rental_uris":{"android":"levelo://app?vid=591e56d3-570f-4000-8104-235340497ab2","ios":"levelo://app?vid=591e56d3-570f-4000-8104-235340497ab2"},"vehicle_type_id":"4","last_reported":1734880074,"current_range_meters":39200,"station_id":"ce4bha12rcd13ifvqef0","pricing_plan_id":"cebpf4jnsgd1na2vs0mg"},{"bike_id":"09c3c41f-73a8-4655-8703-171457b246b1","system_id":"levelo_inurba_marseille","lat":43.26565,"lon":5.38996,"is_reserved":false,"is_disabled":false,"rental_uris":{"android":"levelo://app?vid=09c3c41f-73a8-4655-8703-171457b246b1","ios":"levelo://app?vid=09c3c41f-73a8-4655-8703-171457b246b1"},"vehicle_type_id":"4","last_reported":1734880074,"current_range_meters":37600,"station_id":"ce4bhe12rcd13ifvqf30","pricing_plan_id":"cebpf4jnsgd1na2vs0mg"},{"bike_id":"6bda5f81-4461-449d-a260-822e9ee73f46","system_id":"levelo_inurba_marseille","lat":43.26187,"lon":5.37918,"is_reserved":false,"is_disabled":false,"rental_uris":{"android":"levelo://app?vid=6bda5f81-4461-449d-a260-822e9ee73f46","ios":"levelo://app?vid=6bda5f81-4461-449d-a260-822e9ee73f46"},"vehicle_type_id":"4","last_reported":1734880074,"current_range_meters":34800,"station_id":"ce4bhjp2rcd13ifvqg90","pricing_plan_id":"cebpf4jnsgd1na2vs0mg"},{"bike_id":"62c376e4-92f7-450f-8f5d-5cb85b396d00","system_id":"levelo_inurba_marseille","lat":43.25828,"lon":5.39428,"is_reserved":false,"is_disabled":false,"rental_uris":{"android":"levelo://app?vid=62c376e4-92f7-450f-8f5d-5cb85b396d00","ios":"levelo://app?vid=62c376e4-92f7-450f-8f5d-5cb85b396d00"},"vehicle_type_id":"4","last_reported":1734880074,"current_range_meters":27200,"station_id":"ce4bhip2rcd13ifvqft0","pricing_plan_id":"cebpf4jnsgd1na2vs0mg"},{"bike_id":"39e3c689-23f1-439a-9277-97bd1a4600ec","system_id":"levelo_inurba_marseille","lat":43.32285,"lon":5.38271,"is_reserved":false,"is_disabled":false,"rental_uris":{"android":"levelo://app?vid=39e3c689-23f1-439a-9277-97bd1a4600ec","ios":"levelo://app?vid=39e3c689-23f1-439a-9277-97bd1a4600ec"},"vehicle_type_id":"4","last_reported":1734880074,"current_range_meters":39200,"station_id":"ce4bhr12rcd13ifvqhqg","pricing_plan_id":"cebpf4jnsgd1na2vs0mg"},{"bike_id":"21ebe8be-0e2d-48fc-92b0-4f5dd7d9723b","system_id":"levelo_inurba_marseille","lat":43.34145,"lon":5.40915,"is_reserved":false,"is_disabled":false,"rental_uris":{"android":"levelo://app?vid=21ebe8be-0e2d-48fc-92b0-4f5dd7d9723b","ios":"levelo://app?vid=21ebe8be-0e2d-48fc-92b0-4f5dd7d9723b"},"vehicle_type_id":"4","last_reported":1734880074,"current_range_meters":16400,"station_id":"ce4bhqh2rcd13ifvqhlg","pricing_plan_id":"cebpf4jnsgd1na2vs0mg"},{"bike_id":"45fc8440-6713-4f40-820a-a45516790db5","system_id":"levelo_inurba_marseille","lat":43.30532,"lon":5.36544,"is_reserved":false,"is_disabled":false,"rental_uris":{"android":"levelo://app?vid=45fc8440-6713-4f40-820a-a45516790db5","ios":"levelo://app?vid=45fc8440-6713-4f40-820a-a45516790db5"},"vehicle_type_id":"4","last_reported":1734880074,"current_range_meters":27600,"station_id":"ce4bgs12rcd13ifvqcag","pricing_plan_id":"cebpf4jnsgd1na2vs0mg"},{"bike_id":"b9a2a5db-4e4f-4472-9221-981416be1b6c","system_id":"levelo_inurba_marseille","lat":43.30134,"lon":5.39878,"is_reserved":false,"is_disabled":true,"rental_uris":{"android":"levelo://app?vid=b9a2a5db-4e4f-4472-9221-981416be1b6c","ios":"levelo://app?vid=b9a2a5db-4e4f-4472-9221-981416be1b6c"},"vehicle_type_id":"4","last_reported":1734880074,"current_range_meters":34800,"station_id":"ce4bh0h2rcd13ifvqd40","pricing_plan_id":"cebpf4jnsgd1na2vs0mg"},{"bike_id":"e4e15143-800c-4f49-a6bc-8331a0ba0e9d","system_id":"levelo_inurba_marseille","lat":43.25581,"lon":5.38245,"is_reserved":false,"is_disabled":false,"rental_uris":{"android":"levelo://app?vid=e4e15143-800c-4f49-a6bc-8331a0ba0e9d","ios":"levelo://app?vid=e4e15143-800c-4f49-a6bc-8331a0ba0e9d"},"vehicle_type_id":"4","last_reported":1734880074,"current_range_meters":38800,"station_id":"ce4bhih2rcd13ifvqfs0","pricing_plan_id":"cebpf4jnsgd1na2vs0mg"},{"bike_id":"621ae826-310e-44b7-9d56-8952103f651e","system_id":"levelo_inurba_marseille","lat":43.29608,"lon":5.37713,"is_reserved":false,"is_disabled":false,"rental_uris":{"android":"levelo://app?vid=621ae826-310e-44b7-9d56-8952103f651e","ios":"levelo://app?vid=621ae826-310e-44b7-9d56-8952103f651e"},"vehicle_type_id":"4","last_reported":1734880074,"current_range_meters":38800,"station_id":"ce4bgi92rcd13ifvqb90","pricing_plan_id":"cebpf4jnsgd1na2vs0mg"},{"bike_id":"dabdb816-8280-4165-8f88-ae205fe0accb","system_id":"levelo_inurba_marseille","lat":43.23957,"lon":5.36657,"is_reserved":false,"is_disabled":false,"rental_uris":{"android":"levelo://app?vid=dabdb816-8280-4165-8f88-ae205fe0accb","ios":"levelo://app?vid=dabdb816-8280-4165-8f88-ae205fe0accb"},"vehicle_type_id":"4","last_reported":1734880074,"current_range_meters":32000,"station_id":"ce4bhi12rcd13ifvqfp0","pricing_plan_id":"cebpf4jnsgd1na2vs0mg"},{"bike_id":"cfd35e1e-38d8-4644-abc8-fe08b09f16dd","system_id":"levelo_inurba_marseille","lat":43.29301,"lon":5.3746,"is_reserved":false,"is_disabled":false,"rental_uris":{"android":"levelo://app?vid=cfd35e1e-38d8-4644-abc8-fe08b09f16dd","ios":"levelo://app?vid=cfd35e1e-38d8-4644-abc8-fe08b09f16dd"},"vehicle_type_id":"4","last_reported":1734880074,"current_range_meters":8800,"station_id":"ce4bgi12rcd13ifvqb70","pricing_plan_id":"cebpf4jnsgd1na2vs0mg"},{"bike_id":"18bc712f-05f8-4bfe-a81a-9b0f3911a5b1","system_id":"levelo_inurba_marseille","lat":43.2757,"lon":5.38416,"is_reserved":false,"is_disabled":false,"rental_uris":{"android":"levelo://app?vid=18bc712f-05f8-4bfe-a81a-9b0f3911a5b1","ios":"levelo://app?vid=18bc712f-05f8-4bfe-a81a-9b0f3911a5b1"},"vehicle_type_id":"4","last_reported":1734880074,"current_range_meters":39200,"station_id":"ce4bhh92rcd13ifvqfi0","pricing_plan_id":"cebpf4jnsgd1na2vs0mg"},{"bike_id":"22e66b11-3e23-43cb-9c20-6c0e8eef12f1","system_id":"levelo_inurba_marseille","lat":43.29336,"lon":5.37865,"is_reserved":false,"is_disabled":false,"rental_uris":{"android":"levelo://app?vid=22e66b11-3e23-43cb-9c20-6c0e8eef12f1","ios":"levelo://app?vid=22e66b11-3e23-43cb-9c20-6c0e8eef12f1"},"vehicle_type_id":"4","last_reported":1734880074,"current_range_meters":36800,"station_id":"ce4bgjh2rcd13ifvqbf0","pricing_plan_id":"cebpf4jnsgd1na2vs0mg"},{"bike_id":"2d995820-d040-480b-a897-bf9d5f03891e","system_id":"levelo_inurba_marseille","lat":43.29389,"lon":5.37854,"is_reserved":false,"is_disabled":true,"rental_uris":{"android":"levelo://app?vid=2d995820-d040-480b-a897-bf9d5f03891e","ios":"levelo://app?vid=2d995820-d040-480b-a897-bf9d5f03891e"},"vehicle_type_id":"4","last_reported":1734880074,"current_range_meters":35200,"station_id":"ce4bgjh2rcd13ifvqbf0","pricing_plan_id":"cebpf4jnsgd1na2vs0mg"},{"bike_id":"343bdba5-56cf-4dfd-9495-0464c409cdad","system_id":"levelo_inurba_marseille","lat":43.24077,"lon":5.37755,"is_reserved":false,"is_disabled":false,"rental_uris":{"android":"levelo://app?vid=343bdba5-56cf-4dfd-9495-0464c409cdad","ios":"levelo://app?vid=343bdba5-56cf-4dfd-9495-0464c409cdad"},"vehicle_type_id":"4","last_reported":1734880074,"current_range_meters":33200,"station_id":"ce4bhnp2rcd13ifvqgvg","pricing_plan_id":"cebpf4jnsgd1na2vs0mg"},{"bike_id":"70abcd4b-ecda-4a83-abb2-ac425f1befa2","system_id":"levelo_inurba_marseille","lat":43.29729,"lon":5.37695,"is_reserved":false,"is_disabled":false,"rental_uris":{"android":"levelo://app?vid=70abcd4b-ecda-4a83-abb2-ac425f1befa2","ios":"levelo://app?vid=70abcd4b-ecda-4a83-abb2-ac425f1befa2"},"vehicle_type_id":"4","last_reported":1734880074,"current_range_meters":19200,"station_id":"ce4bgkh2rcd13ifvqbl0","pricing_plan_id":"cebpf4jnsgd1na2vs0mg"},{"bike_id":"28914c1d-40ed-4db8-aff2-9cd5e739b4f4","system_id":"levelo_inurba_marseille","lat":43.27057,"lon":5.40262,"is_reserved":false,"is_disabled":false,"rental_uris":{"android":"levelo://app?vid=28914c1d-40ed-4db8-aff2-9cd5e739b4f4","ios":"levelo://app?vid=28914c1d-40ed-4db8-aff2-9cd5e739b4f4"},"vehicle_type_id":"4","last_reported":1734880074,"current_range_meters":28400,"station_id":"ce4bhk92rcd13ifvqgc0","pricing_plan_id":"cebpf4jnsgd1na2vs0mg"},{"bike_id":"9e7661e6-cb24-441f-9f34-a97f4c746eea","system_id":"levelo_inurba_marseille","lat":43.30283,"lon":5.37702,"is_reserved":false,"is_disabled":false,"rental_uris":{"android":"levelo://app?vid=9e7661e6-cb24-441f-9f34-a97f4c746eea","ios":"levelo://app?vid=9e7661e6-cb24-441f-9f34-a97f4c746eea"},"vehicle_type_id":"4","last_reported":1734880074,"current_range_meters":35600,"station_id":"ce4bguh2rcd13ifvqcj0","pricing_plan_id":"cebpf4jnsgd1na2vs0mg"},{"bike_id":"dfcdb34a-6d91-4bd5-83b3-df14955564a1","system_id":"levelo_inurba_marseille","lat":43.27843,"lon":5.39211,"is_reserved":false,"is_disabled":true,"rental_uris":{"android":"levelo://app?vid=dfcdb34a-6d91-4bd5-83b3-df14955564a1","ios":"levelo://app?vid=dfcdb34a-6d91-4bd5-83b3-df14955564a1"},"vehicle_type_id":"4","last_reported":1734880074,"current_range_meters":38800,"station_id":"ce4bhjp2rcd13ifvqga0","pricing_plan_id":"cebpf4jnsgd1na2vs0mg"},{"bike_id":"4f188835-24c2-4591-b181-38380001a4af","system_id":"levelo_inurba_marseille","lat":43.24658,"lon":5.38173,"is_reserved":false,"is_disabled":false,"rental_uris":{"android":"levelo://app?vid=4f188835-24c2-4591-b181-38380001a4af","ios":"levelo://app?vid=4f188835-24c2-4591-b181-38380001a4af"},"vehicle_type_id":"4","last_reported":1734880074,"current_range_meters":38800,"station_id":"ce4bhih2rcd13ifvqfr0","pricing_plan_id":"cebpf4jnsgd1na2vs0mg"},{"bike_id":"d7b5a942-3f2c-4e4b-8953-50dcd186d766","system_id":"levelo_inurba_marseille","lat":43.27177,"lon":5.40999,"is_reserved":false,"is_disabled":false,"rental_uris":{"android":"levelo://app?vid=d7b5a942-3f2c-4e4b-8953-50dcd186d766","ios":"levelo://app?vid=d7b5a942-3f2c-4e4b-8953-50dcd186d766"},"vehicle_type_id":"4","last_reported":1734880074,"current_range_meters":36400,"station_id":"ce4bhl12rcd13ifvqgf0","pricing_plan_id":"cebpf4jnsgd1na2vs0mg"},{"bike_id":"49580bca-7fdd-4980-ba9d-b58e16ff3054","system_id":"levelo_inurba_marseille","lat":43.29849,"lon":5.36278,"is_reserved":false,"is_disabled":false,"rental_uris":{"android":"levelo://app?vid=49580bca-7fdd-4980-ba9d-b58e16ff3054","ios":"levelo://app?vid=49580bca-7fdd-4980-ba9d-b58e16ff3054"},"vehicle_type_id":"4","last_reported":1734880074,"current_range_meters":32400,"station_id":"ce4bgpp2rcd13ifvqc3g","pricing_plan_id":"cebpf4jnsgd1na2vs0mg"},{"bike_id":"893786ee-443c-4a77-9f05-2ca93c0d3ede","system_id":"levelo_inurba_marseille","lat":43.25827,"lon":5.39436,"is_reserved":false,"is_disabled":false,"rental_uris":{"android":"levelo://app?vid=893786ee-443c-4a77-9f05-2ca93c0d3ede","ios":"levelo://app?vid=893786ee-443c-4a77-9f05-2ca93c0d3ede"},"vehicle_type_id":"4","last_reported":1734880074,"current_range_meters":28000,"station_id":"ce4bhip2rcd13ifvqft0","pricing_plan_id":"cebpf4jnsgd1na2vs0mg"},{"bike_id":"ef79c047-6c72-4916-ad9a-fd9a3dd38f21","system_id":"levelo_inurba_marseille","lat":43.27491,"lon":5.42459,"is_reserved":false,"is_disabled":false,"rental_uris":{"android":"levelo://app?vid=ef79c047-6c72-4916-ad9a-fd9a3dd38f21","ios":"levelo://app?vid=ef79c047-6c72-4916-ad9a-fd9a3dd38f21"},"vehicle_type_id":"4","last_reported":1734880074,"current_range_meters":10800,"station_id":"ce4bhn92rcd13ifvqgrg","pricing_plan_id":"cebpf4jnsgd1na2vs0mg"},{"bike_id":"d75d286e-64d5-4cfe-8c3d-c770ddc5166b","system_id":"levelo_inurba_marseille","lat":43.29294,"lon":5.37462,"is_reserved":false,"is_disabled":false,"rental_uris":{"android":"levelo://app?vid=d75d286e-64d5-4cfe-8c3d-c770ddc5166b","ios":"levelo://app?vid=d75d286e-64d5-4cfe-8c3d-c770ddc5166b"},"vehicle_type_id":"4","last_reported":1734880074,"current_range_meters":8800,"station_id":"ce4bgi12rcd13ifvqb70","pricing_plan_id":"cebpf4jnsgd1na2vs0mg"},{"bike_id":"a8241d4a-6511-4c13-8389-e037a362bfcf","system_id":"levelo_inurba_marseille","lat":43.28455,"lon":5.35895,"is_reserved":false,"is_disabled":false,"rental_uris":{"android":"levelo://app?vid=a8241d4a-6511-4c13-8389-e037a362bfcf","ios":"levelo://app?vid=a8241d4a-6511-4c13-8389-e037a362bfcf"},"vehicle_type_id":"4","last_reported":1734880074,"current_range_meters":37600,"station_id":"ce4bhah2rcd13ifvqei0","pricing_plan_id":"cebpf4jnsgd1na2vs0mg"},{"bike_id":"78f1acb4-10fc-4d66-ab97-e1d5904d7828","system_id":"levelo_inurba_marseille","lat":43.30569,"lon":5.36528,"is_reserved":false,"is_disabled":false,"rental_uris":{"android":"levelo://app?vid=78f1acb4-10fc-4d66-ab97-e1d5904d7828","ios":"levelo://app?vid=78f1acb4-10fc-4d66-ab97-e1d5904d7828"},"vehicle_type_id":"4","last_reported":1734880074,"current_range_meters":30400,"station_id":"ce4bgs12rcd13ifvqcag","pricing_plan_id":"cebpf4jnsgd1na2vs0mg"},{"bike_id":"537ef1bf-3a78-45af-b334-3a2c52a599a8","system_id":"levelo_inurba_marseille","lat":43.34139,"lon":5.40902,"is_reserved":false,"is_disabled":false,"rental_uris":{"android":"levelo://app?vid=537ef1bf-3a78-45af-b334-3a2c52a599a8","ios":"levelo://app?vid=537ef1bf-3a78-45af-b334-3a2c52a599a8"},"vehicle_type_id":"4","last_reported":1734880074,"current_range_meters":38800,"station_id":"ce4bhqh2rcd13ifvqhlg","pricing_plan_id":"cebpf4jnsgd1na2vs0mg"},{"bike_id":"953fa91a-e91e-43c3-9dad-6b42be586d88","system_id":"levelo_inurba_marseille","lat":43.2721,"lon":5.3918,"is_reserved":false,"is_disabled":false,"rental_uris":{"android":"levelo://app?vid=953fa91a-e91e-43c3-9dad-6b42be586d88","ios":"levelo://app?vid=953fa91a-e91e-43c3-9dad-6b42be586d88"},"vehicle_type_id":"4","last_reported":1734880074,"current_range_meters":19600,"station_id":"ce4bhhp2rcd13ifvqfm0","pricing_plan_id":"cebpf4jnsgd1na2vs0mg"},{"bike_id":"7cfa7914-a6fa-49c8-b1ec-dbe48b7366ea","system_id":"levelo_inurba_marseille","lat":43.24386,"lon":5.3706,"is_reserved":false,"is_disabled":false,"rental_uris":{"android":"levelo://app?vid=7cfa7914-a6fa-49c8-b1ec-dbe48b7366ea","ios":"levelo://app?vid=7cfa7914-a6fa-49c8-b1ec-dbe48b7366ea"},"vehicle_type_id":"4","last_reported":1734880074,"current_range_meters":35600,"station_id":"ce4bhhh2rcd13ifvqfk0","pricing_plan_id":"cebpf4jnsgd1na2vs0mg"},{"bike_id":"88451a00-5ecd-4ab5-91f4-d6e64d252e2c","system_id":"levelo_inurba_marseille","lat":43.29295,"lon":5.37449,"is_reserved":false,"is_disabled":true,"rental_uris":{"android":"levelo://app?vid=88451a00-5ecd-4ab5-91f4-d6e64d252e2c","ios":"levelo://app?vid=88451a00-5ecd-4ab5-91f4-d6e64d252e2c"},"vehicle_type_id":"4","last_reported":1734880074,"current_range_meters":38800,"station_id":"ce4bgi12rcd13ifvqb70","pricing_plan_id":"cebpf4jnsgd1na2vs0mg"},{"bike_id":"b07e0204-2c57-49d1-a1f7-320de8610e25","system_id":"levelo_inurba_marseille","lat":43.29402,"lon":5.37344,"is_reserved":false,"is_disabled":false,"rental_uris":{"android":"levelo://app?vid=b07e0204-2c57-49d1-a1f7-320de8610e25","ios":"levelo://app?vid=b07e0204-2c57-49d1-a1f7-320de8610e25"},"vehicle_type_id":"4","last_reported":1734880074,"current_range_meters":28000,"station_id":"","pricing_plan_id":"cebpf4jnsgd1na2vs0mg"},{"bike_id":"45e3c6e8-2425-480d-954d-84a4d8588f4d","system_id":"levelo_inurba_marseille","lat":43.31698,"lon":5.40465,"is_reserved":false,"is_disabled":false,"rental_uris":{"android":"levelo://app?vid=45e3c6e8-2425-480d-954d-84a4d8588f4d","ios":"levelo://app?vid=45e3c6e8-2425-480d-954d-84a4d8588f4d"},"vehicle_type_id":"4","last_reported":1734880074,"current_range_meters":31200,"station_id":"ce4bh012rcd13ifvqd00","pricing_plan_id":"cebpf4jnsgd1na2vs0mg"},{"bike_id":"2e2dfe4a-f704-4e25-b81a-77585c91d6a8","system_id":"levelo_inurba_marseille","lat":43.296016,"lon":5.374982,"is_reserved":false,"is_disabled":false,"rental_uris":{"android":"levelo://app?vid=2e2dfe4a-f704-4e25-b81a-77585c91d6a8","ios":"levelo://app?vid=2e2dfe4a-f704-4e25-b81a-77585c91d6a8"},"vehicle_type_id":"4","last_reported":1734880074,"current_range_meters":36000,"station_id":"ce4bgh92rcd13ifvqb50","pricing_plan_id":"cebpf4jnsgd1na2vs0mg"},{"bike_id":"f35875b4-d6fc-4eba-8d3c-4d5af3527339","system_id":"levelo_inurba_marseille","lat":43.3079,"lon":5.38172,"is_reserved":false,"is_disabled":false,"rental_uris":{"android":"levelo://app?vid=f35875b4-d6fc-4eba-8d3c-4d5af3527339","ios":"levelo://app?vid=f35875b4-d6fc-4eba-8d3c-4d5af3527339"},"vehicle_type_id":"4","last_reported":1734880074,"current_range_meters":28800,"station_id":"ce4bgt12rcd13ifvqce0","pricing_plan_id":"cebpf4jnsgd1na2vs0mg"},{"bike_id":"f40e7c61-8a43-4da7-a842-fa391ba2fc6e","system_id":"levelo_inurba_marseille","lat":43.26028,"lon":5.37562,"is_reserved":false,"is_disabled":false,"rental_uris":{"android":"levelo://app?vid=f40e7c61-8a43-4da7-a842-fa391ba2fc6e","ios":"levelo://app?vid=f40e7c61-8a43-4da7-a842-fa391ba2fc6e"},"vehicle_type_id":"4","last_reported":1734880074,"current_range_meters":34800,"station_id":"ce4bhgh2rcd13ifvqfa0","pricing_plan_id":"cebpf4jnsgd1na2vs0mg"},{"bike_id":"0ba6d847-b04d-4662-8e74-a4fd8409ab96","system_id":"levelo_inurba_marseille","lat":43.26787,"lon":5.39451,"is_reserved":false,"is_disabled":true,"rental_uris":{"android":"levelo://app?vid=0ba6d847-b04d-4662-8e74-a4fd8409ab96","ios":"levelo://app?vid=0ba6d847-b04d-4662-8e74-a4fd8409ab96"},"vehicle_type_id":"4","last_reported":1734880074,"current_range_meters":24400,"station_id":"ce4bhh12rcd13ifvqfg0","pricing_plan_id":"cebpf4jnsgd1na2vs0mg"},{"bike_id":"f0bcbb45-555d-4c5b-8534-084b0fafc4e9","system_id":"levelo_inurba_marseille","lat":43.29173,"lon":5.37149,"is_reserved":false,"is_disabled":true,"rental_uris":{"android":"levelo://app?vid=f0bcbb45-555d-4c5b-8534-084b0fafc4e9","ios":"levelo://app?vid=f0bcbb45-555d-4c5b-8534-084b0fafc4e9"},"vehicle_type_id":"4","last_reported":1734880074,"current_range_meters":35600,"station_id":"ce4bha92rcd13ifvqeh0","pricing_plan_id":"cebpf4jnsgd1na2vs0mg"},{"bike_id":"b7cceb73-4a64-4fd6-937c-1c679b03f586","system_id":"levelo_inurba_marseille","lat":43.30146,"lon":5.37421,"is_reserved":false,"is_disabled":false,"rental_uris":{"android":"levelo://app?vid=b7cceb73-4a64-4fd6-937c-1c679b03f586","ios":"levelo://app?vid=b7cceb73-4a64-4fd6-937c-1c679b03f586"},"vehicle_type_id":"4","last_reported":1734880074,"current_range_meters":35600,"station_id":"ce4bgs92rcd13ifvqcc0","pricing_plan_id":"cebpf4jnsgd1na2vs0mg"},{"bike_id":"98f49c57-a895-4ad7-a3e5-5b77d7d74888","system_id":"levelo_inurba_marseille","lat":43.28474,"lon":5.38419,"is_reserved":false,"is_disabled":false,"rental_uris":{"android":"levelo://app?vid=98f49c57-a895-4ad7-a3e5-5b77d7d74888","ios":"levelo://app?vid=98f49c57-a895-4ad7-a3e5-5b77d7d74888"},"vehicle_type_id":"4","last_reported":1734880074,"current_range_meters":35200,"station_id":"ce4bh512rcd13ifvqe3g","pricing_plan_id":"cebpf4jnsgd1na2vs0mg"},{"bike_id":"edbdedbc-efd2-4d52-a241-dec6b106318b","system_id":"levelo_inurba_marseille","lat":43.30541,"lon":5.36705,"is_reserved":false,"is_disabled":false,"rental_uris":{"android":"levelo://app?vid=edbdedbc-efd2-4d52-a241-dec6b106318b","ios":"levelo://app?vid=edbdedbc-efd2-4d52-a241-dec6b106318b"},"vehicle_type_id":"4","last_reported":1734880074,"current_range_meters":39200,"station_id":"ce4bgrp2rcd13ifvqc9g","pricing_plan_id":"cebpf4jnsgd1na2vs0mg"},{"bike_id":"63f6e179-512f-44a7-80a0-4970a4e4560e","system_id":"levelo_inurba_marseille","lat":43.29285,"lon":5.374561,"is_reserved":false,"is_disabled":false,"rental_uris":{"android":"levelo://app?vid=63f6e179-512f-44a7-80a0-4970a4e4560e","ios":"levelo://app?vid=63f6e179-512f-44a7-80a0-4970a4e4560e"},"vehicle_type_id":"4","last_reported":1734880074,"current_range_meters":39200,"station_id":"ce4bgi12rcd13ifvqb70","pricing_plan_id":"cebpf4jnsgd1na2vs0mg"},{"bike_id":"725f2ba4-42ee-480b-a31f-097189b1c2cf","system_id":"levelo_inurba_marseille","lat":43.29187,"lon":5.35803,"is_reserved":false,"is_disabled":true,"rental_uris":{"android":"levelo://app?vid=725f2ba4-42ee-480b-a31f-097189b1c2cf","ios":"levelo://app?vid=725f2ba4-42ee-480b-a31f-097189b1c2cf"},"vehicle_type_id":"4","last_reported":1734880074,"current_range_meters":37600,"station_id":"ce4bhb12rcd13ifvqel0","pricing_plan_id":"cebpf4jnsgd1na2vs0mg"},{"bike_id":"d1fd87b1-2e07-4c52-bf87-3ebd02f575b7","system_id":"levelo_inurba_marseille","lat":43.29928,"lon":5.36538,"is_reserved":false,"is_disabled":false,"rental_uris":{"android":"levelo://app?vid=d1fd87b1-2e07-4c52-bf87-3ebd02f575b7","ios":"levelo://app?vid=d1fd87b1-2e07-4c52-bf87-3ebd02f575b7"},"vehicle_type_id":"4","last_reported":1734880074,"current_range_meters":14000,"station_id":"ce4bgm92rcd13ifvqbr0","pricing_plan_id":"cebpf4jnsgd1na2vs0mg"},{"bike_id":"e1febadc-c78d-4002-abaa-0d3872e277c8","system_id":"levelo_inurba_marseille","lat":43.26212,"lon":5.37443,"is_reserved":false,"is_disabled":false,"rental_uris":{"android":"levelo://app?vid=e1febadc-c78d-4002-abaa-0d3872e277c8","ios":"levelo://app?vid=e1febadc-c78d-4002-abaa-0d3872e277c8"},"vehicle_type_id":"4","last_reported":1734880074,"current_range_meters":34800,"station_id":"ce4bhgp2rcd13ifvqfc0","pricing_plan_id":"cebpf4jnsgd1na2vs0mg"},{"bike_id":"c4ce525d-967d-4663-838d-692388f3fdc6","system_id":"levelo_inurba_marseille","lat":43.29268,"lon":5.40117,"is_reserved":false,"is_disabled":true,"rental_uris":{"android":"levelo://app?vid=c4ce525d-967d-4663-838d-692388f3fdc6","ios":"levelo://app?vid=c4ce525d-967d-4663-838d-692388f3fdc6"},"vehicle_type_id":"4","last_reported":1734880074,"current_range_meters":0,"station_id":"ce4bh312rcd13ifvqdk0","pricing_plan_id":"cebpf4jnsgd1na2vs0mg"},{"bike_id":"4094ac40-fe97-4483-91f4-bc4b6a97b4f3","system_id":"levelo_inurba_marseille","lat":43.25836,"lon":5.39447,"is_reserved":false,"is_disabled":true,"rental_uris":{"android":"levelo://app?vid=4094ac40-fe97-4483-91f4-bc4b6a97b4f3","ios":"levelo://app?vid=4094ac40-fe97-4483-91f4-bc4b6a97b4f3"},"vehicle_type_id":"4","last_reported":1734880074,"current_range_meters":0,"station_id":"ce4bhip2rcd13ifvqft0","pricing_plan_id":"cebpf4jnsgd1na2vs0mg"},{"bike_id":"ed495aba-f9b6-4311-b39c-649f2202b23f","system_id":"levelo_inurba_marseille","lat":43.27551,"lon":5.38433,"is_reserved":false,"is_disabled":false,"rental_uris":{"android":"levelo://app?vid=ed495aba-f9b6-4311-b39c-649f2202b23f","ios":"levelo://app?vid=ed495aba-f9b6-4311-b39c-649f2202b23f"},"vehicle_type_id":"4","last_reported":1734880074,"current_range_meters":39200,"station_id":"ce4bhh92rcd13ifvqfi0","pricing_plan_id":"cebpf4jnsgd1na2vs0mg"},{"bike_id":"f953c87c-4ea7-4e78-9490-68e955a0946d","system_id":"levelo_inurba_marseille","lat":43.25488,"lon":5.37647,"is_reserved":false,"is_disabled":true,"rental_uris":{"android":"levelo://app?vid=f953c87c-4ea7-4e78-9490-68e955a0946d","ios":"levelo://app?vid=f953c87c-4ea7-4e78-9490-68e955a0946d"},"vehicle_type_id":"4","last_reported":1734880074,"current_range_meters":13600,"station_id":"ce4bhh12rcd13ifvqff0","pricing_plan_id":"cebpf4jnsgd1na2vs0mg"},{"bike_id":"eddf6680-846f-4329-a45c-ae95db2c1ac9","system_id":"levelo_inurba_marseille","lat":43.26212,"lon":5.37445,"is_reserved":false,"is_disabled":false,"rental_uris":{"android":"levelo://app?vid=eddf6680-846f-4329-a45c-ae95db2c1ac9","ios":"levelo://app?vid=eddf6680-846f-4329-a45c-ae95db2c1ac9"},"vehicle_type_id":"4","last_reported":1734880074,"current_range_meters":38000,"station_id":"ce4bhgp2rcd13ifvqfc0","pricing_plan_id":"cebpf4jnsgd1na2vs0mg"},{"bike_id":"6b186745-2091-424b-a646-ec954a3aff8a","system_id":"levelo_inurba_marseille","lat":43.24669,"lon":5.38154,"is_reserved":false,"is_disabled":false,"rental_uris":{"android":"levelo://app?vid=6b186745-2091-424b-a646-ec954a3aff8a","ios":"levelo://app?vid=6b186745-2091-424b-a646-ec954a3aff8a"},"vehicle_type_id":"4","last_reported":1734880074,"current_range_meters":23200,"station_id":"ce4bhih2rcd13ifvqfr0","pricing_plan_id":"cebpf4jnsgd1na2vs0mg"},{"bike_id":"c91da701-8020-4c63-924e-c2588244a161","system_id":"levelo_inurba_marseille","lat":43.31166,"lon":5.38717,"is_reserved":false,"is_disabled":true,"rental_uris":{"android":"levelo://app?vid=c91da701-8020-4c63-924e-c2588244a161","ios":"levelo://app?vid=c91da701-8020-4c63-924e-c2588244a161"},"vehicle_type_id":"4","last_reported":1734880074,"current_range_meters":0,"station_id":"ce4bgv12rcd13ifvqcp0","pricing_plan_id":"cebpf4jnsgd1na2vs0mg"},{"bike_id":"b73b3cc8-26fa-4032-8e99-f74b6ff40c2a","system_id":"levelo_inurba_marseille","lat":43.27015,"lon":5.40205,"is_reserved":false,"is_disabled":false,"rental_uris":{"android":"levelo://app?vid=b73b3cc8-26fa-4032-8e99-f74b6ff40c2a","ios":"levelo://app?vid=b73b3cc8-26fa-4032-8e99-f74b6ff40c2a"},"vehicle_type_id":"4","last_reported":1734880074,"current_range_meters":12800,"station_id":"","pricing_plan_id":"cebpf4jnsgd1na2vs0mg"},{"bike_id":"0fa4fd6a-c920-470e-9628-342bc95af557","system_id":"levelo_inurba_marseille","lat":43.24661,"lon":5.38152,"is_reserved":false,"is_disabled":false,"rental_uris":{"android":"levelo://app?vid=0fa4fd6a-c920-470e-9628-342bc95af557","ios":"levelo://app?vid=0fa4fd6a-c920-470e-9628-342bc95af557"},"vehicle_type_id":"4","last_reported":1734880074,"current_range_meters":33200,"station_id":"ce4bhih2rcd13ifvqfr0","pricing_plan_id":"cebpf4jnsgd1na2vs0mg"},{"bike_id":"32ebf098-e002-4aa6-88f7-5b365ee05e11","system_id":"levelo_inurba_marseille","lat":43.24081,"lon":5.37743,"is_reserved":false,"is_disabled":true,"rental_uris":{"android":"levelo://app?vid=32ebf098-e002-4aa6-88f7-5b365ee05e11","ios":"levelo://app?vid=32ebf098-e002-4aa6-88f7-5b365ee05e11"},"vehicle_type_id":"4","last_reported":1734880074,"current_range_meters":0,"station_id":"ce4bhnp2rcd13ifvqgvg","pricing_plan_id":"cebpf4jnsgd1na2vs0mg"},{"bike_id":"f6b024b5-e783-43f1-8ad0-31f1fcd6d3d9","system_id":"levelo_inurba_marseille","lat":43.30467,"lon":5.37915,"is_reserved":false,"is_disabled":false,"rental_uris":{"android":"levelo://app?vid=f6b024b5-e783-43f1-8ad0-31f1fcd6d3d9","ios":"levelo://app?vid=f6b024b5-e783-43f1-8ad0-31f1fcd6d3d9"},"vehicle_type_id":"4","last_reported":1734880074,"current_range_meters":32000,"station_id":"ce4bgup2rcd13ifvqcn0","pricing_plan_id":"cebpf4jnsgd1na2vs0mg"},{"bike_id":"aea1fce2-2ac2-4214-9613-fa3aae7cc4b7","system_id":"levelo_inurba_marseille","lat":43.29572,"lon":5.37506,"is_reserved":false,"is_disabled":false,"rental_uris":{"android":"levelo://app?vid=aea1fce2-2ac2-4214-9613-fa3aae7cc4b7","ios":"levelo://app?vid=aea1fce2-2ac2-4214-9613-fa3aae7cc4b7"},"vehicle_type_id":"4","last_reported":1734880074,"current_range_meters":29600,"station_id":"ce4bgh92rcd13ifvqb50","pricing_plan_id":"cebpf4jnsgd1na2vs0mg"},{"bike_id":"e8851d0d-7d4b-4d7f-ab0f-3e23c1ed1d24","system_id":"levelo_inurba_marseille","lat":43.27325,"lon":5.39086,"is_reserved":false,"is_disabled":false,"rental_uris":{"android":"levelo://app?vid=e8851d0d-7d4b-4d7f-ab0f-3e23c1ed1d24","ios":"levelo://app?vid=e8851d0d-7d4b-4d7f-ab0f-3e23c1ed1d24"},"vehicle_type_id":"4","last_reported":1734880074,"current_range_meters":38800,"station_id":"ce4bhgp2rcd13ifvqfe0","pricing_plan_id":"cebpf4jnsgd1na2vs0mg"},{"bike_id":"65aa7d33-db19-4b48-b2a2-a177bc62ee14","system_id":"levelo_inurba_marseille","lat":43.29842,"lon":5.36273,"is_reserved":false,"is_disabled":false,"rental_uris":{"android":"levelo://app?vid=65aa7d33-db19-4b48-b2a2-a177bc62ee14","ios":"levelo://app?vid=65aa7d33-db19-4b48-b2a2-a177bc62ee14"},"vehicle_type_id":"4","last_reported":1734880074,"current_range_meters":33600,"station_id":"ce4bgpp2rcd13ifvqc3g","pricing_plan_id":"cebpf4jnsgd1na2vs0mg"},{"bike_id":"c3da3dee-e44b-4474-8e37-68f63ffe7a0b","system_id":"levelo_inurba_marseille","lat":43.30467,"lon":5.37918,"is_reserved":false,"is_disabled":false,"rental_uris":{"android":"levelo://app?vid=c3da3dee-e44b-4474-8e37-68f63ffe7a0b","ios":"levelo://app?vid=c3da3dee-e44b-4474-8e37-68f63ffe7a0b"},"vehicle_type_id":"4","last_reported":1734880074,"current_range_meters":19200,"station_id":"ce4bgup2rcd13ifvqcn0","pricing_plan_id":"cebpf4jnsgd1na2vs0mg"},{"bike_id":"c3048b7c-6006-413b-beb0-d202b3011a45","system_id":"levelo_inurba_marseille","lat":43.30465,"lon":5.37911,"is_reserved":false,"is_disabled":false,"rental_uris":{"android":"levelo://app?vid=c3048b7c-6006-413b-beb0-d202b3011a45","ios":"levelo://app?vid=c3048b7c-6006-413b-beb0-d202b3011a45"},"vehicle_type_id":"4","last_reported":1734880074,"current_range_meters":29600,"station_id":"ce4bgup2rcd13ifvqcn0","pricing_plan_id":"cebpf4jnsgd1na2vs0mg"},{"bike_id":"ba623d7f-de4d-43e6-9a39-be19938e75fb","system_id":"levelo_inurba_marseille","lat":43.29369,"lon":5.37856,"is_reserved":false,"is_disabled":true,"rental_uris":{"android":"levelo://app?vid=ba623d7f-de4d-43e6-9a39-be19938e75fb","ios":"levelo://app?vid=ba623d7f-de4d-43e6-9a39-be19938e75fb"},"vehicle_type_id":"4","last_reported":1734880074,"current_range_meters":36400,"station_id":"","pricing_plan_id":"cebpf4jnsgd1na2vs0mg"},{"bike_id":"5028cdfd-122f-4fc0-a849-5136996d0f33","system_id":"levelo_inurba_marseille","lat":43.30146,"lon":5.38089,"is_reserved":false,"is_disabled":false,"rental_uris":{"android":"levelo://app?vid=5028cdfd-122f-4fc0-a849-5136996d0f33","ios":"levelo://app?vid=5028cdfd-122f-4fc0-a849-5136996d0f33"},"vehicle_type_id":"4","last_reported":1734880074,"current_range_meters":32000,"station_id":"ce4bgjp2rcd13ifvqbh0","pricing_plan_id":"cebpf4jnsgd1na2vs0mg"},{"bike_id":"6117a7b0-95ce-4ca0-ba00-2d7bc8a87917","system_id":"levelo_inurba_marseille","lat":43.30549,"lon":5.36534,"is_reserved":false,"is_disabled":false,"rental_uris":{"android":"levelo://app?vid=6117a7b0-95ce-4ca0-ba00-2d7bc8a87917","ios":"levelo://app?vid=6117a7b0-95ce-4ca0-ba00-2d7bc8a87917"},"vehicle_type_id":"4","last_reported":1734880074,"current_range_meters":16800,"station_id":"ce4bgs12rcd13ifvqcag","pricing_plan_id":"cebpf4jnsgd1na2vs0mg"},{"bike_id":"b0d452dd-c99e-4677-8979-04c5d831a9e8","system_id":"levelo_inurba_marseille","lat":43.29585,"lon":5.3674,"is_reserved":false,"is_disabled":false,"rental_uris":{"android":"levelo://app?vid=b0d452dd-c99e-4677-8979-04c5d831a9e8","ios":"levelo://app?vid=b0d452dd-c99e-4677-8979-04c5d831a9e8"},"vehicle_type_id":"4","last_reported":1734880074,"current_range_meters":39200,"station_id":"ce4bgph2rcd13ifvqc2g","pricing_plan_id":"cebpf4jnsgd1na2vs0mg"},{"bike_id":"10d16ca8-28c0-405d-8543-1a0f299451c6","system_id":"levelo_inurba_marseille","lat":43.27815,"lon":5.40724,"is_reserved":false,"is_disabled":false,"rental_uris":{"android":"levelo://app?vid=10d16ca8-28c0-405d-8543-1a0f299451c6","ios":"levelo://app?vid=10d16ca8-28c0-405d-8543-1a0f299451c6"},"vehicle_type_id":"4","last_reported":1734880074,"current_range_meters":10800,"station_id":"ce4bhnh2rcd13ifvqgtg","pricing_plan_id":"cebpf4jnsgd1na2vs0mg"},{"bike_id":"d7a9a039-2919-4498-94bc-85df69bbf9b4","system_id":"levelo_inurba_marseille","lat":43.2509,"lon":5.395184,"is_reserved":false,"is_disabled":true,"rental_uris":{"android":"levelo://app?vid=d7a9a039-2919-4498-94bc-85df69bbf9b4","ios":"levelo://app?vid=d7a9a039-2919-4498-94bc-85df69bbf9b4"},"vehicle_type_id":"4","last_reported":1734880074,"current_range_meters":0,"station_id":"ce4bhm12rcd13ifvqgkg","pricing_plan_id":"cebpf4jnsgd1na2vs0mg"},{"bike_id":"f6e00a83-cc1f-4aaf-83bb-77e9d3b9e809","system_id":"levelo_inurba_marseille","lat":43.337444,"lon":5.374475,"is_reserved":false,"is_disabled":false,"rental_uris":{"android":"levelo://app?vid=f6e00a83-cc1f-4aaf-83bb-77e9d3b9e809","ios":"levelo://app?vid=f6e00a83-cc1f-4aaf-83bb-77e9d3b9e809"},"vehicle_type_id":"4","last_reported":1734880074,"current_range_meters":24000,"station_id":"","pricing_plan_id":"cebpf4jnsgd1na2vs0mg"},{"bike_id":"4557c5fc-60ed-4c34-9596-70c70138f451","system_id":"levelo_inurba_marseille","lat":43.29621,"lon":5.37152,"is_reserved":false,"is_disabled":true,"rental_uris":{"android":"levelo://app?vid=4557c5fc-60ed-4c34-9596-70c70138f451","ios":"levelo://app?vid=4557c5fc-60ed-4c34-9596-70c70138f451"},"vehicle_type_id":"4","last_reported":1734880074,"current_range_meters":0,"station_id":"","pricing_plan_id":"cebpf4jnsgd1na2vs0mg"},{"bike_id":"2daf6017-db0c-42c7-86d8-f89177a5712a","system_id":"levelo_inurba_marseille","lat":43.24066,"lon":5.37753,"is_reserved":false,"is_disabled":false,"rental_uris":{"android":"levelo://app?vid=2daf6017-db0c-42c7-86d8-f89177a5712a","ios":"levelo://app?vid=2daf6017-db0c-42c7-86d8-f89177a5712a"},"vehicle_type_id":"4","last_reported":1734880074,"current_range_meters":22000,"station_id":"ce4bhnp2rcd13ifvqgvg","pricing_plan_id":"cebpf4jnsgd1na2vs0mg"},{"bike_id":"5d3dccbb-bf20-44a3-8771-80caee06bf13","system_id":"levelo_inurba_marseille","lat":43.31991,"lon":5.38157,"is_reserved":false,"is_disabled":false,"rental_uris":{"android":"levelo://app?vid=5d3dccbb-bf20-44a3-8771-80caee06bf13","ios":"levelo://app?vid=5d3dccbb-bf20-44a3-8771-80caee06bf13"},"vehicle_type_id":"4","last_reported":1734880074,"current_range_meters":38800,"station_id":"ce4bhr12rcd13ifvqhpg","pricing_plan_id":"cebpf4jnsgd1na2vs0mg"},{"bike_id":"962ea5b9-702b-4e82-9f9f-23c78648909c","system_id":"levelo_inurba_marseille","lat":43.27903,"lon":5.38017,"is_reserved":false,"is_disabled":false,"rental_uris":{"android":"levelo://app?vid=962ea5b9-702b-4e82-9f9f-23c78648909c","ios":"levelo://app?vid=962ea5b9-702b-4e82-9f9f-23c78648909c"},"vehicle_type_id":"4","last_reported":1734880074,"current_range_meters":38800,"station_id":"ce4bhf92rcd13ifvqf50","pricing_plan_id":"cebpf4jnsgd1na2vs0mg"},{"bike_id":"ba66dcd7-1375-48c7-9d1c-af860c98462a","system_id":"levelo_inurba_marseille","lat":43.2797,"lon":5.41658,"is_reserved":false,"is_disabled":false,"rental_uris":{"android":"levelo://app?vid=ba66dcd7-1375-48c7-9d1c-af860c98462a","ios":"levelo://app?vid=ba66dcd7-1375-48c7-9d1c-af860c98462a"},"vehicle_type_id":"4","last_reported":1734880074,"current_range_meters":38400,"station_id":"ce4bho12rcd13ifvqh1g","pricing_plan_id":"cebpf4jnsgd1na2vs0mg"},{"bike_id":"8922ed47-2207-42e9-b95e-56584623ff8f","system_id":"levelo_inurba_marseille","lat":43.27839,"lon":5.39206,"is_reserved":false,"is_disabled":false,"rental_uris":{"android":"levelo://app?vid=8922ed47-2207-42e9-b95e-56584623ff8f","ios":"levelo://app?vid=8922ed47-2207-42e9-b95e-56584623ff8f"},"vehicle_type_id":"4","last_reported":1734880074,"current_range_meters":38800,"station_id":"ce4bhjp2rcd13ifvqga0","pricing_plan_id":"cebpf4jnsgd1na2vs0mg"},{"bike_id":"031e0cd8-a7f6-44e5-81cf-3196ebc70dc4","system_id":"levelo_inurba_marseille","lat":43.30535,"lon":5.36547,"is_reserved":false,"is_disabled":false,"rental_uris":{"android":"levelo://app?vid=031e0cd8-a7f6-44e5-81cf-3196ebc70dc4","ios":"levelo://app?vid=031e0cd8-a7f6-44e5-81cf-3196ebc70dc4"},"vehicle_type_id":"4","last_reported":1734880074,"current_range_meters":38800,"station_id":"ce4bgs12rcd13ifvqcag","pricing_plan_id":"cebpf4jnsgd1na2vs0mg"},{"bike_id":"c13a7413-a260-44fd-85a3-ce8c2ef0f5e8","system_id":"levelo_inurba_marseille","lat":43.33724,"lon":5.39193,"is_reserved":false,"is_disabled":false,"rental_uris":{"android":"levelo://app?vid=c13a7413-a260-44fd-85a3-ce8c2ef0f5e8","ios":"levelo://app?vid=c13a7413-a260-44fd-85a3-ce8c2ef0f5e8"},"vehicle_type_id":"4","last_reported":1734880074,"current_range_meters":19200,"station_id":"ce4bhr92rcd13ifvqhsg","pricing_plan_id":"cebpf4jnsgd1na2vs0mg"},{"bike_id":"7eef964e-8b71-4771-a5f9-558dc0f6b5fa","system_id":"levelo_inurba_marseille","lat":43.3149,"lon":5.373,"is_reserved":false,"is_disabled":false,"rental_uris":{"android":"levelo://app?vid=7eef964e-8b71-4771-a5f9-558dc0f6b5fa","ios":"levelo://app?vid=7eef964e-8b71-4771-a5f9-558dc0f6b5fa"},"vehicle_type_id":"4","last_reported":1734880074,"current_range_meters":36000,"station_id":"ce4bgt12rcd13ifvqcd0","pricing_plan_id":"cebpf4jnsgd1na2vs0mg"},{"bike_id":"c0c2e3c9-35d8-45f3-b5bf-303abd9596a2","system_id":"levelo_inurba_marseille","lat":43.29621,"lon":5.37716,"is_reserved":false,"is_disabled":false,"rental_uris":{"android":"levelo://app?vid=c0c2e3c9-35d8-45f3-b5bf-303abd9596a2","ios":"levelo://app?vid=c0c2e3c9-35d8-45f3-b5bf-303abd9596a2"},"vehicle_type_id":"4","last_reported":1734880074,"current_range_meters":38800,"station_id":"ce4bgi92rcd13ifvqb90","pricing_plan_id":"cebpf4jnsgd1na2vs0mg"},{"bike_id":"60d37bab-e0a6-4b11-81f8-85326da8d120","system_id":"levelo_inurba_marseille","lat":43.28935,"lon":5.36632,"is_reserved":false,"is_disabled":true,"rental_uris":{"android":"levelo://app?vid=60d37bab-e0a6-4b11-81f8-85326da8d120","ios":"levelo://app?vid=60d37bab-e0a6-4b11-81f8-85326da8d120"},"vehicle_type_id":"4","last_reported":1734880074,"current_range_meters":8000,"station_id":"ce4bhap2rcd13ifvqek0","pricing_plan_id":"cebpf4jnsgd1na2vs0mg"},{"bike_id":"5aa81bba-7cf0-4672-976b-ab45575cee33","system_id":"levelo_inurba_marseille","lat":43.3175,"lon":5.38999,"is_reserved":false,"is_disabled":false,"rental_uris":{"android":"levelo://app?vid=5aa81bba-7cf0-4672-976b-ab45575cee33","ios":"levelo://app?vid=5aa81bba-7cf0-4672-976b-ab45575cee33"},"vehicle_type_id":"4","last_reported":1734880074,"current_range_meters":10800,"station_id":"ce4bhqp2rcd13ifvqhng","pricing_plan_id":"cebpf4jnsgd1na2vs0mg"},{"bike_id":"dac94ecf-3203-4c89-acc0-21c14e979588","system_id":"levelo_inurba_marseille","lat":43.26702,"lon":5.3828,"is_reserved":false,"is_disabled":false,"rental_uris":{"android":"levelo://app?vid=dac94ecf-3203-4c89-acc0-21c14e979588","ios":"levelo://app?vid=dac94ecf-3203-4c89-acc0-21c14e979588"},"vehicle_type_id":"4","last_reported":1734880074,"current_range_meters":26800,"station_id":"ce4bhg92rcd13ifvqf90","pricing_plan_id":"cebpf4jnsgd1na2vs0mg"},{"bike_id":"5f86975c-45a1-4c9d-8153-b1348d1db20a","system_id":"levelo_inurba_marseille","lat":43.31759,"lon":5.39016,"is_reserved":false,"is_disabled":false,"rental_uris":{"android":"levelo://app?vid=5f86975c-45a1-4c9d-8153-b1348d1db20a","ios":"levelo://app?vid=5f86975c-45a1-4c9d-8153-b1348d1db20a"},"vehicle_type_id":"4","last_reported":1734880074,"current_range_meters":35200,"station_id":"ce4bhqp2rcd13ifvqhng","pricing_plan_id":"cebpf4jnsgd1na2vs0mg"},{"bike_id":"16df5cd3-4199-4804-b1dc-10341bb666d0","system_id":"levelo_inurba_marseille","lat":43.31122,"lon":5.37773,"is_reserved":false,"is_disabled":false,"rental_uris":{"android":"levelo://app?vid=16df5cd3-4199-4804-b1dc-10341bb666d0","ios":"levelo://app?vid=16df5cd3-4199-4804-b1dc-10341bb666d0"},"vehicle_type_id":"4","last_reported":1734880074,"current_range_meters":26000,"station_id":"ce4bgt92rcd13ifvqcg0","pricing_plan_id":"cebpf4jnsgd1na2vs0mg"},{"bike_id":"71a2ba42-20f8-4edb-b74c-0e5f42f60dd6","system_id":"levelo_inurba_marseille","lat":43.29533,"lon":5.3751,"is_reserved":false,"is_disabled":false,"rental_uris":{"android":"levelo://app?vid=71a2ba42-20f8-4edb-b74c-0e5f42f60dd6","ios":"levelo://app?vid=71a2ba42-20f8-4edb-b74c-0e5f42f60dd6"},"vehicle_type_id":"4","last_reported":1734880074,"current_range_meters":16400,"station_id":"ce4bgkp2rcd13ifvqbmg","pricing_plan_id":"cebpf4jnsgd1na2vs0mg"},{"bike_id":"89bbf467-a889-43f3-b2aa-bb797985cd3f","system_id":"levelo_inurba_marseille","lat":43.29009,"lon":5.35617,"is_reserved":false,"is_disabled":false,"rental_uris":{"android":"levelo://app?vid=89bbf467-a889-43f3-b2aa-bb797985cd3f","ios":"levelo://app?vid=89bbf467-a889-43f3-b2aa-bb797985cd3f"},"vehicle_type_id":"4","last_reported":1734880074,"current_range_meters":38400,"station_id":"ce4bhb92rcd13ifvqen0","pricing_plan_id":"cebpf4jnsgd1na2vs0mg"},{"bike_id":"a4a485f0-f9dd-4a3c-a39d-587a982ff4e8","system_id":"levelo_inurba_marseille","lat":43.27211,"lon":5.39184,"is_reserved":false,"is_disabled":false,"rental_uris":{"android":"levelo://app?vid=a4a485f0-f9dd-4a3c-a39d-587a982ff4e8","ios":"levelo://app?vid=a4a485f0-f9dd-4a3c-a39d-587a982ff4e8"},"vehicle_type_id":"4","last_reported":1734880074,"current_range_meters":16800,"station_id":"ce4bhhp2rcd13ifvqfm0","pricing_plan_id":"cebpf4jnsgd1na2vs0mg"},{"bike_id":"fcaa428f-5b81-4cef-aa5d-f496099afa0b","system_id":"levelo_inurba_marseille","lat":43.30556,"lon":5.36516,"is_reserved":false,"is_disabled":false,"rental_uris":{"android":"levelo://app?vid=fcaa428f-5b81-4cef-aa5d-f496099afa0b","ios":"levelo://app?vid=fcaa428f-5b81-4cef-aa5d-f496099afa0b"},"vehicle_type_id":"4","last_reported":1734880074,"current_range_meters":30000,"station_id":"ce4bgs12rcd13ifvqcag","pricing_plan_id":"cebpf4jnsgd1na2vs0mg"},{"bike_id":"5658dde5-31a9-41a3-a0a9-e48a36b92a9d","system_id":"levelo_inurba_marseille","lat":43.28154,"lon":5.42647,"is_reserved":false,"is_disabled":false,"rental_uris":{"android":"levelo://app?vid=5658dde5-31a9-41a3-a0a9-e48a36b92a9d","ios":"levelo://app?vid=5658dde5-31a9-41a3-a0a9-e48a36b92a9d"},"vehicle_type_id":"4","last_reported":1734880074,"current_range_meters":38800,"station_id":"ce4bhnh2rcd13ifvqgug","pricing_plan_id":"cebpf4jnsgd1na2vs0mg"},{"bike_id":"0c70c65f-0918-4002-b4f0-9ea267468017","system_id":"levelo_inurba_marseille","lat":43.29731,"lon":5.36577,"is_reserved":false,"is_disabled":false,"rental_uris":{"android":"levelo://app?vid=0c70c65f-0918-4002-b4f0-9ea267468017","ios":"levelo://app?vid=0c70c65f-0918-4002-b4f0-9ea267468017"},"vehicle_type_id":"4","last_reported":1734880074,"current_range_meters":34800,"station_id":"ce4bgn12rcd13ifvqbt0","pricing_plan_id":"cebpf4jnsgd1na2vs0mg"},{"bike_id":"1e29e011-dabf-4b84-b506-47509f8401cf","system_id":"levelo_inurba_marseille","lat":43.31706,"lon":5.37746,"is_reserved":false,"is_disabled":true,"rental_uris":{"android":"levelo://app?vid=1e29e011-dabf-4b84-b506-47509f8401cf","ios":"levelo://app?vid=1e29e011-dabf-4b84-b506-47509f8401cf"},"vehicle_type_id":"4","last_reported":1734880074,"current_range_meters":1200,"station_id":"ce4bgth2rcd13ifvqch0","pricing_plan_id":"cebpf4jnsgd1na2vs0mg"},{"bike_id":"4c1de0aa-c1dc-4cc6-8b08-c589e25119a8","system_id":"levelo_inurba_marseille","lat":43.27617,"lon":5.36121,"is_reserved":false,"is_disabled":false,"rental_uris":{"android":"levelo://app?vid=4c1de0aa-c1dc-4cc6-8b08-c589e25119a8","ios":"levelo://app?vid=4c1de0aa-c1dc-4cc6-8b08-c589e25119a8"},"vehicle_type_id":"4","last_reported":1734880074,"current_range_meters":39200,"station_id":"ce4bgj92rcd13ifvqbe0","pricing_plan_id":"cebpf4jnsgd1na2vs0mg"},{"bike_id":"bfd4e432-f5d1-4a35-90dd-34fe3b51099c","system_id":"levelo_inurba_marseille","lat":43.29365,"lon":5.37845,"is_reserved":false,"is_disabled":false,"rental_uris":{"android":"levelo://app?vid=bfd4e432-f5d1-4a35-90dd-34fe3b51099c","ios":"levelo://app?vid=bfd4e432-f5d1-4a35-90dd-34fe3b51099c"},"vehicle_type_id":"4","last_reported":1734880074,"current_range_meters":38800,"station_id":"ce4bgjh2rcd13ifvqbf0","pricing_plan_id":"cebpf4jnsgd1na2vs0mg"},{"bike_id":"a5131ac6-050c-4d7a-8118-815ba353ed04","system_id":"levelo_inurba_marseille","lat":43.28041,"lon":5.36942,"is_reserved":false,"is_disabled":false,"rental_uris":{"android":"levelo://app?vid=a5131ac6-050c-4d7a-8118-815ba353ed04","ios":"levelo://app?vid=a5131ac6-050c-4d7a-8118-815ba353ed04"},"vehicle_type_id":"4","last_reported":1734880074,"current_range_meters":18800,"station_id":"ce4bha12rcd13ifvqef0","pricing_plan_id":"cebpf4jnsgd1na2vs0mg"},{"bike_id":"e353d62c-c5ff-4f13-94a9-2d54b9fdbe08","system_id":"levelo_inurba_marseille","lat":43.288463,"lon":5.358413,"is_reserved":false,"is_disabled":true,"rental_uris":{"android":"levelo://app?vid=e353d62c-c5ff-4f13-94a9-2d54b9fdbe08","ios":"levelo://app?vid=e353d62c-c5ff-4f13-94a9-2d54b9fdbe08"},"vehicle_type_id":"4","last_reported":1734880074,"current_range_meters":0,"station_id":"ce4bhb12rcd13ifvqem0","pricing_plan_id":"cebpf4jnsgd1na2vs0mg"},{"bike_id":"88cfebe8-3088-46c4-b250-d1b75923a432","system_id":"levelo_inurba_marseille","lat":43.24661,"lon":5.38163,"is_reserved":false,"is_disabled":false,"rental_uris":{"android":"levelo://app?vid=88cfebe8-3088-46c4-b250-d1b75923a432","ios":"levelo://app?vid=88cfebe8-3088-46c4-b250-d1b75923a432"},"vehicle_type_id":"4","last_reported":1734880074,"current_range_meters":38800,"station_id":"ce4bhih2rcd13ifvqfr0","pricing_plan_id":"cebpf4jnsgd1na2vs0mg"},{"bike_id":"085f67b0-44f2-4732-999e-5d735b9a7008","system_id":"levelo_inurba_marseille","lat":43.27378,"lon":5.36261,"is_reserved":false,"is_disabled":false,"rental_uris":{"android":"levelo://app?vid=085f67b0-44f2-4732-999e-5d735b9a7008","ios":"levelo://app?vid=085f67b0-44f2-4732-999e-5d735b9a7008"},"vehicle_type_id":"4","last_reported":1734880074,"current_range_meters":36800,"station_id":"ce4bhbh2rcd13ifvqeo0","pricing_plan_id":"cebpf4jnsgd1na2vs0mg"},{"bike_id":"826f30f8-361a-44e5-9754-a7633a3dca76","system_id":"levelo_inurba_marseille","lat":43.26242,"lon":5.40265,"is_reserved":false,"is_disabled":false,"rental_uris":{"android":"levelo://app?vid=826f30f8-361a-44e5-9754-a7633a3dca76","ios":"levelo://app?vid=826f30f8-361a-44e5-9754-a7633a3dca76"},"vehicle_type_id":"4","last_reported":1734880074,"current_range_meters":35600,"station_id":"","pricing_plan_id":"cebpf4jnsgd1na2vs0mg"},{"bike_id":"3f1dece2-1c86-4b5c-a62f-e8679c1a811f","system_id":"levelo_inurba_marseille","lat":43.29941,"lon":5.36487,"is_reserved":false,"is_disabled":false,"rental_uris":{"android":"levelo://app?vid=3f1dece2-1c86-4b5c-a62f-e8679c1a811f","ios":"levelo://app?vid=3f1dece2-1c86-4b5c-a62f-e8679c1a811f"},"vehicle_type_id":"4","last_reported":1734880074,"current_range_meters":13600,"station_id":"","pricing_plan_id":"cebpf4jnsgd1na2vs0mg"},{"bike_id":"e145027a-7fa2-4aa4-b528-3aeaad247efc","system_id":"levelo_inurba_marseille","lat":43.30915,"lon":5.36839,"is_reserved":false,"is_disabled":false,"rental_uris":{"android":"levelo://app?vid=e145027a-7fa2-4aa4-b528-3aeaad247efc","ios":"levelo://app?vid=e145027a-7fa2-4aa4-b528-3aeaad247efc"},"vehicle_type_id":"4","last_reported":1734880074,"current_range_meters":28400,"station_id":"ce4bgn92rcd13ifvqbvg","pricing_plan_id":"cebpf4jnsgd1na2vs0mg"},{"bike_id":"a37c10b7-1da8-4cc6-b0f3-2a310cde69cc","system_id":"levelo_inurba_marseille","lat":43.29528,"lon":5.39033,"is_reserved":false,"is_disabled":true,"rental_uris":{"android":"levelo://app?vid=a37c10b7-1da8-4cc6-b0f3-2a310cde69cc","ios":"levelo://app?vid=a37c10b7-1da8-4cc6-b0f3-2a310cde69cc"},"vehicle_type_id":"4","last_reported":1734880074,"current_range_meters":27600,"station_id":"ce4bh3p2rcd13ifvqdp0","pricing_plan_id":"cebpf4jnsgd1na2vs0mg"},