{"last_updated":1718914100,"ttl":30,"version":"2.2","data":{"bikes":[{"bike_id":"8ab887d8-54d9-41d3-8016-c6afa4dbd22c","system_id":"levelo_inurba_marseille","lat":43.312239,"lon":5.368562,"is_reserved":false,"is_disabled":false,"rental_uris":{"android":"levelo://app?vid=8ab887d8-54d9-41d3-8016-c6afa4dbd22c","ios":"levelo://app?vid=8ab887d8-54d9-41d3-8016-c6afa4dbd22c"},"vehicle_type_id":"4","last_reported":1718914100,"current_range_meters":10000,"station_id":"ce4bgl92rcd13ifvqbq0","pricing_plan_id":"cebpf4jnsgd1na2vs0mg"},{"bike_id":"3f23ddd0-c54c-4c1d-8902-ec2921a08bac","system_id":"levelo_inurba_marseille","lat":43.314811,"lon":5.373103,"is_reserved":false,"is_disabled":false,"rental_uris":{"android":"levelo://app?vid=3f23ddd0-c54c-4c1d-8902-ec2921a08bac","ios":"levelo://app?vid=3f23ddd0-c54c-4c1d-8902-ec2921a08bac"},"vehicle_type_id":"4","last_reported":1718914100,"current_range_meters":29600,"station_id":"ce4bgt12rcd13ifvqcd0","pricing_plan_id":"cebpf4jnsgd1na2vs0mg"},{"bike_id":"524c1010-af2c-4302-a918-c0d04d964571","system_id":"levelo_inurba_marseille","lat":43.314811,"lon":5.373103,"is_reserved":false,"is_disabled":false,"rental_uris":{"android":"levelo://app?vid=524c1010-af2c-4302-a918-c0d04d964571","ios":"levelo://app?vid=524c1010-af2c-4302-a918-c0d04d964571"},"vehicle_type_id":"4","last_reported":1718914100,"current_range_meters":0,"station_id":"ce4bgt12rcd13ifvqcd0","pricing_plan_id":"cebpf4jnsgd1na2vs0mg"},{"bike_id":"b12d78f7-b15d-476d-9ca3-8b842c6e827a","system_id":"levelo_inurba_marseille","lat":43.309039,"lon":5.371797,"is_reserved":false,"is_disabled":false,"rental_uris":{"android":"levelo://app?vid=b12d78f7-b15d-476d-9ca3-8b842c6e827a","ios":"levelo://app?vid=b12d78f7-b15d-476d-9ca3-8b842c6e827a"},"vehicle_type_id":"4","last_reported":1718914100,"current_range_meters":400,"station_id":"ce4bguh2rcd13ifvqckg","pricing_plan_id":"cebpf4jnsgd1na2vs0mg"},{"bike_id":"9f343050-7df0-4de3-9996-a3657976266e","system_id":"levelo_inurba_marseille","lat":43.316906,"lon":5.372806,"is_reserved":false,"is_disabled":false,"rental_uris":{"android":"levelo://app?vid=9f343050-7df0-4de3-9996-a3657976266e","ios":"levelo://app?vid=9f343050-7df0-4de3-9996-a3657976266e"},"vehicle_type_id":"4","last_reported":1718914100,"current_range_meters":24800,"station_id":"","pricing_plan_id":"cebpf4jnsgd1na2vs0mg"},{"bike_id":"d95ed3f7-4f66-43a5-b342-64a5c6ad9c56","system_id":"levelo_inurba_marseille","lat":43.3053,"lon":5.36698,"is_reserved":false,"is_disabled":false,"rental_uris":{"android":"levelo://app?vid=d95ed3f7-4f66-43a5-b342-64a5c6ad9c56","ios":"levelo://app?vid=d95ed3f7-4f66-43a5-b342-64a5c6ad9c56"},"vehicle_type_id":"4","last_reported":1718914100,"current_range_meters":0,"station_id":"ce4bgrp2rcd13ifvqc9g","pricing_plan_id":"cebpf4jnsgd1na2vs0mg"},{"bike_id":"98654416-a4f9-4ab5-bb3c-04f500814227","system_id":"levelo_inurba_marseille","lat":43.311263,"lon":5.37769,"is_reserved":false,"is_disabled":false,"rental_uris":{"android":"levelo://app?vid=98654416-a4f9-4ab5-bb3c-04f500814227","ios":"levelo://app?vid=98654416-a4f9-4ab5-bb3c-04f500814227"},"vehicle_type_id":"4","last_reported":1718914100,"current_range_meters":0,"station_id":"ce4bgt92rcd13ifvqcg0","pricing_plan_id":"cebpf4jnsgd1na2vs0mg"},{"bike_id":"76e0d708-4d0d-4fbb-9f66-4b37764d156a","system_id":"levelo_inurba_marseille","lat":43.307945,"lon":5.376487,"is_reserved":false,"is_disabled":false,"rental_uris":{"android":"levelo://app?vid=76e0d708-4d0d-4fbb-9f66-4b37764d156a","ios":"levelo://app?vid=76e0d708-4d0d-4fbb-9f66-4b37764d156a"},"vehicle_type_id":"4","last_reported":1718914100,"current_range_meters":8400,"station_id":"ce4bgv92rcd13ifvqcq0","pricing_plan_id":"cebpf4jnsgd1na2vs0mg"},{"bike_id":"0a0ec079-a14d-4f27-973b-e7062af6cb8e","system_id":"levelo_inurba_marseille","lat":43.3078,"lon":5.37655,"is_reserved":false,"is_disabled":false,"rental_uris":{"android":"levelo://app?vid=0a0ec079-a14d-4f27-973b-e7062af6cb8e","ios":"levelo://app?vid=0a0ec079-a14d-4f27-973b-e7062af6cb8e"},"vehicle_type_id":"4","last_reported":1718914100,"current_range_meters":19600,"station_id":"","pricing_plan_id":"cebpf4jnsgd1na2vs0mg"},{"bike_id":"946f227d-b481-4cae-969a-a997f610d847","system_id":"levelo_inurba_marseille","lat":43.307945,"lon":5.376487,"is_reserved":false,"is_disabled":false,"rental_uris":{"android":"levelo://app?vid=946f227d-b481-4cae-969a-a997f610d847","ios":"levelo://app?vid=946f227d-b481-4cae-969a-a997f610d847"},"vehicle_type_id":"4","last_reported":1718914100,"current_range_meters":13200,"station_id":"ce4bgv92rcd13ifvqcq0","pricing_plan_id":"cebpf4jnsgd1na2vs0mg"},{"bike_id":"762bf2ca-beb2-47ce-bb0e-6c54c40f9c77","system_id":"levelo_inurba_marseille","lat":43.31961,"lon":5.37438,"is_reserved":false,"is_disabled":false,"rental_uris":{"android":"levelo://app?vid=762bf2ca-beb2-47ce-bb0e-6c54c40f9c77","ios":"levelo://app?vid=762bf2ca-beb2-47ce-bb0e-6c54c40f9c77"},"vehicle_type_id":"4","last_reported":1718914100,"current_range_meters":4800,"station_id":"","pricing_plan_id":"cebpf4jnsgd1na2vs0mg"},{"bike_id":"7d6f3434-5758-4df6-877f-cf72fba6038d","system_id":"levelo_inurba_marseille","lat":43.317075,"lon":5.377367,"is_reserved":false,"is_disabled":false,"rental_uris":{"android":"levelo://app?vid=7d6f3434-5758-4df6-877f-cf72fba6038d","ios":"levelo://app?vid=7d6f3434-5758-4df6-877f-cf72fba6038d"},"vehicle_type_id":"4","last_reported":1718914100,"current_range_meters":24000,"station_id":"ce4bgth2rcd13ifvqch0","pricing_plan_id":"cebpf4jnsgd1na2vs0mg"},{"bike_id":"22b3dbde-496a-4157-bd1a-ddf8a6b5c649","system_id":"levelo_inurba_marseille","lat":43.3156,"lon":5.38011,"is_reserved":false,"is_disabled":false,"rental_uris":{"android":"levelo://app?vid=22b3dbde-496a-4157-bd1a-ddf8a6b5c649","ios":"levelo://app?vid=22b3dbde-496a-4157-bd1a-ddf8a6b5c649"},"vehicle_type_id":"4","last_reported":1718914100,"current_range_meters":2400,"station_id":"ce4bhsp2rcd13ifvqi50","pricing_plan_id":"cebpf4jnsgd1na2vs0mg"},{"bike_id":"2c7c94fd-726c-404e-9c3a-d59a9bcacb35","system_id":"levelo_inurba_marseille","lat":43.31552,"lon":5.38015,"is_reserved":false,"is_disabled":false,"rental_uris":{"android":"levelo://app?vid=2c7c94fd-726c-404e-9c3a-d59a9bcacb35","ios":"levelo://app?vid=2c7c94fd-726c-404e-9c3a-d59a9bcacb35"},"vehicle_type_id":"4","last_reported":1718914100,"current_range_meters":24400,"station_id":"ce4bhsp2rcd13ifvqi50","pricing_plan_id":"cebpf4jnsgd1na2vs0mg"},{"bike_id":"ded81b9c-7b41-446a-a6a0-e04b04a070f7","system_id":"levelo_inurba_marseille","lat":43.301939,"lon":5.366286,"is_reserved":false,"is_disabled":false,"rental_uris":{"android":"levelo://app?vid=ded81b9c-7b41-446a-a6a0-e04b04a070f7","ios":"levelo://app?vid=ded81b9c-7b41-446a-a6a0-e04b04a070f7"},"vehicle_type_id":"4","last_reported":1718914100,"current_range_meters":24400,"station_id":"ce4bgrh2rcd13ifvqc8g","pricing_plan_id":"cebpf4jnsgd1na2vs0mg"},{"bike_id":"4fa677a6-7301-47be-a329-ade13d4f9f75","system_id":"levelo_inurba_marseille","lat":43.30179,"lon":5.36604,"is_reserved":false,"is_disabled":false,"rental_uris":{"android":"levelo://app?vid=4fa677a6-7301-47be-a329-ade13d4f9f75","ios":"levelo://app?vid=4fa677a6-7301-47be-a329-ade13d4f9f75"},"vehicle_type_id":"4","last_reported":1718914100,"current_range_meters":0,"station_id":"ce4bgrh2rcd13ifvqc8g","pricing_plan_id":"cebpf4jnsgd1na2vs0mg"},{"bike_id":"b51bd151-e486-4ff8-9148-53722473931d","system_id":"levelo_inurba_marseille","lat":43.30145,"lon":5.364956,"is_reserved":false,"is_disabled":false,"rental_uris":{"android":"levelo://app?vid=b51bd151-e486-4ff8-9148-53722473931d","ios":"levelo://app?vid=b51bd151-e486-4ff8-9148-53722473931d"},"vehicle_type_id":"4","last_reported":1718914100,"current_range_meters":6800,"station_id":"","pricing_plan_id":"cebpf4jnsgd1na2vs0mg"},{"bike_id":"3d3be425-8b2a-403b-be0d-a88f90fdca44","system_id":"levelo_inurba_marseille","lat":43.324771,"lon":5.36557,"is_reserved":false,"is_disabled":false,"rental_uris":{"android":"levelo://app?vid=3d3be425-8b2a-403b-be0d-a88f90fdca44","ios":"levelo://app?vid=3d3be425-8b2a-403b-be0d-a88f90fdca44"},"vehicle_type_id":"4","last_reported":1718914100,"current_range_meters":8800,"station_id":"ce4bhs12rcd13ifvqhvg","pricing_plan_id":"cebpf4jnsgd1na2vs0mg"},{"bike_id":"929ac460-e213-467c-8af4-6b1ee80532bc","system_id":"levelo_inurba_marseille","lat":43.324771,"lon":5.36557,"is_reserved":false,"is_disabled":false,"rental_uris":{"android":"levelo://app?vid=929ac460-e213-467c-8af4-6b1ee80532bc","ios":"levelo://app?vid=929ac460-e213-467c-8af4-6b1ee80532bc"},"vehicle_type_id":"4","last_reported":1718914100,"current_range_meters":400,"station_id":"ce4bhs12rcd13ifvqhvg","pricing_plan_id":"cebpf4jnsgd1na2vs0mg"},{"bike_id":"2e4eedb6-9f53-4953-9163-a76b1ba2d868","system_id":"levelo_inurba_marseille","lat":43.324771,"lon":5.36557,"is_reserved":false,"is_disabled":false,"rental_uris":{"android":"levelo://app?vid=2e4eedb6-9f53-4953-9163-a76b1ba2d868","ios":"levelo://app?vid=2e4eedb6-9f53-4953-9163-a76b1ba2d868"},"vehicle_type_id":"4","last_reported":1718914100,"current_range_meters":18000,"station_id":"ce4bhs12rcd13ifvqhvg","pricing_plan_id":"cebpf4jnsgd1na2vs0mg"},{"bike_id":"265b7000-7a9e-42a7-9eea-c110f22164c7","system_id":"levelo_inurba_marseille","lat":43.310804,"lon":5.38359,"is_reserved":false,"is_disabled":false,"rental_uris":{"android":"levelo://app?vid=265b7000-7a9e-42a7-9eea-c110f22164c7","ios":"levelo://app?vid=265b7000-7a9e-42a7-9eea-c110f22164c7"},"vehicle_type_id":"4","last_reported":1718914100,"current_range_meters":13200,"station_id":"ce4bgv92rcd13ifvqcr0","pricing_plan_id":"cebpf4jnsgd1na2vs0mg"},{"bike_id":"b5c32e22-dcec-4475-81de-836419b8bb35","system_id":"levelo_inurba_marseille","lat":43.310804,"lon":5.38359,"is_reserved":false,"is_disabled":false,"rental_uris":{"android":"levelo://app?vid=b5c32e22-dcec-4475-81de-836419b8bb35","ios":"levelo://app?vid=b5c32e22-dcec-4475-81de-836419b8bb35"},"vehicle_type_id":"4","last_reported":1718914100,"current_range_meters":0,"station_id":"ce4bgv92rcd13ifvqcr0","pricing_plan_id":"cebpf4jnsgd1na2vs0mg"},{"bike_id":"aaf6b731-0c4f-4225-a161-1f0641b0c756","system_id":"levelo_inurba_marseille","lat":43.31072,"lon":5.38357,"is_reserved":false,"is_disabled":false,"rental_uris":{"android":"levelo://app?vid=aaf6b731-0c4f-4225-a161-1f0641b0c756","ios":"levelo://app?vid=aaf6b731-0c4f-4225-a161-1f0641b0c756"},"vehicle_type_id":"4","last_reported":1718914100,"current_range_meters":4800,"station_id":"","pricing_plan_id":"cebpf4jnsgd1na2vs0mg"},{"bike_id":"4ede33de-6ab2-4768-afef-1094ff40f64b","system_id":"levelo_inurba_marseille","lat":43.302829,"lon":5.376984,"is_reserved":false,"is_disabled":false,"rental_uris":{"android":"levelo://app?vid=4ede33de-6ab2-4768-afef-1094ff40f64b","ios":"levelo://app?vid=4ede33de-6ab2-4768-afef-1094ff40f64b"},"vehicle_type_id":"4","last_reported":1718914100,"current_range_meters":0,"station_id":"ce4bguh2rcd13ifvqcj0","pricing_plan_id":"cebpf4jnsgd1na2vs0mg"},{"bike_id":"55715491-3d8b-4aff-8c08-de1c2d38891b","system_id":"levelo_inurba_marseille","lat":43.30279,"lon":5.37697,"is_reserved":false,"is_disabled":false,"rental_uris":{"android":"levelo://app?vid=55715491-3d8b-4aff-8c08-de1c2d38891b","ios":"levelo://app?vid=55715491-3d8b-4aff-8c08-de1c2d38891b"},"vehicle_type_id":"4","last_reported":1718914100,"current_range_meters":0,"station_id":"ce4bguh2rcd13ifvqcj0","pricing_plan_id":"cebpf4jnsgd1na2vs0mg"},{"bike_id":"7f72212e-edbf-4234-83e7-9150510f2930","system_id":"levelo_inurba_marseille","lat":43.30143,"lon":5.37413,"is_reserved":false,"is_disabled":false,"rental_uris":{"android":"levelo://app?vid=7f72212e-edbf-4234-83e7-9150510f2930","ios":"levelo://app?vid=7f72212e-edbf-4234-83e7-9150510f2930"},"vehicle_type_id":"4","last_reported":1718914100,"current_range_meters":0,"station_id":"ce4bgs92rcd13ifvqcc0","pricing_plan_id":"cebpf4jnsgd1na2vs0mg"},{"bike_id":"93c6a878-5b2d-465e-aafa-c9e02a7217da","system_id":"levelo_inurba_marseille","lat":43.302784,"lon":5.377158,"is_reserved":false,"is_disabled":false,"rental_uris":{"android":"levelo://app?vid=93c6a878-5b2d-465e-aafa-c9e02a7217da","ios":"levelo://app?vid=93c6a878-5b2d-465e-aafa-c9e02a7217da"},"vehicle_type_id":"4","last_reported":1718914100,"current_range_meters":4400,"station_id":"ce4bguh2rcd13ifvqcj0","pricing_plan_id":"cebpf4jnsgd1na2vs0mg"},{"bike_id":"d18c46dd-b3c1-4e24-a712-147090dd7e75","system_id":"levelo_inurba_marseille","lat":43.31996,"lon":5.38143,"is_reserved":false,"is_disabled":false,"rental_uris":{"android":"levelo://app?vid=d18c46dd-b3c1-4e24-a712-147090dd7e75","ios":"levelo://app?vid=d18c46dd-b3c1-4e24-a712-147090dd7e75"},"vehicle_type_id":"4","last_reported":1718914100,"current_range_meters":0,"station_id":"ce4bhr12rcd13ifvqhpg","pricing_plan_id":"cebpf4jnsgd1na2vs0mg"},{"bike_id":"a791e37b-112d-432f-a0bd-612039f13ddc","system_id":"levelo_inurba_marseille","lat":43.319935,"lon":5.381699,"is_reserved":false,"is_disabled":false,"rental_uris":{"android":"levelo://app?vid=a791e37b-112d-432f-a0bd-612039f13ddc","ios":"levelo://app?vid=a791e37b-112d-432f-a0bd-612039f13ddc"},"vehicle_type_id":"4","last_reported":1718914100,"current_range_meters":4000,"station_id":"ce4bhr12rcd13ifvqhpg","pricing_plan_id":"cebpf4jnsgd1na2vs0mg"},{"bike_id":"6fb525be-4f83-40a0-b7c2-2eb028eb18b3","system_id":"levelo_inurba_marseille","lat":43.319935,"lon":5.381699,"is_reserved":false,"is_disabled":false,"rental_uris":{"android":"levelo://app?vid=6fb525be-4f83-40a0-b7c2-2eb028eb18b3","ios":"levelo://app?vid=6fb525be-4f83-40a0-b7c2-2eb028eb18b3"},"vehicle_type_id":"4","last_reported":1718914100,"current_range_meters":1600,"station_id":"ce4bhr12rcd13ifvqhpg","pricing_plan_id":"cebpf4jnsgd1na2vs0mg"},{"bike_id":"fb1dbbb3-b93d-4359-9f90-b2712704902b","system_id":"levelo_inurba_marseille","lat":43.313571,"lon":5.384829,"is_reserved":false,"is_disabled":false,"rental_uris":{"android":"levelo://app?vid=fb1dbbb3-b93d-4359-9f90-b2712704902b","ios":"levelo://app?vid=fb1dbbb3-b93d-4359-9f90-b2712704902b"},"vehicle_type_id":"4","last_reported":1718914100,"current_range_meters":3200,"station_id":"ce4bgt92rcd13ifvqcf0","pricing_plan_id":"cebpf4jnsgd1na2vs0mg"},{"bike_id":"b4724355-938d-428d-9869-e1869ab2a4da","system_id":"levelo_inurba_marseille","lat":43.313571,"lon":5.384829,"is_reserved":false,"is_disabled":false,"rental_uris":{"android":"levelo://app?vid=b4724355-938d-428d-9869-e1869ab2a4da","ios":"levelo://app?vid=b4724355-938d-428d-9869-e1869ab2a4da"},"vehicle_type_id":"4","last_reported":1718914100,"current_range_meters":0,"station_id":"ce4bgt92rcd13ifvqcf0","pricing_plan_id":"cebpf4jnsgd1na2vs0mg"},{"bike_id":"742d727b-a4eb-4a00-bfad-a3fa191ce258","system_id":"levelo_inurba_marseille","lat":43.31361,"lon":5.38489,"is_reserved":false,"is_disabled":false,"rental_uris":{"android":"levelo://app?vid=742d727b-a4eb-4a00-bfad-a3fa191ce258","ios":"levelo://app?vid=742d727b-a4eb-4a00-bfad-a3fa191ce258"},"vehicle_type_id":"4","last_reported":1718914100,"current_range_meters":0,"station_id":"ce4bgt92rcd13ifvqcf0","pricing_plan_id":"cebpf4jnsgd1na2vs0mg"},{"bike_id":"871b53f7-c46d-4517-9e05-c9494218fed6","system_id":"levelo_inurba_marseille","lat":43.313571,"lon":5.384829,"is_reserved":false,"is_disabled":false,"rental_uris":{"android":"levelo://app?vid=871b53f7-c46d-4517-9e05-c9494218fed6","ios":"levelo://app?vid=871b53f7-c46d-4517-9e05-c9494218fed6"},"vehicle_type_id":"4","last_reported":1718914100,"current_range_meters":16800,"station_id":"ce4bgt92rcd13ifvqcf0","pricing_plan_id":"cebpf4jnsgd1na2vs0mg"},{"bike_id":"624b9996-fc5d-4b87-8a0c-6598343c99c1","system_id":"levelo_inurba_marseille","lat":43.313571,"lon":5.384829,"is_reserved":false,"is_disabled":false,"rental_uris":{"android":"levelo://app?vid=624b9996-fc5d-4b87-8a0c-6598343c99c1","ios":"levelo://app?vid=624b9996-fc5d-4b87-8a0c-6598343c99c1"},"vehicle_type_id":"4","last_reported":1718914100,"current_range_meters":12800,"station_id":"ce4bgt92rcd13ifvqcf0","pricing_plan_id":"cebpf4jnsgd1na2vs0mg"},{"bike_id":"b8b603fe-50a2-49b1-a524-c9177a27eafd","system_id":"levelo_inurba_marseille","lat":43.313571,"lon":5.384829,"is_reserved":false,"is_disabled":false,"rental_uris":{"android":"levelo://app?vid=b8b603fe-50a2-49b1-a524-c9177a27eafd","ios":"levelo://app?vid=b8b603fe-50a2-49b1-a524-c9177a27eafd"},"vehicle_type_id":"4","last_reported":1718914100,"current_range_meters":19600,"station_id":"ce4bgt92rcd13ifvqcf0","pricing_plan_id":"cebpf4jnsgd1na2vs0mg"},{"bike_id":"61b7f469-9c9e-4189-8fa9-3ac23d54fe58","system_id":"levelo_inurba_marseille","lat":43.313571,"lon":5.384829,"is_reserved":false,"is_disabled":false,"rental_uris":{"android":"levelo://app?vid=61b7f469-9c9e-4189-8fa9-3ac23d54fe58","ios":"levelo://app?vid=61b7f469-9c9e-4189-8fa9-3ac23d54fe58"},"vehicle_type_id":"4","last_reported":1718914100,"current_range_meters":21600,"station_id":"ce4bgt92rcd13ifvqcf0","pricing_plan_id":"cebpf4jnsgd1na2vs0mg"},{"bike_id":"f25a9fe3-f97b-45cb-bdcd-8b5f24c00e2f","system_id":"levelo_inurba_marseille","lat":43.313571,"lon":5.384829,"is_reserved":false,"is_disabled":false,"rental_uris":{"android":"levelo://app?vid=f25a9fe3-f97b-45cb-bdcd-8b5f24c00e2f","ios":"levelo://app?vid=f25a9fe3-f97b-45cb-bdcd-8b5f24c00e2f"},"vehicle_type_id":"4","last_reported":1718914100,"current_range_meters":18400,"station_id":"ce4bgt92rcd13ifvqcf0","pricing_plan_id":"cebpf4jnsgd1na2vs0mg"},{"bike_id":"236ae1b2-cdea-49f4-9882-22f1dfe76ac8","system_id":"levelo_inurba_marseille","lat":43.31358,"lon":5.38499,"is_reserved":false,"is_disabled":false,"rental_uris":{"android":"levelo://app?vid=236ae1b2-cdea-49f4-9882-22f1dfe76ac8","ios":"levelo://app?vid=236ae1b2-cdea-49f4-9882-22f1dfe76ac8"},"vehicle_type_id":"4","last_reported":1718914100,"current_range_meters":0,"station_id":"ce4bgt92rcd13ifvqcf0","pricing_plan_id":"cebpf4jnsgd1na2vs0mg"},{"bike_id":"faf23bbf-18db-4c0c-8350-5ba70ec6e009","system_id":"levelo_inurba_marseille","lat":43.29982,"lon":5.37184,"is_reserved":false,"is_disabled":false,"rental_uris":{"android":"levelo://app?vid=faf23bbf-18db-4c0c-8350-5ba70ec6e009","ios":"levelo://app?vid=faf23bbf-18db-4c0c-8350-5ba70ec6e009"},"vehicle_type_id":"4","last_reported":1718914100,"current_range_meters":0,"station_id":"ce4bgr92rcd13ifvqc7g","pricing_plan_id":"cebpf4jnsgd1na2vs0mg"},{"bike_id":"1a7c4e98-a288-4e46-919f-886c2df84e3a","system_id":"levelo_inurba_marseille","lat":43.299222,"lon":5.365554,"is_reserved":false,"is_disabled":false,"rental_uris":{"android":"levelo://app?vid=1a7c4e98-a288-4e46-919f-886c2df84e3a","ios":"levelo://app?vid=1a7c4e98-a288-4e46-919f-886c2df84e3a"},"vehicle_type_id":"4","last_reported":1718914100,"current_range_meters":2400,"station_id":"ce4bgm92rcd13ifvqbr0","pricing_plan_id":"cebpf4jnsgd1na2vs0mg"},{"bike_id":"a75eab40-7418-4ee9-b963-0a60d91cb18f","system_id":"levelo_inurba_marseille","lat":43.299222,"lon":5.365554,"is_reserved":false,"is_disabled":false,"rental_uris":{"android":"levelo://app?vid=a75eab40-7418-4ee9-b963-0a60d91cb18f","ios":"levelo://app?vid=a75eab40-7418-4ee9-b963-0a60d91cb18f"},"vehicle_type_id":"4","last_reported":1718914100,"current_range_meters":3200,"station_id":"ce4bgm92rcd13ifvqbr0","pricing_plan_id":"cebpf4jnsgd1na2vs0mg"},{"bike_id":"379904c0-5017-473e-bb1e-dd075241fefb","system_id":"levelo_inurba_marseille","lat":43.298433,"lon":5.362774,"is_reserved":false,"is_disabled":false,"rental_uris":{"android":"levelo://app?vid=379904c0-5017-473e-bb1e-dd075241fefb","ios":"levelo://app?vid=379904c0-5017-473e-bb1e-dd075241fefb"},"vehicle_type_id":"4","last_reported":1718914100,"current_range_meters":22400,"station_id":"ce4bgpp2rcd13ifvqc3g","pricing_plan_id":"cebpf4jnsgd1na2vs0mg"},{"bike_id":"22f73c25-8b4a-42bc-9a90-7e43fade9509","system_id":"levelo_inurba_marseille","lat":43.311722,"lon":5.387247,"is_reserved":false,"is_disabled":false,"rental_uris":{"android":"levelo://app?vid=22f73c25-8b4a-42bc-9a90-7e43fade9509","ios":"levelo://app?vid=22f73c25-8b4a-42bc-9a90-7e43fade9509"},"vehicle_type_id":"4","last_reported":1718914100,"current_range_meters":0,"station_id":"ce4bgv12rcd13ifvqcp0","pricing_plan_id":"cebpf4jnsgd1na2vs0mg"},{"bike_id":"79e17655-e69b-4e1f-b6a0-24b41e7c0703","system_id":"levelo_inurba_marseille","lat":43.311823,"lon":5.387078,"is_reserved":false,"is_disabled":false,"rental_uris":{"android":"levelo://app?vid=79e17655-e69b-4e1f-b6a0-24b41e7c0703","ios":"levelo://app?vid=79e17655-e69b-4e1f-b6a0-24b41e7c0703"},"vehicle_type_id":"4","last_reported":1718914100,"current_range_meters":6800,"station_id":"ce4bgv12rcd13ifvqcp0","pricing_plan_id":"cebpf4jnsgd1na2vs0mg"},{"bike_id":"1d46d269-2784-4c8c-96c7-b83288f2a79b","system_id":"levelo_inurba_marseille","lat":43.311722,"lon":5.387247,"is_reserved":false,"is_disabled":false,"rental_uris":{"android":"levelo://app?vid=1d46d269-2784-4c8c-96c7-b83288f2a79b","ios":"levelo://app?vid=1d46d269-2784-4c8c-96c7-b83288f2a79b"},"vehicle_type_id":"4","last_reported":1718914100,"current_range_meters":12800,"station_id":"ce4bgv12rcd13ifvqcp0","pricing_plan_id":"cebpf4jnsgd1na2vs0mg"},{"bike_id":"17020a8e-0d1f-4af8-ade4-9dacd39fc21e","system_id":"levelo_inurba_marseille","lat":43.311722,"lon":5.387247,"is_reserved":false,"is_disabled":false,"rental_uris":{"android":"levelo://app?vid=17020a8e-0d1f-4af8-ade4-9dacd39fc21e","ios":"levelo://app?vid=17020a8e-0d1f-4af8-ade4-9dacd39fc21e"},"vehicle_type_id":"4","last_reported":1718914100,"current_range_meters":4400,"station_id":"ce4bgv12rcd13ifvqcp0","pricing_plan_id":"cebpf4jnsgd1na2vs0mg"},{"bike_id":"cdcf4b6b-7830-43ea-a8b3-f58be1648475","system_id":"levelo_inurba_marseille","lat":43.311722,"lon":5.387247,"is_reserved":false,"is_disabled":false,"rental_uris":{"android":"levelo://app?vid=cdcf4b6b-7830-43ea-a8b3-f58be1648475","ios":"levelo://app?vid=cdcf4b6b-7830-43ea-a8b3-f58be1648475"},"vehicle_type_id":"4","last_reported":1718914100,"current_range_meters":9600,"station_id":"ce4bgv12rcd13ifvqcp0","pricing_plan_id":"cebpf4jnsgd1na2vs0mg"},{"bike_id":"b7457832-8aa2-4d34-81a2-0093d04fe151","system_id":"levelo_inurba_marseille","lat":43.311722,"lon":5.387247,"is_reserved":false,"is_disabled":false,"rental_uris":{"android":"levelo://app?vid=b7457832-8aa2-4d34-81a2-0093d04fe151","ios":"levelo://app?vid=b7457832-8aa2-4d34-81a2-0093d04fe151"},"vehicle_type_id":"4","last_reported":1718914100,"current_range_meters":13600,"station_id":"ce4bgv12rcd13ifvqcp0","pricing_plan_id":"cebpf4jnsgd1na2vs0mg"},{"bike_id":"fba9f178-bc31-48d6-901d-e4feadd9b3f9","system_id":"levelo_inurba_marseille","lat":43.311722,"lon":5.387247,"is_reserved":false,"is_disabled":false,"rental_uris":{"android":"levelo://app?vid=fba9f178-bc31-48d6-901d-e4feadd9b3f9","ios":"levelo://app?vid=fba9f178-bc31-48d6-901d-e4feadd9b3f9"},"vehicle_type_id":"4","last_reported":1718914100,"current_range_meters":6000,"station_id":"ce4bgv12rcd13ifvqcp0","pricing_plan_id":"cebpf4jnsgd1na2vs0mg"},{"bike_id":"202fb2e5-89ca-4538-8bb7-cdb63339fd18","system_id":"levelo_inurba_marseille","lat":43.298536,"lon":5.372464,"is_reserved":false,"is_disabled":false,"rental_uris":{"android":"levelo://app?vid=202fb2e5-89ca-4538-8bb7-cdb63339fd18","ios":"levelo://app?vid=202fb2e5-89ca-4538-8bb7-cdb63339fd18"},"vehicle_type_id":"4","last_reported":1718914100,"current_range_meters":31200,"station_id":"","pricing_plan_id":"cebpf4jnsgd1na2vs0mg"},{"bike_id":"c0ff29be-1b5a-43c1-9ee8-37b142781efb","system_id":"levelo_inurba_marseille","lat":43.311722,"lon":5.387247,"is_reserved":false,"is_disabled":false,"rental_uris":{"android":"levelo://app?vid=c0ff29be-1b5a-43c1-9ee8-37b142781efb","ios":"levelo://app?vid=c0ff29be-1b5a-43c1-9ee8-37b142781efb"},"vehicle_type_id":"4","last_reported":1718914100,"current_range_meters":23200,"station_id":"ce4bgv12rcd13ifvqcp0","pricing_plan_id":"cebpf4jnsgd1na2vs0mg"},{"bike_id":"490cbc0e-3a93-4683-9c4c-9b7240674d81","system_id":"levelo_inurba_marseille","lat":43.311722,"lon":5.387247,"is_reserved":false,"is_disabled":false,"rental_uris":{"android":"levelo://app?vid=490cbc0e-3a93-4683-9c4c-9b7240674d81","ios":"levelo://app?vid=490cbc0e-3a93-4683-9c4c-9b7240674d81"},"vehicle_type_id":"4","last_reported":1718914100,"current_range_meters":22800,"station_id":"ce4bgv12rcd13ifvqcp0","pricing_plan_id":"cebpf4jnsgd1na2vs0mg"},{"bike_id":"ef407630-1af0-44c2-b455-30aa0e615ed4","system_id":"levelo_inurba_marseille","lat":43.311722,"lon":5.387247,"is_reserved":false,"is_disabled":false,"rental_uris":{"android":"levelo://app?vid=ef407630-1af0-44c2-b455-30aa0e615ed4","ios":"levelo://app?vid=ef407630-1af0-44c2-b455-30aa0e615ed4"},"vehicle_type_id":"4","last_reported":1718914100,"current_range_meters":16400,"station_id":"ce4bgv12rcd13ifvqcp0","pricing_plan_id":"cebpf4jnsgd1na2vs0mg"},{"bike_id":"495fa6ae-221a-4944-b530-52ad6939814f","system_id":"levelo_inurba_marseille","lat":43.311722,"lon":5.387247,"is_reserved":false,"is_disabled":false,"rental_uris":{"android":"levelo://app?vid=495fa6ae-221a-4944-b530-52ad6939814f","ios":"levelo://app?vid=495fa6ae-221a-4944-b530-52ad6939814f"},"vehicle_type_id":"4","last_reported":1718914100,"current_range_meters":25200,"station_id":"ce4bgv12rcd13ifvqcp0","pricing_plan_id":"cebpf4jnsgd1na2vs0mg"},{"bike_id":"bf40a7aa-cbb4-4da2-8c1a-345fe3583a45","system_id":"levelo_inurba_marseille","lat":43.311722,"lon":5.387247,"is_reserved":false,"is_disabled":false,"rental_uris":{"android":"levelo://app?vid=bf40a7aa-cbb4-4da2-8c1a-345fe3583a45","ios":"levelo://app?vid=bf40a7aa-cbb4-4da2-8c1a-345fe3583a45"},"vehicle_type_id":"4","last_reported":1718914100,"current_range_meters":14000,"station_id":"ce4bgv12rcd13ifvqcp0","pricing_plan_id":"cebpf4jnsgd1na2vs0mg"},{"bike_id":"0416d516-4787-4ff0-b2c2-57414e8d8a62","system_id":"levelo_inurba_marseille","lat":43.311722,"lon":5.387247,"is_reserved":false,"is_disabled":false,"rental_uris":{"android":"levelo://app?vid=0416d516-4787-4ff0-b2c2-57414e8d8a62","ios":"levelo://app?vid=0416d516-4787-4ff0-b2c2-57414e8d8a62"},"vehicle_type_id":"4","last_reported":1718914100,"current_range_meters":7200,"station_id":"ce4bgv12rcd13ifvqcp0","pricing_plan_id":"cebpf4jnsgd1na2vs0mg"},{"bike_id":"1c5240f6-c204-4355-a679-400b2e162ffe","system_id":"levelo_inurba_marseille","lat":43.311722,"lon":5.387247,"is_reserved":false,"is_disabled":false,"rental_uris":{"android":"levelo://app?vid=1c5240f6-c204-4355-a679-400b2e162ffe","ios":"levelo://app?vid=1c5240f6-c204-4355-a679-400b2e162ffe"},"vehicle_type_id":"4","last_reported":1718914100,"current_range_meters":11200,"station_id":"ce4bgv12rcd13ifvqcp0","pricing_plan_id":"cebpf4jnsgd1na2vs0mg"},{"bike_id":"02a37c7e-e1ce-464f-811b-e564cc2dd376","system_id":"levelo_inurba_marseille","lat":43.30156,"lon":5.38069,"is_reserved":false,"is_disabled":false,"rental_uris":{"android":"levelo://app?vid=02a37c7e-e1ce-464f-811b-e564cc2dd376","ios":"levelo://app?vid=02a37c7e-e1ce-464f-811b-e564cc2dd376"},"vehicle_type_id":"4","last_reported":1718914100,"current_range_meters":10400,"station_id":"","pricing_plan_id":"cebpf4jnsgd1na2vs0mg"},{"bike_id":"4012965d-3916-49ee-a722-24c3b0fbec54","system_id":"levelo_inurba_marseille","lat":43.297794,"lon":5.370888,"is_reserved":false,"is_disabled":false,"rental_uris":{"android":"levelo://app?vid=4012965d-3916-49ee-a722-24c3b0fbec54","ios":"levelo://app?vid=4012965d-3916-49ee-a722-24c3b0fbec54"},"vehicle_type_id":"4","last_reported":1718914100,"current_range_meters":18400,"station_id":"ce4bgop2rcd13ifvqc1g","pricing_plan_id":"cebpf4jnsgd1na2vs0mg"},{"bike_id":"2e452a41-55ea-4d4e-87f0-1b8ebe96891f","system_id":"levelo_inurba_marseille","lat":43.322872,"lon":5.382756,"is_reserved":false,"is_disabled":false,"rental_uris":{"android":"levelo://app?vid=2e452a41-55ea-4d4e-87f0-1b8ebe96891f","ios":"levelo://app?vid=2e452a41-55ea-4d4e-87f0-1b8ebe96891f"},"vehicle_type_id":"4","last_reported":1718914100,"current_range_meters":31600,"station_id":"ce4bhr12rcd13ifvqhqg","pricing_plan_id":"cebpf4jnsgd1na2vs0mg"},{"bike_id":"7fbd0601-ff79-437d-acea-a529b53be018","system_id":"levelo_inurba_marseille","lat":43.322872,"lon":5.382756,"is_reserved":false,"is_disabled":false,"rental_uris":{"android":"levelo://app?vid=7fbd0601-ff79-437d-acea-a529b53be018","ios":"levelo://app?vid=7fbd0601-ff79-437d-acea-a529b53be018"},"vehicle_type_id":"4","last_reported":1718914100,"current_range_meters":24000,"station_id":"ce4bhr12rcd13ifvqhqg","pricing_plan_id":"cebpf4jnsgd1na2vs0mg"},{"bike_id":"8bc5a871-93d0-44d8-a3d8-e546b2b93406","system_id":"levelo_inurba_marseille","lat":43.322872,"lon":5.382756,"is_reserved":false,"is_disabled":false,"rental_uris":{"android":"levelo://app?vid=8bc5a871-93d0-44d8-a3d8-e546b2b93406","ios":"levelo://app?vid=8bc5a871-93d0-44d8-a3d8-e546b2b93406"},"vehicle_type_id":"4","last_reported":1718914100,"current_range_meters":21200,"station_id":"ce4bhr12rcd13ifvqhqg","pricing_plan_id":"cebpf4jnsgd1na2vs0mg"},{"bike_id":"9506c2ef-53a8-4801-88d7-395ec2da19db","system_id":"levelo_inurba_marseille","lat":43.322872,"lon":5.382756,"is_reserved":false,"is_disabled":false,"rental_uris":{"android":"levelo://app?vid=9506c2ef-53a8-4801-88d7-395ec2da19db","ios":"levelo://app?vid=9506c2ef-53a8-4801-88d7-395ec2da19db"},"vehicle_type_id":"4","last_reported":1718914100,"current_range_meters":1200,"station_id":"ce4bhr12rcd13ifvqhqg","pricing_plan_id":"cebpf4jnsgd1na2vs0mg"},{"bike_id":"7ad78b5b-5255-48e6-bf46-833fe33a9c89","system_id":"levelo_inurba_marseille","lat":43.297424,"lon":5.36476,"is_reserved":false,"is_disabled":false,"rental_uris":{"android":"levelo://app?vid=7ad78b5b-5255-48e6-bf46-833fe33a9c89","ios":"levelo://app?vid=7ad78b5b-5255-48e6-bf46-833fe33a9c89"},"vehicle_type_id":"4","last_reported":1718914100,"current_range_meters":800,"station_id":"","pricing_plan_id":"cebpf4jnsgd1na2vs0mg"},{"bike_id":"e34a34fe-40d2-4d37-8a9f-a8277037dbc6","system_id":"levelo_inurba_marseille","lat":43.297163,"lon":5.365866,"is_reserved":false,"is_disabled":false,"rental_uris":{"android":"levelo://app?vid=e34a34fe-40d2-4d37-8a9f-a8277037dbc6","ios":"levelo://app?vid=e34a34fe-40d2-4d37-8a9f-a8277037dbc6"},"vehicle_type_id":"4","last_reported":1718914100,"current_range_meters":27200,"station_id":"ce4bgn12rcd13ifvqbt0","pricing_plan_id":"cebpf4jnsgd1na2vs0mg"},{"bike_id":"20f31c62-307b-4c16-93b6-6fcc5accd677","system_id":"levelo_inurba_marseille","lat":43.29818,"lon":5.37764,"is_reserved":false,"is_disabled":false,"rental_uris":{"android":"levelo://app?vid=20f31c62-307b-4c16-93b6-6fcc5accd677","ios":"levelo://app?vid=20f31c62-307b-4c16-93b6-6fcc5accd677"},"vehicle_type_id":"4","last_reported":1718914100,"current_range_meters":16400,"station_id":"","pricing_plan_id":"cebpf4jnsgd1na2vs0mg"},{"bike_id":"8635262f-a840-44e3-a43c-ae7920575067","system_id":"levelo_inurba_marseille","lat":43.29573,"lon":5.367355,"is_reserved":false,"is_disabled":false,"rental_uris":{"android":"levelo://app?vid=8635262f-a840-44e3-a43c-ae7920575067","ios":"levelo://app?vid=8635262f-a840-44e3-a43c-ae7920575067"},"vehicle_type_id":"4","last_reported":1718914100,"current_range_meters":6000,"station_id":"ce4bgph2rcd13ifvqc2g","pricing_plan_id":"cebpf4jnsgd1na2vs0mg"},{"bike_id":"a3595422-9c3f-493a-9102-e2ae4902ed36","system_id":"levelo_inurba_marseille","lat":43.29573,"lon":5.367355,"is_reserved":false,"is_disabled":false,"rental_uris":{"android":"levelo://app?vid=a3595422-9c3f-493a-9102-e2ae4902ed36","ios":"levelo://app?vid=a3595422-9c3f-493a-9102-e2ae4902ed36"},"vehicle_type_id":"4","last_reported":1718914100,"current_range_meters":27200,"station_id":"ce4bgph2rcd13ifvqc2g","pricing_plan_id":"cebpf4jnsgd1na2vs0mg"},{"bike_id":"4adb553d-84fd-4c0d-b52f-42e99b35181e","system_id":"levelo_inurba_marseille","lat":43.296131,"lon":5.370791,"is_reserved":false,"is_disabled":false,"rental_uris":{"android":"levelo://app?vid=4adb553d-84fd-4c0d-b52f-42e99b35181e","ios":"levelo://app?vid=4adb553d-84fd-4c0d-b52f-42e99b35181e"},"vehicle_type_id":"4","last_reported":1718914100,"current_range_meters":16800,"station_id":"ce4bgnh2rcd13ifvqc0g","pricing_plan_id":"cebpf4jnsgd1na2vs0mg"},{"bike_id":"9e66c222-e957-4a40-93e8-8c4e97d834a4","system_id":"levelo_inurba_marseille","lat":43.29717,"lon":5.37677,"is_reserved":false,"is_disabled":false,"rental_uris":{"android":"levelo://app?vid=9e66c222-e957-4a40-93e8-8c4e97d834a4","ios":"levelo://app?vid=9e66c222-e957-4a40-93e8-8c4e97d834a4"},"vehicle_type_id":"4","last_reported":1718914100,"current_range_meters":8800,"station_id":"ce4bgkh2rcd13ifvqbl0","pricing_plan_id":"cebpf4jnsgd1na2vs0mg"},{"bike_id":"f149e019-6e57-40ce-bce0-5636dd77cdd5","system_id":"levelo_inurba_marseille","lat":43.29717,"lon":5.37685,"is_reserved":false,"is_disabled":false,"rental_uris":{"android":"levelo://app?vid=f149e019-6e57-40ce-bce0-5636dd77cdd5","ios":"levelo://app?vid=f149e019-6e57-40ce-bce0-5636dd77cdd5"},"vehicle_type_id":"4","last_reported":1718914100,"current_range_meters":0,"station_id":"ce4bgkh2rcd13ifvqbl0","pricing_plan_id":"cebpf4jnsgd1na2vs0mg"},{"bike_id":"a3ca2b84-8d99-4b94-ab1c-1bf8b120d2c1","system_id":"levelo_inurba_marseille","lat":43.299028,"lon":5.381509,"is_reserved":false,"is_disabled":false,"rental_uris":{"android":"levelo://app?vid=a3ca2b84-8d99-4b94-ab1c-1bf8b120d2c1","ios":"levelo://app?vid=a3ca2b84-8d99-4b94-ab1c-1bf8b120d2c1"},"vehicle_type_id":"4","last_reported":1718914100,"current_range_meters":31200,"station_id":"ce4bgj12rcd13ifvqbc0","pricing_plan_id":"cebpf4jnsgd1na2vs0mg"},{"bike_id":"5159e83b-f766-4f58-8632-8f6c49ecb045","system_id":"levelo_inurba_marseille","lat":43.309589,"lon":5.390258,"is_reserved":false,"is_disabled":false,"rental_uris":{"android":"levelo://app?vid=5159e83b-f766-4f58-8632-8f6c49ecb045","ios":"levelo://app?vid=5159e83b-f766-4f58-8632-8f6c49ecb045"},"vehicle_type_id":"4","last_reported":1718914100,"current_range_meters":11200,"station_id":"ce4bgup2rcd13ifvqco0","pricing_plan_id":"cebpf4jnsgd1na2vs0mg"},{"bike_id":"ce28e87b-5fe4-433b-9b50-f396d4bd8be1","system_id":"levelo_inurba_marseille","lat":43.309589,"lon":5.390258,"is_reserved":false,"is_disabled":false,"rental_uris":{"android":"levelo://app?vid=ce28e87b-5fe4-433b-9b50-f396d4bd8be1","ios":"levelo://app?vid=ce28e87b-5fe4-433b-9b50-f396d4bd8be1"},"vehicle_type_id":"4","last_reported":1718914100,"current_range_meters":0,"station_id":"ce4bgup2rcd13ifvqco0","pricing_plan_id":"cebpf4jnsgd1na2vs0mg"},{"bike_id":"4c1b316e-c387-46dd-868c-60b80b9abe55","system_id":"levelo_inurba_marseille","lat":43.29706,"lon":5.37692,"is_reserved":false,"is_disabled":false,"rental_uris":{"android":"levelo://app?vid=4c1b316e-c387-46dd-868c-60b80b9abe55","ios":"levelo://app?vid=4c1b316e-c387-46dd-868c-60b80b9abe55"},"vehicle_type_id":"4","last_reported":1718914100,"current_range_meters":6800,"station_id":"ce4bgkh2rcd13ifvqbl0","pricing_plan_id":"cebpf4jnsgd1na2vs0mg"},{"bike_id":"802799dc-9e1b-43b8-a63b-b06252780fef","system_id":"levelo_inurba_marseille","lat":43.30946,"lon":5.39031,"is_reserved":false,"is_disabled":false,"rental_uris":{"android":"levelo://app?vid=802799dc-9e1b-43b8-a63b-b06252780fef","ios":"levelo://app?vid=802799dc-9e1b-43b8-a63b-b06252780fef"},"vehicle_type_id":"4","last_reported":1718914100,"current_range_meters":0,"station_id":"ce4bgup2rcd13ifvqco0","pricing_plan_id":"cebpf4jnsgd1na2vs0mg"},{"bike_id":"1c078ec5-81e0-4f56-87ea-de76b7b38858","system_id":"levelo_inurba_marseille","lat":43.31754,"lon":5.39013,"is_reserved":false,"is_disabled":false,"rental_uris":{"android":"levelo://app?vid=1c078ec5-81e0-4f56-87ea-de76b7b38858","ios":"levelo://app?vid=1c078ec5-81e0-4f56-87ea-de76b7b38858"},"vehicle_type_id":"4","last_reported":1718914100,"current_range_meters":29200,"station_id":"ce4bhqp2rcd13ifvqhng","pricing_plan_id":"cebpf4jnsgd1na2vs0mg"},{"bike_id":"94a26fef-f45b-48bd-b619-f219d8f733b6","system_id":"levelo_inurba_marseille","lat":43.317557,"lon":5.390173,"is_reserved":false,"is_disabled":false,"rental_uris":{"android":"levelo://app?vid=94a26fef-f45b-48bd-b619-f219d8f733b6","ios":"levelo://app?vid=94a26fef-f45b-48bd-b619-f219d8f733b6"},"vehicle_type_id":"4","last_reported":1718914100,"current_range_meters":0,"station_id":"ce4bhqp2rcd13ifvqhng","pricing_plan_id":"cebpf4jnsgd1na2vs0mg"},{"bike_id":"ebbfc6d4-bfe5-47da-bb97-efe302f9bfa1","system_id":"levelo_inurba_marseille","lat":43.31756,"lon":5.39021,"is_reserved":false,"is_disabled":false,"rental_uris":{"android":"levelo://app?vid=ebbfc6d4-bfe5-47da-bb97-efe302f9bfa1","ios":"levelo://app?vid=ebbfc6d4-bfe5-47da-bb97-efe302f9bfa1"},"vehicle_type_id":"4","last_reported":1718914100,"current_range_meters":4800,"station_id":"ce4bhqp2rcd13ifvqhng","pricing_plan_id":"cebpf4jnsgd1na2vs0mg"},{"bike_id":"99ccf407-77f1-4244-8076-3d089d1a9e2c","system_id":"levelo_inurba_marseille","lat":43.304274,"lon":5.388873,"is_reserved":false,"is_disabled":false,"rental_uris":{"android":"levelo://app?vid=99ccf407-77f1-4244-8076-3d089d1a9e2c","ios":"levelo://app?vid=99ccf407-77f1-4244-8076-3d089d1a9e2c"},"vehicle_type_id":"4","last_reported":1718914100,"current_range_meters":2400,"station_id":"ce4bgk12rcd13ifvqbi0","pricing_plan_id":"cebpf4jnsgd1na2vs0mg"},{"bike_id":"3726963a-9cd7-49b9-a681-841b8939a0b3","system_id":"levelo_inurba_marseille","lat":43.304274,"lon":5.388873,"is_reserved":false,"is_disabled":false,"rental_uris":{"android":"levelo://app?vid=3726963a-9cd7-49b9-a681-841b8939a0b3","ios":"levelo://app?vid=3726963a-9cd7-49b9-a681-841b8939a0b3"},"vehicle_type_id":"4","last_reported":1718914100,"current_range_meters":20000,"station_id":"ce4bgk12rcd13ifvqbi0","pricing_plan_id":"cebpf4jnsgd1na2vs0mg"},{"bike_id":"16a13a42-0730-44e1-ac42-f4f11af4df13","system_id":"levelo_inurba_marseille","lat":43.304274,"lon":5.388873,"is_reserved":false,"is_disabled":false,"rental_uris":{"android":"levelo://app?vid=16a13a42-0730-44e1-ac42-f4f11af4df13","ios":"levelo://app?vid=16a13a42-0730-44e1-ac42-f4f11af4df13"},"vehicle_type_id":"4","last_reported":1718914100,"current_range_meters":17600,"station_id":"ce4bgk12rcd13ifvqbi0","pricing_plan_id":"cebpf4jnsgd1na2vs0mg"},{"bike_id":"c30fbf30-15e2-4a70-962c-e418f9b0b93c","system_id":"levelo_inurba_marseille","lat":43.295748,"lon":5.37522,"is_reserved":false,"is_disabled":false,"rental_uris":{"android":"levelo://app?vid=c30fbf30-15e2-4a70-962c-e418f9b0b93c","ios":"levelo://app?vid=c30fbf30-15e2-4a70-962c-e418f9b0b93c"},"vehicle_type_id":"4","last_reported":1718914100,"current_range_meters":6000,"station_id":"ce4bgh92rcd13ifvqb50","pricing_plan_id":"cebpf4jnsgd1na2vs0mg"},{"bike_id":"691c4fd4-e797-41ac-8dfc-9ad290c713d9","system_id":"levelo_inurba_marseille","lat":43.29979,"lon":5.38491,"is_reserved":false,"is_disabled":false,"rental_uris":{"android":"levelo://app?vid=691c4fd4-e797-41ac-8dfc-9ad290c713d9","ios":"levelo://app?vid=691c4fd4-e797-41ac-8dfc-9ad290c713d9"},"vehicle_type_id":"4","last_reported":1718914100,"current_range_meters":29600,"station_id":"","pricing_plan_id":"cebpf4jnsgd1na2vs0mg"},{"bike_id":"637e623e-9d24-452c-9844-acc80c9e5836","system_id":"levelo_inurba_marseille","lat":43.299707,"lon":5.384859,"is_reserved":false,"is_disabled":false,"rental_uris":{"android":"levelo://app?vid=637e623e-9d24-452c-9844-acc80c9e5836","ios":"levelo://app?vid=637e623e-9d24-452c-9844-acc80c9e5836"},"vehicle_type_id":"4","last_reported":1718914100,"current_range_meters":2000,"station_id":"ce4bgj92rcd13ifvqbd0","pricing_plan_id":"cebpf4jnsgd1na2vs0mg"},{"bike_id":"244fa847-771b-43fe-a7ca-d50217d39a2a","system_id":"levelo_inurba_marseille","lat":43.299707,"lon":5.384859,"is_reserved":false,"is_disabled":false,"rental_uris":{"android":"levelo://app?vid=244fa847-771b-43fe-a7ca-d50217d39a2a","ios":"levelo://app?vid=244fa847-771b-43fe-a7ca-d50217d39a2a"},"vehicle_type_id":"4","last_reported":1718914100,"current_range_meters":29200,"station_id":"ce4bgj92rcd13ifvqbd0","pricing_plan_id":"cebpf4jnsgd1na2vs0mg"},{"bike_id":"18b8b3af-306b-4ef6-bfae-ddaa9b27872b","system_id":"levelo_inurba_marseille","lat":43.299717,"lon":5.384845,"is_reserved":false,"is_disabled":false,"rental_uris":{"android":"levelo://app?vid=18b8b3af-306b-4ef6-bfae-ddaa9b27872b","ios":"levelo://app?vid=18b8b3af-306b-4ef6-bfae-ddaa9b27872b"},"vehicle_type_id":"4","last_reported":1718914100,"current_range_meters":31600,"station_id":"ce4bgj92rcd13ifvqbd0","pricing_plan_id":"cebpf4jnsgd1na2vs0mg"},{"bike_id":"021958eb-8369-477b-ab7f-e19c01689d37","system_id":"levelo_inurba_marseille","lat":43.299717,"lon":5.384845,"is_reserved":false,"is_disabled":false,"rental_uris":{"android":"levelo://app?vid=021958eb-8369-477b-ab7f-e19c01689d37","ios":"levelo://app?vid=021958eb-8369-477b-ab7f-e19c01689d37"},"vehicle_type_id":"4","last_reported":1718914100,"current_range_meters":8400,"station_id":"ce4bgj92rcd13ifvqbd0","pricing_plan_id":"cebpf4jnsgd1na2vs0mg"},{"bike_id":"f42fa974-7406-4b9b-a9d8-11bff8ce00f7","system_id":"levelo_inurba_marseille","lat":43.299717,"lon":5.384845,"is_reserved":false,"is_disabled":false,"rental_uris":{"android":"levelo://app?vid=f42fa974-7406-4b9b-a9d8-11bff8ce00f7","ios":"levelo://app?vid=f42fa974-7406-4b9b-a9d8-11bff8ce00f7"},"vehicle_type_id":"4","last_reported":1718914100,"current_range_meters":21200,"station_id":"ce4bgj92rcd13ifvqbd0","pricing_plan_id":"cebpf4jnsgd1na2vs0mg"},{"bike_id":"9a291a8e-edc0-4366-859a-251a8355862e","system_id":"levelo_inurba_marseille","lat":43.299724,"lon":5.384848,"is_reserved":false,"is_disabled":false,"rental_uris":{"android":"levelo://app?vid=9a291a8e-edc0-4366-859a-251a8355862e","ios":"levelo://app?vid=9a291a8e-edc0-4366-859a-251a8355862e"},"vehicle_type_id":"4","last_reported":1718914100,"current_range_meters":19200,"station_id":"ce4bgj92rcd13ifvqbd0","pricing_plan_id":"cebpf4jnsgd1na2vs0mg"},{"bike_id":"f84a10e5-c103-4dae-b99b-ca1fc51ae362","system_id":"levelo_inurba_marseille","lat":43.299707,"lon":5.384859,"is_reserved":false,"is_disabled":false,"rental_uris":{"android":"levelo://app?vid=f84a10e5-c103-4dae-b99b-ca1fc51ae362","ios":"levelo://app?vid=f84a10e5-c103-4dae-b99b-ca1fc51ae362"},"vehicle_type_id":"4","last_reported":1718914100,"current_range_meters":23600,"station_id":"ce4bgj92rcd13ifvqbd0","pricing_plan_id":"cebpf4jnsgd1na2vs0mg"},{"bike_id":"14f016ca-07d2-4323-b086-95924624cfcf","system_id":"levelo_inurba_marseille","lat":43.29903,"lon":5.38466,"is_reserved":false,"is_disabled":false,"rental_uris":{"android":"levelo://app?vid=14f016ca-07d2-4323-b086-95924624cfcf","ios":"levelo://app?vid=14f016ca-07d2-4323-b086-95924624cfcf"},"vehicle_type_id":"4","last_reported":1718914100,"current_range_meters":3600,"station_id":"","pricing_plan_id":"cebpf4jnsgd1na2vs0mg"},{"bike_id":"1b3d20a4-943b-4793-90b4-d90936b716cd","system_id":"levelo_inurba_marseille","lat":43.29685,"lon":5.38113,"is_reserved":false,"is_disabled":false,"rental_uris":{"android":"levelo://app?vid=1b3d20a4-943b-4793-90b4-d90936b716cd","ios":"levelo://app?vid=1b3d20a4-943b-4793-90b4-d90936b716cd"},"vehicle_type_id":"4","last_reported":1718914100,"current_range_meters":26400,"station_id":"","pricing_plan_id":"cebpf4jnsgd1na2vs0mg"},{"bike_id":"2aa37014-85d2-4acc-8d89-520ee43b5a49","system_id":"levelo_inurba_marseille","lat":43.299724,"lon":5.384848,"is_reserved":false,"is_disabled":false,"rental_uris":{"android":"levelo://app?vid=2aa37014-85d2-4acc-8d89-520ee43b5a49","ios":"levelo://app?vid=2aa37014-85d2-4acc-8d89-520ee43b5a49"},"vehicle_type_id":"4","last_reported":1718914100,"current_range_meters":18400,"station_id":"ce4bgj92rcd13ifvqbd0","pricing_plan_id":"cebpf4jnsgd1na2vs0mg"},{"bike_id":"801cdd2b-36ee-4775-8926-9374f6d0221a","system_id":"levelo_inurba_marseille","lat":43.292644,"lon":5.384257,"is_reserved":false,"is_disabled":false,"rental_uris":{"android":"levelo://app?vid=801cdd2b-36ee-4775-8926-9374f6d0221a","ios":"levelo://app?vid=801cdd2b-36ee-4775-8926-9374f6d0221a"},"vehicle_type_id":"4","last_reported":1718914100,"current_range_meters":20000,"station_id":"ce4bh692rcd13ifvqea0","pricing_plan_id":"cebpf4jnsgd1na2vs0mg"},{"bike_id":"b3898f6d-9ee3-4402-9de4-71d88d23e49b","system_id":"levelo_inurba_marseille","lat":43.32374,"lon":5.38872,"is_reserved":false,"is_disabled":false,"rental_uris":{"android":"levelo://app?vid=b3898f6d-9ee3-4402-9de4-71d88d23e49b","ios":"levelo://app?vid=b3898f6d-9ee3-4402-9de4-71d88d23e49b"},"vehicle_type_id":"4","last_reported":1718914100,"current_range_meters":14000,"station_id":"ce4bhqp2rcd13ifvqhog","pricing_plan_id":"cebpf4jnsgd1na2vs0mg"},{"bike_id":"fcd58543-f67b-4b20-8aae-90adbd70ead4","system_id":"levelo_inurba_marseille","lat":43.32366,"lon":5.3888,"is_reserved":false,"is_disabled":false,"rental_uris":{"android":"levelo://app?vid=fcd58543-f67b-4b20-8aae-90adbd70ead4","ios":"levelo://app?vid=fcd58543-f67b-4b20-8aae-90adbd70ead4"},"vehicle_type_id":"4","last_reported":1718914100,"current_range_meters":10800,"station_id":"ce4bhqp2rcd13ifvqhog","pricing_plan_id":"cebpf4jnsgd1na2vs0mg"},{"bike_id":"1159ba63-5c3e-4c82-81d4-9c4e1cfcfba3","system_id":"levelo_inurba_marseille","lat":43.323713,"lon":5.38881,"is_reserved":false,"is_disabled":false,"rental_uris":{"android":"levelo://app?vid=1159ba63-5c3e-4c82-81d4-9c4e1cfcfba3","ios":"levelo://app?vid=1159ba63-5c3e-4c82-81d4-9c4e1cfcfba3"},"vehicle_type_id":"4","last_reported":1718914100,"current_range_meters":0,"station_id":"ce4bhqp2rcd13ifvqhog","pricing_plan_id":"cebpf4jnsgd1na2vs0mg"},{"bike_id":"d702aa0f-eeb6-430b-a5e6-c3c36a3a0541","system_id":"levelo_inurba_marseille","lat":43.29602,"lon":5.381084,"is_reserved":false,"is_disabled":false,"rental_uris":{"android":"levelo://app?vid=d702aa0f-eeb6-430b-a5e6-c3c36a3a0541","ios":"levelo://app?vid=d702aa0f-eeb6-430b-a5e6-c3c36a3a0541"},"vehicle_type_id":"4","last_reported":1718914100,"current_range_meters":31200,"station_id":"ce4bgl12rcd13ifvqbo0","pricing_plan_id":"cebpf4jnsgd1na2vs0mg"},{"bike_id":"15540751-007f-469b-9cd5-ea807789f4cd","system_id":"levelo_inurba_marseille","lat":43.29602,"lon":5.381084,"is_reserved":false,"is_disabled":false,"rental_uris":{"android":"levelo://app?vid=15540751-007f-469b-9cd5-ea807789f4cd","ios":"levelo://app?vid=15540751-007f-469b-9cd5-ea807789f4cd"},"vehicle_type_id":"4","last_reported":1718914100,"current_range_meters":31200,"station_id":"ce4bgl12rcd13ifvqbo0","pricing_plan_id":"cebpf4jnsgd1na2vs0mg"},{"bike_id":"ba713ec8-8121-44db-b3bd-21e7589950f5","system_id":"levelo_inurba_marseille","lat":43.29602,"lon":5.381084,"is_reserved":false,"is_disabled":false,"rental_uris":{"android":"levelo://app?vid=ba713ec8-8121-44db-b3bd-21e7589950f5","ios":"levelo://app?vid=ba713ec8-8121-44db-b3bd-21e7589950f5"},"vehicle_type_id":"4","last_reported":1718914100,"current_range_meters":14800,"station_id":"ce4bgl12rcd13ifvqbo0","pricing_plan_id":"cebpf4jnsgd1na2vs0mg"},{"bike_id":"90c5ac0b-6616-403d-97d1-af3dcd8fa5f7","system_id":"levelo_inurba_marseille","lat":43.296008,"lon":5.380932,"is_reserved":false,"is_disabled":false,"rental_uris":{"android":"levelo://app?vid=90c5ac0b-6616-403d-97d1-af3dcd8fa5f7","ios":"levelo://app?vid=90c5ac0b-6616-403d-97d1-af3dcd8fa5f7"},"vehicle_type_id":"4","last_reported":1718914100,"current_range_meters":26000,"station_id":"ce4bgl12rcd13ifvqbo0","pricing_plan_id":"cebpf4jnsgd1na2vs0mg"},{"bike_id":"20498a24-807b-4754-be82-d7806c6b44dc","system_id":"levelo_inurba_marseille","lat":43.293249,"lon":5.371578,"is_reserved":false,"is_disabled":false,"rental_uris":{"android":"levelo://app?vid=20498a24-807b-4754-be82-d7806c6b44dc","ios":"levelo://app?vid=20498a24-807b-4754-be82-d7806c6b44dc"},"vehicle_type_id":"4","last_reported":1718914100,"current_range_meters":4000,"station_id":"ce4bgh92rcd13ifvqb40","pricing_plan_id":"cebpf4jnsgd1na2vs0mg"},{"bike_id":"3fcf5ea9-59de-4854-9216-3d2cf8035ea6","system_id":"levelo_inurba_marseille","lat":43.293259,"lon":5.371586,"is_reserved":false,"is_disabled":false,"rental_uris":{"android":"levelo://app?vid=3fcf5ea9-59de-4854-9216-3d2cf8035ea6","ios":"levelo://app?vid=3fcf5ea9-59de-4854-9216-3d2cf8035ea6"},"vehicle_type_id":"4","last_reported":1718914100,"current_range_meters":28000,"station_id":"ce4bgh92rcd13ifvqb40","pricing_plan_id":"cebpf4jnsgd1na2vs0mg"},{"bike_id":"de2d930f-3527-4ff3-82bf-0ac9cb879e18","system_id":"levelo_inurba_marseille","lat":43.29279,"lon":5.3684,"is_reserved":false,"is_disabled":false,"rental_uris":{"android":"levelo://app?vid=de2d930f-3527-4ff3-82bf-0ac9cb879e18","ios":"levelo://app?vid=de2d930f-3527-4ff3-82bf-0ac9cb879e18"},"vehicle_type_id":"4","last_reported":1718914100,"current_range_meters":30400,"station_id":"ce4bhbp2rcd13ifvqesg","pricing_plan_id":"cebpf4jnsgd1na2vs0mg"},{"bike_id":"6e295685-0f27-4b2c-9f19-e4cd799e8e8b","system_id":"levelo_inurba_marseille","lat":43.292749,"lon":5.368402,"is_reserved":false,"is_disabled":false,"rental_uris":{"android":"levelo://app?vid=6e295685-0f27-4b2c-9f19-e4cd799e8e8b","ios":"levelo://app?vid=6e295685-0f27-4b2c-9f19-e4cd799e8e8b"},"vehicle_type_id":"4","last_reported":1718914100,"current_range_meters":11600,"station_id":"ce4bhbp2rcd13ifvqesg","pricing_plan_id":"cebpf4jnsgd1na2vs0mg"},{"bike_id":"3f2f2b65-5aa1-4f62-ad38-7566cc6d327a","system_id":"levelo_inurba_marseille","lat":43.292749,"lon":5.368402,"is_reserved":false,"is_disabled":false,"rental_uris":{"android":"levelo://app?vid=3f2f2b65-5aa1-4f62-ad38-7566cc6d327a","ios":"levelo://app?vid=3f2f2b65-5aa1-4f62-ad38-7566cc6d327a"},"vehicle_type_id":"4","last_reported":1718914100,"current_range_meters":18800,"station_id":"ce4bhbp2rcd13ifvqesg","pricing_plan_id":"cebpf4jnsgd1na2vs0mg"},{"bike_id":"cb294bab-05c2-4b91-905e-ec4ef31d0348","system_id":"levelo_inurba_marseille","lat":43.292749,"lon":5.368402,"is_reserved":false,"is_disabled":false,"rental_uris":{"android":"levelo://app?vid=cb294bab-05c2-4b91-905e-ec4ef31d0348","ios":"levelo://app?vid=cb294bab-05c2-4b91-905e-ec4ef31d0348"},"vehicle_type_id":"4","last_reported":1718914100,"current_range_meters":27200,"station_id":"ce4bhbp2rcd13ifvqesg","pricing_plan_id":"cebpf4jnsgd1na2vs0mg"},{"bike_id":"8de3c641-13f2-4b5d-a62a-c85bfe103c56","system_id":"levelo_inurba_marseille","lat":43.292749,"lon":5.368402,"is_reserved":false,"is_disabled":false,"rental_uris":{"android":"levelo://app?vid=8de3c641-13f2-4b5d-a62a-c85bfe103c56","ios":"levelo://app?vid=8de3c641-13f2-4b5d-a62a-c85bfe103c56"},"vehicle_type_id":"4","last_reported":1718914100,"current_range_meters":2400,"station_id":"ce4bhbp2rcd13ifvqesg","pricing_plan_id":"cebpf4jnsgd1na2vs0mg"},{"bike_id":"416c9515-8670-4a79-986e-c18e69c8a573","system_id":"levelo_inurba_marseille","lat":43.2927,"lon":5.36842,"is_reserved":false,"is_disabled":false,"rental_uris":{"android":"levelo://app?vid=416c9515-8670-4a79-986e-c18e69c8a573","ios":"levelo://app?vid=416c9515-8670-4a79-986e-c18e69c8a573"},"vehicle_type_id":"4","last_reported":1718914100,"current_range_meters":31200,"station_id":"ce4bhbp2rcd13ifvqesg","pricing_plan_id":"cebpf4jnsgd1na2vs0mg"},{"bike_id":"5960f24b-1ae0-4334-86db-3c1712182d3a","system_id":"levelo_inurba_marseille","lat":43.298037,"lon":5.381066,"is_reserved":false,"is_disabled":false,"rental_uris":{"android":"levelo://app?vid=5960f24b-1ae0-4334-86db-3c1712182d3a","ios":"levelo://app?vid=5960f24b-1ae0-4334-86db-3c1712182d3a"},"vehicle_type_id":"4","last_reported":1718914100,"current_range_meters":11600,"station_id":"ce4bgip2rcd13ifvqbb0","pricing_plan_id":"cebpf4jnsgd1na2vs0mg"},{"bike_id":"9f9f3bf2-6faf-4344-82cc-65c59726708d","system_id":"levelo_inurba_marseille","lat":43.305994,"lon":5.393687,"is_reserved":false,"is_disabled":false,"rental_uris":{"android":"levelo://app?vid=9f9f3bf2-6faf-4344-82cc-65c59726708d","ios":"levelo://app?vid=9f9f3bf2-6faf-4344-82cc-65c59726708d"},"vehicle_type_id":"4","last_reported":1718914100,"current_range_meters":16000,"station_id":"ce4bh0p2rcd13ifvqd80","pricing_plan_id":"cebpf4jnsgd1na2vs0mg"},{"bike_id":"b7856473-7fb1-44b3-af2c-dad367750ee9","system_id":"levelo_inurba_marseille","lat":43.292135,"lon":5.365068,"is_reserved":false,"is_disabled":false,"rental_uris":{"android":"levelo://app?vid=b7856473-7fb1-44b3-af2c-dad367750ee9","ios":"levelo://app?vid=b7856473-7fb1-44b3-af2c-dad367750ee9"},"vehicle_type_id":"4","last_reported":1718914100,"current_range_meters":4000,"station_id":"","pricing_plan_id":"cebpf4jnsgd1na2vs0mg"},{"bike_id":"e55b0291-51bf-493d-a940-323eca8e0160","system_id":"levelo_inurba_marseille","lat":43.303002,"lon":5.392142,"is_reserved":false,"is_disabled":false,"rental_uris":{"android":"levelo://app?vid=e55b0291-51bf-493d-a940-323eca8e0160","ios":"levelo://app?vid=e55b0291-51bf-493d-a940-323eca8e0160"},"vehicle_type_id":"4","last_reported":1718914100,"current_range_meters":26800,"station_id":"ce4bgkh2rcd13ifvqbk0","pricing_plan_id":"cebpf4jnsgd1na2vs0mg"},{"bike_id":"7a6f2771-129b-4b6d-9ae5-3f7f5d228792","system_id":"levelo_inurba_marseille","lat":43.303002,"lon":5.392142,"is_reserved":false,"is_disabled":false,"rental_uris":{"android":"levelo://app?vid=7a6f2771-129b-4b6d-9ae5-3f7f5d228792","ios":"levelo://app?vid=7a6f2771-129b-4b6d-9ae5-3f7f5d228792"},"vehicle_type_id":"4","last_reported":1718914100,"current_range_meters":14000,"station_id":"ce4bgkh2rcd13ifvqbk0","pricing_plan_id":"cebpf4jnsgd1na2vs0mg"},{"bike_id":"d6423434-ee5a-4c36-b765-2fcbfb5ea2dc","system_id":"levelo_inurba_marseille","lat":43.303002,"lon":5.392142,"is_reserved":false,"is_disabled":false,"rental_uris":{"android":"levelo://app?vid=d6423434-ee5a-4c36-b765-2fcbfb5ea2dc","ios":"levelo://app?vid=d6423434-ee5a-4c36-b765-2fcbfb5ea2dc"},"vehicle_type_id":"4","last_reported":1718914100,"current_range_meters":31600,"station_id":"ce4bgkh2rcd13ifvqbk0","pricing_plan_id":"cebpf4jnsgd1na2vs0mg"},{"bike_id":"649e3c6f-8776-4e8e-83c3-3d650dfe9b18","system_id":"levelo_inurba_marseille","lat":43.30085,"lon":5.390856,"is_reserved":false,"is_disabled":false,"rental_uris":{"android":"levelo://app?vid=649e3c6f-8776-4e8e-83c3-3d650dfe9b18","ios":"levelo://app?vid=649e3c6f-8776-4e8e-83c3-3d650dfe9b18"},"vehicle_type_id":"4","last_reported":1718914100,"current_range_meters":31200,"station_id":"ce4bh192rcd13ifvqdb0","pricing_plan_id":"cebpf4jnsgd1na2vs0mg"},{"bike_id":"f8dd1e76-7ed5-4a8f-b381-58bc4741f0b8","system_id":"levelo_inurba_marseille","lat":43.2936,"lon":5.37835,"is_reserved":false,"is_disabled":false,"rental_uris":{"android":"levelo://app?vid=f8dd1e76-7ed5-4a8f-b381-58bc4741f0b8","ios":"levelo://app?vid=f8dd1e76-7ed5-4a8f-b381-58bc4741f0b8"},"vehicle_type_id":"4","last_reported":1718914100,"current_range_meters":12800,"station_id":"ce4bgjh2rcd13ifvqbf0","pricing_plan_id":"cebpf4jnsgd1na2vs0mg"},{"bike_id":"0476af6a-2e18-478d-b9c4-3fcd877c9324","system_id":"levelo_inurba_marseille","lat":43.29225,"lon":5.36039,"is_reserved":false,"is_disabled":false,"rental_uris":{"android":"levelo://app?vid=0476af6a-2e18-478d-b9c4-3fcd877c9324","ios":"levelo://app?vid=0476af6a-2e18-478d-b9c4-3fcd877c9324"},"vehicle_type_id":"4","last_reported":1718914100,"current_range_meters":31200,"station_id":"ce4bhbh2rcd13ifvqeqg","pricing_plan_id":"cebpf4jnsgd1na2vs0mg"},{"bike_id":"24b337b8-6017-4134-8466-e15b3318c183","system_id":"levelo_inurba_marseille","lat":43.298764,"lon":5.388973,"is_reserved":false,"is_disabled":false,"rental_uris":{"android":"levelo://app?vid=24b337b8-6017-4134-8466-e15b3318c183","ios":"levelo://app?vid=24b337b8-6017-4134-8466-e15b3318c183"},"vehicle_type_id":"4","last_reported":1718914100,"current_range_meters":12400,"station_id":"ce4bh392rcd13ifvqdl0","pricing_plan_id":"cebpf4jnsgd1na2vs0mg"},{"bike_id":"1b5adf34-bb8f-42f7-90e3-885a426c3324","system_id":"levelo_inurba_marseille","lat":43.298764,"lon":5.388973,"is_reserved":false,"is_disabled":false,"rental_uris":{"android":"levelo://app?vid=1b5adf34-bb8f-42f7-90e3-885a426c3324","ios":"levelo://app?vid=1b5adf34-bb8f-42f7-90e3-885a426c3324"},"vehicle_type_id":"4","last_reported":1718914100,"current_range_meters":8000,"station_id":"ce4bh392rcd13ifvqdl0","pricing_plan_id":"cebpf4jnsgd1na2vs0mg"},{"bike_id":"aeda4f5f-6ef4-47e7-9fa2-462e56786f6f","system_id":"levelo_inurba_marseille","lat":43.293009,"lon":5.374584,"is_reserved":false,"is_disabled":false,"rental_uris":{"android":"levelo://app?vid=aeda4f5f-6ef4-47e7-9fa2-462e56786f6f","ios":"levelo://app?vid=aeda4f5f-6ef4-47e7-9fa2-462e56786f6f"},"vehicle_type_id":"4","last_reported":1718914100,"current_range_meters":22000,"station_id":"ce4bgi12rcd13ifvqb70","pricing_plan_id":"cebpf4jnsgd1na2vs0mg"},{"bike_id":"bb4a8bdd-c84d-4606-bb8e-9c162b66b148","system_id":"levelo_inurba_marseille","lat":43.298764,"lon":5.388973,"is_reserved":false,"is_disabled":false,"rental_uris":{"android":"levelo://app?vid=bb4a8bdd-c84d-4606-bb8e-9c162b66b148","ios":"levelo://app?vid=bb4a8bdd-c84d-4606-bb8e-9c162b66b148"},"vehicle_type_id":"4","last_reported":1718914100,"current_range_meters":30800,"station_id":"ce4bh392rcd13ifvqdl0","pricing_plan_id":"cebpf4jnsgd1na2vs0mg"},{"bike_id":"dd506714-8779-4cb5-8bd1-a652addc92c7","system_id":"levelo_inurba_marseille","lat":43.298764,"lon":5.388973,"is_reserved":false,"is_disabled":false,"rental_uris":{"android":"levelo://app?vid=dd506714-8779-4cb5-8bd1-a652addc92c7","ios":"levelo://app?vid=dd506714-8779-4cb5-8bd1-a652addc92c7"},"vehicle_type_id":"4","last_reported":1718914100,"current_range_meters":26800,"station_id":"ce4bh392rcd13ifvqdl0","pricing_plan_id":"cebpf4jnsgd1na2vs0mg"},{"bike_id":"345b72d9-7893-4123-90e2-85d565f12e34","system_id":"levelo_inurba_marseille","lat":43.298764,"lon":5.388973,"is_reserved":false,"is_disabled":false,"rental_uris":{"android":"levelo://app?vid=345b72d9-7893-4123-90e2-85d565f12e34","ios":"levelo://app?vid=345b72d9-7893-4123-90e2-85d565f12e34"},"vehicle_type_id":"4","last_reported":1718914100,"current_range_meters":31200,"station_id":"ce4bh392rcd13ifvqdl0","pricing_plan_id":"cebpf4jnsgd1na2vs0mg"},{"bike_id":"528cdc10-ef3f-40a6-a575-19c71b8e1c69","system_id":"levelo_inurba_marseille","lat":43.29173,"lon":5.37152,"is_reserved":false,"is_disabled":false,"rental_uris":{"android":"levelo://app?vid=528cdc10-ef3f-40a6-a575-19c71b8e1c69","ios":"levelo://app?vid=528cdc10-ef3f-40a6-a575-19c71b8e1c69"},"vehicle_type_id":"4","last_reported":1718914100,"current_range_meters":29200,"station_id":"ce4bha92rcd13ifvqeh0","pricing_plan_id":"cebpf4jnsgd1na2vs0mg"},{"bike_id":"9456a2f2-0824-4ffd-a0f7-f46ce0adaccd","system_id":"levelo_inurba_marseille","lat":43.298764,"lon":5.388973,"is_reserved":false,"is_disabled":false,"rental_uris":{"android":"levelo://app?vid=9456a2f2-0824-4ffd-a0f7-f46ce0adaccd","ios":"levelo://app?vid=9456a2f2-0824-4ffd-a0f7-f46ce0adaccd"},"vehicle_type_id":"4","last_reported":1718914100,"current_range_meters":31200,"station_id":"ce4bh392rcd13ifvqdl0","pricing_plan_id":"cebpf4jnsgd1na2vs0mg"},{"bike_id":"fbe471ec-7608-4c11-92fd-d834ab39fd56","system_id":"levelo_inurba_marseille","lat":43.291671,"lon":5.371575,"is_reserved":false,"is_disabled":false,"rental_uris":{"android":"levelo://app?vid=fbe471ec-7608-4c11-92fd-d834ab39fd56","ios":"levelo://app?vid=fbe471ec-7608-4c11-92fd-d834ab39fd56"},"vehicle_type_id":"4","last_reported":1718914100,"current_range_meters":31200,"station_id":"ce4bha92rcd13ifvqeh0","pricing_plan_id":"cebpf4jnsgd1na2vs0mg"},{"bike_id":"08033c43-7b42-4d3f-96bc-1525a51cc2ea","system_id":"levelo_inurba_marseille","lat":43.298764,"lon":5.388973,"is_reserved":false,"is_disabled":false,"rental_uris":{"android":"levelo://app?vid=08033c43-7b42-4d3f-96bc-1525a51cc2ea","ios":"levelo://app?vid=08033c43-7b42-4d3f-96bc-1525a51cc2ea"},"vehicle_type_id":"4","last_reported":1718914100,"current_range_meters":23200,"station_id":"ce4bh392rcd13ifvqdl0","pricing_plan_id":"cebpf4jnsgd1na2vs0mg"},{"bike_id":"85843b2a-f4eb-4a10-87e1-201d2726ce49","system_id":"levelo_inurba_marseille","lat":43.291683,"lon":5.371477,"is_reserved":false,"is_disabled":false,"rental_uris":{"android":"levelo://app?vid=85843b2a-f4eb-4a10-87e1-201d2726ce49","ios":"levelo://app?vid=85843b2a-f4eb-4a10-87e1-201d2726ce49"},"vehicle_type_id":"4","last_reported":1718914100,"current_range_meters":31200,"station_id":"ce4bha92rcd13ifvqeh0","pricing_plan_id":"cebpf4jnsgd1na2vs0mg"},{"bike_id":"e2d4f481-9120-4ee0-b808-7b2c02b925a2","system_id":"levelo_inurba_marseille","lat":43.298764,"lon":5.388973,"is_reserved":false,"is_disabled":false,"rental_uris":{"android":"levelo://app?vid=e2d4f481-9120-4ee0-b808-7b2c02b925a2","ios":"levelo://app?vid=e2d4f481-9120-4ee0-b808-7b2c02b925a2"},"vehicle_type_id":"4","last_reported":1718914100,"current_range_meters":18800,"station_id":"ce4bh392rcd13ifvqdl0","pricing_plan_id":"cebpf4jnsgd1na2vs0mg"},{"bike_id":"797226b6-2925-41c1-b928-b88caed9c4dd","system_id":"levelo_inurba_marseille","lat":43.309038,"lon":5.396546,"is_reserved":false,"is_disabled":false,"rental_uris":{"android":"levelo://app?vid=797226b6-2925-41c1-b928-b88caed9c4dd","ios":"levelo://app?vid=797226b6-2925-41c1-b928-b88caed9c4dd"},"vehicle_type_id":"4","last_reported":1718914100,"current_range_meters":0,"station_id":"ce4bh012rcd13ifvqcv0","pricing_plan_id":"cebpf4jnsgd1na2vs0mg"},{"bike_id":"4433f0a2-de4b-46d6-bec5-5a1f610da29f","system_id":"levelo_inurba_marseille","lat":43.309047,"lon":5.396551,"is_reserved":false,"is_disabled":false,"rental_uris":{"android":"levelo://app?vid=4433f0a2-de4b-46d6-bec5-5a1f610da29f","ios":"levelo://app?vid=4433f0a2-de4b-46d6-bec5-5a1f610da29f"},"vehicle_type_id":"4","last_reported":1718914100,"current_range_meters":9600,"station_id":"ce4bh012rcd13ifvqcv0","pricing_plan_id":"cebpf4jnsgd1na2vs0mg"},{"bike_id":"77eaa246-d7d6-4845-915a-f329af9ee7c4","system_id":"levelo_inurba_marseille","lat":43.292005,"lon":5.357875,"is_reserved":false,"is_disabled":false,"rental_uris":{"android":"levelo://app?vid=77eaa246-d7d6-4845-915a-f329af9ee7c4","ios":"levelo://app?vid=77eaa246-d7d6-4845-915a-f329af9ee7c4"},"vehicle_type_id":"4","last_reported":1718914100,"current_range_meters":8800,"station_id":"ce4bhb12rcd13ifvqel0","pricing_plan_id":"cebpf4jnsgd1na2vs0mg"},{"bike_id":"f30e9d5e-ea03-4d8f-b1cb-76159ddc44fd","system_id":"levelo_inurba_marseille","lat":43.291994,"lon":5.357886,"is_reserved":false,"is_disabled":false,"rental_uris":{"android":"levelo://app?vid=f30e9d5e-ea03-4d8f-b1cb-76159ddc44fd","ios":"levelo://app?vid=f30e9d5e-ea03-4d8f-b1cb-76159ddc44fd"},"vehicle_type_id":"4","last_reported":1718914100,"current_range_meters":23600,"station_id":"ce4bhb12rcd13ifvqel0","pricing_plan_id":"cebpf4jnsgd1na2vs0mg"},{"bike_id":"aadb3d61-e814-4968-9e9e-9fe563160989","system_id":"levelo_inurba_marseille","lat":43.313291,"lon":5.396838,"is_reserved":false,"is_disabled":false,"rental_uris":{"android":"levelo://app?vid=aadb3d61-e814-4968-9e9e-9fe563160989","ios":"levelo://app?vid=aadb3d61-e814-4968-9e9e-9fe563160989"},"vehicle_type_id":"4","last_reported":1718914100,"current_range_meters":30000,"station_id":"ce4bgvp2rcd13ifvqcu0","pricing_plan_id":"cebpf4jnsgd1na2vs0mg"},{"bike_id":"34379dad-3668-4893-bd8c-d336fea45c8b","system_id":"levelo_inurba_marseille","lat":43.31325,"lon":5.39687,"is_reserved":false,"is_disabled":false,"rental_uris":{"android":"levelo://app?vid=34379dad-3668-4893-bd8c-d336fea45c8b","ios":"levelo://app?vid=34379dad-3668-4893-bd8c-d336fea45c8b"},"vehicle_type_id":"4","last_reported":1718914100,"current_range_meters":0,"station_id":"ce4bgvp2rcd13ifvqcu0","pricing_plan_id":"cebpf4jnsgd1na2vs0mg"},{"bike_id":"acfa956d-9e62-453d-9abc-dac8ece4d753","system_id":"levelo_inurba_marseille","lat":43.309038,"lon":5.396546,"is_reserved":false,"is_disabled":false,"rental_uris":{"android":"levelo://app?vid=acfa956d-9e62-453d-9abc-dac8ece4d753","ios":"levelo://app?vid=acfa956d-9e62-453d-9abc-dac8ece4d753"},"vehicle_type_id":"4","last_reported":1718914100,"current_range_meters":31600,"station_id":"ce4bh012rcd13ifvqcv0","pricing_plan_id":"cebpf4jnsgd1na2vs0mg"},{"bike_id":"ece85cba-3327-49d6-953b-fb7c5c8fd46b","system_id":"levelo_inurba_marseille","lat":43.30882,"lon":5.3964,"is_reserved":false,"is_disabled":false,"rental_uris":{"android":"levelo://app?vid=ece85cba-3327-49d6-953b-fb7c5c8fd46b","ios":"levelo://app?vid=ece85cba-3327-49d6-953b-fb7c5c8fd46b"},"vehicle_type_id":"4","last_reported":1718914100,"current_range_meters":2400,"station_id":"ce4bh012rcd13ifvqcv0","pricing_plan_id":"cebpf4jnsgd1na2vs0mg"},{"bike_id":"e00c7ffe-ab0f-4990-abb3-4f62ab02c109","system_id":"levelo_inurba_marseille","lat":43.308816,"lon":5.396448,"is_reserved":false,"is_disabled":false,"rental_uris":{"android":"levelo://app?vid=e00c7ffe-ab0f-4990-abb3-4f62ab02c109","ios":"levelo://app?vid=e00c7ffe-ab0f-4990-abb3-4f62ab02c109"},"vehicle_type_id":"4","last_reported":1718914100,"current_range_meters":29200,"station_id":"ce4bh012rcd13ifvqcv0","pricing_plan_id":"cebpf4jnsgd1na2vs0mg"},{"bike_id":"19d30f31-f8b9-4c1e-93b8-04caae6de498","system_id":"levelo_inurba_marseille","lat":43.313291,"lon":5.396838,"is_reserved":false,"is_disabled":false,"rental_uris":{"android":"levelo://app?vid=19d30f31-f8b9-4c1e-93b8-04caae6de498","ios":"levelo://app?vid=19d30f31-f8b9-4c1e-93b8-04caae6de498"},"vehicle_type_id":"4","last_reported":1718914100,"current_range_meters":0,"station_id":"ce4bgvp2rcd13ifvqcu0","pricing_plan_id":"cebpf4jnsgd1na2vs0mg"},{"bike_id":"8d78a410-1384-46ff-9836-a4485882dc34","system_id":"levelo_inurba_marseille","lat":43.3133,"lon":5.39693,"is_reserved":false,"is_disabled":false,"rental_uris":{"android":"levelo://app?vid=8d78a410-1384-46ff-9836-a4485882dc34","ios":"levelo://app?vid=8d78a410-1384-46ff-9836-a4485882dc34"},"vehicle_type_id":"4","last_reported":1718914100,"current_range_meters":0,"station_id":"ce4bgvp2rcd13ifvqcu0","pricing_plan_id":"cebpf4jnsgd1na2vs0mg"},{"bike_id":"7171688e-9ebe-47b3-b26c-17bc5ee10c1d","system_id":"levelo_inurba_marseille","lat":43.309038,"lon":5.396546,"is_reserved":false,"is_disabled":false,"rental_uris":{"android":"levelo://app?vid=7171688e-9ebe-47b3-b26c-17bc5ee10c1d","ios":"levelo://app?vid=7171688e-9ebe-47b3-b26c-17bc5ee10c1d"},"vehicle_type_id":"4","last_reported":1718914100,"current_range_meters":24400,"station_id":"ce4bh012rcd13ifvqcv0","pricing_plan_id":"cebpf4jnsgd1na2vs0mg"},{"bike_id":"a22dfc6a-4930-4200-a969-4506f91e9f6b","system_id":"levelo_inurba_marseille","lat":43.313291,"lon":5.396838,"is_reserved":false,"is_disabled":false,"rental_uris":{"android":"levelo://app?vid=a22dfc6a-4930-4200-a969-4506f91e9f6b","ios":"levelo://app?vid=a22dfc6a-4930-4200-a969-4506f91e9f6b"},"vehicle_type_id":"4","last_reported":1718914100,"current_range_meters":800,"station_id":"ce4bgvp2rcd13ifvqcu0","pricing_plan_id":"cebpf4jnsgd1na2vs0mg"},{"bike_id":"7cb0cddd-4f4c-4a08-ad2f-6fee9f6d0632","system_id":"levelo_inurba_marseille","lat":43.309047,"lon":5.396551,"is_reserved":false,"is_disabled":false,"rental_uris":{"android":"levelo://app?vid=7cb0cddd-4f4c-4a08-ad2f-6fee9f6d0632","ios":"levelo://app?vid=7cb0cddd-4f4c-4a08-ad2f-6fee9f6d0632"},"vehicle_type_id":"4","last_reported":1718914100,"current_range_meters":27600,"station_id":"ce4bh012rcd13ifvqcv0","pricing_plan_id":"cebpf4jnsgd1na2vs0mg"},{"bike_id":"e15a0cdf-d6eb-46e7-804d-3e4bb5925df4","system_id":"levelo_inurba_marseille","lat":43.29529,"lon":5.385581,"is_reserved":false,"is_disabled":false,"rental_uris":{"android":"levelo://app?vid=e15a0cdf-d6eb-46e7-804d-3e4bb5925df4","ios":"levelo://app?vid=e15a0cdf-d6eb-46e7-804d-3e4bb5925df4"},"vehicle_type_id":"4","last_reported":1718914100,"current_range_meters":22000,"station_id":"ce4bgih2rcd13ifvqba0","pricing_plan_id":"cebpf4jnsgd1na2vs0mg"},{"bike_id":"c7e6bdd7-d156-407c-86de-c82160e2c540","system_id":"levelo_inurba_marseille","lat":43.29529,"lon":5.385581,"is_reserved":false,"is_disabled":false,"rental_uris":{"android":"levelo://app?vid=c7e6bdd7-d156-407c-86de-c82160e2c540","ios":"levelo://app?vid=c7e6bdd7-d156-407c-86de-c82160e2c540"},"vehicle_type_id":"4","last_reported":1718914100,"current_range_meters":27200,"station_id":"ce4bgih2rcd13ifvqba0","pricing_plan_id":"cebpf4jnsgd1na2vs0mg"},{"bike_id":"5c54588d-93b9-4994-a852-055edeb97278","system_id":"levelo_inurba_marseille","lat":43.29529,"lon":5.385581,"is_reserved":false,"is_disabled":false,"rental_uris":{"android":"levelo://app?vid=5c54588d-93b9-4994-a852-055edeb97278","ios":"levelo://app?vid=5c54588d-93b9-4994-a852-055edeb97278"},"vehicle_type_id":"4","last_reported":1718914100,"current_range_meters":20800,"station_id":"ce4bgih2rcd13ifvqba0","pricing_plan_id":"cebpf4jnsgd1na2vs0mg"},{"bike_id":"b137d64e-5687-43fc-b42f-5663ad0e1e47","system_id":"levelo_inurba_marseille","lat":43.29529,"lon":5.385581,"is_reserved":false,"is_disabled":false,"rental_uris":{"android":"levelo://app?vid=b137d64e-5687-43fc-b42f-5663ad0e1e47","ios":"levelo://app?vid=b137d64e-5687-43fc-b42f-5663ad0e1e47"},"vehicle_type_id":"4","last_reported":1718914100,"current_range_meters":31600,"station_id":"ce4bgih2rcd13ifvqba0","pricing_plan_id":"cebpf4jnsgd1na2vs0mg"},{"bike_id":"e51329bd-7353-4fa5-be9e-20bea31bc981","system_id":"levelo_inurba_marseille","lat":43.29529,"lon":5.385581,"is_reserved":false,"is_disabled":false,"rental_uris":{"android":"levelo://app?vid=e51329bd-7353-4fa5-be9e-20bea31bc981","ios":"levelo://app?vid=e51329bd-7353-4fa5-be9e-20bea31bc981"},"vehicle_type_id":"4","last_reported":1718914100,"current_range_meters":31600,"station_id":"ce4bgih2rcd13ifvqba0","pricing_plan_id":"cebpf4jnsgd1na2vs0mg"},{"bike_id":"9f4f77b1-0b60-45bf-b0ac-2913a88f9d3c","system_id":"levelo_inurba_marseille","lat":43.295326,"lon":5.385439,"is_reserved":false,"is_disabled":false,"rental_uris":{"android":"levelo://app?vid=9f4f77b1-0b60-45bf-b0ac-2913a88f9d3c","ios":"levelo://app?vid=9f4f77b1-0b60-45bf-b0ac-2913a88f9d3c"},"vehicle_type_id":"4","last_reported":1718914100,"current_range_meters":3600,"station_id":"ce4bgih2rcd13ifvqba0","pricing_plan_id":"cebpf4jnsgd1na2vs0mg"},{"bike_id":"67018607-862a-415d-b55d-3f0e65cb6478","system_id":"levelo_inurba_marseille","lat":43.29534,"lon":5.38547,"is_reserved":false,"is_disabled":false,"rental_uris":{"android":"levelo://app?vid=67018607-862a-415d-b55d-3f0e65cb6478","ios":"levelo://app?vid=67018607-862a-415d-b55d-3f0e65cb6478"},"vehicle_type_id":"4","last_reported":1718914100,"current_range_meters":31200,"station_id":"ce4bgih2rcd13ifvqba0","pricing_plan_id":"cebpf4jnsgd1na2vs0mg"},{"bike_id":"382f87cb-c75f-4c8c-88ec-294293f0796e","system_id":"levelo_inurba_marseille","lat":43.29529,"lon":5.385581,"is_reserved":false,"is_disabled":false,"rental_uris":{"android":"levelo://app?vid=382f87cb-c75f-4c8c-88ec-294293f0796e","ios":"levelo://app?vid=382f87cb-c75f-4c8c-88ec-294293f0796e"},"vehicle_type_id":"4","last_reported":1718914100,"current_range_meters":22800,"station_id":"ce4bgih2rcd13ifvqba0","pricing_plan_id":"cebpf4jnsgd1na2vs0mg"},{"bike_id":"99aeb155-475d-419c-9b51-e9a38c0a281f","system_id":"levelo_inurba_marseille","lat":43.29529,"lon":5.385581,"is_reserved":false,"is_disabled":false,"rental_uris":{"android":"levelo://app?vid=99aeb155-475d-419c-9b51-e9a38c0a281f","ios":"levelo://app?vid=99aeb155-475d-419c-9b51-e9a38c0a281f"},"vehicle_type_id":"4","last_reported":1718914100,"current_range_meters":17600,"station_id":"ce4bgih2rcd13ifvqba0","pricing_plan_id":"cebpf4jnsgd1na2vs0mg"},{"bike_id":"0c949227-2c73-44d6-9eba-828a76850e0d","system_id":"levelo_inurba_marseille","lat":43.29529,"lon":5.385581,"is_reserved":false,"is_disabled":false,"rental_uris":{"android":"levelo://app?vid=0c949227-2c73-44d6-9eba-828a76850e0d","ios":"levelo://app?vid=0c949227-2c73-44d6-9eba-828a76850e0d"},"vehicle_type_id":"4","last_reported":1718914100,"current_range_meters":10800,"station_id":"ce4bgih2rcd13ifvqba0","pricing_plan_id":"cebpf4jnsgd1na2vs0mg"},{"bike_id":"82b7f291-e81d-417e-b3ee-21e3702337f0","system_id":"levelo_inurba_marseille","lat":43.29529,"lon":5.385581,"is_reserved":false,"is_disabled":false,"rental_uris":{"android":"levelo://app?vid=82b7f291-e81d-417e-b3ee-21e3702337f0","ios":"levelo://app?vid=82b7f291-e81d-417e-b3ee-21e3702337f0"},"vehicle_type_id":"4","last_reported":1718914100,"current_range_meters":28000,"station_id":"ce4bgih2rcd13ifvqba0","pricing_plan_id":"cebpf4jnsgd1na2vs0mg"},{"bike_id":"fdcfffeb-0f46-447f-848b-8b460b20cb0e","system_id":"levelo_inurba_marseille","lat":43.29529,"lon":5.385581,"is_reserved":false,"is_disabled":false,"rental_uris":{"android":"levelo://app?vid=fdcfffeb-0f46-447f-848b-8b460b20cb0e","ios":"levelo://app?vid=fdcfffeb-0f46-447f-848b-8b460b20cb0e"},"vehicle_type_id":"4","last_reported":1718914100,"current_range_meters":22000,"station_id":"ce4bgih2rcd13ifvqba0","pricing_plan_id":"cebpf4jnsgd1na2vs0mg"},{"bike_id":"9739b9ed-0662-4da3-9be9-7d32655b94b9","system_id":"levelo_inurba_marseille","lat":43.290779,"lon":5.371482,"is_reserved":false,"is_disabled":false,"rental_uris":{"android":"levelo://app?vid=9739b9ed-0662-4da3-9be9-7d32655b94b9","ios":"levelo://app?vid=9739b9ed-0662-4da3-9be9-7d32655b94b9"},"vehicle_type_id":"4","last_reported":1718914100,"current_range_meters":14400,"station_id":"ce4bh5p2rcd13ifvqe4g","pricing_plan_id":"cebpf4jnsgd1na2vs0mg"},{"bike_id":"0aa76266-2d33-446b-a9bb-850bfc662df5","system_id":"levelo_inurba_marseille","lat":43.290779,"lon":5.371482,"is_reserved":false,"is_disabled":false,"rental_uris":{"android":"levelo://app?vid=0aa76266-2d33-446b-a9bb-850bfc662df5","ios":"levelo://app?vid=0aa76266-2d33-446b-a9bb-850bfc662df5"},"vehicle_type_id":"4","last_reported":1718914100,"current_range_meters":0,"station_id":"ce4bh5p2rcd13ifvqe4g","pricing_plan_id":"cebpf4jnsgd1na2vs0mg"},{"bike_id":"9bc431d7-aedc-4b22-8765-f8047bea5ba6","system_id":"levelo_inurba_marseille","lat":43.290779,"lon":5.371482,"is_reserved":false,"is_disabled":false,"rental_uris":{"android":"levelo://app?vid=9bc431d7-aedc-4b22-8765-f8047bea5ba6","ios":"levelo://app?vid=9bc431d7-aedc-4b22-8765-f8047bea5ba6"},"vehicle_type_id":"4","last_reported":1718914100,"current_range_meters":0,"station_id":"ce4bh5p2rcd13ifvqe4g","pricing_plan_id":"cebpf4jnsgd1na2vs0mg"},{"bike_id":"2935440d-14c3-44fb-a434-f1bfd8b8e262","system_id":"levelo_inurba_marseille","lat":43.302008,"lon":5.394694,"is_reserved":false,"is_disabled":false,"rental_uris":{"android":"levelo://app?vid=2935440d-14c3-44fb-a434-f1bfd8b8e262","ios":"levelo://app?vid=2935440d-14c3-44fb-a434-f1bfd8b8e262"},"vehicle_type_id":"4","last_reported":1718914100,"current_range_meters":28400,"station_id":"ce4bh0p2rcd13ifvqd70","pricing_plan_id":"cebpf4jnsgd1na2vs0mg"},{"bike_id":"93b61d00-874a-409f-9b6c-152f45f511ff","system_id":"levelo_inurba_marseille","lat":43.302008,"lon":5.394694,"is_reserved":false,"is_disabled":false,"rental_uris":{"android":"levelo://app?vid=93b61d00-874a-409f-9b6c-152f45f511ff","ios":"levelo://app?vid=93b61d00-874a-409f-9b6c-152f45f511ff"},"vehicle_type_id":"4","last_reported":1718914100,"current_range_meters":15600,"station_id":"ce4bh0p2rcd13ifvqd70","pricing_plan_id":"cebpf4jnsgd1na2vs0mg"},{"bike_id":"fd2684af-b422-45ea-987f-2ddda193707b","system_id":"levelo_inurba_marseille","lat":43.302008,"lon":5.394694,"is_reserved":false,"is_disabled":false,"rental_uris":{"android":"levelo://app?vid=fd2684af-b422-45ea-987f-2ddda193707b","ios":"levelo://app?vid=fd2684af-b422-45ea-987f-2ddda193707b"},"vehicle_type_id":"4","last_reported":1718914100,"current_range_meters":9600,"station_id":"ce4bh0p2rcd13ifvqd70","pricing_plan_id":"cebpf4jnsgd1na2vs0mg"},{"bike_id":"f5fac054-fb6f-4354-9003-d561933abee6","system_id":"levelo_inurba_marseille","lat":43.29036,"lon":5.35923,"is_reserved":false,"is_disabled":false,"rental_uris":{"android":"levelo://app?vid=f5fac054-fb6f-4354-9003-d561933abee6","ios":"levelo://app?vid=f5fac054-fb6f-4354-9003-d561933abee6"},"vehicle_type_id":"4","last_reported":1718914100,"current_range_meters":31200,"station_id":"","pricing_plan_id":"cebpf4jnsgd1na2vs0mg"},{"bike_id":"09956d51-9575-41b2-b605-420fa065d9cf","system_id":"levelo_inurba_marseille","lat":43.28962,"lon":5.36435,"is_reserved":false,"is_disabled":false,"rental_uris":{"android":"levelo://app?vid=09956d51-9575-41b2-b605-420fa065d9cf","ios":"levelo://app?vid=09956d51-9575-41b2-b605-420fa065d9cf"},"vehicle_type_id":"4","last_reported":1718914100,"current_range_meters":18000,"station_id":"","pricing_plan_id":"cebpf4jnsgd1na2vs0mg"},{"bike_id":"d6c69a0b-f9a0-4f57-9c05-398eaaaf86f9","system_id":"levelo_inurba_marseille","lat":43.29419,"lon":5.38609,"is_reserved":false,"is_disabled":false,"rental_uris":{"android":"levelo://app?vid=d6c69a0b-f9a0-4f57-9c05-398eaaaf86f9","ios":"levelo://app?vid=d6c69a0b-f9a0-4f57-9c05-398eaaaf86f9"},"vehicle_type_id":"4","last_reported":1718914100,"current_range_meters":0,"station_id":"ce4bh2h2rcd13ifvqdh0","pricing_plan_id":"cebpf4jnsgd1na2vs0mg"},{"bike_id":"fe278c08-f173-4d78-bc68-b958a48a6051","system_id":"levelo_inurba_marseille","lat":43.294162,"lon":5.386292,"is_reserved":false,"is_disabled":false,"rental_uris":{"android":"levelo://app?vid=fe278c08-f173-4d78-bc68-b958a48a6051","ios":"levelo://app?vid=fe278c08-f173-4d78-bc68-b958a48a6051"},"vehicle_type_id":"4","last_reported":1718914100,"current_range_meters":29200,"station_id":"ce4bh2h2rcd13ifvqdh0","pricing_plan_id":"cebpf4jnsgd1na2vs0mg"},{"bike_id":"c7babbcd-2750-47eb-8c22-249a8f11320c","system_id":"levelo_inurba_marseille","lat":43.29419,"lon":5.3862,"is_reserved":false,"is_disabled":false,"rental_uris":{"android":"levelo://app?vid=c7babbcd-2750-47eb-8c22-249a8f11320c","ios":"levelo://app?vid=c7babbcd-2750-47eb-8c22-249a8f11320c"},"vehicle_type_id":"4","last_reported":1718914100,"current_range_meters":13200,"station_id":"ce4bh2h2rcd13ifvqdh0","pricing_plan_id":"cebpf4jnsgd1na2vs0mg"},{"bike_id":"3a6a56d2-0d8e-48ca-a6e9-d79aa07acaae","system_id":"levelo_inurba_marseille","lat":43.290327,"lon":5.375711,"is_reserved":false,"is_disabled":false,"rental_uris":{"android":"levelo://app?vid=3a6a56d2-0d8e-48ca-a6e9-d79aa07acaae","ios":"levelo://app?vid=3a6a56d2-0d8e-48ca-a6e9-d79aa07acaae"},"vehicle_type_id":"4","last_reported":1718914100,"current_range_meters":29600,"station_id":"ce4bh692rcd13ifvqe90","pricing_plan_id":"cebpf4jnsgd1na2vs0mg"},{"bike_id":"7fd12aa0-08cd-494c-83cf-42325260d87f","system_id":"levelo_inurba_marseille","lat":43.29422,"lon":5.386303,"is_reserved":false,"is_disabled":false,"rental_uris":{"android":"levelo://app?vid=7fd12aa0-08cd-494c-83cf-42325260d87f","ios":"levelo://app?vid=7fd12aa0-08cd-494c-83cf-42325260d87f"},"vehicle_type_id":"4","last_reported":1718914100,"current_range_meters":4400,"station_id":"ce4bh2h2rcd13ifvqdh0","pricing_plan_id":"cebpf4jnsgd1na2vs0mg"},{"bike_id":"61e593ea-bce6-46d2-bb4d-c02dd4e46f9b","system_id":"levelo_inurba_marseille","lat":43.289184,"lon":5.366408,"is_reserved":false,"is_disabled":false,"rental_uris":{"android":"levelo://app?vid=61e593ea-bce6-46d2-bb4d-c02dd4e46f9b","ios":"levelo://app?vid=61e593ea-bce6-46d2-bb4d-c02dd4e46f9b"},"vehicle_type_id":"4","last_reported":1718914100,"current_range_meters":0,"station_id":"ce4bhap2rcd13ifvqek0","pricing_plan_id":"cebpf4jnsgd1na2vs0mg"},{"bike_id":"48d4b03e-c7dc-4382-b0a7-860e3fb73bad","system_id":"levelo_inurba_marseille","lat":43.29416,"lon":5.38626,"is_reserved":false,"is_disabled":false,"rental_uris":{"android":"levelo://app?vid=48d4b03e-c7dc-4382-b0a7-860e3fb73bad","ios":"levelo://app?vid=48d4b03e-c7dc-4382-b0a7-860e3fb73bad"},"vehicle_type_id":"4","last_reported":1718914100,"current_range_meters":0,"station_id":"ce4bh2h2rcd13ifvqdh0","pricing_plan_id":"cebpf4jnsgd1na2vs0mg"},{"bike_id":"675aba6b-f44a-40fe-8dde-8086f269b102","system_id":"levelo_inurba_marseille","lat":43.290327,"lon":5.375711,"is_reserved":false,"is_disabled":false,"rental_uris":{"android":"levelo://app?vid=675aba6b-f44a-40fe-8dde-8086f269b102","ios":"levelo://app?vid=675aba6b-f44a-40fe-8dde-8086f269b102"},"vehicle_type_id":"4","last_reported":1718914100,"current_range_meters":28400,"station_id":"ce4bh692rcd13ifvqe90","pricing_plan_id":"cebpf4jnsgd1na2vs0mg"},{"bike_id":"3302f222-dff3-460f-a3db-c1d9aec0ff59","system_id":"levelo_inurba_marseille","lat":43.289184,"lon":5.366408,"is_reserved":false,"is_disabled":false,"rental_uris":{"android":"levelo://app?vid=3302f222-dff3-460f-a3db-c1d9aec0ff59","ios":"levelo://app?vid=3302f222-dff3-460f-a3db-c1d9aec0ff59"},"vehicle_type_id":"4","last_reported":1718914100,"current_range_meters":22400,"station_id":"ce4bhap2rcd13ifvqek0","pricing_plan_id":"cebpf4jnsgd1na2vs0mg"},{"bike_id":"84377b3f-eaf9-4f13-8643-f3fb294fff07","system_id":"levelo_inurba_marseille","lat":43.289184,"lon":5.366408,"is_reserved":false,"is_disabled":false,"rental_uris":{"android":"levelo://app?vid=84377b3f-eaf9-4f13-8643-f3fb294fff07","ios":"levelo://app?vid=84377b3f-eaf9-4f13-8643-f3fb294fff07"},"vehicle_type_id":"4","last_reported":1718914100,"current_range_meters":5200,"station_id":"ce4bhap2rcd13ifvqek0","pricing_plan_id":"cebpf4jnsgd1na2vs0mg"},{"bike_id":"54e4e1e8-7b4e-4ef4-b7c1-9d52c3bfb3b8","system_id":"levelo_inurba_marseille","lat":43.289184,"lon":5.366408,"is_reserved":false,"is_disabled":false,"rental_uris":{"android":"levelo://app?vid=54e4e1e8-7b4e-4ef4-b7c1-9d52c3bfb3b8","ios":"levelo://app?vid=54e4e1e8-7b4e-4ef4-b7c1-9d52c3bfb3b8"},"vehicle_type_id":"4","last_reported":1718914100,"current_range_meters":14400,"station_id":"ce4bhap2rcd13ifvqek0","pricing_plan_id":"cebpf4jnsgd1na2vs0mg"},{"bike_id":"9c34162b-23df-43ec-9589-cbf991757848","system_id":"levelo_inurba_marseille","lat":43.289184,"lon":5.366408,"is_reserved":false,"is_disabled":false,"rental_uris":{"android":"levelo://app?vid=9c34162b-23df-43ec-9589-cbf991757848","ios":"levelo://app?vid=9c34162b-23df-43ec-9589-cbf991757848"},"vehicle_type_id":"4","last_reported":1718914100,"current_range_meters":12000,"station_id":"ce4bhap2rcd13ifvqek0","pricing_plan_id":"cebpf4jnsgd1na2vs0mg"},{"bike_id":"128a8dff-db1f-4522-aa48-3f0cd9a61cd4","system_id":"levelo_inurba_marseille","lat":43.289184,"lon":5.366408,"is_reserved":false,"is_disabled":false,"rental_uris":{"android":"levelo://app?vid=128a8dff-db1f-4522-aa48-3f0cd9a61cd4","ios":"levelo://app?vid=128a8dff-db1f-4522-aa48-3f0cd9a61cd4"},"vehicle_type_id":"4","last_reported":1718914100,"current_range_meters":3600,"station_id":"ce4bhap2rcd13ifvqek0","pricing_plan_id":"cebpf4jnsgd1na2vs0mg"},{"bike_id":"1b645a24-5761-4f58-b914-5b862d09cc22","system_id":"levelo_inurba_marseille","lat":43.289184,"lon":5.366408,"is_reserved":false,"is_disabled":false,"rental_uris":{"android":"levelo://app?vid=1b645a24-5761-4f58-b914-5b862d09cc22","ios":"levelo://app?vid=1b645a24-5761-4f58-b914-5b862d09cc22"},"vehicle_type_id":"4","last_reported":1718914100,"current_range_meters":30400,"station_id":"ce4bhap2rcd13ifvqek0","pricing_plan_id":"cebpf4jnsgd1na2vs0mg"},{"bike_id":"135cc199-7613-4b6c-ba9a-ead34dba0b0a","system_id":"levelo_inurba_marseille","lat":43.2894,"lon":5.363984,"is_reserved":false,"is_disabled":false,"rental_uris":{"android":"levelo://app?vid=135cc199-7613-4b6c-ba9a-ead34dba0b0a","ios":"levelo://app?vid=135cc199-7613-4b6c-ba9a-ead34dba0b0a"},"vehicle_type_id":"4","last_reported":1718914100,"current_range_meters":0,"station_id":"ce4bhc92rcd13ifvqetg","pricing_plan_id":"cebpf4jnsgd1na2vs0mg"},{"bike_id":"519700bc-6fb3-4eb9-9100-8b25257df8a7","system_id":"levelo_inurba_marseille","lat":43.289468,"lon":5.363719,"is_reserved":false,"is_disabled":false,"rental_uris":{"android":"levelo://app?vid=519700bc-6fb3-4eb9-9100-8b25257df8a7","ios":"levelo://app?vid=519700bc-6fb3-4eb9-9100-8b25257df8a7"},"vehicle_type_id":"4","last_reported":1718914100,"current_range_meters":14800,"station_id":"ce4bhc92rcd13ifvqetg","pricing_plan_id":"cebpf4jnsgd1na2vs0mg"},{"bike_id":"eec19322-bba2-4e4f-81a6-867d5507f275","system_id":"levelo_inurba_marseille","lat":43.28933,"lon":5.36394,"is_reserved":false,"is_disabled":false,"rental_uris":{"android":"levelo://app?vid=eec19322-bba2-4e4f-81a6-867d5507f275","ios":"levelo://app?vid=eec19322-bba2-4e4f-81a6-867d5507f275"},"vehicle_type_id":"4","last_reported":1718914100,"current_range_meters":0,"station_id":"ce4bhc92rcd13ifvqetg","pricing_plan_id":"cebpf4jnsgd1na2vs0mg"},{"bike_id":"5042770f-6a8d-4063-9e0b-5f97e5b3fd73","system_id":"levelo_inurba_marseille","lat":43.29024,"lon":5.35729,"is_reserved":false,"is_disabled":false,"rental_uris":{"android":"levelo://app?vid=5042770f-6a8d-4063-9e0b-5f97e5b3fd73","ios":"levelo://app?vid=5042770f-6a8d-4063-9e0b-5f97e5b3fd73"},"vehicle_type_id":"4","last_reported":1718914100,"current_range_meters":8400,"station_id":"ce4bhb92rcd13ifvqen0","pricing_plan_id":"cebpf4jnsgd1na2vs0mg"},{"bike_id":"589f7afc-7441-47a1-a994-7ed2d9b628be","system_id":"levelo_inurba_marseille","lat":43.28727,"lon":5.36078,"is_reserved":false,"is_disabled":false,"rental_uris":{"android":"levelo://app?vid=589f7afc-7441-47a1-a994-7ed2d9b628be","ios":"levelo://app?vid=589f7afc-7441-47a1-a994-7ed2d9b628be"},"vehicle_type_id":"4","last_reported":1718914100,"current_range_meters":18000,"station_id":"cki0cbj6b192h4jlfktg","pricing_plan_id":"cebpf4jnsgd1na2vs0mg"},{"bike_id":"a4aa734d-92cc-4773-b5c8-8e9941b1d738","system_id":"levelo_inurba_marseille","lat":43.289468,"lon":5.363719,"is_reserved":false,"is_disabled":false,"rental_uris":{"android":"levelo://app?vid=a4aa734d-92cc-4773-b5c8-8e9941b1d738","ios":"levelo://app?vid=a4aa734d-92cc-4773-b5c8-8e9941b1d738"},"vehicle_type_id":"4","last_reported":1718914100,"current_range_meters":30800,"station_id":"ce4bhc92rcd13ifvqetg","pricing_plan_id":"cebpf4jnsgd1na2vs0mg"},{"bike_id":"a230b850-33c2-443f-a004-c17b1c58d6b1","system_id":"levelo_inurba_marseille","lat":43.29266,"lon":5.38438,"is_reserved":false,"is_disabled":false,"rental_uris":{"android":"levelo://app?vid=a230b850-33c2-443f-a004-c17b1c58d6b1","ios":"levelo://app?vid=a230b850-33c2-443f-a004-c17b1c58d6b1"},"vehicle_type_id":"4","last_reported":1718914100,"current_range_meters":31200,"station_id":"ce4bh692rcd13ifvqea0","pricing_plan_id":"cebpf4jnsgd1na2vs0mg"},{"bike_id":"58f74560-ac43-47a6-9262-798a4f517d9b","system_id":"levelo_inurba_marseille","lat":43.29263,"lon":5.38432,"is_reserved":false,"is_disabled":false,"rental_uris":{"android":"levelo://app?vid=58f74560-ac43-47a6-9262-798a4f517d9b","ios":"levelo://app?vid=58f74560-ac43-47a6-9262-798a4f517d9b"},"vehicle_type_id":"4","last_reported":1718914100,"current_range_meters":0,"station_id":"ce4bh692rcd13ifvqea0","pricing_plan_id":"cebpf4jnsgd1na2vs0mg"},{"bike_id":"bcc62547-2759-4bd8-9acd-b9b5bcce1fd6","system_id":"levelo_inurba_marseille","lat":43.29266,"lon":5.38441,"is_reserved":false,"is_disabled":false,"rental_uris":{"android":"levelo://app?vid=bcc62547-2759-4bd8-9acd-b9b5bcce1fd6","ios":"levelo://app?vid=bcc62547-2759-4bd8-9acd-b9b5bcce1fd6"},"vehicle_type_id":"4","last_reported":1718914100,"current_range_meters":31200,"station_id":"ce4bh692rcd13ifvqea0","pricing_plan_id":"cebpf4jnsgd1na2vs0mg"},{"bike_id":"1c1002f7-8d5e-475f-b2cf-d7b865d0caf1","system_id":"levelo_inurba_marseille","lat":43.29265,"lon":5.38444,"is_reserved":false,"is_disabled":false,"rental_uris":{"android":"levelo://app?vid=1c1002f7-8d5e-475f-b2cf-d7b865d0caf1","ios":"levelo://app?vid=1c1002f7-8d5e-475f-b2cf-d7b865d0caf1"},"vehicle_type_id":"4","last_reported":1718914100,"current_range_meters":24800,"station_id":"ce4bh692rcd13ifvqea0","pricing_plan_id":"cebpf4jnsgd1na2vs0mg"},{"bike_id":"305bb79b-922b-4f13-8478-713ca5a074e4","system_id":"levelo_inurba_marseille","lat":43.29265,"lon":5.38446,"is_reserved":false,"is_disabled":false,"rental_uris":{"android":"levelo://app?vid=305bb79b-922b-4f13-8478-713ca5a074e4","ios":"levelo://app?vid=305bb79b-922b-4f13-8478-713ca5a074e4"},"vehicle_type_id":"4","last_reported":1718914100,"current_range_meters":29600,"station_id":"ce4bh692rcd13ifvqea0","pricing_plan_id":"cebpf4jnsgd1na2vs0mg"},{"bike_id":"e096ab0d-dfc8-4827-a05d-d32c21512fcb","system_id":"levelo_inurba_marseille","lat":43.292644,"lon":5.384257,"is_reserved":false,"is_disabled":false,"rental_uris":{"android":"levelo://app?vid=e096ab0d-dfc8-4827-a05d-d32c21512fcb","ios":"levelo://app?vid=e096ab0d-dfc8-4827-a05d-d32c21512fcb"},"vehicle_type_id":"4","last_reported":1718914100,"current_range_meters":23600,"station_id":"ce4bh692rcd13ifvqea0","pricing_plan_id":"cebpf4jnsgd1na2vs0mg"},{"bike_id":"edaa9c17-e221-4ab4-9562-1f2d7967eca4","system_id":"levelo_inurba_marseille","lat":43.292644,"lon":5.384257,"is_reserved":false,"is_disabled":false,"rental_uris":{"android":"levelo://app?vid=edaa9c17-e221-4ab4-9562-1f2d7967eca4","ios":"levelo://app?vid=edaa9c17-e221-4ab4-9562-1f2d7967eca4"},"vehicle_type_id":"4","last_reported":1718914100,"current_range_meters":24000,"station_id":"ce4bh692rcd13ifvqea0","pricing_plan_id":"cebpf4jnsgd1na2vs0mg"},{"bike_id":"14f97ab9-f68a-4b91-bcc2-2ffc6a64fa7b","system_id":"levelo_inurba_marseille","lat":43.292644,"lon":5.384257,"is_reserved":false,"is_disabled":false,"rental_uris":{"android":"levelo://app?vid=14f97ab9-f68a-4b91-bcc2-2ffc6a64fa7b","ios":"levelo://app?vid=14f97ab9-f68a-4b91-bcc2-2ffc6a64fa7b"},"vehicle_type_id":"4","last_reported":1718914100,"current_range_meters":13600,"station_id":"ce4bh692rcd13ifvqea0","pricing_plan_id":"cebpf4jnsgd1na2vs0mg"},{"bike_id":"77992b8e-ff84-4b20-9ae9-5ab5ce467df3","system_id":"levelo_inurba_marseille","lat":43.292622,"lon":5.38449,"is_reserved":false,"is_disabled":false,"rental_uris":{"android":"levelo://app?vid=77992b8e-ff84-4b20-9ae9-5ab5ce467df3","ios":"levelo://app?vid=77992b8e-ff84-4b20-9ae9-5ab5ce467df3"},"vehicle_type_id":"4","last_reported":1718914100,"current_range_meters":25600,"station_id":"ce4bh692rcd13ifvqea0","pricing_plan_id":"cebpf4jnsgd1na2vs0mg"},{"bike_id":"f580a239-ff7c-4a78-a4a9-cb77a38b8fc4","system_id":"levelo_inurba_marseille","lat":43.292642,"lon":5.384254,"is_reserved":false,"is_disabled":false,"rental_uris":{"android":"levelo://app?vid=f580a239-ff7c-4a78-a4a9-cb77a38b8fc4","ios":"levelo://app?vid=f580a239-ff7c-4a78-a4a9-cb77a38b8fc4"},"vehicle_type_id":"4","last_reported":1718914100,"current_range_meters":28400,"station_id":"ce4bh692rcd13ifvqea0","pricing_plan_id":"cebpf4jnsgd1na2vs0mg"},{"bike_id":"ffe8649a-03c1-4f28-b85d-dde2f49c6f80","system_id":"levelo_inurba_marseille","lat":43.29258,"lon":5.38447,"is_reserved":false,"is_disabled":false,"rental_uris":{"android":"levelo://app?vid=ffe8649a-03c1-4f28-b85d-dde2f49c6f80","ios":"levelo://app?vid=ffe8649a-03c1-4f28-b85d-dde2f49c6f80"},"vehicle_type_id":"4","last_reported":1718914100,"current_range_meters":800,"station_id":"ce4bh692rcd13ifvqea0","pricing_plan_id":"cebpf4jnsgd1na2vs0mg"},{"bike_id":"be3c60ed-0e5f-45e4-95a1-8eb622c04f66","system_id":"levelo_inurba_marseille","lat":43.292567,"lon":5.384443,"is_reserved":false,"is_disabled":false,"rental_uris":{"android":"levelo://app?vid=be3c60ed-0e5f-45e4-95a1-8eb622c04f66","ios":"levelo://app?vid=be3c60ed-0e5f-45e4-95a1-8eb622c04f66"},"vehicle_type_id":"4","last_reported":1718914100,"current_range_meters":25600,"station_id":"ce4bh692rcd13ifvqea0","pricing_plan_id":"cebpf4jnsgd1na2vs0mg"},{"bike_id":"f3c1fe4c-b0ea-42fd-8182-738b46276fc6","system_id":"levelo_inurba_marseille","lat":43.292642,"lon":5.384254,"is_reserved":false,"is_disabled":false,"rental_uris":{"android":"levelo://app?vid=f3c1fe4c-b0ea-42fd-8182-738b46276fc6","ios":"levelo://app?vid=f3c1fe4c-b0ea-42fd-8182-738b46276fc6"},"vehicle_type_id":"4","last_reported":1718914100,"current_range_meters":31600,"station_id":"ce4bh692rcd13ifvqea0","pricing_plan_id":"cebpf4jnsgd1na2vs0mg"},{"bike_id":"aa3e1790-77c5-4af3-a2f8-d3669b5f5dfa","system_id":"levelo_inurba_marseille","lat":43.29257,"lon":5.38454,"is_reserved":false,"is_disabled":false,"rental_uris":{"android":"levelo://app?vid=aa3e1790-77c5-4af3-a2f8-d3669b5f5dfa","ios":"levelo://app?vid=aa3e1790-77c5-4af3-a2f8-d3669b5f5dfa"},"vehicle_type_id":"4","last_reported":1718914100,"current_range_meters":14800,"station_id":"ce4bh692rcd13ifvqea0","pricing_plan_id":"cebpf4jnsgd1na2vs0mg"},{"bike_id":"5a70f95d-f5f2-45a9-808c-1a2fd6ba1110","system_id":"levelo_inurba_marseille","lat":43.290995,"lon":5.381361,"is_reserved":false,"is_disabled":false,"rental_uris":{"android":"levelo://app?vid=5a70f95d-f5f2-45a9-808c-1a2fd6ba1110","ios":"levelo://app?vid=5a70f95d-f5f2-45a9-808c-1a2fd6ba1110"},"vehicle_type_id":"4","last_reported":1718914100,"current_range_meters":14800,"station_id":"ce4bh512rcd13ifvqe2g","pricing_plan_id":"cebpf4jnsgd1na2vs0mg"},{"bike_id":"878b0b48-1c85-49b9-a114-49a3a2fe5402","system_id":"levelo_inurba_marseille","lat":43.290995,"lon":5.381361,"is_reserved":false,"is_disabled":false,"rental_uris":{"android":"levelo://app?vid=878b0b48-1c85-49b9-a114-49a3a2fe5402","ios":"levelo://app?vid=878b0b48-1c85-49b9-a114-49a3a2fe5402"},"vehicle_type_id":"4","last_reported":1718914100,"current_range_meters":31200,"station_id":"ce4bh512rcd13ifvqe2g","pricing_plan_id":"cebpf4jnsgd1na2vs0mg"},{"bike_id":"51087e11-bf45-482a-aeb8-7e31ac47fc2f","system_id":"levelo_inurba_marseille","lat":43.31047,"lon":5.40005,"is_reserved":false,"is_disabled":false,"rental_uris":{"android":"levelo://app?vid=51087e11-bf45-482a-aeb8-7e31ac47fc2f","ios":"levelo://app?vid=51087e11-bf45-482a-aeb8-7e31ac47fc2f"},"vehicle_type_id":"4","last_reported":1718914100,"current_range_meters":18400,"station_id":"","pricing_plan_id":"cebpf4jnsgd1na2vs0mg"},{"bike_id":"5ba85aa4-afa8-46fb-ade3-0924575ed0c7","system_id":"levelo_inurba_marseille","lat":43.290995,"lon":5.381361,"is_reserved":false,"is_disabled":false,"rental_uris":{"android":"levelo://app?vid=5ba85aa4-afa8-46fb-ade3-0924575ed0c7","ios":"levelo://app?vid=5ba85aa4-afa8-46fb-ade3-0924575ed0c7"},"vehicle_type_id":"4","last_reported":1718914100,"current_range_meters":21600,"station_id":"ce4bh512rcd13ifvqe2g","pricing_plan_id":"cebpf4jnsgd1na2vs0mg"},{"bike_id":"3c89eeba-bc81-4aec-a224-8039c4d9661f","system_id":"levelo_inurba_marseille","lat":43.297815,"lon":5.393548,"is_reserved":false,"is_disabled":false,"rental_uris":{"android":"levelo://app?vid=3c89eeba-bc81-4aec-a224-8039c4d9661f","ios":"levelo://app?vid=3c89eeba-bc81-4aec-a224-8039c4d9661f"},"vehicle_type_id":"4","last_reported":1718914100,"current_range_meters":18400,"station_id":"chh1huq6cuj3fo74tm60","pricing_plan_id":"cebpf4jnsgd1na2vs0mg"},{"bike_id":"a6bded1f-484a-4c12-8e17-389dabbefec3","system_id":"levelo_inurba_marseille","lat":43.2901,"lon":5.381269,"is_reserved":false,"is_disabled":false,"rental_uris":{"android":"levelo://app?vid=a6bded1f-484a-4c12-8e17-389dabbefec3","ios":"levelo://app?vid=a6bded1f-484a-4c12-8e17-389dabbefec3"},"vehicle_type_id":"4","last_reported":1718914100,"current_range_meters":6000,"station_id":"ce4bh4p2rcd13ifvqe1g","pricing_plan_id":"cebpf4jnsgd1na2vs0mg"},{"bike_id":"8827d72a-a326-4556-aaed-773d6e462781","system_id":"levelo_inurba_marseille","lat":43.29778,"lon":5.39339,"is_reserved":false,"is_disabled":false,"rental_uris":{"android":"levelo://app?vid=8827d72a-a326-4556-aaed-773d6e462781","ios":"levelo://app?vid=8827d72a-a326-4556-aaed-773d6e462781"},"vehicle_type_id":"4","last_reported":1718914100,"current_range_meters":13200,"station_id":"chh1huq6cuj3fo74tm60","pricing_plan_id":"cebpf4jnsgd1na2vs0mg"},{"bike_id":"2d0cd861-d869-4d94-a9d8-123ec6d0d664","system_id":"levelo_inurba_marseille","lat":43.289741,"lon":5.378306,"is_reserved":false,"is_disabled":false,"rental_uris":{"android":"levelo://app?vid=2d0cd861-d869-4d94-a9d8-123ec6d0d664","ios":"levelo://app?vid=2d0cd861-d869-4d94-a9d8-123ec6d0d664"},"vehicle_type_id":"4","last_reported":1718914100,"current_range_meters":3200,"station_id":"ce4bh9p2rcd13ifvqed0","pricing_plan_id":"cebpf4jnsgd1na2vs0mg"},{"bike_id":"cfba253f-5924-4a0c-a819-ee1d8a732f88","system_id":"levelo_inurba_marseille","lat":43.330442,"lon":5.389148,"is_reserved":false,"is_disabled":false,"rental_uris":{"android":"levelo://app?vid=cfba253f-5924-4a0c-a819-ee1d8a732f88","ios":"levelo://app?vid=cfba253f-5924-4a0c-a819-ee1d8a732f88"},"vehicle_type_id":"4","last_reported":1718914100,"current_range_meters":0,"station_id":"ce4bhr92rcd13ifvqhrg","pricing_plan_id":"cebpf4jnsgd1na2vs0mg"},{"bike_id":"f0d10023-2f9e-43b5-a7ed-fef80065c39c","system_id":"levelo_inurba_marseille","lat":43.330442,"lon":5.389148,"is_reserved":false,"is_disabled":false,"rental_uris":{"android":"levelo://app?vid=f0d10023-2f9e-43b5-a7ed-fef80065c39c","ios":"levelo://app?vid=f0d10023-2f9e-43b5-a7ed-fef80065c39c"},"vehicle_type_id":"4","last_reported":1718914100,"current_range_meters":14000,"station_id":"ce4bhr92rcd13ifvqhrg","pricing_plan_id":"cebpf4jnsgd1na2vs0mg"},{"bike_id":"1f243108-1d50-4650-a8cd-ede3535c3a07","system_id":"levelo_inurba_marseille","lat":43.330442,"lon":5.389148,"is_reserved":false,"is_disabled":false,"rental_uris":{"android":"levelo://app?vid=1f243108-1d50-4650-a8cd-ede3535c3a07","ios":"levelo://app?vid=1f243108-1d50-4650-a8cd-ede3535c3a07"},"vehicle_type_id":"4","last_reported":1718914100,"current_range_meters":19200,"station_id":"ce4bhr92rcd13ifvqhrg","pricing_plan_id":"cebpf4jnsgd1na2vs0mg"},{"bike_id":"261d9ddc-952c-4d01-9cb0-95dd79127113","system_id":"levelo_inurba_marseille","lat":43.289741,"lon":5.378306,"is_reserved":false,"is_disabled":false,"rental_uris":{"android":"levelo://app?vid=261d9ddc-952c-4d01-9cb0-95dd79127113","ios":"levelo://app?vid=261d9ddc-952c-4d01-9cb0-95dd79127113"},"vehicle_type_id":"4","last_reported":1718914100,"current_range_meters":4000,"station_id":"ce4bh9p2rcd13ifvqed0","pricing_plan_id":"cebpf4jnsgd1na2vs0mg"},{"bike_id":"02f210f9-7e29-4510-8e5d-dcc82aa1a67e","system_id":"levelo_inurba_marseille","lat":43.295169,"lon":5.390426,"is_reserved":false,"is_disabled":false,"rental_uris":{"android":"levelo://app?vid=02f210f9-7e29-4510-8e5d-dcc82aa1a67e","ios":"levelo://app?vid=02f210f9-7e29-4510-8e5d-dcc82aa1a67e"},"vehicle_type_id":"4","last_reported":1718914100,"current_range_meters":14400,"station_id":"ce4bh3p2rcd13ifvqdp0","pricing_plan_id":"cebpf4jnsgd1na2vs0mg"},{"bike_id":"a050e984-a7a6-4c0f-a7c8-4b509bc534ab","system_id":"levelo_inurba_marseille","lat":43.28856,"lon":5.358371,"is_reserved":false,"is_disabled":false,"rental_uris":{"android":"levelo://app?vid=a050e984-a7a6-4c0f-a7c8-4b509bc534ab","ios":"levelo://app?vid=a050e984-a7a6-4c0f-a7c8-4b509bc534ab"},"vehicle_type_id":"4","last_reported":1718914100,"current_range_meters":24000,"station_id":"ce4bhb12rcd13ifvqem0","pricing_plan_id":"cebpf4jnsgd1na2vs0mg"},{"bike_id":"539c4e28-ebb7-420c-b59d-511185071b2a","system_id":"levelo_inurba_marseille","lat":43.290094,"lon":5.381264,"is_reserved":false,"is_disabled":false,"rental_uris":{"android":"levelo://app?vid=539c4e28-ebb7-420c-b59d-511185071b2a","ios":"levelo://app?vid=539c4e28-ebb7-420c-b59d-511185071b2a"},"vehicle_type_id":"4","last_reported":1718914100,"current_range_meters":22800,"station_id":"ce4bh4p2rcd13ifvqe1g","pricing_plan_id":"cebpf4jnsgd1na2vs0mg"},{"bike_id":"68def5df-e389-4393-898b-bb6269eb93d6","system_id":"levelo_inurba_marseille","lat":43.309371,"lon":5.401449,"is_reserved":false,"is_disabled":false,"rental_uris":{"android":"levelo://app?vid=68def5df-e389-4393-898b-bb6269eb93d6","ios":"levelo://app?vid=68def5df-e389-4393-898b-bb6269eb93d6"},"vehicle_type_id":"4","last_reported":1718914100,"current_range_meters":0,"station_id":"ce4bgvp2rcd13ifvqct0","pricing_plan_id":"cebpf4jnsgd1na2vs0mg"},{"bike_id":"ee23d7a5-234a-420e-8c7d-b5633a658d2c","system_id":"levelo_inurba_marseille","lat":43.312609,"lon":5.401662,"is_reserved":false,"is_disabled":false,"rental_uris":{"android":"levelo://app?vid=ee23d7a5-234a-420e-8c7d-b5633a658d2c","ios":"levelo://app?vid=ee23d7a5-234a-420e-8c7d-b5633a658d2c"},"vehicle_type_id":"4","last_reported":1718914100,"current_range_meters":31600,"station_id":"ce4bh092rcd13ifvqd30","pricing_plan_id":"cebpf4jnsgd1na2vs0mg"},{"bike_id":"6649f763-1564-4bd2-a4d8-04b118440976","system_id":"levelo_inurba_marseille","lat":43.312609,"lon":5.401662,"is_reserved":false,"is_disabled":false,"rental_uris":{"android":"levelo://app?vid=6649f763-1564-4bd2-a4d8-04b118440976","ios":"levelo://app?vid=6649f763-1564-4bd2-a4d8-04b118440976"},"vehicle_type_id":"4","last_reported":1718914100,"current_range_meters":27200,"station_id":"ce4bh092rcd13ifvqd30","pricing_plan_id":"cebpf4jnsgd1na2vs0mg"},{"bike_id":"5e3d7496-0f00-415a-9652-c05c0d2d3f90","system_id":"levelo_inurba_marseille","lat":43.312609,"lon":5.401662,"is_reserved":false,"is_disabled":false,"rental_uris":{"android":"levelo://app?vid=5e3d7496-0f00-415a-9652-c05c0d2d3f90","ios":"levelo://app?vid=5e3d7496-0f00-415a-9652-c05c0d2d3f90"},"vehicle_type_id":"4","last_reported":1718914100,"current_range_meters":16000,"station_id":"ce4bh092rcd13ifvqd30","pricing_plan_id":"cebpf4jnsgd1na2vs0mg"},