{"last_updated":1768472040,"ttl":60,"version":"2.2","data":{"bikes":[{"bike_id":"d8e03ef6-0c5e-49db-943c-98c26bf654da","system_id":"levelo_inurba_marseille","lat":43.29961,"lon":5.37456,"is_reserved":false,"is_disabled":false,"rental_uris":{"android":"levelo://app?vid=d8e03ef6-0c5e-49db-943c-98c26bf654da","ios":"levelo://app?vid=d8e03ef6-0c5e-49db-943c-98c26bf654da"},"vehicle_type_id":"4","last_reported":1768472041,"current_range_meters":2800,"station_id":"ce4bgjh2rcd13ifvqbg0","pricing_plan_id":"cebpf4jnsgd1na2vs0mg"},{"bike_id":"64d5976f-8dcc-4221-b8a1-159649fd0eb6","system_id":"levelo_inurba_marseille","lat":43.23944,"lon":5.36643,"is_reserved":false,"is_disabled":false,"rental_uris":{"android":"levelo://app?vid=64d5976f-8dcc-4221-b8a1-159649fd0eb6","ios":"levelo://app?vid=64d5976f-8dcc-4221-b8a1-159649fd0eb6"},"vehicle_type_id":"4","last_reported":1768472041,"current_range_meters":2800,"station_id":"ce4bhi12rcd13ifvqfp0","pricing_plan_id":"cebpf4jnsgd1na2vs0mg"},{"bike_id":"be30ca61-adcf-4b3a-87f3-64d52fd123c8","system_id":"levelo_inurba_marseille","lat":43.32357,"lon":5.36724,"is_reserved":false,"is_disabled":false,"rental_uris":{"android":"levelo://app?vid=be30ca61-adcf-4b3a-87f3-64d52fd123c8","ios":"levelo://app?vid=be30ca61-adcf-4b3a-87f3-64d52fd123c8"},"vehicle_type_id":"4","last_reported":1768472041,"current_range_meters":2800,"station_id":"ce4bhsh2rcd13ifvqi2g","pricing_plan_id":"cebpf4jnsgd1na2vs0mg"},{"bike_id":"9f40a33c-296f-4c34-b112-b842ec7417ee","system_id":"levelo_inurba_marseille","lat":43.24082,"lon":5.37731,"is_reserved":false,"is_disabled":false,"rental_uris":{"android":"levelo://app?vid=9f40a33c-296f-4c34-b112-b842ec7417ee","ios":"levelo://app?vid=9f40a33c-296f-4c34-b112-b842ec7417ee"},"vehicle_type_id":"4","last_reported":1768472041,"current_range_meters":2800,"station_id":"ce4bhnp2rcd13ifvqgvg","pricing_plan_id":"cebpf4jnsgd1na2vs0mg"},{"bike_id":"d6b8e4f9-db48-4ed6-ab6d-b4df7519c820","system_id":"levelo_inurba_marseille","lat":43.29295,"lon":5.37151,"is_reserved":false,"is_disabled":false,"rental_uris":{"android":"levelo://app?vid=d6b8e4f9-db48-4ed6-ab6d-b4df7519c820","ios":"levelo://app?vid=d6b8e4f9-db48-4ed6-ab6d-b4df7519c820"},"vehicle_type_id":"4","last_reported":1768472041,"current_range_meters":2800,"station_id":"ce4bgh92rcd13ifvqb40","pricing_plan_id":"cebpf4jnsgd1na2vs0mg"},{"bike_id":"2c876b49-cdc4-4db5-b97c-f0aed2e31b02","system_id":"levelo_inurba_marseille","lat":43.30942,"lon":5.39032,"is_reserved":false,"is_disabled":false,"rental_uris":{"android":"levelo://app?vid=2c876b49-cdc4-4db5-b97c-f0aed2e31b02","ios":"levelo://app?vid=2c876b49-cdc4-4db5-b97c-f0aed2e31b02"},"vehicle_type_id":"4","last_reported":1768472041,"current_range_meters":3200,"station_id":"ce4bgup2rcd13ifvqco0","pricing_plan_id":"cebpf4jnsgd1na2vs0mg"},{"bike_id":"2dcbaafa-dc26-4d5a-9923-60da74220ab7","system_id":"levelo_inurba_marseille","lat":43.263705,"lon":5.410836,"is_reserved":false,"is_disabled":false,"rental_uris":{"android":"levelo://app?vid=2dcbaafa-dc26-4d5a-9923-60da74220ab7","ios":"levelo://app?vid=2dcbaafa-dc26-4d5a-9923-60da74220ab7"},"vehicle_type_id":"4","last_reported":1768472041,"current_range_meters":3200,"station_id":"","pricing_plan_id":"cebpf4jnsgd1na2vs0mg"},{"bike_id":"b972edba-a6cb-41d3-9e2a-233a15364dd6","system_id":"levelo_inurba_marseille","lat":43.3414,"lon":5.409,"is_reserved":false,"is_disabled":false,"rental_uris":{"android":"levelo://app?vid=b972edba-a6cb-41d3-9e2a-233a15364dd6","ios":"levelo://app?vid=b972edba-a6cb-41d3-9e2a-233a15364dd6"},"vehicle_type_id":"4","last_reported":1768472041,"current_range_meters":3200,"station_id":"ce4bhqh2rcd13ifvqhlg","pricing_plan_id":"cebpf4jnsgd1na2vs0mg"},{"bike_id":"f073aa3d-90e2-4e44-8874-09423843debd","system_id":"levelo_inurba_marseille","lat":43.30111,"lon":5.39868,"is_reserved":false,"is_disabled":false,"rental_uris":{"android":"levelo://app?vid=f073aa3d-90e2-4e44-8874-09423843debd","ios":"levelo://app?vid=f073aa3d-90e2-4e44-8874-09423843debd"},"vehicle_type_id":"4","last_reported":1768472041,"current_range_meters":3200,"station_id":"ce4bh0h2rcd13ifvqd40","pricing_plan_id":"cebpf4jnsgd1na2vs0mg"},{"bike_id":"a2c3fda5-fb1e-4329-88c2-2e7960229574","system_id":"levelo_inurba_marseille","lat":43.31203,"lon":5.40305,"is_reserved":false,"is_disabled":false,"rental_uris":{"android":"levelo://app?vid=a2c3fda5-fb1e-4329-88c2-2e7960229574","ios":"levelo://app?vid=a2c3fda5-fb1e-4329-88c2-2e7960229574"},"vehicle_type_id":"4","last_reported":1768472041,"current_range_meters":3200,"station_id":"","pricing_plan_id":"cebpf4jnsgd1na2vs0mg"},{"bike_id":"4a048c55-da41-4627-ae4d-2d4ef689be65","system_id":"levelo_inurba_marseille","lat":43.3037,"lon":5.42494,"is_reserved":false,"is_disabled":false,"rental_uris":{"android":"levelo://app?vid=4a048c55-da41-4627-ae4d-2d4ef689be65","ios":"levelo://app?vid=4a048c55-da41-4627-ae4d-2d4ef689be65"},"vehicle_type_id":"4","last_reported":1768472041,"current_range_meters":3200,"station_id":"ce4bhoh2rcd13ifvqh6g","pricing_plan_id":"cebpf4jnsgd1na2vs0mg"},{"bike_id":"2dfb6b27-1a9d-4365-8ea3-5579df8f7297","system_id":"levelo_inurba_marseille","lat":43.25004,"lon":5.38932,"is_reserved":false,"is_disabled":false,"rental_uris":{"android":"levelo://app?vid=2dfb6b27-1a9d-4365-8ea3-5579df8f7297","ios":"levelo://app?vid=2dfb6b27-1a9d-4365-8ea3-5579df8f7297"},"vehicle_type_id":"4","last_reported":1768472041,"current_range_meters":3200,"station_id":"ce4bhgp2rcd13ifvqfd0","pricing_plan_id":"cebpf4jnsgd1na2vs0mg"},{"bike_id":"33f17554-2853-4954-b6db-ca98bd3bda6a","system_id":"levelo_inurba_marseille","lat":43.243857,"lon":5.370566,"is_reserved":false,"is_disabled":false,"rental_uris":{"android":"levelo://app?vid=33f17554-2853-4954-b6db-ca98bd3bda6a","ios":"levelo://app?vid=33f17554-2853-4954-b6db-ca98bd3bda6a"},"vehicle_type_id":"4","last_reported":1768472041,"current_range_meters":3200,"station_id":"ce4bhhh2rcd13ifvqfk0","pricing_plan_id":"cebpf4jnsgd1na2vs0mg"},{"bike_id":"7445f670-7827-4e99-80df-37c19e7cc9ec","system_id":"levelo_inurba_marseille","lat":43.32087,"lon":5.36818,"is_reserved":false,"is_disabled":false,"rental_uris":{"android":"levelo://app?vid=7445f670-7827-4e99-80df-37c19e7cc9ec","ios":"levelo://app?vid=7445f670-7827-4e99-80df-37c19e7cc9ec"},"vehicle_type_id":"4","last_reported":1768472041,"current_range_meters":3600,"station_id":"ce4bhrh2rcd13ifvqhug","pricing_plan_id":"cebpf4jnsgd1na2vs0mg"},{"bike_id":"1b18158b-b956-400b-8142-f97aac363a66","system_id":"levelo_inurba_marseille","lat":43.24964,"lon":5.38929,"is_reserved":false,"is_disabled":true,"rental_uris":{"android":"levelo://app?vid=1b18158b-b956-400b-8142-f97aac363a66","ios":"levelo://app?vid=1b18158b-b956-400b-8142-f97aac363a66"},"vehicle_type_id":"4","last_reported":1768472041,"current_range_meters":3600,"station_id":"ce4bhgp2rcd13ifvqfd0","pricing_plan_id":"cebpf4jnsgd1na2vs0mg"},{"bike_id":"06897417-f925-403b-9b53-83cb77fb311f","system_id":"levelo_inurba_marseille","lat":43.25511,"lon":5.37665,"is_reserved":false,"is_disabled":false,"rental_uris":{"android":"levelo://app?vid=06897417-f925-403b-9b53-83cb77fb311f","ios":"levelo://app?vid=06897417-f925-403b-9b53-83cb77fb311f"},"vehicle_type_id":"4","last_reported":1768472041,"current_range_meters":3600,"station_id":"ce4bhh12rcd13ifvqff0","pricing_plan_id":"cebpf4jnsgd1na2vs0mg"},{"bike_id":"1b0b0363-e7f6-4994-8b40-a650e2239f34","system_id":"levelo_inurba_marseille","lat":43.29596,"lon":5.3811,"is_reserved":false,"is_disabled":false,"rental_uris":{"android":"levelo://app?vid=1b0b0363-e7f6-4994-8b40-a650e2239f34","ios":"levelo://app?vid=1b0b0363-e7f6-4994-8b40-a650e2239f34"},"vehicle_type_id":"4","last_reported":1768472041,"current_range_meters":3600,"station_id":"ce4bgl12rcd13ifvqbo0","pricing_plan_id":"cebpf4jnsgd1na2vs0mg"},{"bike_id":"f42ab945-6b46-4b23-ac0b-20e1fd002449","system_id":"levelo_inurba_marseille","lat":43.300324,"lon":5.388794,"is_reserved":false,"is_disabled":false,"rental_uris":{"android":"levelo://app?vid=f42ab945-6b46-4b23-ac0b-20e1fd002449","ios":"levelo://app?vid=f42ab945-6b46-4b23-ac0b-20e1fd002449"},"vehicle_type_id":"4","last_reported":1768472041,"current_range_meters":3600,"station_id":"","pricing_plan_id":"cebpf4jnsgd1na2vs0mg"},{"bike_id":"8803a6e9-67a3-479e-b849-a893754260d5","system_id":"levelo_inurba_marseille","lat":43.25498,"lon":5.37661,"is_reserved":false,"is_disabled":false,"rental_uris":{"android":"levelo://app?vid=8803a6e9-67a3-479e-b849-a893754260d5","ios":"levelo://app?vid=8803a6e9-67a3-479e-b849-a893754260d5"},"vehicle_type_id":"4","last_reported":1768472041,"current_range_meters":3600,"station_id":"ce4bhh12rcd13ifvqff0","pricing_plan_id":"cebpf4jnsgd1na2vs0mg"},{"bike_id":"98a07dd1-d6eb-4a51-8437-adf232cf287c","system_id":"levelo_inurba_marseille","lat":43.32069,"lon":5.41574,"is_reserved":false,"is_disabled":false,"rental_uris":{"android":"levelo://app?vid=98a07dd1-d6eb-4a51-8437-adf232cf287c","ios":"levelo://app?vid=98a07dd1-d6eb-4a51-8437-adf232cf287c"},"vehicle_type_id":"4","last_reported":1768472041,"current_range_meters":4000,"station_id":"ce4bhq92rcd13ifvqhkg","pricing_plan_id":"cebpf4jnsgd1na2vs0mg"},{"bike_id":"c75b139b-6977-457c-8fab-86c172554976","system_id":"levelo_inurba_marseille","lat":43.25103,"lon":5.40455,"is_reserved":false,"is_disabled":false,"rental_uris":{"android":"levelo://app?vid=c75b139b-6977-457c-8fab-86c172554976","ios":"levelo://app?vid=c75b139b-6977-457c-8fab-86c172554976"},"vehicle_type_id":"4","last_reported":1768472041,"current_range_meters":4000,"station_id":"","pricing_plan_id":"cebpf4jnsgd1na2vs0mg"},{"bike_id":"25b85b18-57fc-41e9-9a16-dc90f53ce58a","system_id":"levelo_inurba_marseille","lat":43.25578,"lon":5.38254,"is_reserved":false,"is_disabled":false,"rental_uris":{"android":"levelo://app?vid=25b85b18-57fc-41e9-9a16-dc90f53ce58a","ios":"levelo://app?vid=25b85b18-57fc-41e9-9a16-dc90f53ce58a"},"vehicle_type_id":"4","last_reported":1768472041,"current_range_meters":4000,"station_id":"ce4bhih2rcd13ifvqfs0","pricing_plan_id":"cebpf4jnsgd1na2vs0mg"},{"bike_id":"660f8d3d-996c-4d0c-a098-476ebc30f600","system_id":"levelo_inurba_marseille","lat":43.22562,"lon":5.41631,"is_reserved":false,"is_disabled":false,"rental_uris":{"android":"levelo://app?vid=660f8d3d-996c-4d0c-a098-476ebc30f600","ios":"levelo://app?vid=660f8d3d-996c-4d0c-a098-476ebc30f600"},"vehicle_type_id":"4","last_reported":1768472041,"current_range_meters":4000,"station_id":"st_d2o4gvlbi1j2169b742g","pricing_plan_id":"cebpf4jnsgd1na2vs0mg"},{"bike_id":"458b8111-0b4f-47b4-a25e-904a27733d5e","system_id":"levelo_inurba_marseille","lat":43.24176,"lon":5.39729,"is_reserved":false,"is_disabled":false,"rental_uris":{"android":"levelo://app?vid=458b8111-0b4f-47b4-a25e-904a27733d5e","ios":"levelo://app?vid=458b8111-0b4f-47b4-a25e-904a27733d5e"},"vehicle_type_id":"4","last_reported":1768472041,"current_range_meters":4000,"station_id":"","pricing_plan_id":"cebpf4jnsgd1na2vs0mg"},{"bike_id":"ae1d99b1-82a1-460d-bd96-dc1d194fe893","system_id":"levelo_inurba_marseille","lat":43.29823,"lon":5.37648,"is_reserved":false,"is_disabled":false,"rental_uris":{"android":"levelo://app?vid=ae1d99b1-82a1-460d-bd96-dc1d194fe893","ios":"levelo://app?vid=ae1d99b1-82a1-460d-bd96-dc1d194fe893"},"vehicle_type_id":"4","last_reported":1768472041,"current_range_meters":4000,"station_id":"","pricing_plan_id":"cebpf4jnsgd1na2vs0mg"},{"bike_id":"091c8081-61de-43ac-bb2c-74077a5d4149","system_id":"levelo_inurba_marseille","lat":43.22557,"lon":5.41631,"is_reserved":false,"is_disabled":false,"rental_uris":{"android":"levelo://app?vid=091c8081-61de-43ac-bb2c-74077a5d4149","ios":"levelo://app?vid=091c8081-61de-43ac-bb2c-74077a5d4149"},"vehicle_type_id":"4","last_reported":1768472041,"current_range_meters":4000,"station_id":"st_d2o4gvlbi1j2169b742g","pricing_plan_id":"cebpf4jnsgd1na2vs0mg"},{"bike_id":"9a5fbf1f-0437-41c2-b6e1-9b4f9884e63d","system_id":"levelo_inurba_marseille","lat":43.24048,"lon":5.37828,"is_reserved":false,"is_disabled":false,"rental_uris":{"android":"levelo://app?vid=9a5fbf1f-0437-41c2-b6e1-9b4f9884e63d","ios":"levelo://app?vid=9a5fbf1f-0437-41c2-b6e1-9b4f9884e63d"},"vehicle_type_id":"4","last_reported":1768472041,"current_range_meters":4000,"station_id":"","pricing_plan_id":"cebpf4jnsgd1na2vs0mg"},{"bike_id":"bd4b15a9-002c-4633-885a-3535a5835aff","system_id":"levelo_inurba_marseille","lat":43.27312,"lon":5.39942,"is_reserved":false,"is_disabled":false,"rental_uris":{"android":"levelo://app?vid=bd4b15a9-002c-4633-885a-3535a5835aff","ios":"levelo://app?vid=bd4b15a9-002c-4633-885a-3535a5835aff"},"vehicle_type_id":"4","last_reported":1768472041,"current_range_meters":4000,"station_id":"","pricing_plan_id":"cebpf4jnsgd1na2vs0mg"},{"bike_id":"90b66957-b0c1-4fee-b914-89425cf64b67","system_id":"levelo_inurba_marseille","lat":43.2721,"lon":5.3918,"is_reserved":false,"is_disabled":false,"rental_uris":{"android":"levelo://app?vid=90b66957-b0c1-4fee-b914-89425cf64b67","ios":"levelo://app?vid=90b66957-b0c1-4fee-b914-89425cf64b67"},"vehicle_type_id":"4","last_reported":1768472041,"current_range_meters":4000,"station_id":"ce4bhhp2rcd13ifvqfm0","pricing_plan_id":"cebpf4jnsgd1na2vs0mg"},{"bike_id":"52dc7a23-02b1-49ea-88fe-a1d65ef8f548","system_id":"levelo_inurba_marseille","lat":43.22927,"lon":5.35383,"is_reserved":false,"is_disabled":false,"rental_uris":{"android":"levelo://app?vid=52dc7a23-02b1-49ea-88fe-a1d65ef8f548","ios":"levelo://app?vid=52dc7a23-02b1-49ea-88fe-a1d65ef8f548"},"vehicle_type_id":"4","last_reported":1768472041,"current_range_meters":4400,"station_id":"cpo3532slgdg3j2ikp40","pricing_plan_id":"cebpf4jnsgd1na2vs0mg"},{"bike_id":"6c710942-6f01-4cbf-bea5-e9cc295b5d4f","system_id":"levelo_inurba_marseille","lat":43.27055,"lon":5.40253,"is_reserved":false,"is_disabled":false,"rental_uris":{"android":"levelo://app?vid=6c710942-6f01-4cbf-bea5-e9cc295b5d4f","ios":"levelo://app?vid=6c710942-6f01-4cbf-bea5-e9cc295b5d4f"},"vehicle_type_id":"4","last_reported":1768472041,"current_range_meters":4400,"station_id":"ce4bhk92rcd13ifvqgc0","pricing_plan_id":"cebpf4jnsgd1na2vs0mg"},{"bike_id":"679d1ae8-97fb-4af3-b1d7-b555e80cbef5","system_id":"levelo_inurba_marseille","lat":43.32539,"lon":5.41428,"is_reserved":false,"is_disabled":false,"rental_uris":{"android":"levelo://app?vid=679d1ae8-97fb-4af3-b1d7-b555e80cbef5","ios":"levelo://app?vid=679d1ae8-97fb-4af3-b1d7-b555e80cbef5"},"vehicle_type_id":"4","last_reported":1768472041,"current_range_meters":4400,"station_id":"ce4bhq12rcd13ifvqhhg","pricing_plan_id":"cebpf4jnsgd1na2vs0mg"},{"bike_id":"86aaef4b-aac1-4248-ac79-0d9f37b8c62f","system_id":"levelo_inurba_marseille","lat":43.27317,"lon":5.41682,"is_reserved":false,"is_disabled":false,"rental_uris":{"android":"levelo://app?vid=86aaef4b-aac1-4248-ac79-0d9f37b8c62f","ios":"levelo://app?vid=86aaef4b-aac1-4248-ac79-0d9f37b8c62f"},"vehicle_type_id":"4","last_reported":1768472041,"current_range_meters":4400,"station_id":"","pricing_plan_id":"cebpf4jnsgd1na2vs0mg"},{"bike_id":"95812071-1d38-4617-a44b-6d68986b8d1a","system_id":"levelo_inurba_marseille","lat":43.304635,"lon":5.379108,"is_reserved":false,"is_disabled":false,"rental_uris":{"android":"levelo://app?vid=95812071-1d38-4617-a44b-6d68986b8d1a","ios":"levelo://app?vid=95812071-1d38-4617-a44b-6d68986b8d1a"},"vehicle_type_id":"4","last_reported":1768472041,"current_range_meters":4400,"station_id":"ce4bgs12rcd13ifvqcag","pricing_plan_id":"cebpf4jnsgd1na2vs0mg"},{"bike_id":"db12235e-29e0-4e51-a3d9-a120f6031f4f","system_id":"levelo_inurba_marseille","lat":43.25569,"lon":5.3827,"is_reserved":false,"is_disabled":false,"rental_uris":{"android":"levelo://app?vid=db12235e-29e0-4e51-a3d9-a120f6031f4f","ios":"levelo://app?vid=db12235e-29e0-4e51-a3d9-a120f6031f4f"},"vehicle_type_id":"4","last_reported":1768472041,"current_range_meters":4400,"station_id":"ce4bhih2rcd13ifvqfs0","pricing_plan_id":"cebpf4jnsgd1na2vs0mg"},{"bike_id":"87384fb8-33b0-438e-8b62-02166d183a2b","system_id":"levelo_inurba_marseille","lat":43.24171,"lon":5.37685,"is_reserved":false,"is_disabled":false,"rental_uris":{"android":"levelo://app?vid=87384fb8-33b0-438e-8b62-02166d183a2b","ios":"levelo://app?vid=87384fb8-33b0-438e-8b62-02166d183a2b"},"vehicle_type_id":"4","last_reported":1768472041,"current_range_meters":4400,"station_id":"","pricing_plan_id":"cebpf4jnsgd1na2vs0mg"},{"bike_id":"e2488757-5ad5-407b-9047-50027e916b17","system_id":"levelo_inurba_marseille","lat":43.27282,"lon":5.39149,"is_reserved":false,"is_disabled":false,"rental_uris":{"android":"levelo://app?vid=e2488757-5ad5-407b-9047-50027e916b17","ios":"levelo://app?vid=e2488757-5ad5-407b-9047-50027e916b17"},"vehicle_type_id":"4","last_reported":1768472041,"current_range_meters":4800,"station_id":"ce4bhgp2rcd13ifvqfe0","pricing_plan_id":"cebpf4jnsgd1na2vs0mg"},{"bike_id":"2f317efe-a01b-468a-9036-21dfc4cc3358","system_id":"levelo_inurba_marseille","lat":43.25809,"lon":5.39423,"is_reserved":false,"is_disabled":false,"rental_uris":{"android":"levelo://app?vid=2f317efe-a01b-468a-9036-21dfc4cc3358","ios":"levelo://app?vid=2f317efe-a01b-468a-9036-21dfc4cc3358"},"vehicle_type_id":"4","last_reported":1768472041,"current_range_meters":4800,"station_id":"ce4bhip2rcd13ifvqft0","pricing_plan_id":"cebpf4jnsgd1na2vs0mg"},{"bike_id":"2a682e48-4901-4884-af44-aaa6a8d2add6","system_id":"levelo_inurba_marseille","lat":43.24034,"lon":5.378,"is_reserved":false,"is_disabled":false,"rental_uris":{"android":"levelo://app?vid=2a682e48-4901-4884-af44-aaa6a8d2add6","ios":"levelo://app?vid=2a682e48-4901-4884-af44-aaa6a8d2add6"},"vehicle_type_id":"4","last_reported":1768472041,"current_range_meters":4800,"station_id":"ce4bhnp2rcd13ifvqgvg","pricing_plan_id":"cebpf4jnsgd1na2vs0mg"},{"bike_id":"5410fd45-b8b4-470d-9bd7-ad1acafbc363","system_id":"levelo_inurba_marseille","lat":43.28477,"lon":5.48396,"is_reserved":false,"is_disabled":false,"rental_uris":{"android":"levelo://app?vid=5410fd45-b8b4-470d-9bd7-ad1acafbc363","ios":"levelo://app?vid=5410fd45-b8b4-470d-9bd7-ad1acafbc363"},"vehicle_type_id":"4","last_reported":1768472041,"current_range_meters":4800,"station_id":"","pricing_plan_id":"cebpf4jnsgd1na2vs0mg"},{"bike_id":"ab4c7e8d-c082-49f2-ad38-3b04b1436978","system_id":"levelo_inurba_marseille","lat":43.22562,"lon":5.41638,"is_reserved":false,"is_disabled":false,"rental_uris":{"android":"levelo://app?vid=ab4c7e8d-c082-49f2-ad38-3b04b1436978","ios":"levelo://app?vid=ab4c7e8d-c082-49f2-ad38-3b04b1436978"},"vehicle_type_id":"4","last_reported":1768472041,"current_range_meters":4800,"station_id":"st_d2o4gvlbi1j2169b742g","pricing_plan_id":"cebpf4jnsgd1na2vs0mg"},{"bike_id":"b16c0fde-3570-452f-a37a-d567538e6b84","system_id":"levelo_inurba_marseille","lat":43.2903,"lon":5.37566,"is_reserved":false,"is_disabled":false,"rental_uris":{"android":"levelo://app?vid=b16c0fde-3570-452f-a37a-d567538e6b84","ios":"levelo://app?vid=b16c0fde-3570-452f-a37a-d567538e6b84"},"vehicle_type_id":"4","last_reported":1768472041,"current_range_meters":4800,"station_id":"ce4bh692rcd13ifvqe90","pricing_plan_id":"cebpf4jnsgd1na2vs0mg"},{"bike_id":"b54d7711-f055-409c-950d-e2c8bc74d3bc","system_id":"levelo_inurba_marseille","lat":43.24795,"lon":5.37423,"is_reserved":false,"is_disabled":false,"rental_uris":{"android":"levelo://app?vid=b54d7711-f055-409c-950d-e2c8bc74d3bc","ios":"levelo://app?vid=b54d7711-f055-409c-950d-e2c8bc74d3bc"},"vehicle_type_id":"4","last_reported":1768472041,"current_range_meters":4800,"station_id":"ce4bhgh2rcd13ifvqfb0","pricing_plan_id":"cebpf4jnsgd1na2vs0mg"},{"bike_id":"ef23ea73-3ebe-42fb-bc30-ae5c44b0766a","system_id":"levelo_inurba_marseille","lat":43.2892,"lon":5.36672,"is_reserved":false,"is_disabled":false,"rental_uris":{"android":"levelo://app?vid=ef23ea73-3ebe-42fb-bc30-ae5c44b0766a","ios":"levelo://app?vid=ef23ea73-3ebe-42fb-bc30-ae5c44b0766a"},"vehicle_type_id":"4","last_reported":1768472041,"current_range_meters":4800,"station_id":"ce4bhap2rcd13ifvqek0","pricing_plan_id":"cebpf4jnsgd1na2vs0mg"},{"bike_id":"f205c390-2986-4825-b57b-6986e00e8c78","system_id":"levelo_inurba_marseille","lat":43.25501,"lon":5.37652,"is_reserved":false,"is_disabled":false,"rental_uris":{"android":"levelo://app?vid=f205c390-2986-4825-b57b-6986e00e8c78","ios":"levelo://app?vid=f205c390-2986-4825-b57b-6986e00e8c78"},"vehicle_type_id":"4","last_reported":1768472041,"current_range_meters":4800,"station_id":"ce4bhh12rcd13ifvqff0","pricing_plan_id":"cebpf4jnsgd1na2vs0mg"},{"bike_id":"bd84cb71-5ea9-415a-9a74-e0fde3bc76e7","system_id":"levelo_inurba_marseille","lat":43.337444,"lon":5.374475,"is_reserved":false,"is_disabled":false,"rental_uris":{"android":"levelo://app?vid=bd84cb71-5ea9-415a-9a74-e0fde3bc76e7","ios":"levelo://app?vid=bd84cb71-5ea9-415a-9a74-e0fde3bc76e7"},"vehicle_type_id":"4","last_reported":1768472041,"current_range_meters":4800,"station_id":"ce4bhhh2rcd13ifvqfk0","pricing_plan_id":"cebpf4jnsgd1na2vs0mg"},{"bike_id":"c38ce724-bdd8-4fc0-a3d2-a15a2487cee1","system_id":"levelo_inurba_marseille","lat":43.25505,"lon":5.38325,"is_reserved":false,"is_disabled":false,"rental_uris":{"android":"levelo://app?vid=c38ce724-bdd8-4fc0-a3d2-a15a2487cee1","ios":"levelo://app?vid=c38ce724-bdd8-4fc0-a3d2-a15a2487cee1"},"vehicle_type_id":"4","last_reported":1768472041,"current_range_meters":5600,"station_id":"","pricing_plan_id":"cebpf4jnsgd1na2vs0mg"},{"bike_id":"9b891bc7-736a-44ad-92ba-66a9d9da41b7","system_id":"levelo_inurba_marseille","lat":43.26685,"lon":5.3826,"is_reserved":false,"is_disabled":false,"rental_uris":{"android":"levelo://app?vid=9b891bc7-736a-44ad-92ba-66a9d9da41b7","ios":"levelo://app?vid=9b891bc7-736a-44ad-92ba-66a9d9da41b7"},"vehicle_type_id":"4","last_reported":1768472041,"current_range_meters":5600,"station_id":"ce4bhg92rcd13ifvqf90","pricing_plan_id":"cebpf4jnsgd1na2vs0mg"},{"bike_id":"afdeb596-ef40-4bbe-8c30-a9de87911010","system_id":"levelo_inurba_marseille","lat":43.32476,"lon":5.36569,"is_reserved":false,"is_disabled":false,"rental_uris":{"android":"levelo://app?vid=afdeb596-ef40-4bbe-8c30-a9de87911010","ios":"levelo://app?vid=afdeb596-ef40-4bbe-8c30-a9de87911010"},"vehicle_type_id":"4","last_reported":1768472041,"current_range_meters":5600,"station_id":"ce4bhs12rcd13ifvqhvg","pricing_plan_id":"cebpf4jnsgd1na2vs0mg"},{"bike_id":"c8c9f1e3-cfb9-4095-8d70-4c877ea7f0b9","system_id":"levelo_inurba_marseille","lat":43.3159,"lon":5.38514,"is_reserved":false,"is_disabled":false,"rental_uris":{"android":"levelo://app?vid=c8c9f1e3-cfb9-4095-8d70-4c877ea7f0b9","ios":"levelo://app?vid=c8c9f1e3-cfb9-4095-8d70-4c877ea7f0b9"},"vehicle_type_id":"4","last_reported":1768472041,"current_range_meters":5600,"station_id":"","pricing_plan_id":"cebpf4jnsgd1na2vs0mg"},{"bike_id":"d8532247-4b56-4b32-8c34-c0667cdb8e9f","system_id":"levelo_inurba_marseille","lat":43.26955,"lon":5.38633,"is_reserved":false,"is_disabled":false,"rental_uris":{"android":"levelo://app?vid=d8532247-4b56-4b32-8c34-c0667cdb8e9f","ios":"levelo://app?vid=d8532247-4b56-4b32-8c34-c0667cdb8e9f"},"vehicle_type_id":"4","last_reported":1768472041,"current_range_meters":5600,"station_id":"ce4bhh92rcd13ifvqfh0","pricing_plan_id":"cebpf4jnsgd1na2vs0mg"},{"bike_id":"c8fd2661-ffed-44f1-96f4-fbda7837362a","system_id":"levelo_inurba_marseille","lat":43.29849,"lon":5.36278,"is_reserved":false,"is_disabled":false,"rental_uris":{"android":"levelo://app?vid=c8fd2661-ffed-44f1-96f4-fbda7837362a","ios":"levelo://app?vid=c8fd2661-ffed-44f1-96f4-fbda7837362a"},"vehicle_type_id":"4","last_reported":1768472041,"current_range_meters":5600,"station_id":"ce4bgpp2rcd13ifvqc3g","pricing_plan_id":"cebpf4jnsgd1na2vs0mg"},{"bike_id":"eed49fb6-1f40-48a7-b713-3e0bdada5c5e","system_id":"levelo_inurba_marseille","lat":43.25937,"lon":5.40906,"is_reserved":false,"is_disabled":false,"rental_uris":{"android":"levelo://app?vid=eed49fb6-1f40-48a7-b713-3e0bdada5c5e","ios":"levelo://app?vid=eed49fb6-1f40-48a7-b713-3e0bdada5c5e"},"vehicle_type_id":"4","last_reported":1768472041,"current_range_meters":5600,"station_id":"ce4bhm92rcd13ifvqglg","pricing_plan_id":"cebpf4jnsgd1na2vs0mg"},{"bike_id":"699c6bb0-1655-47f0-86fb-78256d649744","system_id":"levelo_inurba_marseille","lat":43.27808,"lon":5.40719,"is_reserved":false,"is_disabled":false,"rental_uris":{"android":"levelo://app?vid=699c6bb0-1655-47f0-86fb-78256d649744","ios":"levelo://app?vid=699c6bb0-1655-47f0-86fb-78256d649744"},"vehicle_type_id":"4","last_reported":1768472041,"current_range_meters":5600,"station_id":"ce4bhnh2rcd13ifvqgtg","pricing_plan_id":"cebpf4jnsgd1na2vs0mg"},{"bike_id":"f54561a1-f05b-428c-b451-6f4083cd97d1","system_id":"levelo_inurba_marseille","lat":43.26377,"lon":5.41038,"is_reserved":false,"is_disabled":false,"rental_uris":{"android":"levelo://app?vid=f54561a1-f05b-428c-b451-6f4083cd97d1","ios":"levelo://app?vid=f54561a1-f05b-428c-b451-6f4083cd97d1"},"vehicle_type_id":"4","last_reported":1768472041,"current_range_meters":5600,"station_id":"st_d4e5ca6na9uc73bfl5fg","pricing_plan_id":"cebpf4jnsgd1na2vs0mg"},{"bike_id":"6b2e2d32-9e8a-4b17-85ab-8759bd0e67a3","system_id":"levelo_inurba_marseille","lat":43.28937,"lon":5.36632,"is_reserved":false,"is_disabled":false,"rental_uris":{"android":"levelo://app?vid=6b2e2d32-9e8a-4b17-85ab-8759bd0e67a3","ios":"levelo://app?vid=6b2e2d32-9e8a-4b17-85ab-8759bd0e67a3"},"vehicle_type_id":"4","last_reported":1768472041,"current_range_meters":5600,"station_id":"ce4bhap2rcd13ifvqek0","pricing_plan_id":"cebpf4jnsgd1na2vs0mg"},{"bike_id":"d969dc06-74de-4e11-bf39-9e12c3807e44","system_id":"levelo_inurba_marseille","lat":43.26559,"lon":5.4032,"is_reserved":false,"is_disabled":false,"rental_uris":{"android":"levelo://app?vid=d969dc06-74de-4e11-bf39-9e12c3807e44","ios":"levelo://app?vid=d969dc06-74de-4e11-bf39-9e12c3807e44"},"vehicle_type_id":"4","last_reported":1768472041,"current_range_meters":6000,"station_id":"ce4bhmp2rcd13ifvqgng","pricing_plan_id":"cebpf4jnsgd1na2vs0mg"},{"bike_id":"6d05d8e2-3fcb-4612-b5ef-50514af528e9","system_id":"levelo_inurba_marseille","lat":43.324884,"lon":5.3656,"is_reserved":false,"is_disabled":false,"rental_uris":{"android":"levelo://app?vid=6d05d8e2-3fcb-4612-b5ef-50514af528e9","ios":"levelo://app?vid=6d05d8e2-3fcb-4612-b5ef-50514af528e9"},"vehicle_type_id":"4","last_reported":1768472041,"current_range_meters":6000,"station_id":"ce4bhs12rcd13ifvqhvg","pricing_plan_id":"cebpf4jnsgd1na2vs0mg"},{"bike_id":"634a5032-07c2-4ad0-b886-0e21c013fdce","system_id":"levelo_inurba_marseille","lat":43.25565,"lon":5.38242,"is_reserved":false,"is_disabled":false,"rental_uris":{"android":"levelo://app?vid=634a5032-07c2-4ad0-b886-0e21c013fdce","ios":"levelo://app?vid=634a5032-07c2-4ad0-b886-0e21c013fdce"},"vehicle_type_id":"4","last_reported":1768472041,"current_range_meters":6000,"station_id":"ce4bhih2rcd13ifvqfs0","pricing_plan_id":"cebpf4jnsgd1na2vs0mg"},{"bike_id":"d8b52035-9107-4203-ba3b-8ab85229defc","system_id":"levelo_inurba_marseille","lat":43.25627,"lon":5.40029,"is_reserved":false,"is_disabled":false,"rental_uris":{"android":"levelo://app?vid=d8b52035-9107-4203-ba3b-8ab85229defc","ios":"levelo://app?vid=d8b52035-9107-4203-ba3b-8ab85229defc"},"vehicle_type_id":"4","last_reported":1768472041,"current_range_meters":6000,"station_id":"","pricing_plan_id":"cebpf4jnsgd1na2vs0mg"},{"bike_id":"e952da8e-9048-43f7-9fc2-32c004c50d8a","system_id":"levelo_inurba_marseille","lat":43.24062,"lon":5.3773,"is_reserved":false,"is_disabled":false,"rental_uris":{"android":"levelo://app?vid=e952da8e-9048-43f7-9fc2-32c004c50d8a","ios":"levelo://app?vid=e952da8e-9048-43f7-9fc2-32c004c50d8a"},"vehicle_type_id":"4","last_reported":1768472041,"current_range_meters":6000,"station_id":"ce4bhnp2rcd13ifvqgvg","pricing_plan_id":"cebpf4jnsgd1na2vs0mg"},{"bike_id":"e11889a7-dd00-4680-82ad-dc48c0a7f8b9","system_id":"levelo_inurba_marseille","lat":43.25513,"lon":5.37666,"is_reserved":false,"is_disabled":false,"rental_uris":{"android":"levelo://app?vid=e11889a7-dd00-4680-82ad-dc48c0a7f8b9","ios":"levelo://app?vid=e11889a7-dd00-4680-82ad-dc48c0a7f8b9"},"vehicle_type_id":"4","last_reported":1768472041,"current_range_meters":6000,"station_id":"","pricing_plan_id":"cebpf4jnsgd1na2vs0mg"},{"bike_id":"aac02660-451c-4466-97cc-03bd6873da26","system_id":"levelo_inurba_marseille","lat":43.24808,"lon":5.37456,"is_reserved":false,"is_disabled":false,"rental_uris":{"android":"levelo://app?vid=aac02660-451c-4466-97cc-03bd6873da26","ios":"levelo://app?vid=aac02660-451c-4466-97cc-03bd6873da26"},"vehicle_type_id":"4","last_reported":1768472041,"current_range_meters":6000,"station_id":"ce4bhgh2rcd13ifvqfb0","pricing_plan_id":"cebpf4jnsgd1na2vs0mg"},{"bike_id":"3b326f81-b0c4-4b16-a9c9-f528a517d078","system_id":"levelo_inurba_marseille","lat":43.23157,"lon":5.35603,"is_reserved":false,"is_disabled":false,"rental_uris":{"android":"levelo://app?vid=3b326f81-b0c4-4b16-a9c9-f528a517d078","ios":"levelo://app?vid=3b326f81-b0c4-4b16-a9c9-f528a517d078"},"vehicle_type_id":"4","last_reported":1768472041,"current_range_meters":6000,"station_id":"","pricing_plan_id":"cebpf4jnsgd1na2vs0mg"},{"bike_id":"554c04e7-941a-4c22-b472-97e077e3a312","system_id":"levelo_inurba_marseille","lat":43.301337,"lon":5.403835,"is_reserved":false,"is_disabled":false,"rental_uris":{"android":"levelo://app?vid=554c04e7-941a-4c22-b472-97e077e3a312","ios":"levelo://app?vid=554c04e7-941a-4c22-b472-97e077e3a312"},"vehicle_type_id":"4","last_reported":1768472041,"current_range_meters":6000,"station_id":"","pricing_plan_id":"cebpf4jnsgd1na2vs0mg"},{"bike_id":"fcb68c86-ffd2-420c-85ae-f616f828cbd4","system_id":"levelo_inurba_marseille","lat":43.259312,"lon":5.409105,"is_reserved":false,"is_disabled":false,"rental_uris":{"android":"levelo://app?vid=fcb68c86-ffd2-420c-85ae-f616f828cbd4","ios":"levelo://app?vid=fcb68c86-ffd2-420c-85ae-f616f828cbd4"},"vehicle_type_id":"4","last_reported":1768472041,"current_range_meters":6000,"station_id":"ce4bhm92rcd13ifvqglg","pricing_plan_id":"cebpf4jnsgd1na2vs0mg"},{"bike_id":"6e527d9a-9b2e-4ec4-9b9a-a4160f583068","system_id":"levelo_inurba_marseille","lat":43.31198,"lon":5.36872,"is_reserved":false,"is_disabled":false,"rental_uris":{"android":"levelo://app?vid=6e527d9a-9b2e-4ec4-9b9a-a4160f583068","ios":"levelo://app?vid=6e527d9a-9b2e-4ec4-9b9a-a4160f583068"},"vehicle_type_id":"4","last_reported":1768472041,"current_range_meters":6000,"station_id":"ce4bgl92rcd13ifvqbq0","pricing_plan_id":"cebpf4jnsgd1na2vs0mg"},{"bike_id":"6da68625-e4b7-41aa-96a7-da86f228b8ba","system_id":"levelo_inurba_marseille","lat":43.305328,"lon":5.367199,"is_reserved":false,"is_disabled":false,"rental_uris":{"android":"levelo://app?vid=6da68625-e4b7-41aa-96a7-da86f228b8ba","ios":"levelo://app?vid=6da68625-e4b7-41aa-96a7-da86f228b8ba"},"vehicle_type_id":"4","last_reported":1768472041,"current_range_meters":6000,"station_id":"ce4bgrp2rcd13ifvqc9g","pricing_plan_id":"cebpf4jnsgd1na2vs0mg"},{"bike_id":"10e580fb-3a4d-48aa-a18d-73ca6a776e6c","system_id":"levelo_inurba_marseille","lat":43.26859,"lon":5.40664,"is_reserved":false,"is_disabled":false,"rental_uris":{"android":"levelo://app?vid=10e580fb-3a4d-48aa-a18d-73ca6a776e6c","ios":"levelo://app?vid=10e580fb-3a4d-48aa-a18d-73ca6a776e6c"},"vehicle_type_id":"4","last_reported":1768472041,"current_range_meters":6000,"station_id":"","pricing_plan_id":"cebpf4jnsgd1na2vs0mg"},{"bike_id":"b3817e2e-cdb9-4c8a-ac4e-2553b766e5fa","system_id":"levelo_inurba_marseille","lat":43.27803,"lon":5.4072,"is_reserved":false,"is_disabled":false,"rental_uris":{"android":"levelo://app?vid=b3817e2e-cdb9-4c8a-ac4e-2553b766e5fa","ios":"levelo://app?vid=b3817e2e-cdb9-4c8a-ac4e-2553b766e5fa"},"vehicle_type_id":"4","last_reported":1768472041,"current_range_meters":6400,"station_id":"ce4bhnh2rcd13ifvqgtg","pricing_plan_id":"cebpf4jnsgd1na2vs0mg"},{"bike_id":"87a1fc3a-bcb6-4a5c-877a-e3a1ba5af635","system_id":"levelo_inurba_marseille","lat":43.26484,"lon":5.39566,"is_reserved":false,"is_disabled":false,"rental_uris":{"android":"levelo://app?vid=87a1fc3a-bcb6-4a5c-877a-e3a1ba5af635","ios":"levelo://app?vid=87a1fc3a-bcb6-4a5c-877a-e3a1ba5af635"},"vehicle_type_id":"4","last_reported":1768472041,"current_range_meters":6400,"station_id":"ce4bhi12rcd13ifvqfq0","pricing_plan_id":"cebpf4jnsgd1na2vs0mg"},{"bike_id":"6c8a2b6c-2dd5-4dba-a3a4-0a42ab9335d1","system_id":"levelo_inurba_marseille","lat":43.26021,"lon":5.37556,"is_reserved":false,"is_disabled":false,"rental_uris":{"android":"levelo://app?vid=6c8a2b6c-2dd5-4dba-a3a4-0a42ab9335d1","ios":"levelo://app?vid=6c8a2b6c-2dd5-4dba-a3a4-0a42ab9335d1"},"vehicle_type_id":"4","last_reported":1768472041,"current_range_meters":6400,"station_id":"ce4bhgh2rcd13ifvqfa0","pricing_plan_id":"cebpf4jnsgd1na2vs0mg"},{"bike_id":"79392504-5a94-4a98-99c7-e5cd71342811","system_id":"levelo_inurba_marseille","lat":43.26943,"lon":5.38637,"is_reserved":false,"is_disabled":false,"rental_uris":{"android":"levelo://app?vid=79392504-5a94-4a98-99c7-e5cd71342811","ios":"levelo://app?vid=79392504-5a94-4a98-99c7-e5cd71342811"},"vehicle_type_id":"4","last_reported":1768472041,"current_range_meters":6400,"station_id":"ce4bhh92rcd13ifvqfh0","pricing_plan_id":"cebpf4jnsgd1na2vs0mg"},{"bike_id":"6d5b743f-0d0d-4728-9aac-92cae33bf20c","system_id":"levelo_inurba_marseille","lat":43.25578,"lon":5.38232,"is_reserved":false,"is_disabled":false,"rental_uris":{"android":"levelo://app?vid=6d5b743f-0d0d-4728-9aac-92cae33bf20c","ios":"levelo://app?vid=6d5b743f-0d0d-4728-9aac-92cae33bf20c"},"vehicle_type_id":"4","last_reported":1768472041,"current_range_meters":6400,"station_id":"ce4bhih2rcd13ifvqfs0","pricing_plan_id":"cebpf4jnsgd1na2vs0mg"},{"bike_id":"d3e16ca1-b369-4c12-a378-ec2fb22e55a7","system_id":"levelo_inurba_marseille","lat":43.29195,"lon":5.36125,"is_reserved":false,"is_disabled":false,"rental_uris":{"android":"levelo://app?vid=d3e16ca1-b369-4c12-a378-ec2fb22e55a7","ios":"levelo://app?vid=d3e16ca1-b369-4c12-a378-ec2fb22e55a7"},"vehicle_type_id":"4","last_reported":1768472041,"current_range_meters":6400,"station_id":"","pricing_plan_id":"cebpf4jnsgd1na2vs0mg"},{"bike_id":"8bfc6f87-ba42-416e-bcc5-a75137158043","system_id":"levelo_inurba_marseille","lat":43.26375,"lon":5.41089,"is_reserved":false,"is_disabled":false,"rental_uris":{"android":"levelo://app?vid=8bfc6f87-ba42-416e-bcc5-a75137158043","ios":"levelo://app?vid=8bfc6f87-ba42-416e-bcc5-a75137158043"},"vehicle_type_id":"4","last_reported":1768472041,"current_range_meters":6400,"station_id":"st_d4e5ca6na9uc73bfl5fg","pricing_plan_id":"cebpf4jnsgd1na2vs0mg"},{"bike_id":"83b24877-4fa1-4cbc-9729-5d9b1f26a09d","system_id":"levelo_inurba_marseille","lat":43.29622,"lon":5.39178,"is_reserved":false,"is_disabled":false,"rental_uris":{"android":"levelo://app?vid=83b24877-4fa1-4cbc-9729-5d9b1f26a09d","ios":"levelo://app?vid=83b24877-4fa1-4cbc-9729-5d9b1f26a09d"},"vehicle_type_id":"4","last_reported":1768472041,"current_range_meters":6400,"station_id":"","pricing_plan_id":"cebpf4jnsgd1na2vs0mg"},{"bike_id":"03bea929-ded9-4f0a-b535-3ced67ddbf39","system_id":"levelo_inurba_marseille","lat":43.24646,"lon":5.4316,"is_reserved":false,"is_disabled":false,"rental_uris":{"android":"levelo://app?vid=03bea929-ded9-4f0a-b535-3ced67ddbf39","ios":"levelo://app?vid=03bea929-ded9-4f0a-b535-3ced67ddbf39"},"vehicle_type_id":"4","last_reported":1768472041,"current_range_meters":6400,"station_id":"st_d2m6c4gdas8pm72e190g","pricing_plan_id":"cebpf4jnsgd1na2vs0mg"},{"bike_id":"a0f52225-7494-4288-930e-754a2be76d00","system_id":"levelo_inurba_marseille","lat":43.30882,"lon":5.39642,"is_reserved":false,"is_disabled":false,"rental_uris":{"android":"levelo://app?vid=a0f52225-7494-4288-930e-754a2be76d00","ios":"levelo://app?vid=a0f52225-7494-4288-930e-754a2be76d00"},"vehicle_type_id":"4","last_reported":1768472041,"current_range_meters":6400,"station_id":"ce4bh012rcd13ifvqcv0","pricing_plan_id":"cebpf4jnsgd1na2vs0mg"},{"bike_id":"058815fc-ca55-4e6d-b250-85a177c75976","system_id":"levelo_inurba_marseille","lat":43.30459,"lon":5.37912,"is_reserved":false,"is_disabled":false,"rental_uris":{"android":"levelo://app?vid=058815fc-ca55-4e6d-b250-85a177c75976","ios":"levelo://app?vid=058815fc-ca55-4e6d-b250-85a177c75976"},"vehicle_type_id":"4","last_reported":1768472041,"current_range_meters":6400,"station_id":"ce4bgup2rcd13ifvqcn0","pricing_plan_id":"cebpf4jnsgd1na2vs0mg"},{"bike_id":"5468c630-a3ef-4249-ae77-0e2bb364ec25","system_id":"levelo_inurba_marseille","lat":43.27208,"lon":5.39184,"is_reserved":false,"is_disabled":false,"rental_uris":{"android":"levelo://app?vid=5468c630-a3ef-4249-ae77-0e2bb364ec25","ios":"levelo://app?vid=5468c630-a3ef-4249-ae77-0e2bb364ec25"},"vehicle_type_id":"4","last_reported":1768472041,"current_range_meters":6400,"station_id":"ce4bhhp2rcd13ifvqfm0","pricing_plan_id":"cebpf4jnsgd1na2vs0mg"},{"bike_id":"62f88f8a-2fa4-4dc7-b96b-5613aa23459e","system_id":"levelo_inurba_marseille","lat":43.24988,"lon":5.38945,"is_reserved":false,"is_disabled":false,"rental_uris":{"android":"levelo://app?vid=62f88f8a-2fa4-4dc7-b96b-5613aa23459e","ios":"levelo://app?vid=62f88f8a-2fa4-4dc7-b96b-5613aa23459e"},"vehicle_type_id":"4","last_reported":1768472041,"current_range_meters":6400,"station_id":"ce4bhgp2rcd13ifvqfd0","pricing_plan_id":"cebpf4jnsgd1na2vs0mg"},{"bike_id":"6858eccd-06f5-4b7f-a1b2-97c16452b7d5","system_id":"levelo_inurba_marseille","lat":43.22562,"lon":5.41645,"is_reserved":false,"is_disabled":false,"rental_uris":{"android":"levelo://app?vid=6858eccd-06f5-4b7f-a1b2-97c16452b7d5","ios":"levelo://app?vid=6858eccd-06f5-4b7f-a1b2-97c16452b7d5"},"vehicle_type_id":"4","last_reported":1768472041,"current_range_meters":6400,"station_id":"st_d2o4gvlbi1j2169b742g","pricing_plan_id":"cebpf4jnsgd1na2vs0mg"},{"bike_id":"68ae23aa-b332-4f3e-8a51-bb845df82b9e","system_id":"levelo_inurba_marseille","lat":43.25577,"lon":5.38236,"is_reserved":false,"is_disabled":false,"rental_uris":{"android":"levelo://app?vid=68ae23aa-b332-4f3e-8a51-bb845df82b9e","ios":"levelo://app?vid=68ae23aa-b332-4f3e-8a51-bb845df82b9e"},"vehicle_type_id":"4","last_reported":1768472041,"current_range_meters":6400,"station_id":"","pricing_plan_id":"cebpf4jnsgd1na2vs0mg"},{"bike_id":"896257ab-e036-460e-8595-b66201be0194","system_id":"levelo_inurba_marseille","lat":43.27498,"lon":5.42469,"is_reserved":false,"is_disabled":false,"rental_uris":{"android":"levelo://app?vid=896257ab-e036-460e-8595-b66201be0194","ios":"levelo://app?vid=896257ab-e036-460e-8595-b66201be0194"},"vehicle_type_id":"4","last_reported":1768472041,"current_range_meters":6800,"station_id":"ce4bhn92rcd13ifvqgrg","pricing_plan_id":"cebpf4jnsgd1na2vs0mg"},{"bike_id":"b02e7b3d-bfa1-4a73-bfb4-3a8d24b24cf4","system_id":"levelo_inurba_marseille","lat":43.25507,"lon":5.37657,"is_reserved":false,"is_disabled":false,"rental_uris":{"android":"levelo://app?vid=b02e7b3d-bfa1-4a73-bfb4-3a8d24b24cf4","ios":"levelo://app?vid=b02e7b3d-bfa1-4a73-bfb4-3a8d24b24cf4"},"vehicle_type_id":"4","last_reported":1768472041,"current_range_meters":6800,"station_id":"ce4bhh12rcd13ifvqff0","pricing_plan_id":"cebpf4jnsgd1na2vs0mg"},{"bike_id":"f2fc801a-e3cc-404f-b71d-539c9360aad7","system_id":"levelo_inurba_marseille","lat":43.269525,"lon":5.386342,"is_reserved":false,"is_disabled":false,"rental_uris":{"android":"levelo://app?vid=f2fc801a-e3cc-404f-b71d-539c9360aad7","ios":"levelo://app?vid=f2fc801a-e3cc-404f-b71d-539c9360aad7"},"vehicle_type_id":"4","last_reported":1768472041,"current_range_meters":6800,"station_id":"ce4bhh92rcd13ifvqfh0","pricing_plan_id":"cebpf4jnsgd1na2vs0mg"},{"bike_id":"5cfd03cf-24a1-4762-9fb7-26a053abe44f","system_id":"levelo_inurba_marseille","lat":43.25833,"lon":5.39444,"is_reserved":false,"is_disabled":false,"rental_uris":{"android":"levelo://app?vid=5cfd03cf-24a1-4762-9fb7-26a053abe44f","ios":"levelo://app?vid=5cfd03cf-24a1-4762-9fb7-26a053abe44f"},"vehicle_type_id":"4","last_reported":1768472041,"current_range_meters":6800,"station_id":"ce4bhip2rcd13ifvqft0","pricing_plan_id":"cebpf4jnsgd1na2vs0mg"},{"bike_id":"131526c5-c57d-4505-a670-d6e5ec7493cc","system_id":"levelo_inurba_marseille","lat":43.29823,"lon":5.38082,"is_reserved":false,"is_disabled":false,"rental_uris":{"android":"levelo://app?vid=131526c5-c57d-4505-a670-d6e5ec7493cc","ios":"levelo://app?vid=131526c5-c57d-4505-a670-d6e5ec7493cc"},"vehicle_type_id":"4","last_reported":1768472041,"current_range_meters":6800,"station_id":"ce4bgip2rcd13ifvqbb0","pricing_plan_id":"cebpf4jnsgd1na2vs0mg"},{"bike_id":"a3a68054-3a27-4a78-8534-42fd98fd0061","system_id":"levelo_inurba_marseille","lat":43.25579,"lon":5.3824,"is_reserved":false,"is_disabled":false,"rental_uris":{"android":"levelo://app?vid=a3a68054-3a27-4a78-8534-42fd98fd0061","ios":"levelo://app?vid=a3a68054-3a27-4a78-8534-42fd98fd0061"},"vehicle_type_id":"4","last_reported":1768472041,"current_range_meters":6800,"station_id":"ce4bhih2rcd13ifvqfs0","pricing_plan_id":"cebpf4jnsgd1na2vs0mg"},{"bike_id":"027c6635-f334-4e8c-88a0-e51b1cef62a5","system_id":"levelo_inurba_marseille","lat":43.26683,"lon":5.38283,"is_reserved":false,"is_disabled":true,"rental_uris":{"android":"levelo://app?vid=027c6635-f334-4e8c-88a0-e51b1cef62a5","ios":"levelo://app?vid=027c6635-f334-4e8c-88a0-e51b1cef62a5"},"vehicle_type_id":"4","last_reported":1768472041,"current_range_meters":6800,"station_id":"ce4bhg92rcd13ifvqf90","pricing_plan_id":"cebpf4jnsgd1na2vs0mg"},{"bike_id":"3838cd4d-7c68-4b09-a88f-b6682996a626","system_id":"levelo_inurba_marseille","lat":43.26231,"lon":5.40446,"is_reserved":false,"is_disabled":false,"rental_uris":{"android":"levelo://app?vid=3838cd4d-7c68-4b09-a88f-b6682996a626","ios":"levelo://app?vid=3838cd4d-7c68-4b09-a88f-b6682996a626"},"vehicle_type_id":"4","last_reported":1768472041,"current_range_meters":6800,"station_id":"ce4bhmh2rcd13ifvqgmg","pricing_plan_id":"cebpf4jnsgd1na2vs0mg"},{"bike_id":"f9fdbb48-1798-4538-9bda-de4b35ab0ad4","system_id":"levelo_inurba_marseille","lat":43.28117,"lon":5.38341,"is_reserved":false,"is_disabled":false,"rental_uris":{"android":"levelo://app?vid=f9fdbb48-1798-4538-9bda-de4b35ab0ad4","ios":"levelo://app?vid=f9fdbb48-1798-4538-9bda-de4b35ab0ad4"},"vehicle_type_id":"4","last_reported":1768472041,"current_range_meters":6800,"station_id":"","pricing_plan_id":"cebpf4jnsgd1na2vs0mg"},{"bike_id":"36d15c95-0df2-4ad9-802a-9cdd70f9d16d","system_id":"levelo_inurba_marseille","lat":43.240748,"lon":5.377603,"is_reserved":false,"is_disabled":false,"rental_uris":{"android":"levelo://app?vid=36d15c95-0df2-4ad9-802a-9cdd70f9d16d","ios":"levelo://app?vid=36d15c95-0df2-4ad9-802a-9cdd70f9d16d"},"vehicle_type_id":"4","last_reported":1768472041,"current_range_meters":6800,"station_id":"ce4bhnp2rcd13ifvqgvg","pricing_plan_id":"cebpf4jnsgd1na2vs0mg"},{"bike_id":"b5ad29a0-462d-4d07-9a18-d87946a4398c","system_id":"levelo_inurba_marseille","lat":43.31146,"lon":5.38057,"is_reserved":false,"is_disabled":false,"rental_uris":{"android":"levelo://app?vid=b5ad29a0-462d-4d07-9a18-d87946a4398c","ios":"levelo://app?vid=b5ad29a0-462d-4d07-9a18-d87946a4398c"},"vehicle_type_id":"4","last_reported":1768472041,"current_range_meters":6800,"station_id":"","pricing_plan_id":"cebpf4jnsgd1na2vs0mg"},{"bike_id":"45560b8c-0e05-4e12-aadd-6d4f84ae2310","system_id":"levelo_inurba_marseille","lat":43.2687,"lon":5.38911,"is_reserved":false,"is_disabled":false,"rental_uris":{"android":"levelo://app?vid=45560b8c-0e05-4e12-aadd-6d4f84ae2310","ios":"levelo://app?vid=45560b8c-0e05-4e12-aadd-6d4f84ae2310"},"vehicle_type_id":"4","last_reported":1768472041,"current_range_meters":6800,"station_id":"","pricing_plan_id":"cebpf4jnsgd1na2vs0mg"},{"bike_id":"f1d328ec-8a2c-4647-8162-9531bcbcb299","system_id":"levelo_inurba_marseille","lat":43.24456,"lon":5.41091,"is_reserved":false,"is_disabled":false,"rental_uris":{"android":"levelo://app?vid=f1d328ec-8a2c-4647-8162-9531bcbcb299","ios":"levelo://app?vid=f1d328ec-8a2c-4647-8162-9531bcbcb299"},"vehicle_type_id":"4","last_reported":1768472041,"current_range_meters":6800,"station_id":"","pricing_plan_id":"cebpf4jnsgd1na2vs0mg"},{"bike_id":"d78a48ea-39a0-4d9b-b0e7-f144e9acb1ee","system_id":"levelo_inurba_marseille","lat":43.25505,"lon":5.37647,"is_reserved":false,"is_disabled":false,"rental_uris":{"android":"levelo://app?vid=d78a48ea-39a0-4d9b-b0e7-f144e9acb1ee","ios":"levelo://app?vid=d78a48ea-39a0-4d9b-b0e7-f144e9acb1ee"},"vehicle_type_id":"4","last_reported":1768472041,"current_range_meters":6800,"station_id":"ce4bhh12rcd13ifvqff0","pricing_plan_id":"cebpf4jnsgd1na2vs0mg"},{"bike_id":"f26e9a9c-efcf-4817-ad70-c481de1d89b3","system_id":"levelo_inurba_marseille","lat":43.26217,"lon":5.37442,"is_reserved":false,"is_disabled":false,"rental_uris":{"android":"levelo://app?vid=f26e9a9c-efcf-4817-ad70-c481de1d89b3","ios":"levelo://app?vid=f26e9a9c-efcf-4817-ad70-c481de1d89b3"},"vehicle_type_id":"4","last_reported":1768472041,"current_range_meters":7200,"station_id":"ce4bhgp2rcd13ifvqfc0","pricing_plan_id":"cebpf4jnsgd1na2vs0mg"},{"bike_id":"54ae17d3-f972-4236-b447-fa76bd8f3f82","system_id":"levelo_inurba_marseille","lat":43.24827,"lon":5.37464,"is_reserved":false,"is_disabled":false,"rental_uris":{"android":"levelo://app?vid=54ae17d3-f972-4236-b447-fa76bd8f3f82","ios":"levelo://app?vid=54ae17d3-f972-4236-b447-fa76bd8f3f82"},"vehicle_type_id":"4","last_reported":1768472041,"current_range_meters":7200,"station_id":"ce4bhgh2rcd13ifvqfb0","pricing_plan_id":"cebpf4jnsgd1na2vs0mg"},{"bike_id":"c03cd309-c737-47c4-a7e9-06a2667d9dfa","system_id":"levelo_inurba_marseille","lat":43.28528,"lon":5.44095,"is_reserved":false,"is_disabled":false,"rental_uris":{"android":"levelo://app?vid=c03cd309-c737-47c4-a7e9-06a2667d9dfa","ios":"levelo://app?vid=c03cd309-c737-47c4-a7e9-06a2667d9dfa"},"vehicle_type_id":"4","last_reported":1768472041,"current_range_meters":7200,"station_id":"st_d3j3df2ikq2c7380ej80","pricing_plan_id":"cebpf4jnsgd1na2vs0mg"},{"bike_id":"5c9cf652-9ff1-4da0-9873-4f32753db2aa","system_id":"levelo_inurba_marseille","lat":43.27152,"lon":5.41011,"is_reserved":false,"is_disabled":false,"rental_uris":{"android":"levelo://app?vid=5c9cf652-9ff1-4da0-9873-4f32753db2aa","ios":"levelo://app?vid=5c9cf652-9ff1-4da0-9873-4f32753db2aa"},"vehicle_type_id":"4","last_reported":1768472041,"current_range_meters":7200,"station_id":"ce4bhl12rcd13ifvqgf0","pricing_plan_id":"cebpf4jnsgd1na2vs0mg"},{"bike_id":"b55171e8-d457-4f60-ac77-c9b4a651d7d7","system_id":"levelo_inurba_marseille","lat":43.2821,"lon":5.39064,"is_reserved":false,"is_disabled":false,"rental_uris":{"android":"levelo://app?vid=b55171e8-d457-4f60-ac77-c9b4a651d7d7","ios":"levelo://app?vid=b55171e8-d457-4f60-ac77-c9b4a651d7d7"},"vehicle_type_id":"4","last_reported":1768472041,"current_range_meters":7200,"station_id":"ce4bhn92rcd13ifvqgsg","pricing_plan_id":"cebpf4jnsgd1na2vs0mg"},{"bike_id":"6f5bac51-1804-4cd4-beeb-e05c41221d16","system_id":"levelo_inurba_marseille","lat":43.30533,"lon":5.36715,"is_reserved":false,"is_disabled":false,"rental_uris":{"android":"levelo://app?vid=6f5bac51-1804-4cd4-beeb-e05c41221d16","ios":"levelo://app?vid=6f5bac51-1804-4cd4-beeb-e05c41221d16"},"vehicle_type_id":"4","last_reported":1768472041,"current_range_meters":7200,"station_id":"ce4bgrp2rcd13ifvqc9g","pricing_plan_id":"cebpf4jnsgd1na2vs0mg"},{"bike_id":"bc05764b-2136-45ba-8d47-48a061c67081","system_id":"levelo_inurba_marseille","lat":43.32535,"lon":5.41439,"is_reserved":false,"is_disabled":false,"rental_uris":{"android":"levelo://app?vid=bc05764b-2136-45ba-8d47-48a061c67081","ios":"levelo://app?vid=bc05764b-2136-45ba-8d47-48a061c67081"},"vehicle_type_id":"4","last_reported":1768472041,"current_range_meters":7200,"station_id":"ce4bhq12rcd13ifvqhhg","pricing_plan_id":"cebpf4jnsgd1na2vs0mg"},{"bike_id":"b51c6372-d6f8-4f60-88ea-74da3246daef","system_id":"levelo_inurba_marseille","lat":43.28853,"lon":5.35824,"is_reserved":false,"is_disabled":false,"rental_uris":{"android":"levelo://app?vid=b51c6372-d6f8-4f60-88ea-74da3246daef","ios":"levelo://app?vid=b51c6372-d6f8-4f60-88ea-74da3246daef"},"vehicle_type_id":"4","last_reported":1768472041,"current_range_meters":7200,"station_id":"ce4bhb12rcd13ifvqem0","pricing_plan_id":"cebpf4jnsgd1na2vs0mg"},{"bike_id":"1b6ddb5f-ae74-40e4-a07a-d0ca8346f17a","system_id":"levelo_inurba_marseille","lat":43.24073,"lon":5.37755,"is_reserved":false,"is_disabled":false,"rental_uris":{"android":"levelo://app?vid=1b6ddb5f-ae74-40e4-a07a-d0ca8346f17a","ios":"levelo://app?vid=1b6ddb5f-ae74-40e4-a07a-d0ca8346f17a"},"vehicle_type_id":"4","last_reported":1768472041,"current_range_meters":7200,"station_id":"ce4bhnp2rcd13ifvqgvg","pricing_plan_id":"cebpf4jnsgd1na2vs0mg"},{"bike_id":"b16db95a-1eae-47ad-b2e3-882874b3d4d4","system_id":"levelo_inurba_marseille","lat":43.28472,"lon":5.48418,"is_reserved":false,"is_disabled":false,"rental_uris":{"android":"levelo://app?vid=b16db95a-1eae-47ad-b2e3-882874b3d4d4","ios":"levelo://app?vid=b16db95a-1eae-47ad-b2e3-882874b3d4d4"},"vehicle_type_id":"4","last_reported":1768472041,"current_range_meters":7200,"station_id":"st_d3svhcjqgbts73a3dn0g","pricing_plan_id":"cebpf4jnsgd1na2vs0mg"},{"bike_id":"23694f2c-b2d4-4d58-b373-d1c7186e4244","system_id":"levelo_inurba_marseille","lat":43.297624,"lon":5.427663,"is_reserved":false,"is_disabled":false,"rental_uris":{"android":"levelo://app?vid=23694f2c-b2d4-4d58-b373-d1c7186e4244","ios":"levelo://app?vid=23694f2c-b2d4-4d58-b373-d1c7186e4244"},"vehicle_type_id":"4","last_reported":1768472041,"current_range_meters":7200,"station_id":"st_d3md5207bmas73dh9klg","pricing_plan_id":"cebpf4jnsgd1na2vs0mg"},{"bike_id":"153daeb6-1ced-443a-8511-9ccae5c5d53f","system_id":"levelo_inurba_marseille","lat":43.31805,"lon":5.37359,"is_reserved":false,"is_disabled":false,"rental_uris":{"android":"levelo://app?vid=153daeb6-1ced-443a-8511-9ccae5c5d53f","ios":"levelo://app?vid=153daeb6-1ced-443a-8511-9ccae5c5d53f"},"vehicle_type_id":"4","last_reported":1768472041,"current_range_meters":7200,"station_id":"","pricing_plan_id":"cebpf4jnsgd1na2vs0mg"},{"bike_id":"62cff86c-bf0a-4b43-ae8e-968f61077f04","system_id":"levelo_inurba_marseille","lat":43.30172,"lon":5.36624,"is_reserved":false,"is_disabled":false,"rental_uris":{"android":"levelo://app?vid=62cff86c-bf0a-4b43-ae8e-968f61077f04","ios":"levelo://app?vid=62cff86c-bf0a-4b43-ae8e-968f61077f04"},"vehicle_type_id":"4","last_reported":1768472041,"current_range_meters":7200,"station_id":"ce4bgrh2rcd13ifvqc8g","pricing_plan_id":"cebpf4jnsgd1na2vs0mg"},{"bike_id":"774ca479-5bb9-49b9-8ea6-99c5cf896279","system_id":"levelo_inurba_marseille","lat":43.24625,"lon":5.43159,"is_reserved":false,"is_disabled":false,"rental_uris":{"android":"levelo://app?vid=774ca479-5bb9-49b9-8ea6-99c5cf896279","ios":"levelo://app?vid=774ca479-5bb9-49b9-8ea6-99c5cf896279"},"vehicle_type_id":"4","last_reported":1768472041,"current_range_meters":7200,"station_id":"st_d2m6c4gdas8pm72e190g","pricing_plan_id":"cebpf4jnsgd1na2vs0mg"},{"bike_id":"1101d0d5-0629-4ad1-91b4-fe8c7892e906","system_id":"levelo_inurba_marseille","lat":43.28234,"lon":5.39049,"is_reserved":false,"is_disabled":false,"rental_uris":{"android":"levelo://app?vid=1101d0d5-0629-4ad1-91b4-fe8c7892e906","ios":"levelo://app?vid=1101d0d5-0629-4ad1-91b4-fe8c7892e906"},"vehicle_type_id":"4","last_reported":1768472041,"current_range_meters":7200,"station_id":"ce4bhn92rcd13ifvqgsg","pricing_plan_id":"cebpf4jnsgd1na2vs0mg"},{"bike_id":"1647898a-7e44-47a9-947d-d61611f1f7c8","system_id":"levelo_inurba_marseille","lat":43.239606,"lon":5.366277,"is_reserved":false,"is_disabled":false,"rental_uris":{"android":"levelo://app?vid=1647898a-7e44-47a9-947d-d61611f1f7c8","ios":"levelo://app?vid=1647898a-7e44-47a9-947d-d61611f1f7c8"},"vehicle_type_id":"4","last_reported":1768472041,"current_range_meters":7200,"station_id":"ce4bhi12rcd13ifvqfp0","pricing_plan_id":"cebpf4jnsgd1na2vs0mg"},{"bike_id":"1219abf5-dc5f-4753-a4ad-66106b94991e","system_id":"levelo_inurba_marseille","lat":43.290818,"lon":5.371661,"is_reserved":false,"is_disabled":false,"rental_uris":{"android":"levelo://app?vid=1219abf5-dc5f-4753-a4ad-66106b94991e","ios":"levelo://app?vid=1219abf5-dc5f-4753-a4ad-66106b94991e"},"vehicle_type_id":"4","last_reported":1768472041,"current_range_meters":7200,"station_id":"ce4bh5p2rcd13ifvqe4g","pricing_plan_id":"cebpf4jnsgd1na2vs0mg"},{"bike_id":"637bcef5-ae24-4804-8f17-ef45e184d3e3","system_id":"levelo_inurba_marseille","lat":43.29025,"lon":5.40028,"is_reserved":false,"is_disabled":false,"rental_uris":{"android":"levelo://app?vid=637bcef5-ae24-4804-8f17-ef45e184d3e3","ios":"levelo://app?vid=637bcef5-ae24-4804-8f17-ef45e184d3e3"},"vehicle_type_id":"4","last_reported":1768472041,"current_range_meters":7200,"station_id":"","pricing_plan_id":"cebpf4jnsgd1na2vs0mg"},{"bike_id":"18bad80f-7f5e-41cb-9735-a8241c24f0e1","system_id":"levelo_inurba_marseille","lat":43.30538,"lon":5.36713,"is_reserved":false,"is_disabled":false,"rental_uris":{"android":"levelo://app?vid=18bad80f-7f5e-41cb-9735-a8241c24f0e1","ios":"levelo://app?vid=18bad80f-7f5e-41cb-9735-a8241c24f0e1"},"vehicle_type_id":"4","last_reported":1768472041,"current_range_meters":7200,"station_id":"ce4bgrp2rcd13ifvqc9g","pricing_plan_id":"cebpf4jnsgd1na2vs0mg"},{"bike_id":"bbca5a78-1ee0-4dab-ba7e-f05d9beea402","system_id":"levelo_inurba_marseille","lat":43.23603,"lon":5.39909,"is_reserved":false,"is_disabled":false,"rental_uris":{"android":"levelo://app?vid=bbca5a78-1ee0-4dab-ba7e-f05d9beea402","ios":"levelo://app?vid=bbca5a78-1ee0-4dab-ba7e-f05d9beea402"},"vehicle_type_id":"4","last_reported":1768472041,"current_range_meters":7200,"station_id":"","pricing_plan_id":"cebpf4jnsgd1na2vs0mg"},{"bike_id":"7b14ebc5-4546-4fdd-b0dc-125d02ca41d3","system_id":"levelo_inurba_marseille","lat":43.29112,"lon":5.3816,"is_reserved":false,"is_disabled":false,"rental_uris":{"android":"levelo://app?vid=7b14ebc5-4546-4fdd-b0dc-125d02ca41d3","ios":"levelo://app?vid=7b14ebc5-4546-4fdd-b0dc-125d02ca41d3"},"vehicle_type_id":"4","last_reported":1768472041,"current_range_meters":7200,"station_id":"ce4bh512rcd13ifvqe2g","pricing_plan_id":"cebpf4jnsgd1na2vs0mg"},{"bike_id":"16e94614-28a4-4480-96fa-2a11192075d6","system_id":"levelo_inurba_marseille","lat":43.30536,"lon":5.36733,"is_reserved":false,"is_disabled":false,"rental_uris":{"android":"levelo://app?vid=16e94614-28a4-4480-96fa-2a11192075d6","ios":"levelo://app?vid=16e94614-28a4-4480-96fa-2a11192075d6"},"vehicle_type_id":"4","last_reported":1768472041,"current_range_meters":7200,"station_id":"ce4bgrp2rcd13ifvqc9g","pricing_plan_id":"cebpf4jnsgd1na2vs0mg"},{"bike_id":"d2b73451-12f0-496a-b396-840ef1c7bc9a","system_id":"levelo_inurba_marseille","lat":43.29013,"lon":5.37567,"is_reserved":false,"is_disabled":false,"rental_uris":{"android":"levelo://app?vid=d2b73451-12f0-496a-b396-840ef1c7bc9a","ios":"levelo://app?vid=d2b73451-12f0-496a-b396-840ef1c7bc9a"},"vehicle_type_id":"4","last_reported":1768472041,"current_range_meters":7200,"station_id":"ce4bh692rcd13ifvqe90","pricing_plan_id":"cebpf4jnsgd1na2vs0mg"},{"bike_id":"c2363ba3-644f-497c-984f-a69dd5e93016","system_id":"levelo_inurba_marseille","lat":43.33027,"lon":5.39039,"is_reserved":false,"is_disabled":false,"rental_uris":{"android":"levelo://app?vid=c2363ba3-644f-497c-984f-a69dd5e93016","ios":"levelo://app?vid=c2363ba3-644f-497c-984f-a69dd5e93016"},"vehicle_type_id":"4","last_reported":1768472041,"current_range_meters":7200,"station_id":"ce4bhr92rcd13ifvqhrg","pricing_plan_id":"cebpf4jnsgd1na2vs0mg"},{"bike_id":"ecc4495b-d102-4e01-8880-77a7ca8f5e65","system_id":"levelo_inurba_marseille","lat":43.24052,"lon":5.3776,"is_reserved":false,"is_disabled":false,"rental_uris":{"android":"levelo://app?vid=ecc4495b-d102-4e01-8880-77a7ca8f5e65","ios":"levelo://app?vid=ecc4495b-d102-4e01-8880-77a7ca8f5e65"},"vehicle_type_id":"4","last_reported":1768472041,"current_range_meters":8000,"station_id":"ce4bhnp2rcd13ifvqgvg","pricing_plan_id":"cebpf4jnsgd1na2vs0mg"},{"bike_id":"0cdf751e-50be-4213-adcd-ec4933b84284","system_id":"levelo_inurba_marseille","lat":43.28488,"lon":5.44186,"is_reserved":false,"is_disabled":false,"rental_uris":{"android":"levelo://app?vid=0cdf751e-50be-4213-adcd-ec4933b84284","ios":"levelo://app?vid=0cdf751e-50be-4213-adcd-ec4933b84284"},"vehicle_type_id":"4","last_reported":1768472041,"current_range_meters":8000,"station_id":"","pricing_plan_id":"cebpf4jnsgd1na2vs0mg"},{"bike_id":"b64b455e-be80-42fe-9f2c-680efd02c86b","system_id":"levelo_inurba_marseille","lat":43.28522,"lon":5.4411,"is_reserved":false,"is_disabled":false,"rental_uris":{"android":"levelo://app?vid=b64b455e-be80-42fe-9f2c-680efd02c86b","ios":"levelo://app?vid=b64b455e-be80-42fe-9f2c-680efd02c86b"},"vehicle_type_id":"4","last_reported":1768472041,"current_range_meters":8000,"station_id":"st_d3j3df2ikq2c7380ej80","pricing_plan_id":"cebpf4jnsgd1na2vs0mg"},{"bike_id":"b5f3a7b4-877b-4095-9b3e-ef56fafc41e3","system_id":"levelo_inurba_marseille","lat":43.26679,"lon":5.38269,"is_reserved":false,"is_disabled":false,"rental_uris":{"android":"levelo://app?vid=b5f3a7b4-877b-4095-9b3e-ef56fafc41e3","ios":"levelo://app?vid=b5f3a7b4-877b-4095-9b3e-ef56fafc41e3"},"vehicle_type_id":"4","last_reported":1768472041,"current_range_meters":8000,"station_id":"ce4bhg92rcd13ifvqf90","pricing_plan_id":"cebpf4jnsgd1na2vs0mg"},{"bike_id":"90c64ab6-178d-435d-a653-927559c34206","system_id":"levelo_inurba_marseille","lat":43.28269,"lon":5.35074,"is_reserved":false,"is_disabled":false,"rental_uris":{"android":"levelo://app?vid=90c64ab6-178d-435d-a653-927559c34206","ios":"levelo://app?vid=90c64ab6-178d-435d-a653-927559c34206"},"vehicle_type_id":"4","last_reported":1768472041,"current_range_meters":8000,"station_id":"ce4bhbp2rcd13ifvqerg","pricing_plan_id":"cebpf4jnsgd1na2vs0mg"},{"bike_id":"1c340ecf-5329-4963-b2cf-f6235ad0f417","system_id":"levelo_inurba_marseille","lat":43.30399,"lon":5.38897,"is_reserved":false,"is_disabled":false,"rental_uris":{"android":"levelo://app?vid=1c340ecf-5329-4963-b2cf-f6235ad0f417","ios":"levelo://app?vid=1c340ecf-5329-4963-b2cf-f6235ad0f417"},"vehicle_type_id":"4","last_reported":1768472041,"current_range_meters":8000,"station_id":"ce4bgk12rcd13ifvqbi0","pricing_plan_id":"cebpf4jnsgd1na2vs0mg"},{"bike_id":"b0af1aeb-c4d6-4641-bc9e-da7e6c1db235","system_id":"levelo_inurba_marseille","lat":43.321,"lon":5.36803,"is_reserved":false,"is_disabled":false,"rental_uris":{"android":"levelo://app?vid=b0af1aeb-c4d6-4641-bc9e-da7e6c1db235","ios":"levelo://app?vid=b0af1aeb-c4d6-4641-bc9e-da7e6c1db235"},"vehicle_type_id":"4","last_reported":1768472041,"current_range_meters":8000,"station_id":"ce4bhrh2rcd13ifvqhug","pricing_plan_id":"cebpf4jnsgd1na2vs0mg"},{"bike_id":"75422019-3005-404c-b749-06eb292054c7","system_id":"levelo_inurba_marseille","lat":43.24997,"lon":5.38936,"is_reserved":false,"is_disabled":false,"rental_uris":{"android":"levelo://app?vid=75422019-3005-404c-b749-06eb292054c7","ios":"levelo://app?vid=75422019-3005-404c-b749-06eb292054c7"},"vehicle_type_id":"4","last_reported":1768472041,"current_range_meters":8000,"station_id":"ce4bhgp2rcd13ifvqfd0","pricing_plan_id":"cebpf4jnsgd1na2vs0mg"},{"bike_id":"f1177697-24b8-4122-96be-92006a04ddc7","system_id":"levelo_inurba_marseille","lat":43.27795,"lon":5.40742,"is_reserved":false,"is_disabled":false,"rental_uris":{"android":"levelo://app?vid=f1177697-24b8-4122-96be-92006a04ddc7","ios":"levelo://app?vid=f1177697-24b8-4122-96be-92006a04ddc7"},"vehicle_type_id":"4","last_reported":1768472041,"current_range_meters":8000,"station_id":"ce4bhnh2rcd13ifvqgtg","pricing_plan_id":"cebpf4jnsgd1na2vs0mg"},{"bike_id":"24395efb-a997-4494-bcc1-e1dfa17547b3","system_id":"levelo_inurba_marseille","lat":43.22928,"lon":5.3538,"is_reserved":false,"is_disabled":false,"rental_uris":{"android":"levelo://app?vid=24395efb-a997-4494-bcc1-e1dfa17547b3","ios":"levelo://app?vid=24395efb-a997-4494-bcc1-e1dfa17547b3"},"vehicle_type_id":"4","last_reported":1768472041,"current_range_meters":8000,"station_id":"cpo3532slgdg3j2ikp40","pricing_plan_id":"cebpf4jnsgd1na2vs0mg"},{"bike_id":"9c05b402-e2ee-48d4-95f4-d4c7aaea64f3","system_id":"levelo_inurba_marseille","lat":43.29289,"lon":5.37168,"is_reserved":false,"is_disabled":false,"rental_uris":{"android":"levelo://app?vid=9c05b402-e2ee-48d4-95f4-d4c7aaea64f3","ios":"levelo://app?vid=9c05b402-e2ee-48d4-95f4-d4c7aaea64f3"},"vehicle_type_id":"4","last_reported":1768472041,"current_range_meters":8000,"station_id":"ce4bgh92rcd13ifvqb40","pricing_plan_id":"cebpf4jnsgd1na2vs0mg"},{"bike_id":"93dc1f92-2a26-4a59-9b69-836e505f270e","system_id":"levelo_inurba_marseille","lat":43.28926,"lon":5.36637,"is_reserved":false,"is_disabled":false,"rental_uris":{"android":"levelo://app?vid=93dc1f92-2a26-4a59-9b69-836e505f270e","ios":"levelo://app?vid=93dc1f92-2a26-4a59-9b69-836e505f270e"},"vehicle_type_id":"4","last_reported":1768472041,"current_range_meters":8000,"station_id":"ce4bhap2rcd13ifvqek0","pricing_plan_id":"cebpf4jnsgd1na2vs0mg"},{"bike_id":"445e6bb7-48c9-49a6-8c05-3a71a09b12a5","system_id":"levelo_inurba_marseille","lat":43.24064,"lon":5.37759,"is_reserved":false,"is_disabled":false,"rental_uris":{"android":"levelo://app?vid=445e6bb7-48c9-49a6-8c05-3a71a09b12a5","ios":"levelo://app?vid=445e6bb7-48c9-49a6-8c05-3a71a09b12a5"},"vehicle_type_id":"4","last_reported":1768472041,"current_range_meters":8000,"station_id":"ce4bhnp2rcd13ifvqgvg","pricing_plan_id":"cebpf4jnsgd1na2vs0mg"},{"bike_id":"8bc45254-6f0f-43bd-8e6f-6be6f5d1a38c","system_id":"levelo_inurba_marseille","lat":43.27961,"lon":5.38726,"is_reserved":false,"is_disabled":false,"rental_uris":{"android":"levelo://app?vid=8bc45254-6f0f-43bd-8e6f-6be6f5d1a38c","ios":"levelo://app?vid=8bc45254-6f0f-43bd-8e6f-6be6f5d1a38c"},"vehicle_type_id":"4","last_reported":1768472041,"current_range_meters":8000,"station_id":"ce4bhg12rcd13ifvqf80","pricing_plan_id":"cebpf4jnsgd1na2vs0mg"},{"bike_id":"0d6bc988-c343-451c-b163-1b5232525980","system_id":"levelo_inurba_marseille","lat":43.303744,"lon":5.424901,"is_reserved":false,"is_disabled":false,"rental_uris":{"android":"levelo://app?vid=0d6bc988-c343-451c-b163-1b5232525980","ios":"levelo://app?vid=0d6bc988-c343-451c-b163-1b5232525980"},"vehicle_type_id":"4","last_reported":1768472041,"current_range_meters":8000,"station_id":"ce4bhoh2rcd13ifvqh6g","pricing_plan_id":"cebpf4jnsgd1na2vs0mg"},{"bike_id":"6baed87d-c126-4bcc-900a-31be14aad376","system_id":"levelo_inurba_marseille","lat":43.24042,"lon":5.37764,"is_reserved":false,"is_disabled":false,"rental_uris":{"android":"levelo://app?vid=6baed87d-c126-4bcc-900a-31be14aad376","ios":"levelo://app?vid=6baed87d-c126-4bcc-900a-31be14aad376"},"vehicle_type_id":"4","last_reported":1768472041,"current_range_meters":8000,"station_id":"ce4bhnp2rcd13ifvqgvg","pricing_plan_id":"cebpf4jnsgd1na2vs0mg"},{"bike_id":"41228c21-f2a4-4778-ac23-94d962021708","system_id":"levelo_inurba_marseille","lat":43.240667,"lon":5.377493,"is_reserved":false,"is_disabled":false,"rental_uris":{"android":"levelo://app?vid=41228c21-f2a4-4778-ac23-94d962021708","ios":"levelo://app?vid=41228c21-f2a4-4778-ac23-94d962021708"},"vehicle_type_id":"4","last_reported":1768472041,"current_range_meters":8000,"station_id":"ce4bhnp2rcd13ifvqgvg","pricing_plan_id":"cebpf4jnsgd1na2vs0mg"},{"bike_id":"63b717d3-8bc4-42bb-ab91-43456ec96de6","system_id":"levelo_inurba_marseille","lat":43.29185,"lon":5.3932,"is_reserved":false,"is_disabled":false,"rental_uris":{"android":"levelo://app?vid=63b717d3-8bc4-42bb-ab91-43456ec96de6","ios":"levelo://app?vid=63b717d3-8bc4-42bb-ab91-43456ec96de6"},"vehicle_type_id":"4","last_reported":1768472041,"current_range_meters":8000,"station_id":"ce4bh192rcd13ifvqdd0","pricing_plan_id":"cebpf4jnsgd1na2vs0mg"},{"bike_id":"766b6315-d0e9-4f21-99cc-ac73caf0d81f","system_id":"levelo_inurba_marseille","lat":43.26768,"lon":5.39446,"is_reserved":false,"is_disabled":false,"rental_uris":{"android":"levelo://app?vid=766b6315-d0e9-4f21-99cc-ac73caf0d81f","ios":"levelo://app?vid=766b6315-d0e9-4f21-99cc-ac73caf0d81f"},"vehicle_type_id":"4","last_reported":1768472041,"current_range_meters":8000,"station_id":"","pricing_plan_id":"cebpf4jnsgd1na2vs0mg"},{"bike_id":"3b0aee46-29c5-43ec-8462-8fb48a443b5d","system_id":"levelo_inurba_marseille","lat":43.3135,"lon":5.36709,"is_reserved":false,"is_disabled":false,"rental_uris":{"android":"levelo://app?vid=3b0aee46-29c5-43ec-8462-8fb48a443b5d","ios":"levelo://app?vid=3b0aee46-29c5-43ec-8462-8fb48a443b5d"},"vehicle_type_id":"4","last_reported":1768472041,"current_range_meters":8000,"station_id":"ce4bgr92rcd13ifvqc6g","pricing_plan_id":"cebpf4jnsgd1na2vs0mg"},{"bike_id":"d14c563e-7d81-4312-b6b2-f8e7e772a5f6","system_id":"levelo_inurba_marseille","lat":43.23539,"lon":5.39993,"is_reserved":false,"is_disabled":false,"rental_uris":{"android":"levelo://app?vid=d14c563e-7d81-4312-b6b2-f8e7e772a5f6","ios":"levelo://app?vid=d14c563e-7d81-4312-b6b2-f8e7e772a5f6"},"vehicle_type_id":"4","last_reported":1768472041,"current_range_meters":8000,"station_id":"","pricing_plan_id":"cebpf4jnsgd1na2vs0mg"},{"bike_id":"9bcd64ec-0147-45ef-8911-27bb4d94049a","system_id":"levelo_inurba_marseille","lat":43.31758,"lon":5.39014,"is_reserved":false,"is_disabled":false,"rental_uris":{"android":"levelo://app?vid=9bcd64ec-0147-45ef-8911-27bb4d94049a","ios":"levelo://app?vid=9bcd64ec-0147-45ef-8911-27bb4d94049a"},"vehicle_type_id":"4","last_reported":1768472041,"current_range_meters":8000,"station_id":"ce4bhqp2rcd13ifvqhng","pricing_plan_id":"cebpf4jnsgd1na2vs0mg"},{"bike_id":"d1437624-7325-4411-87ce-3009f56ae813","system_id":"levelo_inurba_marseille","lat":43.27782,"lon":5.40768,"is_reserved":false,"is_disabled":false,"rental_uris":{"android":"levelo://app?vid=d1437624-7325-4411-87ce-3009f56ae813","ios":"levelo://app?vid=d1437624-7325-4411-87ce-3009f56ae813"},"vehicle_type_id":"4","last_reported":1768472041,"current_range_meters":8400,"station_id":"","pricing_plan_id":"cebpf4jnsgd1na2vs0mg"},{"bike_id":"90b93af0-412b-4411-b84f-f05186e4c304","system_id":"levelo_inurba_marseille","lat":43.29973,"lon":5.37178,"is_reserved":false,"is_disabled":false,"rental_uris":{"android":"levelo://app?vid=90b93af0-412b-4411-b84f-f05186e4c304","ios":"levelo://app?vid=90b93af0-412b-4411-b84f-f05186e4c304"},"vehicle_type_id":"4","last_reported":1768472041,"current_range_meters":8400,"station_id":"ce4bgr92rcd13ifvqc7g","pricing_plan_id":"cebpf4jnsgd1na2vs0mg"},{"bike_id":"9c685001-059a-497e-a588-12877963d9ac","system_id":"levelo_inurba_marseille","lat":43.31055,"lon":5.38355,"is_reserved":false,"is_disabled":true,"rental_uris":{"android":"levelo://app?vid=9c685001-059a-497e-a588-12877963d9ac","ios":"levelo://app?vid=9c685001-059a-497e-a588-12877963d9ac"},"vehicle_type_id":"4","last_reported":1768472041,"current_range_meters":8400,"station_id":"ce4bgv92rcd13ifvqcr0","pricing_plan_id":"cebpf4jnsgd1na2vs0mg"},{"bike_id":"82b87168-267f-432c-a609-70f7b40ac901","system_id":"levelo_inurba_marseille","lat":43.277189,"lon":5.407931,"is_reserved":false,"is_disabled":false,"rental_uris":{"android":"levelo://app?vid=82b87168-267f-432c-a609-70f7b40ac901","ios":"levelo://app?vid=82b87168-267f-432c-a609-70f7b40ac901"},"vehicle_type_id":"4","last_reported":1768472041,"current_range_meters":8400,"station_id":"","pricing_plan_id":"cebpf4jnsgd1na2vs0mg"},{"bike_id":"de053820-f473-4d4f-8be6-7eb46f3d1ea3","system_id":"levelo_inurba_marseille","lat":43.31036,"lon":5.39363,"is_reserved":false,"is_disabled":false,"rental_uris":{"android":"levelo://app?vid=de053820-f473-4d4f-8be6-7eb46f3d1ea3","ios":"levelo://app?vid=de053820-f473-4d4f-8be6-7eb46f3d1ea3"},"vehicle_type_id":"4","last_reported":1768472041,"current_range_meters":8400,"station_id":"","pricing_plan_id":"cebpf4jnsgd1na2vs0mg"},{"bike_id":"2c6fec2d-af2d-409a-8263-16905602afd6","system_id":"levelo_inurba_marseille","lat":43.31778,"lon":5.39004,"is_reserved":false,"is_disabled":false,"rental_uris":{"android":"levelo://app?vid=2c6fec2d-af2d-409a-8263-16905602afd6","ios":"levelo://app?vid=2c6fec2d-af2d-409a-8263-16905602afd6"},"vehicle_type_id":"4","last_reported":1768472041,"current_range_meters":8400,"station_id":"ce4bhl92rcd13ifvqghg","pricing_plan_id":"cebpf4jnsgd1na2vs0mg"},{"bike_id":"c5538688-8bbe-429d-93c8-273b5fcf8dfb","system_id":"levelo_inurba_marseille","lat":43.26568,"lon":5.39014,"is_reserved":false,"is_disabled":false,"rental_uris":{"android":"levelo://app?vid=c5538688-8bbe-429d-93c8-273b5fcf8dfb","ios":"levelo://app?vid=c5538688-8bbe-429d-93c8-273b5fcf8dfb"},"vehicle_type_id":"4","last_reported":1768472041,"current_range_meters":8400,"station_id":"ce4bhe12rcd13ifvqf30","pricing_plan_id":"cebpf4jnsgd1na2vs0mg"},{"bike_id":"ecf0d209-53b9-47e3-8f9f-faa8b0ad9eb4","system_id":"levelo_inurba_marseille","lat":43.2406,"lon":5.3774,"is_reserved":false,"is_disabled":false,"rental_uris":{"android":"levelo://app?vid=ecf0d209-53b9-47e3-8f9f-faa8b0ad9eb4","ios":"levelo://app?vid=ecf0d209-53b9-47e3-8f9f-faa8b0ad9eb4"},"vehicle_type_id":"4","last_reported":1768472041,"current_range_meters":8400,"station_id":"ce4bhnp2rcd13ifvqgvg","pricing_plan_id":"cebpf4jnsgd1na2vs0mg"},{"bike_id":"06245e80-6904-4c29-aeb0-ca3809e1e63e","system_id":"levelo_inurba_marseille","lat":43.2935,"lon":5.3785,"is_reserved":false,"is_disabled":false,"rental_uris":{"android":"levelo://app?vid=06245e80-6904-4c29-aeb0-ca3809e1e63e","ios":"levelo://app?vid=06245e80-6904-4c29-aeb0-ca3809e1e63e"},"vehicle_type_id":"4","last_reported":1768472041,"current_range_meters":8400,"station_id":"ce4bgjh2rcd13ifvqbf0","pricing_plan_id":"cebpf4jnsgd1na2vs0mg"},{"bike_id":"aa2e5a8a-d936-4d8f-b169-0b86047db1a7","system_id":"levelo_inurba_marseille","lat":43.22549,"lon":5.41635,"is_reserved":false,"is_disabled":false,"rental_uris":{"android":"levelo://app?vid=aa2e5a8a-d936-4d8f-b169-0b86047db1a7","ios":"levelo://app?vid=aa2e5a8a-d936-4d8f-b169-0b86047db1a7"},"vehicle_type_id":"4","last_reported":1768472041,"current_range_meters":8400,"station_id":"st_d2o4gvlbi1j2169b742g","pricing_plan_id":"cebpf4jnsgd1na2vs0mg"},{"bike_id":"b0591438-4f8b-458b-95d3-396e832bb098","system_id":"levelo_inurba_marseille","lat":43.22557,"lon":5.41624,"is_reserved":false,"is_disabled":false,"rental_uris":{"android":"levelo://app?vid=b0591438-4f8b-458b-95d3-396e832bb098","ios":"levelo://app?vid=b0591438-4f8b-458b-95d3-396e832bb098"},"vehicle_type_id":"4","last_reported":1768472041,"current_range_meters":8400,"station_id":"st_d2o4gvlbi1j2169b742g","pricing_plan_id":"cebpf4jnsgd1na2vs0mg"},{"bike_id":"0a109872-e118-4460-9b83-c1727cd85de3","system_id":"levelo_inurba_marseille","lat":43.26357,"lon":5.41068,"is_reserved":false,"is_disabled":false,"rental_uris":{"android":"levelo://app?vid=0a109872-e118-4460-9b83-c1727cd85de3","ios":"levelo://app?vid=0a109872-e118-4460-9b83-c1727cd85de3"},"vehicle_type_id":"4","last_reported":1768472041,"current_range_meters":8400,"station_id":"st_d4e5ca6na9uc73bfl5fg","pricing_plan_id":"cebpf4jnsgd1na2vs0mg"},{"bike_id":"8e2a1948-6333-4ed5-97a8-4616503a3850","system_id":"levelo_inurba_marseille","lat":43.266844,"lon":5.382749,"is_reserved":false,"is_disabled":false,"rental_uris":{"android":"levelo://app?vid=8e2a1948-6333-4ed5-97a8-4616503a3850","ios":"levelo://app?vid=8e2a1948-6333-4ed5-97a8-4616503a3850"},"vehicle_type_id":"4","last_reported":1768472041,"current_range_meters":8400,"station_id":"ce4bhg92rcd13ifvqf90","pricing_plan_id":"cebpf4jnsgd1na2vs0mg"},{"bike_id":"43d4ca27-6a07-4693-a96e-1ead9ceca26d","system_id":"levelo_inurba_marseille","lat":43.2976,"lon":5.42782,"is_reserved":false,"is_disabled":false,"rental_uris":{"android":"levelo://app?vid=43d4ca27-6a07-4693-a96e-1ead9ceca26d","ios":"levelo://app?vid=43d4ca27-6a07-4693-a96e-1ead9ceca26d"},"vehicle_type_id":"4","last_reported":1768472041,"current_range_meters":8400,"station_id":"st_d3md5207bmas73dh9klg","pricing_plan_id":"cebpf4jnsgd1na2vs0mg"},{"bike_id":"9798252a-9361-46ce-9695-59458b1329bc","system_id":"levelo_inurba_marseille","lat":43.23191,"lon":5.35554,"is_reserved":false,"is_disabled":false,"rental_uris":{"android":"levelo://app?vid=9798252a-9361-46ce-9695-59458b1329bc","ios":"levelo://app?vid=9798252a-9361-46ce-9695-59458b1329bc"},"vehicle_type_id":"4","last_reported":1768472041,"current_range_meters":8800,"station_id":"ce4bhu92rcd13ifvqi70","pricing_plan_id":"cebpf4jnsgd1na2vs0mg"},{"bike_id":"91dbe188-56c8-4fce-a414-d6e43ed9eb6b","system_id":"levelo_inurba_marseille","lat":43.26719,"lon":5.3996,"is_reserved":false,"is_disabled":false,"rental_uris":{"android":"levelo://app?vid=91dbe188-56c8-4fce-a414-d6e43ed9eb6b","ios":"levelo://app?vid=91dbe188-56c8-4fce-a414-d6e43ed9eb6b"},"vehicle_type_id":"4","last_reported":1768472041,"current_range_meters":8800,"station_id":"","pricing_plan_id":"cebpf4jnsgd1na2vs0mg"},{"bike_id":"becb4883-e03d-4141-9b48-e2d5d7c63907","system_id":"levelo_inurba_marseille","lat":43.25344,"lon":5.40209,"is_reserved":false,"is_disabled":false,"rental_uris":{"android":"levelo://app?vid=becb4883-e03d-4141-9b48-e2d5d7c63907","ios":"levelo://app?vid=becb4883-e03d-4141-9b48-e2d5d7c63907"},"vehicle_type_id":"4","last_reported":1768472041,"current_range_meters":8800,"station_id":"","pricing_plan_id":"cebpf4jnsgd1na2vs0mg"},{"bike_id":"311fd6a9-6bc8-41d0-ac40-a89fb207f919","system_id":"levelo_inurba_marseille","lat":43.26941,"lon":5.40262,"is_reserved":false,"is_disabled":false,"rental_uris":{"android":"levelo://app?vid=311fd6a9-6bc8-41d0-ac40-a89fb207f919","ios":"levelo://app?vid=311fd6a9-6bc8-41d0-ac40-a89fb207f919"},"vehicle_type_id":"4","last_reported":1768472041,"current_range_meters":8800,"station_id":"cjm6bp8fraef2m0cb0m0","pricing_plan_id":"cebpf4jnsgd1na2vs0mg"},{"bike_id":"cd45b6f7-a4b0-4eec-9337-a6659e55b722","system_id":"levelo_inurba_marseille","lat":43.25519,"lon":5.37645,"is_reserved":false,"is_disabled":false,"rental_uris":{"android":"levelo://app?vid=cd45b6f7-a4b0-4eec-9337-a6659e55b722","ios":"levelo://app?vid=cd45b6f7-a4b0-4eec-9337-a6659e55b722"},"vehicle_type_id":"4","last_reported":1768472041,"current_range_meters":8800,"station_id":"","pricing_plan_id":"cebpf4jnsgd1na2vs0mg"},{"bike_id":"cb1fa835-751e-4f0f-b010-d3e3044c82e2","system_id":"levelo_inurba_marseille","lat":43.28992,"lon":5.36905,"is_reserved":false,"is_disabled":false,"rental_uris":{"android":"levelo://app?vid=cb1fa835-751e-4f0f-b010-d3e3044c82e2","ios":"levelo://app?vid=cb1fa835-751e-4f0f-b010-d3e3044c82e2"},"vehicle_type_id":"4","last_reported":1768472041,"current_range_meters":8800,"station_id":"","pricing_plan_id":"cebpf4jnsgd1na2vs0mg"},{"bike_id":"be7debf4-b7b4-4286-bcc9-fdef528d147e","system_id":"levelo_inurba_marseille","lat":43.272077,"lon":5.391888,"is_reserved":false,"is_disabled":false,"rental_uris":{"android":"levelo://app?vid=be7debf4-b7b4-4286-bcc9-fdef528d147e","ios":"levelo://app?vid=be7debf4-b7b4-4286-bcc9-fdef528d147e"},"vehicle_type_id":"4","last_reported":1768472041,"current_range_meters":8800,"station_id":"ce4bhhp2rcd13ifvqfm0","pricing_plan_id":"cebpf4jnsgd1na2vs0mg"},{"bike_id":"0cd1e779-26e9-49c5-b773-f088de1cb9ab","system_id":"levelo_inurba_marseille","lat":43.26066,"lon":5.38523,"is_reserved":false,"is_disabled":false,"rental_uris":{"android":"levelo://app?vid=0cd1e779-26e9-49c5-b773-f088de1cb9ab","ios":"levelo://app?vid=0cd1e779-26e9-49c5-b773-f088de1cb9ab"},"vehicle_type_id":"4","last_reported":1768472041,"current_range_meters":8800,"station_id":"","pricing_plan_id":"cebpf4jnsgd1na2vs0mg"},{"bike_id":"fbca656e-02c6-47d2-8a61-af26f7f00021","system_id":"levelo_inurba_marseille","lat":43.25847,"lon":5.39938,"is_reserved":false,"is_disabled":false,"rental_uris":{"android":"levelo://app?vid=fbca656e-02c6-47d2-8a61-af26f7f00021","ios":"levelo://app?vid=fbca656e-02c6-47d2-8a61-af26f7f00021"},"vehicle_type_id":"4","last_reported":1768472041,"current_range_meters":8800,"station_id":"ce4bhl92rcd13ifvqghg","pricing_plan_id":"cebpf4jnsgd1na2vs0mg"},{"bike_id":"778fbfd4-e3fa-4d49-848e-08580a7ada1b","system_id":"levelo_inurba_marseille","lat":43.30462,"lon":5.3793,"is_reserved":false,"is_disabled":false,"rental_uris":{"android":"levelo://app?vid=778fbfd4-e3fa-4d49-848e-08580a7ada1b","ios":"levelo://app?vid=778fbfd4-e3fa-4d49-848e-08580a7ada1b"},"vehicle_type_id":"4","last_reported":1768472041,"current_range_meters":8800,"station_id":"ce4bgup2rcd13ifvqcn0","pricing_plan_id":"cebpf4jnsgd1na2vs0mg"},{"bike_id":"279013b8-07e8-4ef4-876c-0e7e6d0ed7f0","system_id":"levelo_inurba_marseille","lat":43.30421,"lon":5.38857,"is_reserved":false,"is_disabled":false,"rental_uris":{"android":"levelo://app?vid=279013b8-07e8-4ef4-876c-0e7e6d0ed7f0","ios":"levelo://app?vid=279013b8-07e8-4ef4-876c-0e7e6d0ed7f0"},"vehicle_type_id":"4","last_reported":1768472041,"current_range_meters":8800,"station_id":"ce4bgk12rcd13ifvqbi0","pricing_plan_id":"cebpf4jnsgd1na2vs0mg"},{"bike_id":"0ff0d52f-df0a-4289-92be-4422ab1a7116","system_id":"levelo_inurba_marseille","lat":43.29526,"lon":5.38559,"is_reserved":false,"is_disabled":false,"rental_uris":{"android":"levelo://app?vid=0ff0d52f-df0a-4289-92be-4422ab1a7116","ios":"levelo://app?vid=0ff0d52f-df0a-4289-92be-4422ab1a7116"},"vehicle_type_id":"4","last_reported":1768472041,"current_range_meters":8800,"station_id":"ce4bgih2rcd13ifvqba0","pricing_plan_id":"cebpf4jnsgd1na2vs0mg"},{"bike_id":"1624d9fa-6133-4502-99c8-6f0dfa37654b","system_id":"levelo_inurba_marseille","lat":43.32336,"lon":5.38495,"is_reserved":false,"is_disabled":false,"rental_uris":{"android":"levelo://app?vid=1624d9fa-6133-4502-99c8-6f0dfa37654b","ios":"levelo://app?vid=1624d9fa-6133-4502-99c8-6f0dfa37654b"},"vehicle_type_id":"4","last_reported":1768472041,"current_range_meters":8800,"station_id":"st_d45171o9ee8s73djdqug","pricing_plan_id":"cebpf4jnsgd1na2vs0mg"},{"bike_id":"da38a97c-e7ce-4db2-91e7-5e3629e2fd27","system_id":"levelo_inurba_marseille","lat":43.30141,"lon":5.38085,"is_reserved":false,"is_disabled":false,"rental_uris":{"android":"levelo://app?vid=da38a97c-e7ce-4db2-91e7-5e3629e2fd27","ios":"levelo://app?vid=da38a97c-e7ce-4db2-91e7-5e3629e2fd27"},"vehicle_type_id":"4","last_reported":1768472041,"current_range_meters":8800,"station_id":"ce4bgjp2rcd13ifvqbh0","pricing_plan_id":"cebpf4jnsgd1na2vs0mg"},{"bike_id":"ac1643f3-9488-45ea-bb3b-0339e82f4726","system_id":"levelo_inurba_marseille","lat":43.27057,"lon":5.38307,"is_reserved":false,"is_disabled":false,"rental_uris":{"android":"levelo://app?vid=ac1643f3-9488-45ea-bb3b-0339e82f4726","ios":"levelo://app?vid=ac1643f3-9488-45ea-bb3b-0339e82f4726"},"vehicle_type_id":"4","last_reported":1768472041,"current_range_meters":8800,"station_id":"st_d3n2fo6cfp8s73cte1j0","pricing_plan_id":"cebpf4jnsgd1na2vs0mg"},{"bike_id":"f6681264-0c23-4057-943f-1af4d2980810","system_id":"levelo_inurba_marseille","lat":43.27409,"lon":5.39022,"is_reserved":false,"is_disabled":false,"rental_uris":{"android":"levelo://app?vid=f6681264-0c23-4057-943f-1af4d2980810","ios":"levelo://app?vid=f6681264-0c23-4057-943f-1af4d2980810"},"vehicle_type_id":"4","last_reported":1768472041,"current_range_meters":8800,"station_id":"","pricing_plan_id":"cebpf4jnsgd1na2vs0mg"},{"bike_id":"58455772-468d-41ff-a9b8-5fcf7f6153ec","system_id":"levelo_inurba_marseille","lat":43.25828,"lon":5.39419,"is_reserved":false,"is_disabled":false,"rental_uris":{"android":"levelo://app?vid=58455772-468d-41ff-a9b8-5fcf7f6153ec","ios":"levelo://app?vid=58455772-468d-41ff-a9b8-5fcf7f6153ec"},"vehicle_type_id":"4","last_reported":1768472041,"current_range_meters":8800,"station_id":"ce4bhip2rcd13ifvqft0","pricing_plan_id":"cebpf4jnsgd1na2vs0mg"},{"bike_id":"eda67525-db07-4b18-aa7a-fc8c14661402","system_id":"levelo_inurba_marseille","lat":43.23194,"lon":5.35552,"is_reserved":false,"is_disabled":false,"rental_uris":{"android":"levelo://app?vid=eda67525-db07-4b18-aa7a-fc8c14661402","ios":"levelo://app?vid=eda67525-db07-4b18-aa7a-fc8c14661402"},"vehicle_type_id":"4","last_reported":1768472041,"current_range_meters":9200,"station_id":"ce4bhu92rcd13ifvqi70","pricing_plan_id":"cebpf4jnsgd1na2vs0mg"},{"bike_id":"3ff43608-53c0-487c-9d0a-f3c1d326d7f5","system_id":"levelo_inurba_marseille","lat":43.323512,"lon":5.367494,"is_reserved":false,"is_disabled":true,"rental_uris":{"android":"levelo://app?vid=3ff43608-53c0-487c-9d0a-f3c1d326d7f5","ios":"levelo://app?vid=3ff43608-53c0-487c-9d0a-f3c1d326d7f5"},"vehicle_type_id":"4","last_reported":1768472041,"current_range_meters":9200,"station_id":"ce4bhsh2rcd13ifvqi2g","pricing_plan_id":"cebpf4jnsgd1na2vs0mg"},{"bike_id":"c242e646-f282-457f-a670-771ea65dbddf","system_id":"levelo_inurba_marseille","lat":43.32067,"lon":5.36828,"is_reserved":false,"is_disabled":false,"rental_uris":{"android":"levelo://app?vid=c242e646-f282-457f-a670-771ea65dbddf","ios":"levelo://app?vid=c242e646-f282-457f-a670-771ea65dbddf"},"vehicle_type_id":"4","last_reported":1768472041,"current_range_meters":9200,"station_id":"ce4bhrh2rcd13ifvqhug","pricing_plan_id":"cebpf4jnsgd1na2vs0mg"},{"bike_id":"3cb136e3-ca95-4cea-8f58-7854a17ca7da","system_id":"levelo_inurba_marseille","lat":43.246179,"lon":5.431636,"is_reserved":false,"is_disabled":false,"rental_uris":{"android":"levelo://app?vid=3cb136e3-ca95-4cea-8f58-7854a17ca7da","ios":"levelo://app?vid=3cb136e3-ca95-4cea-8f58-7854a17ca7da"},"vehicle_type_id":"4","last_reported":1768472041,"current_range_meters":9200,"station_id":"st_d2m6c4gdas8pm72e190g","pricing_plan_id":"cebpf4jnsgd1na2vs0mg"},{"bike_id":"033e1812-28a9-4397-b6c4-53b6f99c3f24","system_id":"levelo_inurba_marseille","lat":43.25349,"lon":5.40192,"is_reserved":false,"is_disabled":false,"rental_uris":{"android":"levelo://app?vid=033e1812-28a9-4397-b6c4-53b6f99c3f24","ios":"levelo://app?vid=033e1812-28a9-4397-b6c4-53b6f99c3f24"},"vehicle_type_id":"4","last_reported":1768472041,"current_range_meters":9200,"station_id":"","pricing_plan_id":"cebpf4jnsgd1na2vs0mg"},{"bike_id":"c18302d1-4ac2-436a-9a36-82f4ea0825ad","system_id":"levelo_inurba_marseille","lat":43.2304,"lon":5.35542,"is_reserved":false,"is_disabled":false,"rental_uris":{"android":"levelo://app?vid=c18302d1-4ac2-436a-9a36-82f4ea0825ad","ios":"levelo://app?vid=c18302d1-4ac2-436a-9a36-82f4ea0825ad"},"vehicle_type_id":"4","last_reported":1768472041,"current_range_meters":9200,"station_id":"cpo3342slgdg3j2ifvpg","pricing_plan_id":"cebpf4jnsgd1na2vs0mg"},{"bike_id":"5b615694-4960-40aa-8c00-64b122caf3ab","system_id":"levelo_inurba_marseille","lat":43.30736,"lon":5.42451,"is_reserved":false,"is_disabled":false,"rental_uris":{"android":"levelo://app?vid=5b615694-4960-40aa-8c00-64b122caf3ab","ios":"levelo://app?vid=5b615694-4960-40aa-8c00-64b122caf3ab"},"vehicle_type_id":"4","last_reported":1768472041,"current_range_meters":9200,"station_id":"st_cvj6ca6bvosntc0bfgr0","pricing_plan_id":"cebpf4jnsgd1na2vs0mg"},{"bike_id":"753ccbc1-bc1b-4429-8a43-0dcf4c26b7fc","system_id":"levelo_inurba_marseille","lat":43.331626,"lon":5.376858,"is_reserved":false,"is_disabled":false,"rental_uris":{"android":"levelo://app?vid=753ccbc1-bc1b-4429-8a43-0dcf4c26b7fc","ios":"levelo://app?vid=753ccbc1-bc1b-4429-8a43-0dcf4c26b7fc"},"vehicle_type_id":"4","last_reported":1768472041,"current_range_meters":9200,"station_id":"st_d46cu089ee8s73dldbu0","pricing_plan_id":"cebpf4jnsgd1na2vs0mg"},{"bike_id":"6e391227-2b9e-4b69-bd1c-ea4f38367b52","system_id":"levelo_inurba_marseille","lat":43.30958,"lon":5.39064,"is_reserved":false,"is_disabled":false,"rental_uris":{"android":"levelo://app?vid=6e391227-2b9e-4b69-bd1c-ea4f38367b52","ios":"levelo://app?vid=6e391227-2b9e-4b69-bd1c-ea4f38367b52"},"vehicle_type_id":"4","last_reported":1768472041,"current_range_meters":9200,"station_id":"ce4bgup2rcd13ifvqco0","pricing_plan_id":"cebpf4jnsgd1na2vs0mg"},{"bike_id":"2ae27565-6a18-4657-afda-4bb59b9e53e3","system_id":"levelo_inurba_marseille","lat":43.324878,"lon":5.382782,"is_reserved":false,"is_disabled":false,"rental_uris":{"android":"levelo://app?vid=2ae27565-6a18-4657-afda-4bb59b9e53e3","ios":"levelo://app?vid=2ae27565-6a18-4657-afda-4bb59b9e53e3"},"vehicle_type_id":"4","last_reported":1768472041,"current_range_meters":9200,"station_id":"st_d4asgbiv49dc73anf9m0","pricing_plan_id":"cebpf4jnsgd1na2vs0mg"},{"bike_id":"65def825-e47b-44f8-a591-37900abd1d3a","system_id":"levelo_inurba_marseille","lat":43.31276,"lon":5.37757,"is_reserved":false,"is_disabled":false,"rental_uris":{"android":"levelo://app?vid=65def825-e47b-44f8-a591-37900abd1d3a","ios":"levelo://app?vid=65def825-e47b-44f8-a591-37900abd1d3a"},"vehicle_type_id":"4","last_reported":1768472041,"current_range_meters":9200,"station_id":"","pricing_plan_id":"cebpf4jnsgd1na2vs0mg"},{"bike_id":"0fe23f40-caad-46ad-b558-32f62e0f76ac","system_id":"levelo_inurba_marseille","lat":43.31131,"lon":5.39799,"is_reserved":false,"is_disabled":false,"rental_uris":{"android":"levelo://app?vid=0fe23f40-caad-46ad-b558-32f62e0f76ac","ios":"levelo://app?vid=0fe23f40-caad-46ad-b558-32f62e0f76ac"},"vehicle_type_id":"4","last_reported":1768472041,"current_range_meters":9200,"station_id":"","pricing_plan_id":"cebpf4jnsgd1na2vs0mg"},{"bike_id":"ae1ee326-f80b-467d-b3d3-87eb3ab566ac","system_id":"levelo_inurba_marseille","lat":43.31358,"lon":5.3677,"is_reserved":false,"is_disabled":false,"rental_uris":{"android":"levelo://app?vid=ae1ee326-f80b-467d-b3d3-87eb3ab566ac","ios":"levelo://app?vid=ae1ee326-f80b-467d-b3d3-87eb3ab566ac"},"vehicle_type_id":"4","last_reported":1768472041,"current_range_meters":9200,"station_id":"","pricing_plan_id":"cebpf4jnsgd1na2vs0mg"},{"bike_id":"a921911a-4f80-4fb0-9fe2-22bf5a9bb0c8","system_id":"levelo_inurba_marseille","lat":43.29592,"lon":5.38103,"is_reserved":false,"is_disabled":false,"rental_uris":{"android":"levelo://app?vid=a921911a-4f80-4fb0-9fe2-22bf5a9bb0c8","ios":"levelo://app?vid=a921911a-4f80-4fb0-9fe2-22bf5a9bb0c8"},"vehicle_type_id":"4","last_reported":1768472041,"current_range_meters":9200,"station_id":"ce4bgl12rcd13ifvqbo0","pricing_plan_id":"cebpf4jnsgd1na2vs0mg"},{"bike_id":"e5aa787f-c7e4-4b02-b6ed-ac65ac7744ea","system_id":"levelo_inurba_marseille","lat":43.23193,"lon":5.3998,"is_reserved":false,"is_disabled":false,"rental_uris":{"android":"levelo://app?vid=e5aa787f-c7e4-4b02-b6ed-ac65ac7744ea","ios":"levelo://app?vid=e5aa787f-c7e4-4b02-b6ed-ac65ac7744ea"},"vehicle_type_id":"4","last_reported":1768472041,"current_range_meters":9200,"station_id":"ce4bhn12rcd13ifvqgqg","pricing_plan_id":"cebpf4jnsgd1na2vs0mg"},{"bike_id":"21d27b1e-787a-473a-b24c-5b95cf64a395","system_id":"levelo_inurba_marseille","lat":43.28939,"lon":5.39636,"is_reserved":false,"is_disabled":false,"rental_uris":{"android":"levelo://app?vid=21d27b1e-787a-473a-b24c-5b95cf64a395","ios":"levelo://app?vid=21d27b1e-787a-473a-b24c-5b95cf64a395"},"vehicle_type_id":"4","last_reported":1768472041,"current_range_meters":9200,"station_id":"ce4bh3h2rcd13ifvqdn0","pricing_plan_id":"cebpf4jnsgd1na2vs0mg"},{"bike_id":"3b06d8ac-0c0e-4815-baae-3f6b7bfae72e","system_id":"levelo_inurba_marseille","lat":43.3414,"lon":5.36,"is_reserved":false,"is_disabled":false,"rental_uris":{"android":"levelo://app?vid=3b06d8ac-0c0e-4815-baae-3f6b7bfae72e","ios":"levelo://app?vid=3b06d8ac-0c0e-4815-baae-3f6b7bfae72e"},"vehicle_type_id":"4","last_reported":1768472041,"current_range_meters":9200,"station_id":"","pricing_plan_id":"cebpf4jnsgd1na2vs0mg"},{"bike_id":"7fda0955-b567-4a6b-a54d-e80e63aadd3a","system_id":"levelo_inurba_marseille","lat":43.24646,"lon":5.43135,"is_reserved":false,"is_disabled":false,"rental_uris":{"android":"levelo://app?vid=7fda0955-b567-4a6b-a54d-e80e63aadd3a","ios":"levelo://app?vid=7fda0955-b567-4a6b-a54d-e80e63aadd3a"},"vehicle_type_id":"4","last_reported":1768472041,"current_range_meters":9200,"station_id":"st_d2m6c4gdas8pm72e190g","pricing_plan_id":"cebpf4jnsgd1na2vs0mg"},{"bike_id":"27264743-2e50-4a00-8306-3109b49e129f","system_id":"levelo_inurba_marseille","lat":43.24062,"lon":5.3777,"is_reserved":false,"is_disabled":false,"rental_uris":{"android":"levelo://app?vid=27264743-2e50-4a00-8306-3109b49e129f","ios":"levelo://app?vid=27264743-2e50-4a00-8306-3109b49e129f"},"vehicle_type_id":"4","last_reported":1768472041,"current_range_meters":9200,"station_id":"ce4bhnp2rcd13ifvqgvg","pricing_plan_id":"cebpf4jnsgd1na2vs0mg"},{"bike_id":"f0f77a0a-fb63-466f-8221-ca4aa28e90e6","system_id":"levelo_inurba_marseille","lat":43.24798,"lon":5.37442,"is_reserved":false,"is_disabled":false,"rental_uris":{"android":"levelo://app?vid=f0f77a0a-fb63-466f-8221-ca4aa28e90e6","ios":"levelo://app?vid=f0f77a0a-fb63-466f-8221-ca4aa28e90e6"},"vehicle_type_id":"4","last_reported":1768472041,"current_range_meters":9600,"station_id":"ce4bhgh2rcd13ifvqfb0","pricing_plan_id":"cebpf4jnsgd1na2vs0mg"},{"bike_id":"8ac29141-6985-4b16-8504-2238bb54b54a","system_id":"levelo_inurba_marseille","lat":43.24388,"lon":5.370621,"is_reserved":false,"is_disabled":false,"rental_uris":{"android":"levelo://app?vid=8ac29141-6985-4b16-8504-2238bb54b54a","ios":"levelo://app?vid=8ac29141-6985-4b16-8504-2238bb54b54a"},"vehicle_type_id":"4","last_reported":1768472041,"current_range_meters":9600,"station_id":"ce4bhhh2rcd13ifvqfk0","pricing_plan_id":"cebpf4jnsgd1na2vs0mg"},{"bike_id":"e937f0fe-af94-4a5e-8160-e367561df05d","system_id":"levelo_inurba_marseille","lat":43.27965,"lon":5.38732,"is_reserved":false,"is_disabled":false,"rental_uris":{"android":"levelo://app?vid=e937f0fe-af94-4a5e-8160-e367561df05d","ios":"levelo://app?vid=e937f0fe-af94-4a5e-8160-e367561df05d"},"vehicle_type_id":"4","last_reported":1768472041,"current_range_meters":9600,"station_id":"ce4bhg12rcd13ifvqf80","pricing_plan_id":"cebpf4jnsgd1na2vs0mg"},{"bike_id":"d10c0024-e2ec-401f-bf30-95042a990a73","system_id":"levelo_inurba_marseille","lat":43.28115,"lon":5.42601,"is_reserved":false,"is_disabled":false,"rental_uris":{"android":"levelo://app?vid=d10c0024-e2ec-401f-bf30-95042a990a73","ios":"levelo://app?vid=d10c0024-e2ec-401f-bf30-95042a990a73"},"vehicle_type_id":"4","last_reported":1768472041,"current_range_meters":9600,"station_id":"","pricing_plan_id":"cebpf4jnsgd1na2vs0mg"},{"bike_id":"551cf153-db3e-4868-8c3a-b2e3edc5022f","system_id":"levelo_inurba_marseille","lat":43.301444,"lon":5.37412,"is_reserved":false,"is_disabled":false,"rental_uris":{"android":"levelo://app?vid=551cf153-db3e-4868-8c3a-b2e3edc5022f","ios":"levelo://app?vid=551cf153-db3e-4868-8c3a-b2e3edc5022f"},"vehicle_type_id":"4","last_reported":1768472041,"current_range_meters":9600,"station_id":"ce4bgs92rcd13ifvqcc0","pricing_plan_id":"cebpf4jnsgd1na2vs0mg"},{"bike_id":"30366dc1-812a-4aa0-a9f6-e7606e14d531","system_id":"levelo_inurba_marseille","lat":43.29036,"lon":5.39968,"is_reserved":false,"is_disabled":false,"rental_uris":{"android":"levelo://app?vid=30366dc1-812a-4aa0-a9f6-e7606e14d531","ios":"levelo://app?vid=30366dc1-812a-4aa0-a9f6-e7606e14d531"},"vehicle_type_id":"4","last_reported":1768472041,"current_range_meters":9600,"station_id":"ce4bh392rcd13ifvqdm0","pricing_plan_id":"cebpf4jnsgd1na2vs0mg"},{"bike_id":"febe3699-bac7-4e06-afef-dc2ef92aba92","system_id":"levelo_inurba_marseille","lat":43.304241,"lon":5.397464,"is_reserved":false,"is_disabled":false,"rental_uris":{"android":"levelo://app?vid=febe3699-bac7-4e06-afef-dc2ef92aba92","ios":"levelo://app?vid=febe3699-bac7-4e06-afef-dc2ef92aba92"},"vehicle_type_id":"4","last_reported":1768472041,"current_range_meters":9600,"station_id":"ce4bh092rcd13ifvqd20","pricing_plan_id":"cebpf4jnsgd1na2vs0mg"},{"bike_id":"a6efb7b3-8c44-4a6c-92e4-ed7eb57f41e2","system_id":"levelo_inurba_marseille","lat":43.28446,"lon":5.36778,"is_reserved":false,"is_disabled":false,"rental_uris":{"android":"levelo://app?vid=a6efb7b3-8c44-4a6c-92e4-ed7eb57f41e2","ios":"levelo://app?vid=a6efb7b3-8c44-4a6c-92e4-ed7eb57f41e2"},"vehicle_type_id":"4","last_reported":1768472041,"current_range_meters":9600,"station_id":"","pricing_plan_id":"cebpf4jnsgd1na2vs0mg"},{"bike_id":"f9856d52-ab96-4cca-9a7a-ab4623ba2546","system_id":"levelo_inurba_marseille","lat":43.29039,"lon":5.39975,"is_reserved":false,"is_disabled":false,"rental_uris":{"android":"levelo://app?vid=f9856d52-ab96-4cca-9a7a-ab4623ba2546","ios":"levelo://app?vid=f9856d52-ab96-4cca-9a7a-ab4623ba2546"},"vehicle_type_id":"4","last_reported":1768472041,"current_range_meters":9600,"station_id":"ce4bh392rcd13ifvqdm0","pricing_plan_id":"cebpf4jnsgd1na2vs0mg"},{"bike_id":"dcba5e0d-8e79-44d0-8827-5e7dfb547664","system_id":"levelo_inurba_marseille","lat":43.28538,"lon":5.441,"is_reserved":false,"is_disabled":false,"rental_uris":{"android":"levelo://app?vid=dcba5e0d-8e79-44d0-8827-5e7dfb547664","ios":"levelo://app?vid=dcba5e0d-8e79-44d0-8827-5e7dfb547664"},"vehicle_type_id":"4","last_reported":1768472041,"current_range_meters":9600,"station_id":"st_d3j3df2ikq2c7380ej80","pricing_plan_id":"cebpf4jnsgd1na2vs0mg"},{"bike_id":"cd36fbcd-04b7-44af-907d-269a620e2e29","system_id":"levelo_inurba_marseille","lat":43.29032,"lon":5.37561,"is_reserved":false,"is_disabled":false,"rental_uris":{"android":"levelo://app?vid=cd36fbcd-04b7-44af-907d-269a620e2e29","ios":"levelo://app?vid=cd36fbcd-04b7-44af-907d-269a620e2e29"},"vehicle_type_id":"4","last_reported":1768472041,"current_range_meters":9600,"station_id":"ce4bh692rcd13ifvqe90","pricing_plan_id":"cebpf4jnsgd1na2vs0mg"},{"bike_id":"426d1862-6742-4577-a1b8-bc5438e9f47d","system_id":"levelo_inurba_marseille","lat":43.28255,"lon":5.35081,"is_reserved":false,"is_disabled":false,"rental_uris":{"android":"levelo://app?vid=426d1862-6742-4577-a1b8-bc5438e9f47d","ios":"levelo://app?vid=426d1862-6742-4577-a1b8-bc5438e9f47d"},"vehicle_type_id":"4","last_reported":1768472041,"current_range_meters":9600,"station_id":"ce4bhbp2rcd13ifvqerg","pricing_plan_id":"cebpf4jnsgd1na2vs0mg"},{"bike_id":"13c7c20f-0feb-4e4c-b067-68cfe4794af8","system_id":"levelo_inurba_marseille","lat":43.28871,"lon":5.38426,"is_reserved":false,"is_disabled":false,"rental_uris":{"android":"levelo://app?vid=13c7c20f-0feb-4e4c-b067-68cfe4794af8","ios":"levelo://app?vid=13c7c20f-0feb-4e4c-b067-68cfe4794af8"},"vehicle_type_id":"4","last_reported":1768472041,"current_range_meters":9600,"station_id":"","pricing_plan_id":"cebpf4jnsgd1na2vs0mg"},{"bike_id":"7512c4d2-4a5e-4a8c-8737-f6ffe9aeccda","system_id":"levelo_inurba_marseille","lat":43.29914,"lon":5.37473,"is_reserved":false,"is_disabled":false,"rental_uris":{"android":"levelo://app?vid=7512c4d2-4a5e-4a8c-8737-f6ffe9aeccda","ios":"levelo://app?vid=7512c4d2-4a5e-4a8c-8737-f6ffe9aeccda"},"vehicle_type_id":"4","last_reported":1768472041,"current_range_meters":9600,"station_id":"","pricing_plan_id":"cebpf4jnsgd1na2vs0mg"},{"bike_id":"0ce3cc02-2962-4286-804f-4dc1590de945","system_id":"levelo_inurba_marseille","lat":43.255749,"lon":5.382435,"is_reserved":false,"is_disabled":false,"rental_uris":{"android":"levelo://app?vid=0ce3cc02-2962-4286-804f-4dc1590de945","ios":"levelo://app?vid=0ce3cc02-2962-4286-804f-4dc1590de945"},"vehicle_type_id":"4","last_reported":1768472041,"current_range_meters":9600,"station_id":"ce4bhih2rcd13ifvqfs0","pricing_plan_id":"cebpf4jnsgd1na2vs0mg"},{"bike_id":"ba94f569-5de6-42b6-a978-d195de9cd856","system_id":"levelo_inurba_marseille","lat":43.28474,"lon":5.48404,"is_reserved":false,"is_disabled":false,"rental_uris":{"android":"levelo://app?vid=ba94f569-5de6-42b6-a978-d195de9cd856","ios":"levelo://app?vid=ba94f569-5de6-42b6-a978-d195de9cd856"},"vehicle_type_id":"4","last_reported":1768472041,"current_range_meters":9600,"station_id":"st_d3svhcjqgbts73a3dn0g","pricing_plan_id":"cebpf4jnsgd1na2vs0mg"},{"bike_id":"8782c85b-4cd2-4d16-816f-ea9c0e380452","system_id":"levelo_inurba_marseille","lat":43.28113,"lon":5.40433,"is_reserved":false,"is_disabled":false,"rental_uris":{"android":"levelo://app?vid=8782c85b-4cd2-4d16-816f-ea9c0e380452","ios":"levelo://app?vid=8782c85b-4cd2-4d16-816f-ea9c0e380452"},"vehicle_type_id":"4","last_reported":1768472041,"current_range_meters":9600,"station_id":"","pricing_plan_id":"cebpf4jnsgd1na2vs0mg"},{"bike_id":"6abf8a46-f540-4848-8617-65edd2aabe92","system_id":"levelo_inurba_marseille","lat":43.3176,"lon":5.39776,"is_reserved":false,"is_disabled":false,"rental_uris":{"android":"levelo://app?vid=6abf8a46-f540-4848-8617-65edd2aabe92","ios":"levelo://app?vid=6abf8a46-f540-4848-8617-65edd2aabe92"},"vehicle_type_id":"4","last_reported":1768472041,"current_range_meters":9600,"station_id":"","pricing_plan_id":"cebpf4jnsgd1na2vs0mg"},{"bike_id":"90218040-6582-4aa2-8913-05c76010fcbf","system_id":"levelo_inurba_marseille","lat":43.23785,"lon":5.36634,"is_reserved":false,"is_disabled":false,"rental_uris":{"android":"levelo://app?vid=90218040-6582-4aa2-8913-05c76010fcbf","ios":"levelo://app?vid=90218040-6582-4aa2-8913-05c76010fcbf"},"vehicle_type_id":"4","last_reported":1768472041,"current_range_meters":9600,"station_id":"st_d3nk18o9ro0c73en2l3g","pricing_plan_id":"cebpf4jnsgd1na2vs0mg"},{"bike_id":"f453663f-1a0f-42e4-b339-7ae16233dc9e","system_id":"levelo_inurba_marseille","lat":43.25567,"lon":5.38253,"is_reserved":false,"is_disabled":false,"rental_uris":{"android":"levelo://app?vid=f453663f-1a0f-42e4-b339-7ae16233dc9e","ios":"levelo://app?vid=f453663f-1a0f-42e4-b339-7ae16233dc9e"},"vehicle_type_id":"4","last_reported":1768472041,"current_range_meters":10000,"station_id":"ce4bhih2rcd13ifvqfs0","pricing_plan_id":"cebpf4jnsgd1na2vs0mg"},{"bike_id":"901557c8-a1e2-4b4f-b19b-01e642e5d7a0","system_id":"levelo_inurba_marseille","lat":43.270534,"lon":5.402607,"is_reserved":false,"is_disabled":false,"rental_uris":{"android":"levelo://app?vid=901557c8-a1e2-4b4f-b19b-01e642e5d7a0","ios":"levelo://app?vid=901557c8-a1e2-4b4f-b19b-01e642e5d7a0"},"vehicle_type_id":"4","last_reported":1768472041,"current_range_meters":10000,"station_id":"ce4bhk92rcd13ifvqgc0","pricing_plan_id":"cebpf4jnsgd1na2vs0mg"},{"bike_id":"38c3b80e-0308-46b2-9a29-2654b96d87d9","system_id":"levelo_inurba_marseille","lat":43.29948,"lon":5.37373,"is_reserved":false,"is_disabled":false,"rental_uris":{"android":"levelo://app?vid=38c3b80e-0308-46b2-9a29-2654b96d87d9","ios":"levelo://app?vid=38c3b80e-0308-46b2-9a29-2654b96d87d9"},"vehicle_type_id":"4","last_reported":1768472041,"current_range_meters":10000,"station_id":"","pricing_plan_id":"cebpf4jnsgd1na2vs0mg"},{"bike_id":"d2d2d908-ffb6-4c0a-97f2-e5e034e39816","system_id":"levelo_inurba_marseille","lat":43.27918,"lon":5.404,"is_reserved":false,"is_disabled":false,"rental_uris":{"android":"levelo://app?vid=d2d2d908-ffb6-4c0a-97f2-e5e034e39816","ios":"levelo://app?vid=d2d2d908-ffb6-4c0a-97f2-e5e034e39816"},"vehicle_type_id":"4","last_reported":1768472041,"current_range_meters":10000,"station_id":"","pricing_plan_id":"cebpf4jnsgd1na2vs0mg"},{"bike_id":"a696c7fe-baef-4a58-8525-3edaf5ca50d0","system_id":"levelo_inurba_marseille","lat":43.2438,"lon":5.37058,"is_reserved":false,"is_disabled":false,"rental_uris":{"android":"levelo://app?vid=a696c7fe-baef-4a58-8525-3edaf5ca50d0","ios":"levelo://app?vid=a696c7fe-baef-4a58-8525-3edaf5ca50d0"},"vehicle_type_id":"4","last_reported":1768472041,"current_range_meters":10000,"station_id":"ce4bhhh2rcd13ifvqfk0","pricing_plan_id":"cebpf4jnsgd1na2vs0mg"},{"bike_id":"b2aaa20d-5d74-42c1-a378-aaa6b4151590","system_id":"levelo_inurba_marseille","lat":43.28244,"lon":5.3905,"is_reserved":false,"is_disabled":false,"rental_uris":{"android":"levelo://app?vid=b2aaa20d-5d74-42c1-a378-aaa6b4151590","ios":"levelo://app?vid=b2aaa20d-5d74-42c1-a378-aaa6b4151590"},"vehicle_type_id":"4","last_reported":1768472041,"current_range_meters":10000,"station_id":"ce4bhn92rcd13ifvqgsg","pricing_plan_id":"cebpf4jnsgd1na2vs0mg"},{"bike_id":"559bd56f-1279-4311-b72e-e251096670f2","system_id":"levelo_inurba_marseille","lat":43.30114,"lon":5.43109,"is_reserved":false,"is_disabled":true,"rental_uris":{"android":"levelo://app?vid=559bd56f-1279-4311-b72e-e251096670f2","ios":"levelo://app?vid=559bd56f-1279-4311-b72e-e251096670f2"},"vehicle_type_id":"4","last_reported":1768472041,"current_range_meters":10000,"station_id":"st_d3js3co5814s73ftftug","pricing_plan_id":"cebpf4jnsgd1na2vs0mg"},{"bike_id":"587bb477-4634-455b-9269-f6e1c64090bb","system_id":"levelo_inurba_marseille","lat":43.30302,"lon":5.36901,"is_reserved":false,"is_disabled":false,"rental_uris":{"android":"levelo://app?vid=587bb477-4634-455b-9269-f6e1c64090bb","ios":"levelo://app?vid=587bb477-4634-455b-9269-f6e1c64090bb"},"vehicle_type_id":"4","last_reported":1768472041,"current_range_meters":10000,"station_id":"ce4bgqh2rcd13ifvqc5g","pricing_plan_id":"cebpf4jnsgd1na2vs0mg"},