{"last_updated":1750097707,"ttl":60,"version":"2.2","data":{"bikes":[{"bike_id":"3da29fb8-fc97-44c6-b9ac-31dd456b2fd4","system_id":"levelo_inurba_marseille","lat":43.33771,"lon":5.37424,"is_reserved":false,"is_disabled":true,"rental_uris":{"android":"levelo://app?vid=3da29fb8-fc97-44c6-b9ac-31dd456b2fd4","ios":"levelo://app?vid=3da29fb8-fc97-44c6-b9ac-31dd456b2fd4"},"vehicle_type_id":"4","last_reported":1750097707,"current_range_meters":0,"station_id":"","pricing_plan_id":"cebpf4jnsgd1na2vs0mg"},{"bike_id":"01861ad8-a8d7-4be6-816e-651927c87584","system_id":"levelo_inurba_marseille","lat":43.33751,"lon":5.37456,"is_reserved":false,"is_disabled":true,"rental_uris":{"android":"levelo://app?vid=01861ad8-a8d7-4be6-816e-651927c87584","ios":"levelo://app?vid=01861ad8-a8d7-4be6-816e-651927c87584"},"vehicle_type_id":"4","last_reported":1750097707,"current_range_meters":0,"station_id":"","pricing_plan_id":"cebpf4jnsgd1na2vs0mg"},{"bike_id":"2c88bcb9-85cb-4248-baf5-13b87393da63","system_id":"levelo_inurba_marseille","lat":43.28638,"lon":5.38592,"is_reserved":false,"is_disabled":true,"rental_uris":{"android":"levelo://app?vid=2c88bcb9-85cb-4248-baf5-13b87393da63","ios":"levelo://app?vid=2c88bcb9-85cb-4248-baf5-13b87393da63"},"vehicle_type_id":"4","last_reported":1750097707,"current_range_meters":0,"station_id":"","pricing_plan_id":"cebpf4jnsgd1na2vs0mg"},{"bike_id":"d2bd57c8-6b64-48db-ad24-5398eb3fd9d6","system_id":"levelo_inurba_marseille","lat":43.337444,"lon":5.374475,"is_reserved":false,"is_disabled":true,"rental_uris":{"android":"levelo://app?vid=d2bd57c8-6b64-48db-ad24-5398eb3fd9d6","ios":"levelo://app?vid=d2bd57c8-6b64-48db-ad24-5398eb3fd9d6"},"vehicle_type_id":"4","last_reported":1750097707,"current_range_meters":0,"station_id":"","pricing_plan_id":"cebpf4jnsgd1na2vs0mg"},{"bike_id":"31efc9ba-0c74-4af5-9228-1de18fc992e3","system_id":"levelo_inurba_marseille","lat":43.30016,"lon":5.37,"is_reserved":false,"is_disabled":true,"rental_uris":{"android":"levelo://app?vid=31efc9ba-0c74-4af5-9228-1de18fc992e3","ios":"levelo://app?vid=31efc9ba-0c74-4af5-9228-1de18fc992e3"},"vehicle_type_id":"4","last_reported":1750097707,"current_range_meters":0,"station_id":"","pricing_plan_id":"cebpf4jnsgd1na2vs0mg"},{"bike_id":"62a493c7-4534-4419-ad43-0582de34a72a","system_id":"levelo_inurba_marseille","lat":43.21366,"lon":5.355183,"is_reserved":false,"is_disabled":true,"rental_uris":{"android":"levelo://app?vid=62a493c7-4534-4419-ad43-0582de34a72a","ios":"levelo://app?vid=62a493c7-4534-4419-ad43-0582de34a72a"},"vehicle_type_id":"4","last_reported":1750097707,"current_range_meters":0,"station_id":"","pricing_plan_id":"cebpf4jnsgd1na2vs0mg"},{"bike_id":"cf1d0c88-ca58-45e5-b0a8-788cf7635886","system_id":"levelo_inurba_marseille","lat":43.294177,"lon":5.3996,"is_reserved":false,"is_disabled":true,"rental_uris":{"android":"levelo://app?vid=cf1d0c88-ca58-45e5-b0a8-788cf7635886","ios":"levelo://app?vid=cf1d0c88-ca58-45e5-b0a8-788cf7635886"},"vehicle_type_id":"4","last_reported":1750097707,"current_range_meters":0,"station_id":"","pricing_plan_id":"cebpf4jnsgd1na2vs0mg"},{"bike_id":"117f24b3-d6ce-455f-99fd-f28a795c0458","system_id":"levelo_inurba_marseille","lat":43.279833,"lon":5.384693,"is_reserved":false,"is_disabled":true,"rental_uris":{"android":"levelo://app?vid=117f24b3-d6ce-455f-99fd-f28a795c0458","ios":"levelo://app?vid=117f24b3-d6ce-455f-99fd-f28a795c0458"},"vehicle_type_id":"4","last_reported":1750097707,"current_range_meters":0,"station_id":"","pricing_plan_id":"cebpf4jnsgd1na2vs0mg"},{"bike_id":"946f5633-31c1-46bf-ab81-23560e476e56","system_id":"levelo_inurba_marseille","lat":43.26052,"lon":5.38735,"is_reserved":false,"is_disabled":true,"rental_uris":{"android":"levelo://app?vid=946f5633-31c1-46bf-ab81-23560e476e56","ios":"levelo://app?vid=946f5633-31c1-46bf-ab81-23560e476e56"},"vehicle_type_id":"4","last_reported":1750097707,"current_range_meters":0,"station_id":"","pricing_plan_id":"cebpf4jnsgd1na2vs0mg"},{"bike_id":"caca20da-18e0-443e-a3dc-04ab1bbad8db","system_id":"levelo_inurba_marseille","lat":43.271221,"lon":5.363955,"is_reserved":false,"is_disabled":true,"rental_uris":{"android":"levelo://app?vid=caca20da-18e0-443e-a3dc-04ab1bbad8db","ios":"levelo://app?vid=caca20da-18e0-443e-a3dc-04ab1bbad8db"},"vehicle_type_id":"4","last_reported":1750097707,"current_range_meters":0,"station_id":"","pricing_plan_id":"cebpf4jnsgd1na2vs0mg"},{"bike_id":"93af304b-67b5-47b8-a3fd-e0775f7cde8c","system_id":"levelo_inurba_marseille","lat":43.21535,"lon":5.34746,"is_reserved":false,"is_disabled":true,"rental_uris":{"android":"levelo://app?vid=93af304b-67b5-47b8-a3fd-e0775f7cde8c","ios":"levelo://app?vid=93af304b-67b5-47b8-a3fd-e0775f7cde8c"},"vehicle_type_id":"4","last_reported":1750097707,"current_range_meters":0,"station_id":"","pricing_plan_id":"cebpf4jnsgd1na2vs0mg"},{"bike_id":"d6609b4f-333b-43c1-9ebe-8726f5e76e88","system_id":"levelo_inurba_marseille","lat":43.337444,"lon":5.374475,"is_reserved":false,"is_disabled":true,"rental_uris":{"android":"levelo://app?vid=d6609b4f-333b-43c1-9ebe-8726f5e76e88","ios":"levelo://app?vid=d6609b4f-333b-43c1-9ebe-8726f5e76e88"},"vehicle_type_id":"4","last_reported":1750097707,"current_range_meters":0,"station_id":"","pricing_plan_id":"cebpf4jnsgd1na2vs0mg"},{"bike_id":"a354a693-87cc-4bf2-b99d-b0ea81e88075","system_id":"levelo_inurba_marseille","lat":43.26157,"lon":5.38825,"is_reserved":false,"is_disabled":true,"rental_uris":{"android":"levelo://app?vid=a354a693-87cc-4bf2-b99d-b0ea81e88075","ios":"levelo://app?vid=a354a693-87cc-4bf2-b99d-b0ea81e88075"},"vehicle_type_id":"4","last_reported":1750097707,"current_range_meters":0,"station_id":"","pricing_plan_id":"cebpf4jnsgd1na2vs0mg"},{"bike_id":"4757b33c-4098-4a0d-a6b7-114043b56f3f","system_id":"levelo_inurba_marseille","lat":43.30593,"lon":5.39346,"is_reserved":false,"is_disabled":true,"rental_uris":{"android":"levelo://app?vid=4757b33c-4098-4a0d-a6b7-114043b56f3f","ios":"levelo://app?vid=4757b33c-4098-4a0d-a6b7-114043b56f3f"},"vehicle_type_id":"4","last_reported":1750097707,"current_range_meters":0,"station_id":"ce4bh0p2rcd13ifvqd80","pricing_plan_id":"cebpf4jnsgd1na2vs0mg"},{"bike_id":"f65e5257-4018-4877-8e69-297b62ff301a","system_id":"levelo_inurba_marseille","lat":43.29422,"lon":5.38612,"is_reserved":false,"is_disabled":true,"rental_uris":{"android":"levelo://app?vid=f65e5257-4018-4877-8e69-297b62ff301a","ios":"levelo://app?vid=f65e5257-4018-4877-8e69-297b62ff301a"},"vehicle_type_id":"4","last_reported":1750097707,"current_range_meters":0,"station_id":"ce4bh2h2rcd13ifvqdh0","pricing_plan_id":"cebpf4jnsgd1na2vs0mg"},{"bike_id":"16564058-8aca-4389-b20c-a31d7132714c","system_id":"levelo_inurba_marseille","lat":43.28494,"lon":5.38414,"is_reserved":false,"is_disabled":true,"rental_uris":{"android":"levelo://app?vid=16564058-8aca-4389-b20c-a31d7132714c","ios":"levelo://app?vid=16564058-8aca-4389-b20c-a31d7132714c"},"vehicle_type_id":"4","last_reported":1750097707,"current_range_meters":0,"station_id":"ce4bh512rcd13ifvqe3g","pricing_plan_id":"cebpf4jnsgd1na2vs0mg"},{"bike_id":"0691b24e-fb23-457c-a890-55ff77319c6e","system_id":"levelo_inurba_marseille","lat":43.28951,"lon":5.36655,"is_reserved":false,"is_disabled":true,"rental_uris":{"android":"levelo://app?vid=0691b24e-fb23-457c-a890-55ff77319c6e","ios":"levelo://app?vid=0691b24e-fb23-457c-a890-55ff77319c6e"},"vehicle_type_id":"4","last_reported":1750097707,"current_range_meters":0,"station_id":"ce4bhap2rcd13ifvqek0","pricing_plan_id":"cebpf4jnsgd1na2vs0mg"},{"bike_id":"3cd83758-b27d-4f2f-b97f-00ac01c9a7fb","system_id":"levelo_inurba_marseille","lat":43.29005,"lon":5.35618,"is_reserved":false,"is_disabled":true,"rental_uris":{"android":"levelo://app?vid=3cd83758-b27d-4f2f-b97f-00ac01c9a7fb","ios":"levelo://app?vid=3cd83758-b27d-4f2f-b97f-00ac01c9a7fb"},"vehicle_type_id":"4","last_reported":1750097707,"current_range_meters":0,"station_id":"ce4bhb92rcd13ifvqen0","pricing_plan_id":"cebpf4jnsgd1na2vs0mg"},{"bike_id":"19a462e9-16e0-44c0-9cff-7ea82dfb91dc","system_id":"levelo_inurba_marseille","lat":43.28948,"lon":5.36395,"is_reserved":false,"is_disabled":true,"rental_uris":{"android":"levelo://app?vid=19a462e9-16e0-44c0-9cff-7ea82dfb91dc","ios":"levelo://app?vid=19a462e9-16e0-44c0-9cff-7ea82dfb91dc"},"vehicle_type_id":"4","last_reported":1750097707,"current_range_meters":0,"station_id":"ce4bhc92rcd13ifvqetg","pricing_plan_id":"cebpf4jnsgd1na2vs0mg"},{"bike_id":"87dd1e31-bf1b-4404-b1ec-2bcb7881cf19","system_id":"levelo_inurba_marseille","lat":43.26569,"lon":5.39011,"is_reserved":false,"is_disabled":true,"rental_uris":{"android":"levelo://app?vid=87dd1e31-bf1b-4404-b1ec-2bcb7881cf19","ios":"levelo://app?vid=87dd1e31-bf1b-4404-b1ec-2bcb7881cf19"},"vehicle_type_id":"4","last_reported":1750097707,"current_range_meters":0,"station_id":"ce4bhe12rcd13ifvqf30","pricing_plan_id":"cebpf4jnsgd1na2vs0mg"},{"bike_id":"a454832c-e5f7-46fc-8447-aca2c5996b7d","system_id":"levelo_inurba_marseille","lat":43.2705,"lon":5.40268,"is_reserved":false,"is_disabled":true,"rental_uris":{"android":"levelo://app?vid=a454832c-e5f7-46fc-8447-aca2c5996b7d","ios":"levelo://app?vid=a454832c-e5f7-46fc-8447-aca2c5996b7d"},"vehicle_type_id":"4","last_reported":1750097707,"current_range_meters":0,"station_id":"ce4bhk92rcd13ifvqgc0","pricing_plan_id":"cebpf4jnsgd1na2vs0mg"},{"bike_id":"bf8dec24-1f46-4ec9-8ee0-a4da560e1021","system_id":"levelo_inurba_marseille","lat":43.3009,"lon":5.39072,"is_reserved":false,"is_disabled":true,"rental_uris":{"android":"levelo://app?vid=bf8dec24-1f46-4ec9-8ee0-a4da560e1021","ios":"levelo://app?vid=bf8dec24-1f46-4ec9-8ee0-a4da560e1021"},"vehicle_type_id":"4","last_reported":1750097707,"current_range_meters":400,"station_id":"ce4bh192rcd13ifvqdb0","pricing_plan_id":"cebpf4jnsgd1na2vs0mg"},{"bike_id":"6ee1f3d7-3327-4a7e-ae7c-0b3a0ef8c7d8","system_id":"levelo_inurba_marseille","lat":43.29298,"lon":5.38423,"is_reserved":false,"is_disabled":true,"rental_uris":{"android":"levelo://app?vid=6ee1f3d7-3327-4a7e-ae7c-0b3a0ef8c7d8","ios":"levelo://app?vid=6ee1f3d7-3327-4a7e-ae7c-0b3a0ef8c7d8"},"vehicle_type_id":"4","last_reported":1750097707,"current_range_meters":400,"station_id":"ce4bh692rcd13ifvqea0","pricing_plan_id":"cebpf4jnsgd1na2vs0mg"},{"bike_id":"1bc541fe-991d-427d-911f-ac8b11749c69","system_id":"levelo_inurba_marseille","lat":43.27313,"lon":5.39072,"is_reserved":false,"is_disabled":true,"rental_uris":{"android":"levelo://app?vid=1bc541fe-991d-427d-911f-ac8b11749c69","ios":"levelo://app?vid=1bc541fe-991d-427d-911f-ac8b11749c69"},"vehicle_type_id":"4","last_reported":1750097707,"current_range_meters":400,"station_id":"ce4bhgp2rcd13ifvqfe0","pricing_plan_id":"cebpf4jnsgd1na2vs0mg"},{"bike_id":"29c0f438-a4d6-49a8-9d59-5f75d35c299d","system_id":"levelo_inurba_marseille","lat":43.2962,"lon":5.37721,"is_reserved":false,"is_disabled":true,"rental_uris":{"android":"levelo://app?vid=29c0f438-a4d6-49a8-9d59-5f75d35c299d","ios":"levelo://app?vid=29c0f438-a4d6-49a8-9d59-5f75d35c299d"},"vehicle_type_id":"4","last_reported":1750097707,"current_range_meters":800,"station_id":"ce4bgi92rcd13ifvqb90","pricing_plan_id":"cebpf4jnsgd1na2vs0mg"},{"bike_id":"7f111138-e630-4c0d-8757-23069a56808c","system_id":"levelo_inurba_marseille","lat":43.29577,"lon":5.37531,"is_reserved":false,"is_disabled":true,"rental_uris":{"android":"levelo://app?vid=7f111138-e630-4c0d-8757-23069a56808c","ios":"levelo://app?vid=7f111138-e630-4c0d-8757-23069a56808c"},"vehicle_type_id":"4","last_reported":1750097707,"current_range_meters":1200,"station_id":"ce4bgh92rcd13ifvqb50","pricing_plan_id":"cebpf4jnsgd1na2vs0mg"},{"bike_id":"9cd2c62f-5a7a-42f7-b4f5-887a33e77d54","system_id":"levelo_inurba_marseille","lat":43.302521,"lon":5.400672,"is_reserved":false,"is_disabled":true,"rental_uris":{"android":"levelo://app?vid=9cd2c62f-5a7a-42f7-b4f5-887a33e77d54","ios":"levelo://app?vid=9cd2c62f-5a7a-42f7-b4f5-887a33e77d54"},"vehicle_type_id":"4","last_reported":1750097707,"current_range_meters":1200,"station_id":"ce4bgvh2rcd13ifvqcs0","pricing_plan_id":"cebpf4jnsgd1na2vs0mg"},{"bike_id":"07369277-ac0d-4420-8b5d-c3ac027a4838","system_id":"levelo_inurba_marseille","lat":43.29267,"lon":5.38433,"is_reserved":false,"is_disabled":true,"rental_uris":{"android":"levelo://app?vid=07369277-ac0d-4420-8b5d-c3ac027a4838","ios":"levelo://app?vid=07369277-ac0d-4420-8b5d-c3ac027a4838"},"vehicle_type_id":"4","last_reported":1750097707,"current_range_meters":1200,"station_id":"ce4bh692rcd13ifvqea0","pricing_plan_id":"cebpf4jnsgd1na2vs0mg"},{"bike_id":"33ffd77f-fc84-4b21-9e22-5f0d7015009f","system_id":"levelo_inurba_marseille","lat":43.3176,"lon":5.39019,"is_reserved":false,"is_disabled":true,"rental_uris":{"android":"levelo://app?vid=33ffd77f-fc84-4b21-9e22-5f0d7015009f","ios":"levelo://app?vid=33ffd77f-fc84-4b21-9e22-5f0d7015009f"},"vehicle_type_id":"4","last_reported":1750097707,"current_range_meters":1200,"station_id":"ce4bhqp2rcd13ifvqhng","pricing_plan_id":"cebpf4jnsgd1na2vs0mg"},{"bike_id":"bdf959be-ba57-43db-ae79-a0ff232caaab","system_id":"levelo_inurba_marseille","lat":43.30738,"lon":5.4245,"is_reserved":false,"is_disabled":true,"rental_uris":{"android":"levelo://app?vid=bdf959be-ba57-43db-ae79-a0ff232caaab","ios":"levelo://app?vid=bdf959be-ba57-43db-ae79-a0ff232caaab"},"vehicle_type_id":"4","last_reported":1750097707,"current_range_meters":1200,"station_id":"st_cvj6ca6bvosntc0bfgr0","pricing_plan_id":"cebpf4jnsgd1na2vs0mg"},{"bike_id":"0d9b04f4-a88e-414e-90f0-cde69f175388","system_id":"levelo_inurba_marseille","lat":43.3032,"lon":5.40441,"is_reserved":false,"is_disabled":true,"rental_uris":{"android":"levelo://app?vid=0d9b04f4-a88e-414e-90f0-cde69f175388","ios":"levelo://app?vid=0d9b04f4-a88e-414e-90f0-cde69f175388"},"vehicle_type_id":"4","last_reported":1750097707,"current_range_meters":1600,"station_id":"ce4bh012rcd13ifvqd10","pricing_plan_id":"cebpf4jnsgd1na2vs0mg"},{"bike_id":"6e801567-68b3-459b-988f-fbffdc680cdd","system_id":"levelo_inurba_marseille","lat":43.26029,"lon":5.37551,"is_reserved":false,"is_disabled":true,"rental_uris":{"android":"levelo://app?vid=6e801567-68b3-459b-988f-fbffdc680cdd","ios":"levelo://app?vid=6e801567-68b3-459b-988f-fbffdc680cdd"},"vehicle_type_id":"4","last_reported":1750097707,"current_range_meters":1600,"station_id":"ce4bhgh2rcd13ifvqfa0","pricing_plan_id":"cebpf4jnsgd1na2vs0mg"},{"bike_id":"4ce172d6-03f3-4c2b-ae95-fb641347d3f1","system_id":"levelo_inurba_marseille","lat":43.300147,"lon":5.386005,"is_reserved":false,"is_disabled":true,"rental_uris":{"android":"levelo://app?vid=4ce172d6-03f3-4c2b-ae95-fb641347d3f1","ios":"levelo://app?vid=4ce172d6-03f3-4c2b-ae95-fb641347d3f1"},"vehicle_type_id":"4","last_reported":1750097707,"current_range_meters":2000,"station_id":"ce4bgup2rcd13ifvqco0","pricing_plan_id":"cebpf4jnsgd1na2vs0mg"},{"bike_id":"a38c26ab-acd7-4df2-b521-d1ead259e3c2","system_id":"levelo_inurba_marseille","lat":43.30141,"lon":5.39861,"is_reserved":false,"is_disabled":true,"rental_uris":{"android":"levelo://app?vid=a38c26ab-acd7-4df2-b521-d1ead259e3c2","ios":"levelo://app?vid=a38c26ab-acd7-4df2-b521-d1ead259e3c2"},"vehicle_type_id":"4","last_reported":1750097707,"current_range_meters":2000,"station_id":"ce4bh0h2rcd13ifvqd40","pricing_plan_id":"cebpf4jnsgd1na2vs0mg"},{"bike_id":"2a83c869-c18d-491d-9c88-9146e6b9d569","system_id":"levelo_inurba_marseille","lat":43.28379,"lon":5.38624,"is_reserved":false,"is_disabled":true,"rental_uris":{"android":"levelo://app?vid=2a83c869-c18d-491d-9c88-9146e6b9d569","ios":"levelo://app?vid=2a83c869-c18d-491d-9c88-9146e6b9d569"},"vehicle_type_id":"4","last_reported":1750097707,"current_range_meters":2000,"station_id":"ce4bh492rcd13ifvqdvg","pricing_plan_id":"cebpf4jnsgd1na2vs0mg"},{"bike_id":"f1f710f9-9932-4d6a-b758-2d58f1a6219a","system_id":"levelo_inurba_marseille","lat":43.28726,"lon":5.37946,"is_reserved":false,"is_disabled":true,"rental_uris":{"android":"levelo://app?vid=f1f710f9-9932-4d6a-b758-2d58f1a6219a","ios":"levelo://app?vid=f1f710f9-9932-4d6a-b758-2d58f1a6219a"},"vehicle_type_id":"4","last_reported":1750097707,"current_range_meters":2000,"station_id":"ce4bh9p2rcd13ifvqec0","pricing_plan_id":"cebpf4jnsgd1na2vs0mg"},{"bike_id":"7bed12ae-01f0-4e6b-9b28-c386747fc9c5","system_id":"levelo_inurba_marseille","lat":43.28106,"lon":5.39639,"is_reserved":false,"is_disabled":true,"rental_uris":{"android":"levelo://app?vid=7bed12ae-01f0-4e6b-9b28-c386747fc9c5","ios":"levelo://app?vid=7bed12ae-01f0-4e6b-9b28-c386747fc9c5"},"vehicle_type_id":"4","last_reported":1750097707,"current_range_meters":2000,"station_id":"ce4bho12rcd13ifvqh2g","pricing_plan_id":"cebpf4jnsgd1na2vs0mg"},{"bike_id":"3c4d6416-c936-4ae6-aee7-775ec241b658","system_id":"levelo_inurba_marseille","lat":43.29791,"lon":5.39344,"is_reserved":false,"is_disabled":false,"rental_uris":{"android":"levelo://app?vid=3c4d6416-c936-4ae6-aee7-775ec241b658","ios":"levelo://app?vid=3c4d6416-c936-4ae6-aee7-775ec241b658"},"vehicle_type_id":"4","last_reported":1750097707,"current_range_meters":2000,"station_id":"chh1huq6cuj3fo74tm60","pricing_plan_id":"cebpf4jnsgd1na2vs0mg"},{"bike_id":"e905d6f2-f2b0-487a-9709-ccfdac9baee4","system_id":"levelo_inurba_marseille","lat":43.30845,"lon":5.37053,"is_reserved":false,"is_disabled":false,"rental_uris":{"android":"levelo://app?vid=e905d6f2-f2b0-487a-9709-ccfdac9baee4","ios":"levelo://app?vid=e905d6f2-f2b0-487a-9709-ccfdac9baee4"},"vehicle_type_id":"4","last_reported":1750097707,"current_range_meters":2800,"station_id":"","pricing_plan_id":"cebpf4jnsgd1na2vs0mg"},{"bike_id":"f91e3e8d-c72b-4add-bd65-a9c7cdf6ad33","system_id":"levelo_inurba_marseille","lat":43.29821,"lon":5.38115,"is_reserved":false,"is_disabled":false,"rental_uris":{"android":"levelo://app?vid=f91e3e8d-c72b-4add-bd65-a9c7cdf6ad33","ios":"levelo://app?vid=f91e3e8d-c72b-4add-bd65-a9c7cdf6ad33"},"vehicle_type_id":"4","last_reported":1750097707,"current_range_meters":2800,"station_id":"ce4bgip2rcd13ifvqbb0","pricing_plan_id":"cebpf4jnsgd1na2vs0mg"},{"bike_id":"274c813a-3e5b-4a61-8315-8d66fe5c9017","system_id":"levelo_inurba_marseille","lat":43.27991,"lon":5.38758,"is_reserved":false,"is_disabled":false,"rental_uris":{"android":"levelo://app?vid=274c813a-3e5b-4a61-8315-8d66fe5c9017","ios":"levelo://app?vid=274c813a-3e5b-4a61-8315-8d66fe5c9017"},"vehicle_type_id":"4","last_reported":1750097707,"current_range_meters":2800,"station_id":"ce4bhg12rcd13ifvqf80","pricing_plan_id":"cebpf4jnsgd1na2vs0mg"},{"bike_id":"019dff61-b9b2-4c02-89ba-6f434cdf9555","system_id":"levelo_inurba_marseille","lat":43.28155,"lon":5.42634,"is_reserved":false,"is_disabled":true,"rental_uris":{"android":"levelo://app?vid=019dff61-b9b2-4c02-89ba-6f434cdf9555","ios":"levelo://app?vid=019dff61-b9b2-4c02-89ba-6f434cdf9555"},"vehicle_type_id":"4","last_reported":1750097707,"current_range_meters":2800,"station_id":"ce4bhnh2rcd13ifvqgug","pricing_plan_id":"cebpf4jnsgd1na2vs0mg"},{"bike_id":"5b74ee20-5147-443a-9c2f-6827df261a1d","system_id":"levelo_inurba_marseille","lat":43.28405,"lon":5.37522,"is_reserved":false,"is_disabled":false,"rental_uris":{"android":"levelo://app?vid=5b74ee20-5147-443a-9c2f-6827df261a1d","ios":"levelo://app?vid=5b74ee20-5147-443a-9c2f-6827df261a1d"},"vehicle_type_id":"4","last_reported":1750097707,"current_range_meters":3200,"station_id":"ce4bh412rcd13ifvqds0","pricing_plan_id":"cebpf4jnsgd1na2vs0mg"},{"bike_id":"1827d622-e20d-4be6-99ac-0d1e0724dbb6","system_id":"levelo_inurba_marseille","lat":43.337444,"lon":5.374475,"is_reserved":false,"is_disabled":false,"rental_uris":{"android":"levelo://app?vid=1827d622-e20d-4be6-99ac-0d1e0724dbb6","ios":"levelo://app?vid=1827d622-e20d-4be6-99ac-0d1e0724dbb6"},"vehicle_type_id":"4","last_reported":1750097707,"current_range_meters":3600,"station_id":"","pricing_plan_id":"cebpf4jnsgd1na2vs0mg"},{"bike_id":"3ae20ac6-ddfc-409f-9494-5028d9625cd4","system_id":"levelo_inurba_marseille","lat":43.29531,"lon":5.3854,"is_reserved":false,"is_disabled":false,"rental_uris":{"android":"levelo://app?vid=3ae20ac6-ddfc-409f-9494-5028d9625cd4","ios":"levelo://app?vid=3ae20ac6-ddfc-409f-9494-5028d9625cd4"},"vehicle_type_id":"4","last_reported":1750097707,"current_range_meters":3600,"station_id":"ce4bgih2rcd13ifvqba0","pricing_plan_id":"cebpf4jnsgd1na2vs0mg"},{"bike_id":"829db069-6905-48d4-bc43-ea70177a5e1f","system_id":"levelo_inurba_marseille","lat":43.31174,"lon":5.38716,"is_reserved":false,"is_disabled":false,"rental_uris":{"android":"levelo://app?vid=829db069-6905-48d4-bc43-ea70177a5e1f","ios":"levelo://app?vid=829db069-6905-48d4-bc43-ea70177a5e1f"},"vehicle_type_id":"4","last_reported":1750097707,"current_range_meters":3600,"station_id":"ce4bgv12rcd13ifvqcp0","pricing_plan_id":"cebpf4jnsgd1na2vs0mg"},{"bike_id":"2db30ff7-6f15-4afa-8b86-c3e938bcd2cd","system_id":"levelo_inurba_marseille","lat":43.28404,"lon":5.37518,"is_reserved":false,"is_disabled":false,"rental_uris":{"android":"levelo://app?vid=2db30ff7-6f15-4afa-8b86-c3e938bcd2cd","ios":"levelo://app?vid=2db30ff7-6f15-4afa-8b86-c3e938bcd2cd"},"vehicle_type_id":"4","last_reported":1750097707,"current_range_meters":3600,"station_id":"ce4bh412rcd13ifvqds0","pricing_plan_id":"cebpf4jnsgd1na2vs0mg"},{"bike_id":"ead6486e-b14d-4a13-a8e1-420ea100f1a2","system_id":"levelo_inurba_marseille","lat":43.29006,"lon":5.38139,"is_reserved":false,"is_disabled":false,"rental_uris":{"android":"levelo://app?vid=ead6486e-b14d-4a13-a8e1-420ea100f1a2","ios":"levelo://app?vid=ead6486e-b14d-4a13-a8e1-420ea100f1a2"},"vehicle_type_id":"4","last_reported":1750097707,"current_range_meters":3600,"station_id":"ce4bh4p2rcd13ifvqe1g","pricing_plan_id":"cebpf4jnsgd1na2vs0mg"},{"bike_id":"fd7770e5-f138-4769-898d-1a1c6f571fde","system_id":"levelo_inurba_marseille","lat":43.29021,"lon":5.38125,"is_reserved":false,"is_disabled":false,"rental_uris":{"android":"levelo://app?vid=fd7770e5-f138-4769-898d-1a1c6f571fde","ios":"levelo://app?vid=fd7770e5-f138-4769-898d-1a1c6f571fde"},"vehicle_type_id":"4","last_reported":1750097707,"current_range_meters":3600,"station_id":"ce4bh4p2rcd13ifvqe1g","pricing_plan_id":"cebpf4jnsgd1na2vs0mg"},{"bike_id":"451466ae-f7bd-40b2-932f-4178f807be7c","system_id":"levelo_inurba_marseille","lat":43.26232,"lon":5.40453,"is_reserved":false,"is_disabled":false,"rental_uris":{"android":"levelo://app?vid=451466ae-f7bd-40b2-932f-4178f807be7c","ios":"levelo://app?vid=451466ae-f7bd-40b2-932f-4178f807be7c"},"vehicle_type_id":"4","last_reported":1750097707,"current_range_meters":3600,"station_id":"ce4bhmh2rcd13ifvqgmg","pricing_plan_id":"cebpf4jnsgd1na2vs0mg"},{"bike_id":"f7d61edd-3d98-4317-ac93-00130fdb72f9","system_id":"levelo_inurba_marseille","lat":43.33557,"lon":5.39868,"is_reserved":false,"is_disabled":false,"rental_uris":{"android":"levelo://app?vid=f7d61edd-3d98-4317-ac93-00130fdb72f9","ios":"levelo://app?vid=f7d61edd-3d98-4317-ac93-00130fdb72f9"},"vehicle_type_id":"4","last_reported":1750097707,"current_range_meters":4000,"station_id":"","pricing_plan_id":"cebpf4jnsgd1na2vs0mg"},{"bike_id":"947457ff-6d2b-4a23-a3e1-3604ce758aaf","system_id":"levelo_inurba_marseille","lat":43.26215,"lon":5.37445,"is_reserved":false,"is_disabled":false,"rental_uris":{"android":"levelo://app?vid=947457ff-6d2b-4a23-a3e1-3604ce758aaf","ios":"levelo://app?vid=947457ff-6d2b-4a23-a3e1-3604ce758aaf"},"vehicle_type_id":"4","last_reported":1750097707,"current_range_meters":4000,"station_id":"ce4bhgp2rcd13ifvqfc0","pricing_plan_id":"cebpf4jnsgd1na2vs0mg"},{"bike_id":"45884b52-fa5d-4523-b479-abc6798974ac","system_id":"levelo_inurba_marseille","lat":43.25493,"lon":5.37649,"is_reserved":false,"is_disabled":false,"rental_uris":{"android":"levelo://app?vid=45884b52-fa5d-4523-b479-abc6798974ac","ios":"levelo://app?vid=45884b52-fa5d-4523-b479-abc6798974ac"},"vehicle_type_id":"4","last_reported":1750097707,"current_range_meters":4000,"station_id":"ce4bhh12rcd13ifvqff0","pricing_plan_id":"cebpf4jnsgd1na2vs0mg"},{"bike_id":"dfbeec0e-3f46-459b-8041-a527e08b4ca2","system_id":"levelo_inurba_marseille","lat":43.278227,"lon":5.407263,"is_reserved":false,"is_disabled":false,"rental_uris":{"android":"levelo://app?vid=dfbeec0e-3f46-459b-8041-a527e08b4ca2","ios":"levelo://app?vid=dfbeec0e-3f46-459b-8041-a527e08b4ca2"},"vehicle_type_id":"4","last_reported":1750097707,"current_range_meters":4000,"station_id":"ce4bhnh2rcd13ifvqgtg","pricing_plan_id":"cebpf4jnsgd1na2vs0mg"},{"bike_id":"cce34e5a-1161-4d18-a004-0ac816af5267","system_id":"levelo_inurba_marseille","lat":43.27811,"lon":5.40711,"is_reserved":false,"is_disabled":false,"rental_uris":{"android":"levelo://app?vid=cce34e5a-1161-4d18-a004-0ac816af5267","ios":"levelo://app?vid=cce34e5a-1161-4d18-a004-0ac816af5267"},"vehicle_type_id":"4","last_reported":1750097707,"current_range_meters":4000,"station_id":"ce4bhnh2rcd13ifvqgtg","pricing_plan_id":"cebpf4jnsgd1na2vs0mg"},{"bike_id":"613aae48-c3b5-4701-8b2a-5c0c9b53a7dd","system_id":"levelo_inurba_marseille","lat":43.286865,"lon":5.366961,"is_reserved":false,"is_disabled":false,"rental_uris":{"android":"levelo://app?vid=613aae48-c3b5-4701-8b2a-5c0c9b53a7dd","ios":"levelo://app?vid=613aae48-c3b5-4701-8b2a-5c0c9b53a7dd"},"vehicle_type_id":"4","last_reported":1750097707,"current_range_meters":4400,"station_id":"ce4bgih2rcd13ifvqba0","pricing_plan_id":"cebpf4jnsgd1na2vs0mg"},{"bike_id":"b25d71de-0e6e-42af-8cce-792f1716d5eb","system_id":"levelo_inurba_marseille","lat":43.29934,"lon":5.37495,"is_reserved":false,"is_disabled":false,"rental_uris":{"android":"levelo://app?vid=b25d71de-0e6e-42af-8cce-792f1716d5eb","ios":"levelo://app?vid=b25d71de-0e6e-42af-8cce-792f1716d5eb"},"vehicle_type_id":"4","last_reported":1750097707,"current_range_meters":4400,"station_id":"ce4bgjh2rcd13ifvqbg0","pricing_plan_id":"cebpf4jnsgd1na2vs0mg"},{"bike_id":"cec3e1fb-5553-4493-9f46-52ace08be419","system_id":"levelo_inurba_marseille","lat":43.28359,"lon":5.38105,"is_reserved":false,"is_disabled":true,"rental_uris":{"android":"levelo://app?vid=cec3e1fb-5553-4493-9f46-52ace08be419","ios":"levelo://app?vid=cec3e1fb-5553-4493-9f46-52ace08be419"},"vehicle_type_id":"4","last_reported":1750097707,"current_range_meters":4400,"station_id":"ce4bh412rcd13ifvqdr0","pricing_plan_id":"cebpf4jnsgd1na2vs0mg"},{"bike_id":"5dd1001c-85dc-429c-bc03-03a3288a5572","system_id":"levelo_inurba_marseille","lat":43.28263,"lon":5.35072,"is_reserved":false,"is_disabled":false,"rental_uris":{"android":"levelo://app?vid=5dd1001c-85dc-429c-bc03-03a3288a5572","ios":"levelo://app?vid=5dd1001c-85dc-429c-bc03-03a3288a5572"},"vehicle_type_id":"4","last_reported":1750097707,"current_range_meters":4400,"station_id":"ce4bhbp2rcd13ifvqerg","pricing_plan_id":"cebpf4jnsgd1na2vs0mg"},{"bike_id":"7454de06-61a3-4a06-86a3-b2e718d407a2","system_id":"levelo_inurba_marseille","lat":43.29617,"lon":5.37712,"is_reserved":false,"is_disabled":false,"rental_uris":{"android":"levelo://app?vid=7454de06-61a3-4a06-86a3-b2e718d407a2","ios":"levelo://app?vid=7454de06-61a3-4a06-86a3-b2e718d407a2"},"vehicle_type_id":"4","last_reported":1750097707,"current_range_meters":4800,"station_id":"ce4bgi92rcd13ifvqb90","pricing_plan_id":"cebpf4jnsgd1na2vs0mg"},{"bike_id":"a080f980-a5f5-4b42-bcbd-02017f575ab3","system_id":"levelo_inurba_marseille","lat":43.23181,"lon":5.39981,"is_reserved":false,"is_disabled":false,"rental_uris":{"android":"levelo://app?vid=a080f980-a5f5-4b42-bcbd-02017f575ab3","ios":"levelo://app?vid=a080f980-a5f5-4b42-bcbd-02017f575ab3"},"vehicle_type_id":"4","last_reported":1750097707,"current_range_meters":4800,"station_id":"ce4bhn12rcd13ifvqgqg","pricing_plan_id":"cebpf4jnsgd1na2vs0mg"},{"bike_id":"f16a5698-ddc2-4e59-97f5-5526424b5a60","system_id":"levelo_inurba_marseille","lat":43.211921,"lon":5.350748,"is_reserved":false,"is_disabled":false,"rental_uris":{"android":"levelo://app?vid=f16a5698-ddc2-4e59-97f5-5526424b5a60","ios":"levelo://app?vid=f16a5698-ddc2-4e59-97f5-5526424b5a60"},"vehicle_type_id":"4","last_reported":1750097707,"current_range_meters":4800,"station_id":"st_cvj6sg6p6f1abm77japg","pricing_plan_id":"cebpf4jnsgd1na2vs0mg"},{"bike_id":"dbfce7a3-3423-4296-b193-a177dea644ac","system_id":"levelo_inurba_marseille","lat":43.2728,"lon":5.41605,"is_reserved":false,"is_disabled":false,"rental_uris":{"android":"levelo://app?vid=dbfce7a3-3423-4296-b193-a177dea644ac","ios":"levelo://app?vid=dbfce7a3-3423-4296-b193-a177dea644ac"},"vehicle_type_id":"4","last_reported":1750097707,"current_range_meters":5600,"station_id":"","pricing_plan_id":"cebpf4jnsgd1na2vs0mg"},{"bike_id":"3e390950-b121-41a6-98fa-b72c5dbe61bb","system_id":"levelo_inurba_marseille","lat":43.27623,"lon":5.36108,"is_reserved":false,"is_disabled":false,"rental_uris":{"android":"levelo://app?vid=3e390950-b121-41a6-98fa-b72c5dbe61bb","ios":"levelo://app?vid=3e390950-b121-41a6-98fa-b72c5dbe61bb"},"vehicle_type_id":"4","last_reported":1750097707,"current_range_meters":5600,"station_id":"ce4bgj92rcd13ifvqbe0","pricing_plan_id":"cebpf4jnsgd1na2vs0mg"},{"bike_id":"9005d0b9-c65c-4c3b-8dbe-d83b26c50c4e","system_id":"levelo_inurba_marseille","lat":43.29622,"lon":5.38052,"is_reserved":false,"is_disabled":false,"rental_uris":{"android":"levelo://app?vid=9005d0b9-c65c-4c3b-8dbe-d83b26c50c4e","ios":"levelo://app?vid=9005d0b9-c65c-4c3b-8dbe-d83b26c50c4e"},"vehicle_type_id":"4","last_reported":1750097707,"current_range_meters":5600,"station_id":"ce4bgl12rcd13ifvqbo0","pricing_plan_id":"cebpf4jnsgd1na2vs0mg"},{"bike_id":"6079ec62-0209-468a-b016-60f21d157cc2","system_id":"levelo_inurba_marseille","lat":43.28272,"lon":5.3507,"is_reserved":false,"is_disabled":false,"rental_uris":{"android":"levelo://app?vid=6079ec62-0209-468a-b016-60f21d157cc2","ios":"levelo://app?vid=6079ec62-0209-468a-b016-60f21d157cc2"},"vehicle_type_id":"4","last_reported":1750097707,"current_range_meters":5600,"station_id":"ce4bhbp2rcd13ifvqerg","pricing_plan_id":"cebpf4jnsgd1na2vs0mg"},{"bike_id":"bdc2527c-e051-440b-9af6-05226d215e5c","system_id":"levelo_inurba_marseille","lat":43.2862,"lon":5.35107,"is_reserved":false,"is_disabled":false,"rental_uris":{"android":"levelo://app?vid=bdc2527c-e051-440b-9af6-05226d215e5c","ios":"levelo://app?vid=bdc2527c-e051-440b-9af6-05226d215e5c"},"vehicle_type_id":"4","last_reported":1750097707,"current_range_meters":5600,"station_id":"ce4bhch2rcd13ifvqeug","pricing_plan_id":"cebpf4jnsgd1na2vs0mg"},{"bike_id":"2937cfef-6bdf-45e4-b8fd-c324e97ce4f7","system_id":"levelo_inurba_marseille","lat":43.26792,"lon":5.39406,"is_reserved":false,"is_disabled":false,"rental_uris":{"android":"levelo://app?vid=2937cfef-6bdf-45e4-b8fd-c324e97ce4f7","ios":"levelo://app?vid=2937cfef-6bdf-45e4-b8fd-c324e97ce4f7"},"vehicle_type_id":"4","last_reported":1750097707,"current_range_meters":5600,"station_id":"ce4bhh12rcd13ifvqfg0","pricing_plan_id":"cebpf4jnsgd1na2vs0mg"},{"bike_id":"be42d937-d1c4-475d-a7cf-5d3a9389d107","system_id":"levelo_inurba_marseille","lat":43.30377,"lon":5.42486,"is_reserved":false,"is_disabled":false,"rental_uris":{"android":"levelo://app?vid=be42d937-d1c4-475d-a7cf-5d3a9389d107","ios":"levelo://app?vid=be42d937-d1c4-475d-a7cf-5d3a9389d107"},"vehicle_type_id":"4","last_reported":1750097707,"current_range_meters":5600,"station_id":"ce4bhoh2rcd13ifvqh6g","pricing_plan_id":"cebpf4jnsgd1na2vs0mg"},{"bike_id":"ea307549-fcfd-421f-974e-6f0da48f4de1","system_id":"levelo_inurba_marseille","lat":43.30797,"lon":5.38147,"is_reserved":false,"is_disabled":false,"rental_uris":{"android":"levelo://app?vid=ea307549-fcfd-421f-974e-6f0da48f4de1","ios":"levelo://app?vid=ea307549-fcfd-421f-974e-6f0da48f4de1"},"vehicle_type_id":"4","last_reported":1750097707,"current_range_meters":6000,"station_id":"ce4bgt12rcd13ifvqce0","pricing_plan_id":"cebpf4jnsgd1na2vs0mg"},{"bike_id":"6efef5f8-941f-4216-9946-0e488d82f335","system_id":"levelo_inurba_marseille","lat":43.28271,"lon":5.35081,"is_reserved":false,"is_disabled":false,"rental_uris":{"android":"levelo://app?vid=6efef5f8-941f-4216-9946-0e488d82f335","ios":"levelo://app?vid=6efef5f8-941f-4216-9946-0e488d82f335"},"vehicle_type_id":"4","last_reported":1750097707,"current_range_meters":6000,"station_id":"ce4bhbp2rcd13ifvqerg","pricing_plan_id":"cebpf4jnsgd1na2vs0mg"},{"bike_id":"8b819e71-3e8a-4fbc-81e1-7ebbfaf61469","system_id":"levelo_inurba_marseille","lat":43.29279,"lon":5.36841,"is_reserved":false,"is_disabled":false,"rental_uris":{"android":"levelo://app?vid=8b819e71-3e8a-4fbc-81e1-7ebbfaf61469","ios":"levelo://app?vid=8b819e71-3e8a-4fbc-81e1-7ebbfaf61469"},"vehicle_type_id":"4","last_reported":1750097707,"current_range_meters":6000,"station_id":"ce4bhbp2rcd13ifvqesg","pricing_plan_id":"cebpf4jnsgd1na2vs0mg"},{"bike_id":"fd49190a-5db7-42a1-b5d1-9974d134dcbb","system_id":"levelo_inurba_marseille","lat":43.27831,"lon":5.39206,"is_reserved":false,"is_disabled":false,"rental_uris":{"android":"levelo://app?vid=fd49190a-5db7-42a1-b5d1-9974d134dcbb","ios":"levelo://app?vid=fd49190a-5db7-42a1-b5d1-9974d134dcbb"},"vehicle_type_id":"4","last_reported":1750097707,"current_range_meters":6000,"station_id":"ce4bhjp2rcd13ifvqga0","pricing_plan_id":"cebpf4jnsgd1na2vs0mg"},{"bike_id":"49f12802-d823-4cb5-903c-1c17fbf5b903","system_id":"levelo_inurba_marseille","lat":43.27829,"lon":5.41441,"is_reserved":false,"is_disabled":false,"rental_uris":{"android":"levelo://app?vid=49f12802-d823-4cb5-903c-1c17fbf5b903","ios":"levelo://app?vid=49f12802-d823-4cb5-903c-1c17fbf5b903"},"vehicle_type_id":"4","last_reported":1750097707,"current_range_meters":6400,"station_id":"","pricing_plan_id":"cebpf4jnsgd1na2vs0mg"},{"bike_id":"dbfca594-3761-41f6-991a-e43e1017d609","system_id":"levelo_inurba_marseille","lat":43.24144,"lon":5.36798,"is_reserved":false,"is_disabled":false,"rental_uris":{"android":"levelo://app?vid=dbfca594-3761-41f6-991a-e43e1017d609","ios":"levelo://app?vid=dbfca594-3761-41f6-991a-e43e1017d609"},"vehicle_type_id":"4","last_reported":1750097707,"current_range_meters":6400,"station_id":"","pricing_plan_id":"cebpf4jnsgd1na2vs0mg"},{"bike_id":"221c69ab-b41b-4890-a6d9-307728dde63f","system_id":"levelo_inurba_marseille","lat":43.28617,"lon":5.3511,"is_reserved":false,"is_disabled":false,"rental_uris":{"android":"levelo://app?vid=221c69ab-b41b-4890-a6d9-307728dde63f","ios":"levelo://app?vid=221c69ab-b41b-4890-a6d9-307728dde63f"},"vehicle_type_id":"4","last_reported":1750097707,"current_range_meters":6400,"station_id":"ce4bhch2rcd13ifvqeug","pricing_plan_id":"cebpf4jnsgd1na2vs0mg"},{"bike_id":"43badbe7-2f52-4f20-8e9e-b32e564e8a0e","system_id":"levelo_inurba_marseille","lat":43.27995,"lon":5.40018,"is_reserved":false,"is_disabled":false,"rental_uris":{"android":"levelo://app?vid=43badbe7-2f52-4f20-8e9e-b32e564e8a0e","ios":"levelo://app?vid=43badbe7-2f52-4f20-8e9e-b32e564e8a0e"},"vehicle_type_id":"4","last_reported":1750097707,"current_range_meters":6400,"station_id":"ce4bho92rcd13ifvqh4g","pricing_plan_id":"cebpf4jnsgd1na2vs0mg"},{"bike_id":"8c6e3f5c-fbd9-4abe-a7be-ece848b4fc54","system_id":"levelo_inurba_marseille","lat":43.30809,"lon":5.43524,"is_reserved":false,"is_disabled":false,"rental_uris":{"android":"levelo://app?vid=8c6e3f5c-fbd9-4abe-a7be-ece848b4fc54","ios":"levelo://app?vid=8c6e3f5c-fbd9-4abe-a7be-ece848b4fc54"},"vehicle_type_id":"4","last_reported":1750097707,"current_range_meters":6400,"station_id":"ce4bhph2rcd13ifvqheg","pricing_plan_id":"cebpf4jnsgd1na2vs0mg"},{"bike_id":"629b471d-4957-45bf-8006-de4980734ee2","system_id":"levelo_inurba_marseille","lat":43.29785,"lon":5.39356,"is_reserved":false,"is_disabled":false,"rental_uris":{"android":"levelo://app?vid=629b471d-4957-45bf-8006-de4980734ee2","ios":"levelo://app?vid=629b471d-4957-45bf-8006-de4980734ee2"},"vehicle_type_id":"4","last_reported":1750097707,"current_range_meters":6400,"station_id":"chh1huq6cuj3fo74tm60","pricing_plan_id":"cebpf4jnsgd1na2vs0mg"},{"bike_id":"a1790914-11cd-4339-a3ae-4e4ff20e3218","system_id":"levelo_inurba_marseille","lat":43.298035,"lon":5.380916,"is_reserved":false,"is_disabled":false,"rental_uris":{"android":"levelo://app?vid=a1790914-11cd-4339-a3ae-4e4ff20e3218","ios":"levelo://app?vid=a1790914-11cd-4339-a3ae-4e4ff20e3218"},"vehicle_type_id":"4","last_reported":1750097707,"current_range_meters":6800,"station_id":"ce4bgip2rcd13ifvqbb0","pricing_plan_id":"cebpf4jnsgd1na2vs0mg"},{"bike_id":"fba6c5db-ce7b-4c04-b525-d06ea5faafba","system_id":"levelo_inurba_marseille","lat":43.30595,"lon":5.39362,"is_reserved":false,"is_disabled":false,"rental_uris":{"android":"levelo://app?vid=fba6c5db-ce7b-4c04-b525-d06ea5faafba","ios":"levelo://app?vid=fba6c5db-ce7b-4c04-b525-d06ea5faafba"},"vehicle_type_id":"4","last_reported":1750097707,"current_range_meters":6800,"station_id":"ce4bh0p2rcd13ifvqd80","pricing_plan_id":"cebpf4jnsgd1na2vs0mg"},{"bike_id":"67bd9e91-5e9d-4493-bd17-692ba1a39303","system_id":"levelo_inurba_marseille","lat":43.28431,"lon":5.37503,"is_reserved":false,"is_disabled":false,"rental_uris":{"android":"levelo://app?vid=67bd9e91-5e9d-4493-bd17-692ba1a39303","ios":"levelo://app?vid=67bd9e91-5e9d-4493-bd17-692ba1a39303"},"vehicle_type_id":"4","last_reported":1750097707,"current_range_meters":6800,"station_id":"ce4bh412rcd13ifvqds0","pricing_plan_id":"cebpf4jnsgd1na2vs0mg"},{"bike_id":"ea4211fd-815d-43d2-bd70-29239910a292","system_id":"levelo_inurba_marseille","lat":43.292572,"lon":5.384433,"is_reserved":false,"is_disabled":false,"rental_uris":{"android":"levelo://app?vid=ea4211fd-815d-43d2-bd70-29239910a292","ios":"levelo://app?vid=ea4211fd-815d-43d2-bd70-29239910a292"},"vehicle_type_id":"4","last_reported":1750097707,"current_range_meters":6800,"station_id":"ce4bh692rcd13ifvqea0","pricing_plan_id":"cebpf4jnsgd1na2vs0mg"},{"bike_id":"04e8aefd-f2ce-40ac-9e66-98c297ec0b88","system_id":"levelo_inurba_marseille","lat":43.32302,"lon":5.40622,"is_reserved":false,"is_disabled":false,"rental_uris":{"android":"levelo://app?vid=04e8aefd-f2ce-40ac-9e66-98c297ec0b88","ios":"levelo://app?vid=04e8aefd-f2ce-40ac-9e66-98c297ec0b88"},"vehicle_type_id":"4","last_reported":1750097707,"current_range_meters":6800,"station_id":"ce4bhq92rcd13ifvqhjg","pricing_plan_id":"cebpf4jnsgd1na2vs0mg"},{"bike_id":"d86f302b-416b-4b4f-b8ab-63cc09aa4d80","system_id":"levelo_inurba_marseille","lat":43.31361,"lon":5.3849,"is_reserved":false,"is_disabled":false,"rental_uris":{"android":"levelo://app?vid=d86f302b-416b-4b4f-b8ab-63cc09aa4d80","ios":"levelo://app?vid=d86f302b-416b-4b4f-b8ab-63cc09aa4d80"},"vehicle_type_id":"4","last_reported":1750097707,"current_range_meters":7200,"station_id":"ce4bgt92rcd13ifvqcf0","pricing_plan_id":"cebpf4jnsgd1na2vs0mg"},{"bike_id":"b37168ca-dff2-4b71-90e5-b421eda9bcd5","system_id":"levelo_inurba_marseille","lat":43.28614,"lon":5.35106,"is_reserved":false,"is_disabled":false,"rental_uris":{"android":"levelo://app?vid=b37168ca-dff2-4b71-90e5-b421eda9bcd5","ios":"levelo://app?vid=b37168ca-dff2-4b71-90e5-b421eda9bcd5"},"vehicle_type_id":"4","last_reported":1750097707,"current_range_meters":7200,"station_id":"ce4bhch2rcd13ifvqeug","pricing_plan_id":"cebpf4jnsgd1na2vs0mg"},{"bike_id":"21c22b99-554c-49fc-8929-8a8fea66471b","system_id":"levelo_inurba_marseille","lat":43.26054,"lon":5.39364,"is_reserved":false,"is_disabled":false,"rental_uris":{"android":"levelo://app?vid=21c22b99-554c-49fc-8929-8a8fea66471b","ios":"levelo://app?vid=21c22b99-554c-49fc-8929-8a8fea66471b"},"vehicle_type_id":"4","last_reported":1750097707,"current_range_meters":7200,"station_id":"ce4bhh92rcd13ifvqfj0","pricing_plan_id":"cebpf4jnsgd1na2vs0mg"},{"bike_id":"8d297b38-f666-4a46-9dee-0132f800019c","system_id":"levelo_inurba_marseille","lat":43.3221,"lon":5.38596,"is_reserved":false,"is_disabled":false,"rental_uris":{"android":"levelo://app?vid=8d297b38-f666-4a46-9dee-0132f800019c","ios":"levelo://app?vid=8d297b38-f666-4a46-9dee-0132f800019c"},"vehicle_type_id":"4","last_reported":1750097707,"current_range_meters":8000,"station_id":"","pricing_plan_id":"cebpf4jnsgd1na2vs0mg"},{"bike_id":"159e502c-401e-4376-b7ab-6f7d3e35b9f3","system_id":"levelo_inurba_marseille","lat":43.29533,"lon":5.39413,"is_reserved":false,"is_disabled":false,"rental_uris":{"android":"levelo://app?vid=159e502c-401e-4376-b7ab-6f7d3e35b9f3","ios":"levelo://app?vid=159e502c-401e-4376-b7ab-6f7d3e35b9f3"},"vehicle_type_id":"4","last_reported":1750097707,"current_range_meters":8000,"station_id":"ce4bh292rcd13ifvqdf0","pricing_plan_id":"cebpf4jnsgd1na2vs0mg"},{"bike_id":"574c4a8f-fac4-412c-9ed5-d3c33234eca3","system_id":"levelo_inurba_marseille","lat":43.282745,"lon":5.350575,"is_reserved":false,"is_disabled":false,"rental_uris":{"android":"levelo://app?vid=574c4a8f-fac4-412c-9ed5-d3c33234eca3","ios":"levelo://app?vid=574c4a8f-fac4-412c-9ed5-d3c33234eca3"},"vehicle_type_id":"4","last_reported":1750097707,"current_range_meters":8000,"station_id":"ce4bhbp2rcd13ifvqerg","pricing_plan_id":"cebpf4jnsgd1na2vs0mg"},{"bike_id":"6b01b584-52e1-47ef-aa71-011d13b1caf1","system_id":"levelo_inurba_marseille","lat":43.26033,"lon":5.3755,"is_reserved":false,"is_disabled":false,"rental_uris":{"android":"levelo://app?vid=6b01b584-52e1-47ef-aa71-011d13b1caf1","ios":"levelo://app?vid=6b01b584-52e1-47ef-aa71-011d13b1caf1"},"vehicle_type_id":"4","last_reported":1750097707,"current_range_meters":8000,"station_id":"ce4bhgh2rcd13ifvqfa0","pricing_plan_id":"cebpf4jnsgd1na2vs0mg"},{"bike_id":"82dc1b14-dd9b-4595-b9bf-7e43f74d32dc","system_id":"levelo_inurba_marseille","lat":43.27813,"lon":5.4071,"is_reserved":false,"is_disabled":false,"rental_uris":{"android":"levelo://app?vid=82dc1b14-dd9b-4595-b9bf-7e43f74d32dc","ios":"levelo://app?vid=82dc1b14-dd9b-4595-b9bf-7e43f74d32dc"},"vehicle_type_id":"4","last_reported":1750097707,"current_range_meters":8000,"station_id":"ce4bhnh2rcd13ifvqgtg","pricing_plan_id":"cebpf4jnsgd1na2vs0mg"},{"bike_id":"847dcde0-6670-435d-9fca-2ba25dd1f26f","system_id":"levelo_inurba_marseille","lat":43.28705,"lon":5.39994,"is_reserved":false,"is_disabled":false,"rental_uris":{"android":"levelo://app?vid=847dcde0-6670-435d-9fca-2ba25dd1f26f","ios":"levelo://app?vid=847dcde0-6670-435d-9fca-2ba25dd1f26f"},"vehicle_type_id":"4","last_reported":1750097707,"current_range_meters":8400,"station_id":"ce4bho92rcd13ifvqh3g","pricing_plan_id":"cebpf4jnsgd1na2vs0mg"},{"bike_id":"ec4c75ec-c76d-42f8-b556-b0d723b867ae","system_id":"levelo_inurba_marseille","lat":43.30427,"lon":5.41272,"is_reserved":false,"is_disabled":false,"rental_uris":{"android":"levelo://app?vid=ec4c75ec-c76d-42f8-b556-b0d723b867ae","ios":"levelo://app?vid=ec4c75ec-c76d-42f8-b556-b0d723b867ae"},"vehicle_type_id":"4","last_reported":1750097707,"current_range_meters":8400,"station_id":"ce4bhop2rcd13ifvqh8g","pricing_plan_id":"cebpf4jnsgd1na2vs0mg"},{"bike_id":"79eeb666-d8d8-469a-94d3-68222c812a1d","system_id":"levelo_inurba_marseille","lat":43.31799,"lon":5.37457,"is_reserved":false,"is_disabled":false,"rental_uris":{"android":"levelo://app?vid=79eeb666-d8d8-469a-94d3-68222c812a1d","ios":"levelo://app?vid=79eeb666-d8d8-469a-94d3-68222c812a1d"},"vehicle_type_id":"4","last_reported":1750097707,"current_range_meters":8800,"station_id":"","pricing_plan_id":"cebpf4jnsgd1na2vs0mg"},{"bike_id":"dcb87a9a-18f8-41c6-9134-949f31e21b42","system_id":"levelo_inurba_marseille","lat":43.26996,"lon":5.39954,"is_reserved":false,"is_disabled":false,"rental_uris":{"android":"levelo://app?vid=dcb87a9a-18f8-41c6-9134-949f31e21b42","ios":"levelo://app?vid=dcb87a9a-18f8-41c6-9134-949f31e21b42"},"vehicle_type_id":"4","last_reported":1750097707,"current_range_meters":8800,"station_id":"","pricing_plan_id":"cebpf4jnsgd1na2vs0mg"},{"bike_id":"b463e64b-f065-4f41-911e-83ac42f3d8c1","system_id":"levelo_inurba_marseille","lat":43.30136,"lon":5.38782,"is_reserved":false,"is_disabled":false,"rental_uris":{"android":"levelo://app?vid=b463e64b-f065-4f41-911e-83ac42f3d8c1","ios":"levelo://app?vid=b463e64b-f065-4f41-911e-83ac42f3d8c1"},"vehicle_type_id":"4","last_reported":1750097707,"current_range_meters":8800,"station_id":"ce4bghh2rcd13ifvqb60","pricing_plan_id":"cebpf4jnsgd1na2vs0mg"},{"bike_id":"f91a9bbc-b4fa-4034-a21b-f21e594ff5a6","system_id":"levelo_inurba_marseille","lat":43.21184,"lon":5.3508,"is_reserved":false,"is_disabled":false,"rental_uris":{"android":"levelo://app?vid=f91a9bbc-b4fa-4034-a21b-f21e594ff5a6","ios":"levelo://app?vid=f91a9bbc-b4fa-4034-a21b-f21e594ff5a6"},"vehicle_type_id":"4","last_reported":1750097707,"current_range_meters":8800,"station_id":"st_cvj6sg6p6f1abm77japg","pricing_plan_id":"cebpf4jnsgd1na2vs0mg"},{"bike_id":"96f28763-58d8-41d3-90ae-00e2aae7e5cc","system_id":"levelo_inurba_marseille","lat":43.29686,"lon":5.37998,"is_reserved":false,"is_disabled":false,"rental_uris":{"android":"levelo://app?vid=96f28763-58d8-41d3-90ae-00e2aae7e5cc","ios":"levelo://app?vid=96f28763-58d8-41d3-90ae-00e2aae7e5cc"},"vehicle_type_id":"4","last_reported":1750097707,"current_range_meters":9200,"station_id":"","pricing_plan_id":"cebpf4jnsgd1na2vs0mg"},{"bike_id":"10d8703f-8168-48d3-b44c-9eaaf686e239","system_id":"levelo_inurba_marseille","lat":43.30602,"lon":5.37248,"is_reserved":false,"is_disabled":false,"rental_uris":{"android":"levelo://app?vid=10d8703f-8168-48d3-b44c-9eaaf686e239","ios":"levelo://app?vid=10d8703f-8168-48d3-b44c-9eaaf686e239"},"vehicle_type_id":"4","last_reported":1750097707,"current_range_meters":9200,"station_id":"ce4bgqh2rcd13ifvqc4g","pricing_plan_id":"cebpf4jnsgd1na2vs0mg"},{"bike_id":"ba2cdbea-5d13-49a6-b1d1-160f56354d3f","system_id":"levelo_inurba_marseille","lat":43.29208,"lon":5.36084,"is_reserved":false,"is_disabled":false,"rental_uris":{"android":"levelo://app?vid=ba2cdbea-5d13-49a6-b1d1-160f56354d3f","ios":"levelo://app?vid=ba2cdbea-5d13-49a6-b1d1-160f56354d3f"},"vehicle_type_id":"4","last_reported":1750097707,"current_range_meters":9200,"station_id":"ce4bhbh2rcd13ifvqeqg","pricing_plan_id":"cebpf4jnsgd1na2vs0mg"},{"bike_id":"3bbf55ee-ea61-4a02-8142-513e4d9bb03b","system_id":"levelo_inurba_marseille","lat":43.27831,"lon":5.39212,"is_reserved":false,"is_disabled":false,"rental_uris":{"android":"levelo://app?vid=3bbf55ee-ea61-4a02-8142-513e4d9bb03b","ios":"levelo://app?vid=3bbf55ee-ea61-4a02-8142-513e4d9bb03b"},"vehicle_type_id":"4","last_reported":1750097707,"current_range_meters":9200,"station_id":"ce4bhjp2rcd13ifvqga0","pricing_plan_id":"cebpf4jnsgd1na2vs0mg"},{"bike_id":"b58ccb49-75fb-4235-af43-f3344da6f0eb","system_id":"levelo_inurba_marseille","lat":43.23182,"lon":5.3998,"is_reserved":false,"is_disabled":false,"rental_uris":{"android":"levelo://app?vid=b58ccb49-75fb-4235-af43-f3344da6f0eb","ios":"levelo://app?vid=b58ccb49-75fb-4235-af43-f3344da6f0eb"},"vehicle_type_id":"4","last_reported":1750097707,"current_range_meters":9200,"station_id":"ce4bhn12rcd13ifvqgqg","pricing_plan_id":"cebpf4jnsgd1na2vs0mg"},{"bike_id":"3042c9e5-c5a5-4a11-94d1-8e536b5e25f7","system_id":"levelo_inurba_marseille","lat":43.21187,"lon":5.35067,"is_reserved":false,"is_disabled":false,"rental_uris":{"android":"levelo://app?vid=3042c9e5-c5a5-4a11-94d1-8e536b5e25f7","ios":"levelo://app?vid=3042c9e5-c5a5-4a11-94d1-8e536b5e25f7"},"vehicle_type_id":"4","last_reported":1750097707,"current_range_meters":9200,"station_id":"st_cvj6sg6p6f1abm77japg","pricing_plan_id":"cebpf4jnsgd1na2vs0mg"},{"bike_id":"87a73488-390c-4e28-a3b3-5d6b7a9184c3","system_id":"levelo_inurba_marseille","lat":43.337444,"lon":5.374475,"is_reserved":false,"is_disabled":false,"rental_uris":{"android":"levelo://app?vid=87a73488-390c-4e28-a3b3-5d6b7a9184c3","ios":"levelo://app?vid=87a73488-390c-4e28-a3b3-5d6b7a9184c3"},"vehicle_type_id":"4","last_reported":1750097707,"current_range_meters":9600,"station_id":"","pricing_plan_id":"cebpf4jnsgd1na2vs0mg"},{"bike_id":"2fcc9a41-8113-4985-8e25-e14ecf131ad4","system_id":"levelo_inurba_marseille","lat":43.31358,"lon":5.38492,"is_reserved":false,"is_disabled":false,"rental_uris":{"android":"levelo://app?vid=2fcc9a41-8113-4985-8e25-e14ecf131ad4","ios":"levelo://app?vid=2fcc9a41-8113-4985-8e25-e14ecf131ad4"},"vehicle_type_id":"4","last_reported":1750097707,"current_range_meters":9600,"station_id":"ce4bgt92rcd13ifvqcf0","pricing_plan_id":"cebpf4jnsgd1na2vs0mg"},{"bike_id":"c1ac65b7-43d5-4b53-9d44-e587224cfa03","system_id":"levelo_inurba_marseille","lat":43.31169,"lon":5.38727,"is_reserved":false,"is_disabled":false,"rental_uris":{"android":"levelo://app?vid=c1ac65b7-43d5-4b53-9d44-e587224cfa03","ios":"levelo://app?vid=c1ac65b7-43d5-4b53-9d44-e587224cfa03"},"vehicle_type_id":"4","last_reported":1750097707,"current_range_meters":9600,"station_id":"ce4bgv12rcd13ifvqcp0","pricing_plan_id":"cebpf4jnsgd1na2vs0mg"},{"bike_id":"6c3b91a1-f128-4912-b6aa-51be415c99af","system_id":"levelo_inurba_marseille","lat":43.28405,"lon":5.37514,"is_reserved":false,"is_disabled":false,"rental_uris":{"android":"levelo://app?vid=6c3b91a1-f128-4912-b6aa-51be415c99af","ios":"levelo://app?vid=6c3b91a1-f128-4912-b6aa-51be415c99af"},"vehicle_type_id":"4","last_reported":1750097707,"current_range_meters":9600,"station_id":"ce4bh412rcd13ifvqds0","pricing_plan_id":"cebpf4jnsgd1na2vs0mg"},{"bike_id":"fde3bb08-49a2-40fa-9e0d-bd6725b67e4f","system_id":"levelo_inurba_marseille","lat":43.2842,"lon":5.34996,"is_reserved":false,"is_disabled":false,"rental_uris":{"android":"levelo://app?vid=fde3bb08-49a2-40fa-9e0d-bd6725b67e4f","ios":"levelo://app?vid=fde3bb08-49a2-40fa-9e0d-bd6725b67e4f"},"vehicle_type_id":"4","last_reported":1750097707,"current_range_meters":9600,"station_id":"ce4bhbh2rcd13ifvqepg","pricing_plan_id":"cebpf4jnsgd1na2vs0mg"},{"bike_id":"2ee814a5-4054-4fbd-aeb6-e30813100c3b","system_id":"levelo_inurba_marseille","lat":43.231806,"lon":5.399909,"is_reserved":false,"is_disabled":false,"rental_uris":{"android":"levelo://app?vid=2ee814a5-4054-4fbd-aeb6-e30813100c3b","ios":"levelo://app?vid=2ee814a5-4054-4fbd-aeb6-e30813100c3b"},"vehicle_type_id":"4","last_reported":1750097707,"current_range_meters":9600,"station_id":"ce4bhn12rcd13ifvqgqg","pricing_plan_id":"cebpf4jnsgd1na2vs0mg"},{"bike_id":"ebbe2777-b3c4-4790-aca6-8c5579413c5a","system_id":"levelo_inurba_marseille","lat":43.30139,"lon":5.39854,"is_reserved":false,"is_disabled":false,"rental_uris":{"android":"levelo://app?vid=ebbe2777-b3c4-4790-aca6-8c5579413c5a","ios":"levelo://app?vid=ebbe2777-b3c4-4790-aca6-8c5579413c5a"},"vehicle_type_id":"4","last_reported":1750097707,"current_range_meters":10000,"station_id":"ce4bh0h2rcd13ifvqd40","pricing_plan_id":"cebpf4jnsgd1na2vs0mg"},{"bike_id":"8822e49f-3090-43eb-b029-45887a2ecb5a","system_id":"levelo_inurba_marseille","lat":43.29195,"lon":5.35805,"is_reserved":false,"is_disabled":false,"rental_uris":{"android":"levelo://app?vid=8822e49f-3090-43eb-b029-45887a2ecb5a","ios":"levelo://app?vid=8822e49f-3090-43eb-b029-45887a2ecb5a"},"vehicle_type_id":"4","last_reported":1750097707,"current_range_meters":10000,"station_id":"ce4bhb12rcd13ifvqel0","pricing_plan_id":"cebpf4jnsgd1na2vs0mg"},{"bike_id":"9ccb89e3-917d-4ac4-a684-35e90347b8e3","system_id":"levelo_inurba_marseille","lat":43.2551,"lon":5.37649,"is_reserved":false,"is_disabled":false,"rental_uris":{"android":"levelo://app?vid=9ccb89e3-917d-4ac4-a684-35e90347b8e3","ios":"levelo://app?vid=9ccb89e3-917d-4ac4-a684-35e90347b8e3"},"vehicle_type_id":"4","last_reported":1750097707,"current_range_meters":10000,"station_id":"ce4bhh12rcd13ifvqff0","pricing_plan_id":"cebpf4jnsgd1na2vs0mg"},{"bike_id":"f3a39d36-a7bb-4454-8864-3986c8e0d446","system_id":"levelo_inurba_marseille","lat":43.24389,"lon":5.37054,"is_reserved":false,"is_disabled":false,"rental_uris":{"android":"levelo://app?vid=f3a39d36-a7bb-4454-8864-3986c8e0d446","ios":"levelo://app?vid=f3a39d36-a7bb-4454-8864-3986c8e0d446"},"vehicle_type_id":"4","last_reported":1750097707,"current_range_meters":10000,"station_id":"ce4bhhh2rcd13ifvqfk0","pricing_plan_id":"cebpf4jnsgd1na2vs0mg"},{"bike_id":"e83485c9-6882-402f-b854-1902b875d9db","system_id":"levelo_inurba_marseille","lat":43.27076,"lon":5.42287,"is_reserved":false,"is_disabled":false,"rental_uris":{"android":"levelo://app?vid=e83485c9-6882-402f-b854-1902b875d9db","ios":"levelo://app?vid=e83485c9-6882-402f-b854-1902b875d9db"},"vehicle_type_id":"4","last_reported":1750097707,"current_range_meters":10000,"station_id":"ce4bhk92rcd13ifvqgb0","pricing_plan_id":"cebpf4jnsgd1na2vs0mg"},{"bike_id":"40fe9ef5-bce5-4867-873f-894747d76148","system_id":"levelo_inurba_marseille","lat":43.287098,"lon":5.400027,"is_reserved":false,"is_disabled":false,"rental_uris":{"android":"levelo://app?vid=40fe9ef5-bce5-4867-873f-894747d76148","ios":"levelo://app?vid=40fe9ef5-bce5-4867-873f-894747d76148"},"vehicle_type_id":"4","last_reported":1750097707,"current_range_meters":10000,"station_id":"ce4bho92rcd13ifvqh3g","pricing_plan_id":"cebpf4jnsgd1na2vs0mg"},{"bike_id":"6afc644c-08c3-42de-8619-3f94e2ba41cd","system_id":"levelo_inurba_marseille","lat":43.299128,"lon":5.436626,"is_reserved":false,"is_disabled":false,"rental_uris":{"android":"levelo://app?vid=6afc644c-08c3-42de-8619-3f94e2ba41cd","ios":"levelo://app?vid=6afc644c-08c3-42de-8619-3f94e2ba41cd"},"vehicle_type_id":"4","last_reported":1750097707,"current_range_meters":10000,"station_id":"ce4bhpp2rcd13ifvqhfg","pricing_plan_id":"cebpf4jnsgd1na2vs0mg"},{"bike_id":"d788050e-62ca-479e-9fab-6de659965c5c","system_id":"levelo_inurba_marseille","lat":43.28612,"lon":5.3706,"is_reserved":false,"is_disabled":false,"rental_uris":{"android":"levelo://app?vid=d788050e-62ca-479e-9fab-6de659965c5c","ios":"levelo://app?vid=d788050e-62ca-479e-9fab-6de659965c5c"},"vehicle_type_id":"4","last_reported":1750097707,"current_range_meters":10000,"station_id":"ce4bht12rcd13ifvqi60","pricing_plan_id":"cebpf4jnsgd1na2vs0mg"},{"bike_id":"4ab5207d-2be3-436e-bd9e-9882a21911ee","system_id":"levelo_inurba_marseille","lat":43.21188,"lon":5.3507,"is_reserved":false,"is_disabled":false,"rental_uris":{"android":"levelo://app?vid=4ab5207d-2be3-436e-bd9e-9882a21911ee","ios":"levelo://app?vid=4ab5207d-2be3-436e-bd9e-9882a21911ee"},"vehicle_type_id":"4","last_reported":1750097707,"current_range_meters":10000,"station_id":"st_cvj6sg6p6f1abm77japg","pricing_plan_id":"cebpf4jnsgd1na2vs0mg"},{"bike_id":"408a7e56-96a9-4c75-8cf5-ba1d3f3ef75f","system_id":"levelo_inurba_marseille","lat":43.28401,"lon":5.3751,"is_reserved":false,"is_disabled":false,"rental_uris":{"android":"levelo://app?vid=408a7e56-96a9-4c75-8cf5-ba1d3f3ef75f","ios":"levelo://app?vid=408a7e56-96a9-4c75-8cf5-ba1d3f3ef75f"},"vehicle_type_id":"4","last_reported":1750097707,"current_range_meters":10800,"station_id":"ce4bh412rcd13ifvqds0","pricing_plan_id":"cebpf4jnsgd1na2vs0mg"},{"bike_id":"90f9c9de-e0ff-4789-bcb3-1464418d3bee","system_id":"levelo_inurba_marseille","lat":43.29263,"lon":5.38456,"is_reserved":false,"is_disabled":false,"rental_uris":{"android":"levelo://app?vid=90f9c9de-e0ff-4789-bcb3-1464418d3bee","ios":"levelo://app?vid=90f9c9de-e0ff-4789-bcb3-1464418d3bee"},"vehicle_type_id":"4","last_reported":1750097707,"current_range_meters":10800,"station_id":"ce4bh692rcd13ifvqea0","pricing_plan_id":"cebpf4jnsgd1na2vs0mg"},{"bike_id":"d7db84eb-a103-4722-9f80-59285db5d112","system_id":"levelo_inurba_marseille","lat":43.28417,"lon":5.34993,"is_reserved":false,"is_disabled":false,"rental_uris":{"android":"levelo://app?vid=d7db84eb-a103-4722-9f80-59285db5d112","ios":"levelo://app?vid=d7db84eb-a103-4722-9f80-59285db5d112"},"vehicle_type_id":"4","last_reported":1750097707,"current_range_meters":10800,"station_id":"ce4bhbh2rcd13ifvqepg","pricing_plan_id":"cebpf4jnsgd1na2vs0mg"},{"bike_id":"b11c0bd1-8971-4107-8171-9c6e1d52b413","system_id":"levelo_inurba_marseille","lat":43.27833,"lon":5.39214,"is_reserved":false,"is_disabled":false,"rental_uris":{"android":"levelo://app?vid=b11c0bd1-8971-4107-8171-9c6e1d52b413","ios":"levelo://app?vid=b11c0bd1-8971-4107-8171-9c6e1d52b413"},"vehicle_type_id":"4","last_reported":1750097707,"current_range_meters":10800,"station_id":"ce4bhjp2rcd13ifvqga0","pricing_plan_id":"cebpf4jnsgd1na2vs0mg"},{"bike_id":"be09062c-d571-44ea-8440-5f0fa2d0756c","system_id":"levelo_inurba_marseille","lat":43.27056,"lon":5.40253,"is_reserved":false,"is_disabled":false,"rental_uris":{"android":"levelo://app?vid=be09062c-d571-44ea-8440-5f0fa2d0756c","ios":"levelo://app?vid=be09062c-d571-44ea-8440-5f0fa2d0756c"},"vehicle_type_id":"4","last_reported":1750097707,"current_range_meters":10800,"station_id":"ce4bhk92rcd13ifvqgc0","pricing_plan_id":"cebpf4jnsgd1na2vs0mg"},{"bike_id":"bd6c18fd-9a57-46ad-b3ec-19f01982a448","system_id":"levelo_inurba_marseille","lat":43.32337,"lon":5.40624,"is_reserved":false,"is_disabled":false,"rental_uris":{"android":"levelo://app?vid=bd6c18fd-9a57-46ad-b3ec-19f01982a448","ios":"levelo://app?vid=bd6c18fd-9a57-46ad-b3ec-19f01982a448"},"vehicle_type_id":"4","last_reported":1750097707,"current_range_meters":10800,"station_id":"ce4bhq92rcd13ifvqhjg","pricing_plan_id":"cebpf4jnsgd1na2vs0mg"},{"bike_id":"25be301b-e50b-4f31-a209-462aec1b4ce5","system_id":"levelo_inurba_marseille","lat":43.21205,"lon":5.35072,"is_reserved":false,"is_disabled":false,"rental_uris":{"android":"levelo://app?vid=25be301b-e50b-4f31-a209-462aec1b4ce5","ios":"levelo://app?vid=25be301b-e50b-4f31-a209-462aec1b4ce5"},"vehicle_type_id":"4","last_reported":1750097707,"current_range_meters":10800,"station_id":"st_cvj6sg6p6f1abm77japg","pricing_plan_id":"cebpf4jnsgd1na2vs0mg"},{"bike_id":"9d355176-d818-4f9b-8a4f-54cdc847fd55","system_id":"levelo_inurba_marseille","lat":43.283627,"lon":5.349879,"is_reserved":false,"is_disabled":false,"rental_uris":{"android":"levelo://app?vid=9d355176-d818-4f9b-8a4f-54cdc847fd55","ios":"levelo://app?vid=9d355176-d818-4f9b-8a4f-54cdc847fd55"},"vehicle_type_id":"4","last_reported":1750097707,"current_range_meters":11200,"station_id":"","pricing_plan_id":"cebpf4jnsgd1na2vs0mg"},{"bike_id":"95807dee-ade6-4e4b-a56d-51b462e827fd","system_id":"levelo_inurba_marseille","lat":43.29035,"lon":5.38651,"is_reserved":false,"is_disabled":false,"rental_uris":{"android":"levelo://app?vid=95807dee-ade6-4e4b-a56d-51b462e827fd","ios":"levelo://app?vid=95807dee-ade6-4e4b-a56d-51b462e827fd"},"vehicle_type_id":"4","last_reported":1750097707,"current_range_meters":11200,"station_id":"ce4bh4p2rcd13ifvqe0g","pricing_plan_id":"cebpf4jnsgd1na2vs0mg"},{"bike_id":"4a84802c-4a48-4a81-8d95-25767c5ebeb0","system_id":"levelo_inurba_marseille","lat":43.284287,"lon":5.350103,"is_reserved":false,"is_disabled":false,"rental_uris":{"android":"levelo://app?vid=4a84802c-4a48-4a81-8d95-25767c5ebeb0","ios":"levelo://app?vid=4a84802c-4a48-4a81-8d95-25767c5ebeb0"},"vehicle_type_id":"4","last_reported":1750097707,"current_range_meters":11200,"station_id":"ce4bhbh2rcd13ifvqepg","pricing_plan_id":"cebpf4jnsgd1na2vs0mg"},{"bike_id":"c1fe837b-4172-45a6-ae4a-1994637ce174","system_id":"levelo_inurba_marseille","lat":43.24398,"lon":5.37046,"is_reserved":false,"is_disabled":false,"rental_uris":{"android":"levelo://app?vid=c1fe837b-4172-45a6-ae4a-1994637ce174","ios":"levelo://app?vid=c1fe837b-4172-45a6-ae4a-1994637ce174"},"vehicle_type_id":"4","last_reported":1750097707,"current_range_meters":11200,"station_id":"ce4bhhh2rcd13ifvqfk0","pricing_plan_id":"cebpf4jnsgd1na2vs0mg"},{"bike_id":"8564f32d-7ec3-402f-8ddf-911d0c319214","system_id":"levelo_inurba_marseille","lat":43.24662,"lon":5.38166,"is_reserved":false,"is_disabled":false,"rental_uris":{"android":"levelo://app?vid=8564f32d-7ec3-402f-8ddf-911d0c319214","ios":"levelo://app?vid=8564f32d-7ec3-402f-8ddf-911d0c319214"},"vehicle_type_id":"4","last_reported":1750097707,"current_range_meters":11200,"station_id":"ce4bhih2rcd13ifvqfr0","pricing_plan_id":"cebpf4jnsgd1na2vs0mg"},{"bike_id":"c12b423b-781a-4da6-af36-d811dbb32f45","system_id":"levelo_inurba_marseille","lat":43.25084,"lon":5.39514,"is_reserved":false,"is_disabled":false,"rental_uris":{"android":"levelo://app?vid=c12b423b-781a-4da6-af36-d811dbb32f45","ios":"levelo://app?vid=c12b423b-781a-4da6-af36-d811dbb32f45"},"vehicle_type_id":"4","last_reported":1750097707,"current_range_meters":11200,"station_id":"ce4bhm12rcd13ifvqgkg","pricing_plan_id":"cebpf4jnsgd1na2vs0mg"},{"bike_id":"a66728c4-f2e7-428e-b872-e7406fb70732","system_id":"levelo_inurba_marseille","lat":43.21194,"lon":5.35071,"is_reserved":false,"is_disabled":false,"rental_uris":{"android":"levelo://app?vid=a66728c4-f2e7-428e-b872-e7406fb70732","ios":"levelo://app?vid=a66728c4-f2e7-428e-b872-e7406fb70732"},"vehicle_type_id":"4","last_reported":1750097707,"current_range_meters":11200,"station_id":"st_cvj6sg6p6f1abm77japg","pricing_plan_id":"cebpf4jnsgd1na2vs0mg"},{"bike_id":"06213fd4-3ac9-41fd-91fd-9202d4c13793","system_id":"levelo_inurba_marseille","lat":43.28394,"lon":5.35031,"is_reserved":false,"is_disabled":false,"rental_uris":{"android":"levelo://app?vid=06213fd4-3ac9-41fd-91fd-9202d4c13793","ios":"levelo://app?vid=06213fd4-3ac9-41fd-91fd-9202d4c13793"},"vehicle_type_id":"4","last_reported":1750097707,"current_range_meters":11600,"station_id":"","pricing_plan_id":"cebpf4jnsgd1na2vs0mg"},{"bike_id":"b6e9cbe8-359c-4c2b-a4ad-846afa8fe8ed","system_id":"levelo_inurba_marseille","lat":43.29604,"lon":5.38113,"is_reserved":false,"is_disabled":false,"rental_uris":{"android":"levelo://app?vid=b6e9cbe8-359c-4c2b-a4ad-846afa8fe8ed","ios":"levelo://app?vid=b6e9cbe8-359c-4c2b-a4ad-846afa8fe8ed"},"vehicle_type_id":"4","last_reported":1750097707,"current_range_meters":11600,"station_id":"ce4bgl12rcd13ifvqbo0","pricing_plan_id":"cebpf4jnsgd1na2vs0mg"},{"bike_id":"5e831b02-d99f-47b2-b4e3-1a060832b8e5","system_id":"levelo_inurba_marseille","lat":43.299356,"lon":5.365623,"is_reserved":false,"is_disabled":false,"rental_uris":{"android":"levelo://app?vid=5e831b02-d99f-47b2-b4e3-1a060832b8e5","ios":"levelo://app?vid=5e831b02-d99f-47b2-b4e3-1a060832b8e5"},"vehicle_type_id":"4","last_reported":1750097707,"current_range_meters":11600,"station_id":"ce4bgm92rcd13ifvqbr0","pricing_plan_id":"cebpf4jnsgd1na2vs0mg"},{"bike_id":"8b6745d8-b694-432c-988d-37ecc706fd42","system_id":"levelo_inurba_marseille","lat":43.29705,"lon":5.3662,"is_reserved":false,"is_disabled":false,"rental_uris":{"android":"levelo://app?vid=8b6745d8-b694-432c-988d-37ecc706fd42","ios":"levelo://app?vid=8b6745d8-b694-432c-988d-37ecc706fd42"},"vehicle_type_id":"4","last_reported":1750097707,"current_range_meters":11600,"station_id":"ce4bgn12rcd13ifvqbt0","pricing_plan_id":"cebpf4jnsgd1na2vs0mg"},{"bike_id":"b4d63fbc-28f7-4e9a-9e63-650858128a71","system_id":"levelo_inurba_marseille","lat":43.29513,"lon":5.39404,"is_reserved":false,"is_disabled":false,"rental_uris":{"android":"levelo://app?vid=b4d63fbc-28f7-4e9a-9e63-650858128a71","ios":"levelo://app?vid=b4d63fbc-28f7-4e9a-9e63-650858128a71"},"vehicle_type_id":"4","last_reported":1750097707,"current_range_meters":11600,"station_id":"ce4bh292rcd13ifvqdf0","pricing_plan_id":"cebpf4jnsgd1na2vs0mg"},{"bike_id":"8a1a529e-ae46-40c9-94a6-d98f71acdb4b","system_id":"levelo_inurba_marseille","lat":43.26019,"lon":5.37513,"is_reserved":false,"is_disabled":false,"rental_uris":{"android":"levelo://app?vid=8a1a529e-ae46-40c9-94a6-d98f71acdb4b","ios":"levelo://app?vid=8a1a529e-ae46-40c9-94a6-d98f71acdb4b"},"vehicle_type_id":"4","last_reported":1750097707,"current_range_meters":11600,"station_id":"ce4bhgh2rcd13ifvqfa0","pricing_plan_id":"cebpf4jnsgd1na2vs0mg"},{"bike_id":"96b6957b-9065-43ca-aec5-03a99aaacd73","system_id":"levelo_inurba_marseille","lat":43.23963,"lon":5.36635,"is_reserved":false,"is_disabled":false,"rental_uris":{"android":"levelo://app?vid=96b6957b-9065-43ca-aec5-03a99aaacd73","ios":"levelo://app?vid=96b6957b-9065-43ca-aec5-03a99aaacd73"},"vehicle_type_id":"4","last_reported":1750097707,"current_range_meters":11600,"station_id":"ce4bhi12rcd13ifvqfp0","pricing_plan_id":"cebpf4jnsgd1na2vs0mg"},{"bike_id":"d0c6b551-4765-4114-aa10-e8fbbdc1a4a7","system_id":"levelo_inurba_marseille","lat":43.27428,"lon":5.36345,"is_reserved":false,"is_disabled":false,"rental_uris":{"android":"levelo://app?vid=d0c6b551-4765-4114-aa10-e8fbbdc1a4a7","ios":"levelo://app?vid=d0c6b551-4765-4114-aa10-e8fbbdc1a4a7"},"vehicle_type_id":"4","last_reported":1750097707,"current_range_meters":12000,"station_id":"","pricing_plan_id":"cebpf4jnsgd1na2vs0mg"},{"bike_id":"da3e1724-606c-4f9a-9130-d56dd48e22e0","system_id":"levelo_inurba_marseille","lat":43.32908,"lon":5.40576,"is_reserved":false,"is_disabled":false,"rental_uris":{"android":"levelo://app?vid=da3e1724-606c-4f9a-9130-d56dd48e22e0","ios":"levelo://app?vid=da3e1724-606c-4f9a-9130-d56dd48e22e0"},"vehicle_type_id":"4","last_reported":1750097707,"current_range_meters":12000,"station_id":"","pricing_plan_id":"cebpf4jnsgd1na2vs0mg"},{"bike_id":"68eb31b3-1e91-42e4-a639-f4e624fdfdc2","system_id":"levelo_inurba_marseille","lat":43.29586,"lon":5.3674,"is_reserved":false,"is_disabled":false,"rental_uris":{"android":"levelo://app?vid=68eb31b3-1e91-42e4-a639-f4e624fdfdc2","ios":"levelo://app?vid=68eb31b3-1e91-42e4-a639-f4e624fdfdc2"},"vehicle_type_id":"4","last_reported":1750097707,"current_range_meters":12000,"station_id":"ce4bgph2rcd13ifvqc2g","pricing_plan_id":"cebpf4jnsgd1na2vs0mg"},{"bike_id":"044e0f70-6e51-42ea-bbef-0e37515fe0cc","system_id":"levelo_inurba_marseille","lat":43.26572,"lon":5.39026,"is_reserved":false,"is_disabled":false,"rental_uris":{"android":"levelo://app?vid=044e0f70-6e51-42ea-bbef-0e37515fe0cc","ios":"levelo://app?vid=044e0f70-6e51-42ea-bbef-0e37515fe0cc"},"vehicle_type_id":"4","last_reported":1750097707,"current_range_meters":12000,"station_id":"ce4bhe12rcd13ifvqf30","pricing_plan_id":"cebpf4jnsgd1na2vs0mg"},{"bike_id":"e8814067-578b-48e1-9c17-aa96a1ef53a9","system_id":"levelo_inurba_marseille","lat":43.26546,"lon":5.39044,"is_reserved":false,"is_disabled":false,"rental_uris":{"android":"levelo://app?vid=e8814067-578b-48e1-9c17-aa96a1ef53a9","ios":"levelo://app?vid=e8814067-578b-48e1-9c17-aa96a1ef53a9"},"vehicle_type_id":"4","last_reported":1750097707,"current_range_meters":12000,"station_id":"ce4bhe12rcd13ifvqf30","pricing_plan_id":"cebpf4jnsgd1na2vs0mg"},{"bike_id":"dffffd4b-5520-4c0e-9737-0274e5997b68","system_id":"levelo_inurba_marseille","lat":43.2549,"lon":5.37651,"is_reserved":false,"is_disabled":false,"rental_uris":{"android":"levelo://app?vid=dffffd4b-5520-4c0e-9737-0274e5997b68","ios":"levelo://app?vid=dffffd4b-5520-4c0e-9737-0274e5997b68"},"vehicle_type_id":"4","last_reported":1750097707,"current_range_meters":12000,"station_id":"ce4bhh12rcd13ifvqff0","pricing_plan_id":"cebpf4jnsgd1na2vs0mg"},{"bike_id":"64c6d212-acc6-47e3-9e04-fbaf04a7ed4e","system_id":"levelo_inurba_marseille","lat":43.27013,"lon":5.38761,"is_reserved":false,"is_disabled":false,"rental_uris":{"android":"levelo://app?vid=64c6d212-acc6-47e3-9e04-fbaf04a7ed4e","ios":"levelo://app?vid=64c6d212-acc6-47e3-9e04-fbaf04a7ed4e"},"vehicle_type_id":"4","last_reported":1750097707,"current_range_meters":12400,"station_id":"","pricing_plan_id":"cebpf4jnsgd1na2vs0mg"},{"bike_id":"23a48cac-fc81-4e2b-9000-fe1e34ba8793","system_id":"levelo_inurba_marseille","lat":43.28466,"lon":5.35884,"is_reserved":false,"is_disabled":false,"rental_uris":{"android":"levelo://app?vid=23a48cac-fc81-4e2b-9000-fe1e34ba8793","ios":"levelo://app?vid=23a48cac-fc81-4e2b-9000-fe1e34ba8793"},"vehicle_type_id":"4","last_reported":1750097707,"current_range_meters":12400,"station_id":"ce4bhah2rcd13ifvqei0","pricing_plan_id":"cebpf4jnsgd1na2vs0mg"},{"bike_id":"88d4fd99-6294-4e6d-a1d4-ea2437f96cef","system_id":"levelo_inurba_marseille","lat":43.27378,"lon":5.36257,"is_reserved":false,"is_disabled":false,"rental_uris":{"android":"levelo://app?vid=88d4fd99-6294-4e6d-a1d4-ea2437f96cef","ios":"levelo://app?vid=88d4fd99-6294-4e6d-a1d4-ea2437f96cef"},"vehicle_type_id":"4","last_reported":1750097707,"current_range_meters":12400,"station_id":"ce4bhbh2rcd13ifvqeo0","pricing_plan_id":"cebpf4jnsgd1na2vs0mg"},{"bike_id":"48e98c35-6eaf-4651-a68c-7876f7d82eba","system_id":"levelo_inurba_marseille","lat":43.24824,"lon":5.37449,"is_reserved":false,"is_disabled":false,"rental_uris":{"android":"levelo://app?vid=48e98c35-6eaf-4651-a68c-7876f7d82eba","ios":"levelo://app?vid=48e98c35-6eaf-4651-a68c-7876f7d82eba"},"vehicle_type_id":"4","last_reported":1750097707,"current_range_meters":12400,"station_id":"ce4bhgh2rcd13ifvqfb0","pricing_plan_id":"cebpf4jnsgd1na2vs0mg"},{"bike_id":"474dd4b4-ea35-4d9d-ac76-92677ae84fa9","system_id":"levelo_inurba_marseille","lat":43.30415,"lon":5.41263,"is_reserved":false,"is_disabled":false,"rental_uris":{"android":"levelo://app?vid=474dd4b4-ea35-4d9d-ac76-92677ae84fa9","ios":"levelo://app?vid=474dd4b4-ea35-4d9d-ac76-92677ae84fa9"},"vehicle_type_id":"4","last_reported":1750097707,"current_range_meters":12400,"station_id":"ce4bhop2rcd13ifvqh8g","pricing_plan_id":"cebpf4jnsgd1na2vs0mg"},{"bike_id":"36eeb858-56d7-415e-a056-5a92580a063d","system_id":"levelo_inurba_marseille","lat":43.28703,"lon":5.37391,"is_reserved":false,"is_disabled":false,"rental_uris":{"android":"levelo://app?vid=36eeb858-56d7-415e-a056-5a92580a063d","ios":"levelo://app?vid=36eeb858-56d7-415e-a056-5a92580a063d"},"vehicle_type_id":"4","last_reported":1750097707,"current_range_meters":12800,"station_id":"ce4bh3p2rcd13ifvqdq0","pricing_plan_id":"cebpf4jnsgd1na2vs0mg"},{"bike_id":"ce681b13-33c2-42cd-8516-b72e3aaf1212","system_id":"levelo_inurba_marseille","lat":43.28401,"lon":5.37516,"is_reserved":false,"is_disabled":false,"rental_uris":{"android":"levelo://app?vid=ce681b13-33c2-42cd-8516-b72e3aaf1212","ios":"levelo://app?vid=ce681b13-33c2-42cd-8516-b72e3aaf1212"},"vehicle_type_id":"4","last_reported":1750097707,"current_range_meters":12800,"station_id":"ce4bh412rcd13ifvqds0","pricing_plan_id":"cebpf4jnsgd1na2vs0mg"},{"bike_id":"c4024f85-f934-43ec-abb2-714ebf673f65","system_id":"levelo_inurba_marseille","lat":43.2603,"lon":5.37547,"is_reserved":false,"is_disabled":false,"rental_uris":{"android":"levelo://app?vid=c4024f85-f934-43ec-abb2-714ebf673f65","ios":"levelo://app?vid=c4024f85-f934-43ec-abb2-714ebf673f65"},"vehicle_type_id":"4","last_reported":1750097707,"current_range_meters":12800,"station_id":"ce4bhgh2rcd13ifvqfa0","pricing_plan_id":"cebpf4jnsgd1na2vs0mg"},{"bike_id":"398a0bbf-4f1e-4b6e-a4e1-0e8ceb1b1dbe","system_id":"levelo_inurba_marseille","lat":43.23963,"lon":5.36622,"is_reserved":false,"is_disabled":false,"rental_uris":{"android":"levelo://app?vid=398a0bbf-4f1e-4b6e-a4e1-0e8ceb1b1dbe","ios":"levelo://app?vid=398a0bbf-4f1e-4b6e-a4e1-0e8ceb1b1dbe"},"vehicle_type_id":"4","last_reported":1750097707,"current_range_meters":12800,"station_id":"ce4bhi12rcd13ifvqfp0","pricing_plan_id":"cebpf4jnsgd1na2vs0mg"},{"bike_id":"f267c5b5-bb9f-4a0d-9384-d8618a723782","system_id":"levelo_inurba_marseille","lat":43.251158,"lon":5.40324,"is_reserved":false,"is_disabled":false,"rental_uris":{"android":"levelo://app?vid=f267c5b5-bb9f-4a0d-9384-d8618a723782","ios":"levelo://app?vid=f267c5b5-bb9f-4a0d-9384-d8618a723782"},"vehicle_type_id":"4","last_reported":1750097707,"current_range_meters":12800,"station_id":"ce4bhlh2rcd13ifvqgig","pricing_plan_id":"cebpf4jnsgd1na2vs0mg"},{"bike_id":"a530d777-e70b-40e3-bb04-aa7ab9b80fe5","system_id":"levelo_inurba_marseille","lat":43.2815,"lon":5.42643,"is_reserved":false,"is_disabled":false,"rental_uris":{"android":"levelo://app?vid=a530d777-e70b-40e3-bb04-aa7ab9b80fe5","ios":"levelo://app?vid=a530d777-e70b-40e3-bb04-aa7ab9b80fe5"},"vehicle_type_id":"4","last_reported":1750097707,"current_range_meters":12800,"station_id":"ce4bhnh2rcd13ifvqgug","pricing_plan_id":"cebpf4jnsgd1na2vs0mg"},{"bike_id":"d2868572-6fee-4690-8a81-283adbeec80c","system_id":"levelo_inurba_marseille","lat":43.21189,"lon":5.35077,"is_reserved":false,"is_disabled":false,"rental_uris":{"android":"levelo://app?vid=d2868572-6fee-4690-8a81-283adbeec80c","ios":"levelo://app?vid=d2868572-6fee-4690-8a81-283adbeec80c"},"vehicle_type_id":"4","last_reported":1750097707,"current_range_meters":12800,"station_id":"st_cvj6sg6p6f1abm77japg","pricing_plan_id":"cebpf4jnsgd1na2vs0mg"},{"bike_id":"356258c8-0ad6-493b-b5a4-77e865070f65","system_id":"levelo_inurba_marseille","lat":43.32607,"lon":5.41992,"is_reserved":false,"is_disabled":false,"rental_uris":{"android":"levelo://app?vid=356258c8-0ad6-493b-b5a4-77e865070f65","ios":"levelo://app?vid=356258c8-0ad6-493b-b5a4-77e865070f65"},"vehicle_type_id":"4","last_reported":1750097707,"current_range_meters":13600,"station_id":"","pricing_plan_id":"cebpf4jnsgd1na2vs0mg"},{"bike_id":"b9d9968a-df29-4386-aa75-30ee22ec24a9","system_id":"levelo_inurba_marseille","lat":43.30894,"lon":5.37202,"is_reserved":false,"is_disabled":false,"rental_uris":{"android":"levelo://app?vid=b9d9968a-df29-4386-aa75-30ee22ec24a9","ios":"levelo://app?vid=b9d9968a-df29-4386-aa75-30ee22ec24a9"},"vehicle_type_id":"4","last_reported":1750097707,"current_range_meters":13600,"station_id":"ce4bguh2rcd13ifvqckg","pricing_plan_id":"cebpf4jnsgd1na2vs0mg"},{"bike_id":"9b2e2903-fe1c-4982-9085-35d7a918939c","system_id":"levelo_inurba_marseille","lat":43.29185,"lon":5.35802,"is_reserved":false,"is_disabled":false,"rental_uris":{"android":"levelo://app?vid=9b2e2903-fe1c-4982-9085-35d7a918939c","ios":"levelo://app?vid=9b2e2903-fe1c-4982-9085-35d7a918939c"},"vehicle_type_id":"4","last_reported":1750097707,"current_range_meters":13600,"station_id":"ce4bhb12rcd13ifvqel0","pricing_plan_id":"cebpf4jnsgd1na2vs0mg"},{"bike_id":"e9307d5b-81f6-412e-ab0e-5f6acb32333c","system_id":"levelo_inurba_marseille","lat":43.27378,"lon":5.36266,"is_reserved":false,"is_disabled":false,"rental_uris":{"android":"levelo://app?vid=e9307d5b-81f6-412e-ab0e-5f6acb32333c","ios":"levelo://app?vid=e9307d5b-81f6-412e-ab0e-5f6acb32333c"},"vehicle_type_id":"4","last_reported":1750097707,"current_range_meters":13600,"station_id":"ce4bhbh2rcd13ifvqeo0","pricing_plan_id":"cebpf4jnsgd1na2vs0mg"},{"bike_id":"587e3277-443e-4556-be4c-0115d18dcf63","system_id":"levelo_inurba_marseille","lat":43.2862,"lon":5.35112,"is_reserved":false,"is_disabled":false,"rental_uris":{"android":"levelo://app?vid=587e3277-443e-4556-be4c-0115d18dcf63","ios":"levelo://app?vid=587e3277-443e-4556-be4c-0115d18dcf63"},"vehicle_type_id":"4","last_reported":1750097707,"current_range_meters":13600,"station_id":"ce4bhch2rcd13ifvqeug","pricing_plan_id":"cebpf4jnsgd1na2vs0mg"},{"bike_id":"d7a91a56-0c77-4787-aac3-3264747a4319","system_id":"levelo_inurba_marseille","lat":43.28078,"lon":5.39661,"is_reserved":false,"is_disabled":false,"rental_uris":{"android":"levelo://app?vid=d7a91a56-0c77-4787-aac3-3264747a4319","ios":"levelo://app?vid=d7a91a56-0c77-4787-aac3-3264747a4319"},"vehicle_type_id":"4","last_reported":1750097707,"current_range_meters":13600,"station_id":"ce4bho12rcd13ifvqh2g","pricing_plan_id":"cebpf4jnsgd1na2vs0mg"},{"bike_id":"6b4f7e8e-f866-491a-9a06-0b67f69fd7be","system_id":"levelo_inurba_marseille","lat":43.28066,"lon":5.39605,"is_reserved":false,"is_disabled":false,"rental_uris":{"android":"levelo://app?vid=6b4f7e8e-f866-491a-9a06-0b67f69fd7be","ios":"levelo://app?vid=6b4f7e8e-f866-491a-9a06-0b67f69fd7be"},"vehicle_type_id":"4","last_reported":1750097707,"current_range_meters":13600,"station_id":"ce4bho12rcd13ifvqh2g","pricing_plan_id":"cebpf4jnsgd1na2vs0mg"},{"bike_id":"c1ba07ad-731d-49d8-9fd6-a826431f3438","system_id":"levelo_inurba_marseille","lat":43.2991,"lon":5.436556,"is_reserved":false,"is_disabled":false,"rental_uris":{"android":"levelo://app?vid=c1ba07ad-731d-49d8-9fd6-a826431f3438","ios":"levelo://app?vid=c1ba07ad-731d-49d8-9fd6-a826431f3438"},"vehicle_type_id":"4","last_reported":1750097707,"current_range_meters":13600,"station_id":"ce4bhpp2rcd13ifvqhfg","pricing_plan_id":"cebpf4jnsgd1na2vs0mg"},{"bike_id":"1c889f61-9619-483b-8c3e-cd59bc7d263a","system_id":"levelo_inurba_marseille","lat":43.30141,"lon":5.38789,"is_reserved":false,"is_disabled":false,"rental_uris":{"android":"levelo://app?vid=1c889f61-9619-483b-8c3e-cd59bc7d263a","ios":"levelo://app?vid=1c889f61-9619-483b-8c3e-cd59bc7d263a"},"vehicle_type_id":"4","last_reported":1750097707,"current_range_meters":14000,"station_id":"ce4bghh2rcd13ifvqb60","pricing_plan_id":"cebpf4jnsgd1na2vs0mg"},{"bike_id":"141e3d47-b48d-4f91-9b72-dc2df4f237e3","system_id":"levelo_inurba_marseille","lat":43.29935,"lon":5.36555,"is_reserved":false,"is_disabled":false,"rental_uris":{"android":"levelo://app?vid=141e3d47-b48d-4f91-9b72-dc2df4f237e3","ios":"levelo://app?vid=141e3d47-b48d-4f91-9b72-dc2df4f237e3"},"vehicle_type_id":"4","last_reported":1750097707,"current_range_meters":14000,"station_id":"ce4bgm92rcd13ifvqbr0","pricing_plan_id":"cebpf4jnsgd1na2vs0mg"},{"bike_id":"7c7160a5-cf44-4137-822d-c88eca1871ed","system_id":"levelo_inurba_marseille","lat":43.27381,"lon":5.36257,"is_reserved":false,"is_disabled":false,"rental_uris":{"android":"levelo://app?vid=7c7160a5-cf44-4137-822d-c88eca1871ed","ios":"levelo://app?vid=7c7160a5-cf44-4137-822d-c88eca1871ed"},"vehicle_type_id":"4","last_reported":1750097707,"current_range_meters":14000,"station_id":"ce4bhbh2rcd13ifvqeo0","pricing_plan_id":"cebpf4jnsgd1na2vs0mg"},{"bike_id":"039522f4-7303-4966-9267-aca088669d85","system_id":"levelo_inurba_marseille","lat":43.24807,"lon":5.37455,"is_reserved":false,"is_disabled":false,"rental_uris":{"android":"levelo://app?vid=039522f4-7303-4966-9267-aca088669d85","ios":"levelo://app?vid=039522f4-7303-4966-9267-aca088669d85"},"vehicle_type_id":"4","last_reported":1750097707,"current_range_meters":14000,"station_id":"ce4bhgh2rcd13ifvqfb0","pricing_plan_id":"cebpf4jnsgd1na2vs0mg"},{"bike_id":"9134762b-0bd2-453d-94d9-c3bca4107b3e","system_id":"levelo_inurba_marseille","lat":43.24808,"lon":5.37457,"is_reserved":false,"is_disabled":false,"rental_uris":{"android":"levelo://app?vid=9134762b-0bd2-453d-94d9-c3bca4107b3e","ios":"levelo://app?vid=9134762b-0bd2-453d-94d9-c3bca4107b3e"},"vehicle_type_id":"4","last_reported":1750097707,"current_range_meters":14000,"station_id":"ce4bhgh2rcd13ifvqfb0","pricing_plan_id":"cebpf4jnsgd1na2vs0mg"},{"bike_id":"7a87d93d-591f-4192-baaa-5f631abf730c","system_id":"levelo_inurba_marseille","lat":43.24389,"lon":5.37061,"is_reserved":false,"is_disabled":false,"rental_uris":{"android":"levelo://app?vid=7a87d93d-591f-4192-baaa-5f631abf730c","ios":"levelo://app?vid=7a87d93d-591f-4192-baaa-5f631abf730c"},"vehicle_type_id":"4","last_reported":1750097707,"current_range_meters":14000,"station_id":"ce4bhhh2rcd13ifvqfk0","pricing_plan_id":"cebpf4jnsgd1na2vs0mg"},{"bike_id":"ff3e1354-47e0-4719-87c5-08dbc5c733f5","system_id":"levelo_inurba_marseille","lat":43.23956,"lon":5.36639,"is_reserved":false,"is_disabled":false,"rental_uris":{"android":"levelo://app?vid=ff3e1354-47e0-4719-87c5-08dbc5c733f5","ios":"levelo://app?vid=ff3e1354-47e0-4719-87c5-08dbc5c733f5"},"vehicle_type_id":"4","last_reported":1750097707,"current_range_meters":14000,"station_id":"ce4bhi12rcd13ifvqfp0","pricing_plan_id":"cebpf4jnsgd1na2vs0mg"},{"bike_id":"375eaea8-6916-41aa-b3a9-2ba69a0f0544","system_id":"levelo_inurba_marseille","lat":43.32105,"lon":5.36764,"is_reserved":false,"is_disabled":false,"rental_uris":{"android":"levelo://app?vid=375eaea8-6916-41aa-b3a9-2ba69a0f0544","ios":"levelo://app?vid=375eaea8-6916-41aa-b3a9-2ba69a0f0544"},"vehicle_type_id":"4","last_reported":1750097707,"current_range_meters":14000,"station_id":"ce4bhrh2rcd13ifvqhug","pricing_plan_id":"cebpf4jnsgd1na2vs0mg"},{"bike_id":"d247f4ab-211a-407b-9290-4f185f6cd66a","system_id":"levelo_inurba_marseille","lat":43.21203,"lon":5.35062,"is_reserved":false,"is_disabled":false,"rental_uris":{"android":"levelo://app?vid=d247f4ab-211a-407b-9290-4f185f6cd66a","ios":"levelo://app?vid=d247f4ab-211a-407b-9290-4f185f6cd66a"},"vehicle_type_id":"4","last_reported":1750097707,"current_range_meters":14000,"station_id":"st_cvj6sg6p6f1abm77japg","pricing_plan_id":"cebpf4jnsgd1na2vs0mg"},{"bike_id":"2ae80011-f8d5-43f5-b5c8-9e65a89521ca","system_id":"levelo_inurba_marseille","lat":43.29542,"lon":5.37433,"is_reserved":false,"is_disabled":false,"rental_uris":{"android":"levelo://app?vid=2ae80011-f8d5-43f5-b5c8-9e65a89521ca","ios":"levelo://app?vid=2ae80011-f8d5-43f5-b5c8-9e65a89521ca"},"vehicle_type_id":"4","last_reported":1750097707,"current_range_meters":14400,"station_id":"","pricing_plan_id":"cebpf4jnsgd1na2vs0mg"},{"bike_id":"757906b4-eb86-4ed8-a0a5-7f582bcde75a","system_id":"levelo_inurba_marseille","lat":43.265332,"lon":5.395246,"is_reserved":false,"is_disabled":false,"rental_uris":{"android":"levelo://app?vid=757906b4-eb86-4ed8-a0a5-7f582bcde75a","ios":"levelo://app?vid=757906b4-eb86-4ed8-a0a5-7f582bcde75a"},"vehicle_type_id":"4","last_reported":1750097707,"current_range_meters":14400,"station_id":"","pricing_plan_id":"cebpf4jnsgd1na2vs0mg"},{"bike_id":"c70f2948-35aa-4931-91a0-30f51b3792de","system_id":"levelo_inurba_marseille","lat":43.27392,"lon":5.36265,"is_reserved":false,"is_disabled":false,"rental_uris":{"android":"levelo://app?vid=c70f2948-35aa-4931-91a0-30f51b3792de","ios":"levelo://app?vid=c70f2948-35aa-4931-91a0-30f51b3792de"},"vehicle_type_id":"4","last_reported":1750097707,"current_range_meters":14400,"station_id":"ce4bhbh2rcd13ifvqeo0","pricing_plan_id":"cebpf4jnsgd1na2vs0mg"},{"bike_id":"6b75a80e-12fa-4bd0-b8db-b509b9abce19","system_id":"levelo_inurba_marseille","lat":43.211947,"lon":5.350744,"is_reserved":false,"is_disabled":false,"rental_uris":{"android":"levelo://app?vid=6b75a80e-12fa-4bd0-b8db-b509b9abce19","ios":"levelo://app?vid=6b75a80e-12fa-4bd0-b8db-b509b9abce19"},"vehicle_type_id":"4","last_reported":1750097707,"current_range_meters":14400,"station_id":"st_cvj6sg6p6f1abm77japg","pricing_plan_id":"cebpf4jnsgd1na2vs0mg"},{"bike_id":"d05c512f-ecf8-4d54-8646-fa719dc17ab7","system_id":"levelo_inurba_marseille","lat":43.27575,"lon":5.41752,"is_reserved":false,"is_disabled":false,"rental_uris":{"android":"levelo://app?vid=d05c512f-ecf8-4d54-8646-fa719dc17ab7","ios":"levelo://app?vid=d05c512f-ecf8-4d54-8646-fa719dc17ab7"},"vehicle_type_id":"4","last_reported":1750097707,"current_range_meters":14800,"station_id":"","pricing_plan_id":"cebpf4jnsgd1na2vs0mg"},{"bike_id":"113226f3-5522-464f-a55d-3826c86b07fd","system_id":"levelo_inurba_marseille","lat":43.29535,"lon":5.38545,"is_reserved":false,"is_disabled":false,"rental_uris":{"android":"levelo://app?vid=113226f3-5522-464f-a55d-3826c86b07fd","ios":"levelo://app?vid=113226f3-5522-464f-a55d-3826c86b07fd"},"vehicle_type_id":"4","last_reported":1750097707,"current_range_meters":14800,"station_id":"ce4bgih2rcd13ifvqba0","pricing_plan_id":"cebpf4jnsgd1na2vs0mg"},{"bike_id":"1450a4d7-8d06-4ea1-8e2d-599c294488f6","system_id":"levelo_inurba_marseille","lat":43.27618,"lon":5.36103,"is_reserved":false,"is_disabled":false,"rental_uris":{"android":"levelo://app?vid=1450a4d7-8d06-4ea1-8e2d-599c294488f6","ios":"levelo://app?vid=1450a4d7-8d06-4ea1-8e2d-599c294488f6"},"vehicle_type_id":"4","last_reported":1750097707,"current_range_meters":14800,"station_id":"ce4bgj92rcd13ifvqbe0","pricing_plan_id":"cebpf4jnsgd1na2vs0mg"},{"bike_id":"955a79b4-9289-40ba-89ee-e4a0335584b3","system_id":"levelo_inurba_marseille","lat":43.28935,"lon":5.36641,"is_reserved":false,"is_disabled":false,"rental_uris":{"android":"levelo://app?vid=955a79b4-9289-40ba-89ee-e4a0335584b3","ios":"levelo://app?vid=955a79b4-9289-40ba-89ee-e4a0335584b3"},"vehicle_type_id":"4","last_reported":1750097707,"current_range_meters":14800,"station_id":"ce4bhap2rcd13ifvqek0","pricing_plan_id":"cebpf4jnsgd1na2vs0mg"},{"bike_id":"a93c5574-955c-4596-8b6a-95ace6eb40a6","system_id":"levelo_inurba_marseille","lat":43.27056,"lon":5.40258,"is_reserved":false,"is_disabled":false,"rental_uris":{"android":"levelo://app?vid=a93c5574-955c-4596-8b6a-95ace6eb40a6","ios":"levelo://app?vid=a93c5574-955c-4596-8b6a-95ace6eb40a6"},"vehicle_type_id":"4","last_reported":1750097707,"current_range_meters":14800,"station_id":"ce4bhk92rcd13ifvqgc0","pricing_plan_id":"cebpf4jnsgd1na2vs0mg"},{"bike_id":"15afdd65-a399-4dfb-98bd-be8323f7882c","system_id":"levelo_inurba_marseille","lat":43.24177,"lon":5.3973,"is_reserved":false,"is_disabled":false,"rental_uris":{"android":"levelo://app?vid=15afdd65-a399-4dfb-98bd-be8323f7882c","ios":"levelo://app?vid=15afdd65-a399-4dfb-98bd-be8323f7882c"},"vehicle_type_id":"4","last_reported":1750097707,"current_range_meters":14800,"station_id":"ce4bhn12rcd13ifvqgpg","pricing_plan_id":"cebpf4jnsgd1na2vs0mg"},{"bike_id":"07b57bf0-3fa1-400a-8caf-78bbe420c4e6","system_id":"levelo_inurba_marseille","lat":43.21754,"lon":5.34599,"is_reserved":false,"is_disabled":false,"rental_uris":{"android":"levelo://app?vid=07b57bf0-3fa1-400a-8caf-78bbe420c4e6","ios":"levelo://app?vid=07b57bf0-3fa1-400a-8caf-78bbe420c4e6"},"vehicle_type_id":"4","last_reported":1750097707,"current_range_meters":15200,"station_id":"st_cvj6r9ubvosntc0bgbag","pricing_plan_id":"cebpf4jnsgd1na2vs0mg"},{"bike_id":"25960fd9-8509-4555-9b23-fa4fae1e21d0","system_id":"levelo_inurba_marseille","lat":43.29029,"lon":5.38215,"is_reserved":false,"is_disabled":false,"rental_uris":{"android":"levelo://app?vid=25960fd9-8509-4555-9b23-fa4fae1e21d0","ios":"levelo://app?vid=25960fd9-8509-4555-9b23-fa4fae1e21d0"},"vehicle_type_id":"4","last_reported":1750097707,"current_range_meters":16000,"station_id":"","pricing_plan_id":"cebpf4jnsgd1na2vs0mg"},{"bike_id":"e1c3031a-cfe2-4224-9867-102b64096bd8","system_id":"levelo_inurba_marseille","lat":43.29475,"lon":5.38614,"is_reserved":false,"is_disabled":false,"rental_uris":{"android":"levelo://app?vid=e1c3031a-cfe2-4224-9867-102b64096bd8","ios":"levelo://app?vid=e1c3031a-cfe2-4224-9867-102b64096bd8"},"vehicle_type_id":"4","last_reported":1750097707,"current_range_meters":16000,"station_id":"","pricing_plan_id":"cebpf4jnsgd1na2vs0mg"},{"bike_id":"a5829ee6-f343-4196-9958-767ccccb2abe","system_id":"levelo_inurba_marseille","lat":43.27637,"lon":5.36079,"is_reserved":false,"is_disabled":false,"rental_uris":{"android":"levelo://app?vid=a5829ee6-f343-4196-9958-767ccccb2abe","ios":"levelo://app?vid=a5829ee6-f343-4196-9958-767ccccb2abe"},"vehicle_type_id":"4","last_reported":1750097707,"current_range_meters":16000,"station_id":"ce4bgj92rcd13ifvqbe0","pricing_plan_id":"cebpf4jnsgd1na2vs0mg"},{"bike_id":"f35bd3a4-cce0-441e-8dd7-7d3fc1ec9ed5","system_id":"levelo_inurba_marseille","lat":43.28846,"lon":5.35853,"is_reserved":false,"is_disabled":false,"rental_uris":{"android":"levelo://app?vid=f35bd3a4-cce0-441e-8dd7-7d3fc1ec9ed5","ios":"levelo://app?vid=f35bd3a4-cce0-441e-8dd7-7d3fc1ec9ed5"},"vehicle_type_id":"4","last_reported":1750097707,"current_range_meters":16000,"station_id":"ce4bhb12rcd13ifvqem0","pricing_plan_id":"cebpf4jnsgd1na2vs0mg"},{"bike_id":"c6e11e18-206f-4bff-84da-d0aa44e03a49","system_id":"levelo_inurba_marseille","lat":43.27388,"lon":5.36261,"is_reserved":false,"is_disabled":false,"rental_uris":{"android":"levelo://app?vid=c6e11e18-206f-4bff-84da-d0aa44e03a49","ios":"levelo://app?vid=c6e11e18-206f-4bff-84da-d0aa44e03a49"},"vehicle_type_id":"4","last_reported":1750097707,"current_range_meters":16000,"station_id":"ce4bhbh2rcd13ifvqeo0","pricing_plan_id":"cebpf4jnsgd1na2vs0mg"},{"bike_id":"32b25829-2ec8-4fe2-a43c-ba56f7ed862d","system_id":"levelo_inurba_marseille","lat":43.25935,"lon":5.40908,"is_reserved":false,"is_disabled":false,"rental_uris":{"android":"levelo://app?vid=32b25829-2ec8-4fe2-a43c-ba56f7ed862d","ios":"levelo://app?vid=32b25829-2ec8-4fe2-a43c-ba56f7ed862d"},"vehicle_type_id":"4","last_reported":1750097707,"current_range_meters":16000,"station_id":"ce4bhm92rcd13ifvqglg","pricing_plan_id":"cebpf4jnsgd1na2vs0mg"},{"bike_id":"1e373418-986e-4d3c-9ff7-c37dd7c7a214","system_id":"levelo_inurba_marseille","lat":43.29901,"lon":5.43653,"is_reserved":false,"is_disabled":false,"rental_uris":{"android":"levelo://app?vid=1e373418-986e-4d3c-9ff7-c37dd7c7a214","ios":"levelo://app?vid=1e373418-986e-4d3c-9ff7-c37dd7c7a214"},"vehicle_type_id":"4","last_reported":1750097707,"current_range_meters":16000,"station_id":"ce4bhpp2rcd13ifvqhfg","pricing_plan_id":"cebpf4jnsgd1na2vs0mg"},{"bike_id":"737273cf-8823-454e-a22b-b569b48bfa19","system_id":"levelo_inurba_marseille","lat":43.27373,"lon":5.36242,"is_reserved":false,"is_disabled":false,"rental_uris":{"android":"levelo://app?vid=737273cf-8823-454e-a22b-b569b48bfa19","ios":"levelo://app?vid=737273cf-8823-454e-a22b-b569b48bfa19"},"vehicle_type_id":"4","last_reported":1750097707,"current_range_meters":16400,"station_id":"ce4bhbh2rcd13ifvqeo0","pricing_plan_id":"cebpf4jnsgd1na2vs0mg"},{"bike_id":"9ca4474d-50d3-4613-90fd-fa8476250cd0","system_id":"levelo_inurba_marseille","lat":43.26682,"lon":5.38249,"is_reserved":false,"is_disabled":false,"rental_uris":{"android":"levelo://app?vid=9ca4474d-50d3-4613-90fd-fa8476250cd0","ios":"levelo://app?vid=9ca4474d-50d3-4613-90fd-fa8476250cd0"},"vehicle_type_id":"4","last_reported":1750097707,"current_range_meters":16400,"station_id":"ce4bhg92rcd13ifvqf90","pricing_plan_id":"cebpf4jnsgd1na2vs0mg"},{"bike_id":"20a80f6a-a952-4c9e-b705-662baa9b8eed","system_id":"levelo_inurba_marseille","lat":43.25579,"lon":5.38245,"is_reserved":false,"is_disabled":false,"rental_uris":{"android":"levelo://app?vid=20a80f6a-a952-4c9e-b705-662baa9b8eed","ios":"levelo://app?vid=20a80f6a-a952-4c9e-b705-662baa9b8eed"},"vehicle_type_id":"4","last_reported":1750097707,"current_range_meters":16400,"station_id":"ce4bhih2rcd13ifvqfs0","pricing_plan_id":"cebpf4jnsgd1na2vs0mg"},{"bike_id":"0e27dafc-21df-4fb1-bd36-2450a7866702","system_id":"levelo_inurba_marseille","lat":43.27204,"lon":5.39948,"is_reserved":false,"is_disabled":false,"rental_uris":{"android":"levelo://app?vid=0e27dafc-21df-4fb1-bd36-2450a7866702","ios":"levelo://app?vid=0e27dafc-21df-4fb1-bd36-2450a7866702"},"vehicle_type_id":"4","last_reported":1750097707,"current_range_meters":16800,"station_id":"","pricing_plan_id":"cebpf4jnsgd1na2vs0mg"},{"bike_id":"318e3a4b-ee24-4b94-b2a9-efd8e92afa61","system_id":"levelo_inurba_marseille","lat":43.28574,"lon":5.39496,"is_reserved":false,"is_disabled":false,"rental_uris":{"android":"levelo://app?vid=318e3a4b-ee24-4b94-b2a9-efd8e92afa61","ios":"levelo://app?vid=318e3a4b-ee24-4b94-b2a9-efd8e92afa61"},"vehicle_type_id":"4","last_reported":1750097707,"current_range_meters":16800,"station_id":"ce4bh292rcd13ifvqdg0","pricing_plan_id":"cebpf4jnsgd1na2vs0mg"},{"bike_id":"f8d1e557-c806-403e-b093-89a899d624dd","system_id":"levelo_inurba_marseille","lat":43.28619,"lon":5.35083,"is_reserved":false,"is_disabled":false,"rental_uris":{"android":"levelo://app?vid=f8d1e557-c806-403e-b093-89a899d624dd","ios":"levelo://app?vid=f8d1e557-c806-403e-b093-89a899d624dd"},"vehicle_type_id":"4","last_reported":1750097707,"current_range_meters":16800,"station_id":"ce4bhch2rcd13ifvqeug","pricing_plan_id":"cebpf4jnsgd1na2vs0mg"},{"bike_id":"404b450f-6352-4674-9a2a-f51c6591d8da","system_id":"levelo_inurba_marseille","lat":43.29897,"lon":5.43665,"is_reserved":false,"is_disabled":false,"rental_uris":{"android":"levelo://app?vid=404b450f-6352-4674-9a2a-f51c6591d8da","ios":"levelo://app?vid=404b450f-6352-4674-9a2a-f51c6591d8da"},"vehicle_type_id":"4","last_reported":1750097707,"current_range_meters":16800,"station_id":"ce4bhpp2rcd13ifvqhfg","pricing_plan_id":"cebpf4jnsgd1na2vs0mg"},{"bike_id":"32ce30b4-a2c7-4466-a903-c75974f1795d","system_id":"levelo_inurba_marseille","lat":43.28715,"lon":5.36093,"is_reserved":false,"is_disabled":false,"rental_uris":{"android":"levelo://app?vid=32ce30b4-a2c7-4466-a903-c75974f1795d","ios":"levelo://app?vid=32ce30b4-a2c7-4466-a903-c75974f1795d"},"vehicle_type_id":"4","last_reported":1750097707,"current_range_meters":16800,"station_id":"cki0cbj6b192h4jlfktg","pricing_plan_id":"cebpf4jnsgd1na2vs0mg"},{"bike_id":"8d8216b7-70be-4e0e-b02f-ed276d5ecd5f","system_id":"levelo_inurba_marseille","lat":43.2307,"lon":5.35488,"is_reserved":false,"is_disabled":false,"rental_uris":{"android":"levelo://app?vid=8d8216b7-70be-4e0e-b02f-ed276d5ecd5f","ios":"levelo://app?vid=8d8216b7-70be-4e0e-b02f-ed276d5ecd5f"},"vehicle_type_id":"4","last_reported":1750097707,"current_range_meters":16800,"station_id":"cpo3342slgdg3j2ifvpg","pricing_plan_id":"cebpf4jnsgd1na2vs0mg"},{"bike_id":"a1a41cf7-27e5-4e04-a882-fcdbd618f04d","system_id":"levelo_inurba_marseille","lat":43.22936,"lon":5.35381,"is_reserved":false,"is_disabled":false,"rental_uris":{"android":"levelo://app?vid=a1a41cf7-27e5-4e04-a882-fcdbd618f04d","ios":"levelo://app?vid=a1a41cf7-27e5-4e04-a882-fcdbd618f04d"},"vehicle_type_id":"4","last_reported":1750097707,"current_range_meters":16800,"station_id":"cpo3532slgdg3j2ikp40","pricing_plan_id":"cebpf4jnsgd1na2vs0mg"},{"bike_id":"f25ff58b-eb19-4b4d-94cc-7f6eb3573c38","system_id":"levelo_inurba_marseille","lat":43.30731,"lon":5.4244,"is_reserved":false,"is_disabled":false,"rental_uris":{"android":"levelo://app?vid=f25ff58b-eb19-4b4d-94cc-7f6eb3573c38","ios":"levelo://app?vid=f25ff58b-eb19-4b4d-94cc-7f6eb3573c38"},"vehicle_type_id":"4","last_reported":1750097707,"current_range_meters":16800,"station_id":"st_cvj6ca6bvosntc0bfgr0","pricing_plan_id":"cebpf4jnsgd1na2vs0mg"},{"bike_id":"5fb479d1-47ba-4102-b244-e84ad3ff1ae2","system_id":"levelo_inurba_marseille","lat":43.30777,"lon":5.37668,"is_reserved":false,"is_disabled":false,"rental_uris":{"android":"levelo://app?vid=5fb479d1-47ba-4102-b244-e84ad3ff1ae2","ios":"levelo://app?vid=5fb479d1-47ba-4102-b244-e84ad3ff1ae2"},"vehicle_type_id":"4","last_reported":1750097707,"current_range_meters":17200,"station_id":"ce4bgv92rcd13ifvqcq0","pricing_plan_id":"cebpf4jnsgd1na2vs0mg"},{"bike_id":"9f2fbb5d-166b-49f8-8be7-377a1126664d","system_id":"levelo_inurba_marseille","lat":43.28414,"lon":5.34991,"is_reserved":false,"is_disabled":false,"rental_uris":{"android":"levelo://app?vid=9f2fbb5d-166b-49f8-8be7-377a1126664d","ios":"levelo://app?vid=9f2fbb5d-166b-49f8-8be7-377a1126664d"},"vehicle_type_id":"4","last_reported":1750097707,"current_range_meters":17200,"station_id":"ce4bhbh2rcd13ifvqepg","pricing_plan_id":"cebpf4jnsgd1na2vs0mg"},{"bike_id":"3416a707-2d70-496d-9def-98dfa1a8af2c","system_id":"levelo_inurba_marseille","lat":43.23068,"lon":5.35485,"is_reserved":false,"is_disabled":false,"rental_uris":{"android":"levelo://app?vid=3416a707-2d70-496d-9def-98dfa1a8af2c","ios":"levelo://app?vid=3416a707-2d70-496d-9def-98dfa1a8af2c"},"vehicle_type_id":"4","last_reported":1750097707,"current_range_meters":17200,"station_id":"cpo3342slgdg3j2ifvpg","pricing_plan_id":"cebpf4jnsgd1na2vs0mg"},{"bike_id":"83cfee7d-980d-496a-98c8-745c7e44c68d","system_id":"levelo_inurba_marseille","lat":43.32889,"lon":5.39082,"is_reserved":false,"is_disabled":false,"rental_uris":{"android":"levelo://app?vid=83cfee7d-980d-496a-98c8-745c7e44c68d","ios":"levelo://app?vid=83cfee7d-980d-496a-98c8-745c7e44c68d"},"vehicle_type_id":"4","last_reported":1750097707,"current_range_meters":17600,"station_id":"","pricing_plan_id":"cebpf4jnsgd1na2vs0mg"},{"bike_id":"433a67f1-4480-4922-9d02-f3caacd65711","system_id":"levelo_inurba_marseille","lat":43.2904,"lon":5.3865,"is_reserved":false,"is_disabled":false,"rental_uris":{"android":"levelo://app?vid=433a67f1-4480-4922-9d02-f3caacd65711","ios":"levelo://app?vid=433a67f1-4480-4922-9d02-f3caacd65711"},"vehicle_type_id":"4","last_reported":1750097707,"current_range_meters":17600,"station_id":"ce4bh4p2rcd13ifvqe0g","pricing_plan_id":"cebpf4jnsgd1na2vs0mg"},{"bike_id":"6230e1a4-f5df-4396-8c70-047b579eb754","system_id":"levelo_inurba_marseille","lat":43.29277,"lon":5.3684,"is_reserved":false,"is_disabled":false,"rental_uris":{"android":"levelo://app?vid=6230e1a4-f5df-4396-8c70-047b579eb754","ios":"levelo://app?vid=6230e1a4-f5df-4396-8c70-047b579eb754"},"vehicle_type_id":"4","last_reported":1750097707,"current_range_meters":17600,"station_id":"ce4bhbp2rcd13ifvqesg","pricing_plan_id":"cebpf4jnsgd1na2vs0mg"},{"bike_id":"c71ebdba-7437-44b1-8a2f-81c728b85bd4","system_id":"levelo_inurba_marseille","lat":43.27188,"lon":5.40986,"is_reserved":false,"is_disabled":false,"rental_uris":{"android":"levelo://app?vid=c71ebdba-7437-44b1-8a2f-81c728b85bd4","ios":"levelo://app?vid=c71ebdba-7437-44b1-8a2f-81c728b85bd4"},"vehicle_type_id":"4","last_reported":1750097707,"current_range_meters":17600,"station_id":"ce4bhl12rcd13ifvqgf0","pricing_plan_id":"cebpf4jnsgd1na2vs0mg"},{"bike_id":"63d8f8de-6fb5-461e-8196-70d15c64a587","system_id":"levelo_inurba_marseille","lat":43.21208,"lon":5.35081,"is_reserved":false,"is_disabled":false,"rental_uris":{"android":"levelo://app?vid=63d8f8de-6fb5-461e-8196-70d15c64a587","ios":"levelo://app?vid=63d8f8de-6fb5-461e-8196-70d15c64a587"},"vehicle_type_id":"4","last_reported":1750097707,"current_range_meters":17600,"station_id":"st_cvj6sg6p6f1abm77japg","pricing_plan_id":"cebpf4jnsgd1na2vs0mg"},{"bike_id":"059ed39c-d25a-4123-b8fe-15ef7fdbe11f","system_id":"levelo_inurba_marseille","lat":43.29267,"lon":5.37632,"is_reserved":false,"is_disabled":false,"rental_uris":{"android":"levelo://app?vid=059ed39c-d25a-4123-b8fe-15ef7fdbe11f","ios":"levelo://app?vid=059ed39c-d25a-4123-b8fe-15ef7fdbe11f"},"vehicle_type_id":"4","last_reported":1750097707,"current_range_meters":18000,"station_id":"ce4bgi12rcd13ifvqb80","pricing_plan_id":"cebpf4jnsgd1na2vs0mg"},{"bike_id":"a4db9d4f-11b2-4736-9468-88ad3fe306a5","system_id":"levelo_inurba_marseille","lat":43.30537,"lon":5.36527,"is_reserved":false,"is_disabled":false,"rental_uris":{"android":"levelo://app?vid=a4db9d4f-11b2-4736-9468-88ad3fe306a5","ios":"levelo://app?vid=a4db9d4f-11b2-4736-9468-88ad3fe306a5"},"vehicle_type_id":"4","last_reported":1750097707,"current_range_meters":18000,"station_id":"ce4bgs12rcd13ifvqcag","pricing_plan_id":"cebpf4jnsgd1na2vs0mg"},{"bike_id":"565d28fd-8e81-4d05-863f-612940bbe238","system_id":"levelo_inurba_marseille","lat":43.28416,"lon":5.34986,"is_reserved":false,"is_disabled":false,"rental_uris":{"android":"levelo://app?vid=565d28fd-8e81-4d05-863f-612940bbe238","ios":"levelo://app?vid=565d28fd-8e81-4d05-863f-612940bbe238"},"vehicle_type_id":"4","last_reported":1750097707,"current_range_meters":18000,"station_id":"ce4bhbh2rcd13ifvqepg","pricing_plan_id":"cebpf4jnsgd1na2vs0mg"},{"bike_id":"3dde3bca-46fc-4164-a167-3eaf1a11c0a3","system_id":"levelo_inurba_marseille","lat":43.28621,"lon":5.35101,"is_reserved":false,"is_disabled":false,"rental_uris":{"android":"levelo://app?vid=3dde3bca-46fc-4164-a167-3eaf1a11c0a3","ios":"levelo://app?vid=3dde3bca-46fc-4164-a167-3eaf1a11c0a3"},"vehicle_type_id":"4","last_reported":1750097707,"current_range_meters":18000,"station_id":"ce4bhch2rcd13ifvqeug","pricing_plan_id":"cebpf4jnsgd1na2vs0mg"},{"bike_id":"cd4c311f-ef5a-41ec-9667-19f218233244","system_id":"levelo_inurba_marseille","lat":43.29606,"lon":5.38097,"is_reserved":false,"is_disabled":false,"rental_uris":{"android":"levelo://app?vid=cd4c311f-ef5a-41ec-9667-19f218233244","ios":"levelo://app?vid=cd4c311f-ef5a-41ec-9667-19f218233244"},"vehicle_type_id":"4","last_reported":1750097707,"current_range_meters":18800,"station_id":"ce4bgl12rcd13ifvqbo0","pricing_plan_id":"cebpf4jnsgd1na2vs0mg"},{"bike_id":"7861b531-9841-46e6-83ee-0e6ab6b9568b","system_id":"levelo_inurba_marseille","lat":43.29846,"lon":5.36271,"is_reserved":false,"is_disabled":false,"rental_uris":{"android":"levelo://app?vid=7861b531-9841-46e6-83ee-0e6ab6b9568b","ios":"levelo://app?vid=7861b531-9841-46e6-83ee-0e6ab6b9568b"},"vehicle_type_id":"4","last_reported":1750097707,"current_range_meters":18800,"station_id":"ce4bgpp2rcd13ifvqc3g","pricing_plan_id":"cebpf4jnsgd1na2vs0mg"},{"bike_id":"0f5323c0-62f6-42b1-afd1-6f992e910824","system_id":"levelo_inurba_marseille","lat":43.28038,"lon":5.36947,"is_reserved":false,"is_disabled":false,"rental_uris":{"android":"levelo://app?vid=0f5323c0-62f6-42b1-afd1-6f992e910824","ios":"levelo://app?vid=0f5323c0-62f6-42b1-afd1-6f992e910824"},"vehicle_type_id":"4","last_reported":1750097707,"current_range_meters":18800,"station_id":"ce4bha12rcd13ifvqef0","pricing_plan_id":"cebpf4jnsgd1na2vs0mg"},{"bike_id":"b3e7b03b-5d0f-45e7-b0a1-a405de069ddb","system_id":"levelo_inurba_marseille","lat":43.29003,"lon":5.35622,"is_reserved":false,"is_disabled":false,"rental_uris":{"android":"levelo://app?vid=b3e7b03b-5d0f-45e7-b0a1-a405de069ddb","ios":"levelo://app?vid=b3e7b03b-5d0f-45e7-b0a1-a405de069ddb"},"vehicle_type_id":"4","last_reported":1750097707,"current_range_meters":18800,"station_id":"ce4bhb92rcd13ifvqen0","pricing_plan_id":"cebpf4jnsgd1na2vs0mg"},