{"last_updated":1778826139,"ttl":60,"version":"2.2","data":{"bikes":[{"bike_id":"fd6225b0-472a-430a-b26d-b20a281eb878","system_id":"levelo_inurba_marseille","lat":43.29244,"lon":5.40906,"is_reserved":false,"is_disabled":false,"rental_uris":{"android":"levelo://app?vid=fd6225b0-472a-430a-b26d-b20a281eb878","ios":"levelo://app?vid=fd6225b0-472a-430a-b26d-b20a281eb878"},"vehicle_type_id":"4","last_reported":1778826140,"current_range_meters":2800,"station_id":"ce4bh192rcd13ifvqdc0","pricing_plan_id":"cebpf4jnsgd1na2vs0mg"},{"bike_id":"450734e6-f5bf-4621-9f92-cc082d87e39c","system_id":"levelo_inurba_marseille","lat":43.28371,"lon":5.38636,"is_reserved":false,"is_disabled":false,"rental_uris":{"android":"levelo://app?vid=450734e6-f5bf-4621-9f92-cc082d87e39c","ios":"levelo://app?vid=450734e6-f5bf-4621-9f92-cc082d87e39c"},"vehicle_type_id":"4","last_reported":1778826140,"current_range_meters":2800,"station_id":"ce4bh492rcd13ifvqdvg","pricing_plan_id":"cebpf4jnsgd1na2vs0mg"},{"bike_id":"451884af-2111-4fc4-b1be-ddb7a28232bd","system_id":"levelo_inurba_marseille","lat":43.28527,"lon":5.44092,"is_reserved":false,"is_disabled":false,"rental_uris":{"android":"levelo://app?vid=451884af-2111-4fc4-b1be-ddb7a28232bd","ios":"levelo://app?vid=451884af-2111-4fc4-b1be-ddb7a28232bd"},"vehicle_type_id":"4","last_reported":1778826140,"current_range_meters":2800,"station_id":"st_d3j3df2ikq2c7380ej80","pricing_plan_id":"cebpf4jnsgd1na2vs0mg"},{"bike_id":"da9d6cbb-1bc2-4da6-806e-58a26ec7fa3a","system_id":"levelo_inurba_marseille","lat":43.28382,"lon":5.34968,"is_reserved":false,"is_disabled":false,"rental_uris":{"android":"levelo://app?vid=da9d6cbb-1bc2-4da6-806e-58a26ec7fa3a","ios":"levelo://app?vid=da9d6cbb-1bc2-4da6-806e-58a26ec7fa3a"},"vehicle_type_id":"4","last_reported":1778826140,"current_range_meters":2800,"station_id":"ce4bhbh2rcd13ifvqepg","pricing_plan_id":"cebpf4jnsgd1na2vs0mg"},{"bike_id":"75f753fc-9c52-4208-a22b-7f1d28b00c6c","system_id":"levelo_inurba_marseille","lat":43.24707,"lon":5.39296,"is_reserved":false,"is_disabled":false,"rental_uris":{"android":"levelo://app?vid=75f753fc-9c52-4208-a22b-7f1d28b00c6c","ios":"levelo://app?vid=75f753fc-9c52-4208-a22b-7f1d28b00c6c"},"vehicle_type_id":"4","last_reported":1778826140,"current_range_meters":2800,"station_id":"","pricing_plan_id":"cebpf4jnsgd1na2vs0mg"},{"bike_id":"9c861895-7fc9-49d9-b3bd-d641d7630397","system_id":"levelo_inurba_marseille","lat":43.23171,"lon":5.39994,"is_reserved":false,"is_disabled":false,"rental_uris":{"android":"levelo://app?vid=9c861895-7fc9-49d9-b3bd-d641d7630397","ios":"levelo://app?vid=9c861895-7fc9-49d9-b3bd-d641d7630397"},"vehicle_type_id":"4","last_reported":1778826140,"current_range_meters":2800,"station_id":"ce4bhn12rcd13ifvqgqg","pricing_plan_id":"cebpf4jnsgd1na2vs0mg"},{"bike_id":"b112f117-e396-49d7-808b-42d249310fa0","system_id":"levelo_inurba_marseille","lat":43.28664,"lon":5.36333,"is_reserved":false,"is_disabled":false,"rental_uris":{"android":"levelo://app?vid=b112f117-e396-49d7-808b-42d249310fa0","ios":"levelo://app?vid=b112f117-e396-49d7-808b-42d249310fa0"},"vehicle_type_id":"4","last_reported":1778826140,"current_range_meters":2800,"station_id":"ce4bhah2rcd13ifvqej0","pricing_plan_id":"cebpf4jnsgd1na2vs0mg"},{"bike_id":"91922af8-9afe-4417-90ec-1dd4213af3e4","system_id":"levelo_inurba_marseille","lat":43.28947,"lon":5.39618,"is_reserved":false,"is_disabled":false,"rental_uris":{"android":"levelo://app?vid=91922af8-9afe-4417-90ec-1dd4213af3e4","ios":"levelo://app?vid=91922af8-9afe-4417-90ec-1dd4213af3e4"},"vehicle_type_id":"4","last_reported":1778826140,"current_range_meters":2800,"station_id":"ce4bh3h2rcd13ifvqdn0","pricing_plan_id":"cebpf4jnsgd1na2vs0mg"},{"bike_id":"063e251d-684c-4baf-a544-856d6726483f","system_id":"levelo_inurba_marseille","lat":43.31293,"lon":5.40168,"is_reserved":false,"is_disabled":false,"rental_uris":{"android":"levelo://app?vid=063e251d-684c-4baf-a544-856d6726483f","ios":"levelo://app?vid=063e251d-684c-4baf-a544-856d6726483f"},"vehicle_type_id":"4","last_reported":1778826140,"current_range_meters":2800,"station_id":"ce4bh092rcd13ifvqd30","pricing_plan_id":"cebpf4jnsgd1na2vs0mg"},{"bike_id":"5e8620f7-476d-479d-b824-0ee8299b38df","system_id":"levelo_inurba_marseille","lat":43.31223,"lon":5.37819,"is_reserved":false,"is_disabled":false,"rental_uris":{"android":"levelo://app?vid=5e8620f7-476d-479d-b824-0ee8299b38df","ios":"levelo://app?vid=5e8620f7-476d-479d-b824-0ee8299b38df"},"vehicle_type_id":"4","last_reported":1778826140,"current_range_meters":3200,"station_id":"","pricing_plan_id":"cebpf4jnsgd1na2vs0mg"},{"bike_id":"0851f791-575d-4580-b469-9a5c98e28a8c","system_id":"levelo_inurba_marseille","lat":43.29133,"lon":5.42442,"is_reserved":false,"is_disabled":false,"rental_uris":{"android":"levelo://app?vid=0851f791-575d-4580-b469-9a5c98e28a8c","ios":"levelo://app?vid=0851f791-575d-4580-b469-9a5c98e28a8c"},"vehicle_type_id":"4","last_reported":1778826140,"current_range_meters":3200,"station_id":"","pricing_plan_id":"cebpf4jnsgd1na2vs0mg"},{"bike_id":"925734c3-1250-45c0-9661-a26d1053b54b","system_id":"levelo_inurba_marseille","lat":43.25609,"lon":5.38211,"is_reserved":false,"is_disabled":false,"rental_uris":{"android":"levelo://app?vid=925734c3-1250-45c0-9661-a26d1053b54b","ios":"levelo://app?vid=925734c3-1250-45c0-9661-a26d1053b54b"},"vehicle_type_id":"4","last_reported":1778826140,"current_range_meters":3200,"station_id":"ce4bhih2rcd13ifvqfs0","pricing_plan_id":"cebpf4jnsgd1na2vs0mg"},{"bike_id":"87ce4688-a9b6-435d-98b0-56df941a79fe","system_id":"levelo_inurba_marseille","lat":43.28548,"lon":5.39741,"is_reserved":false,"is_disabled":false,"rental_uris":{"android":"levelo://app?vid=87ce4688-a9b6-435d-98b0-56df941a79fe","ios":"levelo://app?vid=87ce4688-a9b6-435d-98b0-56df941a79fe"},"vehicle_type_id":"4","last_reported":1778826140,"current_range_meters":3200,"station_id":"","pricing_plan_id":"cebpf4jnsgd1na2vs0mg"},{"bike_id":"0450ae6f-6f17-4c43-8fb9-91bf94b35e18","system_id":"levelo_inurba_marseille","lat":43.30187,"lon":5.36562,"is_reserved":false,"is_disabled":false,"rental_uris":{"android":"levelo://app?vid=0450ae6f-6f17-4c43-8fb9-91bf94b35e18","ios":"levelo://app?vid=0450ae6f-6f17-4c43-8fb9-91bf94b35e18"},"vehicle_type_id":"4","last_reported":1778826140,"current_range_meters":3200,"station_id":"","pricing_plan_id":"cebpf4jnsgd1na2vs0mg"},{"bike_id":"db547773-5428-49f8-a749-b92f8f9a342a","system_id":"levelo_inurba_marseille","lat":43.23966,"lon":5.36619,"is_reserved":false,"is_disabled":false,"rental_uris":{"android":"levelo://app?vid=db547773-5428-49f8-a749-b92f8f9a342a","ios":"levelo://app?vid=db547773-5428-49f8-a749-b92f8f9a342a"},"vehicle_type_id":"4","last_reported":1778826140,"current_range_meters":3200,"station_id":"ce4bhi12rcd13ifvqfp0","pricing_plan_id":"cebpf4jnsgd1na2vs0mg"},{"bike_id":"8b467899-d7be-4610-b502-70708c4f8094","system_id":"levelo_inurba_marseille","lat":43.3112,"lon":5.37758,"is_reserved":false,"is_disabled":false,"rental_uris":{"android":"levelo://app?vid=8b467899-d7be-4610-b502-70708c4f8094","ios":"levelo://app?vid=8b467899-d7be-4610-b502-70708c4f8094"},"vehicle_type_id":"4","last_reported":1778826140,"current_range_meters":3200,"station_id":"ce4bgt92rcd13ifvqcg0","pricing_plan_id":"cebpf4jnsgd1na2vs0mg"},{"bike_id":"3491ea88-5a23-493e-b0a6-ee151b21b349","system_id":"levelo_inurba_marseille","lat":43.28225,"lon":5.39062,"is_reserved":false,"is_disabled":false,"rental_uris":{"android":"levelo://app?vid=3491ea88-5a23-493e-b0a6-ee151b21b349","ios":"levelo://app?vid=3491ea88-5a23-493e-b0a6-ee151b21b349"},"vehicle_type_id":"4","last_reported":1778826140,"current_range_meters":3200,"station_id":"ce4bhn92rcd13ifvqgsg","pricing_plan_id":"cebpf4jnsgd1na2vs0mg"},{"bike_id":"f8a5149b-f19e-4377-9344-32e1511bcbba","system_id":"levelo_inurba_marseille","lat":43.28698,"lon":5.46682,"is_reserved":false,"is_disabled":false,"rental_uris":{"android":"levelo://app?vid=f8a5149b-f19e-4377-9344-32e1511bcbba","ios":"levelo://app?vid=f8a5149b-f19e-4377-9344-32e1511bcbba"},"vehicle_type_id":"4","last_reported":1778826140,"current_range_meters":3200,"station_id":"st_d6tc3vkotcvc738tfjhg","pricing_plan_id":"cebpf4jnsgd1na2vs0mg"},{"bike_id":"1d4e275a-be76-4105-ba39-2b990ddfc942","system_id":"levelo_inurba_marseille","lat":43.27939,"lon":5.41045,"is_reserved":false,"is_disabled":false,"rental_uris":{"android":"levelo://app?vid=1d4e275a-be76-4105-ba39-2b990ddfc942","ios":"levelo://app?vid=1d4e275a-be76-4105-ba39-2b990ddfc942"},"vehicle_type_id":"4","last_reported":1778826140,"current_range_meters":3200,"station_id":"ce4bhnp2rcd13ifvqh0g","pricing_plan_id":"cebpf4jnsgd1na2vs0mg"},{"bike_id":"5e70c149-f7fa-4313-9070-5d5d06af8c49","system_id":"levelo_inurba_marseille","lat":43.31115,"lon":5.37764,"is_reserved":false,"is_disabled":false,"rental_uris":{"android":"levelo://app?vid=5e70c149-f7fa-4313-9070-5d5d06af8c49","ios":"levelo://app?vid=5e70c149-f7fa-4313-9070-5d5d06af8c49"},"vehicle_type_id":"4","last_reported":1778826140,"current_range_meters":3200,"station_id":"ce4bgt92rcd13ifvqcg0","pricing_plan_id":"cebpf4jnsgd1na2vs0mg"},{"bike_id":"21630f77-eda1-40f0-8566-04dd068e8503","system_id":"levelo_inurba_marseille","lat":43.33541,"lon":5.37465,"is_reserved":false,"is_disabled":false,"rental_uris":{"android":"levelo://app?vid=21630f77-eda1-40f0-8566-04dd068e8503","ios":"levelo://app?vid=21630f77-eda1-40f0-8566-04dd068e8503"},"vehicle_type_id":"4","last_reported":1778826140,"current_range_meters":3600,"station_id":"st_d46tts09ee8s73dlu43g","pricing_plan_id":"cebpf4jnsgd1na2vs0mg"},{"bike_id":"e5a6e1db-3fc8-4136-9437-e55e33690bc7","system_id":"levelo_inurba_marseille","lat":43.303522,"lon":5.418751,"is_reserved":false,"is_disabled":false,"rental_uris":{"android":"levelo://app?vid=e5a6e1db-3fc8-4136-9437-e55e33690bc7","ios":"levelo://app?vid=e5a6e1db-3fc8-4136-9437-e55e33690bc7"},"vehicle_type_id":"4","last_reported":1778826140,"current_range_meters":3600,"station_id":"ce4bhop2rcd13ifvqh7g","pricing_plan_id":"cebpf4jnsgd1na2vs0mg"},{"bike_id":"50ecd2a5-280a-4059-9de9-3aee985c1f30","system_id":"levelo_inurba_marseille","lat":43.3169,"lon":5.37752,"is_reserved":false,"is_disabled":false,"rental_uris":{"android":"levelo://app?vid=50ecd2a5-280a-4059-9de9-3aee985c1f30","ios":"levelo://app?vid=50ecd2a5-280a-4059-9de9-3aee985c1f30"},"vehicle_type_id":"4","last_reported":1778826140,"current_range_meters":3600,"station_id":"ce4bgth2rcd13ifvqch0","pricing_plan_id":"cebpf4jnsgd1na2vs0mg"},{"bike_id":"4baa9b72-17a6-459d-8a63-49a6eeb5a1bd","system_id":"levelo_inurba_marseille","lat":43.29263,"lon":5.38429,"is_reserved":false,"is_disabled":true,"rental_uris":{"android":"levelo://app?vid=4baa9b72-17a6-459d-8a63-49a6eeb5a1bd","ios":"levelo://app?vid=4baa9b72-17a6-459d-8a63-49a6eeb5a1bd"},"vehicle_type_id":"4","last_reported":1778826140,"current_range_meters":3600,"station_id":"ce4bh692rcd13ifvqea0","pricing_plan_id":"cebpf4jnsgd1na2vs0mg"},{"bike_id":"88c0458d-410d-486d-8514-53ff65f224d5","system_id":"levelo_inurba_marseille","lat":43.26214,"lon":5.37449,"is_reserved":false,"is_disabled":false,"rental_uris":{"android":"levelo://app?vid=88c0458d-410d-486d-8514-53ff65f224d5","ios":"levelo://app?vid=88c0458d-410d-486d-8514-53ff65f224d5"},"vehicle_type_id":"4","last_reported":1778826140,"current_range_meters":3600,"station_id":"ce4bhgp2rcd13ifvqfc0","pricing_plan_id":"cebpf4jnsgd1na2vs0mg"},{"bike_id":"1e376547-28d1-4c71-ad38-dccc2473beb9","system_id":"levelo_inurba_marseille","lat":43.28475,"lon":5.48398,"is_reserved":false,"is_disabled":false,"rental_uris":{"android":"levelo://app?vid=1e376547-28d1-4c71-ad38-dccc2473beb9","ios":"levelo://app?vid=1e376547-28d1-4c71-ad38-dccc2473beb9"},"vehicle_type_id":"4","last_reported":1778826140,"current_range_meters":3600,"station_id":"st_d3svhcjqgbts73a3dn0g","pricing_plan_id":"cebpf4jnsgd1na2vs0mg"},{"bike_id":"33b84942-cf5f-4afa-869d-950d91a6d306","system_id":"levelo_inurba_marseille","lat":43.28466,"lon":5.38566,"is_reserved":false,"is_disabled":false,"rental_uris":{"android":"levelo://app?vid=33b84942-cf5f-4afa-869d-950d91a6d306","ios":"levelo://app?vid=33b84942-cf5f-4afa-869d-950d91a6d306"},"vehicle_type_id":"4","last_reported":1778826140,"current_range_meters":3600,"station_id":"ce4bh8p2rcd13ifvqeb0","pricing_plan_id":"cebpf4jnsgd1na2vs0mg"},{"bike_id":"3d616266-f7ce-4293-9258-2d97cddf53d9","system_id":"levelo_inurba_marseille","lat":43.27915,"lon":5.39587,"is_reserved":false,"is_disabled":false,"rental_uris":{"android":"levelo://app?vid=3d616266-f7ce-4293-9258-2d97cddf53d9","ios":"levelo://app?vid=3d616266-f7ce-4293-9258-2d97cddf53d9"},"vehicle_type_id":"4","last_reported":1778826140,"current_range_meters":3600,"station_id":"ce4bhf92rcd13ifvqf40","pricing_plan_id":"cebpf4jnsgd1na2vs0mg"},{"bike_id":"6e5dfbd9-c03a-40ed-aedc-3c2f2a1d6845","system_id":"levelo_inurba_marseille","lat":43.23716,"lon":5.39934,"is_reserved":false,"is_disabled":false,"rental_uris":{"android":"levelo://app?vid=6e5dfbd9-c03a-40ed-aedc-3c2f2a1d6845","ios":"levelo://app?vid=6e5dfbd9-c03a-40ed-aedc-3c2f2a1d6845"},"vehicle_type_id":"4","last_reported":1778826140,"current_range_meters":3600,"station_id":"","pricing_plan_id":"cebpf4jnsgd1na2vs0mg"},{"bike_id":"2351facd-e0b5-47b2-b77a-87fff66ae3e7","system_id":"levelo_inurba_marseille","lat":43.21743,"lon":5.34586,"is_reserved":false,"is_disabled":false,"rental_uris":{"android":"levelo://app?vid=2351facd-e0b5-47b2-b77a-87fff66ae3e7","ios":"levelo://app?vid=2351facd-e0b5-47b2-b77a-87fff66ae3e7"},"vehicle_type_id":"4","last_reported":1778826140,"current_range_meters":4000,"station_id":"st_cvj6r9ubvosntc0bgbag","pricing_plan_id":"cebpf4jnsgd1na2vs0mg"},{"bike_id":"36171f44-6e4b-499c-9f3d-272981e78653","system_id":"levelo_inurba_marseille","lat":43.26243,"lon":5.37415,"is_reserved":false,"is_disabled":false,"rental_uris":{"android":"levelo://app?vid=36171f44-6e4b-499c-9f3d-272981e78653","ios":"levelo://app?vid=36171f44-6e4b-499c-9f3d-272981e78653"},"vehicle_type_id":"4","last_reported":1778826140,"current_range_meters":4000,"station_id":"","pricing_plan_id":"cebpf4jnsgd1na2vs0mg"},{"bike_id":"f5883b02-a1d5-44b1-a039-9d551a4d0355","system_id":"levelo_inurba_marseille","lat":43.24642,"lon":5.38878,"is_reserved":false,"is_disabled":false,"rental_uris":{"android":"levelo://app?vid=f5883b02-a1d5-44b1-a039-9d551a4d0355","ios":"levelo://app?vid=f5883b02-a1d5-44b1-a039-9d551a4d0355"},"vehicle_type_id":"4","last_reported":1778826140,"current_range_meters":4000,"station_id":"ce4bhg12rcd13ifvqf60","pricing_plan_id":"cebpf4jnsgd1na2vs0mg"},{"bike_id":"b280a10f-2c1b-4d5d-88dd-1fa8a56e3191","system_id":"levelo_inurba_marseille","lat":43.26572,"lon":5.39027,"is_reserved":false,"is_disabled":false,"rental_uris":{"android":"levelo://app?vid=b280a10f-2c1b-4d5d-88dd-1fa8a56e3191","ios":"levelo://app?vid=b280a10f-2c1b-4d5d-88dd-1fa8a56e3191"},"vehicle_type_id":"4","last_reported":1778826140,"current_range_meters":4000,"station_id":"ce4bhe12rcd13ifvqf30","pricing_plan_id":"cebpf4jnsgd1na2vs0mg"},{"bike_id":"9a8510f6-dc7b-4e3e-bb7c-d96ae66f426f","system_id":"levelo_inurba_marseille","lat":43.29913,"lon":5.37475,"is_reserved":false,"is_disabled":false,"rental_uris":{"android":"levelo://app?vid=9a8510f6-dc7b-4e3e-bb7c-d96ae66f426f","ios":"levelo://app?vid=9a8510f6-dc7b-4e3e-bb7c-d96ae66f426f"},"vehicle_type_id":"4","last_reported":1778826140,"current_range_meters":4000,"station_id":"ce4bgjh2rcd13ifvqbg0","pricing_plan_id":"cebpf4jnsgd1na2vs0mg"},{"bike_id":"501d5cea-52c1-4650-8f94-f27184eedc64","system_id":"levelo_inurba_marseille","lat":43.30405,"lon":5.39708,"is_reserved":false,"is_disabled":false,"rental_uris":{"android":"levelo://app?vid=501d5cea-52c1-4650-8f94-f27184eedc64","ios":"levelo://app?vid=501d5cea-52c1-4650-8f94-f27184eedc64"},"vehicle_type_id":"4","last_reported":1778826140,"current_range_meters":4000,"station_id":"ce4bh092rcd13ifvqd20","pricing_plan_id":"cebpf4jnsgd1na2vs0mg"},{"bike_id":"8b1a5088-1d38-4514-8b57-325ca8670dbe","system_id":"levelo_inurba_marseille","lat":43.26213,"lon":5.38755,"is_reserved":false,"is_disabled":false,"rental_uris":{"android":"levelo://app?vid=8b1a5088-1d38-4514-8b57-325ca8670dbe","ios":"levelo://app?vid=8b1a5088-1d38-4514-8b57-325ca8670dbe"},"vehicle_type_id":"4","last_reported":1778826140,"current_range_meters":4000,"station_id":"","pricing_plan_id":"cebpf4jnsgd1na2vs0mg"},{"bike_id":"6342c44b-476f-48da-96ba-a2cc4677cd46","system_id":"levelo_inurba_marseille","lat":43.30521,"lon":5.36705,"is_reserved":false,"is_disabled":false,"rental_uris":{"android":"levelo://app?vid=6342c44b-476f-48da-96ba-a2cc4677cd46","ios":"levelo://app?vid=6342c44b-476f-48da-96ba-a2cc4677cd46"},"vehicle_type_id":"4","last_reported":1778826140,"current_range_meters":4000,"station_id":"ce4bgrp2rcd13ifvqc9g","pricing_plan_id":"cebpf4jnsgd1na2vs0mg"},{"bike_id":"3b66cbc2-f67c-4859-b959-6ef945b847ce","system_id":"levelo_inurba_marseille","lat":43.24818,"lon":5.37455,"is_reserved":false,"is_disabled":false,"rental_uris":{"android":"levelo://app?vid=3b66cbc2-f67c-4859-b959-6ef945b847ce","ios":"levelo://app?vid=3b66cbc2-f67c-4859-b959-6ef945b847ce"},"vehicle_type_id":"4","last_reported":1778826140,"current_range_meters":4000,"station_id":"ce4bhgh2rcd13ifvqfb0","pricing_plan_id":"cebpf4jnsgd1na2vs0mg"},{"bike_id":"07901982-752d-4b1b-a3d8-7d8ebd2d57d5","system_id":"levelo_inurba_marseille","lat":43.31905,"lon":5.36806,"is_reserved":false,"is_disabled":false,"rental_uris":{"android":"levelo://app?vid=07901982-752d-4b1b-a3d8-7d8ebd2d57d5","ios":"levelo://app?vid=07901982-752d-4b1b-a3d8-7d8ebd2d57d5"},"vehicle_type_id":"4","last_reported":1778826140,"current_range_meters":4000,"station_id":"st_d6o2h0d0559c73evc1b0","pricing_plan_id":"cebpf4jnsgd1na2vs0mg"},{"bike_id":"4336eb3e-4dcb-40af-a6f6-5758e7c48f2e","system_id":"levelo_inurba_marseille","lat":43.28856,"lon":5.35832,"is_reserved":false,"is_disabled":false,"rental_uris":{"android":"levelo://app?vid=4336eb3e-4dcb-40af-a6f6-5758e7c48f2e","ios":"levelo://app?vid=4336eb3e-4dcb-40af-a6f6-5758e7c48f2e"},"vehicle_type_id":"4","last_reported":1778826140,"current_range_meters":4400,"station_id":"ce4bhb12rcd13ifvqem0","pricing_plan_id":"cebpf4jnsgd1na2vs0mg"},{"bike_id":"80b0efb7-f083-4c54-aac9-a6fac9bf5f0d","system_id":"levelo_inurba_marseille","lat":43.29035,"lon":5.39955,"is_reserved":false,"is_disabled":false,"rental_uris":{"android":"levelo://app?vid=80b0efb7-f083-4c54-aac9-a6fac9bf5f0d","ios":"levelo://app?vid=80b0efb7-f083-4c54-aac9-a6fac9bf5f0d"},"vehicle_type_id":"4","last_reported":1778826140,"current_range_meters":4400,"station_id":"ce4bh392rcd13ifvqdm0","pricing_plan_id":"cebpf4jnsgd1na2vs0mg"},{"bike_id":"600ae21f-84ee-4e17-83e0-645ec9d8a39d","system_id":"levelo_inurba_marseille","lat":43.26364,"lon":5.41075,"is_reserved":false,"is_disabled":false,"rental_uris":{"android":"levelo://app?vid=600ae21f-84ee-4e17-83e0-645ec9d8a39d","ios":"levelo://app?vid=600ae21f-84ee-4e17-83e0-645ec9d8a39d"},"vehicle_type_id":"4","last_reported":1778826140,"current_range_meters":4400,"station_id":"st_d4e5ca6na9uc73bfl5fg","pricing_plan_id":"cebpf4jnsgd1na2vs0mg"},{"bike_id":"f319d43d-d58c-4aac-9f61-b07539060c76","system_id":"levelo_inurba_marseille","lat":43.33218,"lon":5.43052,"is_reserved":false,"is_disabled":false,"rental_uris":{"android":"levelo://app?vid=f319d43d-d58c-4aac-9f61-b07539060c76","ios":"levelo://app?vid=f319d43d-d58c-4aac-9f61-b07539060c76"},"vehicle_type_id":"4","last_reported":1778826140,"current_range_meters":4400,"station_id":"","pricing_plan_id":"cebpf4jnsgd1na2vs0mg"},{"bike_id":"988afeef-8fa0-4222-9994-711b55a606f6","system_id":"levelo_inurba_marseille","lat":43.25345,"lon":5.42182,"is_reserved":false,"is_disabled":false,"rental_uris":{"android":"levelo://app?vid=988afeef-8fa0-4222-9994-711b55a606f6","ios":"levelo://app?vid=988afeef-8fa0-4222-9994-711b55a606f6"},"vehicle_type_id":"4","last_reported":1778826140,"current_range_meters":4400,"station_id":"st_d2m65c5bi1j21697t3ng","pricing_plan_id":"cebpf4jnsgd1na2vs0mg"},{"bike_id":"29b4558e-e8d4-4198-958d-0e51be2acce4","system_id":"levelo_inurba_marseille","lat":43.26567,"lon":5.37282,"is_reserved":false,"is_disabled":false,"rental_uris":{"android":"levelo://app?vid=29b4558e-e8d4-4198-958d-0e51be2acce4","ios":"levelo://app?vid=29b4558e-e8d4-4198-958d-0e51be2acce4"},"vehicle_type_id":"4","last_reported":1778826140,"current_range_meters":4400,"station_id":"ce4bhg12rcd13ifvqf70","pricing_plan_id":"cebpf4jnsgd1na2vs0mg"},{"bike_id":"67f28ee8-75fd-440e-847b-c03a6f3c146e","system_id":"levelo_inurba_marseille","lat":43.2518,"lon":5.37496,"is_reserved":false,"is_disabled":false,"rental_uris":{"android":"levelo://app?vid=67f28ee8-75fd-440e-847b-c03a6f3c146e","ios":"levelo://app?vid=67f28ee8-75fd-440e-847b-c03a6f3c146e"},"vehicle_type_id":"4","last_reported":1778826140,"current_range_meters":4400,"station_id":"","pricing_plan_id":"cebpf4jnsgd1na2vs0mg"},{"bike_id":"8e8da42d-03bd-4b9b-97b5-52713d72ebe4","system_id":"levelo_inurba_marseille","lat":43.32096,"lon":5.3676,"is_reserved":false,"is_disabled":false,"rental_uris":{"android":"levelo://app?vid=8e8da42d-03bd-4b9b-97b5-52713d72ebe4","ios":"levelo://app?vid=8e8da42d-03bd-4b9b-97b5-52713d72ebe4"},"vehicle_type_id":"4","last_reported":1778826140,"current_range_meters":4400,"station_id":"ce4bhrh2rcd13ifvqhug","pricing_plan_id":"cebpf4jnsgd1na2vs0mg"},{"bike_id":"5977c9dd-7afb-40cb-8925-76506dbf2aea","system_id":"levelo_inurba_marseille","lat":43.25113,"lon":5.4032,"is_reserved":false,"is_disabled":false,"rental_uris":{"android":"levelo://app?vid=5977c9dd-7afb-40cb-8925-76506dbf2aea","ios":"levelo://app?vid=5977c9dd-7afb-40cb-8925-76506dbf2aea"},"vehicle_type_id":"4","last_reported":1778826140,"current_range_meters":4400,"station_id":"ce4bhlh2rcd13ifvqgig","pricing_plan_id":"cebpf4jnsgd1na2vs0mg"},{"bike_id":"b06e1bda-e59f-423b-9caf-1f463bac74d5","system_id":"levelo_inurba_marseille","lat":43.316879,"lon":5.404735,"is_reserved":false,"is_disabled":false,"rental_uris":{"android":"levelo://app?vid=b06e1bda-e59f-423b-9caf-1f463bac74d5","ios":"levelo://app?vid=b06e1bda-e59f-423b-9caf-1f463bac74d5"},"vehicle_type_id":"4","last_reported":1778826140,"current_range_meters":4400,"station_id":"ce4bh012rcd13ifvqd00","pricing_plan_id":"cebpf4jnsgd1na2vs0mg"},{"bike_id":"d3703a76-d8df-485e-ad38-c33db76e5841","system_id":"levelo_inurba_marseille","lat":43.30149,"lon":5.3808,"is_reserved":false,"is_disabled":false,"rental_uris":{"android":"levelo://app?vid=d3703a76-d8df-485e-ad38-c33db76e5841","ios":"levelo://app?vid=d3703a76-d8df-485e-ad38-c33db76e5841"},"vehicle_type_id":"4","last_reported":1778826140,"current_range_meters":4800,"station_id":"ce4bgjp2rcd13ifvqbh0","pricing_plan_id":"cebpf4jnsgd1na2vs0mg"},{"bike_id":"ba161bc2-f02e-4175-9fed-7d3abc273e49","system_id":"levelo_inurba_marseille","lat":43.304979,"lon":5.401093,"is_reserved":false,"is_disabled":false,"rental_uris":{"android":"levelo://app?vid=ba161bc2-f02e-4175-9fed-7d3abc273e49","ios":"levelo://app?vid=ba161bc2-f02e-4175-9fed-7d3abc273e49"},"vehicle_type_id":"4","last_reported":1778826140,"current_range_meters":4800,"station_id":"ce4bgvh2rcd13ifvqcs0","pricing_plan_id":"cebpf4jnsgd1na2vs0mg"},{"bike_id":"6a26079e-c259-4a56-a844-2c8bca0c51da","system_id":"levelo_inurba_marseille","lat":43.28566,"lon":5.39499,"is_reserved":false,"is_disabled":false,"rental_uris":{"android":"levelo://app?vid=6a26079e-c259-4a56-a844-2c8bca0c51da","ios":"levelo://app?vid=6a26079e-c259-4a56-a844-2c8bca0c51da"},"vehicle_type_id":"4","last_reported":1778826140,"current_range_meters":4800,"station_id":"ce4bh292rcd13ifvqdg0","pricing_plan_id":"cebpf4jnsgd1na2vs0mg"},{"bike_id":"09924bdb-e236-4d6d-86a2-12ee8afd31fd","system_id":"levelo_inurba_marseille","lat":43.25494,"lon":5.37648,"is_reserved":false,"is_disabled":false,"rental_uris":{"android":"levelo://app?vid=09924bdb-e236-4d6d-86a2-12ee8afd31fd","ios":"levelo://app?vid=09924bdb-e236-4d6d-86a2-12ee8afd31fd"},"vehicle_type_id":"4","last_reported":1778826140,"current_range_meters":4800,"station_id":"ce4bhh12rcd13ifvqff0","pricing_plan_id":"cebpf4jnsgd1na2vs0mg"},{"bike_id":"f4749437-504c-459a-ac2b-50ee037c1395","system_id":"levelo_inurba_marseille","lat":43.26028,"lon":5.37541,"is_reserved":false,"is_disabled":false,"rental_uris":{"android":"levelo://app?vid=f4749437-504c-459a-ac2b-50ee037c1395","ios":"levelo://app?vid=f4749437-504c-459a-ac2b-50ee037c1395"},"vehicle_type_id":"4","last_reported":1778826140,"current_range_meters":4800,"station_id":"ce4bhgh2rcd13ifvqfa0","pricing_plan_id":"cebpf4jnsgd1na2vs0mg"},{"bike_id":"c7cc8da8-6564-4f26-9ba4-7dbaf5f793ff","system_id":"levelo_inurba_marseille","lat":43.25493,"lon":5.37639,"is_reserved":false,"is_disabled":false,"rental_uris":{"android":"levelo://app?vid=c7cc8da8-6564-4f26-9ba4-7dbaf5f793ff","ios":"levelo://app?vid=c7cc8da8-6564-4f26-9ba4-7dbaf5f793ff"},"vehicle_type_id":"4","last_reported":1778826140,"current_range_meters":4800,"station_id":"ce4bhh12rcd13ifvqff0","pricing_plan_id":"cebpf4jnsgd1na2vs0mg"},{"bike_id":"28a488cd-0b4e-4672-b81a-1347f852b3c0","system_id":"levelo_inurba_marseille","lat":43.29915,"lon":5.4366,"is_reserved":false,"is_disabled":false,"rental_uris":{"android":"levelo://app?vid=28a488cd-0b4e-4672-b81a-1347f852b3c0","ios":"levelo://app?vid=28a488cd-0b4e-4672-b81a-1347f852b3c0"},"vehicle_type_id":"4","last_reported":1778826140,"current_range_meters":4800,"station_id":"ce4bhpp2rcd13ifvqhfg","pricing_plan_id":"cebpf4jnsgd1na2vs0mg"},{"bike_id":"a3154ee9-1d03-48fc-a23b-b15aad6df825","system_id":"levelo_inurba_marseille","lat":43.28438,"lon":5.39172,"is_reserved":false,"is_disabled":false,"rental_uris":{"android":"levelo://app?vid=a3154ee9-1d03-48fc-a23b-b15aad6df825","ios":"levelo://app?vid=a3154ee9-1d03-48fc-a23b-b15aad6df825"},"vehicle_type_id":"4","last_reported":1778826140,"current_range_meters":4800,"station_id":"ce4bhoh2rcd13ifvqh5g","pricing_plan_id":"cebpf4jnsgd1na2vs0mg"},{"bike_id":"0f34fb8a-0bdd-4f60-af13-795b8d68e1ca","system_id":"levelo_inurba_marseille","lat":43.29901,"lon":5.3806,"is_reserved":false,"is_disabled":false,"rental_uris":{"android":"levelo://app?vid=0f34fb8a-0bdd-4f60-af13-795b8d68e1ca","ios":"levelo://app?vid=0f34fb8a-0bdd-4f60-af13-795b8d68e1ca"},"vehicle_type_id":"4","last_reported":1778826140,"current_range_meters":4800,"station_id":"","pricing_plan_id":"cebpf4jnsgd1na2vs0mg"},{"bike_id":"f0dfe750-6a85-4630-8635-ed2adbbe38ba","system_id":"levelo_inurba_marseille","lat":43.31348,"lon":5.36703,"is_reserved":false,"is_disabled":false,"rental_uris":{"android":"levelo://app?vid=f0dfe750-6a85-4630-8635-ed2adbbe38ba","ios":"levelo://app?vid=f0dfe750-6a85-4630-8635-ed2adbbe38ba"},"vehicle_type_id":"4","last_reported":1778826140,"current_range_meters":5600,"station_id":"ce4bgr92rcd13ifvqc6g","pricing_plan_id":"cebpf4jnsgd1na2vs0mg"},{"bike_id":"a27c6398-d918-4906-94c8-95d0af509d9b","system_id":"levelo_inurba_marseille","lat":43.28613,"lon":5.39866,"is_reserved":false,"is_disabled":false,"rental_uris":{"android":"levelo://app?vid=a27c6398-d918-4906-94c8-95d0af509d9b","ios":"levelo://app?vid=a27c6398-d918-4906-94c8-95d0af509d9b"},"vehicle_type_id":"4","last_reported":1778826140,"current_range_meters":5600,"station_id":"st_d4a7ka997mjs738ck50g","pricing_plan_id":"cebpf4jnsgd1na2vs0mg"},{"bike_id":"56ebb272-f35a-4495-95fc-289a89d13fb2","system_id":"levelo_inurba_marseille","lat":43.30782,"lon":5.38115,"is_reserved":false,"is_disabled":false,"rental_uris":{"android":"levelo://app?vid=56ebb272-f35a-4495-95fc-289a89d13fb2","ios":"levelo://app?vid=56ebb272-f35a-4495-95fc-289a89d13fb2"},"vehicle_type_id":"4","last_reported":1778826140,"current_range_meters":5600,"station_id":"ce4bgt12rcd13ifvqce0","pricing_plan_id":"cebpf4jnsgd1na2vs0mg"},{"bike_id":"cc829911-e80c-4481-8d7a-714b6e680c0c","system_id":"levelo_inurba_marseille","lat":43.30298,"lon":5.36896,"is_reserved":false,"is_disabled":false,"rental_uris":{"android":"levelo://app?vid=cc829911-e80c-4481-8d7a-714b6e680c0c","ios":"levelo://app?vid=cc829911-e80c-4481-8d7a-714b6e680c0c"},"vehicle_type_id":"4","last_reported":1778826140,"current_range_meters":5600,"station_id":"ce4bgqh2rcd13ifvqc5g","pricing_plan_id":"cebpf4jnsgd1na2vs0mg"},{"bike_id":"3417cf8f-8380-49cf-9b96-8708c600b7b9","system_id":"levelo_inurba_marseille","lat":43.2988,"lon":5.38904,"is_reserved":false,"is_disabled":true,"rental_uris":{"android":"levelo://app?vid=3417cf8f-8380-49cf-9b96-8708c600b7b9","ios":"levelo://app?vid=3417cf8f-8380-49cf-9b96-8708c600b7b9"},"vehicle_type_id":"4","last_reported":1778826140,"current_range_meters":5600,"station_id":"ce4bh392rcd13ifvqdl0","pricing_plan_id":"cebpf4jnsgd1na2vs0mg"},{"bike_id":"f5e8d085-0bd0-40db-958c-eda5fc60abc3","system_id":"levelo_inurba_marseille","lat":43.26226,"lon":5.38768,"is_reserved":false,"is_disabled":false,"rental_uris":{"android":"levelo://app?vid=f5e8d085-0bd0-40db-958c-eda5fc60abc3","ios":"levelo://app?vid=f5e8d085-0bd0-40db-958c-eda5fc60abc3"},"vehicle_type_id":"4","last_reported":1778826140,"current_range_meters":5600,"station_id":"","pricing_plan_id":"cebpf4jnsgd1na2vs0mg"},{"bike_id":"7fbd6be8-999f-43d2-8e8e-a4a691a7c961","system_id":"levelo_inurba_marseille","lat":43.253418,"lon":5.421743,"is_reserved":false,"is_disabled":false,"rental_uris":{"android":"levelo://app?vid=7fbd6be8-999f-43d2-8e8e-a4a691a7c961","ios":"levelo://app?vid=7fbd6be8-999f-43d2-8e8e-a4a691a7c961"},"vehicle_type_id":"4","last_reported":1778826140,"current_range_meters":5600,"station_id":"st_d2m65c5bi1j21697t3ng","pricing_plan_id":"cebpf4jnsgd1na2vs0mg"},{"bike_id":"db8fd6e1-3e2e-4ba5-b4dc-e15fa2785925","system_id":"levelo_inurba_marseille","lat":43.25495,"lon":5.37647,"is_reserved":false,"is_disabled":false,"rental_uris":{"android":"levelo://app?vid=db8fd6e1-3e2e-4ba5-b4dc-e15fa2785925","ios":"levelo://app?vid=db8fd6e1-3e2e-4ba5-b4dc-e15fa2785925"},"vehicle_type_id":"4","last_reported":1778826140,"current_range_meters":5600,"station_id":"ce4bhh12rcd13ifvqff0","pricing_plan_id":"cebpf4jnsgd1na2vs0mg"},{"bike_id":"399e8a02-5579-4dbf-b4de-b68767f02a1e","system_id":"levelo_inurba_marseille","lat":43.26192,"lon":5.3743,"is_reserved":false,"is_disabled":false,"rental_uris":{"android":"levelo://app?vid=399e8a02-5579-4dbf-b4de-b68767f02a1e","ios":"levelo://app?vid=399e8a02-5579-4dbf-b4de-b68767f02a1e"},"vehicle_type_id":"4","last_reported":1778826140,"current_range_meters":5600,"station_id":"ce4bhgp2rcd13ifvqfc0","pricing_plan_id":"cebpf4jnsgd1na2vs0mg"},{"bike_id":"7f9e6364-0f57-4a9d-a5c2-0c82f69d6a37","system_id":"levelo_inurba_marseille","lat":43.23915,"lon":5.37443,"is_reserved":false,"is_disabled":false,"rental_uris":{"android":"levelo://app?vid=7f9e6364-0f57-4a9d-a5c2-0c82f69d6a37","ios":"levelo://app?vid=7f9e6364-0f57-4a9d-a5c2-0c82f69d6a37"},"vehicle_type_id":"4","last_reported":1778826140,"current_range_meters":5600,"station_id":"st_d6sm7csbq4hs73f8fpjg","pricing_plan_id":"cebpf4jnsgd1na2vs0mg"},{"bike_id":"7c97047b-2262-4fed-8712-0d89900374c4","system_id":"levelo_inurba_marseille","lat":43.24637,"lon":5.38913,"is_reserved":false,"is_disabled":false,"rental_uris":{"android":"levelo://app?vid=7c97047b-2262-4fed-8712-0d89900374c4","ios":"levelo://app?vid=7c97047b-2262-4fed-8712-0d89900374c4"},"vehicle_type_id":"4","last_reported":1778826140,"current_range_meters":5600,"station_id":"ce4bhg12rcd13ifvqf60","pricing_plan_id":"cebpf4jnsgd1na2vs0mg"},{"bike_id":"e060ee54-6256-40ae-9ad5-aaead461bedc","system_id":"levelo_inurba_marseille","lat":43.28857,"lon":5.39325,"is_reserved":false,"is_disabled":false,"rental_uris":{"android":"levelo://app?vid=e060ee54-6256-40ae-9ad5-aaead461bedc","ios":"levelo://app?vid=e060ee54-6256-40ae-9ad5-aaead461bedc"},"vehicle_type_id":"4","last_reported":1778826140,"current_range_meters":5600,"station_id":"ce4bh2p2rcd13ifvqdi0","pricing_plan_id":"cebpf4jnsgd1na2vs0mg"},{"bike_id":"12fc783a-5743-49f1-a8aa-4c1155b53891","system_id":"levelo_inurba_marseille","lat":43.24465,"lon":5.42487,"is_reserved":false,"is_disabled":false,"rental_uris":{"android":"levelo://app?vid=12fc783a-5743-49f1-a8aa-4c1155b53891","ios":"levelo://app?vid=12fc783a-5743-49f1-a8aa-4c1155b53891"},"vehicle_type_id":"4","last_reported":1778826140,"current_range_meters":6000,"station_id":"st_d4a3vfp97mjs738cd8kg","pricing_plan_id":"cebpf4jnsgd1na2vs0mg"},{"bike_id":"c59ef67e-59cb-436e-be93-b110e102b5eb","system_id":"levelo_inurba_marseille","lat":43.28706,"lon":5.46671,"is_reserved":false,"is_disabled":false,"rental_uris":{"android":"levelo://app?vid=c59ef67e-59cb-436e-be93-b110e102b5eb","ios":"levelo://app?vid=c59ef67e-59cb-436e-be93-b110e102b5eb"},"vehicle_type_id":"4","last_reported":1778826140,"current_range_meters":6000,"station_id":"st_d6tc3vkotcvc738tfjhg","pricing_plan_id":"cebpf4jnsgd1na2vs0mg"},{"bike_id":"9fcf9d8d-238f-4a11-b40c-4c58f8f84b59","system_id":"levelo_inurba_marseille","lat":43.2314,"lon":5.43706,"is_reserved":false,"is_disabled":false,"rental_uris":{"android":"levelo://app?vid=9fcf9d8d-238f-4a11-b40c-4c58f8f84b59","ios":"levelo://app?vid=9fcf9d8d-238f-4a11-b40c-4c58f8f84b59"},"vehicle_type_id":"4","last_reported":1778826140,"current_range_meters":6000,"station_id":"ce4bhmp2rcd13ifvqgog","pricing_plan_id":"cebpf4jnsgd1na2vs0mg"},{"bike_id":"8729db00-a1d9-4736-9fca-f79003d2e8fc","system_id":"levelo_inurba_marseille","lat":43.28528,"lon":5.44084,"is_reserved":false,"is_disabled":false,"rental_uris":{"android":"levelo://app?vid=8729db00-a1d9-4736-9fca-f79003d2e8fc","ios":"levelo://app?vid=8729db00-a1d9-4736-9fca-f79003d2e8fc"},"vehicle_type_id":"4","last_reported":1778826140,"current_range_meters":6000,"station_id":"st_d3j3df2ikq2c7380ej80","pricing_plan_id":"cebpf4jnsgd1na2vs0mg"},{"bike_id":"4fb14df7-438c-42fa-8aa0-5f524ef701e9","system_id":"levelo_inurba_marseille","lat":43.25577,"lon":5.41748,"is_reserved":false,"is_disabled":false,"rental_uris":{"android":"levelo://app?vid=4fb14df7-438c-42fa-8aa0-5f524ef701e9","ios":"levelo://app?vid=4fb14df7-438c-42fa-8aa0-5f524ef701e9"},"vehicle_type_id":"4","last_reported":1778826140,"current_range_meters":6000,"station_id":"","pricing_plan_id":"cebpf4jnsgd1na2vs0mg"},{"bike_id":"8c86a52e-0f78-4cb5-9502-6a0f1460eb2f","system_id":"levelo_inurba_marseille","lat":43.30384,"lon":5.42473,"is_reserved":false,"is_disabled":false,"rental_uris":{"android":"levelo://app?vid=8c86a52e-0f78-4cb5-9502-6a0f1460eb2f","ios":"levelo://app?vid=8c86a52e-0f78-4cb5-9502-6a0f1460eb2f"},"vehicle_type_id":"4","last_reported":1778826140,"current_range_meters":6000,"station_id":"ce4bhoh2rcd13ifvqh6g","pricing_plan_id":"cebpf4jnsgd1na2vs0mg"},{"bike_id":"4c08e552-05b3-492e-9965-80ac08a5dda5","system_id":"levelo_inurba_marseille","lat":43.27556,"lon":5.39574,"is_reserved":false,"is_disabled":false,"rental_uris":{"android":"levelo://app?vid=4c08e552-05b3-492e-9965-80ac08a5dda5","ios":"levelo://app?vid=4c08e552-05b3-492e-9965-80ac08a5dda5"},"vehicle_type_id":"4","last_reported":1778826140,"current_range_meters":6000,"station_id":"","pricing_plan_id":"cebpf4jnsgd1na2vs0mg"},{"bike_id":"04d3d691-3e5e-41ed-a448-313897978df0","system_id":"levelo_inurba_marseille","lat":43.31049,"lon":5.3715,"is_reserved":false,"is_disabled":false,"rental_uris":{"android":"levelo://app?vid=04d3d691-3e5e-41ed-a448-313897978df0","ios":"levelo://app?vid=04d3d691-3e5e-41ed-a448-313897978df0"},"vehicle_type_id":"4","last_reported":1778826140,"current_range_meters":6000,"station_id":"st_d4kl2rp97mjs73e7tdfg","pricing_plan_id":"cebpf4jnsgd1na2vs0mg"},{"bike_id":"a2a00526-33a2-4133-9639-1bf79490a021","system_id":"levelo_inurba_marseille","lat":43.33157,"lon":5.40649,"is_reserved":false,"is_disabled":false,"rental_uris":{"android":"levelo://app?vid=a2a00526-33a2-4133-9639-1bf79490a021","ios":"levelo://app?vid=a2a00526-33a2-4133-9639-1bf79490a021"},"vehicle_type_id":"4","last_reported":1778826140,"current_range_meters":6000,"station_id":"","pricing_plan_id":"cebpf4jnsgd1na2vs0mg"},{"bike_id":"4d12a0cf-98f8-4f71-be92-3285ac8be807","system_id":"levelo_inurba_marseille","lat":43.30946,"lon":5.39052,"is_reserved":false,"is_disabled":false,"rental_uris":{"android":"levelo://app?vid=4d12a0cf-98f8-4f71-be92-3285ac8be807","ios":"levelo://app?vid=4d12a0cf-98f8-4f71-be92-3285ac8be807"},"vehicle_type_id":"4","last_reported":1778826140,"current_range_meters":6400,"station_id":"ce4bgup2rcd13ifvqco0","pricing_plan_id":"cebpf4jnsgd1na2vs0mg"},{"bike_id":"cf46be16-acd9-4edf-ba5f-56559105c3df","system_id":"levelo_inurba_marseille","lat":43.2481,"lon":5.37446,"is_reserved":false,"is_disabled":false,"rental_uris":{"android":"levelo://app?vid=cf46be16-acd9-4edf-ba5f-56559105c3df","ios":"levelo://app?vid=cf46be16-acd9-4edf-ba5f-56559105c3df"},"vehicle_type_id":"4","last_reported":1778826140,"current_range_meters":6400,"station_id":"ce4bhgh2rcd13ifvqfb0","pricing_plan_id":"cebpf4jnsgd1na2vs0mg"},{"bike_id":"17874f6c-4d54-44c9-8cdc-701aa7b888c6","system_id":"levelo_inurba_marseille","lat":43.29566,"lon":5.37509,"is_reserved":false,"is_disabled":true,"rental_uris":{"android":"levelo://app?vid=17874f6c-4d54-44c9-8cdc-701aa7b888c6","ios":"levelo://app?vid=17874f6c-4d54-44c9-8cdc-701aa7b888c6"},"vehicle_type_id":"4","last_reported":1778826140,"current_range_meters":6400,"station_id":"ce4bgh92rcd13ifvqb50","pricing_plan_id":"cebpf4jnsgd1na2vs0mg"},{"bike_id":"aad9f584-de40-4638-8e27-42078febf3bb","system_id":"levelo_inurba_marseille","lat":43.31983,"lon":5.38142,"is_reserved":false,"is_disabled":false,"rental_uris":{"android":"levelo://app?vid=aad9f584-de40-4638-8e27-42078febf3bb","ios":"levelo://app?vid=aad9f584-de40-4638-8e27-42078febf3bb"},"vehicle_type_id":"4","last_reported":1778826140,"current_range_meters":6400,"station_id":"ce4bhr12rcd13ifvqhpg","pricing_plan_id":"cebpf4jnsgd1na2vs0mg"},{"bike_id":"e3525911-d31c-4a3b-86f0-d0ea25c711e5","system_id":"levelo_inurba_marseille","lat":43.30165,"lon":5.38047,"is_reserved":false,"is_disabled":false,"rental_uris":{"android":"levelo://app?vid=e3525911-d31c-4a3b-86f0-d0ea25c711e5","ios":"levelo://app?vid=e3525911-d31c-4a3b-86f0-d0ea25c711e5"},"vehicle_type_id":"4","last_reported":1778826140,"current_range_meters":6400,"station_id":"ce4bgjp2rcd13ifvqbh0","pricing_plan_id":"cebpf4jnsgd1na2vs0mg"},{"bike_id":"ea11b4d1-1979-4d60-80e0-6b6d65088d4f","system_id":"levelo_inurba_marseille","lat":43.27208,"lon":5.39169,"is_reserved":false,"is_disabled":true,"rental_uris":{"android":"levelo://app?vid=ea11b4d1-1979-4d60-80e0-6b6d65088d4f","ios":"levelo://app?vid=ea11b4d1-1979-4d60-80e0-6b6d65088d4f"},"vehicle_type_id":"4","last_reported":1778826140,"current_range_meters":6400,"station_id":"ce4bhhp2rcd13ifvqfm0","pricing_plan_id":"cebpf4jnsgd1na2vs0mg"},{"bike_id":"d46792ac-f5ff-4481-98df-fd0ffbee973c","system_id":"levelo_inurba_marseille","lat":43.2902,"lon":5.39959,"is_reserved":false,"is_disabled":true,"rental_uris":{"android":"levelo://app?vid=d46792ac-f5ff-4481-98df-fd0ffbee973c","ios":"levelo://app?vid=d46792ac-f5ff-4481-98df-fd0ffbee973c"},"vehicle_type_id":"4","last_reported":1778826140,"current_range_meters":6400,"station_id":"ce4bh392rcd13ifvqdm0","pricing_plan_id":"cebpf4jnsgd1na2vs0mg"},{"bike_id":"781caba9-8a1d-492f-8f32-6bb508d561ff","system_id":"levelo_inurba_marseille","lat":43.28696,"lon":5.42652,"is_reserved":false,"is_disabled":false,"rental_uris":{"android":"levelo://app?vid=781caba9-8a1d-492f-8f32-6bb508d561ff","ios":"levelo://app?vid=781caba9-8a1d-492f-8f32-6bb508d561ff"},"vehicle_type_id":"4","last_reported":1778826140,"current_range_meters":6400,"station_id":"","pricing_plan_id":"cebpf4jnsgd1na2vs0mg"},{"bike_id":"e53adcd6-4f59-4fbc-a29b-267cfe56f44a","system_id":"levelo_inurba_marseille","lat":43.26515,"lon":5.39554,"is_reserved":false,"is_disabled":false,"rental_uris":{"android":"levelo://app?vid=e53adcd6-4f59-4fbc-a29b-267cfe56f44a","ios":"levelo://app?vid=e53adcd6-4f59-4fbc-a29b-267cfe56f44a"},"vehicle_type_id":"4","last_reported":1778826140,"current_range_meters":6800,"station_id":"ce4bhi12rcd13ifvqfq0","pricing_plan_id":"cebpf4jnsgd1na2vs0mg"},{"bike_id":"39481e13-fb19-40b9-9611-cd35a8bf33b1","system_id":"levelo_inurba_marseille","lat":43.27546,"lon":5.41556,"is_reserved":false,"is_disabled":false,"rental_uris":{"android":"levelo://app?vid=39481e13-fb19-40b9-9611-cd35a8bf33b1","ios":"levelo://app?vid=39481e13-fb19-40b9-9611-cd35a8bf33b1"},"vehicle_type_id":"4","last_reported":1778826140,"current_range_meters":6800,"station_id":"st_d6im8g6chgec73a5pndg","pricing_plan_id":"cebpf4jnsgd1na2vs0mg"},{"bike_id":"b38ec2e7-b225-4624-a9d8-c26ecc599591","system_id":"levelo_inurba_marseille","lat":43.28565,"lon":5.39492,"is_reserved":false,"is_disabled":false,"rental_uris":{"android":"levelo://app?vid=b38ec2e7-b225-4624-a9d8-c26ecc599591","ios":"levelo://app?vid=b38ec2e7-b225-4624-a9d8-c26ecc599591"},"vehicle_type_id":"4","last_reported":1778826140,"current_range_meters":6800,"station_id":"ce4bh292rcd13ifvqdg0","pricing_plan_id":"cebpf4jnsgd1na2vs0mg"},{"bike_id":"f081dad8-e43c-45df-a012-7144fff947d7","system_id":"levelo_inurba_marseille","lat":43.2863,"lon":5.35085,"is_reserved":false,"is_disabled":false,"rental_uris":{"android":"levelo://app?vid=f081dad8-e43c-45df-a012-7144fff947d7","ios":"levelo://app?vid=f081dad8-e43c-45df-a012-7144fff947d7"},"vehicle_type_id":"4","last_reported":1778826140,"current_range_meters":6800,"station_id":"ce4bhch2rcd13ifvqeug","pricing_plan_id":"cebpf4jnsgd1na2vs0mg"},{"bike_id":"d406c3ba-1538-473d-9c0d-2befb66cce77","system_id":"levelo_inurba_marseille","lat":43.30963,"lon":5.39039,"is_reserved":false,"is_disabled":false,"rental_uris":{"android":"levelo://app?vid=d406c3ba-1538-473d-9c0d-2befb66cce77","ios":"levelo://app?vid=d406c3ba-1538-473d-9c0d-2befb66cce77"},"vehicle_type_id":"4","last_reported":1778826140,"current_range_meters":6800,"station_id":"ce4bgup2rcd13ifvqco0","pricing_plan_id":"cebpf4jnsgd1na2vs0mg"},{"bike_id":"c62b18ba-aa48-40db-a1b4-06b99deae7f5","system_id":"levelo_inurba_marseille","lat":43.27974,"lon":5.38717,"is_reserved":false,"is_disabled":false,"rental_uris":{"android":"levelo://app?vid=c62b18ba-aa48-40db-a1b4-06b99deae7f5","ios":"levelo://app?vid=c62b18ba-aa48-40db-a1b4-06b99deae7f5"},"vehicle_type_id":"4","last_reported":1778826140,"current_range_meters":6800,"station_id":"ce4bhg12rcd13ifvqf80","pricing_plan_id":"cebpf4jnsgd1na2vs0mg"},{"bike_id":"6781e20d-9c92-4673-9b14-64fa816bd9f0","system_id":"levelo_inurba_marseille","lat":43.26541,"lon":5.37295,"is_reserved":false,"is_disabled":false,"rental_uris":{"android":"levelo://app?vid=6781e20d-9c92-4673-9b14-64fa816bd9f0","ios":"levelo://app?vid=6781e20d-9c92-4673-9b14-64fa816bd9f0"},"vehicle_type_id":"4","last_reported":1778826140,"current_range_meters":6800,"station_id":"ce4bhg12rcd13ifvqf70","pricing_plan_id":"cebpf4jnsgd1na2vs0mg"},{"bike_id":"51f2aac7-f9be-4b98-a404-4dc10e7dae1c","system_id":"levelo_inurba_marseille","lat":43.2986,"lon":5.36289,"is_reserved":false,"is_disabled":false,"rental_uris":{"android":"levelo://app?vid=51f2aac7-f9be-4b98-a404-4dc10e7dae1c","ios":"levelo://app?vid=51f2aac7-f9be-4b98-a404-4dc10e7dae1c"},"vehicle_type_id":"4","last_reported":1778826140,"current_range_meters":6800,"station_id":"ce4bgpp2rcd13ifvqc3g","pricing_plan_id":"cebpf4jnsgd1na2vs0mg"},{"bike_id":"e2ce1f63-0d73-4c38-b80b-527dbbe87d12","system_id":"levelo_inurba_marseille","lat":43.26207,"lon":5.37444,"is_reserved":false,"is_disabled":false,"rental_uris":{"android":"levelo://app?vid=e2ce1f63-0d73-4c38-b80b-527dbbe87d12","ios":"levelo://app?vid=e2ce1f63-0d73-4c38-b80b-527dbbe87d12"},"vehicle_type_id":"4","last_reported":1778826140,"current_range_meters":6800,"station_id":"ce4bhgp2rcd13ifvqfc0","pricing_plan_id":"cebpf4jnsgd1na2vs0mg"},{"bike_id":"f5f79339-f7bf-4874-a985-2850d221bb5f","system_id":"levelo_inurba_marseille","lat":43.33549,"lon":5.37455,"is_reserved":false,"is_disabled":false,"rental_uris":{"android":"levelo://app?vid=f5f79339-f7bf-4874-a985-2850d221bb5f","ios":"levelo://app?vid=f5f79339-f7bf-4874-a985-2850d221bb5f"},"vehicle_type_id":"4","last_reported":1778826140,"current_range_meters":6800,"station_id":"st_d46tts09ee8s73dlu43g","pricing_plan_id":"cebpf4jnsgd1na2vs0mg"},{"bike_id":"a88bc9ae-d88b-46fc-8169-6fe5eb0d8652","system_id":"levelo_inurba_marseille","lat":43.28481,"lon":5.48391,"is_reserved":false,"is_disabled":false,"rental_uris":{"android":"levelo://app?vid=a88bc9ae-d88b-46fc-8169-6fe5eb0d8652","ios":"levelo://app?vid=a88bc9ae-d88b-46fc-8169-6fe5eb0d8652"},"vehicle_type_id":"4","last_reported":1778826140,"current_range_meters":6800,"station_id":"","pricing_plan_id":"cebpf4jnsgd1na2vs0mg"},{"bike_id":"511c1b75-28d0-408e-8090-dcf02c519f9c","system_id":"levelo_inurba_marseille","lat":43.30545,"lon":5.36534,"is_reserved":false,"is_disabled":false,"rental_uris":{"android":"levelo://app?vid=511c1b75-28d0-408e-8090-dcf02c519f9c","ios":"levelo://app?vid=511c1b75-28d0-408e-8090-dcf02c519f9c"},"vehicle_type_id":"4","last_reported":1778826140,"current_range_meters":6800,"station_id":"ce4bgs12rcd13ifvqcag","pricing_plan_id":"cebpf4jnsgd1na2vs0mg"},{"bike_id":"98b788f6-0955-4fd7-8e5b-9bd841faaf5e","system_id":"levelo_inurba_marseille","lat":43.3354,"lon":5.37473,"is_reserved":false,"is_disabled":false,"rental_uris":{"android":"levelo://app?vid=98b788f6-0955-4fd7-8e5b-9bd841faaf5e","ios":"levelo://app?vid=98b788f6-0955-4fd7-8e5b-9bd841faaf5e"},"vehicle_type_id":"4","last_reported":1778826140,"current_range_meters":6800,"station_id":"st_d46tts09ee8s73dlu43g","pricing_plan_id":"cebpf4jnsgd1na2vs0mg"},{"bike_id":"b942de8b-7ed7-423c-b5f5-c55a01482354","system_id":"levelo_inurba_marseille","lat":43.30315,"lon":5.36906,"is_reserved":false,"is_disabled":false,"rental_uris":{"android":"levelo://app?vid=b942de8b-7ed7-423c-b5f5-c55a01482354","ios":"levelo://app?vid=b942de8b-7ed7-423c-b5f5-c55a01482354"},"vehicle_type_id":"4","last_reported":1778826140,"current_range_meters":6800,"station_id":"ce4bgqh2rcd13ifvqc5g","pricing_plan_id":"cebpf4jnsgd1na2vs0mg"},{"bike_id":"3770903e-9831-4a06-8226-646ab042500a","system_id":"levelo_inurba_marseille","lat":43.28529,"lon":5.44083,"is_reserved":false,"is_disabled":false,"rental_uris":{"android":"levelo://app?vid=3770903e-9831-4a06-8226-646ab042500a","ios":"levelo://app?vid=3770903e-9831-4a06-8226-646ab042500a"},"vehicle_type_id":"4","last_reported":1778826140,"current_range_meters":6800,"station_id":"st_d3j3df2ikq2c7380ej80","pricing_plan_id":"cebpf4jnsgd1na2vs0mg"},{"bike_id":"d7e97781-7864-4d48-a10e-e09d15b1fad1","system_id":"levelo_inurba_marseille","lat":43.29633,"lon":5.38015,"is_reserved":false,"is_disabled":false,"rental_uris":{"android":"levelo://app?vid=d7e97781-7864-4d48-a10e-e09d15b1fad1","ios":"levelo://app?vid=d7e97781-7864-4d48-a10e-e09d15b1fad1"},"vehicle_type_id":"4","last_reported":1778826140,"current_range_meters":6800,"station_id":"","pricing_plan_id":"cebpf4jnsgd1na2vs0mg"},{"bike_id":"f5c43fa3-ab6d-4af1-9674-22af5bbae61c","system_id":"levelo_inurba_marseille","lat":43.30897,"lon":5.39656,"is_reserved":false,"is_disabled":false,"rental_uris":{"android":"levelo://app?vid=f5c43fa3-ab6d-4af1-9674-22af5bbae61c","ios":"levelo://app?vid=f5c43fa3-ab6d-4af1-9674-22af5bbae61c"},"vehicle_type_id":"4","last_reported":1778826140,"current_range_meters":7200,"station_id":"ce4bh012rcd13ifvqcv0","pricing_plan_id":"cebpf4jnsgd1na2vs0mg"},{"bike_id":"69ee6bed-5601-48fd-a542-34b0427c1ca0","system_id":"levelo_inurba_marseille","lat":43.25645,"lon":5.38526,"is_reserved":false,"is_disabled":false,"rental_uris":{"android":"levelo://app?vid=69ee6bed-5601-48fd-a542-34b0427c1ca0","ios":"levelo://app?vid=69ee6bed-5601-48fd-a542-34b0427c1ca0"},"vehicle_type_id":"4","last_reported":1778826140,"current_range_meters":7200,"station_id":"","pricing_plan_id":"cebpf4jnsgd1na2vs0mg"},{"bike_id":"a4882181-b919-4ecc-b9b3-387fb9d8d338","system_id":"levelo_inurba_marseille","lat":43.28482,"lon":5.38424,"is_reserved":false,"is_disabled":false,"rental_uris":{"android":"levelo://app?vid=a4882181-b919-4ecc-b9b3-387fb9d8d338","ios":"levelo://app?vid=a4882181-b919-4ecc-b9b3-387fb9d8d338"},"vehicle_type_id":"4","last_reported":1778826140,"current_range_meters":7200,"station_id":"ce4bh512rcd13ifvqe3g","pricing_plan_id":"cebpf4jnsgd1na2vs0mg"},{"bike_id":"99d016b5-db26-43a2-b902-f07852d3d0a2","system_id":"levelo_inurba_marseille","lat":43.23128,"lon":5.43693,"is_reserved":false,"is_disabled":false,"rental_uris":{"android":"levelo://app?vid=99d016b5-db26-43a2-b902-f07852d3d0a2","ios":"levelo://app?vid=99d016b5-db26-43a2-b902-f07852d3d0a2"},"vehicle_type_id":"4","last_reported":1778826140,"current_range_meters":7200,"station_id":"ce4bhmp2rcd13ifvqgog","pricing_plan_id":"cebpf4jnsgd1na2vs0mg"},{"bike_id":"fa59a2f1-3a57-4d10-8122-2871d8480ac9","system_id":"levelo_inurba_marseille","lat":43.27919,"lon":5.39223,"is_reserved":false,"is_disabled":false,"rental_uris":{"android":"levelo://app?vid=fa59a2f1-3a57-4d10-8122-2871d8480ac9","ios":"levelo://app?vid=fa59a2f1-3a57-4d10-8122-2871d8480ac9"},"vehicle_type_id":"4","last_reported":1778826140,"current_range_meters":7200,"station_id":"","pricing_plan_id":"cebpf4jnsgd1na2vs0mg"},{"bike_id":"daf89c1a-ac46-4a29-a9a8-75dba19355f0","system_id":"levelo_inurba_marseille","lat":43.24388,"lon":5.37058,"is_reserved":false,"is_disabled":false,"rental_uris":{"android":"levelo://app?vid=daf89c1a-ac46-4a29-a9a8-75dba19355f0","ios":"levelo://app?vid=daf89c1a-ac46-4a29-a9a8-75dba19355f0"},"vehicle_type_id":"4","last_reported":1778826140,"current_range_meters":7200,"station_id":"ce4bhhh2rcd13ifvqfk0","pricing_plan_id":"cebpf4jnsgd1na2vs0mg"},{"bike_id":"824ef9b0-4b09-45b5-b34a-37d98013db94","system_id":"levelo_inurba_marseille","lat":43.31713,"lon":5.42396,"is_reserved":false,"is_disabled":false,"rental_uris":{"android":"levelo://app?vid=824ef9b0-4b09-45b5-b34a-37d98013db94","ios":"levelo://app?vid=824ef9b0-4b09-45b5-b34a-37d98013db94"},"vehicle_type_id":"4","last_reported":1778826140,"current_range_meters":7200,"station_id":"ce4bhp92rcd13ifvqhbg","pricing_plan_id":"cebpf4jnsgd1na2vs0mg"},{"bike_id":"f6256870-c4dd-4b62-b17e-01ae8d80757a","system_id":"levelo_inurba_marseille","lat":43.26235,"lon":5.38764,"is_reserved":false,"is_disabled":false,"rental_uris":{"android":"levelo://app?vid=f6256870-c4dd-4b62-b17e-01ae8d80757a","ios":"levelo://app?vid=f6256870-c4dd-4b62-b17e-01ae8d80757a"},"vehicle_type_id":"4","last_reported":1778826140,"current_range_meters":7200,"station_id":"","pricing_plan_id":"cebpf4jnsgd1na2vs0mg"},{"bike_id":"0def443d-9170-403b-9a2c-00de64d6f603","system_id":"levelo_inurba_marseille","lat":43.28506,"lon":5.38602,"is_reserved":false,"is_disabled":false,"rental_uris":{"android":"levelo://app?vid=0def443d-9170-403b-9a2c-00de64d6f603","ios":"levelo://app?vid=0def443d-9170-403b-9a2c-00de64d6f603"},"vehicle_type_id":"4","last_reported":1778826140,"current_range_meters":7200,"station_id":"ce4bh8p2rcd13ifvqeb0","pricing_plan_id":"cebpf4jnsgd1na2vs0mg"},{"bike_id":"a0e1de9b-c8c9-4704-bf82-35f196db8fe0","system_id":"levelo_inurba_marseille","lat":43.28175,"lon":5.42608,"is_reserved":false,"is_disabled":false,"rental_uris":{"android":"levelo://app?vid=a0e1de9b-c8c9-4704-bf82-35f196db8fe0","ios":"levelo://app?vid=a0e1de9b-c8c9-4704-bf82-35f196db8fe0"},"vehicle_type_id":"4","last_reported":1778826140,"current_range_meters":7200,"station_id":"ce4bhnh2rcd13ifvqgug","pricing_plan_id":"cebpf4jnsgd1na2vs0mg"},{"bike_id":"409c3b3b-a922-4e30-9f80-abcbec3d38d4","system_id":"levelo_inurba_marseille","lat":43.2958,"lon":5.38676,"is_reserved":false,"is_disabled":false,"rental_uris":{"android":"levelo://app?vid=409c3b3b-a922-4e30-9f80-abcbec3d38d4","ios":"levelo://app?vid=409c3b3b-a922-4e30-9f80-abcbec3d38d4"},"vehicle_type_id":"4","last_reported":1778826140,"current_range_meters":7200,"station_id":"","pricing_plan_id":"cebpf4jnsgd1na2vs0mg"},{"bike_id":"7f5acffe-f62d-41df-8f26-c6a329dd4663","system_id":"levelo_inurba_marseille","lat":43.30885,"lon":5.39621,"is_reserved":false,"is_disabled":false,"rental_uris":{"android":"levelo://app?vid=7f5acffe-f62d-41df-8f26-c6a329dd4663","ios":"levelo://app?vid=7f5acffe-f62d-41df-8f26-c6a329dd4663"},"vehicle_type_id":"4","last_reported":1778826140,"current_range_meters":7200,"station_id":"ce4bh012rcd13ifvqcv0","pricing_plan_id":"cebpf4jnsgd1na2vs0mg"},{"bike_id":"658da880-75f0-4b3a-9be9-ad436002d4d0","system_id":"levelo_inurba_marseille","lat":43.25333,"lon":5.42164,"is_reserved":false,"is_disabled":false,"rental_uris":{"android":"levelo://app?vid=658da880-75f0-4b3a-9be9-ad436002d4d0","ios":"levelo://app?vid=658da880-75f0-4b3a-9be9-ad436002d4d0"},"vehicle_type_id":"4","last_reported":1778826140,"current_range_meters":7200,"station_id":"st_d2m65c5bi1j21697t3ng","pricing_plan_id":"cebpf4jnsgd1na2vs0mg"},{"bike_id":"4d1adb8b-faa6-4c2e-8fbc-936628286a75","system_id":"levelo_inurba_marseille","lat":43.26378,"lon":5.40296,"is_reserved":false,"is_disabled":false,"rental_uris":{"android":"levelo://app?vid=4d1adb8b-faa6-4c2e-8fbc-936628286a75","ios":"levelo://app?vid=4d1adb8b-faa6-4c2e-8fbc-936628286a75"},"vehicle_type_id":"4","last_reported":1778826140,"current_range_meters":7200,"station_id":"","pricing_plan_id":"cebpf4jnsgd1na2vs0mg"},{"bike_id":"9275dd93-ac1a-4e6e-ba50-f59f37d5eacf","system_id":"levelo_inurba_marseille","lat":43.24468,"lon":5.42532,"is_reserved":false,"is_disabled":false,"rental_uris":{"android":"levelo://app?vid=9275dd93-ac1a-4e6e-ba50-f59f37d5eacf","ios":"levelo://app?vid=9275dd93-ac1a-4e6e-ba50-f59f37d5eacf"},"vehicle_type_id":"4","last_reported":1778826140,"current_range_meters":7200,"station_id":"st_d4a3vfp97mjs738cd8kg","pricing_plan_id":"cebpf4jnsgd1na2vs0mg"},{"bike_id":"fe944d56-9e4b-4bd5-bb68-a04f1c617363","system_id":"levelo_inurba_marseille","lat":43.28616,"lon":5.35102,"is_reserved":false,"is_disabled":false,"rental_uris":{"android":"levelo://app?vid=fe944d56-9e4b-4bd5-bb68-a04f1c617363","ios":"levelo://app?vid=fe944d56-9e4b-4bd5-bb68-a04f1c617363"},"vehicle_type_id":"4","last_reported":1778826140,"current_range_meters":7200,"station_id":"ce4bhch2rcd13ifvqeug","pricing_plan_id":"cebpf4jnsgd1na2vs0mg"},{"bike_id":"7d5e3739-999a-4364-94f6-8925c1422467","system_id":"levelo_inurba_marseille","lat":43.24076,"lon":5.37767,"is_reserved":false,"is_disabled":false,"rental_uris":{"android":"levelo://app?vid=7d5e3739-999a-4364-94f6-8925c1422467","ios":"levelo://app?vid=7d5e3739-999a-4364-94f6-8925c1422467"},"vehicle_type_id":"4","last_reported":1778826140,"current_range_meters":8000,"station_id":"ce4bhnp2rcd13ifvqgvg","pricing_plan_id":"cebpf4jnsgd1na2vs0mg"},{"bike_id":"0ae4343c-ae62-4d36-a82a-1c301793282f","system_id":"levelo_inurba_marseille","lat":43.30378,"lon":5.42468,"is_reserved":false,"is_disabled":false,"rental_uris":{"android":"levelo://app?vid=0ae4343c-ae62-4d36-a82a-1c301793282f","ios":"levelo://app?vid=0ae4343c-ae62-4d36-a82a-1c301793282f"},"vehicle_type_id":"4","last_reported":1778826140,"current_range_meters":8000,"station_id":"ce4bhoh2rcd13ifvqh6g","pricing_plan_id":"cebpf4jnsgd1na2vs0mg"},{"bike_id":"c5fa3b16-6a1d-48ed-90c5-0d892f974715","system_id":"levelo_inurba_marseille","lat":43.29836,"lon":5.36259,"is_reserved":false,"is_disabled":false,"rental_uris":{"android":"levelo://app?vid=c5fa3b16-6a1d-48ed-90c5-0d892f974715","ios":"levelo://app?vid=c5fa3b16-6a1d-48ed-90c5-0d892f974715"},"vehicle_type_id":"4","last_reported":1778826140,"current_range_meters":8000,"station_id":"ce4bgpp2rcd13ifvqc3g","pricing_plan_id":"cebpf4jnsgd1na2vs0mg"},{"bike_id":"5678d171-aa4c-4e18-8510-e7723263d165","system_id":"levelo_inurba_marseille","lat":43.23147,"lon":5.43701,"is_reserved":false,"is_disabled":false,"rental_uris":{"android":"levelo://app?vid=5678d171-aa4c-4e18-8510-e7723263d165","ios":"levelo://app?vid=5678d171-aa4c-4e18-8510-e7723263d165"},"vehicle_type_id":"4","last_reported":1778826140,"current_range_meters":8000,"station_id":"ce4bhmp2rcd13ifvqgog","pricing_plan_id":"cebpf4jnsgd1na2vs0mg"},{"bike_id":"992593cf-8c58-433c-b2f5-8a671b870530","system_id":"levelo_inurba_marseille","lat":43.28904,"lon":5.36204,"is_reserved":false,"is_disabled":false,"rental_uris":{"android":"levelo://app?vid=992593cf-8c58-433c-b2f5-8a671b870530","ios":"levelo://app?vid=992593cf-8c58-433c-b2f5-8a671b870530"},"vehicle_type_id":"4","last_reported":1778826140,"current_range_meters":8000,"station_id":"ce4bhc92rcd13ifvqetg","pricing_plan_id":"cebpf4jnsgd1na2vs0mg"},{"bike_id":"487f5b2a-e05f-4486-a861-37010242d8f5","system_id":"levelo_inurba_marseille","lat":43.28548,"lon":5.44115,"is_reserved":false,"is_disabled":false,"rental_uris":{"android":"levelo://app?vid=487f5b2a-e05f-4486-a861-37010242d8f5","ios":"levelo://app?vid=487f5b2a-e05f-4486-a861-37010242d8f5"},"vehicle_type_id":"4","last_reported":1778826140,"current_range_meters":8000,"station_id":"st_d3j3df2ikq2c7380ej80","pricing_plan_id":"cebpf4jnsgd1na2vs0mg"},{"bike_id":"1902f9f2-9ba8-46c0-bacf-8cac75c83ba5","system_id":"levelo_inurba_marseille","lat":43.31313,"lon":5.36698,"is_reserved":false,"is_disabled":false,"rental_uris":{"android":"levelo://app?vid=1902f9f2-9ba8-46c0-bacf-8cac75c83ba5","ios":"levelo://app?vid=1902f9f2-9ba8-46c0-bacf-8cac75c83ba5"},"vehicle_type_id":"4","last_reported":1778826140,"current_range_meters":8000,"station_id":"ce4bgr92rcd13ifvqc6g","pricing_plan_id":"cebpf4jnsgd1na2vs0mg"},{"bike_id":"0ee7e7d5-d25e-446f-bfb7-9c213be9c8fc","system_id":"levelo_inurba_marseille","lat":43.23962,"lon":5.36625,"is_reserved":false,"is_disabled":false,"rental_uris":{"android":"levelo://app?vid=0ee7e7d5-d25e-446f-bfb7-9c213be9c8fc","ios":"levelo://app?vid=0ee7e7d5-d25e-446f-bfb7-9c213be9c8fc"},"vehicle_type_id":"4","last_reported":1778826140,"current_range_meters":8000,"station_id":"ce4bhi12rcd13ifvqfp0","pricing_plan_id":"cebpf4jnsgd1na2vs0mg"},{"bike_id":"1f29eaa0-00dd-4992-a401-0a85e9ab4c8f","system_id":"levelo_inurba_marseille","lat":43.2623,"lon":5.40444,"is_reserved":false,"is_disabled":false,"rental_uris":{"android":"levelo://app?vid=1f29eaa0-00dd-4992-a401-0a85e9ab4c8f","ios":"levelo://app?vid=1f29eaa0-00dd-4992-a401-0a85e9ab4c8f"},"vehicle_type_id":"4","last_reported":1778826140,"current_range_meters":8000,"station_id":"ce4bhmh2rcd13ifvqgmg","pricing_plan_id":"cebpf4jnsgd1na2vs0mg"},{"bike_id":"3cdb0195-4f96-4947-92dd-52d1afc71788","system_id":"levelo_inurba_marseille","lat":43.22562,"lon":5.41611,"is_reserved":false,"is_disabled":false,"rental_uris":{"android":"levelo://app?vid=3cdb0195-4f96-4947-92dd-52d1afc71788","ios":"levelo://app?vid=3cdb0195-4f96-4947-92dd-52d1afc71788"},"vehicle_type_id":"4","last_reported":1778826140,"current_range_meters":8000,"station_id":"st_d2o4gvlbi1j2169b742g","pricing_plan_id":"cebpf4jnsgd1na2vs0mg"},{"bike_id":"ab5d2c88-2225-4484-b022-e013d40ae356","system_id":"levelo_inurba_marseille","lat":43.27369,"lon":5.36258,"is_reserved":false,"is_disabled":false,"rental_uris":{"android":"levelo://app?vid=ab5d2c88-2225-4484-b022-e013d40ae356","ios":"levelo://app?vid=ab5d2c88-2225-4484-b022-e013d40ae356"},"vehicle_type_id":"4","last_reported":1778826140,"current_range_meters":8000,"station_id":"ce4bhbh2rcd13ifvqeo0","pricing_plan_id":"cebpf4jnsgd1na2vs0mg"},{"bike_id":"7721e457-13f9-4d25-8803-7e0bf53167c3","system_id":"levelo_inurba_marseille","lat":43.29019,"lon":5.35884,"is_reserved":false,"is_disabled":false,"rental_uris":{"android":"levelo://app?vid=7721e457-13f9-4d25-8803-7e0bf53167c3","ios":"levelo://app?vid=7721e457-13f9-4d25-8803-7e0bf53167c3"},"vehicle_type_id":"4","last_reported":1778826140,"current_range_meters":8000,"station_id":"","pricing_plan_id":"cebpf4jnsgd1na2vs0mg"},{"bike_id":"ba805697-6ebd-44a7-8399-cc7389302155","system_id":"levelo_inurba_marseille","lat":43.30543,"lon":5.38421,"is_reserved":false,"is_disabled":false,"rental_uris":{"android":"levelo://app?vid=ba805697-6ebd-44a7-8399-cc7389302155","ios":"levelo://app?vid=ba805697-6ebd-44a7-8399-cc7389302155"},"vehicle_type_id":"4","last_reported":1778826140,"current_range_meters":8000,"station_id":"ce4bgg92rcd13ifvqb30","pricing_plan_id":"cebpf4jnsgd1na2vs0mg"},{"bike_id":"af20cc9b-d3fb-4902-b77a-283d964c8cb8","system_id":"levelo_inurba_marseille","lat":43.28689,"lon":5.46676,"is_reserved":false,"is_disabled":false,"rental_uris":{"android":"levelo://app?vid=af20cc9b-d3fb-4902-b77a-283d964c8cb8","ios":"levelo://app?vid=af20cc9b-d3fb-4902-b77a-283d964c8cb8"},"vehicle_type_id":"4","last_reported":1778826140,"current_range_meters":8000,"station_id":"st_d6tc3vkotcvc738tfjhg","pricing_plan_id":"cebpf4jnsgd1na2vs0mg"},{"bike_id":"e5342490-485a-4302-a5b2-800cb8c2300e","system_id":"levelo_inurba_marseille","lat":43.29956,"lon":5.38671,"is_reserved":false,"is_disabled":false,"rental_uris":{"android":"levelo://app?vid=e5342490-485a-4302-a5b2-800cb8c2300e","ios":"levelo://app?vid=e5342490-485a-4302-a5b2-800cb8c2300e"},"vehicle_type_id":"4","last_reported":1778826140,"current_range_meters":8000,"station_id":"","pricing_plan_id":"cebpf4jnsgd1na2vs0mg"},{"bike_id":"dcb505ac-4cc6-4f11-8d3d-d28754416324","system_id":"levelo_inurba_marseille","lat":43.28414,"lon":5.34965,"is_reserved":false,"is_disabled":false,"rental_uris":{"android":"levelo://app?vid=dcb505ac-4cc6-4f11-8d3d-d28754416324","ios":"levelo://app?vid=dcb505ac-4cc6-4f11-8d3d-d28754416324"},"vehicle_type_id":"4","last_reported":1778826140,"current_range_meters":8000,"station_id":"ce4bhbh2rcd13ifvqepg","pricing_plan_id":"cebpf4jnsgd1na2vs0mg"},{"bike_id":"8501f3f3-9528-4986-b8c4-c8f14c21984e","system_id":"levelo_inurba_marseille","lat":43.30471,"lon":5.37901,"is_reserved":false,"is_disabled":false,"rental_uris":{"android":"levelo://app?vid=8501f3f3-9528-4986-b8c4-c8f14c21984e","ios":"levelo://app?vid=8501f3f3-9528-4986-b8c4-c8f14c21984e"},"vehicle_type_id":"4","last_reported":1778826140,"current_range_meters":8000,"station_id":"ce4bgup2rcd13ifvqcn0","pricing_plan_id":"cebpf4jnsgd1na2vs0mg"},{"bike_id":"2b7b4933-8829-463c-a55e-f6264c1ec7c1","system_id":"levelo_inurba_marseille","lat":43.287,"lon":5.4669,"is_reserved":false,"is_disabled":false,"rental_uris":{"android":"levelo://app?vid=2b7b4933-8829-463c-a55e-f6264c1ec7c1","ios":"levelo://app?vid=2b7b4933-8829-463c-a55e-f6264c1ec7c1"},"vehicle_type_id":"4","last_reported":1778826140,"current_range_meters":8000,"station_id":"st_d6tc3vkotcvc738tfjhg","pricing_plan_id":"cebpf4jnsgd1na2vs0mg"},{"bike_id":"ce145e05-5cad-469c-8e77-c3d22f4f1c58","system_id":"levelo_inurba_marseille","lat":43.30457,"lon":5.37894,"is_reserved":false,"is_disabled":false,"rental_uris":{"android":"levelo://app?vid=ce145e05-5cad-469c-8e77-c3d22f4f1c58","ios":"levelo://app?vid=ce145e05-5cad-469c-8e77-c3d22f4f1c58"},"vehicle_type_id":"4","last_reported":1778826140,"current_range_meters":8400,"station_id":"ce4bgup2rcd13ifvqcn0","pricing_plan_id":"cebpf4jnsgd1na2vs0mg"},{"bike_id":"f829f4b9-58d1-45a6-9014-d64b4b0b3b6f","system_id":"levelo_inurba_marseille","lat":43.29171,"lon":5.37138,"is_reserved":false,"is_disabled":false,"rental_uris":{"android":"levelo://app?vid=f829f4b9-58d1-45a6-9014-d64b4b0b3b6f","ios":"levelo://app?vid=f829f4b9-58d1-45a6-9014-d64b4b0b3b6f"},"vehicle_type_id":"4","last_reported":1778826140,"current_range_meters":8400,"station_id":"ce4bha92rcd13ifvqeh0","pricing_plan_id":"cebpf4jnsgd1na2vs0mg"},{"bike_id":"53d89b78-fbfa-4765-86e4-2d5e25a39c79","system_id":"levelo_inurba_marseille","lat":43.24801,"lon":5.3745,"is_reserved":false,"is_disabled":false,"rental_uris":{"android":"levelo://app?vid=53d89b78-fbfa-4765-86e4-2d5e25a39c79","ios":"levelo://app?vid=53d89b78-fbfa-4765-86e4-2d5e25a39c79"},"vehicle_type_id":"4","last_reported":1778826140,"current_range_meters":8400,"station_id":"ce4bhgh2rcd13ifvqfb0","pricing_plan_id":"cebpf4jnsgd1na2vs0mg"},{"bike_id":"bde9888f-9b59-42e7-a131-a0b960621f11","system_id":"levelo_inurba_marseille","lat":43.23791,"lon":5.36623,"is_reserved":false,"is_disabled":false,"rental_uris":{"android":"levelo://app?vid=bde9888f-9b59-42e7-a131-a0b960621f11","ios":"levelo://app?vid=bde9888f-9b59-42e7-a131-a0b960621f11"},"vehicle_type_id":"4","last_reported":1778826140,"current_range_meters":8400,"station_id":"st_d3nk18o9ro0c73en2l3g","pricing_plan_id":"cebpf4jnsgd1na2vs0mg"},{"bike_id":"496cfd2a-05b4-4779-bc7f-5abb7ba16959","system_id":"levelo_inurba_marseille","lat":43.28234,"lon":5.39061,"is_reserved":false,"is_disabled":false,"rental_uris":{"android":"levelo://app?vid=496cfd2a-05b4-4779-bc7f-5abb7ba16959","ios":"levelo://app?vid=496cfd2a-05b4-4779-bc7f-5abb7ba16959"},"vehicle_type_id":"4","last_reported":1778826140,"current_range_meters":8400,"station_id":"ce4bhn92rcd13ifvqgsg","pricing_plan_id":"cebpf4jnsgd1na2vs0mg"},{"bike_id":"aacdad64-a862-4132-8565-d2120e3fda67","system_id":"levelo_inurba_marseille","lat":43.31273,"lon":5.40169,"is_reserved":false,"is_disabled":false,"rental_uris":{"android":"levelo://app?vid=aacdad64-a862-4132-8565-d2120e3fda67","ios":"levelo://app?vid=aacdad64-a862-4132-8565-d2120e3fda67"},"vehicle_type_id":"4","last_reported":1778826140,"current_range_meters":8400,"station_id":"ce4bh092rcd13ifvqd30","pricing_plan_id":"cebpf4jnsgd1na2vs0mg"},{"bike_id":"59628517-3f7d-44b2-b364-feacaea8bcf4","system_id":"levelo_inurba_marseille","lat":43.2841,"lon":5.34954,"is_reserved":false,"is_disabled":false,"rental_uris":{"android":"levelo://app?vid=59628517-3f7d-44b2-b364-feacaea8bcf4","ios":"levelo://app?vid=59628517-3f7d-44b2-b364-feacaea8bcf4"},"vehicle_type_id":"4","last_reported":1778826140,"current_range_meters":8400,"station_id":"ce4bhbh2rcd13ifvqepg","pricing_plan_id":"cebpf4jnsgd1na2vs0mg"},{"bike_id":"ce53c828-abe6-4bce-9c28-c4fd91b5e9ce","system_id":"levelo_inurba_marseille","lat":43.28863,"lon":5.3931,"is_reserved":false,"is_disabled":false,"rental_uris":{"android":"levelo://app?vid=ce53c828-abe6-4bce-9c28-c4fd91b5e9ce","ios":"levelo://app?vid=ce53c828-abe6-4bce-9c28-c4fd91b5e9ce"},"vehicle_type_id":"4","last_reported":1778826140,"current_range_meters":8400,"station_id":"ce4bh2p2rcd13ifvqdi0","pricing_plan_id":"cebpf4jnsgd1na2vs0mg"},{"bike_id":"542d668d-94a3-43d7-8122-dc170ac76fcb","system_id":"levelo_inurba_marseille","lat":43.24462,"lon":5.42524,"is_reserved":false,"is_disabled":false,"rental_uris":{"android":"levelo://app?vid=542d668d-94a3-43d7-8122-dc170ac76fcb","ios":"levelo://app?vid=542d668d-94a3-43d7-8122-dc170ac76fcb"},"vehicle_type_id":"4","last_reported":1778826140,"current_range_meters":8400,"station_id":"st_d4a3vfp97mjs738cd8kg","pricing_plan_id":"cebpf4jnsgd1na2vs0mg"},{"bike_id":"7e0abb9d-45cd-4f2e-9dc0-1d0641b37ff5","system_id":"levelo_inurba_marseille","lat":43.29256,"lon":5.37627,"is_reserved":false,"is_disabled":true,"rental_uris":{"android":"levelo://app?vid=7e0abb9d-45cd-4f2e-9dc0-1d0641b37ff5","ios":"levelo://app?vid=7e0abb9d-45cd-4f2e-9dc0-1d0641b37ff5"},"vehicle_type_id":"4","last_reported":1778826140,"current_range_meters":8400,"station_id":"ce4bgi12rcd13ifvqb80","pricing_plan_id":"cebpf4jnsgd1na2vs0mg"},{"bike_id":"6b379858-4a6b-45a0-96f4-19512c9626ea","system_id":"levelo_inurba_marseille","lat":43.23183,"lon":5.39987,"is_reserved":false,"is_disabled":false,"rental_uris":{"android":"levelo://app?vid=6b379858-4a6b-45a0-96f4-19512c9626ea","ios":"levelo://app?vid=6b379858-4a6b-45a0-96f4-19512c9626ea"},"vehicle_type_id":"4","last_reported":1778826140,"current_range_meters":8400,"station_id":"ce4bhn12rcd13ifvqgqg","pricing_plan_id":"cebpf4jnsgd1na2vs0mg"},{"bike_id":"38779e31-4a24-4b4f-b86f-2d3fc08c246c","system_id":"levelo_inurba_marseille","lat":43.22546,"lon":5.34897,"is_reserved":false,"is_disabled":false,"rental_uris":{"android":"levelo://app?vid=38779e31-4a24-4b4f-b86f-2d3fc08c246c","ios":"levelo://app?vid=38779e31-4a24-4b4f-b86f-2d3fc08c246c"},"vehicle_type_id":"4","last_reported":1778826140,"current_range_meters":8400,"station_id":"st_cvj5dfep6f1abm77gieg","pricing_plan_id":"cebpf4jnsgd1na2vs0mg"},{"bike_id":"245034ef-13bc-42be-8840-165da39a6c37","system_id":"levelo_inurba_marseille","lat":43.31725,"lon":5.37769,"is_reserved":false,"is_disabled":false,"rental_uris":{"android":"levelo://app?vid=245034ef-13bc-42be-8840-165da39a6c37","ios":"levelo://app?vid=245034ef-13bc-42be-8840-165da39a6c37"},"vehicle_type_id":"4","last_reported":1778826140,"current_range_meters":8400,"station_id":"ce4bgth2rcd13ifvqch0","pricing_plan_id":"cebpf4jnsgd1na2vs0mg"},{"bike_id":"bcd2fd83-2a55-4840-9b63-0f1b2e1a5c77","system_id":"levelo_inurba_marseille","lat":43.31798,"lon":5.37763,"is_reserved":false,"is_disabled":false,"rental_uris":{"android":"levelo://app?vid=bcd2fd83-2a55-4840-9b63-0f1b2e1a5c77","ios":"levelo://app?vid=bcd2fd83-2a55-4840-9b63-0f1b2e1a5c77"},"vehicle_type_id":"4","last_reported":1778826140,"current_range_meters":8400,"station_id":"","pricing_plan_id":"cebpf4jnsgd1na2vs0mg"},{"bike_id":"b92da105-00ff-46b1-bd98-22771d6da483","system_id":"levelo_inurba_marseille","lat":43.24332,"lon":5.3842,"is_reserved":false,"is_disabled":false,"rental_uris":{"android":"levelo://app?vid=b92da105-00ff-46b1-bd98-22771d6da483","ios":"levelo://app?vid=b92da105-00ff-46b1-bd98-22771d6da483"},"vehicle_type_id":"4","last_reported":1778826140,"current_range_meters":8400,"station_id":"","pricing_plan_id":"cebpf4jnsgd1na2vs0mg"},{"bike_id":"2dad678a-eba2-49e6-88bf-98c3fc40e9cc","system_id":"levelo_inurba_marseille","lat":43.24074,"lon":5.37747,"is_reserved":false,"is_disabled":false,"rental_uris":{"android":"levelo://app?vid=2dad678a-eba2-49e6-88bf-98c3fc40e9cc","ios":"levelo://app?vid=2dad678a-eba2-49e6-88bf-98c3fc40e9cc"},"vehicle_type_id":"4","last_reported":1778826140,"current_range_meters":8400,"station_id":"ce4bhnp2rcd13ifvqgvg","pricing_plan_id":"cebpf4jnsgd1na2vs0mg"},{"bike_id":"bcc7cd70-09d4-41be-81e8-50abbfd58e27","system_id":"levelo_inurba_marseille","lat":43.2556,"lon":5.38232,"is_reserved":false,"is_disabled":false,"rental_uris":{"android":"levelo://app?vid=bcc7cd70-09d4-41be-81e8-50abbfd58e27","ios":"levelo://app?vid=bcc7cd70-09d4-41be-81e8-50abbfd58e27"},"vehicle_type_id":"4","last_reported":1778826140,"current_range_meters":8800,"station_id":"ce4bhih2rcd13ifvqfs0","pricing_plan_id":"cebpf4jnsgd1na2vs0mg"},{"bike_id":"57994975-12a1-47b9-b7a4-294051fd1507","system_id":"levelo_inurba_marseille","lat":43.24955,"lon":5.40502,"is_reserved":false,"is_disabled":false,"rental_uris":{"android":"levelo://app?vid=57994975-12a1-47b9-b7a4-294051fd1507","ios":"levelo://app?vid=57994975-12a1-47b9-b7a4-294051fd1507"},"vehicle_type_id":"4","last_reported":1778826140,"current_range_meters":8800,"station_id":"st_d2ngiaodas8pm72gd1h0","pricing_plan_id":"cebpf4jnsgd1na2vs0mg"},{"bike_id":"5b0ee32a-a2ec-43aa-bbc3-282ccee7cdc0","system_id":"levelo_inurba_marseille","lat":43.337444,"lon":5.374475,"is_reserved":false,"is_disabled":true,"rental_uris":{"android":"levelo://app?vid=5b0ee32a-a2ec-43aa-bbc3-282ccee7cdc0","ios":"levelo://app?vid=5b0ee32a-a2ec-43aa-bbc3-282ccee7cdc0"},"vehicle_type_id":"4","last_reported":1778826140,"current_range_meters":8800,"station_id":"","pricing_plan_id":"cebpf4jnsgd1na2vs0mg"},{"bike_id":"9b2021d8-c5d8-448d-a392-8636bb8f2d73","system_id":"levelo_inurba_marseille","lat":43.25478,"lon":5.37659,"is_reserved":false,"is_disabled":false,"rental_uris":{"android":"levelo://app?vid=9b2021d8-c5d8-448d-a392-8636bb8f2d73","ios":"levelo://app?vid=9b2021d8-c5d8-448d-a392-8636bb8f2d73"},"vehicle_type_id":"4","last_reported":1778826140,"current_range_meters":8800,"station_id":"ce4bhh12rcd13ifvqff0","pricing_plan_id":"cebpf4jnsgd1na2vs0mg"},{"bike_id":"22980628-59ef-4b7b-b71e-30fcc9b49b40","system_id":"levelo_inurba_marseille","lat":43.2637,"lon":5.4108,"is_reserved":false,"is_disabled":false,"rental_uris":{"android":"levelo://app?vid=22980628-59ef-4b7b-b71e-30fcc9b49b40","ios":"levelo://app?vid=22980628-59ef-4b7b-b71e-30fcc9b49b40"},"vehicle_type_id":"4","last_reported":1778826140,"current_range_meters":8800,"station_id":"st_d4e5ca6na9uc73bfl5fg","pricing_plan_id":"cebpf4jnsgd1na2vs0mg"},{"bike_id":"41245f3e-8502-4c14-9b14-d511a01ed938","system_id":"levelo_inurba_marseille","lat":43.28605,"lon":5.37035,"is_reserved":false,"is_disabled":false,"rental_uris":{"android":"levelo://app?vid=41245f3e-8502-4c14-9b14-d511a01ed938","ios":"levelo://app?vid=41245f3e-8502-4c14-9b14-d511a01ed938"},"vehicle_type_id":"4","last_reported":1778826140,"current_range_meters":8800,"station_id":"ce4bht12rcd13ifvqi60","pricing_plan_id":"cebpf4jnsgd1na2vs0mg"},{"bike_id":"acba5bf7-a092-48f8-9cf0-0e483e38ab5a","system_id":"levelo_inurba_marseille","lat":43.29629,"lon":5.40594,"is_reserved":false,"is_disabled":false,"rental_uris":{"android":"levelo://app?vid=acba5bf7-a092-48f8-9cf0-0e483e38ab5a","ios":"levelo://app?vid=acba5bf7-a092-48f8-9cf0-0e483e38ab5a"},"vehicle_type_id":"4","last_reported":1778826140,"current_range_meters":8800,"station_id":"ce4bh0h2rcd13ifvqd60","pricing_plan_id":"cebpf4jnsgd1na2vs0mg"},{"bike_id":"fb70838e-1cdf-4cbb-a8a2-4473cf1efe4e","system_id":"levelo_inurba_marseille","lat":43.30142,"lon":5.38081,"is_reserved":false,"is_disabled":false,"rental_uris":{"android":"levelo://app?vid=fb70838e-1cdf-4cbb-a8a2-4473cf1efe4e","ios":"levelo://app?vid=fb70838e-1cdf-4cbb-a8a2-4473cf1efe4e"},"vehicle_type_id":"4","last_reported":1778826140,"current_range_meters":8800,"station_id":"ce4bgjp2rcd13ifvqbh0","pricing_plan_id":"cebpf4jnsgd1na2vs0mg"},{"bike_id":"e0b16637-3ef6-48f5-a000-6d4a4719dd04","system_id":"levelo_inurba_marseille","lat":43.26196,"lon":5.37446,"is_reserved":false,"is_disabled":false,"rental_uris":{"android":"levelo://app?vid=e0b16637-3ef6-48f5-a000-6d4a4719dd04","ios":"levelo://app?vid=e0b16637-3ef6-48f5-a000-6d4a4719dd04"},"vehicle_type_id":"4","last_reported":1778826140,"current_range_meters":8800,"station_id":"ce4bhgp2rcd13ifvqfc0","pricing_plan_id":"cebpf4jnsgd1na2vs0mg"},{"bike_id":"51664d14-16b2-48cc-bb95-c2f0a523d053","system_id":"levelo_inurba_marseille","lat":43.29989,"lon":5.43063,"is_reserved":false,"is_disabled":false,"rental_uris":{"android":"levelo://app?vid=51664d14-16b2-48cc-bb95-c2f0a523d053","ios":"levelo://app?vid=51664d14-16b2-48cc-bb95-c2f0a523d053"},"vehicle_type_id":"4","last_reported":1778826140,"current_range_meters":8800,"station_id":"","pricing_plan_id":"cebpf4jnsgd1na2vs0mg"},{"bike_id":"5fb2702e-ddb4-4bfc-9173-e5d371dcb492","system_id":"levelo_inurba_marseille","lat":43.28614,"lon":5.35097,"is_reserved":false,"is_disabled":false,"rental_uris":{"android":"levelo://app?vid=5fb2702e-ddb4-4bfc-9173-e5d371dcb492","ios":"levelo://app?vid=5fb2702e-ddb4-4bfc-9173-e5d371dcb492"},"vehicle_type_id":"4","last_reported":1778826140,"current_range_meters":8800,"station_id":"ce4bhch2rcd13ifvqeug","pricing_plan_id":"cebpf4jnsgd1na2vs0mg"},{"bike_id":"5086b699-3dcc-4806-b878-78b08fee24d3","system_id":"levelo_inurba_marseille","lat":43.31055,"lon":5.37174,"is_reserved":false,"is_disabled":false,"rental_uris":{"android":"levelo://app?vid=5086b699-3dcc-4806-b878-78b08fee24d3","ios":"levelo://app?vid=5086b699-3dcc-4806-b878-78b08fee24d3"},"vehicle_type_id":"4","last_reported":1778826140,"current_range_meters":8800,"station_id":"st_d4kl2rp97mjs73e7tdfg","pricing_plan_id":"cebpf4jnsgd1na2vs0mg"},{"bike_id":"cf7b705c-7a37-4054-aa6c-b54b5684440f","system_id":"levelo_inurba_marseille","lat":43.2312,"lon":5.43701,"is_reserved":false,"is_disabled":false,"rental_uris":{"android":"levelo://app?vid=cf7b705c-7a37-4054-aa6c-b54b5684440f","ios":"levelo://app?vid=cf7b705c-7a37-4054-aa6c-b54b5684440f"},"vehicle_type_id":"4","last_reported":1778826140,"current_range_meters":8800,"station_id":"ce4bhmp2rcd13ifvqgog","pricing_plan_id":"cebpf4jnsgd1na2vs0mg"},{"bike_id":"63d65d42-3911-40ae-ad92-0b8fba9c9805","system_id":"levelo_inurba_marseille","lat":43.2407,"lon":5.37753,"is_reserved":false,"is_disabled":false,"rental_uris":{"android":"levelo://app?vid=63d65d42-3911-40ae-ad92-0b8fba9c9805","ios":"levelo://app?vid=63d65d42-3911-40ae-ad92-0b8fba9c9805"},"vehicle_type_id":"4","last_reported":1778826140,"current_range_meters":8800,"station_id":"ce4bhnp2rcd13ifvqgvg","pricing_plan_id":"cebpf4jnsgd1na2vs0mg"},{"bike_id":"43fd08e9-8801-41b6-946e-6e125f9fb580","system_id":"levelo_inurba_marseille","lat":43.28432,"lon":5.34985,"is_reserved":false,"is_disabled":false,"rental_uris":{"android":"levelo://app?vid=43fd08e9-8801-41b6-946e-6e125f9fb580","ios":"levelo://app?vid=43fd08e9-8801-41b6-946e-6e125f9fb580"},"vehicle_type_id":"4","last_reported":1778826140,"current_range_meters":8800,"station_id":"ce4bhbh2rcd13ifvqepg","pricing_plan_id":"cebpf4jnsgd1na2vs0mg"},{"bike_id":"8e5a079e-98c5-4804-bc13-f15e181290ce","system_id":"levelo_inurba_marseille","lat":43.31727,"lon":5.4239,"is_reserved":false,"is_disabled":false,"rental_uris":{"android":"levelo://app?vid=8e5a079e-98c5-4804-bc13-f15e181290ce","ios":"levelo://app?vid=8e5a079e-98c5-4804-bc13-f15e181290ce"},"vehicle_type_id":"4","last_reported":1778826140,"current_range_meters":8800,"station_id":"ce4bhp92rcd13ifvqhbg","pricing_plan_id":"cebpf4jnsgd1na2vs0mg"},{"bike_id":"284a8a2a-c898-44a8-9e1d-da982d486772","system_id":"levelo_inurba_marseille","lat":43.29872,"lon":5.3889,"is_reserved":false,"is_disabled":false,"rental_uris":{"android":"levelo://app?vid=284a8a2a-c898-44a8-9e1d-da982d486772","ios":"levelo://app?vid=284a8a2a-c898-44a8-9e1d-da982d486772"},"vehicle_type_id":"4","last_reported":1778826140,"current_range_meters":8800,"station_id":"ce4bh392rcd13ifvqdl0","pricing_plan_id":"cebpf4jnsgd1na2vs0mg"},{"bike_id":"2be2dfbb-5fc9-4d40-99ae-8f0a1bd0747d","system_id":"levelo_inurba_marseille","lat":43.22565,"lon":5.41622,"is_reserved":false,"is_disabled":false,"rental_uris":{"android":"levelo://app?vid=2be2dfbb-5fc9-4d40-99ae-8f0a1bd0747d","ios":"levelo://app?vid=2be2dfbb-5fc9-4d40-99ae-8f0a1bd0747d"},"vehicle_type_id":"4","last_reported":1778826140,"current_range_meters":8800,"station_id":"st_d2o4gvlbi1j2169b742g","pricing_plan_id":"cebpf4jnsgd1na2vs0mg"},{"bike_id":"14f10cf8-3c1f-4ae3-ac40-bc26c23ae538","system_id":"levelo_inurba_marseille","lat":43.24696,"lon":5.39224,"is_reserved":false,"is_disabled":false,"rental_uris":{"android":"levelo://app?vid=14f10cf8-3c1f-4ae3-ac40-bc26c23ae538","ios":"levelo://app?vid=14f10cf8-3c1f-4ae3-ac40-bc26c23ae538"},"vehicle_type_id":"4","last_reported":1778826140,"current_range_meters":8800,"station_id":"","pricing_plan_id":"cebpf4jnsgd1na2vs0mg"},{"bike_id":"c0cfd3d3-466f-48d3-8921-1e72b828172f","system_id":"levelo_inurba_marseille","lat":43.2446,"lon":5.42519,"is_reserved":false,"is_disabled":false,"rental_uris":{"android":"levelo://app?vid=c0cfd3d3-466f-48d3-8921-1e72b828172f","ios":"levelo://app?vid=c0cfd3d3-466f-48d3-8921-1e72b828172f"},"vehicle_type_id":"4","last_reported":1778826140,"current_range_meters":8800,"station_id":"st_d4a3vfp97mjs738cd8kg","pricing_plan_id":"cebpf4jnsgd1na2vs0mg"},{"bike_id":"071b32cd-efb7-4b19-8868-73a0bba63276","system_id":"levelo_inurba_marseille","lat":43.248,"lon":5.37455,"is_reserved":false,"is_disabled":false,"rental_uris":{"android":"levelo://app?vid=071b32cd-efb7-4b19-8868-73a0bba63276","ios":"levelo://app?vid=071b32cd-efb7-4b19-8868-73a0bba63276"},"vehicle_type_id":"4","last_reported":1778826140,"current_range_meters":9200,"station_id":"ce4bhgh2rcd13ifvqfb0","pricing_plan_id":"cebpf4jnsgd1na2vs0mg"},{"bike_id":"12bb4237-40aa-4e27-926c-152dfdbc0159","system_id":"levelo_inurba_marseille","lat":43.28499,"lon":5.38582,"is_reserved":false,"is_disabled":false,"rental_uris":{"android":"levelo://app?vid=12bb4237-40aa-4e27-926c-152dfdbc0159","ios":"levelo://app?vid=12bb4237-40aa-4e27-926c-152dfdbc0159"},"vehicle_type_id":"4","last_reported":1778826140,"current_range_meters":9200,"station_id":"ce4bh8p2rcd13ifvqeb0","pricing_plan_id":"cebpf4jnsgd1na2vs0mg"},{"bike_id":"e32f6868-cbab-4ffd-9892-2e29eeead741","system_id":"levelo_inurba_marseille","lat":43.30884,"lon":5.39658,"is_reserved":false,"is_disabled":false,"rental_uris":{"android":"levelo://app?vid=e32f6868-cbab-4ffd-9892-2e29eeead741","ios":"levelo://app?vid=e32f6868-cbab-4ffd-9892-2e29eeead741"},"vehicle_type_id":"4","last_reported":1778826140,"current_range_meters":9200,"station_id":"ce4bh012rcd13ifvqcv0","pricing_plan_id":"cebpf4jnsgd1na2vs0mg"},{"bike_id":"da0bc3e7-9a10-4749-820e-9f1b7b6d4687","system_id":"levelo_inurba_marseille","lat":43.29867,"lon":5.38903,"is_reserved":false,"is_disabled":false,"rental_uris":{"android":"levelo://app?vid=da0bc3e7-9a10-4749-820e-9f1b7b6d4687","ios":"levelo://app?vid=da0bc3e7-9a10-4749-820e-9f1b7b6d4687"},"vehicle_type_id":"4","last_reported":1778826140,"current_range_meters":9200,"station_id":"ce4bh392rcd13ifvqdl0","pricing_plan_id":"cebpf4jnsgd1na2vs0mg"},{"bike_id":"27704a09-2a84-4e44-8cae-7a34ca42d9c1","system_id":"levelo_inurba_marseille","lat":43.26657,"lon":5.37242,"is_reserved":false,"is_disabled":false,"rental_uris":{"android":"levelo://app?vid=27704a09-2a84-4e44-8cae-7a34ca42d9c1","ios":"levelo://app?vid=27704a09-2a84-4e44-8cae-7a34ca42d9c1"},"vehicle_type_id":"4","last_reported":1778826140,"current_range_meters":9200,"station_id":"","pricing_plan_id":"cebpf4jnsgd1na2vs0mg"},{"bike_id":"2ad17d08-f228-43c1-ac27-af9161d7c098","system_id":"levelo_inurba_marseille","lat":43.28176,"lon":5.42625,"is_reserved":false,"is_disabled":false,"rental_uris":{"android":"levelo://app?vid=2ad17d08-f228-43c1-ac27-af9161d7c098","ios":"levelo://app?vid=2ad17d08-f228-43c1-ac27-af9161d7c098"},"vehicle_type_id":"4","last_reported":1778826140,"current_range_meters":9200,"station_id":"ce4bhnh2rcd13ifvqgug","pricing_plan_id":"cebpf4jnsgd1na2vs0mg"},{"bike_id":"4f9bc47f-c8d2-46b0-b717-0bc183208676","system_id":"levelo_inurba_marseille","lat":43.30171,"lon":5.36581,"is_reserved":false,"is_disabled":false,"rental_uris":{"android":"levelo://app?vid=4f9bc47f-c8d2-46b0-b717-0bc183208676","ios":"levelo://app?vid=4f9bc47f-c8d2-46b0-b717-0bc183208676"},"vehicle_type_id":"4","last_reported":1778826140,"current_range_meters":9200,"station_id":"ce4bgrh2rcd13ifvqc8g","pricing_plan_id":"cebpf4jnsgd1na2vs0mg"},{"bike_id":"6d5fa48d-f372-4e49-91b4-cafec1cf1617","system_id":"levelo_inurba_marseille","lat":43.25347,"lon":5.42183,"is_reserved":false,"is_disabled":false,"rental_uris":{"android":"levelo://app?vid=6d5fa48d-f372-4e49-91b4-cafec1cf1617","ios":"levelo://app?vid=6d5fa48d-f372-4e49-91b4-cafec1cf1617"},"vehicle_type_id":"4","last_reported":1778826140,"current_range_meters":9200,"station_id":"st_d2m65c5bi1j21697t3ng","pricing_plan_id":"cebpf4jnsgd1na2vs0mg"},{"bike_id":"85700384-7ed5-481f-8383-977a4a484f3a","system_id":"levelo_inurba_marseille","lat":43.2641,"lon":5.38754,"is_reserved":false,"is_disabled":false,"rental_uris":{"android":"levelo://app?vid=85700384-7ed5-481f-8383-977a4a484f3a","ios":"levelo://app?vid=85700384-7ed5-481f-8383-977a4a484f3a"},"vehicle_type_id":"4","last_reported":1778826140,"current_range_meters":9200,"station_id":"","pricing_plan_id":"cebpf4jnsgd1na2vs0mg"},{"bike_id":"7a5f1542-f3fc-4f86-8018-781a948f1b90","system_id":"levelo_inurba_marseille","lat":43.2592,"lon":5.39897,"is_reserved":false,"is_disabled":false,"rental_uris":{"android":"levelo://app?vid=7a5f1542-f3fc-4f86-8018-781a948f1b90","ios":"levelo://app?vid=7a5f1542-f3fc-4f86-8018-781a948f1b90"},"vehicle_type_id":"4","last_reported":1778826140,"current_range_meters":9200,"station_id":"","pricing_plan_id":"cebpf4jnsgd1na2vs0mg"},{"bike_id":"cefbeb11-85b7-46b3-85c6-aca7465c0a67","system_id":"levelo_inurba_marseille","lat":43.28204,"lon":5.39036,"is_reserved":false,"is_disabled":false,"rental_uris":{"android":"levelo://app?vid=cefbeb11-85b7-46b3-85c6-aca7465c0a67","ios":"levelo://app?vid=cefbeb11-85b7-46b3-85c6-aca7465c0a67"},"vehicle_type_id":"4","last_reported":1778826140,"current_range_meters":9200,"station_id":"ce4bhn92rcd13ifvqgsg","pricing_plan_id":"cebpf4jnsgd1na2vs0mg"},{"bike_id":"64a8d44a-7dc0-438b-a689-a19958a2c8f7","system_id":"levelo_inurba_marseille","lat":43.33032,"lon":5.39046,"is_reserved":false,"is_disabled":false,"rental_uris":{"android":"levelo://app?vid=64a8d44a-7dc0-438b-a689-a19958a2c8f7","ios":"levelo://app?vid=64a8d44a-7dc0-438b-a689-a19958a2c8f7"},"vehicle_type_id":"4","last_reported":1778826140,"current_range_meters":9200,"station_id":"ce4bhr92rcd13ifvqhrg","pricing_plan_id":"cebpf4jnsgd1na2vs0mg"},{"bike_id":"9328bcd0-7dba-429b-800d-2edec12305de","system_id":"levelo_inurba_marseille","lat":43.24468,"lon":5.4253,"is_reserved":false,"is_disabled":false,"rental_uris":{"android":"levelo://app?vid=9328bcd0-7dba-429b-800d-2edec12305de","ios":"levelo://app?vid=9328bcd0-7dba-429b-800d-2edec12305de"},"vehicle_type_id":"4","last_reported":1778826140,"current_range_meters":9200,"station_id":"st_d4a3vfp97mjs738cd8kg","pricing_plan_id":"cebpf4jnsgd1na2vs0mg"},{"bike_id":"d74d3f33-a8dc-4d72-b28b-2cf586e298d3","system_id":"levelo_inurba_marseille","lat":43.28536,"lon":5.44094,"is_reserved":false,"is_disabled":false,"rental_uris":{"android":"levelo://app?vid=d74d3f33-a8dc-4d72-b28b-2cf586e298d3","ios":"levelo://app?vid=d74d3f33-a8dc-4d72-b28b-2cf586e298d3"},"vehicle_type_id":"4","last_reported":1778826140,"current_range_meters":9200,"station_id":"st_d3j3df2ikq2c7380ej80","pricing_plan_id":"cebpf4jnsgd1na2vs0mg"},{"bike_id":"23b590b0-a987-4af4-8c92-1da489628f7a","system_id":"levelo_inurba_marseille","lat":43.31718,"lon":5.42391,"is_reserved":false,"is_disabled":false,"rental_uris":{"android":"levelo://app?vid=23b590b0-a987-4af4-8c92-1da489628f7a","ios":"levelo://app?vid=23b590b0-a987-4af4-8c92-1da489628f7a"},"vehicle_type_id":"4","last_reported":1778826140,"current_range_meters":9200,"station_id":"ce4bhp92rcd13ifvqhbg","pricing_plan_id":"cebpf4jnsgd1na2vs0mg"},{"bike_id":"962bb70c-387d-43a1-9677-28171a29c7a0","system_id":"levelo_inurba_marseille","lat":43.29559,"lon":5.39962,"is_reserved":false,"is_disabled":false,"rental_uris":{"android":"levelo://app?vid=962bb70c-387d-43a1-9677-28171a29c7a0","ios":"levelo://app?vid=962bb70c-387d-43a1-9677-28171a29c7a0"},"vehicle_type_id":"4","last_reported":1778826140,"current_range_meters":9600,"station_id":"ce4bh312rcd13ifvqdj0","pricing_plan_id":"cebpf4jnsgd1na2vs0mg"},{"bike_id":"95905f44-0304-4488-bbde-0604c4131f99","system_id":"levelo_inurba_marseille","lat":43.22578,"lon":5.41629,"is_reserved":false,"is_disabled":false,"rental_uris":{"android":"levelo://app?vid=95905f44-0304-4488-bbde-0604c4131f99","ios":"levelo://app?vid=95905f44-0304-4488-bbde-0604c4131f99"},"vehicle_type_id":"4","last_reported":1778826140,"current_range_meters":9600,"station_id":"st_d2o4gvlbi1j2169b742g","pricing_plan_id":"cebpf4jnsgd1na2vs0mg"},{"bike_id":"4020dd0c-01ce-4494-844b-244bfc2850f4","system_id":"levelo_inurba_marseille","lat":43.30525,"lon":5.37257,"is_reserved":false,"is_disabled":false,"rental_uris":{"android":"levelo://app?vid=4020dd0c-01ce-4494-844b-244bfc2850f4","ios":"levelo://app?vid=4020dd0c-01ce-4494-844b-244bfc2850f4"},"vehicle_type_id":"4","last_reported":1778826140,"current_range_meters":9600,"station_id":"","pricing_plan_id":"cebpf4jnsgd1na2vs0mg"},{"bike_id":"f7dfc745-d667-4d44-b7e7-a953b16da362","system_id":"levelo_inurba_marseille","lat":43.24173,"lon":5.36387,"is_reserved":false,"is_disabled":false,"rental_uris":{"android":"levelo://app?vid=f7dfc745-d667-4d44-b7e7-a953b16da362","ios":"levelo://app?vid=f7dfc745-d667-4d44-b7e7-a953b16da362"},"vehicle_type_id":"4","last_reported":1778826140,"current_range_meters":9600,"station_id":"cpo36qri1sfpv3e86is0","pricing_plan_id":"cebpf4jnsgd1na2vs0mg"},{"bike_id":"24f270e3-6a33-4c20-91d1-50cadf27be12","system_id":"levelo_inurba_marseille","lat":43.2655,"lon":5.37298,"is_reserved":false,"is_disabled":false,"rental_uris":{"android":"levelo://app?vid=24f270e3-6a33-4c20-91d1-50cadf27be12","ios":"levelo://app?vid=24f270e3-6a33-4c20-91d1-50cadf27be12"},"vehicle_type_id":"4","last_reported":1778826140,"current_range_meters":9600,"station_id":"ce4bhg12rcd13ifvqf70","pricing_plan_id":"cebpf4jnsgd1na2vs0mg"},{"bike_id":"10f2f802-02c7-42e0-b4dd-c5ffbbe54695","system_id":"levelo_inurba_marseille","lat":43.26045,"lon":5.39381,"is_reserved":false,"is_disabled":false,"rental_uris":{"android":"levelo://app?vid=10f2f802-02c7-42e0-b4dd-c5ffbbe54695","ios":"levelo://app?vid=10f2f802-02c7-42e0-b4dd-c5ffbbe54695"},"vehicle_type_id":"4","last_reported":1778826140,"current_range_meters":9600,"station_id":"ce4bhh92rcd13ifvqfj0","pricing_plan_id":"cebpf4jnsgd1na2vs0mg"},{"bike_id":"bfd11179-4fd5-4554-adf0-a80a1fbdd46b","system_id":"levelo_inurba_marseille","lat":43.23891,"lon":5.37442,"is_reserved":false,"is_disabled":true,"rental_uris":{"android":"levelo://app?vid=bfd11179-4fd5-4554-adf0-a80a1fbdd46b","ios":"levelo://app?vid=bfd11179-4fd5-4554-adf0-a80a1fbdd46b"},"vehicle_type_id":"4","last_reported":1778826140,"current_range_meters":9600,"station_id":"st_d6sm7csbq4hs73f8fpjg","pricing_plan_id":"cebpf4jnsgd1na2vs0mg"},{"bike_id":"22821d03-9a9a-4a93-855b-675be2e2cc53","system_id":"levelo_inurba_marseille","lat":43.26036,"lon":5.37499,"is_reserved":false,"is_disabled":false,"rental_uris":{"android":"levelo://app?vid=22821d03-9a9a-4a93-855b-675be2e2cc53","ios":"levelo://app?vid=22821d03-9a9a-4a93-855b-675be2e2cc53"},"vehicle_type_id":"4","last_reported":1778826140,"current_range_meters":9600,"station_id":"ce4bhgh2rcd13ifvqfa0","pricing_plan_id":"cebpf4jnsgd1na2vs0mg"},{"bike_id":"3f31eb34-2034-48e0-acfb-781783e4399a","system_id":"levelo_inurba_marseille","lat":43.30546,"lon":5.36531,"is_reserved":false,"is_disabled":false,"rental_uris":{"android":"levelo://app?vid=3f31eb34-2034-48e0-acfb-781783e4399a","ios":"levelo://app?vid=3f31eb34-2034-48e0-acfb-781783e4399a"},"vehicle_type_id":"4","last_reported":1778826140,"current_range_meters":9600,"station_id":"ce4bgs12rcd13ifvqcag","pricing_plan_id":"cebpf4jnsgd1na2vs0mg"},{"bike_id":"52972f2e-95ed-4903-86b8-869d695f1926","system_id":"levelo_inurba_marseille","lat":43.32109,"lon":5.36776,"is_reserved":false,"is_disabled":false,"rental_uris":{"android":"levelo://app?vid=52972f2e-95ed-4903-86b8-869d695f1926","ios":"levelo://app?vid=52972f2e-95ed-4903-86b8-869d695f1926"},"vehicle_type_id":"4","last_reported":1778826140,"current_range_meters":9600,"station_id":"ce4bhrh2rcd13ifvqhug","pricing_plan_id":"cebpf4jnsgd1na2vs0mg"},{"bike_id":"3cf8b857-ccf8-4970-8bde-d220a00ffb3b","system_id":"levelo_inurba_marseille","lat":43.27916,"lon":5.3958,"is_reserved":false,"is_disabled":false,"rental_uris":{"android":"levelo://app?vid=3cf8b857-ccf8-4970-8bde-d220a00ffb3b","ios":"levelo://app?vid=3cf8b857-ccf8-4970-8bde-d220a00ffb3b"},"vehicle_type_id":"4","last_reported":1778826140,"current_range_meters":9600,"station_id":"ce4bhf92rcd13ifvqf40","pricing_plan_id":"cebpf4jnsgd1na2vs0mg"},{"bike_id":"d73b29aa-4c6e-4a2d-96e7-6cb7201818f5","system_id":"levelo_inurba_marseille","lat":43.3354,"lon":5.37466,"is_reserved":false,"is_disabled":false,"rental_uris":{"android":"levelo://app?vid=d73b29aa-4c6e-4a2d-96e7-6cb7201818f5","ios":"levelo://app?vid=d73b29aa-4c6e-4a2d-96e7-6cb7201818f5"},"vehicle_type_id":"4","last_reported":1778826140,"current_range_meters":9600,"station_id":"st_d46tts09ee8s73dlu43g","pricing_plan_id":"cebpf4jnsgd1na2vs0mg"},{"bike_id":"04459aba-1735-4bef-8acc-fa4c0327a66e","system_id":"levelo_inurba_marseille","lat":43.31745,"lon":5.39008,"is_reserved":false,"is_disabled":false,"rental_uris":{"android":"levelo://app?vid=04459aba-1735-4bef-8acc-fa4c0327a66e","ios":"levelo://app?vid=04459aba-1735-4bef-8acc-fa4c0327a66e"},"vehicle_type_id":"4","last_reported":1778826140,"current_range_meters":9600,"station_id":"ce4bhqp2rcd13ifvqhng","pricing_plan_id":"cebpf4jnsgd1na2vs0mg"},{"bike_id":"fe0ac0da-2ff6-45c6-a6ca-c142552ce3a0","system_id":"levelo_inurba_marseille","lat":43.26575,"lon":5.39003,"is_reserved":false,"is_disabled":false,"rental_uris":{"android":"levelo://app?vid=fe0ac0da-2ff6-45c6-a6ca-c142552ce3a0","ios":"levelo://app?vid=fe0ac0da-2ff6-45c6-a6ca-c142552ce3a0"},"vehicle_type_id":"4","last_reported":1778826140,"current_range_meters":9600,"station_id":"ce4bhe12rcd13ifvqf30","pricing_plan_id":"cebpf4jnsgd1na2vs0mg"},{"bike_id":"14dd5302-4f2d-4d64-a78b-c9fc3ca12ebd","system_id":"levelo_inurba_marseille","lat":43.24391,"lon":5.3705,"is_reserved":false,"is_disabled":false,"rental_uris":{"android":"levelo://app?vid=14dd5302-4f2d-4d64-a78b-c9fc3ca12ebd","ios":"levelo://app?vid=14dd5302-4f2d-4d64-a78b-c9fc3ca12ebd"},"vehicle_type_id":"4","last_reported":1778826140,"current_range_meters":9600,"station_id":"ce4bhhh2rcd13ifvqfk0","pricing_plan_id":"cebpf4jnsgd1na2vs0mg"},{"bike_id":"e159c4b9-6700-4fa7-bb02-c7e0de94a1a8","system_id":"levelo_inurba_marseille","lat":43.2256,"lon":5.41619,"is_reserved":false,"is_disabled":false,"rental_uris":{"android":"levelo://app?vid=e159c4b9-6700-4fa7-bb02-c7e0de94a1a8","ios":"levelo://app?vid=e159c4b9-6700-4fa7-bb02-c7e0de94a1a8"},"vehicle_type_id":"4","last_reported":1778826140,"current_range_meters":9600,"station_id":"st_d2o4gvlbi1j2169b742g","pricing_plan_id":"cebpf4jnsgd1na2vs0mg"},{"bike_id":"8f2ffae8-9918-467c-9501-6ac8a4d598f0","system_id":"levelo_inurba_marseille","lat":43.24602,"lon":5.40261,"is_reserved":false,"is_disabled":false,"rental_uris":{"android":"levelo://app?vid=8f2ffae8-9918-467c-9501-6ac8a4d598f0","ios":"levelo://app?vid=8f2ffae8-9918-467c-9501-6ac8a4d598f0"},"vehicle_type_id":"4","last_reported":1778826140,"current_range_meters":9600,"station_id":"","pricing_plan_id":"cebpf4jnsgd1na2vs0mg"},{"bike_id":"ea00ca07-7443-4180-9c35-5c1c2dd062cc","system_id":"levelo_inurba_marseille","lat":43.31918,"lon":5.3681,"is_reserved":false,"is_disabled":false,"rental_uris":{"android":"levelo://app?vid=ea00ca07-7443-4180-9c35-5c1c2dd062cc","ios":"levelo://app?vid=ea00ca07-7443-4180-9c35-5c1c2dd062cc"},"vehicle_type_id":"4","last_reported":1778826140,"current_range_meters":9600,"station_id":"st_d6o2h0d0559c73evc1b0","pricing_plan_id":"cebpf4jnsgd1na2vs0mg"},{"bike_id":"42779844-0336-4bec-91a7-ebe8a8a3b3bf","system_id":"levelo_inurba_marseille","lat":43.29968,"lon":5.36729,"is_reserved":false,"is_disabled":false,"rental_uris":{"android":"levelo://app?vid=42779844-0336-4bec-91a7-ebe8a8a3b3bf","ios":"levelo://app?vid=42779844-0336-4bec-91a7-ebe8a8a3b3bf"},"vehicle_type_id":"4","last_reported":1778826140,"current_range_meters":9600,"station_id":"","pricing_plan_id":"cebpf4jnsgd1na2vs0mg"},{"bike_id":"e4e24f4a-73a4-4198-84e8-bfce7ee7c808","system_id":"levelo_inurba_marseille","lat":43.29446,"lon":5.39749,"is_reserved":false,"is_disabled":false,"rental_uris":{"android":"levelo://app?vid=e4e24f4a-73a4-4198-84e8-bfce7ee7c808","ios":"levelo://app?vid=e4e24f4a-73a4-4198-84e8-bfce7ee7c808"},"vehicle_type_id":"4","last_reported":1778826140,"current_range_meters":9600,"station_id":"ce4bh3h2rcd13ifvqdo0","pricing_plan_id":"cebpf4jnsgd1na2vs0mg"},{"bike_id":"5ae22d3d-4254-4f03-8775-0533e3c8d48a","system_id":"levelo_inurba_marseille","lat":43.24198,"lon":5.3972,"is_reserved":false,"is_disabled":true,"rental_uris":{"android":"levelo://app?vid=5ae22d3d-4254-4f03-8775-0533e3c8d48a","ios":"levelo://app?vid=5ae22d3d-4254-4f03-8775-0533e3c8d48a"},"vehicle_type_id":"4","last_reported":1778826140,"current_range_meters":9600,"station_id":"ce4bhn12rcd13ifvqgpg","pricing_plan_id":"cebpf4jnsgd1na2vs0mg"},{"bike_id":"e7a0aaf7-0db1-4b6d-948e-d3cea63d5b54","system_id":"levelo_inurba_marseille","lat":43.29485,"lon":5.43293,"is_reserved":false,"is_disabled":false,"rental_uris":{"android":"levelo://app?vid=e7a0aaf7-0db1-4b6d-948e-d3cea63d5b54","ios":"levelo://app?vid=e7a0aaf7-0db1-4b6d-948e-d3cea63d5b54"},"vehicle_type_id":"4","last_reported":1778826140,"current_range_meters":9600,"station_id":"st_d3j5ugp08ojc73fj9d10","pricing_plan_id":"cebpf4jnsgd1na2vs0mg"},{"bike_id":"74d7b4e4-6a5e-436e-8a35-b6f635725567","system_id":"levelo_inurba_marseille","lat":43.29847,"lon":5.42121,"is_reserved":false,"is_disabled":false,"rental_uris":{"android":"levelo://app?vid=74d7b4e4-6a5e-436e-8a35-b6f635725567","ios":"levelo://app?vid=74d7b4e4-6a5e-436e-8a35-b6f635725567"},"vehicle_type_id":"4","last_reported":1778826140,"current_range_meters":10000,"station_id":"","pricing_plan_id":"cebpf4jnsgd1na2vs0mg"},{"bike_id":"1a4c8699-3148-4d60-ba4f-9fdcda129de4","system_id":"levelo_inurba_marseille","lat":43.30891,"lon":5.39625,"is_reserved":false,"is_disabled":false,"rental_uris":{"android":"levelo://app?vid=1a4c8699-3148-4d60-ba4f-9fdcda129de4","ios":"levelo://app?vid=1a4c8699-3148-4d60-ba4f-9fdcda129de4"},"vehicle_type_id":"4","last_reported":1778826140,"current_range_meters":10000,"station_id":"ce4bh012rcd13ifvqcv0","pricing_plan_id":"cebpf4jnsgd1na2vs0mg"},{"bike_id":"7d6b4b13-1a6d-47de-8148-dad4743d54f7","system_id":"levelo_inurba_marseille","lat":43.23969,"lon":5.36611,"is_reserved":false,"is_disabled":false,"rental_uris":{"android":"levelo://app?vid=7d6b4b13-1a6d-47de-8148-dad4743d54f7","ios":"levelo://app?vid=7d6b4b13-1a6d-47de-8148-dad4743d54f7"},"vehicle_type_id":"4","last_reported":1778826140,"current_range_meters":10000,"station_id":"ce4bhi12rcd13ifvqfp0","pricing_plan_id":"cebpf4jnsgd1na2vs0mg"},{"bike_id":"8ec7a638-b556-4c93-954a-a11e8ba8109a","system_id":"levelo_inurba_marseille","lat":43.24834,"lon":5.37448,"is_reserved":false,"is_disabled":false,"rental_uris":{"android":"levelo://app?vid=8ec7a638-b556-4c93-954a-a11e8ba8109a","ios":"levelo://app?vid=8ec7a638-b556-4c93-954a-a11e8ba8109a"},"vehicle_type_id":"4","last_reported":1778826140,"current_range_meters":10000,"station_id":"ce4bhgh2rcd13ifvqfb0","pricing_plan_id":"cebpf4jnsgd1na2vs0mg"},{"bike_id":"837960df-354b-4ad2-8964-0a2364ee8213","system_id":"levelo_inurba_marseille","lat":43.3113,"lon":5.37755,"is_reserved":false,"is_disabled":true,"rental_uris":{"android":"levelo://app?vid=837960df-354b-4ad2-8964-0a2364ee8213","ios":"levelo://app?vid=837960df-354b-4ad2-8964-0a2364ee8213"},"vehicle_type_id":"4","last_reported":1778826140,"current_range_meters":10000,"station_id":"ce4bgt92rcd13ifvqcg0","pricing_plan_id":"cebpf4jnsgd1na2vs0mg"},{"bike_id":"3ab36f64-e4e8-410f-ae94-39e3960a7b16","system_id":"levelo_inurba_marseille","lat":43.27565,"lon":5.38433,"is_reserved":false,"is_disabled":false,"rental_uris":{"android":"levelo://app?vid=3ab36f64-e4e8-410f-ae94-39e3960a7b16","ios":"levelo://app?vid=3ab36f64-e4e8-410f-ae94-39e3960a7b16"},"vehicle_type_id":"4","last_reported":1778826140,"current_range_meters":10000,"station_id":"ce4bhh92rcd13ifvqfi0","pricing_plan_id":"cebpf4jnsgd1na2vs0mg"},{"bike_id":"d773df71-430d-420d-b0c5-ebb43f708dc9","system_id":"levelo_inurba_marseille","lat":43.32497,"lon":5.38293,"is_reserved":false,"is_disabled":true,"rental_uris":{"android":"levelo://app?vid=d773df71-430d-420d-b0c5-ebb43f708dc9","ios":"levelo://app?vid=d773df71-430d-420d-b0c5-ebb43f708dc9"},"vehicle_type_id":"4","last_reported":1778826140,"current_range_meters":10000,"station_id":"st_d4asgbiv49dc73anf9m0","pricing_plan_id":"cebpf4jnsgd1na2vs0mg"},{"bike_id":"e1a86b9d-3f1e-40bb-b3c7-f9db62ca3664","system_id":"levelo_inurba_marseille","lat":43.28716,"lon":5.46705,"is_reserved":false,"is_disabled":false,"rental_uris":{"android":"levelo://app?vid=e1a86b9d-3f1e-40bb-b3c7-f9db62ca3664","ios":"levelo://app?vid=e1a86b9d-3f1e-40bb-b3c7-f9db62ca3664"},"vehicle_type_id":"4","last_reported":1778826140,"current_range_meters":10000,"station_id":"st_d6tc3vkotcvc738tfjhg","pricing_plan_id":"cebpf4jnsgd1na2vs0mg"},{"bike_id":"ad0c2d80-dc3f-4b68-a850-c13a1207fc48","system_id":"levelo_inurba_marseille","lat":43.30789,"lon":5.39339,"is_reserved":false,"is_disabled":false,"rental_uris":{"android":"levelo://app?vid=ad0c2d80-dc3f-4b68-a850-c13a1207fc48","ios":"levelo://app?vid=ad0c2d80-dc3f-4b68-a850-c13a1207fc48"},"vehicle_type_id":"4","last_reported":1778826140,"current_range_meters":10000,"station_id":"","pricing_plan_id":"cebpf4jnsgd1na2vs0mg"},{"bike_id":"fdb1420c-8cba-495e-8621-8fdd81cc0df7","system_id":"levelo_inurba_marseille","lat":43.27982,"lon":5.4166,"is_reserved":false,"is_disabled":false,"rental_uris":{"android":"levelo://app?vid=fdb1420c-8cba-495e-8621-8fdd81cc0df7","ios":"levelo://app?vid=fdb1420c-8cba-495e-8621-8fdd81cc0df7"},"vehicle_type_id":"4","last_reported":1778826140,"current_range_meters":10000,"station_id":"ce4bho12rcd13ifvqh1g","pricing_plan_id":"cebpf4jnsgd1na2vs0mg"},