{"last_updated":1767620006,"ttl":60,"version":"2.2","data":{"bikes":[{"bike_id":"4e839bab-c0a4-4f9b-8de3-cb292b501eb1","system_id":"levelo_inurba_marseille","lat":43.225293,"lon":5.348363,"is_reserved":false,"is_disabled":false,"rental_uris":{"android":"levelo://app?vid=4e839bab-c0a4-4f9b-8de3-cb292b501eb1","ios":"levelo://app?vid=4e839bab-c0a4-4f9b-8de3-cb292b501eb1"},"vehicle_type_id":"4","last_reported":1767620007,"current_range_meters":2800,"station_id":"","pricing_plan_id":"cebpf4jnsgd1na2vs0mg"},{"bike_id":"1ac3cf13-370c-4462-87ab-eff556ef3d9f","system_id":"levelo_inurba_marseille","lat":43.29924,"lon":5.38136,"is_reserved":false,"is_disabled":false,"rental_uris":{"android":"levelo://app?vid=1ac3cf13-370c-4462-87ab-eff556ef3d9f","ios":"levelo://app?vid=1ac3cf13-370c-4462-87ab-eff556ef3d9f"},"vehicle_type_id":"4","last_reported":1767620007,"current_range_meters":2800,"station_id":"ce4bgj12rcd13ifvqbc0","pricing_plan_id":"cebpf4jnsgd1na2vs0mg"},{"bike_id":"195e2e14-0016-420f-a925-0b6877e427aa","system_id":"levelo_inurba_marseille","lat":43.22931,"lon":5.35379,"is_reserved":false,"is_disabled":false,"rental_uris":{"android":"levelo://app?vid=195e2e14-0016-420f-a925-0b6877e427aa","ios":"levelo://app?vid=195e2e14-0016-420f-a925-0b6877e427aa"},"vehicle_type_id":"4","last_reported":1767620007,"current_range_meters":2800,"station_id":"cpo3532slgdg3j2ikp40","pricing_plan_id":"cebpf4jnsgd1na2vs0mg"},{"bike_id":"1d00a4cb-00d9-4b5d-9884-747e6dfb334b","system_id":"levelo_inurba_marseille","lat":43.24667,"lon":5.381684,"is_reserved":false,"is_disabled":false,"rental_uris":{"android":"levelo://app?vid=1d00a4cb-00d9-4b5d-9884-747e6dfb334b","ios":"levelo://app?vid=1d00a4cb-00d9-4b5d-9884-747e6dfb334b"},"vehicle_type_id":"4","last_reported":1767620007,"current_range_meters":3200,"station_id":"ce4bhih2rcd13ifvqfr0","pricing_plan_id":"cebpf4jnsgd1na2vs0mg"},{"bike_id":"c9b4b63d-ca8e-4acc-b676-a1bcf6c7d6a9","system_id":"levelo_inurba_marseille","lat":43.2738,"lon":5.36254,"is_reserved":false,"is_disabled":false,"rental_uris":{"android":"levelo://app?vid=c9b4b63d-ca8e-4acc-b676-a1bcf6c7d6a9","ios":"levelo://app?vid=c9b4b63d-ca8e-4acc-b676-a1bcf6c7d6a9"},"vehicle_type_id":"4","last_reported":1767620007,"current_range_meters":3200,"station_id":"ce4bhbh2rcd13ifvqeo0","pricing_plan_id":"cebpf4jnsgd1na2vs0mg"},{"bike_id":"1344b698-8650-40c6-84ae-c77983c95c2f","system_id":"levelo_inurba_marseille","lat":43.28906,"lon":5.362,"is_reserved":false,"is_disabled":false,"rental_uris":{"android":"levelo://app?vid=1344b698-8650-40c6-84ae-c77983c95c2f","ios":"levelo://app?vid=1344b698-8650-40c6-84ae-c77983c95c2f"},"vehicle_type_id":"4","last_reported":1767620007,"current_range_meters":3200,"station_id":"","pricing_plan_id":"cebpf4jnsgd1na2vs0mg"},{"bike_id":"7a467056-b5c5-4725-a9d9-bea3151a7eb9","system_id":"levelo_inurba_marseille","lat":43.29486,"lon":5.43303,"is_reserved":false,"is_disabled":false,"rental_uris":{"android":"levelo://app?vid=7a467056-b5c5-4725-a9d9-bea3151a7eb9","ios":"levelo://app?vid=7a467056-b5c5-4725-a9d9-bea3151a7eb9"},"vehicle_type_id":"4","last_reported":1767620007,"current_range_meters":3200,"station_id":"st_d3j5ugp08ojc73fj9d10","pricing_plan_id":"cebpf4jnsgd1na2vs0mg"},{"bike_id":"dfdca8ae-7890-4f8d-864a-114bbb8dc8c5","system_id":"levelo_inurba_marseille","lat":43.25926,"lon":5.40899,"is_reserved":false,"is_disabled":false,"rental_uris":{"android":"levelo://app?vid=dfdca8ae-7890-4f8d-864a-114bbb8dc8c5","ios":"levelo://app?vid=dfdca8ae-7890-4f8d-864a-114bbb8dc8c5"},"vehicle_type_id":"4","last_reported":1767620007,"current_range_meters":3200,"station_id":"ce4bhm92rcd13ifvqglg","pricing_plan_id":"cebpf4jnsgd1na2vs0mg"},{"bike_id":"61a32044-ec7c-40db-9154-2d87545896f4","system_id":"levelo_inurba_marseille","lat":43.28464,"lon":5.38418,"is_reserved":false,"is_disabled":false,"rental_uris":{"android":"levelo://app?vid=61a32044-ec7c-40db-9154-2d87545896f4","ios":"levelo://app?vid=61a32044-ec7c-40db-9154-2d87545896f4"},"vehicle_type_id":"4","last_reported":1767620007,"current_range_meters":3200,"station_id":"ce4bh512rcd13ifvqe3g","pricing_plan_id":"cebpf4jnsgd1na2vs0mg"},{"bike_id":"9d21dcb0-ce26-48db-a303-317550439f40","system_id":"levelo_inurba_marseille","lat":43.284807,"lon":5.483922,"is_reserved":false,"is_disabled":false,"rental_uris":{"android":"levelo://app?vid=9d21dcb0-ce26-48db-a303-317550439f40","ios":"levelo://app?vid=9d21dcb0-ce26-48db-a303-317550439f40"},"vehicle_type_id":"4","last_reported":1767620007,"current_range_meters":3200,"station_id":"st_d3svhcjqgbts73a3dn0g","pricing_plan_id":"cebpf4jnsgd1na2vs0mg"},{"bike_id":"17e06372-e52b-4bdd-90cd-8338755c84dc","system_id":"levelo_inurba_marseille","lat":43.23152,"lon":5.437,"is_reserved":false,"is_disabled":false,"rental_uris":{"android":"levelo://app?vid=17e06372-e52b-4bdd-90cd-8338755c84dc","ios":"levelo://app?vid=17e06372-e52b-4bdd-90cd-8338755c84dc"},"vehicle_type_id":"4","last_reported":1767620007,"current_range_meters":3200,"station_id":"ce4bhmp2rcd13ifvqgog","pricing_plan_id":"cebpf4jnsgd1na2vs0mg"},{"bike_id":"1ddba20c-c151-4163-a24c-8401feb00dde","system_id":"levelo_inurba_marseille","lat":43.2593,"lon":5.40892,"is_reserved":false,"is_disabled":false,"rental_uris":{"android":"levelo://app?vid=1ddba20c-c151-4163-a24c-8401feb00dde","ios":"levelo://app?vid=1ddba20c-c151-4163-a24c-8401feb00dde"},"vehicle_type_id":"4","last_reported":1767620007,"current_range_meters":3200,"station_id":"ce4bhm92rcd13ifvqglg","pricing_plan_id":"cebpf4jnsgd1na2vs0mg"},{"bike_id":"b344609f-1228-4e42-b709-ec574572914f","system_id":"levelo_inurba_marseille","lat":43.29268,"lon":5.37612,"is_reserved":false,"is_disabled":false,"rental_uris":{"android":"levelo://app?vid=b344609f-1228-4e42-b709-ec574572914f","ios":"levelo://app?vid=b344609f-1228-4e42-b709-ec574572914f"},"vehicle_type_id":"4","last_reported":1767620007,"current_range_meters":3200,"station_id":"ce4bgi12rcd13ifvqb80","pricing_plan_id":"cebpf4jnsgd1na2vs0mg"},{"bike_id":"5762af30-cb8c-4272-a56a-66a9247e457c","system_id":"levelo_inurba_marseille","lat":43.229298,"lon":5.353818,"is_reserved":false,"is_disabled":false,"rental_uris":{"android":"levelo://app?vid=5762af30-cb8c-4272-a56a-66a9247e457c","ios":"levelo://app?vid=5762af30-cb8c-4272-a56a-66a9247e457c"},"vehicle_type_id":"4","last_reported":1767620007,"current_range_meters":3200,"station_id":"cpo3532slgdg3j2ikp40","pricing_plan_id":"cebpf4jnsgd1na2vs0mg"},{"bike_id":"bcc1c049-3d6e-4ce3-bc2c-d542e80286cd","system_id":"levelo_inurba_marseille","lat":43.30554,"lon":5.36562,"is_reserved":false,"is_disabled":false,"rental_uris":{"android":"levelo://app?vid=bcc1c049-3d6e-4ce3-bc2c-d542e80286cd","ios":"levelo://app?vid=bcc1c049-3d6e-4ce3-bc2c-d542e80286cd"},"vehicle_type_id":"4","last_reported":1767620007,"current_range_meters":3200,"station_id":"ce4bgs12rcd13ifvqcag","pricing_plan_id":"cebpf4jnsgd1na2vs0mg"},{"bike_id":"30b8b232-0149-43fe-aeaf-d6f987f833ea","system_id":"levelo_inurba_marseille","lat":43.26207,"lon":5.3744,"is_reserved":false,"is_disabled":false,"rental_uris":{"android":"levelo://app?vid=30b8b232-0149-43fe-aeaf-d6f987f833ea","ios":"levelo://app?vid=30b8b232-0149-43fe-aeaf-d6f987f833ea"},"vehicle_type_id":"4","last_reported":1767620007,"current_range_meters":3600,"station_id":"ce4bhgp2rcd13ifvqfc0","pricing_plan_id":"cebpf4jnsgd1na2vs0mg"},{"bike_id":"9259eeeb-f66b-4159-9371-adf9fc874cda","system_id":"levelo_inurba_marseille","lat":43.29018,"lon":5.38133,"is_reserved":false,"is_disabled":false,"rental_uris":{"android":"levelo://app?vid=9259eeeb-f66b-4159-9371-adf9fc874cda","ios":"levelo://app?vid=9259eeeb-f66b-4159-9371-adf9fc874cda"},"vehicle_type_id":"4","last_reported":1767620007,"current_range_meters":3600,"station_id":"ce4bh4p2rcd13ifvqe1g","pricing_plan_id":"cebpf4jnsgd1na2vs0mg"},{"bike_id":"f60bffde-5f20-47e9-ae8d-4801bd72c420","system_id":"levelo_inurba_marseille","lat":43.308887,"lon":5.371955,"is_reserved":false,"is_disabled":false,"rental_uris":{"android":"levelo://app?vid=f60bffde-5f20-47e9-ae8d-4801bd72c420","ios":"levelo://app?vid=f60bffde-5f20-47e9-ae8d-4801bd72c420"},"vehicle_type_id":"4","last_reported":1767620007,"current_range_meters":3600,"station_id":"ce4bguh2rcd13ifvqckg","pricing_plan_id":"cebpf4jnsgd1na2vs0mg"},{"bike_id":"9e063e05-944d-4b80-a7ed-650a9f33a109","system_id":"levelo_inurba_marseille","lat":43.28851,"lon":5.35855,"is_reserved":false,"is_disabled":false,"rental_uris":{"android":"levelo://app?vid=9e063e05-944d-4b80-a7ed-650a9f33a109","ios":"levelo://app?vid=9e063e05-944d-4b80-a7ed-650a9f33a109"},"vehicle_type_id":"4","last_reported":1767620007,"current_range_meters":3600,"station_id":"ce4bhb12rcd13ifvqem0","pricing_plan_id":"cebpf4jnsgd1na2vs0mg"},{"bike_id":"f0c1deb2-eba3-4d8c-868f-c557271f2f4f","system_id":"levelo_inurba_marseille","lat":43.286176,"lon":5.351052,"is_reserved":false,"is_disabled":false,"rental_uris":{"android":"levelo://app?vid=f0c1deb2-eba3-4d8c-868f-c557271f2f4f","ios":"levelo://app?vid=f0c1deb2-eba3-4d8c-868f-c557271f2f4f"},"vehicle_type_id":"4","last_reported":1767620007,"current_range_meters":3600,"station_id":"ce4bhch2rcd13ifvqeug","pricing_plan_id":"cebpf4jnsgd1na2vs0mg"},{"bike_id":"9266c9ee-84f2-41f3-ba5f-42f44b708c8b","system_id":"levelo_inurba_marseille","lat":43.24628,"lon":5.43157,"is_reserved":false,"is_disabled":false,"rental_uris":{"android":"levelo://app?vid=9266c9ee-84f2-41f3-ba5f-42f44b708c8b","ios":"levelo://app?vid=9266c9ee-84f2-41f3-ba5f-42f44b708c8b"},"vehicle_type_id":"4","last_reported":1767620007,"current_range_meters":3600,"station_id":"st_d2m6c4gdas8pm72e190g","pricing_plan_id":"cebpf4jnsgd1na2vs0mg"},{"bike_id":"e9f3270a-d88a-4cb3-a37f-6048c91f446c","system_id":"levelo_inurba_marseille","lat":43.26215,"lon":5.37449,"is_reserved":false,"is_disabled":false,"rental_uris":{"android":"levelo://app?vid=e9f3270a-d88a-4cb3-a37f-6048c91f446c","ios":"levelo://app?vid=e9f3270a-d88a-4cb3-a37f-6048c91f446c"},"vehicle_type_id":"4","last_reported":1767620007,"current_range_meters":4000,"station_id":"ce4bhgp2rcd13ifvqfc0","pricing_plan_id":"cebpf4jnsgd1na2vs0mg"},{"bike_id":"5fef15e3-1888-494d-b29d-15fa71ae0b0a","system_id":"levelo_inurba_marseille","lat":43.29974,"lon":5.38483,"is_reserved":false,"is_disabled":false,"rental_uris":{"android":"levelo://app?vid=5fef15e3-1888-494d-b29d-15fa71ae0b0a","ios":"levelo://app?vid=5fef15e3-1888-494d-b29d-15fa71ae0b0a"},"vehicle_type_id":"4","last_reported":1767620007,"current_range_meters":4000,"station_id":"ce4bgj92rcd13ifvqbd0","pricing_plan_id":"cebpf4jnsgd1na2vs0mg"},{"bike_id":"832630b7-1265-4116-b046-a0d5dd971800","system_id":"levelo_inurba_marseille","lat":43.29801,"lon":5.3712,"is_reserved":false,"is_disabled":false,"rental_uris":{"android":"levelo://app?vid=832630b7-1265-4116-b046-a0d5dd971800","ios":"levelo://app?vid=832630b7-1265-4116-b046-a0d5dd971800"},"vehicle_type_id":"4","last_reported":1767620007,"current_range_meters":4000,"station_id":"ce4bgop2rcd13ifvqc1g","pricing_plan_id":"cebpf4jnsgd1na2vs0mg"},{"bike_id":"088ffd9e-e621-46be-9471-ab036728f8c5","system_id":"levelo_inurba_marseille","lat":43.31059,"lon":5.37192,"is_reserved":false,"is_disabled":true,"rental_uris":{"android":"levelo://app?vid=088ffd9e-e621-46be-9471-ab036728f8c5","ios":"levelo://app?vid=088ffd9e-e621-46be-9471-ab036728f8c5"},"vehicle_type_id":"4","last_reported":1767620007,"current_range_meters":4000,"station_id":"st_d4kl2rp97mjs73e7tdfg","pricing_plan_id":"cebpf4jnsgd1na2vs0mg"},{"bike_id":"63447985-41e3-43a3-92a4-1e959fa40808","system_id":"levelo_inurba_marseille","lat":43.26573,"lon":5.40333,"is_reserved":false,"is_disabled":false,"rental_uris":{"android":"levelo://app?vid=63447985-41e3-43a3-92a4-1e959fa40808","ios":"levelo://app?vid=63447985-41e3-43a3-92a4-1e959fa40808"},"vehicle_type_id":"4","last_reported":1767620007,"current_range_meters":4000,"station_id":"ce4bhmp2rcd13ifvqgng","pricing_plan_id":"cebpf4jnsgd1na2vs0mg"},{"bike_id":"746607d7-0d50-445a-b435-314ed89afc68","system_id":"levelo_inurba_marseille","lat":43.299,"lon":5.43675,"is_reserved":false,"is_disabled":false,"rental_uris":{"android":"levelo://app?vid=746607d7-0d50-445a-b435-314ed89afc68","ios":"levelo://app?vid=746607d7-0d50-445a-b435-314ed89afc68"},"vehicle_type_id":"4","last_reported":1767620007,"current_range_meters":4000,"station_id":"ce4bhpp2rcd13ifvqhfg","pricing_plan_id":"cebpf4jnsgd1na2vs0mg"},{"bike_id":"ecfba3ac-804e-418b-a7fa-cc102335e836","system_id":"levelo_inurba_marseille","lat":43.30308,"lon":5.45647,"is_reserved":false,"is_disabled":false,"rental_uris":{"android":"levelo://app?vid=ecfba3ac-804e-418b-a7fa-cc102335e836","ios":"levelo://app?vid=ecfba3ac-804e-418b-a7fa-cc102335e836"},"vehicle_type_id":"4","last_reported":1767620007,"current_range_meters":4000,"station_id":"","pricing_plan_id":"cebpf4jnsgd1na2vs0mg"},{"bike_id":"1de7e00d-1fab-4cd5-87ca-26bec7dc5ed6","system_id":"levelo_inurba_marseille","lat":43.24088,"lon":5.37751,"is_reserved":false,"is_disabled":false,"rental_uris":{"android":"levelo://app?vid=1de7e00d-1fab-4cd5-87ca-26bec7dc5ed6","ios":"levelo://app?vid=1de7e00d-1fab-4cd5-87ca-26bec7dc5ed6"},"vehicle_type_id":"4","last_reported":1767620007,"current_range_meters":4000,"station_id":"ce4bhnp2rcd13ifvqgvg","pricing_plan_id":"cebpf4jnsgd1na2vs0mg"},{"bike_id":"75f514f3-a391-4f43-9ffc-c99bb058b876","system_id":"levelo_inurba_marseille","lat":43.25486,"lon":5.37635,"is_reserved":false,"is_disabled":false,"rental_uris":{"android":"levelo://app?vid=75f514f3-a391-4f43-9ffc-c99bb058b876","ios":"levelo://app?vid=75f514f3-a391-4f43-9ffc-c99bb058b876"},"vehicle_type_id":"4","last_reported":1767620007,"current_range_meters":4000,"station_id":"","pricing_plan_id":"cebpf4jnsgd1na2vs0mg"},{"bike_id":"52027431-8160-4d6e-aaa6-6920729dc1ad","system_id":"levelo_inurba_marseille","lat":43.24171,"lon":5.36396,"is_reserved":false,"is_disabled":false,"rental_uris":{"android":"levelo://app?vid=52027431-8160-4d6e-aaa6-6920729dc1ad","ios":"levelo://app?vid=52027431-8160-4d6e-aaa6-6920729dc1ad"},"vehicle_type_id":"4","last_reported":1767620007,"current_range_meters":4000,"station_id":"cpo36qri1sfpv3e86is0","pricing_plan_id":"cebpf4jnsgd1na2vs0mg"},{"bike_id":"5f40631d-9a4a-4ee3-8fd0-5c76c6a9d9ee","system_id":"levelo_inurba_marseille","lat":43.27222,"lon":5.41034,"is_reserved":false,"is_disabled":false,"rental_uris":{"android":"levelo://app?vid=5f40631d-9a4a-4ee3-8fd0-5c76c6a9d9ee","ios":"levelo://app?vid=5f40631d-9a4a-4ee3-8fd0-5c76c6a9d9ee"},"vehicle_type_id":"4","last_reported":1767620007,"current_range_meters":4400,"station_id":"","pricing_plan_id":"cebpf4jnsgd1na2vs0mg"},{"bike_id":"074722cb-2569-4df8-9492-e46ca66ccdc6","system_id":"levelo_inurba_marseille","lat":43.32614,"lon":5.36161,"is_reserved":false,"is_disabled":false,"rental_uris":{"android":"levelo://app?vid=074722cb-2569-4df8-9492-e46ca66ccdc6","ios":"levelo://app?vid=074722cb-2569-4df8-9492-e46ca66ccdc6"},"vehicle_type_id":"4","last_reported":1767620007,"current_range_meters":4400,"station_id":"","pricing_plan_id":"cebpf4jnsgd1na2vs0mg"},{"bike_id":"c72a78cd-fdc9-4de4-b657-88590534f7d8","system_id":"levelo_inurba_marseille","lat":43.25942,"lon":5.40902,"is_reserved":false,"is_disabled":false,"rental_uris":{"android":"levelo://app?vid=c72a78cd-fdc9-4de4-b657-88590534f7d8","ios":"levelo://app?vid=c72a78cd-fdc9-4de4-b657-88590534f7d8"},"vehicle_type_id":"4","last_reported":1767620007,"current_range_meters":4400,"station_id":"ce4bhm92rcd13ifvqglg","pricing_plan_id":"cebpf4jnsgd1na2vs0mg"},{"bike_id":"067249c4-fb35-421e-9a6c-c895241c197a","system_id":"levelo_inurba_marseille","lat":43.2948,"lon":5.39311,"is_reserved":false,"is_disabled":false,"rental_uris":{"android":"levelo://app?vid=067249c4-fb35-421e-9a6c-c895241c197a","ios":"levelo://app?vid=067249c4-fb35-421e-9a6c-c895241c197a"},"vehicle_type_id":"4","last_reported":1767620007,"current_range_meters":4400,"station_id":"","pricing_plan_id":"cebpf4jnsgd1na2vs0mg"},{"bike_id":"70667a03-e379-4325-a762-80c67113f984","system_id":"levelo_inurba_marseille","lat":43.305427,"lon":5.365472,"is_reserved":false,"is_disabled":false,"rental_uris":{"android":"levelo://app?vid=70667a03-e379-4325-a762-80c67113f984","ios":"levelo://app?vid=70667a03-e379-4325-a762-80c67113f984"},"vehicle_type_id":"4","last_reported":1767620007,"current_range_meters":4400,"station_id":"ce4bgs12rcd13ifvqcag","pricing_plan_id":"cebpf4jnsgd1na2vs0mg"},{"bike_id":"278b026d-7c90-4296-9421-3e0684d777fa","system_id":"levelo_inurba_marseille","lat":43.29706,"lon":5.376858,"is_reserved":false,"is_disabled":false,"rental_uris":{"android":"levelo://app?vid=278b026d-7c90-4296-9421-3e0684d777fa","ios":"levelo://app?vid=278b026d-7c90-4296-9421-3e0684d777fa"},"vehicle_type_id":"4","last_reported":1767620007,"current_range_meters":4400,"station_id":"ce4bgkh2rcd13ifvqbl0","pricing_plan_id":"cebpf4jnsgd1na2vs0mg"},{"bike_id":"8e5aab2f-6cc7-4ed2-bff8-7b7c634d0b7b","system_id":"levelo_inurba_marseille","lat":43.29095,"lon":5.38118,"is_reserved":false,"is_disabled":false,"rental_uris":{"android":"levelo://app?vid=8e5aab2f-6cc7-4ed2-bff8-7b7c634d0b7b","ios":"levelo://app?vid=8e5aab2f-6cc7-4ed2-bff8-7b7c634d0b7b"},"vehicle_type_id":"4","last_reported":1767620007,"current_range_meters":4800,"station_id":"ce4bh512rcd13ifvqe2g","pricing_plan_id":"cebpf4jnsgd1na2vs0mg"},{"bike_id":"efd33062-2cef-445f-af98-648f578e9c2a","system_id":"levelo_inurba_marseille","lat":43.32622,"lon":5.41931,"is_reserved":false,"is_disabled":false,"rental_uris":{"android":"levelo://app?vid=efd33062-2cef-445f-af98-648f578e9c2a","ios":"levelo://app?vid=efd33062-2cef-445f-af98-648f578e9c2a"},"vehicle_type_id":"4","last_reported":1767620007,"current_range_meters":4800,"station_id":"","pricing_plan_id":"cebpf4jnsgd1na2vs0mg"},{"bike_id":"6362d2e9-b1aa-4dc0-b92d-936be0445a44","system_id":"levelo_inurba_marseille","lat":43.247757,"lon":5.37418,"is_reserved":false,"is_disabled":false,"rental_uris":{"android":"levelo://app?vid=6362d2e9-b1aa-4dc0-b92d-936be0445a44","ios":"levelo://app?vid=6362d2e9-b1aa-4dc0-b92d-936be0445a44"},"vehicle_type_id":"4","last_reported":1767620007,"current_range_meters":4800,"station_id":"","pricing_plan_id":"cebpf4jnsgd1na2vs0mg"},{"bike_id":"ea433994-4165-420a-9223-37582f30485d","system_id":"levelo_inurba_marseille","lat":43.30571,"lon":5.37575,"is_reserved":false,"is_disabled":false,"rental_uris":{"android":"levelo://app?vid=ea433994-4165-420a-9223-37582f30485d","ios":"levelo://app?vid=ea433994-4165-420a-9223-37582f30485d"},"vehicle_type_id":"4","last_reported":1767620007,"current_range_meters":4800,"station_id":"","pricing_plan_id":"cebpf4jnsgd1na2vs0mg"},{"bike_id":"c0b28978-8270-4053-9dc0-75e8389ab1a7","system_id":"levelo_inurba_marseille","lat":43.29489,"lon":5.433,"is_reserved":false,"is_disabled":false,"rental_uris":{"android":"levelo://app?vid=c0b28978-8270-4053-9dc0-75e8389ab1a7","ios":"levelo://app?vid=c0b28978-8270-4053-9dc0-75e8389ab1a7"},"vehicle_type_id":"4","last_reported":1767620007,"current_range_meters":4800,"station_id":"st_d3j5ugp08ojc73fj9d10","pricing_plan_id":"cebpf4jnsgd1na2vs0mg"},{"bike_id":"fc35f572-933a-493d-9321-401f18a2b795","system_id":"levelo_inurba_marseille","lat":43.3107,"lon":5.38356,"is_reserved":false,"is_disabled":false,"rental_uris":{"android":"levelo://app?vid=fc35f572-933a-493d-9321-401f18a2b795","ios":"levelo://app?vid=fc35f572-933a-493d-9321-401f18a2b795"},"vehicle_type_id":"4","last_reported":1767620007,"current_range_meters":4800,"station_id":"ce4bgv92rcd13ifvqcr0","pricing_plan_id":"cebpf4jnsgd1na2vs0mg"},{"bike_id":"fd38c429-d46c-4bf5-8c2f-854246216523","system_id":"levelo_inurba_marseille","lat":43.29979,"lon":5.37188,"is_reserved":false,"is_disabled":false,"rental_uris":{"android":"levelo://app?vid=fd38c429-d46c-4bf5-8c2f-854246216523","ios":"levelo://app?vid=fd38c429-d46c-4bf5-8c2f-854246216523"},"vehicle_type_id":"4","last_reported":1767620007,"current_range_meters":4800,"station_id":"ce4bgr92rcd13ifvqc7g","pricing_plan_id":"cebpf4jnsgd1na2vs0mg"},{"bike_id":"f37c8ab2-4055-4d0c-bc22-679bade32c8c","system_id":"levelo_inurba_marseille","lat":43.30683,"lon":5.37204,"is_reserved":false,"is_disabled":false,"rental_uris":{"android":"levelo://app?vid=f37c8ab2-4055-4d0c-bc22-679bade32c8c","ios":"levelo://app?vid=f37c8ab2-4055-4d0c-bc22-679bade32c8c"},"vehicle_type_id":"4","last_reported":1767620007,"current_range_meters":4800,"station_id":"","pricing_plan_id":"cebpf4jnsgd1na2vs0mg"},{"bike_id":"f4d6478d-8b0e-4cd8-8426-1f22392dad13","system_id":"levelo_inurba_marseille","lat":43.2847,"lon":5.38412,"is_reserved":false,"is_disabled":false,"rental_uris":{"android":"levelo://app?vid=f4d6478d-8b0e-4cd8-8426-1f22392dad13","ios":"levelo://app?vid=f4d6478d-8b0e-4cd8-8426-1f22392dad13"},"vehicle_type_id":"4","last_reported":1767620007,"current_range_meters":4800,"station_id":"ce4bh512rcd13ifvqe3g","pricing_plan_id":"cebpf4jnsgd1na2vs0mg"},{"bike_id":"c966fa7f-540d-4e2a-bc2b-5644b9dfd18d","system_id":"levelo_inurba_marseille","lat":43.30535,"lon":5.36725,"is_reserved":false,"is_disabled":false,"rental_uris":{"android":"levelo://app?vid=c966fa7f-540d-4e2a-bc2b-5644b9dfd18d","ios":"levelo://app?vid=c966fa7f-540d-4e2a-bc2b-5644b9dfd18d"},"vehicle_type_id":"4","last_reported":1767620007,"current_range_meters":4800,"station_id":"ce4bgrp2rcd13ifvqc9g","pricing_plan_id":"cebpf4jnsgd1na2vs0mg"},{"bike_id":"38478ce1-a447-4641-99f3-89c5bb836bdb","system_id":"levelo_inurba_marseille","lat":43.27428,"lon":5.41861,"is_reserved":false,"is_disabled":false,"rental_uris":{"android":"levelo://app?vid=38478ce1-a447-4641-99f3-89c5bb836bdb","ios":"levelo://app?vid=38478ce1-a447-4641-99f3-89c5bb836bdb"},"vehicle_type_id":"4","last_reported":1767620007,"current_range_meters":4800,"station_id":"","pricing_plan_id":"cebpf4jnsgd1na2vs0mg"},{"bike_id":"47f5f321-0859-44a5-a3e2-7e35572c8bac","system_id":"levelo_inurba_marseille","lat":43.27095,"lon":5.42244,"is_reserved":false,"is_disabled":false,"rental_uris":{"android":"levelo://app?vid=47f5f321-0859-44a5-a3e2-7e35572c8bac","ios":"levelo://app?vid=47f5f321-0859-44a5-a3e2-7e35572c8bac"},"vehicle_type_id":"4","last_reported":1767620007,"current_range_meters":4800,"station_id":"ce4bhk92rcd13ifvqgb0","pricing_plan_id":"cebpf4jnsgd1na2vs0mg"},{"bike_id":"9b4021cf-15f5-49ee-bfc4-492922ebf4c9","system_id":"levelo_inurba_marseille","lat":43.30286,"lon":5.37264,"is_reserved":false,"is_disabled":false,"rental_uris":{"android":"levelo://app?vid=9b4021cf-15f5-49ee-bfc4-492922ebf4c9","ios":"levelo://app?vid=9b4021cf-15f5-49ee-bfc4-492922ebf4c9"},"vehicle_type_id":"4","last_reported":1767620007,"current_range_meters":4800,"station_id":"","pricing_plan_id":"cebpf4jnsgd1na2vs0mg"},{"bike_id":"3115bbd7-1c85-4603-a617-db0a037ecab5","system_id":"levelo_inurba_marseille","lat":43.29408,"lon":5.43275,"is_reserved":false,"is_disabled":false,"rental_uris":{"android":"levelo://app?vid=3115bbd7-1c85-4603-a617-db0a037ecab5","ios":"levelo://app?vid=3115bbd7-1c85-4603-a617-db0a037ecab5"},"vehicle_type_id":"4","last_reported":1767620007,"current_range_meters":5600,"station_id":"","pricing_plan_id":"cebpf4jnsgd1na2vs0mg"},{"bike_id":"66b553e9-0cf1-4dd2-828c-a7a8e942eb4a","system_id":"levelo_inurba_marseille","lat":43.28963,"lon":5.39619,"is_reserved":false,"is_disabled":false,"rental_uris":{"android":"levelo://app?vid=66b553e9-0cf1-4dd2-828c-a7a8e942eb4a","ios":"levelo://app?vid=66b553e9-0cf1-4dd2-828c-a7a8e942eb4a"},"vehicle_type_id":"4","last_reported":1767620007,"current_range_meters":5600,"station_id":"ce4bh3h2rcd13ifvqdn0","pricing_plan_id":"cebpf4jnsgd1na2vs0mg"},{"bike_id":"0e471836-29c5-4d70-93bc-4b375d486538","system_id":"levelo_inurba_marseille","lat":43.29447,"lon":5.39711,"is_reserved":false,"is_disabled":false,"rental_uris":{"android":"levelo://app?vid=0e471836-29c5-4d70-93bc-4b375d486538","ios":"levelo://app?vid=0e471836-29c5-4d70-93bc-4b375d486538"},"vehicle_type_id":"4","last_reported":1767620007,"current_range_meters":5600,"station_id":"ce4bh3h2rcd13ifvqdo0","pricing_plan_id":"cebpf4jnsgd1na2vs0mg"},{"bike_id":"86f4117e-bfd7-4a5f-b403-eeb9a7153bb3","system_id":"levelo_inurba_marseille","lat":43.225324,"lon":5.348299,"is_reserved":false,"is_disabled":false,"rental_uris":{"android":"levelo://app?vid=86f4117e-bfd7-4a5f-b403-eeb9a7153bb3","ios":"levelo://app?vid=86f4117e-bfd7-4a5f-b403-eeb9a7153bb3"},"vehicle_type_id":"4","last_reported":1767620007,"current_range_meters":5600,"station_id":"","pricing_plan_id":"cebpf4jnsgd1na2vs0mg"},{"bike_id":"8f67289a-c445-41d3-a7c1-2b5874f96ec2","system_id":"levelo_inurba_marseille","lat":43.31329,"lon":5.40446,"is_reserved":false,"is_disabled":false,"rental_uris":{"android":"levelo://app?vid=8f67289a-c445-41d3-a7c1-2b5874f96ec2","ios":"levelo://app?vid=8f67289a-c445-41d3-a7c1-2b5874f96ec2"},"vehicle_type_id":"4","last_reported":1767620007,"current_range_meters":5600,"station_id":"","pricing_plan_id":"cebpf4jnsgd1na2vs0mg"},{"bike_id":"3fedbda4-18fb-4459-8990-789e6012cbd1","system_id":"levelo_inurba_marseille","lat":43.29355,"lon":5.37875,"is_reserved":false,"is_disabled":false,"rental_uris":{"android":"levelo://app?vid=3fedbda4-18fb-4459-8990-789e6012cbd1","ios":"levelo://app?vid=3fedbda4-18fb-4459-8990-789e6012cbd1"},"vehicle_type_id":"4","last_reported":1767620007,"current_range_meters":5600,"station_id":"ce4bgjh2rcd13ifvqbf0","pricing_plan_id":"cebpf4jnsgd1na2vs0mg"},{"bike_id":"225bdd2a-0ec2-4312-a816-23bf65227ab6","system_id":"levelo_inurba_marseille","lat":43.263727,"lon":5.410842,"is_reserved":false,"is_disabled":false,"rental_uris":{"android":"levelo://app?vid=225bdd2a-0ec2-4312-a816-23bf65227ab6","ios":"levelo://app?vid=225bdd2a-0ec2-4312-a816-23bf65227ab6"},"vehicle_type_id":"4","last_reported":1767620007,"current_range_meters":5600,"station_id":"","pricing_plan_id":"cebpf4jnsgd1na2vs0mg"},{"bike_id":"20600a83-ffb2-4ea6-adcc-6f03f7742df5","system_id":"levelo_inurba_marseille","lat":43.270678,"lon":5.422798,"is_reserved":false,"is_disabled":false,"rental_uris":{"android":"levelo://app?vid=20600a83-ffb2-4ea6-adcc-6f03f7742df5","ios":"levelo://app?vid=20600a83-ffb2-4ea6-adcc-6f03f7742df5"},"vehicle_type_id":"4","last_reported":1767620007,"current_range_meters":5600,"station_id":"ce4bhk92rcd13ifvqgb0","pricing_plan_id":"cebpf4jnsgd1na2vs0mg"},{"bike_id":"61bede02-2851-4fcf-827d-afeac7ac0523","system_id":"levelo_inurba_marseille","lat":43.29858,"lon":5.3766,"is_reserved":false,"is_disabled":false,"rental_uris":{"android":"levelo://app?vid=61bede02-2851-4fcf-827d-afeac7ac0523","ios":"levelo://app?vid=61bede02-2851-4fcf-827d-afeac7ac0523"},"vehicle_type_id":"4","last_reported":1767620007,"current_range_meters":5600,"station_id":"ce4bhr92rcd13ifvqhrg","pricing_plan_id":"cebpf4jnsgd1na2vs0mg"},{"bike_id":"8e000377-6bb2-46ca-84e4-f3d2a4baf08c","system_id":"levelo_inurba_marseille","lat":43.239629,"lon":5.366348,"is_reserved":false,"is_disabled":false,"rental_uris":{"android":"levelo://app?vid=8e000377-6bb2-46ca-84e4-f3d2a4baf08c","ios":"levelo://app?vid=8e000377-6bb2-46ca-84e4-f3d2a4baf08c"},"vehicle_type_id":"4","last_reported":1767620007,"current_range_meters":5600,"station_id":"ce4bhi12rcd13ifvqfp0","pricing_plan_id":"cebpf4jnsgd1na2vs0mg"},{"bike_id":"0cf92ab7-47d0-4a8a-8853-05ca72624aba","system_id":"levelo_inurba_marseille","lat":43.28231,"lon":5.39078,"is_reserved":false,"is_disabled":false,"rental_uris":{"android":"levelo://app?vid=0cf92ab7-47d0-4a8a-8853-05ca72624aba","ios":"levelo://app?vid=0cf92ab7-47d0-4a8a-8853-05ca72624aba"},"vehicle_type_id":"4","last_reported":1767620007,"current_range_meters":5600,"station_id":"ce4bhn92rcd13ifvqgsg","pricing_plan_id":"cebpf4jnsgd1na2vs0mg"},{"bike_id":"8c3e87fb-1d28-47b4-8c2c-d2b9f5aa74c7","system_id":"levelo_inurba_marseille","lat":43.28157,"lon":5.4265,"is_reserved":false,"is_disabled":false,"rental_uris":{"android":"levelo://app?vid=8c3e87fb-1d28-47b4-8c2c-d2b9f5aa74c7","ios":"levelo://app?vid=8c3e87fb-1d28-47b4-8c2c-d2b9f5aa74c7"},"vehicle_type_id":"4","last_reported":1767620007,"current_range_meters":5600,"station_id":"ce4bhnh2rcd13ifvqgug","pricing_plan_id":"cebpf4jnsgd1na2vs0mg"},{"bike_id":"b638425e-f8e4-49a1-9c09-1fc288c24970","system_id":"levelo_inurba_marseille","lat":43.32379,"lon":5.36702,"is_reserved":false,"is_disabled":false,"rental_uris":{"android":"levelo://app?vid=b638425e-f8e4-49a1-9c09-1fc288c24970","ios":"levelo://app?vid=b638425e-f8e4-49a1-9c09-1fc288c24970"},"vehicle_type_id":"4","last_reported":1767620007,"current_range_meters":5600,"station_id":"ce4bhsh2rcd13ifvqi2g","pricing_plan_id":"cebpf4jnsgd1na2vs0mg"},{"bike_id":"ce5b50c4-8b7f-4836-923c-9b6bb4694e91","system_id":"levelo_inurba_marseille","lat":43.29911,"lon":5.37562,"is_reserved":false,"is_disabled":false,"rental_uris":{"android":"levelo://app?vid=ce5b50c4-8b7f-4836-923c-9b6bb4694e91","ios":"levelo://app?vid=ce5b50c4-8b7f-4836-923c-9b6bb4694e91"},"vehicle_type_id":"4","last_reported":1767620007,"current_range_meters":5600,"station_id":"","pricing_plan_id":"cebpf4jnsgd1na2vs0mg"},{"bike_id":"266c9668-d2a5-4403-8b43-49c713e288ca","system_id":"levelo_inurba_marseille","lat":43.24664,"lon":5.40153,"is_reserved":false,"is_disabled":false,"rental_uris":{"android":"levelo://app?vid=266c9668-d2a5-4403-8b43-49c713e288ca","ios":"levelo://app?vid=266c9668-d2a5-4403-8b43-49c713e288ca"},"vehicle_type_id":"4","last_reported":1767620007,"current_range_meters":6000,"station_id":"","pricing_plan_id":"cebpf4jnsgd1na2vs0mg"},{"bike_id":"fa425a2b-b01f-4040-b6da-de1021f8b95c","system_id":"levelo_inurba_marseille","lat":43.29428,"lon":5.37925,"is_reserved":false,"is_disabled":false,"rental_uris":{"android":"levelo://app?vid=fa425a2b-b01f-4040-b6da-de1021f8b95c","ios":"levelo://app?vid=fa425a2b-b01f-4040-b6da-de1021f8b95c"},"vehicle_type_id":"4","last_reported":1767620007,"current_range_meters":6000,"station_id":"","pricing_plan_id":"cebpf4jnsgd1na2vs0mg"},{"bike_id":"3f8b91dc-4190-44ac-a53a-0db98b9d9ad9","system_id":"levelo_inurba_marseille","lat":43.24394,"lon":5.37065,"is_reserved":false,"is_disabled":false,"rental_uris":{"android":"levelo://app?vid=3f8b91dc-4190-44ac-a53a-0db98b9d9ad9","ios":"levelo://app?vid=3f8b91dc-4190-44ac-a53a-0db98b9d9ad9"},"vehicle_type_id":"4","last_reported":1767620007,"current_range_meters":6000,"station_id":"ce4bhhh2rcd13ifvqfk0","pricing_plan_id":"cebpf4jnsgd1na2vs0mg"},{"bike_id":"6b36d4b6-bf78-44d9-a634-3208f8edf20b","system_id":"levelo_inurba_marseille","lat":43.27112,"lon":5.42296,"is_reserved":false,"is_disabled":false,"rental_uris":{"android":"levelo://app?vid=6b36d4b6-bf78-44d9-a634-3208f8edf20b","ios":"levelo://app?vid=6b36d4b6-bf78-44d9-a634-3208f8edf20b"},"vehicle_type_id":"4","last_reported":1767620007,"current_range_meters":6000,"station_id":"ce4bhk92rcd13ifvqgb0","pricing_plan_id":"cebpf4jnsgd1na2vs0mg"},{"bike_id":"d9318f65-ec50-471d-911b-5b9ba9433a63","system_id":"levelo_inurba_marseille","lat":43.24176,"lon":5.39745,"is_reserved":false,"is_disabled":false,"rental_uris":{"android":"levelo://app?vid=d9318f65-ec50-471d-911b-5b9ba9433a63","ios":"levelo://app?vid=d9318f65-ec50-471d-911b-5b9ba9433a63"},"vehicle_type_id":"4","last_reported":1767620007,"current_range_meters":6000,"station_id":"ce4bhn12rcd13ifvqgpg","pricing_plan_id":"cebpf4jnsgd1na2vs0mg"},{"bike_id":"1f1bfc90-c16d-43bf-b03c-d479766ea213","system_id":"levelo_inurba_marseille","lat":43.217455,"lon":5.34617,"is_reserved":false,"is_disabled":false,"rental_uris":{"android":"levelo://app?vid=1f1bfc90-c16d-43bf-b03c-d479766ea213","ios":"levelo://app?vid=1f1bfc90-c16d-43bf-b03c-d479766ea213"},"vehicle_type_id":"4","last_reported":1767620007,"current_range_meters":6000,"station_id":"st_cvj6r9ubvosntc0bgbag","pricing_plan_id":"cebpf4jnsgd1na2vs0mg"},{"bike_id":"0e920fea-401a-4fec-a702-867e99d7a0b7","system_id":"levelo_inurba_marseille","lat":43.26227,"lon":5.40448,"is_reserved":false,"is_disabled":false,"rental_uris":{"android":"levelo://app?vid=0e920fea-401a-4fec-a702-867e99d7a0b7","ios":"levelo://app?vid=0e920fea-401a-4fec-a702-867e99d7a0b7"},"vehicle_type_id":"4","last_reported":1767620007,"current_range_meters":6000,"station_id":"ce4bhmh2rcd13ifvqgmg","pricing_plan_id":"cebpf4jnsgd1na2vs0mg"},{"bike_id":"edbb502a-babb-4b56-b7b2-69e8e10c7c11","system_id":"levelo_inurba_marseille","lat":43.2852,"lon":5.48363,"is_reserved":false,"is_disabled":false,"rental_uris":{"android":"levelo://app?vid=edbb502a-babb-4b56-b7b2-69e8e10c7c11","ios":"levelo://app?vid=edbb502a-babb-4b56-b7b2-69e8e10c7c11"},"vehicle_type_id":"4","last_reported":1767620007,"current_range_meters":6000,"station_id":"","pricing_plan_id":"cebpf4jnsgd1na2vs0mg"},{"bike_id":"313a26e2-6d5c-4db1-9b5b-ccc981e39b88","system_id":"levelo_inurba_marseille","lat":43.23789,"lon":5.36634,"is_reserved":false,"is_disabled":false,"rental_uris":{"android":"levelo://app?vid=313a26e2-6d5c-4db1-9b5b-ccc981e39b88","ios":"levelo://app?vid=313a26e2-6d5c-4db1-9b5b-ccc981e39b88"},"vehicle_type_id":"4","last_reported":1767620007,"current_range_meters":6000,"station_id":"st_d3nk18o9ro0c73en2l3g","pricing_plan_id":"cebpf4jnsgd1na2vs0mg"},{"bike_id":"59bca459-f8ba-4ca0-be09-8ae241edab81","system_id":"levelo_inurba_marseille","lat":43.33336,"lon":5.41134,"is_reserved":false,"is_disabled":false,"rental_uris":{"android":"levelo://app?vid=59bca459-f8ba-4ca0-be09-8ae241edab81","ios":"levelo://app?vid=59bca459-f8ba-4ca0-be09-8ae241edab81"},"vehicle_type_id":"4","last_reported":1767620007,"current_range_meters":6000,"station_id":"","pricing_plan_id":"cebpf4jnsgd1na2vs0mg"},{"bike_id":"706f5974-a17a-4d03-a982-cbf1b3df136e","system_id":"levelo_inurba_marseille","lat":43.27988,"lon":5.40023,"is_reserved":false,"is_disabled":false,"rental_uris":{"android":"levelo://app?vid=706f5974-a17a-4d03-a982-cbf1b3df136e","ios":"levelo://app?vid=706f5974-a17a-4d03-a982-cbf1b3df136e"},"vehicle_type_id":"4","last_reported":1767620007,"current_range_meters":6000,"station_id":"ce4bho92rcd13ifvqh4g","pricing_plan_id":"cebpf4jnsgd1na2vs0mg"},{"bike_id":"689e1e25-96b9-418c-bbe1-0e8f9558c52f","system_id":"levelo_inurba_marseille","lat":43.31341,"lon":5.3761,"is_reserved":false,"is_disabled":false,"rental_uris":{"android":"levelo://app?vid=689e1e25-96b9-418c-bbe1-0e8f9558c52f","ios":"levelo://app?vid=689e1e25-96b9-418c-bbe1-0e8f9558c52f"},"vehicle_type_id":"4","last_reported":1767620007,"current_range_meters":6000,"station_id":"","pricing_plan_id":"cebpf4jnsgd1na2vs0mg"},{"bike_id":"d01db93b-6ab7-4915-9d63-b4cefb29761e","system_id":"levelo_inurba_marseille","lat":43.27493,"lon":5.42455,"is_reserved":false,"is_disabled":false,"rental_uris":{"android":"levelo://app?vid=d01db93b-6ab7-4915-9d63-b4cefb29761e","ios":"levelo://app?vid=d01db93b-6ab7-4915-9d63-b4cefb29761e"},"vehicle_type_id":"4","last_reported":1767620007,"current_range_meters":6000,"station_id":"ce4bhn92rcd13ifvqgrg","pricing_plan_id":"cebpf4jnsgd1na2vs0mg"},{"bike_id":"9eb9f2a9-0def-423d-bc04-f48d9e280ab5","system_id":"levelo_inurba_marseille","lat":43.30537,"lon":5.36708,"is_reserved":false,"is_disabled":false,"rental_uris":{"android":"levelo://app?vid=9eb9f2a9-0def-423d-bc04-f48d9e280ab5","ios":"levelo://app?vid=9eb9f2a9-0def-423d-bc04-f48d9e280ab5"},"vehicle_type_id":"4","last_reported":1767620007,"current_range_meters":6400,"station_id":"ce4bgrp2rcd13ifvqc9g","pricing_plan_id":"cebpf4jnsgd1na2vs0mg"},{"bike_id":"2d00e765-c5e3-4921-bdc3-7b346757eae1","system_id":"levelo_inurba_marseille","lat":43.28378,"lon":5.43302,"is_reserved":false,"is_disabled":false,"rental_uris":{"android":"levelo://app?vid=2d00e765-c5e3-4921-bdc3-7b346757eae1","ios":"levelo://app?vid=2d00e765-c5e3-4921-bdc3-7b346757eae1"},"vehicle_type_id":"4","last_reported":1767620007,"current_range_meters":6400,"station_id":"","pricing_plan_id":"cebpf4jnsgd1na2vs0mg"},{"bike_id":"72c0aff9-fcf5-4414-a776-96bce150769e","system_id":"levelo_inurba_marseille","lat":43.2708,"lon":5.42282,"is_reserved":false,"is_disabled":false,"rental_uris":{"android":"levelo://app?vid=72c0aff9-fcf5-4414-a776-96bce150769e","ios":"levelo://app?vid=72c0aff9-fcf5-4414-a776-96bce150769e"},"vehicle_type_id":"4","last_reported":1767620007,"current_range_meters":6400,"station_id":"ce4bhk92rcd13ifvqgb0","pricing_plan_id":"cebpf4jnsgd1na2vs0mg"},{"bike_id":"d7927a0c-acc6-4dbc-b121-3fe1c24d45cd","system_id":"levelo_inurba_marseille","lat":43.23949,"lon":5.36646,"is_reserved":false,"is_disabled":false,"rental_uris":{"android":"levelo://app?vid=d7927a0c-acc6-4dbc-b121-3fe1c24d45cd","ios":"levelo://app?vid=d7927a0c-acc6-4dbc-b121-3fe1c24d45cd"},"vehicle_type_id":"4","last_reported":1767620007,"current_range_meters":6400,"station_id":"ce4bhi12rcd13ifvqfp0","pricing_plan_id":"cebpf4jnsgd1na2vs0mg"},{"bike_id":"13588b82-272e-4400-af96-5365185f6624","system_id":"levelo_inurba_marseille","lat":43.29557,"lon":5.37524,"is_reserved":false,"is_disabled":false,"rental_uris":{"android":"levelo://app?vid=13588b82-272e-4400-af96-5365185f6624","ios":"levelo://app?vid=13588b82-272e-4400-af96-5365185f6624"},"vehicle_type_id":"4","last_reported":1767620007,"current_range_meters":6400,"station_id":"ce4bgh92rcd13ifvqb50","pricing_plan_id":"cebpf4jnsgd1na2vs0mg"},{"bike_id":"2a61f7a8-d2f7-4b6f-8828-528b5bab141c","system_id":"levelo_inurba_marseille","lat":43.27187,"lon":5.40978,"is_reserved":false,"is_disabled":false,"rental_uris":{"android":"levelo://app?vid=2a61f7a8-d2f7-4b6f-8828-528b5bab141c","ios":"levelo://app?vid=2a61f7a8-d2f7-4b6f-8828-528b5bab141c"},"vehicle_type_id":"4","last_reported":1767620007,"current_range_meters":6400,"station_id":"ce4bhl12rcd13ifvqgf0","pricing_plan_id":"cebpf4jnsgd1na2vs0mg"},{"bike_id":"3bc151a5-6a42-4f15-984e-e4dbbdbf3b09","system_id":"levelo_inurba_marseille","lat":43.32339,"lon":5.36739,"is_reserved":false,"is_disabled":false,"rental_uris":{"android":"levelo://app?vid=3bc151a5-6a42-4f15-984e-e4dbbdbf3b09","ios":"levelo://app?vid=3bc151a5-6a42-4f15-984e-e4dbbdbf3b09"},"vehicle_type_id":"4","last_reported":1767620007,"current_range_meters":6400,"station_id":"ce4bhsh2rcd13ifvqi2g","pricing_plan_id":"cebpf4jnsgd1na2vs0mg"},{"bike_id":"22905312-c1d0-4fd5-95fd-6a659c223909","system_id":"levelo_inurba_marseille","lat":43.290953,"lon":5.381298,"is_reserved":false,"is_disabled":false,"rental_uris":{"android":"levelo://app?vid=22905312-c1d0-4fd5-95fd-6a659c223909","ios":"levelo://app?vid=22905312-c1d0-4fd5-95fd-6a659c223909"},"vehicle_type_id":"4","last_reported":1767620007,"current_range_meters":6400,"station_id":"ce4bh512rcd13ifvqe2g","pricing_plan_id":"cebpf4jnsgd1na2vs0mg"},{"bike_id":"1c4b2bf4-ceba-465d-8191-639338c588e3","system_id":"levelo_inurba_marseille","lat":43.27065,"lon":5.42277,"is_reserved":false,"is_disabled":false,"rental_uris":{"android":"levelo://app?vid=1c4b2bf4-ceba-465d-8191-639338c588e3","ios":"levelo://app?vid=1c4b2bf4-ceba-465d-8191-639338c588e3"},"vehicle_type_id":"4","last_reported":1767620007,"current_range_meters":6400,"station_id":"ce4bhk92rcd13ifvqgb0","pricing_plan_id":"cebpf4jnsgd1na2vs0mg"},{"bike_id":"bede67ae-d11b-47aa-b9f8-7e50bcc4ccf2","system_id":"levelo_inurba_marseille","lat":43.2706,"lon":5.4026,"is_reserved":false,"is_disabled":false,"rental_uris":{"android":"levelo://app?vid=bede67ae-d11b-47aa-b9f8-7e50bcc4ccf2","ios":"levelo://app?vid=bede67ae-d11b-47aa-b9f8-7e50bcc4ccf2"},"vehicle_type_id":"4","last_reported":1767620007,"current_range_meters":6400,"station_id":"ce4bhk92rcd13ifvqgc0","pricing_plan_id":"cebpf4jnsgd1na2vs0mg"},{"bike_id":"ec2e2d97-541d-4f0e-9289-f85c25486ad3","system_id":"levelo_inurba_marseille","lat":43.25718,"lon":5.41111,"is_reserved":false,"is_disabled":false,"rental_uris":{"android":"levelo://app?vid=ec2e2d97-541d-4f0e-9289-f85c25486ad3","ios":"levelo://app?vid=ec2e2d97-541d-4f0e-9289-f85c25486ad3"},"vehicle_type_id":"4","last_reported":1767620007,"current_range_meters":6400,"station_id":"ce4bhkp2rcd13ifvqgd0","pricing_plan_id":"cebpf4jnsgd1na2vs0mg"},{"bike_id":"06868716-cb7f-4b55-bfe4-13c0ff95059e","system_id":"levelo_inurba_marseille","lat":43.284894,"lon":5.384326,"is_reserved":false,"is_disabled":false,"rental_uris":{"android":"levelo://app?vid=06868716-cb7f-4b55-bfe4-13c0ff95059e","ios":"levelo://app?vid=06868716-cb7f-4b55-bfe4-13c0ff95059e"},"vehicle_type_id":"4","last_reported":1767620007,"current_range_meters":6400,"station_id":"ce4bh512rcd13ifvqe3g","pricing_plan_id":"cebpf4jnsgd1na2vs0mg"},{"bike_id":"7aaace4b-0107-4442-b952-8e400019f438","system_id":"levelo_inurba_marseille","lat":43.29979,"lon":5.38534,"is_reserved":false,"is_disabled":false,"rental_uris":{"android":"levelo://app?vid=7aaace4b-0107-4442-b952-8e400019f438","ios":"levelo://app?vid=7aaace4b-0107-4442-b952-8e400019f438"},"vehicle_type_id":"4","last_reported":1767620007,"current_range_meters":6400,"station_id":"ce4bgj92rcd13ifvqbd0","pricing_plan_id":"cebpf4jnsgd1na2vs0mg"},{"bike_id":"577a8429-e907-45de-a0fc-b8c3d38163f6","system_id":"levelo_inurba_marseille","lat":43.279,"lon":5.38033,"is_reserved":false,"is_disabled":false,"rental_uris":{"android":"levelo://app?vid=577a8429-e907-45de-a0fc-b8c3d38163f6","ios":"levelo://app?vid=577a8429-e907-45de-a0fc-b8c3d38163f6"},"vehicle_type_id":"4","last_reported":1767620007,"current_range_meters":6400,"station_id":"ce4bhf92rcd13ifvqf50","pricing_plan_id":"cebpf4jnsgd1na2vs0mg"},{"bike_id":"e3aa32d8-6703-4bb5-89dd-c6404061fee0","system_id":"levelo_inurba_marseille","lat":43.31377,"lon":5.38048,"is_reserved":false,"is_disabled":false,"rental_uris":{"android":"levelo://app?vid=e3aa32d8-6703-4bb5-89dd-c6404061fee0","ios":"levelo://app?vid=e3aa32d8-6703-4bb5-89dd-c6404061fee0"},"vehicle_type_id":"4","last_reported":1767620007,"current_range_meters":6400,"station_id":"","pricing_plan_id":"cebpf4jnsgd1na2vs0mg"},{"bike_id":"17122469-6fe8-44cc-83aa-2add588c9ff0","system_id":"levelo_inurba_marseille","lat":43.270724,"lon":5.422742,"is_reserved":false,"is_disabled":false,"rental_uris":{"android":"levelo://app?vid=17122469-6fe8-44cc-83aa-2add588c9ff0","ios":"levelo://app?vid=17122469-6fe8-44cc-83aa-2add588c9ff0"},"vehicle_type_id":"4","last_reported":1767620007,"current_range_meters":6400,"station_id":"ce4bhk92rcd13ifvqgb0","pricing_plan_id":"cebpf4jnsgd1na2vs0mg"},{"bike_id":"6eecfff7-24c0-4ab8-af07-f5fc0af449b8","system_id":"levelo_inurba_marseille","lat":43.296223,"lon":5.374194,"is_reserved":false,"is_disabled":false,"rental_uris":{"android":"levelo://app?vid=6eecfff7-24c0-4ab8-af07-f5fc0af449b8","ios":"levelo://app?vid=6eecfff7-24c0-4ab8-af07-f5fc0af449b8"},"vehicle_type_id":"4","last_reported":1767620007,"current_range_meters":6400,"station_id":"ce4bgk12rcd13ifvqbj0","pricing_plan_id":"cebpf4jnsgd1na2vs0mg"},{"bike_id":"da5c5a0f-95ef-4de5-9f48-33641c70fc23","system_id":"levelo_inurba_marseille","lat":43.26368,"lon":5.41078,"is_reserved":false,"is_disabled":false,"rental_uris":{"android":"levelo://app?vid=da5c5a0f-95ef-4de5-9f48-33641c70fc23","ios":"levelo://app?vid=da5c5a0f-95ef-4de5-9f48-33641c70fc23"},"vehicle_type_id":"4","last_reported":1767620007,"current_range_meters":6400,"station_id":"st_d4e5ca6na9uc73bfl5fg","pricing_plan_id":"cebpf4jnsgd1na2vs0mg"},{"bike_id":"693db67c-bb03-4814-abed-8ef0afc331ef","system_id":"levelo_inurba_marseille","lat":43.30546,"lon":5.36698,"is_reserved":false,"is_disabled":false,"rental_uris":{"android":"levelo://app?vid=693db67c-bb03-4814-abed-8ef0afc331ef","ios":"levelo://app?vid=693db67c-bb03-4814-abed-8ef0afc331ef"},"vehicle_type_id":"4","last_reported":1767620007,"current_range_meters":6400,"station_id":"ce4bgrp2rcd13ifvqc9g","pricing_plan_id":"cebpf4jnsgd1na2vs0mg"},{"bike_id":"a37d40f7-6a7a-463a-8f5a-b25737a5a4f2","system_id":"levelo_inurba_marseille","lat":43.299,"lon":5.38004,"is_reserved":false,"is_disabled":false,"rental_uris":{"android":"levelo://app?vid=a37d40f7-6a7a-463a-8f5a-b25737a5a4f2","ios":"levelo://app?vid=a37d40f7-6a7a-463a-8f5a-b25737a5a4f2"},"vehicle_type_id":"4","last_reported":1767620007,"current_range_meters":6400,"station_id":"","pricing_plan_id":"cebpf4jnsgd1na2vs0mg"},{"bike_id":"27deac45-e711-41b2-b7a5-98c7278bfea1","system_id":"levelo_inurba_marseille","lat":43.25334,"lon":5.42171,"is_reserved":false,"is_disabled":false,"rental_uris":{"android":"levelo://app?vid=27deac45-e711-41b2-b7a5-98c7278bfea1","ios":"levelo://app?vid=27deac45-e711-41b2-b7a5-98c7278bfea1"},"vehicle_type_id":"4","last_reported":1767620007,"current_range_meters":6400,"station_id":"st_d2m65c5bi1j21697t3ng","pricing_plan_id":"cebpf4jnsgd1na2vs0mg"},{"bike_id":"0abda507-827b-4ba6-b5d5-a4467158d662","system_id":"levelo_inurba_marseille","lat":43.23187,"lon":5.40018,"is_reserved":false,"is_disabled":false,"rental_uris":{"android":"levelo://app?vid=0abda507-827b-4ba6-b5d5-a4467158d662","ios":"levelo://app?vid=0abda507-827b-4ba6-b5d5-a4467158d662"},"vehicle_type_id":"4","last_reported":1767620007,"current_range_meters":6400,"station_id":"ce4bhn12rcd13ifvqgqg","pricing_plan_id":"cebpf4jnsgd1na2vs0mg"},{"bike_id":"c48b8ab0-3aed-485b-9e87-5ea8f52478d4","system_id":"levelo_inurba_marseille","lat":43.31581,"lon":5.38372,"is_reserved":false,"is_disabled":false,"rental_uris":{"android":"levelo://app?vid=c48b8ab0-3aed-485b-9e87-5ea8f52478d4","ios":"levelo://app?vid=c48b8ab0-3aed-485b-9e87-5ea8f52478d4"},"vehicle_type_id":"4","last_reported":1767620007,"current_range_meters":6400,"station_id":"","pricing_plan_id":"cebpf4jnsgd1na2vs0mg"},{"bike_id":"a53e6fdd-1151-4203-a356-5e630fc5ef27","system_id":"levelo_inurba_marseille","lat":43.29158,"lon":5.37171,"is_reserved":false,"is_disabled":false,"rental_uris":{"android":"levelo://app?vid=a53e6fdd-1151-4203-a356-5e630fc5ef27","ios":"levelo://app?vid=a53e6fdd-1151-4203-a356-5e630fc5ef27"},"vehicle_type_id":"4","last_reported":1767620007,"current_range_meters":6400,"station_id":"ce4bha92rcd13ifvqeh0","pricing_plan_id":"cebpf4jnsgd1na2vs0mg"},{"bike_id":"6d7d192a-6d54-469c-8fb1-e8e3b9db202c","system_id":"levelo_inurba_marseille","lat":43.26231,"lon":5.40462,"is_reserved":false,"is_disabled":false,"rental_uris":{"android":"levelo://app?vid=6d7d192a-6d54-469c-8fb1-e8e3b9db202c","ios":"levelo://app?vid=6d7d192a-6d54-469c-8fb1-e8e3b9db202c"},"vehicle_type_id":"4","last_reported":1767620007,"current_range_meters":6400,"station_id":"ce4bhmh2rcd13ifvqgmg","pricing_plan_id":"cebpf4jnsgd1na2vs0mg"},{"bike_id":"8c1916f3-9874-4eb0-8987-deefc3073e14","system_id":"levelo_inurba_marseille","lat":43.29105,"lon":5.3814,"is_reserved":false,"is_disabled":false,"rental_uris":{"android":"levelo://app?vid=8c1916f3-9874-4eb0-8987-deefc3073e14","ios":"levelo://app?vid=8c1916f3-9874-4eb0-8987-deefc3073e14"},"vehicle_type_id":"4","last_reported":1767620007,"current_range_meters":6800,"station_id":"ce4bh512rcd13ifvqe2g","pricing_plan_id":"cebpf4jnsgd1na2vs0mg"},{"bike_id":"ddb04fa1-fdee-4548-9e0d-7f639fee9bf2","system_id":"levelo_inurba_marseille","lat":43.28727,"lon":5.37929,"is_reserved":false,"is_disabled":false,"rental_uris":{"android":"levelo://app?vid=ddb04fa1-fdee-4548-9e0d-7f639fee9bf2","ios":"levelo://app?vid=ddb04fa1-fdee-4548-9e0d-7f639fee9bf2"},"vehicle_type_id":"4","last_reported":1767620007,"current_range_meters":6800,"station_id":"ce4bh9p2rcd13ifvqec0","pricing_plan_id":"cebpf4jnsgd1na2vs0mg"},{"bike_id":"f4f27f48-c318-45c3-a745-f5acb16a9633","system_id":"levelo_inurba_marseille","lat":43.29875,"lon":5.38903,"is_reserved":false,"is_disabled":false,"rental_uris":{"android":"levelo://app?vid=f4f27f48-c318-45c3-a745-f5acb16a9633","ios":"levelo://app?vid=f4f27f48-c318-45c3-a745-f5acb16a9633"},"vehicle_type_id":"4","last_reported":1767620007,"current_range_meters":6800,"station_id":"ce4bh392rcd13ifvqdl0","pricing_plan_id":"cebpf4jnsgd1na2vs0mg"},{"bike_id":"8797d0e0-3f72-4cce-b6f6-fa9e7c04cd9b","system_id":"levelo_inurba_marseille","lat":43.29524,"lon":5.37493,"is_reserved":false,"is_disabled":false,"rental_uris":{"android":"levelo://app?vid=8797d0e0-3f72-4cce-b6f6-fa9e7c04cd9b","ios":"levelo://app?vid=8797d0e0-3f72-4cce-b6f6-fa9e7c04cd9b"},"vehicle_type_id":"4","last_reported":1767620007,"current_range_meters":6800,"station_id":"ce4bgkp2rcd13ifvqbmg","pricing_plan_id":"cebpf4jnsgd1na2vs0mg"},{"bike_id":"a414d67b-9afa-4a87-9fac-f67cdff12698","system_id":"levelo_inurba_marseille","lat":43.29069,"lon":5.3774,"is_reserved":false,"is_disabled":false,"rental_uris":{"android":"levelo://app?vid=a414d67b-9afa-4a87-9fac-f67cdff12698","ios":"levelo://app?vid=a414d67b-9afa-4a87-9fac-f67cdff12698"},"vehicle_type_id":"4","last_reported":1767620007,"current_range_meters":6800,"station_id":"","pricing_plan_id":"cebpf4jnsgd1na2vs0mg"},{"bike_id":"952ccc80-7181-4120-9423-08211bedb630","system_id":"levelo_inurba_marseille","lat":43.24082,"lon":5.37758,"is_reserved":false,"is_disabled":false,"rental_uris":{"android":"levelo://app?vid=952ccc80-7181-4120-9423-08211bedb630","ios":"levelo://app?vid=952ccc80-7181-4120-9423-08211bedb630"},"vehicle_type_id":"4","last_reported":1767620007,"current_range_meters":6800,"station_id":"ce4bhnp2rcd13ifvqgvg","pricing_plan_id":"cebpf4jnsgd1na2vs0mg"},{"bike_id":"fad88370-eff2-40ad-91f9-be30e2fbd51d","system_id":"levelo_inurba_marseille","lat":43.294358,"lon":5.397593,"is_reserved":false,"is_disabled":true,"rental_uris":{"android":"levelo://app?vid=fad88370-eff2-40ad-91f9-be30e2fbd51d","ios":"levelo://app?vid=fad88370-eff2-40ad-91f9-be30e2fbd51d"},"vehicle_type_id":"4","last_reported":1767620007,"current_range_meters":6800,"station_id":"ce4bh3h2rcd13ifvqdo0","pricing_plan_id":"cebpf4jnsgd1na2vs0mg"},{"bike_id":"738ebe4e-38b3-4d22-9081-30b4d727fffe","system_id":"levelo_inurba_marseille","lat":43.30944,"lon":5.39039,"is_reserved":false,"is_disabled":false,"rental_uris":{"android":"levelo://app?vid=738ebe4e-38b3-4d22-9081-30b4d727fffe","ios":"levelo://app?vid=738ebe4e-38b3-4d22-9081-30b4d727fffe"},"vehicle_type_id":"4","last_reported":1767620007,"current_range_meters":6800,"station_id":"ce4bgup2rcd13ifvqco0","pricing_plan_id":"cebpf4jnsgd1na2vs0mg"},{"bike_id":"d1a8582c-3d84-4b4e-ace7-3ba06413c6cb","system_id":"levelo_inurba_marseille","lat":43.31217,"lon":5.36857,"is_reserved":false,"is_disabled":false,"rental_uris":{"android":"levelo://app?vid=d1a8582c-3d84-4b4e-ace7-3ba06413c6cb","ios":"levelo://app?vid=d1a8582c-3d84-4b4e-ace7-3ba06413c6cb"},"vehicle_type_id":"4","last_reported":1767620007,"current_range_meters":6800,"station_id":"ce4bgl92rcd13ifvqbq0","pricing_plan_id":"cebpf4jnsgd1na2vs0mg"},{"bike_id":"13a148c5-a1fd-4e51-be3e-efc9d5f353fa","system_id":"levelo_inurba_marseille","lat":43.25515,"lon":5.37671,"is_reserved":false,"is_disabled":false,"rental_uris":{"android":"levelo://app?vid=13a148c5-a1fd-4e51-be3e-efc9d5f353fa","ios":"levelo://app?vid=13a148c5-a1fd-4e51-be3e-efc9d5f353fa"},"vehicle_type_id":"4","last_reported":1767620007,"current_range_meters":6800,"station_id":"ce4bhh12rcd13ifvqff0","pricing_plan_id":"cebpf4jnsgd1na2vs0mg"},{"bike_id":"a8cd7802-144d-4c11-af29-be2259acf14c","system_id":"levelo_inurba_marseille","lat":43.243922,"lon":5.370663,"is_reserved":false,"is_disabled":false,"rental_uris":{"android":"levelo://app?vid=a8cd7802-144d-4c11-af29-be2259acf14c","ios":"levelo://app?vid=a8cd7802-144d-4c11-af29-be2259acf14c"},"vehicle_type_id":"4","last_reported":1767620007,"current_range_meters":6800,"station_id":"","pricing_plan_id":"cebpf4jnsgd1na2vs0mg"},{"bike_id":"fd8f368a-790a-472f-8659-a02b635b9f3b","system_id":"levelo_inurba_marseille","lat":43.31063,"lon":5.37465,"is_reserved":false,"is_disabled":false,"rental_uris":{"android":"levelo://app?vid=fd8f368a-790a-472f-8659-a02b635b9f3b","ios":"levelo://app?vid=fd8f368a-790a-472f-8659-a02b635b9f3b"},"vehicle_type_id":"4","last_reported":1767620007,"current_range_meters":6800,"station_id":"","pricing_plan_id":"cebpf4jnsgd1na2vs0mg"},{"bike_id":"c5365846-c619-4f12-8c92-97c9f9725a15","system_id":"levelo_inurba_marseille","lat":43.2952,"lon":5.37897,"is_reserved":false,"is_disabled":false,"rental_uris":{"android":"levelo://app?vid=c5365846-c619-4f12-8c92-97c9f9725a15","ios":"levelo://app?vid=c5365846-c619-4f12-8c92-97c9f9725a15"},"vehicle_type_id":"4","last_reported":1767620007,"current_range_meters":6800,"station_id":"","pricing_plan_id":"cebpf4jnsgd1na2vs0mg"},{"bike_id":"40b5b67b-d3e0-4f8e-80fc-cb6089aa8f05","system_id":"levelo_inurba_marseille","lat":43.3059,"lon":5.36675,"is_reserved":false,"is_disabled":false,"rental_uris":{"android":"levelo://app?vid=40b5b67b-d3e0-4f8e-80fc-cb6089aa8f05","ios":"levelo://app?vid=40b5b67b-d3e0-4f8e-80fc-cb6089aa8f05"},"vehicle_type_id":"4","last_reported":1767620007,"current_range_meters":6800,"station_id":"","pricing_plan_id":"cebpf4jnsgd1na2vs0mg"},{"bike_id":"92d3f6a9-9b89-4e79-ac3a-49727f881221","system_id":"levelo_inurba_marseille","lat":43.284698,"lon":5.384194,"is_reserved":false,"is_disabled":false,"rental_uris":{"android":"levelo://app?vid=92d3f6a9-9b89-4e79-ac3a-49727f881221","ios":"levelo://app?vid=92d3f6a9-9b89-4e79-ac3a-49727f881221"},"vehicle_type_id":"4","last_reported":1767620007,"current_range_meters":6800,"station_id":"","pricing_plan_id":"cebpf4jnsgd1na2vs0mg"},{"bike_id":"0e56497d-2fdb-4797-b5b0-2fbc698bc20a","system_id":"levelo_inurba_marseille","lat":43.29357,"lon":5.37886,"is_reserved":false,"is_disabled":false,"rental_uris":{"android":"levelo://app?vid=0e56497d-2fdb-4797-b5b0-2fbc698bc20a","ios":"levelo://app?vid=0e56497d-2fdb-4797-b5b0-2fbc698bc20a"},"vehicle_type_id":"4","last_reported":1767620007,"current_range_meters":6800,"station_id":"ce4bgjh2rcd13ifvqbf0","pricing_plan_id":"cebpf4jnsgd1na2vs0mg"},{"bike_id":"d938298d-16c1-4fcf-a2a1-90f5a487d129","system_id":"levelo_inurba_marseille","lat":43.28132,"lon":5.36013,"is_reserved":false,"is_disabled":false,"rental_uris":{"android":"levelo://app?vid=d938298d-16c1-4fcf-a2a1-90f5a487d129","ios":"levelo://app?vid=d938298d-16c1-4fcf-a2a1-90f5a487d129"},"vehicle_type_id":"4","last_reported":1767620007,"current_range_meters":6800,"station_id":"","pricing_plan_id":"cebpf4jnsgd1na2vs0mg"},{"bike_id":"c49e27b4-a5f9-4c71-aa66-1ae8ec3b129e","system_id":"levelo_inurba_marseille","lat":43.29276,"lon":5.38904,"is_reserved":false,"is_disabled":false,"rental_uris":{"android":"levelo://app?vid=c49e27b4-a5f9-4c71-aa66-1ae8ec3b129e","ios":"levelo://app?vid=c49e27b4-a5f9-4c71-aa66-1ae8ec3b129e"},"vehicle_type_id":"4","last_reported":1767620007,"current_range_meters":6800,"station_id":"","pricing_plan_id":"cebpf4jnsgd1na2vs0mg"},{"bike_id":"d921e2ef-d57d-414d-a30d-b85b95f31cac","system_id":"levelo_inurba_marseille","lat":43.23802,"lon":5.36641,"is_reserved":false,"is_disabled":false,"rental_uris":{"android":"levelo://app?vid=d921e2ef-d57d-414d-a30d-b85b95f31cac","ios":"levelo://app?vid=d921e2ef-d57d-414d-a30d-b85b95f31cac"},"vehicle_type_id":"4","last_reported":1767620007,"current_range_meters":6800,"station_id":"st_d3nk18o9ro0c73en2l3g","pricing_plan_id":"cebpf4jnsgd1na2vs0mg"},{"bike_id":"bb20fce4-d02b-4ec1-a2f9-e33a7624d70c","system_id":"levelo_inurba_marseille","lat":43.26574,"lon":5.3903,"is_reserved":false,"is_disabled":false,"rental_uris":{"android":"levelo://app?vid=bb20fce4-d02b-4ec1-a2f9-e33a7624d70c","ios":"levelo://app?vid=bb20fce4-d02b-4ec1-a2f9-e33a7624d70c"},"vehicle_type_id":"4","last_reported":1767620007,"current_range_meters":7200,"station_id":"ce4bhe12rcd13ifvqf30","pricing_plan_id":"cebpf4jnsgd1na2vs0mg"},{"bike_id":"5213f932-a457-45f5-a08c-e35a5e6cbcd6","system_id":"levelo_inurba_marseille","lat":43.25926,"lon":5.40914,"is_reserved":false,"is_disabled":false,"rental_uris":{"android":"levelo://app?vid=5213f932-a457-45f5-a08c-e35a5e6cbcd6","ios":"levelo://app?vid=5213f932-a457-45f5-a08c-e35a5e6cbcd6"},"vehicle_type_id":"4","last_reported":1767620007,"current_range_meters":7200,"station_id":"ce4bhm92rcd13ifvqglg","pricing_plan_id":"cebpf4jnsgd1na2vs0mg"},{"bike_id":"4fd4322f-65dc-4f07-99c5-66841cd5fc55","system_id":"levelo_inurba_marseille","lat":43.29576,"lon":5.36743,"is_reserved":false,"is_disabled":false,"rental_uris":{"android":"levelo://app?vid=4fd4322f-65dc-4f07-99c5-66841cd5fc55","ios":"levelo://app?vid=4fd4322f-65dc-4f07-99c5-66841cd5fc55"},"vehicle_type_id":"4","last_reported":1767620007,"current_range_meters":7200,"station_id":"ce4bgph2rcd13ifvqc2g","pricing_plan_id":"cebpf4jnsgd1na2vs0mg"},{"bike_id":"801e0e40-fac2-4fbc-9636-b8eb982b0989","system_id":"levelo_inurba_marseille","lat":43.23969,"lon":5.36612,"is_reserved":false,"is_disabled":false,"rental_uris":{"android":"levelo://app?vid=801e0e40-fac2-4fbc-9636-b8eb982b0989","ios":"levelo://app?vid=801e0e40-fac2-4fbc-9636-b8eb982b0989"},"vehicle_type_id":"4","last_reported":1767620007,"current_range_meters":7200,"station_id":"ce4bhi12rcd13ifvqfp0","pricing_plan_id":"cebpf4jnsgd1na2vs0mg"},{"bike_id":"85f65327-244d-4e0f-989f-0ca631a03630","system_id":"levelo_inurba_marseille","lat":43.28146,"lon":5.42643,"is_reserved":false,"is_disabled":false,"rental_uris":{"android":"levelo://app?vid=85f65327-244d-4e0f-989f-0ca631a03630","ios":"levelo://app?vid=85f65327-244d-4e0f-989f-0ca631a03630"},"vehicle_type_id":"4","last_reported":1767620007,"current_range_meters":7200,"station_id":"ce4bhnh2rcd13ifvqgug","pricing_plan_id":"cebpf4jnsgd1na2vs0mg"},{"bike_id":"43583847-16c2-48aa-aa61-468775185420","system_id":"levelo_inurba_marseille","lat":43.2979,"lon":5.37101,"is_reserved":false,"is_disabled":false,"rental_uris":{"android":"levelo://app?vid=43583847-16c2-48aa-aa61-468775185420","ios":"levelo://app?vid=43583847-16c2-48aa-aa61-468775185420"},"vehicle_type_id":"4","last_reported":1767620007,"current_range_meters":7200,"station_id":"ce4bgop2rcd13ifvqc1g","pricing_plan_id":"cebpf4jnsgd1na2vs0mg"},{"bike_id":"d19e7d8f-8d39-4e32-b60a-b3305948b30b","system_id":"levelo_inurba_marseille","lat":43.24165,"lon":5.36392,"is_reserved":false,"is_disabled":false,"rental_uris":{"android":"levelo://app?vid=d19e7d8f-8d39-4e32-b60a-b3305948b30b","ios":"levelo://app?vid=d19e7d8f-8d39-4e32-b60a-b3305948b30b"},"vehicle_type_id":"4","last_reported":1767620007,"current_range_meters":7200,"station_id":"cpo36qri1sfpv3e86is0","pricing_plan_id":"cebpf4jnsgd1na2vs0mg"},{"bike_id":"a63d2d59-a10a-46f9-adcb-a6461219fb1b","system_id":"levelo_inurba_marseille","lat":43.23782,"lon":5.36632,"is_reserved":false,"is_disabled":false,"rental_uris":{"android":"levelo://app?vid=a63d2d59-a10a-46f9-adcb-a6461219fb1b","ios":"levelo://app?vid=a63d2d59-a10a-46f9-adcb-a6461219fb1b"},"vehicle_type_id":"4","last_reported":1767620007,"current_range_meters":7200,"station_id":"st_d3nk18o9ro0c73en2l3g","pricing_plan_id":"cebpf4jnsgd1na2vs0mg"},{"bike_id":"8c92face-9b3e-4449-bd73-7c7a30890dfa","system_id":"levelo_inurba_marseille","lat":43.26205,"lon":5.37443,"is_reserved":false,"is_disabled":false,"rental_uris":{"android":"levelo://app?vid=8c92face-9b3e-4449-bd73-7c7a30890dfa","ios":"levelo://app?vid=8c92face-9b3e-4449-bd73-7c7a30890dfa"},"vehicle_type_id":"4","last_reported":1767620007,"current_range_meters":7200,"station_id":"ce4bhgp2rcd13ifvqfc0","pricing_plan_id":"cebpf4jnsgd1na2vs0mg"},{"bike_id":"831294d3-0f66-4ca1-a706-138b980b5682","system_id":"levelo_inurba_marseille","lat":43.30584,"lon":5.37105,"is_reserved":false,"is_disabled":false,"rental_uris":{"android":"levelo://app?vid=831294d3-0f66-4ca1-a706-138b980b5682","ios":"levelo://app?vid=831294d3-0f66-4ca1-a706-138b980b5682"},"vehicle_type_id":"4","last_reported":1767620007,"current_range_meters":7200,"station_id":"","pricing_plan_id":"cebpf4jnsgd1na2vs0mg"},{"bike_id":"5c752d77-7b25-48ba-99ef-9b278d0c9e59","system_id":"levelo_inurba_marseille","lat":43.24393,"lon":5.37048,"is_reserved":false,"is_disabled":false,"rental_uris":{"android":"levelo://app?vid=5c752d77-7b25-48ba-99ef-9b278d0c9e59","ios":"levelo://app?vid=5c752d77-7b25-48ba-99ef-9b278d0c9e59"},"vehicle_type_id":"4","last_reported":1767620007,"current_range_meters":7200,"station_id":"ce4bhhh2rcd13ifvqfk0","pricing_plan_id":"cebpf4jnsgd1na2vs0mg"},{"bike_id":"f112bcb2-304e-4137-be6b-5d9d46648251","system_id":"levelo_inurba_marseille","lat":43.292563,"lon":5.383807,"is_reserved":false,"is_disabled":false,"rental_uris":{"android":"levelo://app?vid=f112bcb2-304e-4137-be6b-5d9d46648251","ios":"levelo://app?vid=f112bcb2-304e-4137-be6b-5d9d46648251"},"vehicle_type_id":"4","last_reported":1767620007,"current_range_meters":7200,"station_id":"ce4bh692rcd13ifvqea0","pricing_plan_id":"cebpf4jnsgd1na2vs0mg"},{"bike_id":"cf4f43dc-0785-47a5-a4f2-2f8340fb1d6f","system_id":"levelo_inurba_marseille","lat":43.27921,"lon":5.39605,"is_reserved":false,"is_disabled":false,"rental_uris":{"android":"levelo://app?vid=cf4f43dc-0785-47a5-a4f2-2f8340fb1d6f","ios":"levelo://app?vid=cf4f43dc-0785-47a5-a4f2-2f8340fb1d6f"},"vehicle_type_id":"4","last_reported":1767620007,"current_range_meters":7200,"station_id":"ce4bhf92rcd13ifvqf40","pricing_plan_id":"cebpf4jnsgd1na2vs0mg"},{"bike_id":"55654a27-5cd8-4223-b844-2fc4c9f1600a","system_id":"levelo_inurba_marseille","lat":43.31349,"lon":5.38003,"is_reserved":false,"is_disabled":false,"rental_uris":{"android":"levelo://app?vid=55654a27-5cd8-4223-b844-2fc4c9f1600a","ios":"levelo://app?vid=55654a27-5cd8-4223-b844-2fc4c9f1600a"},"vehicle_type_id":"4","last_reported":1767620007,"current_range_meters":7200,"station_id":"","pricing_plan_id":"cebpf4jnsgd1na2vs0mg"},{"bike_id":"d667774f-465b-41d1-979f-f38bff62b4f5","system_id":"levelo_inurba_marseille","lat":43.27917,"lon":5.39591,"is_reserved":false,"is_disabled":false,"rental_uris":{"android":"levelo://app?vid=d667774f-465b-41d1-979f-f38bff62b4f5","ios":"levelo://app?vid=d667774f-465b-41d1-979f-f38bff62b4f5"},"vehicle_type_id":"4","last_reported":1767620007,"current_range_meters":7200,"station_id":"ce4bhf92rcd13ifvqf40","pricing_plan_id":"cebpf4jnsgd1na2vs0mg"},{"bike_id":"ac148974-ee63-4511-9513-af1eee66931e","system_id":"levelo_inurba_marseille","lat":43.30322,"lon":5.36906,"is_reserved":false,"is_disabled":false,"rental_uris":{"android":"levelo://app?vid=ac148974-ee63-4511-9513-af1eee66931e","ios":"levelo://app?vid=ac148974-ee63-4511-9513-af1eee66931e"},"vehicle_type_id":"4","last_reported":1767620007,"current_range_meters":7200,"station_id":"ce4bgqh2rcd13ifvqc5g","pricing_plan_id":"cebpf4jnsgd1na2vs0mg"},{"bike_id":"8ec64094-d70b-40bc-ace1-abe2d837fbf9","system_id":"levelo_inurba_marseille","lat":43.27054,"lon":5.40278,"is_reserved":false,"is_disabled":false,"rental_uris":{"android":"levelo://app?vid=8ec64094-d70b-40bc-ace1-abe2d837fbf9","ios":"levelo://app?vid=8ec64094-d70b-40bc-ace1-abe2d837fbf9"},"vehicle_type_id":"4","last_reported":1767620007,"current_range_meters":8000,"station_id":"ce4bhk92rcd13ifvqgc0","pricing_plan_id":"cebpf4jnsgd1na2vs0mg"},{"bike_id":"58aa433d-6523-48fb-83cc-9676ed151533","system_id":"levelo_inurba_marseille","lat":43.27916,"lon":5.39581,"is_reserved":false,"is_disabled":false,"rental_uris":{"android":"levelo://app?vid=58aa433d-6523-48fb-83cc-9676ed151533","ios":"levelo://app?vid=58aa433d-6523-48fb-83cc-9676ed151533"},"vehicle_type_id":"4","last_reported":1767620007,"current_range_meters":8000,"station_id":"ce4bhf92rcd13ifvqf40","pricing_plan_id":"cebpf4jnsgd1na2vs0mg"},{"bike_id":"4c45c742-3454-42f6-9f1e-3403337e4d53","system_id":"levelo_inurba_marseille","lat":43.28482,"lon":5.38425,"is_reserved":false,"is_disabled":false,"rental_uris":{"android":"levelo://app?vid=4c45c742-3454-42f6-9f1e-3403337e4d53","ios":"levelo://app?vid=4c45c742-3454-42f6-9f1e-3403337e4d53"},"vehicle_type_id":"4","last_reported":1767620007,"current_range_meters":8000,"station_id":"ce4bh512rcd13ifvqe3g","pricing_plan_id":"cebpf4jnsgd1na2vs0mg"},{"bike_id":"78b11bb5-5700-4fb6-b0c1-d37e13475e71","system_id":"levelo_inurba_marseille","lat":43.29386,"lon":5.37856,"is_reserved":false,"is_disabled":false,"rental_uris":{"android":"levelo://app?vid=78b11bb5-5700-4fb6-b0c1-d37e13475e71","ios":"levelo://app?vid=78b11bb5-5700-4fb6-b0c1-d37e13475e71"},"vehicle_type_id":"4","last_reported":1767620007,"current_range_meters":8000,"station_id":"ce4bgjh2rcd13ifvqbf0","pricing_plan_id":"cebpf4jnsgd1na2vs0mg"},{"bike_id":"6fc77415-c649-4769-8910-bd3b4dceb30b","system_id":"levelo_inurba_marseille","lat":43.24078,"lon":5.37752,"is_reserved":false,"is_disabled":false,"rental_uris":{"android":"levelo://app?vid=6fc77415-c649-4769-8910-bd3b4dceb30b","ios":"levelo://app?vid=6fc77415-c649-4769-8910-bd3b4dceb30b"},"vehicle_type_id":"4","last_reported":1767620007,"current_range_meters":8000,"station_id":"ce4bhnp2rcd13ifvqgvg","pricing_plan_id":"cebpf4jnsgd1na2vs0mg"},{"bike_id":"fe711f1b-2574-4e43-8e23-21465b534317","system_id":"levelo_inurba_marseille","lat":43.27071,"lon":5.4229,"is_reserved":false,"is_disabled":false,"rental_uris":{"android":"levelo://app?vid=fe711f1b-2574-4e43-8e23-21465b534317","ios":"levelo://app?vid=fe711f1b-2574-4e43-8e23-21465b534317"},"vehicle_type_id":"4","last_reported":1767620007,"current_range_meters":8000,"station_id":"ce4bhk92rcd13ifvqgb0","pricing_plan_id":"cebpf4jnsgd1na2vs0mg"},{"bike_id":"e3a366e7-432a-4c86-8fda-c24791fb1ce5","system_id":"levelo_inurba_marseille","lat":43.29796,"lon":5.37752,"is_reserved":false,"is_disabled":false,"rental_uris":{"android":"levelo://app?vid=e3a366e7-432a-4c86-8fda-c24791fb1ce5","ios":"levelo://app?vid=e3a366e7-432a-4c86-8fda-c24791fb1ce5"},"vehicle_type_id":"4","last_reported":1767620007,"current_range_meters":8000,"station_id":"","pricing_plan_id":"cebpf4jnsgd1na2vs0mg"},{"bike_id":"1e10dcce-a010-467a-a316-8a67faec7426","system_id":"levelo_inurba_marseille","lat":43.29741,"lon":5.42784,"is_reserved":false,"is_disabled":false,"rental_uris":{"android":"levelo://app?vid=1e10dcce-a010-467a-a316-8a67faec7426","ios":"levelo://app?vid=1e10dcce-a010-467a-a316-8a67faec7426"},"vehicle_type_id":"4","last_reported":1767620007,"current_range_meters":8000,"station_id":"st_d3md5207bmas73dh9klg","pricing_plan_id":"cebpf4jnsgd1na2vs0mg"},{"bike_id":"0bb50464-ce96-4c77-bc35-a36d4c839068","system_id":"levelo_inurba_marseille","lat":43.310759,"lon":5.38351,"is_reserved":false,"is_disabled":false,"rental_uris":{"android":"levelo://app?vid=0bb50464-ce96-4c77-bc35-a36d4c839068","ios":"levelo://app?vid=0bb50464-ce96-4c77-bc35-a36d4c839068"},"vehicle_type_id":"4","last_reported":1767620007,"current_range_meters":8000,"station_id":"ce4bguh2rcd13ifvqcj0","pricing_plan_id":"cebpf4jnsgd1na2vs0mg"},{"bike_id":"7409f8d2-dfa9-4964-9bc6-c3a46a1923df","system_id":"levelo_inurba_marseille","lat":43.27381,"lon":5.36257,"is_reserved":false,"is_disabled":false,"rental_uris":{"android":"levelo://app?vid=7409f8d2-dfa9-4964-9bc6-c3a46a1923df","ios":"levelo://app?vid=7409f8d2-dfa9-4964-9bc6-c3a46a1923df"},"vehicle_type_id":"4","last_reported":1767620007,"current_range_meters":8000,"station_id":"ce4bhbh2rcd13ifvqeo0","pricing_plan_id":"cebpf4jnsgd1na2vs0mg"},{"bike_id":"e5a92705-6f42-4511-9af8-f55fb26c0e79","system_id":"levelo_inurba_marseille","lat":43.28476,"lon":5.48375,"is_reserved":false,"is_disabled":false,"rental_uris":{"android":"levelo://app?vid=e5a92705-6f42-4511-9af8-f55fb26c0e79","ios":"levelo://app?vid=e5a92705-6f42-4511-9af8-f55fb26c0e79"},"vehicle_type_id":"4","last_reported":1767620007,"current_range_meters":8000,"station_id":"st_d3svhcjqgbts73a3dn0g","pricing_plan_id":"cebpf4jnsgd1na2vs0mg"},{"bike_id":"e07f8c6d-8378-4375-b7e7-2af3ff2d5151","system_id":"levelo_inurba_marseille","lat":43.21744,"lon":5.34603,"is_reserved":false,"is_disabled":false,"rental_uris":{"android":"levelo://app?vid=e07f8c6d-8378-4375-b7e7-2af3ff2d5151","ios":"levelo://app?vid=e07f8c6d-8378-4375-b7e7-2af3ff2d5151"},"vehicle_type_id":"4","last_reported":1767620007,"current_range_meters":8000,"station_id":"","pricing_plan_id":"cebpf4jnsgd1na2vs0mg"},{"bike_id":"7e3eed25-9bb0-4ebc-aaf9-d8b945bf7c6c","system_id":"levelo_inurba_marseille","lat":43.30933,"lon":5.38986,"is_reserved":false,"is_disabled":false,"rental_uris":{"android":"levelo://app?vid=7e3eed25-9bb0-4ebc-aaf9-d8b945bf7c6c","ios":"levelo://app?vid=7e3eed25-9bb0-4ebc-aaf9-d8b945bf7c6c"},"vehicle_type_id":"4","last_reported":1767620007,"current_range_meters":8000,"station_id":"ce4bgup2rcd13ifvqco0","pricing_plan_id":"cebpf4jnsgd1na2vs0mg"},{"bike_id":"491ebbc3-6236-4981-9221-f716603e4435","system_id":"levelo_inurba_marseille","lat":43.28919,"lon":5.38403,"is_reserved":false,"is_disabled":false,"rental_uris":{"android":"levelo://app?vid=491ebbc3-6236-4981-9221-f716603e4435","ios":"levelo://app?vid=491ebbc3-6236-4981-9221-f716603e4435"},"vehicle_type_id":"4","last_reported":1767620007,"current_range_meters":8400,"station_id":"ce4bh612rcd13ifvqe6g","pricing_plan_id":"cebpf4jnsgd1na2vs0mg"},{"bike_id":"e5080626-6fd3-465a-95fc-ffeeb81121ed","system_id":"levelo_inurba_marseille","lat":43.30566,"lon":5.36708,"is_reserved":false,"is_disabled":false,"rental_uris":{"android":"levelo://app?vid=e5080626-6fd3-465a-95fc-ffeeb81121ed","ios":"levelo://app?vid=e5080626-6fd3-465a-95fc-ffeeb81121ed"},"vehicle_type_id":"4","last_reported":1767620007,"current_range_meters":8400,"station_id":"ce4bgrp2rcd13ifvqc9g","pricing_plan_id":"cebpf4jnsgd1na2vs0mg"},{"bike_id":"f97c9d69-08f3-4e6e-837a-e318a0cb9742","system_id":"levelo_inurba_marseille","lat":43.29239,"lon":5.36859,"is_reserved":false,"is_disabled":false,"rental_uris":{"android":"levelo://app?vid=f97c9d69-08f3-4e6e-837a-e318a0cb9742","ios":"levelo://app?vid=f97c9d69-08f3-4e6e-837a-e318a0cb9742"},"vehicle_type_id":"4","last_reported":1767620007,"current_range_meters":8400,"station_id":"ce4bhbp2rcd13ifvqesg","pricing_plan_id":"cebpf4jnsgd1na2vs0mg"},{"bike_id":"3496ad41-5ff2-4122-a84c-0ba30d6c83cf","system_id":"levelo_inurba_marseille","lat":43.30956,"lon":5.39036,"is_reserved":false,"is_disabled":false,"rental_uris":{"android":"levelo://app?vid=3496ad41-5ff2-4122-a84c-0ba30d6c83cf","ios":"levelo://app?vid=3496ad41-5ff2-4122-a84c-0ba30d6c83cf"},"vehicle_type_id":"4","last_reported":1767620007,"current_range_meters":8400,"station_id":"ce4bgup2rcd13ifvqco0","pricing_plan_id":"cebpf4jnsgd1na2vs0mg"},{"bike_id":"00da6500-68b4-4b45-be1f-48d675212bd1","system_id":"levelo_inurba_marseille","lat":43.30537,"lon":5.3654,"is_reserved":false,"is_disabled":false,"rental_uris":{"android":"levelo://app?vid=00da6500-68b4-4b45-be1f-48d675212bd1","ios":"levelo://app?vid=00da6500-68b4-4b45-be1f-48d675212bd1"},"vehicle_type_id":"4","last_reported":1767620007,"current_range_meters":8400,"station_id":"ce4bgs12rcd13ifvqcag","pricing_plan_id":"cebpf4jnsgd1na2vs0mg"},{"bike_id":"139e13a1-e72b-4a5d-ab11-5f421c44da57","system_id":"levelo_inurba_marseille","lat":43.30384,"lon":5.42539,"is_reserved":false,"is_disabled":false,"rental_uris":{"android":"levelo://app?vid=139e13a1-e72b-4a5d-ab11-5f421c44da57","ios":"levelo://app?vid=139e13a1-e72b-4a5d-ab11-5f421c44da57"},"vehicle_type_id":"4","last_reported":1767620007,"current_range_meters":8400,"station_id":"","pricing_plan_id":"cebpf4jnsgd1na2vs0mg"},{"bike_id":"cfd96779-ac06-41e3-84f7-a5ca7fe9eaab","system_id":"levelo_inurba_marseille","lat":43.28489,"lon":5.48426,"is_reserved":false,"is_disabled":false,"rental_uris":{"android":"levelo://app?vid=cfd96779-ac06-41e3-84f7-a5ca7fe9eaab","ios":"levelo://app?vid=cfd96779-ac06-41e3-84f7-a5ca7fe9eaab"},"vehicle_type_id":"4","last_reported":1767620007,"current_range_meters":8400,"station_id":"","pricing_plan_id":"cebpf4jnsgd1na2vs0mg"},{"bike_id":"504c62db-8dc0-4d03-9c83-c1acce2e5fab","system_id":"levelo_inurba_marseille","lat":43.29147,"lon":5.37972,"is_reserved":false,"is_disabled":false,"rental_uris":{"android":"levelo://app?vid=504c62db-8dc0-4d03-9c83-c1acce2e5fab","ios":"levelo://app?vid=504c62db-8dc0-4d03-9c83-c1acce2e5fab"},"vehicle_type_id":"4","last_reported":1767620007,"current_range_meters":8400,"station_id":"","pricing_plan_id":"cebpf4jnsgd1na2vs0mg"},{"bike_id":"4bd23ea9-b05f-4fa4-b129-e810a0577ee2","system_id":"levelo_inurba_marseille","lat":43.29835,"lon":5.36272,"is_reserved":false,"is_disabled":false,"rental_uris":{"android":"levelo://app?vid=4bd23ea9-b05f-4fa4-b129-e810a0577ee2","ios":"levelo://app?vid=4bd23ea9-b05f-4fa4-b129-e810a0577ee2"},"vehicle_type_id":"4","last_reported":1767620007,"current_range_meters":8400,"station_id":"ce4bgpp2rcd13ifvqc3g","pricing_plan_id":"cebpf4jnsgd1na2vs0mg"},{"bike_id":"49a70347-36ae-4442-a0c3-32c4ed4b4ff4","system_id":"levelo_inurba_marseille","lat":43.28856,"lon":5.42524,"is_reserved":false,"is_disabled":false,"rental_uris":{"android":"levelo://app?vid=49a70347-36ae-4442-a0c3-32c4ed4b4ff4","ios":"levelo://app?vid=49a70347-36ae-4442-a0c3-32c4ed4b4ff4"},"vehicle_type_id":"4","last_reported":1767620007,"current_range_meters":8800,"station_id":"st_d3b462108ojc7389ooeg","pricing_plan_id":"cebpf4jnsgd1na2vs0mg"},{"bike_id":"dca9a712-a982-44b1-8cbd-17efb24372eb","system_id":"levelo_inurba_marseille","lat":43.30186,"lon":5.36611,"is_reserved":false,"is_disabled":false,"rental_uris":{"android":"levelo://app?vid=dca9a712-a982-44b1-8cbd-17efb24372eb","ios":"levelo://app?vid=dca9a712-a982-44b1-8cbd-17efb24372eb"},"vehicle_type_id":"4","last_reported":1767620007,"current_range_meters":8800,"station_id":"ce4bgrh2rcd13ifvqc8g","pricing_plan_id":"cebpf4jnsgd1na2vs0mg"},{"bike_id":"363d24ec-7f56-48ba-afb4-d6a61684329e","system_id":"levelo_inurba_marseille","lat":43.304887,"lon":5.41061,"is_reserved":false,"is_disabled":false,"rental_uris":{"android":"levelo://app?vid=363d24ec-7f56-48ba-afb4-d6a61684329e","ios":"levelo://app?vid=363d24ec-7f56-48ba-afb4-d6a61684329e"},"vehicle_type_id":"4","last_reported":1767620007,"current_range_meters":8800,"station_id":"","pricing_plan_id":"cebpf4jnsgd1na2vs0mg"},{"bike_id":"2ad11e8b-6525-4219-97fa-e942c570f9bd","system_id":"levelo_inurba_marseille","lat":43.27061,"lon":5.38298,"is_reserved":false,"is_disabled":false,"rental_uris":{"android":"levelo://app?vid=2ad11e8b-6525-4219-97fa-e942c570f9bd","ios":"levelo://app?vid=2ad11e8b-6525-4219-97fa-e942c570f9bd"},"vehicle_type_id":"4","last_reported":1767620007,"current_range_meters":8800,"station_id":"st_d3n2fo6cfp8s73cte1j0","pricing_plan_id":"cebpf4jnsgd1na2vs0mg"},{"bike_id":"0f7eefdf-8972-4dc8-89aa-952cc1944736","system_id":"levelo_inurba_marseille","lat":43.27818,"lon":5.40712,"is_reserved":false,"is_disabled":false,"rental_uris":{"android":"levelo://app?vid=0f7eefdf-8972-4dc8-89aa-952cc1944736","ios":"levelo://app?vid=0f7eefdf-8972-4dc8-89aa-952cc1944736"},"vehicle_type_id":"4","last_reported":1767620007,"current_range_meters":8800,"station_id":"ce4bhnh2rcd13ifvqgtg","pricing_plan_id":"cebpf4jnsgd1na2vs0mg"},{"bike_id":"36f52a25-667e-4447-a2b7-93404b2c3c9a","system_id":"levelo_inurba_marseille","lat":43.28459,"lon":5.38412,"is_reserved":false,"is_disabled":false,"rental_uris":{"android":"levelo://app?vid=36f52a25-667e-4447-a2b7-93404b2c3c9a","ios":"levelo://app?vid=36f52a25-667e-4447-a2b7-93404b2c3c9a"},"vehicle_type_id":"4","last_reported":1767620007,"current_range_meters":8800,"station_id":"ce4bh512rcd13ifvqe3g","pricing_plan_id":"cebpf4jnsgd1na2vs0mg"},{"bike_id":"246c6b83-d7eb-487f-b32f-aeb3bf09ab9b","system_id":"levelo_inurba_marseille","lat":43.27424,"lon":5.3939,"is_reserved":false,"is_disabled":false,"rental_uris":{"android":"levelo://app?vid=246c6b83-d7eb-487f-b32f-aeb3bf09ab9b","ios":"levelo://app?vid=246c6b83-d7eb-487f-b32f-aeb3bf09ab9b"},"vehicle_type_id":"4","last_reported":1767620007,"current_range_meters":8800,"station_id":"ce4bhdp2rcd13ifvqf20","pricing_plan_id":"cebpf4jnsgd1na2vs0mg"},{"bike_id":"fb8690e4-7bf8-40b2-86ae-cc6b72716ee9","system_id":"levelo_inurba_marseille","lat":43.292694,"lon":5.368522,"is_reserved":false,"is_disabled":false,"rental_uris":{"android":"levelo://app?vid=fb8690e4-7bf8-40b2-86ae-cc6b72716ee9","ios":"levelo://app?vid=fb8690e4-7bf8-40b2-86ae-cc6b72716ee9"},"vehicle_type_id":"4","last_reported":1767620007,"current_range_meters":8800,"station_id":"ce4bhbp2rcd13ifvqesg","pricing_plan_id":"cebpf4jnsgd1na2vs0mg"},{"bike_id":"adc3374b-4e46-4a5f-b4df-6893505392c1","system_id":"levelo_inurba_marseille","lat":43.292755,"lon":5.401238,"is_reserved":false,"is_disabled":false,"rental_uris":{"android":"levelo://app?vid=adc3374b-4e46-4a5f-b4df-6893505392c1","ios":"levelo://app?vid=adc3374b-4e46-4a5f-b4df-6893505392c1"},"vehicle_type_id":"4","last_reported":1767620007,"current_range_meters":8800,"station_id":"ce4bh312rcd13ifvqdk0","pricing_plan_id":"cebpf4jnsgd1na2vs0mg"},{"bike_id":"fde24df3-addb-4a7b-b0e7-f2e289c22e5d","system_id":"levelo_inurba_marseille","lat":43.31028,"lon":5.39337,"is_reserved":false,"is_disabled":false,"rental_uris":{"android":"levelo://app?vid=fde24df3-addb-4a7b-b0e7-f2e289c22e5d","ios":"levelo://app?vid=fde24df3-addb-4a7b-b0e7-f2e289c22e5d"},"vehicle_type_id":"4","last_reported":1767620007,"current_range_meters":8800,"station_id":"","pricing_plan_id":"cebpf4jnsgd1na2vs0mg"},{"bike_id":"7d36967b-8ce1-41f9-868f-3636826c49a4","system_id":"levelo_inurba_marseille","lat":43.33144,"lon":5.37698,"is_reserved":false,"is_disabled":false,"rental_uris":{"android":"levelo://app?vid=7d36967b-8ce1-41f9-868f-3636826c49a4","ios":"levelo://app?vid=7d36967b-8ce1-41f9-868f-3636826c49a4"},"vehicle_type_id":"4","last_reported":1767620007,"current_range_meters":8800,"station_id":"st_d46cu089ee8s73dldbu0","pricing_plan_id":"cebpf4jnsgd1na2vs0mg"},{"bike_id":"56283a84-64b4-47ec-8753-0377935a2d48","system_id":"levelo_inurba_marseille","lat":43.27493,"lon":5.42447,"is_reserved":false,"is_disabled":false,"rental_uris":{"android":"levelo://app?vid=56283a84-64b4-47ec-8753-0377935a2d48","ios":"levelo://app?vid=56283a84-64b4-47ec-8753-0377935a2d48"},"vehicle_type_id":"4","last_reported":1767620007,"current_range_meters":8800,"station_id":"ce4bhn92rcd13ifvqgrg","pricing_plan_id":"cebpf4jnsgd1na2vs0mg"},{"bike_id":"531ba190-2d4e-4722-99ab-7185252e6433","system_id":"levelo_inurba_marseille","lat":43.22557,"lon":5.41632,"is_reserved":false,"is_disabled":false,"rental_uris":{"android":"levelo://app?vid=531ba190-2d4e-4722-99ab-7185252e6433","ios":"levelo://app?vid=531ba190-2d4e-4722-99ab-7185252e6433"},"vehicle_type_id":"4","last_reported":1767620007,"current_range_meters":8800,"station_id":"st_d2o4gvlbi1j2169b742g","pricing_plan_id":"cebpf4jnsgd1na2vs0mg"},{"bike_id":"6978fec3-7553-4c88-b8a0-53d7a29ef142","system_id":"levelo_inurba_marseille","lat":43.26283,"lon":5.39781,"is_reserved":false,"is_disabled":false,"rental_uris":{"android":"levelo://app?vid=6978fec3-7553-4c88-b8a0-53d7a29ef142","ios":"levelo://app?vid=6978fec3-7553-4c88-b8a0-53d7a29ef142"},"vehicle_type_id":"4","last_reported":1767620007,"current_range_meters":8800,"station_id":"","pricing_plan_id":"cebpf4jnsgd1na2vs0mg"},{"bike_id":"4fbca29d-741e-4ea2-8642-fc6ee9342350","system_id":"levelo_inurba_marseille","lat":43.25932,"lon":5.40902,"is_reserved":false,"is_disabled":false,"rental_uris":{"android":"levelo://app?vid=4fbca29d-741e-4ea2-8642-fc6ee9342350","ios":"levelo://app?vid=4fbca29d-741e-4ea2-8642-fc6ee9342350"},"vehicle_type_id":"4","last_reported":1767620007,"current_range_meters":8800,"station_id":"ce4bhm92rcd13ifvqglg","pricing_plan_id":"cebpf4jnsgd1na2vs0mg"},{"bike_id":"8f968c9d-e057-45ea-898c-8595b6240a39","system_id":"levelo_inurba_marseille","lat":43.29743,"lon":5.37921,"is_reserved":false,"is_disabled":false,"rental_uris":{"android":"levelo://app?vid=8f968c9d-e057-45ea-898c-8595b6240a39","ios":"levelo://app?vid=8f968c9d-e057-45ea-898c-8595b6240a39"},"vehicle_type_id":"4","last_reported":1767620007,"current_range_meters":9200,"station_id":"","pricing_plan_id":"cebpf4jnsgd1na2vs0mg"},{"bike_id":"da033954-77a4-4a42-af93-ddd0b90806cb","system_id":"levelo_inurba_marseille","lat":43.31286,"lon":5.37386,"is_reserved":false,"is_disabled":false,"rental_uris":{"android":"levelo://app?vid=da033954-77a4-4a42-af93-ddd0b90806cb","ios":"levelo://app?vid=da033954-77a4-4a42-af93-ddd0b90806cb"},"vehicle_type_id":"4","last_reported":1767620007,"current_range_meters":9200,"station_id":"","pricing_plan_id":"cebpf4jnsgd1na2vs0mg"},{"bike_id":"ad886984-2c60-4bbf-87ae-5863c4c31ed7","system_id":"levelo_inurba_marseille","lat":43.29622,"lon":5.37175,"is_reserved":false,"is_disabled":false,"rental_uris":{"android":"levelo://app?vid=ad886984-2c60-4bbf-87ae-5863c4c31ed7","ios":"levelo://app?vid=ad886984-2c60-4bbf-87ae-5863c4c31ed7"},"vehicle_type_id":"4","last_reported":1767620007,"current_range_meters":9200,"station_id":"ce4bgnh2rcd13ifvqc0g","pricing_plan_id":"cebpf4jnsgd1na2vs0mg"},{"bike_id":"d82bb0e5-290e-412a-8a0d-b5c3858cfef1","system_id":"levelo_inurba_marseille","lat":43.255014,"lon":5.376497,"is_reserved":false,"is_disabled":false,"rental_uris":{"android":"levelo://app?vid=d82bb0e5-290e-412a-8a0d-b5c3858cfef1","ios":"levelo://app?vid=d82bb0e5-290e-412a-8a0d-b5c3858cfef1"},"vehicle_type_id":"4","last_reported":1767620007,"current_range_meters":9200,"station_id":"ce4bhh12rcd13ifvqff0","pricing_plan_id":"cebpf4jnsgd1na2vs0mg"},{"bike_id":"b653fbd4-7886-4bb6-bacf-cc2077001c84","system_id":"levelo_inurba_marseille","lat":43.3054,"lon":5.36703,"is_reserved":false,"is_disabled":false,"rental_uris":{"android":"levelo://app?vid=b653fbd4-7886-4bb6-bacf-cc2077001c84","ios":"levelo://app?vid=b653fbd4-7886-4bb6-bacf-cc2077001c84"},"vehicle_type_id":"4","last_reported":1767620007,"current_range_meters":9200,"station_id":"ce4bgrp2rcd13ifvqc9g","pricing_plan_id":"cebpf4jnsgd1na2vs0mg"},{"bike_id":"1e8f5205-973a-43e9-90dc-afde1e68dc83","system_id":"levelo_inurba_marseille","lat":43.31053,"lon":5.4007,"is_reserved":false,"is_disabled":false,"rental_uris":{"android":"levelo://app?vid=1e8f5205-973a-43e9-90dc-afde1e68dc83","ios":"levelo://app?vid=1e8f5205-973a-43e9-90dc-afde1e68dc83"},"vehicle_type_id":"4","last_reported":1767620007,"current_range_meters":9200,"station_id":"","pricing_plan_id":"cebpf4jnsgd1na2vs0mg"},{"bike_id":"bc575240-f078-42d7-ac2c-81598de7e6ab","system_id":"levelo_inurba_marseille","lat":43.24436,"lon":5.37471,"is_reserved":false,"is_disabled":false,"rental_uris":{"android":"levelo://app?vid=bc575240-f078-42d7-ac2c-81598de7e6ab","ios":"levelo://app?vid=bc575240-f078-42d7-ac2c-81598de7e6ab"},"vehicle_type_id":"4","last_reported":1767620007,"current_range_meters":9200,"station_id":"","pricing_plan_id":"cebpf4jnsgd1na2vs0mg"},{"bike_id":"a8b91a21-491d-49cd-b1d6-4312ab43cde2","system_id":"levelo_inurba_marseille","lat":43.29592,"lon":5.37517,"is_reserved":false,"is_disabled":false,"rental_uris":{"android":"levelo://app?vid=a8b91a21-491d-49cd-b1d6-4312ab43cde2","ios":"levelo://app?vid=a8b91a21-491d-49cd-b1d6-4312ab43cde2"},"vehicle_type_id":"4","last_reported":1767620007,"current_range_meters":9200,"station_id":"ce4bgh92rcd13ifvqb50","pricing_plan_id":"cebpf4jnsgd1na2vs0mg"},{"bike_id":"150aba92-ff82-4e7d-aa4f-4d9583997907","system_id":"levelo_inurba_marseille","lat":43.2293,"lon":5.35377,"is_reserved":false,"is_disabled":false,"rental_uris":{"android":"levelo://app?vid=150aba92-ff82-4e7d-aa4f-4d9583997907","ios":"levelo://app?vid=150aba92-ff82-4e7d-aa4f-4d9583997907"},"vehicle_type_id":"4","last_reported":1767620007,"current_range_meters":9200,"station_id":"cpo3532slgdg3j2ikp40","pricing_plan_id":"cebpf4jnsgd1na2vs0mg"},{"bike_id":"00ba1c8b-d66b-4b71-bb0f-76f9ad8f50a1","system_id":"levelo_inurba_marseille","lat":43.24539,"lon":5.39528,"is_reserved":false,"is_disabled":false,"rental_uris":{"android":"levelo://app?vid=00ba1c8b-d66b-4b71-bb0f-76f9ad8f50a1","ios":"levelo://app?vid=00ba1c8b-d66b-4b71-bb0f-76f9ad8f50a1"},"vehicle_type_id":"4","last_reported":1767620007,"current_range_meters":9200,"station_id":"ce4bhlp2rcd13ifvqgjg","pricing_plan_id":"cebpf4jnsgd1na2vs0mg"},{"bike_id":"bd639949-83f4-4d95-8db0-792fa45fa6e8","system_id":"levelo_inurba_marseille","lat":43.29578,"lon":5.3674,"is_reserved":false,"is_disabled":false,"rental_uris":{"android":"levelo://app?vid=bd639949-83f4-4d95-8db0-792fa45fa6e8","ios":"levelo://app?vid=bd639949-83f4-4d95-8db0-792fa45fa6e8"},"vehicle_type_id":"4","last_reported":1767620007,"current_range_meters":9200,"station_id":"ce4bgph2rcd13ifvqc2g","pricing_plan_id":"cebpf4jnsgd1na2vs0mg"},{"bike_id":"3e721720-c61d-4b7b-ac83-d333b27204a1","system_id":"levelo_inurba_marseille","lat":43.29034,"lon":5.37587,"is_reserved":false,"is_disabled":false,"rental_uris":{"android":"levelo://app?vid=3e721720-c61d-4b7b-ac83-d333b27204a1","ios":"levelo://app?vid=3e721720-c61d-4b7b-ac83-d333b27204a1"},"vehicle_type_id":"4","last_reported":1767620007,"current_range_meters":9200,"station_id":"ce4bh692rcd13ifvqe90","pricing_plan_id":"cebpf4jnsgd1na2vs0mg"},{"bike_id":"7c66cd5b-1ea7-4bc0-8234-30b50d6f8f8b","system_id":"levelo_inurba_marseille","lat":43.33146,"lon":5.37696,"is_reserved":false,"is_disabled":false,"rental_uris":{"android":"levelo://app?vid=7c66cd5b-1ea7-4bc0-8234-30b50d6f8f8b","ios":"levelo://app?vid=7c66cd5b-1ea7-4bc0-8234-30b50d6f8f8b"},"vehicle_type_id":"4","last_reported":1767620007,"current_range_meters":9200,"station_id":"st_d46cu089ee8s73dldbu0","pricing_plan_id":"cebpf4jnsgd1na2vs0mg"},{"bike_id":"9645f65a-5cc6-494d-89f5-c60be2e5f5fe","system_id":"levelo_inurba_marseille","lat":43.313553,"lon":5.367027,"is_reserved":false,"is_disabled":false,"rental_uris":{"android":"levelo://app?vid=9645f65a-5cc6-494d-89f5-c60be2e5f5fe","ios":"levelo://app?vid=9645f65a-5cc6-494d-89f5-c60be2e5f5fe"},"vehicle_type_id":"4","last_reported":1767620007,"current_range_meters":9200,"station_id":"ce4bgr92rcd13ifvqc6g","pricing_plan_id":"cebpf4jnsgd1na2vs0mg"},{"bike_id":"393d16b6-aa40-4c9c-b0ef-0e58bbbd5dc9","system_id":"levelo_inurba_marseille","lat":43.28725,"lon":5.37938,"is_reserved":false,"is_disabled":false,"rental_uris":{"android":"levelo://app?vid=393d16b6-aa40-4c9c-b0ef-0e58bbbd5dc9","ios":"levelo://app?vid=393d16b6-aa40-4c9c-b0ef-0e58bbbd5dc9"},"vehicle_type_id":"4","last_reported":1767620007,"current_range_meters":9200,"station_id":"ce4bh9p2rcd13ifvqec0","pricing_plan_id":"cebpf4jnsgd1na2vs0mg"},{"bike_id":"07aaedd9-39b3-479f-aca6-187e28ac0d7c","system_id":"levelo_inurba_marseille","lat":43.30186,"lon":5.36619,"is_reserved":false,"is_disabled":false,"rental_uris":{"android":"levelo://app?vid=07aaedd9-39b3-479f-aca6-187e28ac0d7c","ios":"levelo://app?vid=07aaedd9-39b3-479f-aca6-187e28ac0d7c"},"vehicle_type_id":"4","last_reported":1767620007,"current_range_meters":9200,"station_id":"ce4bgrh2rcd13ifvqc8g","pricing_plan_id":"cebpf4jnsgd1na2vs0mg"},{"bike_id":"df3c4b66-71fa-4ad7-a876-52e380b02189","system_id":"levelo_inurba_marseille","lat":43.29578,"lon":5.36738,"is_reserved":false,"is_disabled":false,"rental_uris":{"android":"levelo://app?vid=df3c4b66-71fa-4ad7-a876-52e380b02189","ios":"levelo://app?vid=df3c4b66-71fa-4ad7-a876-52e380b02189"},"vehicle_type_id":"4","last_reported":1767620007,"current_range_meters":9200,"station_id":"ce4bgph2rcd13ifvqc2g","pricing_plan_id":"cebpf4jnsgd1na2vs0mg"},{"bike_id":"d536410a-8e4a-4b1a-8c3f-49567ff34598","system_id":"levelo_inurba_marseille","lat":43.28936,"lon":5.36632,"is_reserved":false,"is_disabled":false,"rental_uris":{"android":"levelo://app?vid=d536410a-8e4a-4b1a-8c3f-49567ff34598","ios":"levelo://app?vid=d536410a-8e4a-4b1a-8c3f-49567ff34598"},"vehicle_type_id":"4","last_reported":1767620007,"current_range_meters":9200,"station_id":"ce4bhap2rcd13ifvqek0","pricing_plan_id":"cebpf4jnsgd1na2vs0mg"},{"bike_id":"5b771934-e46a-4921-a622-ed79c3db46d7","system_id":"levelo_inurba_marseille","lat":43.27496,"lon":5.42452,"is_reserved":false,"is_disabled":false,"rental_uris":{"android":"levelo://app?vid=5b771934-e46a-4921-a622-ed79c3db46d7","ios":"levelo://app?vid=5b771934-e46a-4921-a622-ed79c3db46d7"},"vehicle_type_id":"4","last_reported":1767620007,"current_range_meters":9200,"station_id":"ce4bhn92rcd13ifvqgrg","pricing_plan_id":"cebpf4jnsgd1na2vs0mg"},{"bike_id":"ec8adf02-88a4-4e94-91e9-5a413ac8f5b2","system_id":"levelo_inurba_marseille","lat":43.30137,"lon":5.37422,"is_reserved":false,"is_disabled":false,"rental_uris":{"android":"levelo://app?vid=ec8adf02-88a4-4e94-91e9-5a413ac8f5b2","ios":"levelo://app?vid=ec8adf02-88a4-4e94-91e9-5a413ac8f5b2"},"vehicle_type_id":"4","last_reported":1767620007,"current_range_meters":9600,"station_id":"ce4bgs92rcd13ifvqcc0","pricing_plan_id":"cebpf4jnsgd1na2vs0mg"},{"bike_id":"620a59cc-fa93-4f07-8eec-401b339b0dcd","system_id":"levelo_inurba_marseille","lat":43.30546,"lon":5.3671,"is_reserved":false,"is_disabled":false,"rental_uris":{"android":"levelo://app?vid=620a59cc-fa93-4f07-8eec-401b339b0dcd","ios":"levelo://app?vid=620a59cc-fa93-4f07-8eec-401b339b0dcd"},"vehicle_type_id":"4","last_reported":1767620007,"current_range_meters":9600,"station_id":"ce4bgrp2rcd13ifvqc9g","pricing_plan_id":"cebpf4jnsgd1na2vs0mg"},{"bike_id":"4baf63da-84f7-45a9-8f56-c92cea669a71","system_id":"levelo_inurba_marseille","lat":43.30158,"lon":5.37397,"is_reserved":false,"is_disabled":false,"rental_uris":{"android":"levelo://app?vid=4baf63da-84f7-45a9-8f56-c92cea669a71","ios":"levelo://app?vid=4baf63da-84f7-45a9-8f56-c92cea669a71"},"vehicle_type_id":"4","last_reported":1767620007,"current_range_meters":9600,"station_id":"ce4bgs92rcd13ifvqcc0","pricing_plan_id":"cebpf4jnsgd1na2vs0mg"},{"bike_id":"8e408ba0-2118-43f7-a8ba-d277410a9103","system_id":"levelo_inurba_marseille","lat":43.31344,"lon":5.37102,"is_reserved":false,"is_disabled":false,"rental_uris":{"android":"levelo://app?vid=8e408ba0-2118-43f7-a8ba-d277410a9103","ios":"levelo://app?vid=8e408ba0-2118-43f7-a8ba-d277410a9103"},"vehicle_type_id":"4","last_reported":1767620007,"current_range_meters":9600,"station_id":"","pricing_plan_id":"cebpf4jnsgd1na2vs0mg"},{"bike_id":"92e4abc7-533f-433e-ab3f-93575ce3bab3","system_id":"levelo_inurba_marseille","lat":43.29977,"lon":5.37175,"is_reserved":false,"is_disabled":false,"rental_uris":{"android":"levelo://app?vid=92e4abc7-533f-433e-ab3f-93575ce3bab3","ios":"levelo://app?vid=92e4abc7-533f-433e-ab3f-93575ce3bab3"},"vehicle_type_id":"4","last_reported":1767620007,"current_range_meters":9600,"station_id":"ce4bgr92rcd13ifvqc7g","pricing_plan_id":"cebpf4jnsgd1na2vs0mg"},{"bike_id":"06e5dfea-b98d-4576-be50-c9552c918ee8","system_id":"levelo_inurba_marseille","lat":43.23794,"lon":5.36639,"is_reserved":false,"is_disabled":false,"rental_uris":{"android":"levelo://app?vid=06e5dfea-b98d-4576-be50-c9552c918ee8","ios":"levelo://app?vid=06e5dfea-b98d-4576-be50-c9552c918ee8"},"vehicle_type_id":"4","last_reported":1767620007,"current_range_meters":9600,"station_id":"st_d3nk18o9ro0c73en2l3g","pricing_plan_id":"cebpf4jnsgd1na2vs0mg"},{"bike_id":"806adb41-0012-4142-b9ab-4360720aaea4","system_id":"levelo_inurba_marseille","lat":43.2408,"lon":5.37764,"is_reserved":false,"is_disabled":false,"rental_uris":{"android":"levelo://app?vid=806adb41-0012-4142-b9ab-4360720aaea4","ios":"levelo://app?vid=806adb41-0012-4142-b9ab-4360720aaea4"},"vehicle_type_id":"4","last_reported":1767620007,"current_range_meters":9600,"station_id":"ce4bhnp2rcd13ifvqgvg","pricing_plan_id":"cebpf4jnsgd1na2vs0mg"},{"bike_id":"355c1d25-ff0d-43f2-abc7-da11db998286","system_id":"levelo_inurba_marseille","lat":43.23191,"lon":5.35562,"is_reserved":false,"is_disabled":false,"rental_uris":{"android":"levelo://app?vid=355c1d25-ff0d-43f2-abc7-da11db998286","ios":"levelo://app?vid=355c1d25-ff0d-43f2-abc7-da11db998286"},"vehicle_type_id":"4","last_reported":1767620007,"current_range_meters":9600,"station_id":"ce4bhu92rcd13ifvqi70","pricing_plan_id":"cebpf4jnsgd1na2vs0mg"},{"bike_id":"6d144e18-c317-45d2-a70f-5ce6eec5adda","system_id":"levelo_inurba_marseille","lat":43.26707,"lon":5.40225,"is_reserved":false,"is_disabled":false,"rental_uris":{"android":"levelo://app?vid=6d144e18-c317-45d2-a70f-5ce6eec5adda","ios":"levelo://app?vid=6d144e18-c317-45d2-a70f-5ce6eec5adda"},"vehicle_type_id":"4","last_reported":1767620007,"current_range_meters":9600,"station_id":"","pricing_plan_id":"cebpf4jnsgd1na2vs0mg"},{"bike_id":"2375141c-46f9-4ef6-890b-4fbb983a553c","system_id":"levelo_inurba_marseille","lat":43.29319,"lon":5.37192,"is_reserved":false,"is_disabled":true,"rental_uris":{"android":"levelo://app?vid=2375141c-46f9-4ef6-890b-4fbb983a553c","ios":"levelo://app?vid=2375141c-46f9-4ef6-890b-4fbb983a553c"},"vehicle_type_id":"4","last_reported":1767620007,"current_range_meters":9600,"station_id":"ce4bgh92rcd13ifvqb40","pricing_plan_id":"cebpf4jnsgd1na2vs0mg"},{"bike_id":"7b6f4e4a-6f47-4be0-8ae0-ee773ca45655","system_id":"levelo_inurba_marseille","lat":43.29571,"lon":5.3753,"is_reserved":false,"is_disabled":false,"rental_uris":{"android":"levelo://app?vid=7b6f4e4a-6f47-4be0-8ae0-ee773ca45655","ios":"levelo://app?vid=7b6f4e4a-6f47-4be0-8ae0-ee773ca45655"},"vehicle_type_id":"4","last_reported":1767620007,"current_range_meters":9600,"station_id":"ce4bgh92rcd13ifvqb50","pricing_plan_id":"cebpf4jnsgd1na2vs0mg"},{"bike_id":"7f0effc9-a455-4ad1-9f50-585d68dccc8b","system_id":"levelo_inurba_marseille","lat":43.288131,"lon":5.363781,"is_reserved":false,"is_disabled":false,"rental_uris":{"android":"levelo://app?vid=7f0effc9-a455-4ad1-9f50-585d68dccc8b","ios":"levelo://app?vid=7f0effc9-a455-4ad1-9f50-585d68dccc8b"},"vehicle_type_id":"4","last_reported":1767620007,"current_range_meters":9600,"station_id":"","pricing_plan_id":"cebpf4jnsgd1na2vs0mg"},{"bike_id":"3f40a5f2-fac1-4f8c-b601-5ab221d91cf7","system_id":"levelo_inurba_marseille","lat":43.27425,"lon":5.39412,"is_reserved":false,"is_disabled":false,"rental_uris":{"android":"levelo://app?vid=3f40a5f2-fac1-4f8c-b601-5ab221d91cf7","ios":"levelo://app?vid=3f40a5f2-fac1-4f8c-b601-5ab221d91cf7"},"vehicle_type_id":"4","last_reported":1767620007,"current_range_meters":9600,"station_id":"ce4bhdp2rcd13ifvqf20","pricing_plan_id":"cebpf4jnsgd1na2vs0mg"},{"bike_id":"1ae92490-659a-4b31-9282-3be4a846553c","system_id":"levelo_inurba_marseille","lat":43.3169,"lon":5.39851,"is_reserved":false,"is_disabled":false,"rental_uris":{"android":"levelo://app?vid=1ae92490-659a-4b31-9282-3be4a846553c","ios":"levelo://app?vid=1ae92490-659a-4b31-9282-3be4a846553c"},"vehicle_type_id":"4","last_reported":1767620007,"current_range_meters":9600,"station_id":"","pricing_plan_id":"cebpf4jnsgd1na2vs0mg"},{"bike_id":"5eb9d049-497c-49ad-9dab-0cd5459065b5","system_id":"levelo_inurba_marseille","lat":43.28468,"lon":5.38415,"is_reserved":false,"is_disabled":false,"rental_uris":{"android":"levelo://app?vid=5eb9d049-497c-49ad-9dab-0cd5459065b5","ios":"levelo://app?vid=5eb9d049-497c-49ad-9dab-0cd5459065b5"},"vehicle_type_id":"4","last_reported":1767620007,"current_range_meters":9600,"station_id":"ce4bh512rcd13ifvqe3g","pricing_plan_id":"cebpf4jnsgd1na2vs0mg"},{"bike_id":"3b5c8451-e102-4ec6-a071-5a427e0c1950","system_id":"levelo_inurba_marseille","lat":43.32448,"lon":5.36633,"is_reserved":false,"is_disabled":false,"rental_uris":{"android":"levelo://app?vid=3b5c8451-e102-4ec6-a071-5a427e0c1950","ios":"levelo://app?vid=3b5c8451-e102-4ec6-a071-5a427e0c1950"},"vehicle_type_id":"4","last_reported":1767620007,"current_range_meters":9600,"station_id":"","pricing_plan_id":"cebpf4jnsgd1na2vs0mg"},{"bike_id":"3a8eae66-603b-4cc6-a47a-5e999d573fad","system_id":"levelo_inurba_marseille","lat":43.27013,"lon":5.3874,"is_reserved":false,"is_disabled":false,"rental_uris":{"android":"levelo://app?vid=3a8eae66-603b-4cc6-a47a-5e999d573fad","ios":"levelo://app?vid=3a8eae66-603b-4cc6-a47a-5e999d573fad"},"vehicle_type_id":"4","last_reported":1767620007,"current_range_meters":9600,"station_id":"","pricing_plan_id":"cebpf4jnsgd1na2vs0mg"},{"bike_id":"7fb60e4c-351d-4c82-b949-05a0c6795968","system_id":"levelo_inurba_marseille","lat":43.29994,"lon":5.37143,"is_reserved":false,"is_disabled":false,"rental_uris":{"android":"levelo://app?vid=7fb60e4c-351d-4c82-b949-05a0c6795968","ios":"levelo://app?vid=7fb60e4c-351d-4c82-b949-05a0c6795968"},"vehicle_type_id":"4","last_reported":1767620007,"current_range_meters":9600,"station_id":"ce4bgr92rcd13ifvqc7g","pricing_plan_id":"cebpf4jnsgd1na2vs0mg"},{"bike_id":"9aeff4f3-8c72-44fc-a1b4-b7489454ecdd","system_id":"levelo_inurba_marseille","lat":43.23783,"lon":5.36627,"is_reserved":false,"is_disabled":false,"rental_uris":{"android":"levelo://app?vid=9aeff4f3-8c72-44fc-a1b4-b7489454ecdd","ios":"levelo://app?vid=9aeff4f3-8c72-44fc-a1b4-b7489454ecdd"},"vehicle_type_id":"4","last_reported":1767620007,"current_range_meters":9600,"station_id":"st_d3nk18o9ro0c73en2l3g","pricing_plan_id":"cebpf4jnsgd1na2vs0mg"},{"bike_id":"844ce491-3052-43ea-9f5f-09ac75c60eed","system_id":"levelo_inurba_marseille","lat":43.291,"lon":5.38136,"is_reserved":false,"is_disabled":false,"rental_uris":{"android":"levelo://app?vid=844ce491-3052-43ea-9f5f-09ac75c60eed","ios":"levelo://app?vid=844ce491-3052-43ea-9f5f-09ac75c60eed"},"vehicle_type_id":"4","last_reported":1767620007,"current_range_meters":9600,"station_id":"ce4bh512rcd13ifvqe2g","pricing_plan_id":"cebpf4jnsgd1na2vs0mg"},{"bike_id":"6f46e1b4-663e-4c43-9cc4-4c8a983f164f","system_id":"levelo_inurba_marseille","lat":43.23147,"lon":5.43717,"is_reserved":false,"is_disabled":false,"rental_uris":{"android":"levelo://app?vid=6f46e1b4-663e-4c43-9cc4-4c8a983f164f","ios":"levelo://app?vid=6f46e1b4-663e-4c43-9cc4-4c8a983f164f"},"vehicle_type_id":"4","last_reported":1767620007,"current_range_meters":9600,"station_id":"ce4bhmp2rcd13ifvqgog","pricing_plan_id":"cebpf4jnsgd1na2vs0mg"},{"bike_id":"ead17b0d-c1d9-42f2-8002-9772bb15147b","system_id":"levelo_inurba_marseille","lat":43.28664,"lon":5.36356,"is_reserved":false,"is_disabled":false,"rental_uris":{"android":"levelo://app?vid=ead17b0d-c1d9-42f2-8002-9772bb15147b","ios":"levelo://app?vid=ead17b0d-c1d9-42f2-8002-9772bb15147b"},"vehicle_type_id":"4","last_reported":1767620007,"current_range_meters":9600,"station_id":"ce4bhah2rcd13ifvqej0","pricing_plan_id":"cebpf4jnsgd1na2vs0mg"},{"bike_id":"5ea8c758-8d88-4a0d-8adf-3234df9934ae","system_id":"levelo_inurba_marseille","lat":43.29768,"lon":5.37748,"is_reserved":false,"is_disabled":false,"rental_uris":{"android":"levelo://app?vid=5ea8c758-8d88-4a0d-8adf-3234df9934ae","ios":"levelo://app?vid=5ea8c758-8d88-4a0d-8adf-3234df9934ae"},"vehicle_type_id":"4","last_reported":1767620007,"current_range_meters":9600,"station_id":"","pricing_plan_id":"cebpf4jnsgd1na2vs0mg"},{"bike_id":"ff938a04-c543-4b45-8b46-391abbbcd6ef","system_id":"levelo_inurba_marseille","lat":43.30557,"lon":5.36708,"is_reserved":false,"is_disabled":false,"rental_uris":{"android":"levelo://app?vid=ff938a04-c543-4b45-8b46-391abbbcd6ef","ios":"levelo://app?vid=ff938a04-c543-4b45-8b46-391abbbcd6ef"},"vehicle_type_id":"4","last_reported":1767620007,"current_range_meters":9600,"station_id":"ce4bgrp2rcd13ifvqc9g","pricing_plan_id":"cebpf4jnsgd1na2vs0mg"},{"bike_id":"5a6eccd2-d538-42ad-b15f-18ed7041f1bc","system_id":"levelo_inurba_marseille","lat":43.28489,"lon":5.3853,"is_reserved":false,"is_disabled":false,"rental_uris":{"android":"levelo://app?vid=5a6eccd2-d538-42ad-b15f-18ed7041f1bc","ios":"levelo://app?vid=5a6eccd2-d538-42ad-b15f-18ed7041f1bc"},"vehicle_type_id":"4","last_reported":1767620007,"current_range_meters":9600,"station_id":"ce4bh8p2rcd13ifvqeb0","pricing_plan_id":"cebpf4jnsgd1na2vs0mg"},{"bike_id":"e95ce2d0-07e6-408c-94e5-1989f12b6691","system_id":"levelo_inurba_marseille","lat":43.24394,"lon":5.37062,"is_reserved":false,"is_disabled":false,"rental_uris":{"android":"levelo://app?vid=e95ce2d0-07e6-408c-94e5-1989f12b6691","ios":"levelo://app?vid=e95ce2d0-07e6-408c-94e5-1989f12b6691"},"vehicle_type_id":"4","last_reported":1767620007,"current_range_meters":9600,"station_id":"ce4bhhh2rcd13ifvqfk0","pricing_plan_id":"cebpf4jnsgd1na2vs0mg"},{"bike_id":"08597d3b-78bf-4d1d-84e3-67cebc91408d","system_id":"levelo_inurba_marseille","lat":43.25573,"lon":5.38238,"is_reserved":false,"is_disabled":false,"rental_uris":{"android":"levelo://app?vid=08597d3b-78bf-4d1d-84e3-67cebc91408d","ios":"levelo://app?vid=08597d3b-78bf-4d1d-84e3-67cebc91408d"},"vehicle_type_id":"4","last_reported":1767620007,"current_range_meters":9600,"station_id":"ce4bhih2rcd13ifvqfs0","pricing_plan_id":"cebpf4jnsgd1na2vs0mg"},{"bike_id":"807ad6d5-a3be-44a8-9c65-b5acfffa4afd","system_id":"levelo_inurba_marseille","lat":43.32534,"lon":5.41448,"is_reserved":false,"is_disabled":false,"rental_uris":{"android":"levelo://app?vid=807ad6d5-a3be-44a8-9c65-b5acfffa4afd","ios":"levelo://app?vid=807ad6d5-a3be-44a8-9c65-b5acfffa4afd"},"vehicle_type_id":"4","last_reported":1767620007,"current_range_meters":9600,"station_id":"ce4bhq12rcd13ifvqhhg","pricing_plan_id":"cebpf4jnsgd1na2vs0mg"},