{"last_updated":1690751115,"ttl":30,"version":"2.2","data":{"bikes":[{"bike_id":"e526d4e2-849c-44ae-a0d7-5572a62df909","system_id":"levelo_inurba_marseille","lat":43.312239,"lon":5.368562,"is_reserved":false,"is_disabled":false,"rental_uris":{"android":"levelo://app?vid=e526d4e2-849c-44ae-a0d7-5572a62df909","ios":"levelo://app?vid=e526d4e2-849c-44ae-a0d7-5572a62df909"},"vehicle_type_id":"4","last_reported":1690751115,"current_range_meters":21600,"station_id":"ce4bgl92rcd13ifvqbq0","pricing_plan_id":"free"},{"bike_id":"e26dc725-da79-4666-b5e6-5d54095b1027","system_id":"levelo_inurba_marseille","lat":43.31232,"lon":5.36874,"is_reserved":false,"is_disabled":false,"rental_uris":{"android":"levelo://app?vid=e26dc725-da79-4666-b5e6-5d54095b1027","ios":"levelo://app?vid=e26dc725-da79-4666-b5e6-5d54095b1027"},"vehicle_type_id":"4","last_reported":1690751115,"current_range_meters":1200,"station_id":"ce4bgl92rcd13ifvqbq0","pricing_plan_id":"free"},{"bike_id":"fd8bfd9a-bc5b-460b-8836-81cf50433a10","system_id":"levelo_inurba_marseille","lat":43.314811,"lon":5.373103,"is_reserved":false,"is_disabled":false,"rental_uris":{"android":"levelo://app?vid=fd8bfd9a-bc5b-460b-8836-81cf50433a10","ios":"levelo://app?vid=fd8bfd9a-bc5b-460b-8836-81cf50433a10"},"vehicle_type_id":"4","last_reported":1690751115,"current_range_meters":12000,"station_id":"ce4bgt12rcd13ifvqcd0","pricing_plan_id":"free"},{"bike_id":"c83c5a34-1957-4419-a7f7-0c3ef0bb370e","system_id":"levelo_inurba_marseille","lat":43.314811,"lon":5.373103,"is_reserved":false,"is_disabled":false,"rental_uris":{"android":"levelo://app?vid=c83c5a34-1957-4419-a7f7-0c3ef0bb370e","ios":"levelo://app?vid=c83c5a34-1957-4419-a7f7-0c3ef0bb370e"},"vehicle_type_id":"4","last_reported":1690751115,"current_range_meters":24400,"station_id":"ce4bgt12rcd13ifvqcd0","pricing_plan_id":"free"},{"bike_id":"ac24de8e-387b-4b42-a71b-0bdadfb127ff","system_id":"levelo_inurba_marseille","lat":43.309039,"lon":5.371797,"is_reserved":false,"is_disabled":false,"rental_uris":{"android":"levelo://app?vid=ac24de8e-387b-4b42-a71b-0bdadfb127ff","ios":"levelo://app?vid=ac24de8e-387b-4b42-a71b-0bdadfb127ff"},"vehicle_type_id":"4","last_reported":1690751115,"current_range_meters":21600,"station_id":"ce4bguh2rcd13ifvqckg","pricing_plan_id":"free"},{"bike_id":"a25a54be-6c90-4733-964e-b1bff48c1f4f","system_id":"levelo_inurba_marseille","lat":43.30545,"lon":5.36542,"is_reserved":false,"is_disabled":false,"rental_uris":{"android":"levelo://app?vid=a25a54be-6c90-4733-964e-b1bff48c1f4f","ios":"levelo://app?vid=a25a54be-6c90-4733-964e-b1bff48c1f4f"},"vehicle_type_id":"4","last_reported":1690751115,"current_range_meters":6800,"station_id":"ce4bgs12rcd13ifvqcag","pricing_plan_id":"free"},{"bike_id":"f20ea888-8740-440b-bfeb-8eb2a7c1f652","system_id":"levelo_inurba_marseille","lat":43.30604,"lon":5.3725,"is_reserved":false,"is_disabled":false,"rental_uris":{"android":"levelo://app?vid=f20ea888-8740-440b-bfeb-8eb2a7c1f652","ios":"levelo://app?vid=f20ea888-8740-440b-bfeb-8eb2a7c1f652"},"vehicle_type_id":"4","last_reported":1690751115,"current_range_meters":23600,"station_id":"ce4bgqh2rcd13ifvqc4g","pricing_plan_id":"free"},{"bike_id":"c4a28b91-d55d-4294-815d-feec2d04f018","system_id":"levelo_inurba_marseille","lat":43.311131,"lon":5.377651,"is_reserved":false,"is_disabled":false,"rental_uris":{"android":"levelo://app?vid=c4a28b91-d55d-4294-815d-feec2d04f018","ios":"levelo://app?vid=c4a28b91-d55d-4294-815d-feec2d04f018"},"vehicle_type_id":"4","last_reported":1690751115,"current_range_meters":6000,"station_id":"ce4bgt92rcd13ifvqcg0","pricing_plan_id":"free"},{"bike_id":"b8a4bc0c-0d2c-4601-beb3-b4439aeb3f3a","system_id":"levelo_inurba_marseille","lat":43.311125,"lon":5.377624,"is_reserved":false,"is_disabled":false,"rental_uris":{"android":"levelo://app?vid=b8a4bc0c-0d2c-4601-beb3-b4439aeb3f3a","ios":"levelo://app?vid=b8a4bc0c-0d2c-4601-beb3-b4439aeb3f3a"},"vehicle_type_id":"4","last_reported":1690751115,"current_range_meters":22400,"station_id":"ce4bgt92rcd13ifvqcg0","pricing_plan_id":"free"},{"bike_id":"6b1737f3-fc1a-4d2c-8537-684ff1b601f6","system_id":"levelo_inurba_marseille","lat":43.3171,"lon":5.37754,"is_reserved":false,"is_disabled":false,"rental_uris":{"android":"levelo://app?vid=6b1737f3-fc1a-4d2c-8537-684ff1b601f6","ios":"levelo://app?vid=6b1737f3-fc1a-4d2c-8537-684ff1b601f6"},"vehicle_type_id":"4","last_reported":1690751115,"current_range_meters":7600,"station_id":"ce4bgth2rcd13ifvqch0","pricing_plan_id":"free"},{"bike_id":"5d093696-a0ac-4195-941c-d592dcd38df4","system_id":"levelo_inurba_marseille","lat":43.3171,"lon":5.37755,"is_reserved":false,"is_disabled":false,"rental_uris":{"android":"levelo://app?vid=5d093696-a0ac-4195-941c-d592dcd38df4","ios":"levelo://app?vid=5d093696-a0ac-4195-941c-d592dcd38df4"},"vehicle_type_id":"4","last_reported":1690751115,"current_range_meters":12800,"station_id":"ce4bgth2rcd13ifvqch0","pricing_plan_id":"free"},{"bike_id":"853e7613-8302-4aca-a554-492cf60aa406","system_id":"levelo_inurba_marseille","lat":43.317075,"lon":5.377367,"is_reserved":false,"is_disabled":false,"rental_uris":{"android":"levelo://app?vid=853e7613-8302-4aca-a554-492cf60aa406","ios":"levelo://app?vid=853e7613-8302-4aca-a554-492cf60aa406"},"vehicle_type_id":"4","last_reported":1690751115,"current_range_meters":14400,"station_id":"ce4bgth2rcd13ifvqch0","pricing_plan_id":"free"},{"bike_id":"9c1a6130-32ab-4254-82e7-e05de6b38888","system_id":"levelo_inurba_marseille","lat":43.315289,"lon":5.380349,"is_reserved":false,"is_disabled":false,"rental_uris":{"android":"levelo://app?vid=9c1a6130-32ab-4254-82e7-e05de6b38888","ios":"levelo://app?vid=9c1a6130-32ab-4254-82e7-e05de6b38888"},"vehicle_type_id":"4","last_reported":1690751115,"current_range_meters":23600,"station_id":"ce4bhsp2rcd13ifvqi50","pricing_plan_id":"free"},{"bike_id":"aeb570c7-a6b3-4115-ad6c-6aff546c21c5","system_id":"levelo_inurba_marseille","lat":43.30805,"lon":5.38153,"is_reserved":false,"is_disabled":false,"rental_uris":{"android":"levelo://app?vid=aeb570c7-a6b3-4115-ad6c-6aff546c21c5","ios":"levelo://app?vid=aeb570c7-a6b3-4115-ad6c-6aff546c21c5"},"vehicle_type_id":"4","last_reported":1690751115,"current_range_meters":14400,"station_id":"ce4bgt12rcd13ifvqce0","pricing_plan_id":"free"},{"bike_id":"589df640-94cd-47dc-be3b-68e5d6411277","system_id":"levelo_inurba_marseille","lat":43.304606,"lon":5.379026,"is_reserved":false,"is_disabled":false,"rental_uris":{"android":"levelo://app?vid=589df640-94cd-47dc-be3b-68e5d6411277","ios":"levelo://app?vid=589df640-94cd-47dc-be3b-68e5d6411277"},"vehicle_type_id":"4","last_reported":1690751115,"current_range_meters":0,"station_id":"ce4bgup2rcd13ifvqcn0","pricing_plan_id":"free"},{"bike_id":"5bc30ebd-f380-4cd4-a0cb-86ce8e0aa0b5","system_id":"levelo_inurba_marseille","lat":43.30154,"lon":5.37421,"is_reserved":false,"is_disabled":false,"rental_uris":{"android":"levelo://app?vid=5bc30ebd-f380-4cd4-a0cb-86ce8e0aa0b5","ios":"levelo://app?vid=5bc30ebd-f380-4cd4-a0cb-86ce8e0aa0b5"},"vehicle_type_id":"4","last_reported":1690751115,"current_range_meters":4000,"station_id":"ce4bgs92rcd13ifvqcc0","pricing_plan_id":"free"},{"bike_id":"b445706f-7fc8-4f83-8ac9-3a1a920b5415","system_id":"levelo_inurba_marseille","lat":43.302784,"lon":5.377158,"is_reserved":false,"is_disabled":false,"rental_uris":{"android":"levelo://app?vid=b445706f-7fc8-4f83-8ac9-3a1a920b5415","ios":"levelo://app?vid=b445706f-7fc8-4f83-8ac9-3a1a920b5415"},"vehicle_type_id":"4","last_reported":1690751115,"current_range_meters":5200,"station_id":"ce4bguh2rcd13ifvqcj0","pricing_plan_id":"free"},{"bike_id":"4f35c9e7-a8ce-4817-83d1-7dae8f34fee3","system_id":"levelo_inurba_marseille","lat":43.31988,"lon":5.38142,"is_reserved":false,"is_disabled":false,"rental_uris":{"android":"levelo://app?vid=4f35c9e7-a8ce-4817-83d1-7dae8f34fee3","ios":"levelo://app?vid=4f35c9e7-a8ce-4817-83d1-7dae8f34fee3"},"vehicle_type_id":"4","last_reported":1690751115,"current_range_meters":4400,"station_id":"ce4bhr12rcd13ifvqhpg","pricing_plan_id":"free"},{"bike_id":"941ee9cb-d06b-4cb4-9196-9357d0edd36a","system_id":"levelo_inurba_marseille","lat":43.31996,"lon":5.38155,"is_reserved":false,"is_disabled":false,"rental_uris":{"android":"levelo://app?vid=941ee9cb-d06b-4cb4-9196-9357d0edd36a","ios":"levelo://app?vid=941ee9cb-d06b-4cb4-9196-9357d0edd36a"},"vehicle_type_id":"4","last_reported":1690751115,"current_range_meters":6400,"station_id":"ce4bhr12rcd13ifvqhpg","pricing_plan_id":"free"},{"bike_id":"e79a6720-2929-4790-abe9-3f1042e45293","system_id":"levelo_inurba_marseille","lat":43.319935,"lon":5.381699,"is_reserved":false,"is_disabled":false,"rental_uris":{"android":"levelo://app?vid=e79a6720-2929-4790-abe9-3f1042e45293","ios":"levelo://app?vid=e79a6720-2929-4790-abe9-3f1042e45293"},"vehicle_type_id":"4","last_reported":1690751115,"current_range_meters":23600,"station_id":"ce4bhr12rcd13ifvqhpg","pricing_plan_id":"free"},{"bike_id":"1978c461-d209-4778-a3ee-556354a50b32","system_id":"levelo_inurba_marseille","lat":43.29986,"lon":5.37192,"is_reserved":false,"is_disabled":false,"rental_uris":{"android":"levelo://app?vid=1978c461-d209-4778-a3ee-556354a50b32","ios":"levelo://app?vid=1978c461-d209-4778-a3ee-556354a50b32"},"vehicle_type_id":"4","last_reported":1690751115,"current_range_meters":0,"station_id":"ce4bgr92rcd13ifvqc7g","pricing_plan_id":"free"},{"bike_id":"9e32126a-1b49-4733-a44e-bb472072c4d6","system_id":"levelo_inurba_marseille","lat":43.30546,"lon":5.38425,"is_reserved":false,"is_disabled":false,"rental_uris":{"android":"levelo://app?vid=9e32126a-1b49-4733-a44e-bb472072c4d6","ios":"levelo://app?vid=9e32126a-1b49-4733-a44e-bb472072c4d6"},"vehicle_type_id":"4","last_reported":1690751115,"current_range_meters":8800,"station_id":"ce4bgg92rcd13ifvqb30","pricing_plan_id":"free"},{"bike_id":"30537d43-af02-4a10-b928-7b9b8cf633d2","system_id":"levelo_inurba_marseille","lat":43.305364,"lon":5.384119,"is_reserved":false,"is_disabled":false,"rental_uris":{"android":"levelo://app?vid=30537d43-af02-4a10-b928-7b9b8cf633d2","ios":"levelo://app?vid=30537d43-af02-4a10-b928-7b9b8cf633d2"},"vehicle_type_id":"4","last_reported":1690751115,"current_range_meters":29600,"station_id":"ce4bgg92rcd13ifvqb30","pricing_plan_id":"free"},{"bike_id":"8825dbbb-5e3d-4544-a6e7-4ed678613bb2","system_id":"levelo_inurba_marseille","lat":43.30534,"lon":5.38427,"is_reserved":false,"is_disabled":false,"rental_uris":{"android":"levelo://app?vid=8825dbbb-5e3d-4544-a6e7-4ed678613bb2","ios":"levelo://app?vid=8825dbbb-5e3d-4544-a6e7-4ed678613bb2"},"vehicle_type_id":"4","last_reported":1690751115,"current_range_meters":10800,"station_id":"ce4bgg92rcd13ifvqb30","pricing_plan_id":"free"},{"bike_id":"2d3128b7-bfed-4992-b8a2-11e7bebfa16c","system_id":"levelo_inurba_marseille","lat":43.30549,"lon":5.38439,"is_reserved":false,"is_disabled":false,"rental_uris":{"android":"levelo://app?vid=2d3128b7-bfed-4992-b8a2-11e7bebfa16c","ios":"levelo://app?vid=2d3128b7-bfed-4992-b8a2-11e7bebfa16c"},"vehicle_type_id":"4","last_reported":1690751115,"current_range_meters":4000,"station_id":"ce4bgg92rcd13ifvqb30","pricing_plan_id":"free"},{"bike_id":"03bacee9-8e52-474b-af6e-e5eebc3eb5d2","system_id":"levelo_inurba_marseille","lat":43.30541,"lon":5.38433,"is_reserved":false,"is_disabled":false,"rental_uris":{"android":"levelo://app?vid=03bacee9-8e52-474b-af6e-e5eebc3eb5d2","ios":"levelo://app?vid=03bacee9-8e52-474b-af6e-e5eebc3eb5d2"},"vehicle_type_id":"4","last_reported":1690751115,"current_range_meters":2400,"station_id":"ce4bgg92rcd13ifvqb30","pricing_plan_id":"free"},{"bike_id":"545ad28d-808d-40d7-8411-8d4522180148","system_id":"levelo_inurba_marseille","lat":43.30544,"lon":5.38441,"is_reserved":false,"is_disabled":false,"rental_uris":{"android":"levelo://app?vid=545ad28d-808d-40d7-8411-8d4522180148","ios":"levelo://app?vid=545ad28d-808d-40d7-8411-8d4522180148"},"vehicle_type_id":"4","last_reported":1690751115,"current_range_meters":10400,"station_id":"ce4bgg92rcd13ifvqb30","pricing_plan_id":"free"},{"bike_id":"c733b850-00b6-4dba-b86b-5e76bf6a784d","system_id":"levelo_inurba_marseille","lat":43.30554,"lon":5.3845,"is_reserved":false,"is_disabled":false,"rental_uris":{"android":"levelo://app?vid=c733b850-00b6-4dba-b86b-5e76bf6a784d","ios":"levelo://app?vid=c733b850-00b6-4dba-b86b-5e76bf6a784d"},"vehicle_type_id":"4","last_reported":1690751115,"current_range_meters":18000,"station_id":"ce4bgg92rcd13ifvqb30","pricing_plan_id":"free"},{"bike_id":"5cb5669f-0cc7-4ab9-93cf-28f7f48e4bc2","system_id":"levelo_inurba_marseille","lat":43.30527,"lon":5.38431,"is_reserved":false,"is_disabled":false,"rental_uris":{"android":"levelo://app?vid=5cb5669f-0cc7-4ab9-93cf-28f7f48e4bc2","ios":"levelo://app?vid=5cb5669f-0cc7-4ab9-93cf-28f7f48e4bc2"},"vehicle_type_id":"4","last_reported":1690751115,"current_range_meters":3600,"station_id":"ce4bgg92rcd13ifvqb30","pricing_plan_id":"free"},{"bike_id":"5afd8ad8-aed7-4f07-88ef-df2f933d9390","system_id":"levelo_inurba_marseille","lat":43.299243,"lon":5.374807,"is_reserved":false,"is_disabled":false,"rental_uris":{"android":"levelo://app?vid=5afd8ad8-aed7-4f07-88ef-df2f933d9390","ios":"levelo://app?vid=5afd8ad8-aed7-4f07-88ef-df2f933d9390"},"vehicle_type_id":"4","last_reported":1690751115,"current_range_meters":8400,"station_id":"ce4bgjh2rcd13ifvqbg0","pricing_plan_id":"free"},{"bike_id":"b902fb9c-26b9-4a54-a781-e7d3746b8b14","system_id":"levelo_inurba_marseille","lat":43.31164,"lon":5.38723,"is_reserved":false,"is_disabled":false,"rental_uris":{"android":"levelo://app?vid=b902fb9c-26b9-4a54-a781-e7d3746b8b14","ios":"levelo://app?vid=b902fb9c-26b9-4a54-a781-e7d3746b8b14"},"vehicle_type_id":"4","last_reported":1690751115,"current_range_meters":5200,"station_id":"ce4bgv12rcd13ifvqcp0","pricing_plan_id":"free"},{"bike_id":"a196dbb0-0ca2-44b0-8b03-b7d3a734d20c","system_id":"levelo_inurba_marseille","lat":43.322872,"lon":5.382756,"is_reserved":false,"is_disabled":false,"rental_uris":{"android":"levelo://app?vid=a196dbb0-0ca2-44b0-8b03-b7d3a734d20c","ios":"levelo://app?vid=a196dbb0-0ca2-44b0-8b03-b7d3a734d20c"},"vehicle_type_id":"4","last_reported":1690751115,"current_range_meters":23200,"station_id":"ce4bhr12rcd13ifvqhqg","pricing_plan_id":"free"},{"bike_id":"82f1e03d-e4c3-4aac-b6f0-c9fc3950fe62","system_id":"levelo_inurba_marseille","lat":43.322919,"lon":5.382674,"is_reserved":false,"is_disabled":false,"rental_uris":{"android":"levelo://app?vid=82f1e03d-e4c3-4aac-b6f0-c9fc3950fe62","ios":"levelo://app?vid=82f1e03d-e4c3-4aac-b6f0-c9fc3950fe62"},"vehicle_type_id":"4","last_reported":1690751115,"current_range_meters":19600,"station_id":"","pricing_plan_id":"free"},{"bike_id":"a87c3d89-8ecc-4c20-a387-7842b25267e1","system_id":"levelo_inurba_marseille","lat":43.32288,"lon":5.38276,"is_reserved":false,"is_disabled":false,"rental_uris":{"android":"levelo://app?vid=a87c3d89-8ecc-4c20-a387-7842b25267e1","ios":"levelo://app?vid=a87c3d89-8ecc-4c20-a387-7842b25267e1"},"vehicle_type_id":"4","last_reported":1690751115,"current_range_meters":27600,"station_id":"ce4bhr12rcd13ifvqhqg","pricing_plan_id":"free"},{"bike_id":"aff0017d-8d19-4b8c-8490-dfc322af04d7","system_id":"levelo_inurba_marseille","lat":43.32289,"lon":5.38275,"is_reserved":false,"is_disabled":false,"rental_uris":{"android":"levelo://app?vid=aff0017d-8d19-4b8c-8490-dfc322af04d7","ios":"levelo://app?vid=aff0017d-8d19-4b8c-8490-dfc322af04d7"},"vehicle_type_id":"4","last_reported":1690751115,"current_range_meters":31200,"station_id":"ce4bhr12rcd13ifvqhqg","pricing_plan_id":"free"},{"bike_id":"79bf6da4-5f08-488b-96b1-6e23f74ec5ec","system_id":"levelo_inurba_marseille","lat":43.322872,"lon":5.382756,"is_reserved":false,"is_disabled":false,"rental_uris":{"android":"levelo://app?vid=79bf6da4-5f08-488b-96b1-6e23f74ec5ec","ios":"levelo://app?vid=79bf6da4-5f08-488b-96b1-6e23f74ec5ec"},"vehicle_type_id":"4","last_reported":1690751115,"current_range_meters":30800,"station_id":"ce4bhr12rcd13ifvqhqg","pricing_plan_id":"free"},{"bike_id":"cabe5a0b-8b65-42de-85e5-73402b1600bb","system_id":"levelo_inurba_marseille","lat":43.328371,"lon":5.366909,"is_reserved":false,"is_disabled":false,"rental_uris":{"android":"levelo://app?vid=cabe5a0b-8b65-42de-85e5-73402b1600bb","ios":"levelo://app?vid=cabe5a0b-8b65-42de-85e5-73402b1600bb"},"vehicle_type_id":"4","last_reported":1690751115,"current_range_meters":19600,"station_id":"ce4bhs92rcd13ifvqi0g","pricing_plan_id":"free"},{"bike_id":"7a3debfb-a4c2-4cbf-a70c-be28fe4f20ea","system_id":"levelo_inurba_marseille","lat":43.328371,"lon":5.366909,"is_reserved":false,"is_disabled":false,"rental_uris":{"android":"levelo://app?vid=7a3debfb-a4c2-4cbf-a70c-be28fe4f20ea","ios":"levelo://app?vid=7a3debfb-a4c2-4cbf-a70c-be28fe4f20ea"},"vehicle_type_id":"4","last_reported":1690751115,"current_range_meters":13200,"station_id":"ce4bhs92rcd13ifvqi0g","pricing_plan_id":"free"},{"bike_id":"dd789220-e7b5-42c1-b9dc-dc4243148021","system_id":"levelo_inurba_marseille","lat":43.297163,"lon":5.365866,"is_reserved":false,"is_disabled":false,"rental_uris":{"android":"levelo://app?vid=dd789220-e7b5-42c1-b9dc-dc4243148021","ios":"levelo://app?vid=dd789220-e7b5-42c1-b9dc-dc4243148021"},"vehicle_type_id":"4","last_reported":1690751115,"current_range_meters":31600,"station_id":"ce4bgn12rcd13ifvqbt0","pricing_plan_id":"free"},{"bike_id":"608414f4-585d-43e3-a61c-69e16205bd00","system_id":"levelo_inurba_marseille","lat":43.299028,"lon":5.381509,"is_reserved":false,"is_disabled":false,"rental_uris":{"android":"levelo://app?vid=608414f4-585d-43e3-a61c-69e16205bd00","ios":"levelo://app?vid=608414f4-585d-43e3-a61c-69e16205bd00"},"vehicle_type_id":"4","last_reported":1690751115,"current_range_meters":26000,"station_id":"ce4bgj12rcd13ifvqbc0","pricing_plan_id":"free"},{"bike_id":"f0b1921d-8fc5-42f6-8214-26455e772ce5","system_id":"levelo_inurba_marseille","lat":43.30956,"lon":5.39042,"is_reserved":false,"is_disabled":false,"rental_uris":{"android":"levelo://app?vid=f0b1921d-8fc5-42f6-8214-26455e772ce5","ios":"levelo://app?vid=f0b1921d-8fc5-42f6-8214-26455e772ce5"},"vehicle_type_id":"4","last_reported":1690751115,"current_range_meters":27600,"station_id":"ce4bgup2rcd13ifvqco0","pricing_plan_id":"free"},{"bike_id":"96e63c20-bca8-43b1-9b08-988f266c8fa2","system_id":"levelo_inurba_marseille","lat":43.29801,"lon":5.381,"is_reserved":false,"is_disabled":false,"rental_uris":{"android":"levelo://app?vid=96e63c20-bca8-43b1-9b08-988f266c8fa2","ios":"levelo://app?vid=96e63c20-bca8-43b1-9b08-988f266c8fa2"},"vehicle_type_id":"4","last_reported":1690751115,"current_range_meters":0,"station_id":"ce4bgip2rcd13ifvqbb0","pricing_plan_id":"free"},{"bike_id":"388145ac-4e1f-4e11-8477-1964cbe1286c","system_id":"levelo_inurba_marseille","lat":43.29802,"lon":5.38102,"is_reserved":false,"is_disabled":false,"rental_uris":{"android":"levelo://app?vid=388145ac-4e1f-4e11-8477-1964cbe1286c","ios":"levelo://app?vid=388145ac-4e1f-4e11-8477-1964cbe1286c"},"vehicle_type_id":"4","last_reported":1690751115,"current_range_meters":4400,"station_id":"ce4bgip2rcd13ifvqbb0","pricing_plan_id":"free"},{"bike_id":"a157e1fd-ee00-4de0-9d0d-1da1adc65e39","system_id":"levelo_inurba_marseille","lat":43.29809,"lon":5.38116,"is_reserved":false,"is_disabled":false,"rental_uris":{"android":"levelo://app?vid=a157e1fd-ee00-4de0-9d0d-1da1adc65e39","ios":"levelo://app?vid=a157e1fd-ee00-4de0-9d0d-1da1adc65e39"},"vehicle_type_id":"4","last_reported":1690751115,"current_range_meters":23200,"station_id":"ce4bgip2rcd13ifvqbb0","pricing_plan_id":"free"},{"bike_id":"1740a18a-e46d-4144-8cee-b9d7485d8d29","system_id":"levelo_inurba_marseille","lat":43.30434,"lon":5.38889,"is_reserved":false,"is_disabled":false,"rental_uris":{"android":"levelo://app?vid=1740a18a-e46d-4144-8cee-b9d7485d8d29","ios":"levelo://app?vid=1740a18a-e46d-4144-8cee-b9d7485d8d29"},"vehicle_type_id":"4","last_reported":1690751115,"current_range_meters":13200,"station_id":"ce4bgk12rcd13ifvqbi0","pricing_plan_id":"free"},{"bike_id":"7e9b6e9c-1fb5-4c4e-b05d-60af96ded311","system_id":"levelo_inurba_marseille","lat":43.296263,"lon":5.377094,"is_reserved":false,"is_disabled":false,"rental_uris":{"android":"levelo://app?vid=7e9b6e9c-1fb5-4c4e-b05d-60af96ded311","ios":"levelo://app?vid=7e9b6e9c-1fb5-4c4e-b05d-60af96ded311"},"vehicle_type_id":"4","last_reported":1690751115,"current_range_meters":8000,"station_id":"ce4bgi92rcd13ifvqb90","pricing_plan_id":"free"},{"bike_id":"b70e3efb-f467-4c46-8415-4208b652d692","system_id":"levelo_inurba_marseille","lat":43.30433,"lon":5.38895,"is_reserved":false,"is_disabled":false,"rental_uris":{"android":"levelo://app?vid=b70e3efb-f467-4c46-8415-4208b652d692","ios":"levelo://app?vid=b70e3efb-f467-4c46-8415-4208b652d692"},"vehicle_type_id":"4","last_reported":1690751115,"current_range_meters":5200,"station_id":"ce4bgk12rcd13ifvqbi0","pricing_plan_id":"free"},{"bike_id":"b86f9b41-1b37-4d83-9f69-48dc3caeab88","system_id":"levelo_inurba_marseille","lat":43.30428,"lon":5.38893,"is_reserved":false,"is_disabled":false,"rental_uris":{"android":"levelo://app?vid=b86f9b41-1b37-4d83-9f69-48dc3caeab88","ios":"levelo://app?vid=b86f9b41-1b37-4d83-9f69-48dc3caeab88"},"vehicle_type_id":"4","last_reported":1690751115,"current_range_meters":3600,"station_id":"ce4bgk12rcd13ifvqbi0","pricing_plan_id":"free"},{"bike_id":"5c86f8bf-3d46-4b32-9477-be3994012b33","system_id":"levelo_inurba_marseille","lat":43.29627,"lon":5.37732,"is_reserved":false,"is_disabled":false,"rental_uris":{"android":"levelo://app?vid=5c86f8bf-3d46-4b32-9477-be3994012b33","ios":"levelo://app?vid=5c86f8bf-3d46-4b32-9477-be3994012b33"},"vehicle_type_id":"4","last_reported":1690751115,"current_range_meters":23600,"station_id":"ce4bgi92rcd13ifvqb90","pricing_plan_id":"free"},{"bike_id":"9c3e2714-4933-433c-b167-20c0d70d82c4","system_id":"levelo_inurba_marseille","lat":43.296263,"lon":5.377094,"is_reserved":false,"is_disabled":false,"rental_uris":{"android":"levelo://app?vid=9c3e2714-4933-433c-b167-20c0d70d82c4","ios":"levelo://app?vid=9c3e2714-4933-433c-b167-20c0d70d82c4"},"vehicle_type_id":"4","last_reported":1690751115,"current_range_meters":13600,"station_id":"ce4bgi92rcd13ifvqb90","pricing_plan_id":"free"},{"bike_id":"908f52a8-c43e-4c03-8de5-3b108ce320c9","system_id":"levelo_inurba_marseille","lat":43.299707,"lon":5.384859,"is_reserved":false,"is_disabled":false,"rental_uris":{"android":"levelo://app?vid=908f52a8-c43e-4c03-8de5-3b108ce320c9","ios":"levelo://app?vid=908f52a8-c43e-4c03-8de5-3b108ce320c9"},"vehicle_type_id":"4","last_reported":1690751115,"current_range_meters":11600,"station_id":"ce4bgj92rcd13ifvqbd0","pricing_plan_id":"free"},{"bike_id":"dacb7dff-e53a-451a-a9e9-7220db17bb09","system_id":"levelo_inurba_marseille","lat":43.295279,"lon":5.375048,"is_reserved":false,"is_disabled":false,"rental_uris":{"android":"levelo://app?vid=dacb7dff-e53a-451a-a9e9-7220db17bb09","ios":"levelo://app?vid=dacb7dff-e53a-451a-a9e9-7220db17bb09"},"vehicle_type_id":"4","last_reported":1690751115,"current_range_meters":0,"station_id":"ce4bgkp2rcd13ifvqbmg","pricing_plan_id":"free"},{"bike_id":"23c5298b-c817-412a-b843-ed0cc55bb329","system_id":"levelo_inurba_marseille","lat":43.299717,"lon":5.384845,"is_reserved":false,"is_disabled":false,"rental_uris":{"android":"levelo://app?vid=23c5298b-c817-412a-b843-ed0cc55bb329","ios":"levelo://app?vid=23c5298b-c817-412a-b843-ed0cc55bb329"},"vehicle_type_id":"4","last_reported":1690751115,"current_range_meters":12800,"station_id":"ce4bgj92rcd13ifvqbd0","pricing_plan_id":"free"},{"bike_id":"c372ec2b-dbfa-42f2-bca1-f0324122476d","system_id":"levelo_inurba_marseille","lat":43.32366,"lon":5.38874,"is_reserved":false,"is_disabled":false,"rental_uris":{"android":"levelo://app?vid=c372ec2b-dbfa-42f2-bca1-f0324122476d","ios":"levelo://app?vid=c372ec2b-dbfa-42f2-bca1-f0324122476d"},"vehicle_type_id":"4","last_reported":1690751115,"current_range_meters":17600,"station_id":"ce4bhqp2rcd13ifvqhog","pricing_plan_id":"free"},{"bike_id":"7807c496-4ca3-4030-b3ff-0db0f7503b2b","system_id":"levelo_inurba_marseille","lat":43.32366,"lon":5.38883,"is_reserved":false,"is_disabled":false,"rental_uris":{"android":"levelo://app?vid=7807c496-4ca3-4030-b3ff-0db0f7503b2b","ios":"levelo://app?vid=7807c496-4ca3-4030-b3ff-0db0f7503b2b"},"vehicle_type_id":"4","last_reported":1690751115,"current_range_meters":29200,"station_id":"ce4bhqp2rcd13ifvqhog","pricing_plan_id":"free"},{"bike_id":"eeb263b1-85bf-45c1-9ae9-d4f39665097c","system_id":"levelo_inurba_marseille","lat":43.32367,"lon":5.38886,"is_reserved":false,"is_disabled":false,"rental_uris":{"android":"levelo://app?vid=eeb263b1-85bf-45c1-9ae9-d4f39665097c","ios":"levelo://app?vid=eeb263b1-85bf-45c1-9ae9-d4f39665097c"},"vehicle_type_id":"4","last_reported":1690751115,"current_range_meters":20800,"station_id":"ce4bhqp2rcd13ifvqhog","pricing_plan_id":"free"},{"bike_id":"0ffa3e7e-e809-490f-99ca-15afa9d072f7","system_id":"levelo_inurba_marseille","lat":43.32367,"lon":5.388836,"is_reserved":false,"is_disabled":false,"rental_uris":{"android":"levelo://app?vid=0ffa3e7e-e809-490f-99ca-15afa9d072f7","ios":"levelo://app?vid=0ffa3e7e-e809-490f-99ca-15afa9d072f7"},"vehicle_type_id":"4","last_reported":1690751115,"current_range_meters":10800,"station_id":"ce4bhqp2rcd13ifvqhog","pricing_plan_id":"free"},{"bike_id":"156d7d34-eb1b-4b96-8991-fc7b7d2d8573","system_id":"levelo_inurba_marseille","lat":43.29601,"lon":5.38109,"is_reserved":false,"is_disabled":false,"rental_uris":{"android":"levelo://app?vid=156d7d34-eb1b-4b96-8991-fc7b7d2d8573","ios":"levelo://app?vid=156d7d34-eb1b-4b96-8991-fc7b7d2d8573"},"vehicle_type_id":"4","last_reported":1690751115,"current_range_meters":21600,"station_id":"ce4bgl12rcd13ifvqbo0","pricing_plan_id":"free"},{"bike_id":"3b9016eb-dbd9-4211-918e-aae56e41b65b","system_id":"levelo_inurba_marseille","lat":43.29602,"lon":5.381084,"is_reserved":false,"is_disabled":false,"rental_uris":{"android":"levelo://app?vid=3b9016eb-dbd9-4211-918e-aae56e41b65b","ios":"levelo://app?vid=3b9016eb-dbd9-4211-918e-aae56e41b65b"},"vehicle_type_id":"4","last_reported":1690751115,"current_range_meters":9200,"station_id":"ce4bgl12rcd13ifvqbo0","pricing_plan_id":"free"},{"bike_id":"fd44706e-58de-4115-a165-32b299788860","system_id":"levelo_inurba_marseille","lat":43.29593,"lon":5.38098,"is_reserved":false,"is_disabled":false,"rental_uris":{"android":"levelo://app?vid=fd44706e-58de-4115-a165-32b299788860","ios":"levelo://app?vid=fd44706e-58de-4115-a165-32b299788860"},"vehicle_type_id":"4","last_reported":1690751115,"current_range_meters":30000,"station_id":"ce4bgl12rcd13ifvqbo0","pricing_plan_id":"free"},{"bike_id":"e6828e3a-3447-478b-82ce-c051643f281c","system_id":"levelo_inurba_marseille","lat":43.292749,"lon":5.368398,"is_reserved":false,"is_disabled":false,"rental_uris":{"android":"levelo://app?vid=e6828e3a-3447-478b-82ce-c051643f281c","ios":"levelo://app?vid=e6828e3a-3447-478b-82ce-c051643f281c"},"vehicle_type_id":"4","last_reported":1690751115,"current_range_meters":8400,"station_id":"ce4bhbp2rcd13ifvqesg","pricing_plan_id":"free"},{"bike_id":"2ce3abfc-6a54-42c2-a8e8-ee17a4159dbb","system_id":"levelo_inurba_marseille","lat":43.305994,"lon":5.393687,"is_reserved":false,"is_disabled":false,"rental_uris":{"android":"levelo://app?vid=2ce3abfc-6a54-42c2-a8e8-ee17a4159dbb","ios":"levelo://app?vid=2ce3abfc-6a54-42c2-a8e8-ee17a4159dbb"},"vehicle_type_id":"4","last_reported":1690751115,"current_range_meters":7200,"station_id":"ce4bh0p2rcd13ifvqd80","pricing_plan_id":"free"},{"bike_id":"c8ec122e-6183-4b58-970a-90d5008d8572","system_id":"levelo_inurba_marseille","lat":43.305994,"lon":5.393687,"is_reserved":false,"is_disabled":false,"rental_uris":{"android":"levelo://app?vid=c8ec122e-6183-4b58-970a-90d5008d8572","ios":"levelo://app?vid=c8ec122e-6183-4b58-970a-90d5008d8572"},"vehicle_type_id":"4","last_reported":1690751115,"current_range_meters":21600,"station_id":"ce4bh0p2rcd13ifvqd80","pricing_plan_id":"free"},{"bike_id":"4c9a805f-5b0a-49cb-94f9-900f4cd8a9df","system_id":"levelo_inurba_marseille","lat":43.30303,"lon":5.3921,"is_reserved":false,"is_disabled":false,"rental_uris":{"android":"levelo://app?vid=4c9a805f-5b0a-49cb-94f9-900f4cd8a9df","ios":"levelo://app?vid=4c9a805f-5b0a-49cb-94f9-900f4cd8a9df"},"vehicle_type_id":"4","last_reported":1690751115,"current_range_meters":19200,"station_id":"ce4bgkh2rcd13ifvqbk0","pricing_plan_id":"free"},{"bike_id":"d51e7ca8-4da9-42b8-a3f3-fcbd58edc6b1","system_id":"levelo_inurba_marseille","lat":43.30303,"lon":5.39211,"is_reserved":false,"is_disabled":false,"rental_uris":{"android":"levelo://app?vid=d51e7ca8-4da9-42b8-a3f3-fcbd58edc6b1","ios":"levelo://app?vid=d51e7ca8-4da9-42b8-a3f3-fcbd58edc6b1"},"vehicle_type_id":"4","last_reported":1690751115,"current_range_meters":0,"station_id":"ce4bgkh2rcd13ifvqbk0","pricing_plan_id":"free"},{"bike_id":"ef674ce9-86f3-4dc0-aff9-29f258fd5020","system_id":"levelo_inurba_marseille","lat":43.29343,"lon":5.37733,"is_reserved":false,"is_disabled":false,"rental_uris":{"android":"levelo://app?vid=ef674ce9-86f3-4dc0-aff9-29f258fd5020","ios":"levelo://app?vid=ef674ce9-86f3-4dc0-aff9-29f258fd5020"},"vehicle_type_id":"4","last_reported":1690751115,"current_range_meters":12400,"station_id":"","pricing_plan_id":"free"},{"bike_id":"99ac539c-2f2f-4f8c-8241-70b9dd11d070","system_id":"levelo_inurba_marseille","lat":43.300852,"lon":5.390859,"is_reserved":false,"is_disabled":false,"rental_uris":{"android":"levelo://app?vid=99ac539c-2f2f-4f8c-8241-70b9dd11d070","ios":"levelo://app?vid=99ac539c-2f2f-4f8c-8241-70b9dd11d070"},"vehicle_type_id":"4","last_reported":1690751115,"current_range_meters":22400,"station_id":"ce4bh192rcd13ifvqdb0","pricing_plan_id":"free"},{"bike_id":"b4651225-10b8-4ca7-af28-73876b110786","system_id":"levelo_inurba_marseille","lat":43.300852,"lon":5.390859,"is_reserved":false,"is_disabled":false,"rental_uris":{"android":"levelo://app?vid=b4651225-10b8-4ca7-af28-73876b110786","ios":"levelo://app?vid=b4651225-10b8-4ca7-af28-73876b110786"},"vehicle_type_id":"4","last_reported":1690751115,"current_range_meters":24000,"station_id":"ce4bh192rcd13ifvqdb0","pricing_plan_id":"free"},{"bike_id":"f51df660-b83b-408c-becb-5278e3899b63","system_id":"levelo_inurba_marseille","lat":43.300852,"lon":5.390859,"is_reserved":false,"is_disabled":false,"rental_uris":{"android":"levelo://app?vid=f51df660-b83b-408c-becb-5278e3899b63","ios":"levelo://app?vid=f51df660-b83b-408c-becb-5278e3899b63"},"vehicle_type_id":"4","last_reported":1690751115,"current_range_meters":2400,"station_id":"ce4bh192rcd13ifvqdb0","pricing_plan_id":"free"},{"bike_id":"827512e9-6253-4bd3-a85e-b147cbd09836","system_id":"levelo_inurba_marseille","lat":43.30085,"lon":5.390856,"is_reserved":false,"is_disabled":false,"rental_uris":{"android":"levelo://app?vid=827512e9-6253-4bd3-a85e-b147cbd09836","ios":"levelo://app?vid=827512e9-6253-4bd3-a85e-b147cbd09836"},"vehicle_type_id":"4","last_reported":1690751115,"current_range_meters":28000,"station_id":"ce4bh192rcd13ifvqdb0","pricing_plan_id":"free"},{"bike_id":"9518f69f-b7fc-4202-b81f-77fa614be564","system_id":"levelo_inurba_marseille","lat":43.29887,"lon":5.38899,"is_reserved":false,"is_disabled":false,"rental_uris":{"android":"levelo://app?vid=9518f69f-b7fc-4202-b81f-77fa614be564","ios":"levelo://app?vid=9518f69f-b7fc-4202-b81f-77fa614be564"},"vehicle_type_id":"4","last_reported":1690751115,"current_range_meters":12000,"station_id":"ce4bh392rcd13ifvqdl0","pricing_plan_id":"free"},{"bike_id":"6aefc3fc-ca6e-43ea-8ce9-a17446f2e2da","system_id":"levelo_inurba_marseille","lat":43.29884,"lon":5.38902,"is_reserved":false,"is_disabled":false,"rental_uris":{"android":"levelo://app?vid=6aefc3fc-ca6e-43ea-8ce9-a17446f2e2da","ios":"levelo://app?vid=6aefc3fc-ca6e-43ea-8ce9-a17446f2e2da"},"vehicle_type_id":"4","last_reported":1690751115,"current_range_meters":20000,"station_id":"ce4bh392rcd13ifvqdl0","pricing_plan_id":"free"},{"bike_id":"00187baa-6743-42fb-9156-5b743db7774f","system_id":"levelo_inurba_marseille","lat":43.29883,"lon":5.38901,"is_reserved":false,"is_disabled":false,"rental_uris":{"android":"levelo://app?vid=00187baa-6743-42fb-9156-5b743db7774f","ios":"levelo://app?vid=00187baa-6743-42fb-9156-5b743db7774f"},"vehicle_type_id":"4","last_reported":1690751115,"current_range_meters":14400,"station_id":"ce4bh392rcd13ifvqdl0","pricing_plan_id":"free"},{"bike_id":"cea6a2e8-25bd-4942-92b6-11a218ff5450","system_id":"levelo_inurba_marseille","lat":43.29881,"lon":5.389,"is_reserved":false,"is_disabled":false,"rental_uris":{"android":"levelo://app?vid=cea6a2e8-25bd-4942-92b6-11a218ff5450","ios":"levelo://app?vid=cea6a2e8-25bd-4942-92b6-11a218ff5450"},"vehicle_type_id":"4","last_reported":1690751115,"current_range_meters":22000,"station_id":"ce4bh392rcd13ifvqdl0","pricing_plan_id":"free"},{"bike_id":"af359dba-1bcc-495e-b905-f20ace601120","system_id":"levelo_inurba_marseille","lat":43.292663,"lon":5.376389,"is_reserved":false,"is_disabled":false,"rental_uris":{"android":"levelo://app?vid=af359dba-1bcc-495e-b905-f20ace601120","ios":"levelo://app?vid=af359dba-1bcc-495e-b905-f20ace601120"},"vehicle_type_id":"4","last_reported":1690751115,"current_range_meters":15200,"station_id":"ce4bgi12rcd13ifvqb80","pricing_plan_id":"free"},{"bike_id":"3b63cdb7-6429-4f4d-9b37-5eac57bddfca","system_id":"levelo_inurba_marseille","lat":43.29884,"lon":5.38909,"is_reserved":false,"is_disabled":false,"rental_uris":{"android":"levelo://app?vid=3b63cdb7-6429-4f4d-9b37-5eac57bddfca","ios":"levelo://app?vid=3b63cdb7-6429-4f4d-9b37-5eac57bddfca"},"vehicle_type_id":"4","last_reported":1690751115,"current_range_meters":26400,"station_id":"ce4bh392rcd13ifvqdl0","pricing_plan_id":"free"},{"bike_id":"41a73286-3440-47fc-ad4e-f5c41540f6f2","system_id":"levelo_inurba_marseille","lat":43.29883,"lon":5.38912,"is_reserved":false,"is_disabled":false,"rental_uris":{"android":"levelo://app?vid=41a73286-3440-47fc-ad4e-f5c41540f6f2","ios":"levelo://app?vid=41a73286-3440-47fc-ad4e-f5c41540f6f2"},"vehicle_type_id":"4","last_reported":1690751115,"current_range_meters":30800,"station_id":"ce4bh392rcd13ifvqdl0","pricing_plan_id":"free"},{"bike_id":"505050ff-f73c-4409-b401-f2ea5015e1d6","system_id":"levelo_inurba_marseille","lat":43.292663,"lon":5.376389,"is_reserved":false,"is_disabled":false,"rental_uris":{"android":"levelo://app?vid=505050ff-f73c-4409-b401-f2ea5015e1d6","ios":"levelo://app?vid=505050ff-f73c-4409-b401-f2ea5015e1d6"},"vehicle_type_id":"4","last_reported":1690751115,"current_range_meters":0,"station_id":"ce4bgi12rcd13ifvqb80","pricing_plan_id":"free"},{"bike_id":"5f5536bb-105d-4aaf-9e63-6089bccbd196","system_id":"levelo_inurba_marseille","lat":43.313291,"lon":5.396838,"is_reserved":false,"is_disabled":false,"rental_uris":{"android":"levelo://app?vid=5f5536bb-105d-4aaf-9e63-6089bccbd196","ios":"levelo://app?vid=5f5536bb-105d-4aaf-9e63-6089bccbd196"},"vehicle_type_id":"4","last_reported":1690751115,"current_range_meters":24000,"station_id":"ce4bgvp2rcd13ifvqcu0","pricing_plan_id":"free"},{"bike_id":"5ddea216-ff59-495a-b62b-8d33fefc59fa","system_id":"levelo_inurba_marseille","lat":43.30883,"lon":5.39646,"is_reserved":false,"is_disabled":false,"rental_uris":{"android":"levelo://app?vid=5ddea216-ff59-495a-b62b-8d33fefc59fa","ios":"levelo://app?vid=5ddea216-ff59-495a-b62b-8d33fefc59fa"},"vehicle_type_id":"4","last_reported":1690751115,"current_range_meters":6800,"station_id":"ce4bh012rcd13ifvqcv0","pricing_plan_id":"free"},{"bike_id":"6bc82a0c-ac67-48a6-94cc-676ad336ceb6","system_id":"levelo_inurba_marseille","lat":43.309038,"lon":5.396546,"is_reserved":false,"is_disabled":false,"rental_uris":{"android":"levelo://app?vid=6bc82a0c-ac67-48a6-94cc-676ad336ceb6","ios":"levelo://app?vid=6bc82a0c-ac67-48a6-94cc-676ad336ceb6"},"vehicle_type_id":"4","last_reported":1690751115,"current_range_meters":23600,"station_id":"ce4bh012rcd13ifvqcv0","pricing_plan_id":"free"},{"bike_id":"8f5f129c-1ec5-4adb-b510-4de8f91f1273","system_id":"levelo_inurba_marseille","lat":43.30884,"lon":5.39649,"is_reserved":false,"is_disabled":false,"rental_uris":{"android":"levelo://app?vid=8f5f129c-1ec5-4adb-b510-4de8f91f1273","ios":"levelo://app?vid=8f5f129c-1ec5-4adb-b510-4de8f91f1273"},"vehicle_type_id":"4","last_reported":1690751115,"current_range_meters":0,"station_id":"ce4bh012rcd13ifvqcv0","pricing_plan_id":"free"},{"bike_id":"f79330fe-9845-4c5e-a633-5f4ee6a211a8","system_id":"levelo_inurba_marseille","lat":43.30889,"lon":5.39659,"is_reserved":false,"is_disabled":false,"rental_uris":{"android":"levelo://app?vid=f79330fe-9845-4c5e-a633-5f4ee6a211a8","ios":"levelo://app?vid=f79330fe-9845-4c5e-a633-5f4ee6a211a8"},"vehicle_type_id":"4","last_reported":1690751115,"current_range_meters":21600,"station_id":"ce4bh012rcd13ifvqcv0","pricing_plan_id":"free"},{"bike_id":"10c5142d-34ca-479a-878d-e4183ca0a398","system_id":"levelo_inurba_marseille","lat":43.308929,"lon":5.396634,"is_reserved":false,"is_disabled":false,"rental_uris":{"android":"levelo://app?vid=10c5142d-34ca-479a-878d-e4183ca0a398","ios":"levelo://app?vid=10c5142d-34ca-479a-878d-e4183ca0a398"},"vehicle_type_id":"4","last_reported":1690751115,"current_range_meters":8400,"station_id":"","pricing_plan_id":"free"},{"bike_id":"3d7ea38d-cb9c-4f1e-ad49-1afbcb699abc","system_id":"levelo_inurba_marseille","lat":43.29529,"lon":5.38526,"is_reserved":false,"is_disabled":false,"rental_uris":{"android":"levelo://app?vid=3d7ea38d-cb9c-4f1e-ad49-1afbcb699abc","ios":"levelo://app?vid=3d7ea38d-cb9c-4f1e-ad49-1afbcb699abc"},"vehicle_type_id":"4","last_reported":1690751115,"current_range_meters":18400,"station_id":"ce4bgih2rcd13ifvqba0","pricing_plan_id":"free"},{"bike_id":"700f93cb-6d06-46a1-a7f7-0fc5d03925b7","system_id":"levelo_inurba_marseille","lat":43.29529,"lon":5.385581,"is_reserved":false,"is_disabled":false,"rental_uris":{"android":"levelo://app?vid=700f93cb-6d06-46a1-a7f7-0fc5d03925b7","ios":"levelo://app?vid=700f93cb-6d06-46a1-a7f7-0fc5d03925b7"},"vehicle_type_id":"4","last_reported":1690751115,"current_range_meters":22000,"station_id":"ce4bgih2rcd13ifvqba0","pricing_plan_id":"free"},{"bike_id":"f1926456-fc7c-49fa-95b8-10e53a11ff3e","system_id":"levelo_inurba_marseille","lat":43.29528,"lon":5.38534,"is_reserved":false,"is_disabled":false,"rental_uris":{"android":"levelo://app?vid=f1926456-fc7c-49fa-95b8-10e53a11ff3e","ios":"levelo://app?vid=f1926456-fc7c-49fa-95b8-10e53a11ff3e"},"vehicle_type_id":"4","last_reported":1690751115,"current_range_meters":2000,"station_id":"ce4bgih2rcd13ifvqba0","pricing_plan_id":"free"},{"bike_id":"3fcca323-f75f-44f1-8a0d-5b55aca64a4c","system_id":"levelo_inurba_marseille","lat":43.29529,"lon":5.385581,"is_reserved":false,"is_disabled":false,"rental_uris":{"android":"levelo://app?vid=3fcca323-f75f-44f1-8a0d-5b55aca64a4c","ios":"levelo://app?vid=3fcca323-f75f-44f1-8a0d-5b55aca64a4c"},"vehicle_type_id":"4","last_reported":1690751115,"current_range_meters":25600,"station_id":"ce4bgih2rcd13ifvqba0","pricing_plan_id":"free"},{"bike_id":"863be538-aca5-4215-a74f-279061f1ea3a","system_id":"levelo_inurba_marseille","lat":43.29529,"lon":5.385581,"is_reserved":false,"is_disabled":false,"rental_uris":{"android":"levelo://app?vid=863be538-aca5-4215-a74f-279061f1ea3a","ios":"levelo://app?vid=863be538-aca5-4215-a74f-279061f1ea3a"},"vehicle_type_id":"4","last_reported":1690751115,"current_range_meters":17600,"station_id":"ce4bgih2rcd13ifvqba0","pricing_plan_id":"free"},{"bike_id":"b5f4db1c-3920-4d79-989a-06bfb2a96494","system_id":"levelo_inurba_marseille","lat":43.29528,"lon":5.38537,"is_reserved":false,"is_disabled":false,"rental_uris":{"android":"levelo://app?vid=b5f4db1c-3920-4d79-989a-06bfb2a96494","ios":"levelo://app?vid=b5f4db1c-3920-4d79-989a-06bfb2a96494"},"vehicle_type_id":"4","last_reported":1690751115,"current_range_meters":27600,"station_id":"","pricing_plan_id":"free"},{"bike_id":"d6887ffa-3977-4c4e-bf9b-e98f6892a161","system_id":"levelo_inurba_marseille","lat":43.29528,"lon":5.38538,"is_reserved":false,"is_disabled":false,"rental_uris":{"android":"levelo://app?vid=d6887ffa-3977-4c4e-bf9b-e98f6892a161","ios":"levelo://app?vid=d6887ffa-3977-4c4e-bf9b-e98f6892a161"},"vehicle_type_id":"4","last_reported":1690751115,"current_range_meters":3200,"station_id":"ce4bgih2rcd13ifvqba0","pricing_plan_id":"free"},{"bike_id":"e0d8adbb-329a-4b12-8726-4fad0b86e992","system_id":"levelo_inurba_marseille","lat":43.295285,"lon":5.385432,"is_reserved":false,"is_disabled":false,"rental_uris":{"android":"levelo://app?vid=e0d8adbb-329a-4b12-8726-4fad0b86e992","ios":"levelo://app?vid=e0d8adbb-329a-4b12-8726-4fad0b86e992"},"vehicle_type_id":"4","last_reported":1690751115,"current_range_meters":28400,"station_id":"ce4bgih2rcd13ifvqba0","pricing_plan_id":"free"},{"bike_id":"2f65809f-3e08-4df6-892e-d252588e3ef7","system_id":"levelo_inurba_marseille","lat":43.29526,"lon":5.3854,"is_reserved":false,"is_disabled":false,"rental_uris":{"android":"levelo://app?vid=2f65809f-3e08-4df6-892e-d252588e3ef7","ios":"levelo://app?vid=2f65809f-3e08-4df6-892e-d252588e3ef7"},"vehicle_type_id":"4","last_reported":1690751115,"current_range_meters":2400,"station_id":"ce4bgih2rcd13ifvqba0","pricing_plan_id":"free"},{"bike_id":"dc3a0027-fb5d-4fb5-b82b-ffae2f2204d2","system_id":"levelo_inurba_marseille","lat":43.29525,"lon":5.38541,"is_reserved":false,"is_disabled":false,"rental_uris":{"android":"levelo://app?vid=dc3a0027-fb5d-4fb5-b82b-ffae2f2204d2","ios":"levelo://app?vid=dc3a0027-fb5d-4fb5-b82b-ffae2f2204d2"},"vehicle_type_id":"4","last_reported":1690751115,"current_range_meters":22800,"station_id":"ce4bgih2rcd13ifvqba0","pricing_plan_id":"free"},{"bike_id":"a8da682b-3dcb-49df-9ebc-09eac42a0fad","system_id":"levelo_inurba_marseille","lat":43.29529,"lon":5.385581,"is_reserved":false,"is_disabled":false,"rental_uris":{"android":"levelo://app?vid=a8da682b-3dcb-49df-9ebc-09eac42a0fad","ios":"levelo://app?vid=a8da682b-3dcb-49df-9ebc-09eac42a0fad"},"vehicle_type_id":"4","last_reported":1690751115,"current_range_meters":4800,"station_id":"ce4bgih2rcd13ifvqba0","pricing_plan_id":"free"},{"bike_id":"073b53b8-4b80-45d9-8732-321bb1a6c797","system_id":"levelo_inurba_marseille","lat":43.29529,"lon":5.385581,"is_reserved":false,"is_disabled":false,"rental_uris":{"android":"levelo://app?vid=073b53b8-4b80-45d9-8732-321bb1a6c797","ios":"levelo://app?vid=073b53b8-4b80-45d9-8732-321bb1a6c797"},"vehicle_type_id":"4","last_reported":1690751115,"current_range_meters":4400,"station_id":"ce4bgih2rcd13ifvqba0","pricing_plan_id":"free"},{"bike_id":"7fc73175-f2dc-4747-a315-4da7447ca6ec","system_id":"levelo_inurba_marseille","lat":43.29529,"lon":5.385581,"is_reserved":false,"is_disabled":false,"rental_uris":{"android":"levelo://app?vid=7fc73175-f2dc-4747-a315-4da7447ca6ec","ios":"levelo://app?vid=7fc73175-f2dc-4747-a315-4da7447ca6ec"},"vehicle_type_id":"4","last_reported":1690751115,"current_range_meters":31600,"station_id":"ce4bgih2rcd13ifvqba0","pricing_plan_id":"free"},{"bike_id":"afdb8b26-f368-4fd1-a398-85043e747a8b","system_id":"levelo_inurba_marseille","lat":43.29528,"lon":5.38548,"is_reserved":false,"is_disabled":false,"rental_uris":{"android":"levelo://app?vid=afdb8b26-f368-4fd1-a398-85043e747a8b","ios":"levelo://app?vid=afdb8b26-f368-4fd1-a398-85043e747a8b"},"vehicle_type_id":"4","last_reported":1690751115,"current_range_meters":4400,"station_id":"ce4bgih2rcd13ifvqba0","pricing_plan_id":"free"},{"bike_id":"c9023ce1-944b-409e-ab1c-cde798d46248","system_id":"levelo_inurba_marseille","lat":43.29529,"lon":5.385581,"is_reserved":false,"is_disabled":false,"rental_uris":{"android":"levelo://app?vid=c9023ce1-944b-409e-ab1c-cde798d46248","ios":"levelo://app?vid=c9023ce1-944b-409e-ab1c-cde798d46248"},"vehicle_type_id":"4","last_reported":1690751115,"current_range_meters":10000,"station_id":"ce4bgih2rcd13ifvqba0","pricing_plan_id":"free"},{"bike_id":"12a121c0-7f22-44bd-aa59-888ac5a5ddd3","system_id":"levelo_inurba_marseille","lat":43.29529,"lon":5.385581,"is_reserved":false,"is_disabled":false,"rental_uris":{"android":"levelo://app?vid=12a121c0-7f22-44bd-aa59-888ac5a5ddd3","ios":"levelo://app?vid=12a121c0-7f22-44bd-aa59-888ac5a5ddd3"},"vehicle_type_id":"4","last_reported":1690751115,"current_range_meters":0,"station_id":"ce4bgih2rcd13ifvqba0","pricing_plan_id":"free"},{"bike_id":"48ed5ae5-4978-497c-81d1-2e025e6f20be","system_id":"levelo_inurba_marseille","lat":43.29529,"lon":5.385581,"is_reserved":false,"is_disabled":false,"rental_uris":{"android":"levelo://app?vid=48ed5ae5-4978-497c-81d1-2e025e6f20be","ios":"levelo://app?vid=48ed5ae5-4978-497c-81d1-2e025e6f20be"},"vehicle_type_id":"4","last_reported":1690751115,"current_range_meters":29600,"station_id":"ce4bgih2rcd13ifvqba0","pricing_plan_id":"free"},{"bike_id":"b523ec1e-27e8-4ca2-be51-f671247b066c","system_id":"levelo_inurba_marseille","lat":43.302008,"lon":5.394694,"is_reserved":false,"is_disabled":false,"rental_uris":{"android":"levelo://app?vid=b523ec1e-27e8-4ca2-be51-f671247b066c","ios":"levelo://app?vid=b523ec1e-27e8-4ca2-be51-f671247b066c"},"vehicle_type_id":"4","last_reported":1690751115,"current_range_meters":23600,"station_id":"ce4bh0p2rcd13ifvqd70","pricing_plan_id":"free"},{"bike_id":"bddf507d-3afa-43c2-8231-857ded983886","system_id":"levelo_inurba_marseille","lat":43.302008,"lon":5.394694,"is_reserved":false,"is_disabled":false,"rental_uris":{"android":"levelo://app?vid=bddf507d-3afa-43c2-8231-857ded983886","ios":"levelo://app?vid=bddf507d-3afa-43c2-8231-857ded983886"},"vehicle_type_id":"4","last_reported":1690751115,"current_range_meters":14400,"station_id":"ce4bh0p2rcd13ifvqd70","pricing_plan_id":"free"},{"bike_id":"fc0ed781-6dfe-4d5d-9fcc-06b55c70377f","system_id":"levelo_inurba_marseille","lat":43.290631,"lon":5.359244,"is_reserved":false,"is_disabled":false,"rental_uris":{"android":"levelo://app?vid=fc0ed781-6dfe-4d5d-9fcc-06b55c70377f","ios":"levelo://app?vid=fc0ed781-6dfe-4d5d-9fcc-06b55c70377f"},"vehicle_type_id":"4","last_reported":1690751115,"current_range_meters":12400,"station_id":"ce4bha92rcd13ifvqeg0","pricing_plan_id":"free"},{"bike_id":"83d2f2fd-65e1-4f82-b5e3-5a929ec9a500","system_id":"levelo_inurba_marseille","lat":43.302008,"lon":5.394694,"is_reserved":false,"is_disabled":false,"rental_uris":{"android":"levelo://app?vid=83d2f2fd-65e1-4f82-b5e3-5a929ec9a500","ios":"levelo://app?vid=83d2f2fd-65e1-4f82-b5e3-5a929ec9a500"},"vehicle_type_id":"4","last_reported":1690751115,"current_range_meters":0,"station_id":"ce4bh0p2rcd13ifvqd70","pricing_plan_id":"free"},{"bike_id":"bf903d8d-b76e-4a62-bed7-2892c6e9730a","system_id":"levelo_inurba_marseille","lat":43.302008,"lon":5.394694,"is_reserved":false,"is_disabled":false,"rental_uris":{"android":"levelo://app?vid=bf903d8d-b76e-4a62-bed7-2892c6e9730a","ios":"levelo://app?vid=bf903d8d-b76e-4a62-bed7-2892c6e9730a"},"vehicle_type_id":"4","last_reported":1690751115,"current_range_meters":23200,"station_id":"ce4bh0p2rcd13ifvqd70","pricing_plan_id":"free"},{"bike_id":"3036e6ab-9e3a-4e78-a19f-88974cfce8cf","system_id":"levelo_inurba_marseille","lat":43.290631,"lon":5.359244,"is_reserved":false,"is_disabled":false,"rental_uris":{"android":"levelo://app?vid=3036e6ab-9e3a-4e78-a19f-88974cfce8cf","ios":"levelo://app?vid=3036e6ab-9e3a-4e78-a19f-88974cfce8cf"},"vehicle_type_id":"4","last_reported":1690751115,"current_range_meters":23200,"station_id":"ce4bha92rcd13ifvqeg0","pricing_plan_id":"free"},{"bike_id":"59b4736c-d1fd-4435-9137-403bc9a0203a","system_id":"levelo_inurba_marseille","lat":43.290631,"lon":5.359244,"is_reserved":false,"is_disabled":false,"rental_uris":{"android":"levelo://app?vid=59b4736c-d1fd-4435-9137-403bc9a0203a","ios":"levelo://app?vid=59b4736c-d1fd-4435-9137-403bc9a0203a"},"vehicle_type_id":"4","last_reported":1690751115,"current_range_meters":2800,"station_id":"ce4bha92rcd13ifvqeg0","pricing_plan_id":"free"},{"bike_id":"77522cd9-314f-47a6-b04c-e37807338397","system_id":"levelo_inurba_marseille","lat":43.2942,"lon":5.38618,"is_reserved":false,"is_disabled":false,"rental_uris":{"android":"levelo://app?vid=77522cd9-314f-47a6-b04c-e37807338397","ios":"levelo://app?vid=77522cd9-314f-47a6-b04c-e37807338397"},"vehicle_type_id":"4","last_reported":1690751115,"current_range_meters":4400,"station_id":"ce4bh2h2rcd13ifvqdh0","pricing_plan_id":"free"},{"bike_id":"4628d6aa-7f93-494a-8bdb-fc5b51973d40","system_id":"levelo_inurba_marseille","lat":43.2942,"lon":5.38619,"is_reserved":false,"is_disabled":false,"rental_uris":{"android":"levelo://app?vid=4628d6aa-7f93-494a-8bdb-fc5b51973d40","ios":"levelo://app?vid=4628d6aa-7f93-494a-8bdb-fc5b51973d40"},"vehicle_type_id":"4","last_reported":1690751115,"current_range_meters":8800,"station_id":"ce4bh2h2rcd13ifvqdh0","pricing_plan_id":"free"},{"bike_id":"7c6b2478-c494-4897-9db0-22c86cce12cb","system_id":"levelo_inurba_marseille","lat":43.29423,"lon":5.38626,"is_reserved":false,"is_disabled":false,"rental_uris":{"android":"levelo://app?vid=7c6b2478-c494-4897-9db0-22c86cce12cb","ios":"levelo://app?vid=7c6b2478-c494-4897-9db0-22c86cce12cb"},"vehicle_type_id":"4","last_reported":1690751115,"current_range_meters":800,"station_id":"ce4bh2h2rcd13ifvqdh0","pricing_plan_id":"free"},{"bike_id":"160e8980-b636-4ff9-a7f3-c235adcf83f7","system_id":"levelo_inurba_marseille","lat":43.29417,"lon":5.38619,"is_reserved":false,"is_disabled":false,"rental_uris":{"android":"levelo://app?vid=160e8980-b636-4ff9-a7f3-c235adcf83f7","ios":"levelo://app?vid=160e8980-b636-4ff9-a7f3-c235adcf83f7"},"vehicle_type_id":"4","last_reported":1690751115,"current_range_meters":18000,"station_id":"ce4bh2h2rcd13ifvqdh0","pricing_plan_id":"free"},{"bike_id":"d1898882-f925-4f60-9ef6-f24528c98320","system_id":"levelo_inurba_marseille","lat":43.302008,"lon":5.394694,"is_reserved":false,"is_disabled":false,"rental_uris":{"android":"levelo://app?vid=d1898882-f925-4f60-9ef6-f24528c98320","ios":"levelo://app?vid=d1898882-f925-4f60-9ef6-f24528c98320"},"vehicle_type_id":"4","last_reported":1690751115,"current_range_meters":23600,"station_id":"ce4bh0p2rcd13ifvqd70","pricing_plan_id":"free"},{"bike_id":"effc1d55-23f2-4426-b140-e80cde977e1f","system_id":"levelo_inurba_marseille","lat":43.29415,"lon":5.38619,"is_reserved":false,"is_disabled":false,"rental_uris":{"android":"levelo://app?vid=effc1d55-23f2-4426-b140-e80cde977e1f","ios":"levelo://app?vid=effc1d55-23f2-4426-b140-e80cde977e1f"},"vehicle_type_id":"4","last_reported":1690751115,"current_range_meters":8800,"station_id":"ce4bh2h2rcd13ifvqdh0","pricing_plan_id":"free"},{"bike_id":"756da559-096d-4f5a-88b5-b9b8437bc540","system_id":"levelo_inurba_marseille","lat":43.294162,"lon":5.386292,"is_reserved":false,"is_disabled":false,"rental_uris":{"android":"levelo://app?vid=756da559-096d-4f5a-88b5-b9b8437bc540","ios":"levelo://app?vid=756da559-096d-4f5a-88b5-b9b8437bc540"},"vehicle_type_id":"4","last_reported":1690751115,"current_range_meters":31600,"station_id":"ce4bh2h2rcd13ifvqdh0","pricing_plan_id":"free"},{"bike_id":"c3260f23-23e5-4ab8-90d6-4205396dd949","system_id":"levelo_inurba_marseille","lat":43.29417,"lon":5.38633,"is_reserved":false,"is_disabled":false,"rental_uris":{"android":"levelo://app?vid=c3260f23-23e5-4ab8-90d6-4205396dd949","ios":"levelo://app?vid=c3260f23-23e5-4ab8-90d6-4205396dd949"},"vehicle_type_id":"4","last_reported":1690751115,"current_range_meters":17600,"station_id":"ce4bh2h2rcd13ifvqdh0","pricing_plan_id":"free"},{"bike_id":"9ac2fb07-ef65-4b25-8511-b067f40b89ea","system_id":"levelo_inurba_marseille","lat":43.29412,"lon":5.38625,"is_reserved":false,"is_disabled":false,"rental_uris":{"android":"levelo://app?vid=9ac2fb07-ef65-4b25-8511-b067f40b89ea","ios":"levelo://app?vid=9ac2fb07-ef65-4b25-8511-b067f40b89ea"},"vehicle_type_id":"4","last_reported":1690751115,"current_range_meters":12800,"station_id":"ce4bh2h2rcd13ifvqdh0","pricing_plan_id":"free"},{"bike_id":"06625194-9983-43a3-833e-a3b5d862f0cb","system_id":"levelo_inurba_marseille","lat":43.29411,"lon":5.38625,"is_reserved":false,"is_disabled":false,"rental_uris":{"android":"levelo://app?vid=06625194-9983-43a3-833e-a3b5d862f0cb","ios":"levelo://app?vid=06625194-9983-43a3-833e-a3b5d862f0cb"},"vehicle_type_id":"4","last_reported":1690751115,"current_range_meters":5200,"station_id":"ce4bh2h2rcd13ifvqdh0","pricing_plan_id":"free"},{"bike_id":"b3064c09-09bc-4e0f-b3aa-dd0d2ec7a41b","system_id":"levelo_inurba_marseille","lat":43.294162,"lon":5.386292,"is_reserved":false,"is_disabled":false,"rental_uris":{"android":"levelo://app?vid=b3064c09-09bc-4e0f-b3aa-dd0d2ec7a41b","ios":"levelo://app?vid=b3064c09-09bc-4e0f-b3aa-dd0d2ec7a41b"},"vehicle_type_id":"4","last_reported":1690751115,"current_range_meters":31600,"station_id":"ce4bh2h2rcd13ifvqdh0","pricing_plan_id":"free"},{"bike_id":"13006bdf-6469-4231-b689-02dd2793a5d1","system_id":"levelo_inurba_marseille","lat":43.29409,"lon":5.386231,"is_reserved":false,"is_disabled":false,"rental_uris":{"android":"levelo://app?vid=13006bdf-6469-4231-b689-02dd2793a5d1","ios":"levelo://app?vid=13006bdf-6469-4231-b689-02dd2793a5d1"},"vehicle_type_id":"4","last_reported":1690751115,"current_range_meters":22000,"station_id":"ce4bh2h2rcd13ifvqdh0","pricing_plan_id":"free"},{"bike_id":"61ab1988-4773-441b-8e44-664cf94e9224","system_id":"levelo_inurba_marseille","lat":43.294162,"lon":5.386292,"is_reserved":false,"is_disabled":false,"rental_uris":{"android":"levelo://app?vid=61ab1988-4773-441b-8e44-664cf94e9224","ios":"levelo://app?vid=61ab1988-4773-441b-8e44-664cf94e9224"},"vehicle_type_id":"4","last_reported":1690751115,"current_range_meters":31600,"station_id":"ce4bh2h2rcd13ifvqdh0","pricing_plan_id":"free"},{"bike_id":"26346b2d-b43c-4cb8-ae9a-6ba2bd2b2c3c","system_id":"levelo_inurba_marseille","lat":43.294162,"lon":5.386292,"is_reserved":false,"is_disabled":false,"rental_uris":{"android":"levelo://app?vid=26346b2d-b43c-4cb8-ae9a-6ba2bd2b2c3c","ios":"levelo://app?vid=26346b2d-b43c-4cb8-ae9a-6ba2bd2b2c3c"},"vehicle_type_id":"4","last_reported":1690751115,"current_range_meters":20000,"station_id":"ce4bh2h2rcd13ifvqdh0","pricing_plan_id":"free"},{"bike_id":"7510b6db-2e67-48ae-ad6c-df2cf732a9ba","system_id":"levelo_inurba_marseille","lat":43.29409,"lon":5.38627,"is_reserved":false,"is_disabled":false,"rental_uris":{"android":"levelo://app?vid=7510b6db-2e67-48ae-ad6c-df2cf732a9ba","ios":"levelo://app?vid=7510b6db-2e67-48ae-ad6c-df2cf732a9ba"},"vehicle_type_id":"4","last_reported":1690751115,"current_range_meters":29200,"station_id":"ce4bh2h2rcd13ifvqdh0","pricing_plan_id":"free"},{"bike_id":"0ef054ff-dc6b-4648-9279-0105f3ae9ed8","system_id":"levelo_inurba_marseille","lat":43.29282,"lon":5.38449,"is_reserved":false,"is_disabled":false,"rental_uris":{"android":"levelo://app?vid=0ef054ff-dc6b-4648-9279-0105f3ae9ed8","ios":"levelo://app?vid=0ef054ff-dc6b-4648-9279-0105f3ae9ed8"},"vehicle_type_id":"4","last_reported":1690751115,"current_range_meters":10800,"station_id":"ce4bh692rcd13ifvqea0","pricing_plan_id":"free"},{"bike_id":"c3822db5-edb9-4ec2-834c-3d5f6116399e","system_id":"levelo_inurba_marseille","lat":43.29278,"lon":5.38448,"is_reserved":false,"is_disabled":false,"rental_uris":{"android":"levelo://app?vid=c3822db5-edb9-4ec2-834c-3d5f6116399e","ios":"levelo://app?vid=c3822db5-edb9-4ec2-834c-3d5f6116399e"},"vehicle_type_id":"4","last_reported":1690751115,"current_range_meters":31200,"station_id":"ce4bh692rcd13ifvqea0","pricing_plan_id":"free"},{"bike_id":"e21b1b8e-0c7b-49c9-8896-d289f7c789f6","system_id":"levelo_inurba_marseille","lat":43.29274,"lon":5.38454,"is_reserved":false,"is_disabled":false,"rental_uris":{"android":"levelo://app?vid=e21b1b8e-0c7b-49c9-8896-d289f7c789f6","ios":"levelo://app?vid=e21b1b8e-0c7b-49c9-8896-d289f7c789f6"},"vehicle_type_id":"4","last_reported":1690751115,"current_range_meters":31200,"station_id":"ce4bh692rcd13ifvqea0","pricing_plan_id":"free"},{"bike_id":"134ef223-0af9-48f2-bbd1-4d84dd8cb35c","system_id":"levelo_inurba_marseille","lat":43.290104,"lon":5.356111,"is_reserved":false,"is_disabled":false,"rental_uris":{"android":"levelo://app?vid=134ef223-0af9-48f2-bbd1-4d84dd8cb35c","ios":"levelo://app?vid=134ef223-0af9-48f2-bbd1-4d84dd8cb35c"},"vehicle_type_id":"4","last_reported":1690751115,"current_range_meters":31600,"station_id":"ce4bhb92rcd13ifvqen0","pricing_plan_id":"free"},{"bike_id":"f4b8a937-478a-4113-a141-eec483a34759","system_id":"levelo_inurba_marseille","lat":43.29511,"lon":5.38951,"is_reserved":false,"is_disabled":false,"rental_uris":{"android":"levelo://app?vid=f4b8a937-478a-4113-a141-eec483a34759","ios":"levelo://app?vid=f4b8a937-478a-4113-a141-eec483a34759"},"vehicle_type_id":"4","last_reported":1690751115,"current_range_meters":8000,"station_id":"","pricing_plan_id":"free"},{"bike_id":"05bf2cc0-c80b-4d3b-9303-5cea93148e89","system_id":"levelo_inurba_marseille","lat":43.290995,"lon":5.381361,"is_reserved":false,"is_disabled":false,"rental_uris":{"android":"levelo://app?vid=05bf2cc0-c80b-4d3b-9303-5cea93148e89","ios":"levelo://app?vid=05bf2cc0-c80b-4d3b-9303-5cea93148e89"},"vehicle_type_id":"4","last_reported":1690751115,"current_range_meters":31200,"station_id":"ce4bh512rcd13ifvqe2g","pricing_plan_id":"free"},{"bike_id":"a942cf92-22cd-4df3-830b-0379ed8f4259","system_id":"levelo_inurba_marseille","lat":43.29791,"lon":5.39336,"is_reserved":false,"is_disabled":false,"rental_uris":{"android":"levelo://app?vid=a942cf92-22cd-4df3-830b-0379ed8f4259","ios":"levelo://app?vid=a942cf92-22cd-4df3-830b-0379ed8f4259"},"vehicle_type_id":"4","last_reported":1690751115,"current_range_meters":11600,"station_id":"chh1huq6cuj3fo74tm60","pricing_plan_id":"free"},{"bike_id":"d6c41099-0600-4ebc-93e6-cf6f4caebf70","system_id":"levelo_inurba_marseille","lat":43.295169,"lon":5.390426,"is_reserved":false,"is_disabled":false,"rental_uris":{"android":"levelo://app?vid=d6c41099-0600-4ebc-93e6-cf6f4caebf70","ios":"levelo://app?vid=d6c41099-0600-4ebc-93e6-cf6f4caebf70"},"vehicle_type_id":"4","last_reported":1690751115,"current_range_meters":26800,"station_id":"ce4bh3p2rcd13ifvqdp0","pricing_plan_id":"free"},{"bike_id":"fdbeefdb-c49f-418b-acf0-2826725143d8","system_id":"levelo_inurba_marseille","lat":43.295169,"lon":5.390426,"is_reserved":false,"is_disabled":false,"rental_uris":{"android":"levelo://app?vid=fdbeefdb-c49f-418b-acf0-2826725143d8","ios":"levelo://app?vid=fdbeefdb-c49f-418b-acf0-2826725143d8"},"vehicle_type_id":"4","last_reported":1690751115,"current_range_meters":8000,"station_id":"ce4bh3p2rcd13ifvqdp0","pricing_plan_id":"free"},{"bike_id":"10bfb3b6-a271-4ccd-878a-d009de18f840","system_id":"levelo_inurba_marseille","lat":43.29786,"lon":5.39337,"is_reserved":false,"is_disabled":false,"rental_uris":{"android":"levelo://app?vid=10bfb3b6-a271-4ccd-878a-d009de18f840","ios":"levelo://app?vid=10bfb3b6-a271-4ccd-878a-d009de18f840"},"vehicle_type_id":"4","last_reported":1690751115,"current_range_meters":17200,"station_id":"chh1huq6cuj3fo74tm60","pricing_plan_id":"free"},{"bike_id":"46de5829-b215-48bc-8b8d-754394cb277f","system_id":"levelo_inurba_marseille","lat":43.295169,"lon":5.390426,"is_reserved":false,"is_disabled":false,"rental_uris":{"android":"levelo://app?vid=46de5829-b215-48bc-8b8d-754394cb277f","ios":"levelo://app?vid=46de5829-b215-48bc-8b8d-754394cb277f"},"vehicle_type_id":"4","last_reported":1690751115,"current_range_meters":18400,"station_id":"ce4bh3p2rcd13ifvqdp0","pricing_plan_id":"free"},{"bike_id":"c3cc76aa-3935-4776-b8db-66051570bca2","system_id":"levelo_inurba_marseille","lat":43.295169,"lon":5.390426,"is_reserved":false,"is_disabled":false,"rental_uris":{"android":"levelo://app?vid=c3cc76aa-3935-4776-b8db-66051570bca2","ios":"levelo://app?vid=c3cc76aa-3935-4776-b8db-66051570bca2"},"vehicle_type_id":"4","last_reported":1690751115,"current_range_meters":12400,"station_id":"ce4bh3p2rcd13ifvqdp0","pricing_plan_id":"free"},{"bike_id":"18c4c711-aa4b-4f5c-89e7-3216cb739982","system_id":"levelo_inurba_marseille","lat":43.295169,"lon":5.390426,"is_reserved":false,"is_disabled":false,"rental_uris":{"android":"levelo://app?vid=18c4c711-aa4b-4f5c-89e7-3216cb739982","ios":"levelo://app?vid=18c4c711-aa4b-4f5c-89e7-3216cb739982"},"vehicle_type_id":"4","last_reported":1690751115,"current_range_meters":17600,"station_id":"ce4bh3p2rcd13ifvqdp0","pricing_plan_id":"free"},{"bike_id":"9fbb5285-4ffd-44a7-ba8c-e0e7f1466855","system_id":"levelo_inurba_marseille","lat":43.289741,"lon":5.378306,"is_reserved":false,"is_disabled":false,"rental_uris":{"android":"levelo://app?vid=9fbb5285-4ffd-44a7-ba8c-e0e7f1466855","ios":"levelo://app?vid=9fbb5285-4ffd-44a7-ba8c-e0e7f1466855"},"vehicle_type_id":"4","last_reported":1690751115,"current_range_meters":30400,"station_id":"ce4bh9p2rcd13ifvqed0","pricing_plan_id":"free"},{"bike_id":"67c99f1f-ee27-4571-9010-d5da113e8b81","system_id":"levelo_inurba_marseille","lat":43.295169,"lon":5.390426,"is_reserved":false,"is_disabled":false,"rental_uris":{"android":"levelo://app?vid=67c99f1f-ee27-4571-9010-d5da113e8b81","ios":"levelo://app?vid=67c99f1f-ee27-4571-9010-d5da113e8b81"},"vehicle_type_id":"4","last_reported":1690751115,"current_range_meters":23600,"station_id":"ce4bh3p2rcd13ifvqdp0","pricing_plan_id":"free"},{"bike_id":"dfe40fb0-a31b-4849-a1a6-6cfa7729638b","system_id":"levelo_inurba_marseille","lat":43.297815,"lon":5.393548,"is_reserved":false,"is_disabled":false,"rental_uris":{"android":"levelo://app?vid=dfe40fb0-a31b-4849-a1a6-6cfa7729638b","ios":"levelo://app?vid=dfe40fb0-a31b-4849-a1a6-6cfa7729638b"},"vehicle_type_id":"4","last_reported":1690751115,"current_range_meters":31200,"station_id":"chh1huq6cuj3fo74tm60","pricing_plan_id":"free"},{"bike_id":"6d8b26a9-8341-4220-aab3-d7722cb8abee","system_id":"levelo_inurba_marseille","lat":43.295169,"lon":5.390426,"is_reserved":false,"is_disabled":false,"rental_uris":{"android":"levelo://app?vid=6d8b26a9-8341-4220-aab3-d7722cb8abee","ios":"levelo://app?vid=6d8b26a9-8341-4220-aab3-d7722cb8abee"},"vehicle_type_id":"4","last_reported":1690751115,"current_range_meters":31600,"station_id":"ce4bh3p2rcd13ifvqdp0","pricing_plan_id":"free"},{"bike_id":"01bea9d5-120d-4e33-905f-f63c34af6dd2","system_id":"levelo_inurba_marseille","lat":43.295169,"lon":5.390426,"is_reserved":false,"is_disabled":false,"rental_uris":{"android":"levelo://app?vid=01bea9d5-120d-4e33-905f-f63c34af6dd2","ios":"levelo://app?vid=01bea9d5-120d-4e33-905f-f63c34af6dd2"},"vehicle_type_id":"4","last_reported":1690751115,"current_range_meters":16000,"station_id":"ce4bh3p2rcd13ifvqdp0","pricing_plan_id":"free"},{"bike_id":"0d410e2b-a122-4374-a7bd-8783c5192868","system_id":"levelo_inurba_marseille","lat":43.295169,"lon":5.390426,"is_reserved":false,"is_disabled":false,"rental_uris":{"android":"levelo://app?vid=0d410e2b-a122-4374-a7bd-8783c5192868","ios":"levelo://app?vid=0d410e2b-a122-4374-a7bd-8783c5192868"},"vehicle_type_id":"4","last_reported":1690751115,"current_range_meters":24400,"station_id":"ce4bh3p2rcd13ifvqdp0","pricing_plan_id":"free"},{"bike_id":"3d01b93e-3206-4753-814e-fae352f65668","system_id":"levelo_inurba_marseille","lat":43.295169,"lon":5.390426,"is_reserved":false,"is_disabled":false,"rental_uris":{"android":"levelo://app?vid=3d01b93e-3206-4753-814e-fae352f65668","ios":"levelo://app?vid=3d01b93e-3206-4753-814e-fae352f65668"},"vehicle_type_id":"4","last_reported":1690751115,"current_range_meters":14000,"station_id":"ce4bh3p2rcd13ifvqdp0","pricing_plan_id":"free"},{"bike_id":"338bd4be-b087-4988-a356-2bec2b828bee","system_id":"levelo_inurba_marseille","lat":43.295169,"lon":5.390426,"is_reserved":false,"is_disabled":false,"rental_uris":{"android":"levelo://app?vid=338bd4be-b087-4988-a356-2bec2b828bee","ios":"levelo://app?vid=338bd4be-b087-4988-a356-2bec2b828bee"},"vehicle_type_id":"4","last_reported":1690751115,"current_range_meters":29600,"station_id":"ce4bh3p2rcd13ifvqdp0","pricing_plan_id":"free"},{"bike_id":"3b4b0027-43c1-4075-8165-da40a2a39c89","system_id":"levelo_inurba_marseille","lat":43.2901,"lon":5.381269,"is_reserved":false,"is_disabled":false,"rental_uris":{"android":"levelo://app?vid=3b4b0027-43c1-4075-8165-da40a2a39c89","ios":"levelo://app?vid=3b4b0027-43c1-4075-8165-da40a2a39c89"},"vehicle_type_id":"4","last_reported":1690751115,"current_range_meters":8000,"station_id":"ce4bh4p2rcd13ifvqe1g","pricing_plan_id":"free"},{"bike_id":"b0e2e419-23ff-4534-9928-8a4cc6dffb63","system_id":"levelo_inurba_marseille","lat":43.31282,"lon":5.40167,"is_reserved":false,"is_disabled":false,"rental_uris":{"android":"levelo://app?vid=b0e2e419-23ff-4534-9928-8a4cc6dffb63","ios":"levelo://app?vid=b0e2e419-23ff-4534-9928-8a4cc6dffb63"},"vehicle_type_id":"4","last_reported":1690751115,"current_range_meters":20800,"station_id":"ce4bh092rcd13ifvqd30","pricing_plan_id":"free"},{"bike_id":"f5fdb543-1080-4047-8fdb-19dd3e662cee","system_id":"levelo_inurba_marseille","lat":43.31282,"lon":5.40173,"is_reserved":false,"is_disabled":false,"rental_uris":{"android":"levelo://app?vid=f5fdb543-1080-4047-8fdb-19dd3e662cee","ios":"levelo://app?vid=f5fdb543-1080-4047-8fdb-19dd3e662cee"},"vehicle_type_id":"4","last_reported":1690751115,"current_range_meters":11600,"station_id":"ce4bh092rcd13ifvqd30","pricing_plan_id":"free"},{"bike_id":"93bef249-7fdc-408c-81e0-929ae7293663","system_id":"levelo_inurba_marseille","lat":43.3127,"lon":5.40174,"is_reserved":false,"is_disabled":false,"rental_uris":{"android":"levelo://app?vid=93bef249-7fdc-408c-81e0-929ae7293663","ios":"levelo://app?vid=93bef249-7fdc-408c-81e0-929ae7293663"},"vehicle_type_id":"4","last_reported":1690751115,"current_range_meters":3600,"station_id":"ce4bh092rcd13ifvqd30","pricing_plan_id":"free"},{"bike_id":"eac770e5-cbe2-43c8-b38f-c823d4fc3755","system_id":"levelo_inurba_marseille","lat":43.298681,"lon":5.397225,"is_reserved":false,"is_disabled":false,"rental_uris":{"android":"levelo://app?vid=eac770e5-cbe2-43c8-b38f-c823d4fc3755","ios":"levelo://app?vid=eac770e5-cbe2-43c8-b38f-c823d4fc3755"},"vehicle_type_id":"4","last_reported":1690751115,"current_range_meters":11200,"station_id":"ce4bh0h2rcd13ifvqd50","pricing_plan_id":"free"},{"bike_id":"268ec8e7-ecf0-4b8a-b764-c16af2f69dd8","system_id":"levelo_inurba_marseille","lat":43.298681,"lon":5.397225,"is_reserved":false,"is_disabled":false,"rental_uris":{"android":"levelo://app?vid=268ec8e7-ecf0-4b8a-b764-c16af2f69dd8","ios":"levelo://app?vid=268ec8e7-ecf0-4b8a-b764-c16af2f69dd8"},"vehicle_type_id":"4","last_reported":1690751115,"current_range_meters":8800,"station_id":"ce4bh0h2rcd13ifvqd50","pricing_plan_id":"free"},{"bike_id":"c219bd9e-8768-49fd-a600-b24e8ec4ca61","system_id":"levelo_inurba_marseille","lat":43.298681,"lon":5.397225,"is_reserved":false,"is_disabled":false,"rental_uris":{"android":"levelo://app?vid=c219bd9e-8768-49fd-a600-b24e8ec4ca61","ios":"levelo://app?vid=c219bd9e-8768-49fd-a600-b24e8ec4ca61"},"vehicle_type_id":"4","last_reported":1690751115,"current_range_meters":7600,"station_id":"ce4bh0h2rcd13ifvqd50","pricing_plan_id":"free"},{"bike_id":"8d2af8b0-2e07-47ef-9e9b-989c8bf2e89c","system_id":"levelo_inurba_marseille","lat":43.298681,"lon":5.397225,"is_reserved":false,"is_disabled":false,"rental_uris":{"android":"levelo://app?vid=8d2af8b0-2e07-47ef-9e9b-989c8bf2e89c","ios":"levelo://app?vid=8d2af8b0-2e07-47ef-9e9b-989c8bf2e89c"},"vehicle_type_id":"4","last_reported":1690751115,"current_range_meters":6000,"station_id":"ce4bh0h2rcd13ifvqd50","pricing_plan_id":"free"},{"bike_id":"81012a34-da35-4bc5-a517-12b838036ed9","system_id":"levelo_inurba_marseille","lat":43.286593,"lon":5.363346,"is_reserved":false,"is_disabled":false,"rental_uris":{"android":"levelo://app?vid=81012a34-da35-4bc5-a517-12b838036ed9","ios":"levelo://app?vid=81012a34-da35-4bc5-a517-12b838036ed9"},"vehicle_type_id":"4","last_reported":1690751115,"current_range_meters":11200,"station_id":"ce4bhah2rcd13ifvqej0","pricing_plan_id":"free"},{"bike_id":"52f0caf5-2402-4912-b351-dba3b5801a26","system_id":"levelo_inurba_marseille","lat":43.286593,"lon":5.363346,"is_reserved":false,"is_disabled":false,"rental_uris":{"android":"levelo://app?vid=52f0caf5-2402-4912-b351-dba3b5801a26","ios":"levelo://app?vid=52f0caf5-2402-4912-b351-dba3b5801a26"},"vehicle_type_id":"4","last_reported":1690751115,"current_range_meters":31200,"station_id":"ce4bhah2rcd13ifvqej0","pricing_plan_id":"free"},{"bike_id":"627dd332-141e-4afd-a0e9-931510a7b97c","system_id":"levelo_inurba_marseille","lat":43.286591,"lon":5.363346,"is_reserved":false,"is_disabled":false,"rental_uris":{"android":"levelo://app?vid=627dd332-141e-4afd-a0e9-931510a7b97c","ios":"levelo://app?vid=627dd332-141e-4afd-a0e9-931510a7b97c"},"vehicle_type_id":"4","last_reported":1690751115,"current_range_meters":0,"station_id":"ce4bhah2rcd13ifvqej0","pricing_plan_id":"free"},{"bike_id":"f55e3826-5532-4cfa-8727-a070ce08d2c5","system_id":"levelo_inurba_marseille","lat":43.295196,"lon":5.39397,"is_reserved":false,"is_disabled":false,"rental_uris":{"android":"levelo://app?vid=f55e3826-5532-4cfa-8727-a070ce08d2c5","ios":"levelo://app?vid=f55e3826-5532-4cfa-8727-a070ce08d2c5"},"vehicle_type_id":"4","last_reported":1690751115,"current_range_meters":10800,"station_id":"ce4bh292rcd13ifvqdf0","pricing_plan_id":"free"},{"bike_id":"75199276-b705-4ad7-b6a9-49aeaa84628a","system_id":"levelo_inurba_marseille","lat":43.286593,"lon":5.363346,"is_reserved":false,"is_disabled":false,"rental_uris":{"android":"levelo://app?vid=75199276-b705-4ad7-b6a9-49aeaa84628a","ios":"levelo://app?vid=75199276-b705-4ad7-b6a9-49aeaa84628a"},"vehicle_type_id":"4","last_reported":1690751115,"current_range_meters":31600,"station_id":"ce4bhah2rcd13ifvqej0","pricing_plan_id":"free"},{"bike_id":"45fc8628-588e-45ac-ae49-ba41ce002b9b","system_id":"levelo_inurba_marseille","lat":43.295196,"lon":5.39397,"is_reserved":false,"is_disabled":false,"rental_uris":{"android":"levelo://app?vid=45fc8628-588e-45ac-ae49-ba41ce002b9b","ios":"levelo://app?vid=45fc8628-588e-45ac-ae49-ba41ce002b9b"},"vehicle_type_id":"4","last_reported":1690751115,"current_range_meters":0,"station_id":"ce4bh292rcd13ifvqdf0","pricing_plan_id":"free"},{"bike_id":"64d73760-e430-47e4-ac63-681614c2ee0c","system_id":"levelo_inurba_marseille","lat":43.295194,"lon":5.39397,"is_reserved":false,"is_disabled":false,"rental_uris":{"android":"levelo://app?vid=64d73760-e430-47e4-ac63-681614c2ee0c","ios":"levelo://app?vid=64d73760-e430-47e4-ac63-681614c2ee0c"},"vehicle_type_id":"4","last_reported":1690751115,"current_range_meters":0,"station_id":"ce4bh292rcd13ifvqdf0","pricing_plan_id":"free"},{"bike_id":"5ef28139-2979-428b-89a6-94f1efc6c6eb","system_id":"levelo_inurba_marseille","lat":43.286593,"lon":5.363346,"is_reserved":false,"is_disabled":false,"rental_uris":{"android":"levelo://app?vid=5ef28139-2979-428b-89a6-94f1efc6c6eb","ios":"levelo://app?vid=5ef28139-2979-428b-89a6-94f1efc6c6eb"},"vehicle_type_id":"4","last_reported":1690751115,"current_range_meters":10800,"station_id":"ce4bhah2rcd13ifvqej0","pricing_plan_id":"free"},{"bike_id":"74d84c2b-d285-41ee-a905-581851073b93","system_id":"levelo_inurba_marseille","lat":43.295196,"lon":5.39397,"is_reserved":false,"is_disabled":false,"rental_uris":{"android":"levelo://app?vid=74d84c2b-d285-41ee-a905-581851073b93","ios":"levelo://app?vid=74d84c2b-d285-41ee-a905-581851073b93"},"vehicle_type_id":"4","last_reported":1690751115,"current_range_meters":31600,"station_id":"ce4bh292rcd13ifvqdf0","pricing_plan_id":"free"},{"bike_id":"9531259d-5659-4e2f-9bc5-3f7d1cae0c39","system_id":"levelo_inurba_marseille","lat":43.29528,"lon":5.39403,"is_reserved":false,"is_disabled":false,"rental_uris":{"android":"levelo://app?vid=9531259d-5659-4e2f-9bc5-3f7d1cae0c39","ios":"levelo://app?vid=9531259d-5659-4e2f-9bc5-3f7d1cae0c39"},"vehicle_type_id":"4","last_reported":1690751115,"current_range_meters":2800,"station_id":"","pricing_plan_id":"free"},{"bike_id":"d8f254ea-027c-44cd-8eaf-c8dd87c83a75","system_id":"levelo_inurba_marseille","lat":43.295194,"lon":5.39397,"is_reserved":false,"is_disabled":false,"rental_uris":{"android":"levelo://app?vid=d8f254ea-027c-44cd-8eaf-c8dd87c83a75","ios":"levelo://app?vid=d8f254ea-027c-44cd-8eaf-c8dd87c83a75"},"vehicle_type_id":"4","last_reported":1690751115,"current_range_meters":0,"station_id":"ce4bh292rcd13ifvqdf0","pricing_plan_id":"free"},{"bike_id":"036b8bf0-113d-42b6-808f-ba5f2ebfb658","system_id":"levelo_inurba_marseille","lat":43.295194,"lon":5.39397,"is_reserved":false,"is_disabled":false,"rental_uris":{"android":"levelo://app?vid=036b8bf0-113d-42b6-808f-ba5f2ebfb658","ios":"levelo://app?vid=036b8bf0-113d-42b6-808f-ba5f2ebfb658"},"vehicle_type_id":"4","last_reported":1690751115,"current_range_meters":25600,"station_id":"ce4bh292rcd13ifvqdf0","pricing_plan_id":"free"},{"bike_id":"7bb206cc-0fbb-4d51-8509-907beaae6a4d","system_id":"levelo_inurba_marseille","lat":43.295194,"lon":5.39397,"is_reserved":false,"is_disabled":false,"rental_uris":{"android":"levelo://app?vid=7bb206cc-0fbb-4d51-8509-907beaae6a4d","ios":"levelo://app?vid=7bb206cc-0fbb-4d51-8509-907beaae6a4d"},"vehicle_type_id":"4","last_reported":1690751115,"current_range_meters":9600,"station_id":"ce4bh292rcd13ifvqdf0","pricing_plan_id":"free"},{"bike_id":"a6071f6b-d48f-4432-b6f3-7cffaf9a586a","system_id":"levelo_inurba_marseille","lat":43.290336,"lon":5.386425,"is_reserved":false,"is_disabled":false,"rental_uris":{"android":"levelo://app?vid=a6071f6b-d48f-4432-b6f3-7cffaf9a586a","ios":"levelo://app?vid=a6071f6b-d48f-4432-b6f3-7cffaf9a586a"},"vehicle_type_id":"4","last_reported":1690751115,"current_range_meters":6800,"station_id":"ce4bh4p2rcd13ifvqe0g","pricing_plan_id":"free"},{"bike_id":"af4c662b-0d10-4cbf-8d84-7a26896e0159","system_id":"levelo_inurba_marseille","lat":43.29026,"lon":5.38631,"is_reserved":false,"is_disabled":false,"rental_uris":{"android":"levelo://app?vid=af4c662b-0d10-4cbf-8d84-7a26896e0159","ios":"levelo://app?vid=af4c662b-0d10-4cbf-8d84-7a26896e0159"},"vehicle_type_id":"4","last_reported":1690751115,"current_range_meters":25600,"station_id":"ce4bh4p2rcd13ifvqe0g","pricing_plan_id":"free"},{"bike_id":"d8085eed-55d8-47cc-b2bd-3503caaeb37d","system_id":"levelo_inurba_marseille","lat":43.29031,"lon":5.38646,"is_reserved":false,"is_disabled":false,"rental_uris":{"android":"levelo://app?vid=d8085eed-55d8-47cc-b2bd-3503caaeb37d","ios":"levelo://app?vid=d8085eed-55d8-47cc-b2bd-3503caaeb37d"},"vehicle_type_id":"4","last_reported":1690751115,"current_range_meters":18000,"station_id":"ce4bh4p2rcd13ifvqe0g","pricing_plan_id":"free"},{"bike_id":"a85c417e-c72d-414d-9cd3-85a4d6b6a380","system_id":"levelo_inurba_marseille","lat":43.2903,"lon":5.38644,"is_reserved":false,"is_disabled":false,"rental_uris":{"android":"levelo://app?vid=a85c417e-c72d-414d-9cd3-85a4d6b6a380","ios":"levelo://app?vid=a85c417e-c72d-414d-9cd3-85a4d6b6a380"},"vehicle_type_id":"4","last_reported":1690751115,"current_range_meters":0,"station_id":"ce4bh4p2rcd13ifvqe0g","pricing_plan_id":"free"},{"bike_id":"2af4d9d5-7c0a-4f6f-8ba2-f25c31ae2f9a","system_id":"levelo_inurba_marseille","lat":43.29023,"lon":5.38631,"is_reserved":false,"is_disabled":false,"rental_uris":{"android":"levelo://app?vid=2af4d9d5-7c0a-4f6f-8ba2-f25c31ae2f9a","ios":"levelo://app?vid=2af4d9d5-7c0a-4f6f-8ba2-f25c31ae2f9a"},"vehicle_type_id":"4","last_reported":1690751115,"current_range_meters":24800,"station_id":"ce4bh4p2rcd13ifvqe0g","pricing_plan_id":"free"},{"bike_id":"6ae55bd2-114d-4785-9c51-ae6be8cc815c","system_id":"levelo_inurba_marseille","lat":43.290336,"lon":5.386425,"is_reserved":false,"is_disabled":false,"rental_uris":{"android":"levelo://app?vid=6ae55bd2-114d-4785-9c51-ae6be8cc815c","ios":"levelo://app?vid=6ae55bd2-114d-4785-9c51-ae6be8cc815c"},"vehicle_type_id":"4","last_reported":1690751115,"current_range_meters":11200,"station_id":"ce4bh4p2rcd13ifvqe0g","pricing_plan_id":"free"},{"bike_id":"1af43651-7ead-41b1-9bc4-9c45caa3a307","system_id":"levelo_inurba_marseille","lat":43.302759,"lon":5.400793,"is_reserved":false,"is_disabled":false,"rental_uris":{"android":"levelo://app?vid=1af43651-7ead-41b1-9bc4-9c45caa3a307","ios":"levelo://app?vid=1af43651-7ead-41b1-9bc4-9c45caa3a307"},"vehicle_type_id":"4","last_reported":1690751115,"current_range_meters":17600,"station_id":"ce4bgvh2rcd13ifvqcs0","pricing_plan_id":"free"},{"bike_id":"3734f612-7fa1-4d44-aa1a-78551ea0511e","system_id":"levelo_inurba_marseille","lat":43.287184,"lon":5.37937,"is_reserved":false,"is_disabled":false,"rental_uris":{"android":"levelo://app?vid=3734f612-7fa1-4d44-aa1a-78551ea0511e","ios":"levelo://app?vid=3734f612-7fa1-4d44-aa1a-78551ea0511e"},"vehicle_type_id":"4","last_reported":1690751115,"current_range_meters":6800,"station_id":"ce4bh9p2rcd13ifvqec0","pricing_plan_id":"free"},{"bike_id":"74db9097-bb72-40a1-a043-aa8849d1526d","system_id":"levelo_inurba_marseille","lat":43.287185,"lon":5.379373,"is_reserved":false,"is_disabled":false,"rental_uris":{"android":"levelo://app?vid=74db9097-bb72-40a1-a043-aa8849d1526d","ios":"levelo://app?vid=74db9097-bb72-40a1-a043-aa8849d1526d"},"vehicle_type_id":"4","last_reported":1690751115,"current_range_meters":0,"station_id":"ce4bh9p2rcd13ifvqec0","pricing_plan_id":"free"},{"bike_id":"37ba8230-432d-490c-b80d-7c81b006f516","system_id":"levelo_inurba_marseille","lat":43.287184,"lon":5.37937,"is_reserved":false,"is_disabled":false,"rental_uris":{"android":"levelo://app?vid=37ba8230-432d-490c-b80d-7c81b006f516","ios":"levelo://app?vid=37ba8230-432d-490c-b80d-7c81b006f516"},"vehicle_type_id":"4","last_reported":1690751115,"current_range_meters":4000,"station_id":"ce4bh9p2rcd13ifvqec0","pricing_plan_id":"free"},{"bike_id":"5baa0d27-7676-4150-af5c-274e3c7a4828","system_id":"levelo_inurba_marseille","lat":43.287185,"lon":5.379373,"is_reserved":false,"is_disabled":false,"rental_uris":{"android":"levelo://app?vid=5baa0d27-7676-4150-af5c-274e3c7a4828","ios":"levelo://app?vid=5baa0d27-7676-4150-af5c-274e3c7a4828"},"vehicle_type_id":"4","last_reported":1690751115,"current_range_meters":29600,"station_id":"ce4bh9p2rcd13ifvqec0","pricing_plan_id":"free"},{"bike_id":"fcc30dab-1e0c-482e-b26a-49546ad8766c","system_id":"levelo_inurba_marseille","lat":43.314811,"lon":5.373103,"is_reserved":false,"is_disabled":false,"rental_uris":{"android":"levelo://app?vid=fcc30dab-1e0c-482e-b26a-49546ad8766c","ios":"levelo://app?vid=fcc30dab-1e0c-482e-b26a-49546ad8766c"},"vehicle_type_id":"4","last_reported":1690751115,"current_range_meters":25200,"station_id":"ce4bgt12rcd13ifvqcd0","pricing_plan_id":"free"},{"bike_id":"d78ad56a-9f61-40d6-8f06-4d3a7295745b","system_id":"levelo_inurba_marseille","lat":43.31646,"lon":5.4044,"is_reserved":false,"is_disabled":false,"rental_uris":{"android":"levelo://app?vid=d78ad56a-9f61-40d6-8f06-4d3a7295745b","ios":"levelo://app?vid=d78ad56a-9f61-40d6-8f06-4d3a7295745b"},"vehicle_type_id":"4","last_reported":1690751115,"current_range_meters":5600,"station_id":"ce4bh012rcd13ifvqd00","pricing_plan_id":"free"},{"bike_id":"99c50597-4800-4e25-bd3e-243b23cee58b","system_id":"levelo_inurba_marseille","lat":43.292,"lon":5.39315,"is_reserved":false,"is_disabled":false,"rental_uris":{"android":"levelo://app?vid=99c50597-4800-4e25-bd3e-243b23cee58b","ios":"levelo://app?vid=99c50597-4800-4e25-bd3e-243b23cee58b"},"vehicle_type_id":"4","last_reported":1690751115,"current_range_meters":0,"station_id":"ce4bh192rcd13ifvqdd0","pricing_plan_id":"free"},{"bike_id":"202171f4-9b29-4a2c-948b-5ae7cceef0fc","system_id":"levelo_inurba_marseille","lat":43.29198,"lon":5.39317,"is_reserved":false,"is_disabled":false,"rental_uris":{"android":"levelo://app?vid=202171f4-9b29-4a2c-948b-5ae7cceef0fc","ios":"levelo://app?vid=202171f4-9b29-4a2c-948b-5ae7cceef0fc"},"vehicle_type_id":"4","last_reported":1690751115,"current_range_meters":0,"station_id":"ce4bh192rcd13ifvqdd0","pricing_plan_id":"free"},{"bike_id":"2031df79-00a3-4673-925c-7cd529afbfb3","system_id":"levelo_inurba_marseille","lat":43.291994,"lon":5.392907,"is_reserved":false,"is_disabled":false,"rental_uris":{"android":"levelo://app?vid=2031df79-00a3-4673-925c-7cd529afbfb3","ios":"levelo://app?vid=2031df79-00a3-4673-925c-7cd529afbfb3"},"vehicle_type_id":"4","last_reported":1690751115,"current_range_meters":26000,"station_id":"ce4bh192rcd13ifvqdd0","pricing_plan_id":"free"},{"bike_id":"ec3564f4-fe91-446e-a5fb-3325ae3a547b","system_id":"levelo_inurba_marseille","lat":43.291994,"lon":5.392907,"is_reserved":false,"is_disabled":false,"rental_uris":{"android":"levelo://app?vid=ec3564f4-fe91-446e-a5fb-3325ae3a547b","ios":"levelo://app?vid=ec3564f4-fe91-446e-a5fb-3325ae3a547b"},"vehicle_type_id":"4","last_reported":1690751115,"current_range_meters":5200,"station_id":"ce4bh192rcd13ifvqdd0","pricing_plan_id":"free"},{"bike_id":"44f1382b-dd81-4d72-8701-6af0dbe87b23","system_id":"levelo_inurba_marseille","lat":43.291994,"lon":5.392907,"is_reserved":false,"is_disabled":false,"rental_uris":{"android":"levelo://app?vid=44f1382b-dd81-4d72-8701-6af0dbe87b23","ios":"levelo://app?vid=44f1382b-dd81-4d72-8701-6af0dbe87b23"},"vehicle_type_id":"4","last_reported":1690751115,"current_range_meters":2400,"station_id":"ce4bh192rcd13ifvqdd0","pricing_plan_id":"free"},{"bike_id":"6692445a-4117-4d85-ab4b-f698758530c8","system_id":"levelo_inurba_marseille","lat":43.291994,"lon":5.392907,"is_reserved":false,"is_disabled":false,"rental_uris":{"android":"levelo://app?vid=6692445a-4117-4d85-ab4b-f698758530c8","ios":"levelo://app?vid=6692445a-4117-4d85-ab4b-f698758530c8"},"vehicle_type_id":"4","last_reported":1690751115,"current_range_meters":19600,"station_id":"ce4bh192rcd13ifvqdd0","pricing_plan_id":"free"},{"bike_id":"1f4cc0af-54d1-41c0-9200-8f463311f03e","system_id":"levelo_inurba_marseille","lat":43.291994,"lon":5.392907,"is_reserved":false,"is_disabled":false,"rental_uris":{"android":"levelo://app?vid=1f4cc0af-54d1-41c0-9200-8f463311f03e","ios":"levelo://app?vid=1f4cc0af-54d1-41c0-9200-8f463311f03e"},"vehicle_type_id":"4","last_reported":1690751115,"current_range_meters":19200,"station_id":"ce4bh192rcd13ifvqdd0","pricing_plan_id":"free"},{"bike_id":"0c2563a9-a8ff-44b0-91c3-52c9c13e56b7","system_id":"levelo_inurba_marseille","lat":43.291994,"lon":5.392907,"is_reserved":false,"is_disabled":false,"rental_uris":{"android":"levelo://app?vid=0c2563a9-a8ff-44b0-91c3-52c9c13e56b7","ios":"levelo://app?vid=0c2563a9-a8ff-44b0-91c3-52c9c13e56b7"},"vehicle_type_id":"4","last_reported":1690751115,"current_range_meters":9600,"station_id":"ce4bh192rcd13ifvqdd0","pricing_plan_id":"free"},{"bike_id":"f56860e2-f82d-4e5c-9b55-f8ae9d2af462","system_id":"levelo_inurba_marseille","lat":43.294314,"lon":5.397498,"is_reserved":false,"is_disabled":false,"rental_uris":{"android":"levelo://app?vid=f56860e2-f82d-4e5c-9b55-f8ae9d2af462","ios":"levelo://app?vid=f56860e2-f82d-4e5c-9b55-f8ae9d2af462"},"vehicle_type_id":"4","last_reported":1690751115,"current_range_meters":31600,"station_id":"ce4bh3h2rcd13ifvqdo0","pricing_plan_id":"free"},{"bike_id":"879c059f-e1b8-4860-8f7a-7e4e30c0a664","system_id":"levelo_inurba_marseille","lat":43.294314,"lon":5.397498,"is_reserved":false,"is_disabled":false,"rental_uris":{"android":"levelo://app?vid=879c059f-e1b8-4860-8f7a-7e4e30c0a664","ios":"levelo://app?vid=879c059f-e1b8-4860-8f7a-7e4e30c0a664"},"vehicle_type_id":"4","last_reported":1690751115,"current_range_meters":8400,"station_id":"ce4bh3h2rcd13ifvqdo0","pricing_plan_id":"free"},{"bike_id":"e5a3c789-f259-47e9-bbc6-2c0dd809354c","system_id":"levelo_inurba_marseille","lat":43.294314,"lon":5.397498,"is_reserved":false,"is_disabled":false,"rental_uris":{"android":"levelo://app?vid=e5a3c789-f259-47e9-bbc6-2c0dd809354c","ios":"levelo://app?vid=e5a3c789-f259-47e9-bbc6-2c0dd809354c"},"vehicle_type_id":"4","last_reported":1690751115,"current_range_meters":25200,"station_id":"ce4bh3h2rcd13ifvqdo0","pricing_plan_id":"free"},{"bike_id":"4fd0c06e-580c-465f-addc-a7d3f18fedc1","system_id":"levelo_inurba_marseille","lat":43.294314,"lon":5.397498,"is_reserved":false,"is_disabled":false,"rental_uris":{"android":"levelo://app?vid=4fd0c06e-580c-465f-addc-a7d3f18fedc1","ios":"levelo://app?vid=4fd0c06e-580c-465f-addc-a7d3f18fedc1"},"vehicle_type_id":"4","last_reported":1690751115,"current_range_meters":13200,"station_id":"ce4bh3h2rcd13ifvqdo0","pricing_plan_id":"free"},{"bike_id":"8f4719b0-a5a1-4b6c-96e7-1fbd327f0843","system_id":"levelo_inurba_marseille","lat":43.294314,"lon":5.397498,"is_reserved":false,"is_disabled":false,"rental_uris":{"android":"levelo://app?vid=8f4719b0-a5a1-4b6c-96e7-1fbd327f0843","ios":"levelo://app?vid=8f4719b0-a5a1-4b6c-96e7-1fbd327f0843"},"vehicle_type_id":"4","last_reported":1690751115,"current_range_meters":29600,"station_id":"ce4bh3h2rcd13ifvqdo0","pricing_plan_id":"free"},{"bike_id":"5b112069-dd75-4a1c-a0d8-84fb8f414b25","system_id":"levelo_inurba_marseille","lat":43.28614,"lon":5.35103,"is_reserved":false,"is_disabled":false,"rental_uris":{"android":"levelo://app?vid=5b112069-dd75-4a1c-a0d8-84fb8f414b25","ios":"levelo://app?vid=5b112069-dd75-4a1c-a0d8-84fb8f414b25"},"vehicle_type_id":"4","last_reported":1690751115,"current_range_meters":24000,"station_id":"ce4bhch2rcd13ifvqeug","pricing_plan_id":"free"},{"bike_id":"0ca3236e-679c-4cdd-9f53-d5303defbf93","system_id":"levelo_inurba_marseille","lat":43.28414,"lon":5.37508,"is_reserved":false,"is_disabled":false,"rental_uris":{"android":"levelo://app?vid=0ca3236e-679c-4cdd-9f53-d5303defbf93","ios":"levelo://app?vid=0ca3236e-679c-4cdd-9f53-d5303defbf93"},"vehicle_type_id":"4","last_reported":1690751115,"current_range_meters":22800,"station_id":"ce4bh412rcd13ifvqds0","pricing_plan_id":"free"},{"bike_id":"01b7d93f-e411-42ff-bd03-0bc5d1c372d8","system_id":"levelo_inurba_marseille","lat":43.283998,"lon":5.375062,"is_reserved":false,"is_disabled":false,"rental_uris":{"android":"levelo://app?vid=01b7d93f-e411-42ff-bd03-0bc5d1c372d8","ios":"levelo://app?vid=01b7d93f-e411-42ff-bd03-0bc5d1c372d8"},"vehicle_type_id":"4","last_reported":1690751115,"current_range_meters":0,"station_id":"ce4bh412rcd13ifvqds0","pricing_plan_id":"free"},{"bike_id":"d9e64e89-b46c-48e4-b3ef-bf33315bca12","system_id":"levelo_inurba_marseille","lat":43.28412,"lon":5.37518,"is_reserved":false,"is_disabled":false,"rental_uris":{"android":"levelo://app?vid=d9e64e89-b46c-48e4-b3ef-bf33315bca12","ios":"levelo://app?vid=d9e64e89-b46c-48e4-b3ef-bf33315bca12"},"vehicle_type_id":"4","last_reported":1690751115,"current_range_meters":28400,"station_id":"ce4bh412rcd13ifvqds0","pricing_plan_id":"free"},{"bike_id":"f0d80e87-928d-4f2e-9ffa-10b9601fc667","system_id":"levelo_inurba_marseille","lat":43.295713,"lon":5.399639,"is_reserved":false,"is_disabled":false,"rental_uris":{"android":"levelo://app?vid=f0d80e87-928d-4f2e-9ffa-10b9601fc667","ios":"levelo://app?vid=f0d80e87-928d-4f2e-9ffa-10b9601fc667"},"vehicle_type_id":"4","last_reported":1690751115,"current_range_meters":12800,"station_id":"ce4bh312rcd13ifvqdj0","pricing_plan_id":"free"},{"bike_id":"bdcfc3a3-76ce-4261-b323-4615892e5751","system_id":"levelo_inurba_marseille","lat":43.295713,"lon":5.399639,"is_reserved":false,"is_disabled":false,"rental_uris":{"android":"levelo://app?vid=bdcfc3a3-76ce-4261-b323-4615892e5751","ios":"levelo://app?vid=bdcfc3a3-76ce-4261-b323-4615892e5751"},"vehicle_type_id":"4","last_reported":1690751115,"current_range_meters":5600,"station_id":"ce4bh312rcd13ifvqdj0","pricing_plan_id":"free"},{"bike_id":"d3529fb7-7b5b-4106-8cd3-e1270124a2db","system_id":"levelo_inurba_marseille","lat":43.286595,"lon":5.386795,"is_reserved":false,"is_disabled":false,"rental_uris":{"android":"levelo://app?vid=d3529fb7-7b5b-4106-8cd3-e1270124a2db","ios":"levelo://app?vid=d3529fb7-7b5b-4106-8cd3-e1270124a2db"},"vehicle_type_id":"4","last_reported":1690751115,"current_range_meters":6800,"station_id":"ce4bh492rcd13ifvqdug","pricing_plan_id":"free"},{"bike_id":"a400f65a-99ca-45c3-a6fb-01baca0c67db","system_id":"levelo_inurba_marseille","lat":43.286595,"lon":5.386795,"is_reserved":false,"is_disabled":false,"rental_uris":{"android":"levelo://app?vid=a400f65a-99ca-45c3-a6fb-01baca0c67db","ios":"levelo://app?vid=a400f65a-99ca-45c3-a6fb-01baca0c67db"},"vehicle_type_id":"4","last_reported":1690751115,"current_range_meters":6400,"station_id":"ce4bh492rcd13ifvqdug","pricing_plan_id":"free"},{"bike_id":"8be36985-470e-452c-bc24-29e3c3a6b0e5","system_id":"levelo_inurba_marseille","lat":43.31881,"lon":5.40745,"is_reserved":false,"is_disabled":false,"rental_uris":{"android":"levelo://app?vid=8be36985-470e-452c-bc24-29e3c3a6b0e5","ios":"levelo://app?vid=8be36985-470e-452c-bc24-29e3c3a6b0e5"},"vehicle_type_id":"4","last_reported":1690751115,"current_range_meters":31200,"station_id":"","pricing_plan_id":"free"},{"bike_id":"dc399c37-82f8-4f6e-835e-5fb100725856","system_id":"levelo_inurba_marseille","lat":43.29828,"lon":5.40356,"is_reserved":false,"is_disabled":false,"rental_uris":{"android":"levelo://app?vid=dc399c37-82f8-4f6e-835e-5fb100725856","ios":"levelo://app?vid=dc399c37-82f8-4f6e-835e-5fb100725856"},"vehicle_type_id":"4","last_reported":1690751115,"current_range_meters":31600,"station_id":"","pricing_plan_id":"free"},{"bike_id":"1cd10330-8c82-4645-9e31-791aa547d0aa","system_id":"levelo_inurba_marseille","lat":43.33719,"lon":5.39184,"is_reserved":false,"is_disabled":false,"rental_uris":{"android":"levelo://app?vid=1cd10330-8c82-4645-9e31-791aa547d0aa","ios":"levelo://app?vid=1cd10330-8c82-4645-9e31-791aa547d0aa"},"vehicle_type_id":"4","last_reported":1690751115,"current_range_meters":24800,"station_id":"ce4bhr92rcd13ifvqhsg","pricing_plan_id":"free"},{"bike_id":"c214d605-66d3-4e2d-8d08-d523874da159","system_id":"levelo_inurba_marseille","lat":43.33726,"lon":5.39177,"is_reserved":false,"is_disabled":false,"rental_uris":{"android":"levelo://app?vid=c214d605-66d3-4e2d-8d08-d523874da159","ios":"levelo://app?vid=c214d605-66d3-4e2d-8d08-d523874da159"},"vehicle_type_id":"4","last_reported":1690751115,"current_range_meters":19600,"station_id":"ce4bhr92rcd13ifvqhsg","pricing_plan_id":"free"},{"bike_id":"e78794ab-1147-4e07-9747-4f03804e7014","system_id":"levelo_inurba_marseille","lat":43.33724,"lon":5.39188,"is_reserved":false,"is_disabled":false,"rental_uris":{"android":"levelo://app?vid=e78794ab-1147-4e07-9747-4f03804e7014","ios":"levelo://app?vid=e78794ab-1147-4e07-9747-4f03804e7014"},"vehicle_type_id":"4","last_reported":1690751115,"current_range_meters":23600,"station_id":"ce4bhr92rcd13ifvqhsg","pricing_plan_id":"free"},{"bike_id":"75a5ef6a-cf0c-428b-a209-f7db5aacfd22","system_id":"levelo_inurba_marseille","lat":43.28504,"lon":5.38447,"is_reserved":false,"is_disabled":false,"rental_uris":{"android":"levelo://app?vid=75a5ef6a-cf0c-428b-a209-f7db5aacfd22","ios":"levelo://app?vid=75a5ef6a-cf0c-428b-a209-f7db5aacfd22"},"vehicle_type_id":"4","last_reported":1690751115,"current_range_meters":30800,"station_id":"ce4bh512rcd13ifvqe3g","pricing_plan_id":"free"},{"bike_id":"db9f1e9d-fa2e-4ef5-a5ae-91308d412f1f","system_id":"levelo_inurba_marseille","lat":43.32338,"lon":5.40625,"is_reserved":false,"is_disabled":false,"rental_uris":{"android":"levelo://app?vid=db9f1e9d-fa2e-4ef5-a5ae-91308d412f1f","ios":"levelo://app?vid=db9f1e9d-fa2e-4ef5-a5ae-91308d412f1f"},"vehicle_type_id":"4","last_reported":1690751115,"current_range_meters":14800,"station_id":"ce4bhq92rcd13ifvqhjg","pricing_plan_id":"free"},{"bike_id":"273f5b3a-2c28-4054-9657-8671a8f3f4c9","system_id":"levelo_inurba_marseille","lat":43.284787,"lon":5.384116,"is_reserved":false,"is_disabled":false,"rental_uris":{"android":"levelo://app?vid=273f5b3a-2c28-4054-9657-8671a8f3f4c9","ios":"levelo://app?vid=273f5b3a-2c28-4054-9657-8671a8f3f4c9"},"vehicle_type_id":"4","last_reported":1690751115,"current_range_meters":14000,"station_id":"ce4bh512rcd13ifvqe3g","pricing_plan_id":"free"},{"bike_id":"5fc5209d-e233-48a4-9eb3-aed99750d4fb","system_id":"levelo_inurba_marseille","lat":43.284793,"lon":5.384113,"is_reserved":false,"is_disabled":false,"rental_uris":{"android":"levelo://app?vid=5fc5209d-e233-48a4-9eb3-aed99750d4fb","ios":"levelo://app?vid=5fc5209d-e233-48a4-9eb3-aed99750d4fb"},"vehicle_type_id":"4","last_reported":1690751115,"current_range_meters":15200,"station_id":"ce4bh512rcd13ifvqe3g","pricing_plan_id":"free"},{"bike_id":"5beb1b33-2283-4e57-94a0-0ef3a0d1c76e","system_id":"levelo_inurba_marseille","lat":43.28473,"lon":5.384095,"is_reserved":false,"is_disabled":false,"rental_uris":{"android":"levelo://app?vid=5beb1b33-2283-4e57-94a0-0ef3a0d1c76e","ios":"levelo://app?vid=5beb1b33-2283-4e57-94a0-0ef3a0d1c76e"},"vehicle_type_id":"4","last_reported":1690751115,"current_range_meters":31200,"station_id":"ce4bh512rcd13ifvqe3g","pricing_plan_id":"free"},{"bike_id":"f09f04e3-d2ec-42ee-8ec8-2abaa8b10003","system_id":"levelo_inurba_marseille","lat":43.284793,"lon":5.384113,"is_reserved":false,"is_disabled":false,"rental_uris":{"android":"levelo://app?vid=f09f04e3-d2ec-42ee-8ec8-2abaa8b10003","ios":"levelo://app?vid=f09f04e3-d2ec-42ee-8ec8-2abaa8b10003"},"vehicle_type_id":"4","last_reported":1690751115,"current_range_meters":31600,"station_id":"ce4bh512rcd13ifvqe3g","pricing_plan_id":"free"},{"bike_id":"dcf4b80e-962e-48c4-b99a-ad3838d79dc5","system_id":"levelo_inurba_marseille","lat":43.288501,"lon":5.393087,"is_reserved":false,"is_disabled":false,"rental_uris":{"android":"levelo://app?vid=dcf4b80e-962e-48c4-b99a-ad3838d79dc5","ios":"levelo://app?vid=dcf4b80e-962e-48c4-b99a-ad3838d79dc5"},"vehicle_type_id":"4","last_reported":1690751115,"current_range_meters":0,"station_id":"ce4bh2p2rcd13ifvqdi0","pricing_plan_id":"free"},{"bike_id":"b3c3e538-0642-4217-b9b0-cfe248929962","system_id":"levelo_inurba_marseille","lat":43.28463,"lon":5.3844,"is_reserved":false,"is_disabled":false,"rental_uris":{"android":"levelo://app?vid=b3c3e538-0642-4217-b9b0-cfe248929962","ios":"levelo://app?vid=b3c3e538-0642-4217-b9b0-cfe248929962"},"vehicle_type_id":"4","last_reported":1690751115,"current_range_meters":4800,"station_id":"ce4bh512rcd13ifvqe3g","pricing_plan_id":"free"},{"bike_id":"b0eac037-3f8a-49f6-8ce5-67c985c5f9d4","system_id":"levelo_inurba_marseille","lat":43.288501,"lon":5.393087,"is_reserved":false,"is_disabled":false,"rental_uris":{"android":"levelo://app?vid=b0eac037-3f8a-49f6-8ce5-67c985c5f9d4","ios":"levelo://app?vid=b0eac037-3f8a-49f6-8ce5-67c985c5f9d4"},"vehicle_type_id":"4","last_reported":1690751115,"current_range_meters":20800,"station_id":"ce4bh2p2rcd13ifvqdi0","pricing_plan_id":"free"},{"bike_id":"c55f02b9-6be9-418f-94f6-346d4e3ed12e","system_id":"levelo_inurba_marseille","lat":43.283494,"lon":5.380945,"is_reserved":false,"is_disabled":false,"rental_uris":{"android":"levelo://app?vid=c55f02b9-6be9-418f-94f6-346d4e3ed12e","ios":"levelo://app?vid=c55f02b9-6be9-418f-94f6-346d4e3ed12e"},"vehicle_type_id":"4","last_reported":1690751115,"current_range_meters":21200,"station_id":"ce4bh412rcd13ifvqdr0","pricing_plan_id":"free"},{"bike_id":"cdaa888c-5fd6-49b0-a1d1-8d16a6539598","system_id":"levelo_inurba_marseille","lat":43.288497,"lon":5.393089,"is_reserved":false,"is_disabled":false,"rental_uris":{"android":"levelo://app?vid=cdaa888c-5fd6-49b0-a1d1-8d16a6539598","ios":"levelo://app?vid=cdaa888c-5fd6-49b0-a1d1-8d16a6539598"},"vehicle_type_id":"4","last_reported":1690751115,"current_range_meters":16800,"station_id":"ce4bh2p2rcd13ifvqdi0","pricing_plan_id":"free"},{"bike_id":"5dad3a80-cbf4-4b6b-9429-949686fcac77","system_id":"levelo_inurba_marseille","lat":43.283494,"lon":5.380945,"is_reserved":false,"is_disabled":false,"rental_uris":{"android":"levelo://app?vid=5dad3a80-cbf4-4b6b-9429-949686fcac77","ios":"levelo://app?vid=5dad3a80-cbf4-4b6b-9429-949686fcac77"},"vehicle_type_id":"4","last_reported":1690751115,"current_range_meters":17600,"station_id":"ce4bh412rcd13ifvqdr0","pricing_plan_id":"free"},{"bike_id":"7b845670-63ea-4481-80f8-be2a76e055a0","system_id":"levelo_inurba_marseille","lat":43.28345,"lon":5.38109,"is_reserved":false,"is_disabled":false,"rental_uris":{"android":"levelo://app?vid=7b845670-63ea-4481-80f8-be2a76e055a0","ios":"levelo://app?vid=7b845670-63ea-4481-80f8-be2a76e055a0"},"vehicle_type_id":"4","last_reported":1690751115,"current_range_meters":0,"station_id":"ce4bh412rcd13ifvqdr0","pricing_plan_id":"free"},{"bike_id":"4f14fc10-9244-4a80-adcd-5a2b3dcde3e5","system_id":"levelo_inurba_marseille","lat":43.28339,"lon":5.38101,"is_reserved":false,"is_disabled":false,"rental_uris":{"android":"levelo://app?vid=4f14fc10-9244-4a80-adcd-5a2b3dcde3e5","ios":"levelo://app?vid=4f14fc10-9244-4a80-adcd-5a2b3dcde3e5"},"vehicle_type_id":"4","last_reported":1690751115,"current_range_meters":14000,"station_id":"ce4bh412rcd13ifvqdr0","pricing_plan_id":"free"},{"bike_id":"edb26cb6-242d-4ac5-ba6e-f37ff60e3a33","system_id":"levelo_inurba_marseille","lat":43.28935,"lon":5.3963,"is_reserved":false,"is_disabled":false,"rental_uris":{"android":"levelo://app?vid=edb26cb6-242d-4ac5-ba6e-f37ff60e3a33","ios":"levelo://app?vid=edb26cb6-242d-4ac5-ba6e-f37ff60e3a33"},"vehicle_type_id":"4","last_reported":1690751115,"current_range_meters":19200,"station_id":"ce4bh3h2rcd13ifvqdn0","pricing_plan_id":"free"},{"bike_id":"c67fd003-011a-42e2-85f2-2714de5997e4","system_id":"levelo_inurba_marseille","lat":43.3251,"lon":5.40759,"is_reserved":false,"is_disabled":false,"rental_uris":{"android":"levelo://app?vid=c67fd003-011a-42e2-85f2-2714de5997e4","ios":"levelo://app?vid=c67fd003-011a-42e2-85f2-2714de5997e4"},"vehicle_type_id":"4","last_reported":1690751115,"current_range_meters":1600,"station_id":"","pricing_plan_id":"free"},{"bike_id":"310116e4-c066-4845-b90e-d028b7280339","system_id":"levelo_inurba_marseille","lat":43.28274,"lon":5.35076,"is_reserved":false,"is_disabled":false,"rental_uris":{"android":"levelo://app?vid=310116e4-c066-4845-b90e-d028b7280339","ios":"levelo://app?vid=310116e4-c066-4845-b90e-d028b7280339"},"vehicle_type_id":"4","last_reported":1690751115,"current_range_meters":31200,"station_id":"ce4bhbp2rcd13ifvqerg","pricing_plan_id":"free"},{"bike_id":"a739b9e4-902b-4328-8e61-dec54a30e2f8","system_id":"levelo_inurba_marseille","lat":43.283502,"lon":5.386471,"is_reserved":false,"is_disabled":false,"rental_uris":{"android":"levelo://app?vid=a739b9e4-902b-4328-8e61-dec54a30e2f8","ios":"levelo://app?vid=a739b9e4-902b-4328-8e61-dec54a30e2f8"},"vehicle_type_id":"4","last_reported":1690751115,"current_range_meters":4000,"station_id":"ce4bh492rcd13ifvqdvg","pricing_plan_id":"free"},{"bike_id":"6d9931d3-9325-48b5-9a8f-55f7e00c0b81","system_id":"levelo_inurba_marseille","lat":43.28039,"lon":5.369297,"is_reserved":false,"is_disabled":false,"rental_uris":{"android":"levelo://app?vid=6d9931d3-9325-48b5-9a8f-55f7e00c0b81","ios":"levelo://app?vid=6d9931d3-9325-48b5-9a8f-55f7e00c0b81"},"vehicle_type_id":"4","last_reported":1690751115,"current_range_meters":14400,"station_id":"ce4bha12rcd13ifvqef0","pricing_plan_id":"free"},{"bike_id":"04ca89f4-5643-4221-b6cf-e95ba18677b7","system_id":"levelo_inurba_marseille","lat":43.28039,"lon":5.369297,"is_reserved":false,"is_disabled":false,"rental_uris":{"android":"levelo://app?vid=04ca89f4-5643-4221-b6cf-e95ba18677b7","ios":"levelo://app?vid=04ca89f4-5643-4221-b6cf-e95ba18677b7"},"vehicle_type_id":"4","last_reported":1690751115,"current_range_meters":6000,"station_id":"ce4bha12rcd13ifvqef0","pricing_plan_id":"free"},{"bike_id":"7898c2de-18d0-4fac-bf56-d5073725973e","system_id":"levelo_inurba_marseille","lat":43.290412,"lon":5.399633,"is_reserved":false,"is_disabled":false,"rental_uris":{"android":"levelo://app?vid=7898c2de-18d0-4fac-bf56-d5073725973e","ios":"levelo://app?vid=7898c2de-18d0-4fac-bf56-d5073725973e"},"vehicle_type_id":"4","last_reported":1690751115,"current_range_meters":400,"station_id":"ce4bh392rcd13ifvqdm0","pricing_plan_id":"free"},{"bike_id":"41cca617-7013-403d-ab90-8c62e4ab7fa2","system_id":"levelo_inurba_marseille","lat":43.290412,"lon":5.399633,"is_reserved":false,"is_disabled":false,"rental_uris":{"android":"levelo://app?vid=41cca617-7013-403d-ab90-8c62e4ab7fa2","ios":"levelo://app?vid=41cca617-7013-403d-ab90-8c62e4ab7fa2"},"vehicle_type_id":"4","last_reported":1690751115,"current_range_meters":28800,"station_id":"ce4bh392rcd13ifvqdm0","pricing_plan_id":"free"},{"bike_id":"29567aef-feb0-4790-a955-fb1c0c223335","system_id":"levelo_inurba_marseille","lat":43.28108,"lon":5.37841,"is_reserved":false,"is_disabled":false,"rental_uris":{"android":"levelo://app?vid=29567aef-feb0-4790-a955-fb1c0c223335","ios":"levelo://app?vid=29567aef-feb0-4790-a955-fb1c0c223335"},