{"last_updated":1731575397,"ttl":60,"version":"2.2","data":{"bikes":[{"bike_id":"8a86cdc2-56ee-4258-9f38-2fe0ed00da0e","system_id":"levelo_inurba_marseille","lat":43.30314,"lon":5.36903,"is_reserved":false,"is_disabled":false,"rental_uris":{"android":"levelo://app?vid=8a86cdc2-56ee-4258-9f38-2fe0ed00da0e","ios":"levelo://app?vid=8a86cdc2-56ee-4258-9f38-2fe0ed00da0e"},"vehicle_type_id":"4","last_reported":1731575397,"current_range_meters":30400,"station_id":"ce4bgqh2rcd13ifvqc5g","pricing_plan_id":"cebpf4jnsgd1na2vs0mg"},{"bike_id":"d72e41e0-b2be-44d4-9a5d-48e19d343592","system_id":"levelo_inurba_marseille","lat":43.31337,"lon":5.36713,"is_reserved":false,"is_disabled":false,"rental_uris":{"android":"levelo://app?vid=d72e41e0-b2be-44d4-9a5d-48e19d343592","ios":"levelo://app?vid=d72e41e0-b2be-44d4-9a5d-48e19d343592"},"vehicle_type_id":"4","last_reported":1731575397,"current_range_meters":33200,"station_id":"ce4bgr92rcd13ifvqc6g","pricing_plan_id":"cebpf4jnsgd1na2vs0mg"},{"bike_id":"b65884a7-d9b0-45b3-a1e6-8401e1cbb45e","system_id":"levelo_inurba_marseille","lat":43.30951,"lon":5.39022,"is_reserved":false,"is_disabled":false,"rental_uris":{"android":"levelo://app?vid=b65884a7-d9b0-45b3-a1e6-8401e1cbb45e","ios":"levelo://app?vid=b65884a7-d9b0-45b3-a1e6-8401e1cbb45e"},"vehicle_type_id":"4","last_reported":1731575397,"current_range_meters":32800,"station_id":"ce4bgup2rcd13ifvqco0","pricing_plan_id":"cebpf4jnsgd1na2vs0mg"},{"bike_id":"a65636a1-9916-40c3-9c94-f5277a18a30b","system_id":"levelo_inurba_marseille","lat":43.3122,"lon":5.36857,"is_reserved":false,"is_disabled":false,"rental_uris":{"android":"levelo://app?vid=a65636a1-9916-40c3-9c94-f5277a18a30b","ios":"levelo://app?vid=a65636a1-9916-40c3-9c94-f5277a18a30b"},"vehicle_type_id":"4","last_reported":1731575397,"current_range_meters":28400,"station_id":"ce4bgl92rcd13ifvqbq0","pricing_plan_id":"cebpf4jnsgd1na2vs0mg"},{"bike_id":"031a0ee1-9b61-4ad3-8ccf-1548b59049f9","system_id":"levelo_inurba_marseille","lat":43.30945,"lon":5.3905,"is_reserved":false,"is_disabled":false,"rental_uris":{"android":"levelo://app?vid=031a0ee1-9b61-4ad3-8ccf-1548b59049f9","ios":"levelo://app?vid=031a0ee1-9b61-4ad3-8ccf-1548b59049f9"},"vehicle_type_id":"4","last_reported":1731575397,"current_range_meters":34800,"station_id":"ce4bgup2rcd13ifvqco0","pricing_plan_id":"cebpf4jnsgd1na2vs0mg"},{"bike_id":"7e2766db-455e-43cd-949c-f290a2177e18","system_id":"levelo_inurba_marseille","lat":43.30276,"lon":5.37697,"is_reserved":false,"is_disabled":false,"rental_uris":{"android":"levelo://app?vid=7e2766db-455e-43cd-949c-f290a2177e18","ios":"levelo://app?vid=7e2766db-455e-43cd-949c-f290a2177e18"},"vehicle_type_id":"4","last_reported":1731575397,"current_range_meters":29600,"station_id":"ce4bguh2rcd13ifvqcj0","pricing_plan_id":"cebpf4jnsgd1na2vs0mg"},{"bike_id":"2b4b4b36-13fe-4de0-8b2f-50b9705ad6a2","system_id":"levelo_inurba_marseille","lat":43.277161,"lon":5.389026,"is_reserved":false,"is_disabled":false,"rental_uris":{"android":"levelo://app?vid=2b4b4b36-13fe-4de0-8b2f-50b9705ad6a2","ios":"levelo://app?vid=2b4b4b36-13fe-4de0-8b2f-50b9705ad6a2"},"vehicle_type_id":"4","last_reported":1731575397,"current_range_meters":4000,"station_id":"ce4bhop2rcd13ifvqh8g","pricing_plan_id":"cebpf4jnsgd1na2vs0mg"},{"bike_id":"eb66c83e-9c22-451e-9a96-11fcf0b6a22c","system_id":"levelo_inurba_marseille","lat":43.31848,"lon":5.38842,"is_reserved":false,"is_disabled":false,"rental_uris":{"android":"levelo://app?vid=eb66c83e-9c22-451e-9a96-11fcf0b6a22c","ios":"levelo://app?vid=eb66c83e-9c22-451e-9a96-11fcf0b6a22c"},"vehicle_type_id":"4","last_reported":1731575397,"current_range_meters":36800,"station_id":"","pricing_plan_id":"cebpf4jnsgd1na2vs0mg"},{"bike_id":"78311116-5f2f-4eaa-bf73-1bdc5bcdbbbf","system_id":"levelo_inurba_marseille","lat":43.29029,"lon":5.3864,"is_reserved":false,"is_disabled":false,"rental_uris":{"android":"levelo://app?vid=78311116-5f2f-4eaa-bf73-1bdc5bcdbbbf","ios":"levelo://app?vid=78311116-5f2f-4eaa-bf73-1bdc5bcdbbbf"},"vehicle_type_id":"4","last_reported":1731575397,"current_range_meters":35200,"station_id":"ce4bh4p2rcd13ifvqe0g","pricing_plan_id":"cebpf4jnsgd1na2vs0mg"},{"bike_id":"a789c85f-e51c-488c-b82a-114415ab3524","system_id":"levelo_inurba_marseille","lat":43.25088,"lon":5.39521,"is_reserved":false,"is_disabled":false,"rental_uris":{"android":"levelo://app?vid=a789c85f-e51c-488c-b82a-114415ab3524","ios":"levelo://app?vid=a789c85f-e51c-488c-b82a-114415ab3524"},"vehicle_type_id":"4","last_reported":1731575397,"current_range_meters":22000,"station_id":"ce4bhm12rcd13ifvqgkg","pricing_plan_id":"cebpf4jnsgd1na2vs0mg"},{"bike_id":"be9a7d5c-a83f-41ba-b953-8e7db0668e00","system_id":"levelo_inurba_marseille","lat":43.28612,"lon":5.37063,"is_reserved":false,"is_disabled":false,"rental_uris":{"android":"levelo://app?vid=be9a7d5c-a83f-41ba-b953-8e7db0668e00","ios":"levelo://app?vid=be9a7d5c-a83f-41ba-b953-8e7db0668e00"},"vehicle_type_id":"4","last_reported":1731575397,"current_range_meters":12800,"station_id":"ce4bht12rcd13ifvqi60","pricing_plan_id":"cebpf4jnsgd1na2vs0mg"},{"bike_id":"b808fb18-4fc5-41ae-88a6-e7047e2583c5","system_id":"levelo_inurba_marseille","lat":43.296204,"lon":5.37489,"is_reserved":false,"is_disabled":false,"rental_uris":{"android":"levelo://app?vid=b808fb18-4fc5-41ae-88a6-e7047e2583c5","ios":"levelo://app?vid=b808fb18-4fc5-41ae-88a6-e7047e2583c5"},"vehicle_type_id":"4","last_reported":1731575397,"current_range_meters":4000,"station_id":"","pricing_plan_id":"cebpf4jnsgd1na2vs0mg"},{"bike_id":"ae292185-8e91-4db6-a612-c3563674c7fa","system_id":"levelo_inurba_marseille","lat":43.31755,"lon":5.3902,"is_reserved":false,"is_disabled":false,"rental_uris":{"android":"levelo://app?vid=ae292185-8e91-4db6-a612-c3563674c7fa","ios":"levelo://app?vid=ae292185-8e91-4db6-a612-c3563674c7fa"},"vehicle_type_id":"4","last_reported":1731575397,"current_range_meters":22400,"station_id":"ce4bhqp2rcd13ifvqhng","pricing_plan_id":"cebpf4jnsgd1na2vs0mg"},{"bike_id":"91fe36a8-bc4f-4b08-8287-b0444a16f338","system_id":"levelo_inurba_marseille","lat":43.231538,"lon":5.43725,"is_reserved":false,"is_disabled":false,"rental_uris":{"android":"levelo://app?vid=91fe36a8-bc4f-4b08-8287-b0444a16f338","ios":"levelo://app?vid=91fe36a8-bc4f-4b08-8287-b0444a16f338"},"vehicle_type_id":"4","last_reported":1731575397,"current_range_meters":38800,"station_id":"ce4bhmp2rcd13ifvqgog","pricing_plan_id":"cebpf4jnsgd1na2vs0mg"},{"bike_id":"8472a442-1b27-4429-9cbb-acb2837e6d0f","system_id":"levelo_inurba_marseille","lat":43.24081,"lon":5.37737,"is_reserved":false,"is_disabled":false,"rental_uris":{"android":"levelo://app?vid=8472a442-1b27-4429-9cbb-acb2837e6d0f","ios":"levelo://app?vid=8472a442-1b27-4429-9cbb-acb2837e6d0f"},"vehicle_type_id":"4","last_reported":1731575397,"current_range_meters":24800,"station_id":"ce4bhnp2rcd13ifvqgvg","pricing_plan_id":"cebpf4jnsgd1na2vs0mg"},{"bike_id":"7cc300a7-25d5-4ed2-bce8-5ebcbc260dfe","system_id":"levelo_inurba_marseille","lat":43.26785,"lon":5.3941,"is_reserved":false,"is_disabled":false,"rental_uris":{"android":"levelo://app?vid=7cc300a7-25d5-4ed2-bce8-5ebcbc260dfe","ios":"levelo://app?vid=7cc300a7-25d5-4ed2-bce8-5ebcbc260dfe"},"vehicle_type_id":"4","last_reported":1731575397,"current_range_meters":23200,"station_id":"ce4bhh12rcd13ifvqfg0","pricing_plan_id":"cebpf4jnsgd1na2vs0mg"},{"bike_id":"227f04ff-2d29-435c-9383-7407473f8075","system_id":"levelo_inurba_marseille","lat":43.30143,"lon":5.37402,"is_reserved":false,"is_disabled":false,"rental_uris":{"android":"levelo://app?vid=227f04ff-2d29-435c-9383-7407473f8075","ios":"levelo://app?vid=227f04ff-2d29-435c-9383-7407473f8075"},"vehicle_type_id":"4","last_reported":1731575397,"current_range_meters":38800,"station_id":"ce4bgs92rcd13ifvqcc0","pricing_plan_id":"cebpf4jnsgd1na2vs0mg"},{"bike_id":"45626161-8eee-467e-92c0-7aa0699e4352","system_id":"levelo_inurba_marseille","lat":43.28853,"lon":5.39308,"is_reserved":false,"is_disabled":false,"rental_uris":{"android":"levelo://app?vid=45626161-8eee-467e-92c0-7aa0699e4352","ios":"levelo://app?vid=45626161-8eee-467e-92c0-7aa0699e4352"},"vehicle_type_id":"4","last_reported":1731575397,"current_range_meters":16800,"station_id":"ce4bh2p2rcd13ifvqdi0","pricing_plan_id":"cebpf4jnsgd1na2vs0mg"},{"bike_id":"1ad1b2b4-6990-43aa-8c3e-600c68695414","system_id":"levelo_inurba_marseille","lat":43.27056,"lon":5.40259,"is_reserved":false,"is_disabled":false,"rental_uris":{"android":"levelo://app?vid=1ad1b2b4-6990-43aa-8c3e-600c68695414","ios":"levelo://app?vid=1ad1b2b4-6990-43aa-8c3e-600c68695414"},"vehicle_type_id":"4","last_reported":1731575397,"current_range_meters":18000,"station_id":"ce4bhk92rcd13ifvqgc0","pricing_plan_id":"cebpf4jnsgd1na2vs0mg"},{"bike_id":"3a0419a3-13ed-4d36-8acb-56d7e9e39621","system_id":"levelo_inurba_marseille","lat":43.29848,"lon":5.36274,"is_reserved":false,"is_disabled":false,"rental_uris":{"android":"levelo://app?vid=3a0419a3-13ed-4d36-8acb-56d7e9e39621","ios":"levelo://app?vid=3a0419a3-13ed-4d36-8acb-56d7e9e39621"},"vehicle_type_id":"4","last_reported":1731575397,"current_range_meters":40000,"station_id":"ce4bgpp2rcd13ifvqc3g","pricing_plan_id":"cebpf4jnsgd1na2vs0mg"},{"bike_id":"0d573abc-7633-40c1-9c80-2e9e6737b467","system_id":"levelo_inurba_marseille","lat":43.24999,"lon":5.38925,"is_reserved":false,"is_disabled":false,"rental_uris":{"android":"levelo://app?vid=0d573abc-7633-40c1-9c80-2e9e6737b467","ios":"levelo://app?vid=0d573abc-7633-40c1-9c80-2e9e6737b467"},"vehicle_type_id":"4","last_reported":1731575397,"current_range_meters":34800,"station_id":"ce4bhgp2rcd13ifvqfd0","pricing_plan_id":"cebpf4jnsgd1na2vs0mg"},{"bike_id":"10f83ea1-21fc-49d5-934a-4b6f18d7a2b7","system_id":"levelo_inurba_marseille","lat":43.33591,"lon":5.40992,"is_reserved":false,"is_disabled":false,"rental_uris":{"android":"levelo://app?vid=10f83ea1-21fc-49d5-934a-4b6f18d7a2b7","ios":"levelo://app?vid=10f83ea1-21fc-49d5-934a-4b6f18d7a2b7"},"vehicle_type_id":"4","last_reported":1731575397,"current_range_meters":38000,"station_id":"ce4bhqh2rcd13ifvqhmg","pricing_plan_id":"cebpf4jnsgd1na2vs0mg"},{"bike_id":"092c700e-a5ec-4ab8-a24e-23f1e3d14955","system_id":"levelo_inurba_marseille","lat":43.31361,"lon":5.38476,"is_reserved":false,"is_disabled":false,"rental_uris":{"android":"levelo://app?vid=092c700e-a5ec-4ab8-a24e-23f1e3d14955","ios":"levelo://app?vid=092c700e-a5ec-4ab8-a24e-23f1e3d14955"},"vehicle_type_id":"4","last_reported":1731575397,"current_range_meters":27200,"station_id":"ce4bgt92rcd13ifvqcf0","pricing_plan_id":"cebpf4jnsgd1na2vs0mg"},{"bike_id":"04f9f186-d2bb-4d9d-b848-53913f51cc43","system_id":"levelo_inurba_marseille","lat":43.2918,"lon":5.358,"is_reserved":false,"is_disabled":false,"rental_uris":{"android":"levelo://app?vid=04f9f186-d2bb-4d9d-b848-53913f51cc43","ios":"levelo://app?vid=04f9f186-d2bb-4d9d-b848-53913f51cc43"},"vehicle_type_id":"4","last_reported":1731575397,"current_range_meters":19600,"station_id":"ce4bhb12rcd13ifvqel0","pricing_plan_id":"cebpf4jnsgd1na2vs0mg"},{"bike_id":"4b66fe0e-1c21-4673-aae3-433ab3e23357","system_id":"levelo_inurba_marseille","lat":43.3136,"lon":5.36699,"is_reserved":false,"is_disabled":false,"rental_uris":{"android":"levelo://app?vid=4b66fe0e-1c21-4673-aae3-433ab3e23357","ios":"levelo://app?vid=4b66fe0e-1c21-4673-aae3-433ab3e23357"},"vehicle_type_id":"4","last_reported":1731575397,"current_range_meters":8400,"station_id":"ce4bgr92rcd13ifvqc6g","pricing_plan_id":"cebpf4jnsgd1na2vs0mg"},{"bike_id":"4a74f469-1d99-48ee-a8ca-9199898c00a4","system_id":"levelo_inurba_marseille","lat":43.23199,"lon":5.35547,"is_reserved":false,"is_disabled":false,"rental_uris":{"android":"levelo://app?vid=4a74f469-1d99-48ee-a8ca-9199898c00a4","ios":"levelo://app?vid=4a74f469-1d99-48ee-a8ca-9199898c00a4"},"vehicle_type_id":"4","last_reported":1731575397,"current_range_meters":22400,"station_id":"ce4bhu92rcd13ifvqi70","pricing_plan_id":"cebpf4jnsgd1na2vs0mg"},{"bike_id":"14aee61d-7147-4f37-80a2-64c8ac3b090b","system_id":"levelo_inurba_marseille","lat":43.26191,"lon":5.37912,"is_reserved":false,"is_disabled":false,"rental_uris":{"android":"levelo://app?vid=14aee61d-7147-4f37-80a2-64c8ac3b090b","ios":"levelo://app?vid=14aee61d-7147-4f37-80a2-64c8ac3b090b"},"vehicle_type_id":"4","last_reported":1731575397,"current_range_meters":24800,"station_id":"ce4bhjp2rcd13ifvqg90","pricing_plan_id":"cebpf4jnsgd1na2vs0mg"},{"bike_id":"bb98d3d7-6c23-4d35-9283-356abff5348c","system_id":"levelo_inurba_marseille","lat":43.29163,"lon":5.37144,"is_reserved":false,"is_disabled":false,"rental_uris":{"android":"levelo://app?vid=bb98d3d7-6c23-4d35-9283-356abff5348c","ios":"levelo://app?vid=bb98d3d7-6c23-4d35-9283-356abff5348c"},"vehicle_type_id":"4","last_reported":1731575397,"current_range_meters":36800,"station_id":"ce4bha92rcd13ifvqeh0","pricing_plan_id":"cebpf4jnsgd1na2vs0mg"},{"bike_id":"304bc20b-dec5-43dd-9211-c6d16fa3594e","system_id":"levelo_inurba_marseille","lat":43.30537,"lon":5.36695,"is_reserved":false,"is_disabled":false,"rental_uris":{"android":"levelo://app?vid=304bc20b-dec5-43dd-9211-c6d16fa3594e","ios":"levelo://app?vid=304bc20b-dec5-43dd-9211-c6d16fa3594e"},"vehicle_type_id":"4","last_reported":1731575397,"current_range_meters":27600,"station_id":"ce4bgrp2rcd13ifvqc9g","pricing_plan_id":"cebpf4jnsgd1na2vs0mg"},{"bike_id":"14ab9193-04bb-4abc-887b-1cab1a7e8170","system_id":"levelo_inurba_marseille","lat":43.24075,"lon":5.37758,"is_reserved":false,"is_disabled":false,"rental_uris":{"android":"levelo://app?vid=14ab9193-04bb-4abc-887b-1cab1a7e8170","ios":"levelo://app?vid=14ab9193-04bb-4abc-887b-1cab1a7e8170"},"vehicle_type_id":"4","last_reported":1731575397,"current_range_meters":32800,"station_id":"ce4bhnp2rcd13ifvqgvg","pricing_plan_id":"cebpf4jnsgd1na2vs0mg"},{"bike_id":"c0d36329-4d48-4aa1-bc06-ca1aa8cf1f4d","system_id":"levelo_inurba_marseille","lat":43.29225,"lon":5.36073,"is_reserved":false,"is_disabled":false,"rental_uris":{"android":"levelo://app?vid=c0d36329-4d48-4aa1-bc06-ca1aa8cf1f4d","ios":"levelo://app?vid=c0d36329-4d48-4aa1-bc06-ca1aa8cf1f4d"},"vehicle_type_id":"4","last_reported":1731575397,"current_range_meters":24800,"station_id":"ce4bhbh2rcd13ifvqeqg","pricing_plan_id":"cebpf4jnsgd1na2vs0mg"},{"bike_id":"3668eb37-2c3a-4a2e-a271-4967dc4f81e2","system_id":"levelo_inurba_marseille","lat":43.29569,"lon":5.37506,"is_reserved":false,"is_disabled":false,"rental_uris":{"android":"levelo://app?vid=3668eb37-2c3a-4a2e-a271-4967dc4f81e2","ios":"levelo://app?vid=3668eb37-2c3a-4a2e-a271-4967dc4f81e2"},"vehicle_type_id":"4","last_reported":1731575397,"current_range_meters":36800,"station_id":"ce4bgh92rcd13ifvqb50","pricing_plan_id":"cebpf4jnsgd1na2vs0mg"},{"bike_id":"4b1abe0a-9f48-4536-a8fc-6a4c289408b8","system_id":"levelo_inurba_marseille","lat":43.3054,"lon":5.36713,"is_reserved":false,"is_disabled":false,"rental_uris":{"android":"levelo://app?vid=4b1abe0a-9f48-4536-a8fc-6a4c289408b8","ios":"levelo://app?vid=4b1abe0a-9f48-4536-a8fc-6a4c289408b8"},"vehicle_type_id":"4","last_reported":1731575397,"current_range_meters":39200,"station_id":"ce4bgrp2rcd13ifvqc9g","pricing_plan_id":"cebpf4jnsgd1na2vs0mg"},{"bike_id":"47c967a5-3c8a-4d73-a522-90111361a0a0","system_id":"levelo_inurba_marseille","lat":43.32477,"lon":5.36564,"is_reserved":false,"is_disabled":false,"rental_uris":{"android":"levelo://app?vid=47c967a5-3c8a-4d73-a522-90111361a0a0","ios":"levelo://app?vid=47c967a5-3c8a-4d73-a522-90111361a0a0"},"vehicle_type_id":"4","last_reported":1731575397,"current_range_meters":39200,"station_id":"ce4bhs12rcd13ifvqhvg","pricing_plan_id":"cebpf4jnsgd1na2vs0mg"},{"bike_id":"b401526e-9797-412b-a024-2aeff2654ce6","system_id":"levelo_inurba_marseille","lat":43.279344,"lon":5.354989,"is_reserved":false,"is_disabled":false,"rental_uris":{"android":"levelo://app?vid=b401526e-9797-412b-a024-2aeff2654ce6","ios":"levelo://app?vid=b401526e-9797-412b-a024-2aeff2654ce6"},"vehicle_type_id":"4","last_reported":1731575397,"current_range_meters":6400,"station_id":"","pricing_plan_id":"cebpf4jnsgd1na2vs0mg"},{"bike_id":"2f9147ae-5300-4895-8206-c567829bd5e9","system_id":"levelo_inurba_marseille","lat":43.28929,"lon":5.38404,"is_reserved":false,"is_disabled":false,"rental_uris":{"android":"levelo://app?vid=2f9147ae-5300-4895-8206-c567829bd5e9","ios":"levelo://app?vid=2f9147ae-5300-4895-8206-c567829bd5e9"},"vehicle_type_id":"4","last_reported":1731575397,"current_range_meters":8400,"station_id":"ce4bh612rcd13ifvqe6g","pricing_plan_id":"cebpf4jnsgd1na2vs0mg"},{"bike_id":"0f1177ce-cc0f-4aac-98dc-ff4c5537883d","system_id":"levelo_inurba_marseille","lat":43.29881,"lon":5.389,"is_reserved":false,"is_disabled":false,"rental_uris":{"android":"levelo://app?vid=0f1177ce-cc0f-4aac-98dc-ff4c5537883d","ios":"levelo://app?vid=0f1177ce-cc0f-4aac-98dc-ff4c5537883d"},"vehicle_type_id":"4","last_reported":1731575397,"current_range_meters":11200,"station_id":"ce4bh392rcd13ifvqdl0","pricing_plan_id":"cebpf4jnsgd1na2vs0mg"},{"bike_id":"ef899d31-9e66-4a92-9d67-ec6a9f41e924","system_id":"levelo_inurba_marseille","lat":43.26946,"lon":5.3863,"is_reserved":false,"is_disabled":false,"rental_uris":{"android":"levelo://app?vid=ef899d31-9e66-4a92-9d67-ec6a9f41e924","ios":"levelo://app?vid=ef899d31-9e66-4a92-9d67-ec6a9f41e924"},"vehicle_type_id":"4","last_reported":1731575397,"current_range_meters":35200,"station_id":"ce4bhh92rcd13ifvqfh0","pricing_plan_id":"cebpf4jnsgd1na2vs0mg"},{"bike_id":"884c3eea-4219-4f9c-954c-8a12e6e92d39","system_id":"levelo_inurba_marseille","lat":43.2695,"lon":5.38631,"is_reserved":false,"is_disabled":false,"rental_uris":{"android":"levelo://app?vid=884c3eea-4219-4f9c-954c-8a12e6e92d39","ios":"levelo://app?vid=884c3eea-4219-4f9c-954c-8a12e6e92d39"},"vehicle_type_id":"4","last_reported":1731575397,"current_range_meters":26000,"station_id":"ce4bhh92rcd13ifvqfh0","pricing_plan_id":"cebpf4jnsgd1na2vs0mg"},{"bike_id":"2d988347-9c45-4c49-a1fc-7c2979a31818","system_id":"levelo_inurba_marseille","lat":43.28274,"lon":5.35058,"is_reserved":false,"is_disabled":false,"rental_uris":{"android":"levelo://app?vid=2d988347-9c45-4c49-a1fc-7c2979a31818","ios":"levelo://app?vid=2d988347-9c45-4c49-a1fc-7c2979a31818"},"vehicle_type_id":"4","last_reported":1731575397,"current_range_meters":8400,"station_id":"ce4bhbp2rcd13ifvqerg","pricing_plan_id":"cebpf4jnsgd1na2vs0mg"},{"bike_id":"d2e51693-906f-4e59-a304-0537c6274510","system_id":"levelo_inurba_marseille","lat":43.23151,"lon":5.4372,"is_reserved":false,"is_disabled":false,"rental_uris":{"android":"levelo://app?vid=d2e51693-906f-4e59-a304-0537c6274510","ios":"levelo://app?vid=d2e51693-906f-4e59-a304-0537c6274510"},"vehicle_type_id":"4","last_reported":1731575397,"current_range_meters":19600,"station_id":"ce4bhmp2rcd13ifvqgog","pricing_plan_id":"cebpf4jnsgd1na2vs0mg"},{"bike_id":"714447f8-9a5c-42a0-9954-167856018e39","system_id":"levelo_inurba_marseille","lat":43.3361,"lon":5.41026,"is_reserved":false,"is_disabled":false,"rental_uris":{"android":"levelo://app?vid=714447f8-9a5c-42a0-9954-167856018e39","ios":"levelo://app?vid=714447f8-9a5c-42a0-9954-167856018e39"},"vehicle_type_id":"4","last_reported":1731575397,"current_range_meters":26800,"station_id":"ce4bhqh2rcd13ifvqhmg","pricing_plan_id":"cebpf4jnsgd1na2vs0mg"},{"bike_id":"d27770cd-6ecf-4dd3-9188-7bdfaca7efe4","system_id":"levelo_inurba_marseille","lat":43.24184,"lon":5.39719,"is_reserved":false,"is_disabled":false,"rental_uris":{"android":"levelo://app?vid=d27770cd-6ecf-4dd3-9188-7bdfaca7efe4","ios":"levelo://app?vid=d27770cd-6ecf-4dd3-9188-7bdfaca7efe4"},"vehicle_type_id":"4","last_reported":1731575397,"current_range_meters":22400,"station_id":"ce4bhn12rcd13ifvqgpg","pricing_plan_id":"cebpf4jnsgd1na2vs0mg"},{"bike_id":"75801e28-b69b-4a5e-945c-714926c1ddf7","system_id":"levelo_inurba_marseille","lat":43.337444,"lon":5.374475,"is_reserved":false,"is_disabled":false,"rental_uris":{"android":"levelo://app?vid=75801e28-b69b-4a5e-945c-714926c1ddf7","ios":"levelo://app?vid=75801e28-b69b-4a5e-945c-714926c1ddf7"},"vehicle_type_id":"4","last_reported":1731575397,"current_range_meters":36000,"station_id":"","pricing_plan_id":"cebpf4jnsgd1na2vs0mg"},{"bike_id":"460294fb-fd20-42e7-85c5-d0e52643477f","system_id":"levelo_inurba_marseille","lat":43.27491,"lon":5.42453,"is_reserved":false,"is_disabled":false,"rental_uris":{"android":"levelo://app?vid=460294fb-fd20-42e7-85c5-d0e52643477f","ios":"levelo://app?vid=460294fb-fd20-42e7-85c5-d0e52643477f"},"vehicle_type_id":"4","last_reported":1731575397,"current_range_meters":8400,"station_id":"ce4bhn92rcd13ifvqgrg","pricing_plan_id":"cebpf4jnsgd1na2vs0mg"},{"bike_id":"eebdc58d-ef9d-4db2-94b3-b9cfd3d032d6","system_id":"levelo_inurba_marseille","lat":43.30529,"lon":5.36715,"is_reserved":false,"is_disabled":false,"rental_uris":{"android":"levelo://app?vid=eebdc58d-ef9d-4db2-94b3-b9cfd3d032d6","ios":"levelo://app?vid=eebdc58d-ef9d-4db2-94b3-b9cfd3d032d6"},"vehicle_type_id":"4","last_reported":1731575397,"current_range_meters":32400,"station_id":"ce4bgrp2rcd13ifvqc9g","pricing_plan_id":"cebpf4jnsgd1na2vs0mg"},{"bike_id":"9a6b3fa5-17ed-462b-822c-1e04067883f8","system_id":"levelo_inurba_marseille","lat":43.24179,"lon":5.39728,"is_reserved":false,"is_disabled":false,"rental_uris":{"android":"levelo://app?vid=9a6b3fa5-17ed-462b-822c-1e04067883f8","ios":"levelo://app?vid=9a6b3fa5-17ed-462b-822c-1e04067883f8"},"vehicle_type_id":"4","last_reported":1731575397,"current_range_meters":28400,"station_id":"ce4bhn12rcd13ifvqgpg","pricing_plan_id":"cebpf4jnsgd1na2vs0mg"},{"bike_id":"e1a6970f-d408-49cf-a4fe-ef82d2512acf","system_id":"levelo_inurba_marseille","lat":43.32477,"lon":5.36561,"is_reserved":false,"is_disabled":false,"rental_uris":{"android":"levelo://app?vid=e1a6970f-d408-49cf-a4fe-ef82d2512acf","ios":"levelo://app?vid=e1a6970f-d408-49cf-a4fe-ef82d2512acf"},"vehicle_type_id":"4","last_reported":1731575397,"current_range_meters":14400,"station_id":"ce4bhs12rcd13ifvqhvg","pricing_plan_id":"cebpf4jnsgd1na2vs0mg"},{"bike_id":"7f8e1bb6-461f-481b-82e9-4db72c39ce7c","system_id":"levelo_inurba_marseille","lat":43.30313,"lon":5.36893,"is_reserved":false,"is_disabled":false,"rental_uris":{"android":"levelo://app?vid=7f8e1bb6-461f-481b-82e9-4db72c39ce7c","ios":"levelo://app?vid=7f8e1bb6-461f-481b-82e9-4db72c39ce7c"},"vehicle_type_id":"4","last_reported":1731575397,"current_range_meters":18000,"station_id":"ce4bgqh2rcd13ifvqc5g","pricing_plan_id":"cebpf4jnsgd1na2vs0mg"},{"bike_id":"d5248d2b-5b98-4ab1-bb99-9a959d0082a8","system_id":"levelo_inurba_marseille","lat":43.30537,"lon":5.36537,"is_reserved":false,"is_disabled":false,"rental_uris":{"android":"levelo://app?vid=d5248d2b-5b98-4ab1-bb99-9a959d0082a8","ios":"levelo://app?vid=d5248d2b-5b98-4ab1-bb99-9a959d0082a8"},"vehicle_type_id":"4","last_reported":1731575397,"current_range_meters":6000,"station_id":"ce4bgs12rcd13ifvqcag","pricing_plan_id":"cebpf4jnsgd1na2vs0mg"},{"bike_id":"21e63553-f5bf-4780-a4f7-e2f0215e2bfd","system_id":"levelo_inurba_marseille","lat":43.31356,"lon":5.36707,"is_reserved":false,"is_disabled":false,"rental_uris":{"android":"levelo://app?vid=21e63553-f5bf-4780-a4f7-e2f0215e2bfd","ios":"levelo://app?vid=21e63553-f5bf-4780-a4f7-e2f0215e2bfd"},"vehicle_type_id":"4","last_reported":1731575397,"current_range_meters":24800,"station_id":"ce4bgr92rcd13ifvqc6g","pricing_plan_id":"cebpf4jnsgd1na2vs0mg"},{"bike_id":"bbf1c0c2-fcc8-4e3a-9cde-c89c3c491634","system_id":"levelo_inurba_marseille","lat":43.28426,"lon":5.34994,"is_reserved":false,"is_disabled":false,"rental_uris":{"android":"levelo://app?vid=bbf1c0c2-fcc8-4e3a-9cde-c89c3c491634","ios":"levelo://app?vid=bbf1c0c2-fcc8-4e3a-9cde-c89c3c491634"},"vehicle_type_id":"4","last_reported":1731575397,"current_range_meters":32800,"station_id":"ce4bhbh2rcd13ifvqepg","pricing_plan_id":"cebpf4jnsgd1na2vs0mg"},{"bike_id":"a885910c-aaa9-4ec7-b396-5d7f8239d63c","system_id":"levelo_inurba_marseille","lat":43.29156,"lon":5.37148,"is_reserved":false,"is_disabled":false,"rental_uris":{"android":"levelo://app?vid=a885910c-aaa9-4ec7-b396-5d7f8239d63c","ios":"levelo://app?vid=a885910c-aaa9-4ec7-b396-5d7f8239d63c"},"vehicle_type_id":"4","last_reported":1731575397,"current_range_meters":38800,"station_id":"ce4bha92rcd13ifvqeh0","pricing_plan_id":"cebpf4jnsgd1na2vs0mg"},{"bike_id":"a583d3ea-648d-4ca4-ab6d-7c3a4f13bd72","system_id":"levelo_inurba_marseille","lat":43.23967,"lon":5.36632,"is_reserved":false,"is_disabled":false,"rental_uris":{"android":"levelo://app?vid=a583d3ea-648d-4ca4-ab6d-7c3a4f13bd72","ios":"levelo://app?vid=a583d3ea-648d-4ca4-ab6d-7c3a4f13bd72"},"vehicle_type_id":"4","last_reported":1731575397,"current_range_meters":24400,"station_id":"ce4bhi12rcd13ifvqfp0","pricing_plan_id":"cebpf4jnsgd1na2vs0mg"},{"bike_id":"43693f75-324b-4731-b85a-2edb6ff0b576","system_id":"levelo_inurba_marseille","lat":43.28151,"lon":5.42643,"is_reserved":false,"is_disabled":false,"rental_uris":{"android":"levelo://app?vid=43693f75-324b-4731-b85a-2edb6ff0b576","ios":"levelo://app?vid=43693f75-324b-4731-b85a-2edb6ff0b576"},"vehicle_type_id":"4","last_reported":1731575397,"current_range_meters":40000,"station_id":"ce4bhnh2rcd13ifvqgug","pricing_plan_id":"cebpf4jnsgd1na2vs0mg"},{"bike_id":"817849d8-25eb-48a4-b155-e11b87f519ff","system_id":"levelo_inurba_marseille","lat":43.30542,"lon":5.36527,"is_reserved":false,"is_disabled":false,"rental_uris":{"android":"levelo://app?vid=817849d8-25eb-48a4-b155-e11b87f519ff","ios":"levelo://app?vid=817849d8-25eb-48a4-b155-e11b87f519ff"},"vehicle_type_id":"4","last_reported":1731575397,"current_range_meters":39200,"station_id":"ce4bgs12rcd13ifvqcag","pricing_plan_id":"cebpf4jnsgd1na2vs0mg"},{"bike_id":"0aa50df3-327a-48eb-b5f0-a973f44a8663","system_id":"levelo_inurba_marseille","lat":43.24184,"lon":5.39724,"is_reserved":false,"is_disabled":false,"rental_uris":{"android":"levelo://app?vid=0aa50df3-327a-48eb-b5f0-a973f44a8663","ios":"levelo://app?vid=0aa50df3-327a-48eb-b5f0-a973f44a8663"},"vehicle_type_id":"4","last_reported":1731575397,"current_range_meters":26800,"station_id":"ce4bhn12rcd13ifvqgpg","pricing_plan_id":"cebpf4jnsgd1na2vs0mg"},{"bike_id":"c673c85a-59de-4b62-b9d3-423f8c623f79","system_id":"levelo_inurba_marseille","lat":43.29277,"lon":5.36841,"is_reserved":false,"is_disabled":false,"rental_uris":{"android":"levelo://app?vid=c673c85a-59de-4b62-b9d3-423f8c623f79","ios":"levelo://app?vid=c673c85a-59de-4b62-b9d3-423f8c623f79"},"vehicle_type_id":"4","last_reported":1731575397,"current_range_meters":32000,"station_id":"ce4bhbp2rcd13ifvqesg","pricing_plan_id":"cebpf4jnsgd1na2vs0mg"},{"bike_id":"3acbdc03-a672-4a72-9075-0dd572cd8407","system_id":"levelo_inurba_marseille","lat":43.27491,"lon":5.4245,"is_reserved":false,"is_disabled":false,"rental_uris":{"android":"levelo://app?vid=3acbdc03-a672-4a72-9075-0dd572cd8407","ios":"levelo://app?vid=3acbdc03-a672-4a72-9075-0dd572cd8407"},"vehicle_type_id":"4","last_reported":1731575397,"current_range_meters":38000,"station_id":"ce4bhn92rcd13ifvqgrg","pricing_plan_id":"cebpf4jnsgd1na2vs0mg"},{"bike_id":"be56c31e-769c-4501-bb4f-efa7f502c697","system_id":"levelo_inurba_marseille","lat":43.30953,"lon":5.39038,"is_reserved":false,"is_disabled":false,"rental_uris":{"android":"levelo://app?vid=be56c31e-769c-4501-bb4f-efa7f502c697","ios":"levelo://app?vid=be56c31e-769c-4501-bb4f-efa7f502c697"},"vehicle_type_id":"4","last_reported":1731575397,"current_range_meters":30400,"station_id":"ce4bgup2rcd13ifvqco0","pricing_plan_id":"cebpf4jnsgd1na2vs0mg"},{"bike_id":"05ef0e5c-fc94-4eeb-bfa5-5f0566aac8e5","system_id":"levelo_inurba_marseille","lat":43.24172,"lon":5.39725,"is_reserved":false,"is_disabled":false,"rental_uris":{"android":"levelo://app?vid=05ef0e5c-fc94-4eeb-bfa5-5f0566aac8e5","ios":"levelo://app?vid=05ef0e5c-fc94-4eeb-bfa5-5f0566aac8e5"},"vehicle_type_id":"4","last_reported":1731575397,"current_range_meters":38800,"station_id":"ce4bhn12rcd13ifvqgpg","pricing_plan_id":"cebpf4jnsgd1na2vs0mg"},{"bike_id":"d99bff46-e3e0-4c25-9719-3fa3dd9a1a6e","system_id":"levelo_inurba_marseille","lat":43.3157,"lon":5.37276,"is_reserved":false,"is_disabled":false,"rental_uris":{"android":"levelo://app?vid=d99bff46-e3e0-4c25-9719-3fa3dd9a1a6e","ios":"levelo://app?vid=d99bff46-e3e0-4c25-9719-3fa3dd9a1a6e"},"vehicle_type_id":"4","last_reported":1731575397,"current_range_meters":21600,"station_id":"ce4bgt12rcd13ifvqcd0","pricing_plan_id":"cebpf4jnsgd1na2vs0mg"},{"bike_id":"50f953f9-da0b-4fcf-a81f-4fc9538513d1","system_id":"levelo_inurba_marseille","lat":43.26951,"lon":5.3863,"is_reserved":false,"is_disabled":false,"rental_uris":{"android":"levelo://app?vid=50f953f9-da0b-4fcf-a81f-4fc9538513d1","ios":"levelo://app?vid=50f953f9-da0b-4fcf-a81f-4fc9538513d1"},"vehicle_type_id":"4","last_reported":1731575397,"current_range_meters":39200,"station_id":"ce4bhh92rcd13ifvqfh0","pricing_plan_id":"cebpf4jnsgd1na2vs0mg"},{"bike_id":"e2e2fbf4-0c1a-4b24-85d8-09094ab8d3e5","system_id":"levelo_inurba_marseille","lat":43.26956,"lon":5.38624,"is_reserved":false,"is_disabled":false,"rental_uris":{"android":"levelo://app?vid=e2e2fbf4-0c1a-4b24-85d8-09094ab8d3e5","ios":"levelo://app?vid=e2e2fbf4-0c1a-4b24-85d8-09094ab8d3e5"},"vehicle_type_id":"4","last_reported":1731575397,"current_range_meters":19200,"station_id":"ce4bhh92rcd13ifvqfh0","pricing_plan_id":"cebpf4jnsgd1na2vs0mg"},{"bike_id":"f0842f8d-7fd3-4053-ad1f-2a446336af63","system_id":"levelo_inurba_marseille","lat":43.29844,"lon":5.36273,"is_reserved":false,"is_disabled":false,"rental_uris":{"android":"levelo://app?vid=f0842f8d-7fd3-4053-ad1f-2a446336af63","ios":"levelo://app?vid=f0842f8d-7fd3-4053-ad1f-2a446336af63"},"vehicle_type_id":"4","last_reported":1731575397,"current_range_meters":3200,"station_id":"ce4bgpp2rcd13ifvqc3g","pricing_plan_id":"cebpf4jnsgd1na2vs0mg"},{"bike_id":"28027ead-f239-40f0-94da-00cfd8a0af48","system_id":"levelo_inurba_marseille","lat":43.30144,"lon":5.37427,"is_reserved":false,"is_disabled":false,"rental_uris":{"android":"levelo://app?vid=28027ead-f239-40f0-94da-00cfd8a0af48","ios":"levelo://app?vid=28027ead-f239-40f0-94da-00cfd8a0af48"},"vehicle_type_id":"4","last_reported":1731575397,"current_range_meters":11200,"station_id":"ce4bgs92rcd13ifvqcc0","pricing_plan_id":"cebpf4jnsgd1na2vs0mg"},{"bike_id":"98d706ec-1b06-4539-961b-1d3c74fb53f7","system_id":"levelo_inurba_marseille","lat":43.31724,"lon":5.42389,"is_reserved":false,"is_disabled":false,"rental_uris":{"android":"levelo://app?vid=98d706ec-1b06-4539-961b-1d3c74fb53f7","ios":"levelo://app?vid=98d706ec-1b06-4539-961b-1d3c74fb53f7"},"vehicle_type_id":"4","last_reported":1731575397,"current_range_meters":6000,"station_id":"ce4bhp92rcd13ifvqhbg","pricing_plan_id":"cebpf4jnsgd1na2vs0mg"},{"bike_id":"339fc431-5e2d-4f5e-b46b-eb448e50e1e7","system_id":"levelo_inurba_marseille","lat":43.29192,"lon":5.35803,"is_reserved":false,"is_disabled":false,"rental_uris":{"android":"levelo://app?vid=339fc431-5e2d-4f5e-b46b-eb448e50e1e7","ios":"levelo://app?vid=339fc431-5e2d-4f5e-b46b-eb448e50e1e7"},"vehicle_type_id":"4","last_reported":1731575397,"current_range_meters":29600,"station_id":"ce4bhb12rcd13ifvqel0","pricing_plan_id":"cebpf4jnsgd1na2vs0mg"},{"bike_id":"ad5cc021-11c3-4ecf-89b3-d214844a4fea","system_id":"levelo_inurba_marseille","lat":43.29894,"lon":5.38898,"is_reserved":false,"is_disabled":false,"rental_uris":{"android":"levelo://app?vid=ad5cc021-11c3-4ecf-89b3-d214844a4fea","ios":"levelo://app?vid=ad5cc021-11c3-4ecf-89b3-d214844a4fea"},"vehicle_type_id":"4","last_reported":1731575397,"current_range_meters":4000,"station_id":"ce4bh392rcd13ifvqdl0","pricing_plan_id":"cebpf4jnsgd1na2vs0mg"},{"bike_id":"91379c35-407f-4179-8532-1d89de6880c8","system_id":"levelo_inurba_marseille","lat":43.31686,"lon":5.40465,"is_reserved":false,"is_disabled":false,"rental_uris":{"android":"levelo://app?vid=91379c35-407f-4179-8532-1d89de6880c8","ios":"levelo://app?vid=91379c35-407f-4179-8532-1d89de6880c8"},"vehicle_type_id":"4","last_reported":1731575397,"current_range_meters":20000,"station_id":"ce4bh012rcd13ifvqd00","pricing_plan_id":"cebpf4jnsgd1na2vs0mg"},{"bike_id":"98815e11-316c-46d0-a9a4-8247fa6ca6a0","system_id":"levelo_inurba_marseille","lat":43.31692,"lon":5.40465,"is_reserved":false,"is_disabled":false,"rental_uris":{"android":"levelo://app?vid=98815e11-316c-46d0-a9a4-8247fa6ca6a0","ios":"levelo://app?vid=98815e11-316c-46d0-a9a4-8247fa6ca6a0"},"vehicle_type_id":"4","last_reported":1731575397,"current_range_meters":25200,"station_id":"ce4bh012rcd13ifvqd00","pricing_plan_id":"cebpf4jnsgd1na2vs0mg"},{"bike_id":"8f93dbd6-53df-4aa7-a093-7aa9cc2b8ed6","system_id":"levelo_inurba_marseille","lat":43.25934,"lon":5.40887,"is_reserved":false,"is_disabled":false,"rental_uris":{"android":"levelo://app?vid=8f93dbd6-53df-4aa7-a093-7aa9cc2b8ed6","ios":"levelo://app?vid=8f93dbd6-53df-4aa7-a093-7aa9cc2b8ed6"},"vehicle_type_id":"4","last_reported":1731575397,"current_range_meters":30800,"station_id":"ce4bhm92rcd13ifvqglg","pricing_plan_id":"cebpf4jnsgd1na2vs0mg"},{"bike_id":"a64b2e87-dfc1-4098-aac6-83156bb73f66","system_id":"levelo_inurba_marseille","lat":43.25001,"lon":5.38932,"is_reserved":false,"is_disabled":false,"rental_uris":{"android":"levelo://app?vid=a64b2e87-dfc1-4098-aac6-83156bb73f66","ios":"levelo://app?vid=a64b2e87-dfc1-4098-aac6-83156bb73f66"},"vehicle_type_id":"4","last_reported":1731575397,"current_range_meters":31200,"station_id":"ce4bhgp2rcd13ifvqfd0","pricing_plan_id":"cebpf4jnsgd1na2vs0mg"},{"bike_id":"7e68d8eb-008a-41fa-8d76-b35dd2ccf3ff","system_id":"levelo_inurba_marseille","lat":43.25002,"lon":5.38924,"is_reserved":false,"is_disabled":false,"rental_uris":{"android":"levelo://app?vid=7e68d8eb-008a-41fa-8d76-b35dd2ccf3ff","ios":"levelo://app?vid=7e68d8eb-008a-41fa-8d76-b35dd2ccf3ff"},"vehicle_type_id":"4","last_reported":1731575397,"current_range_meters":26800,"station_id":"ce4bhgp2rcd13ifvqfd0","pricing_plan_id":"cebpf4jnsgd1na2vs0mg"},{"bike_id":"adf6d005-fa58-4531-8a7d-3b2a244cc8c7","system_id":"levelo_inurba_marseille","lat":43.29756,"lon":5.36809,"is_reserved":false,"is_disabled":false,"rental_uris":{"android":"levelo://app?vid=adf6d005-fa58-4531-8a7d-3b2a244cc8c7","ios":"levelo://app?vid=adf6d005-fa58-4531-8a7d-3b2a244cc8c7"},"vehicle_type_id":"4","last_reported":1731575397,"current_range_meters":24400,"station_id":"","pricing_plan_id":"cebpf4jnsgd1na2vs0mg"},{"bike_id":"a3f2a0e7-a62a-4465-90e5-7fda15989b0c","system_id":"levelo_inurba_marseille","lat":43.29567,"lon":5.39969,"is_reserved":false,"is_disabled":false,"rental_uris":{"android":"levelo://app?vid=a3f2a0e7-a62a-4465-90e5-7fda15989b0c","ios":"levelo://app?vid=a3f2a0e7-a62a-4465-90e5-7fda15989b0c"},"vehicle_type_id":"4","last_reported":1731575397,"current_range_meters":24000,"station_id":"ce4bh312rcd13ifvqdj0","pricing_plan_id":"cebpf4jnsgd1na2vs0mg"},{"bike_id":"e7176aa2-d3c2-43a2-b061-c0a4679ce72f","system_id":"levelo_inurba_marseille","lat":43.29844,"lon":5.36268,"is_reserved":false,"is_disabled":false,"rental_uris":{"android":"levelo://app?vid=e7176aa2-d3c2-43a2-b061-c0a4679ce72f","ios":"levelo://app?vid=e7176aa2-d3c2-43a2-b061-c0a4679ce72f"},"vehicle_type_id":"4","last_reported":1731575397,"current_range_meters":38800,"station_id":"ce4bgpp2rcd13ifvqc3g","pricing_plan_id":"cebpf4jnsgd1na2vs0mg"},{"bike_id":"f15f84e3-6119-4797-bcba-f763c86025cb","system_id":"levelo_inurba_marseille","lat":43.337444,"lon":5.374475,"is_reserved":false,"is_disabled":false,"rental_uris":{"android":"levelo://app?vid=f15f84e3-6119-4797-bcba-f763c86025cb","ios":"levelo://app?vid=f15f84e3-6119-4797-bcba-f763c86025cb"},"vehicle_type_id":"4","last_reported":1731575397,"current_range_meters":36000,"station_id":"","pricing_plan_id":"cebpf4jnsgd1na2vs0mg"},{"bike_id":"3d95c69b-f912-4aa9-8628-9bb26d0c43d0","system_id":"levelo_inurba_marseille","lat":43.30951,"lon":5.39033,"is_reserved":false,"is_disabled":false,"rental_uris":{"android":"levelo://app?vid=3d95c69b-f912-4aa9-8628-9bb26d0c43d0","ios":"levelo://app?vid=3d95c69b-f912-4aa9-8628-9bb26d0c43d0"},"vehicle_type_id":"4","last_reported":1731575397,"current_range_meters":35200,"station_id":"ce4bgup2rcd13ifvqco0","pricing_plan_id":"cebpf4jnsgd1na2vs0mg"},{"bike_id":"9cb6aacc-9473-4648-b699-780d4d43c130","system_id":"levelo_inurba_marseille","lat":43.26477,"lon":5.39552,"is_reserved":false,"is_disabled":false,"rental_uris":{"android":"levelo://app?vid=9cb6aacc-9473-4648-b699-780d4d43c130","ios":"levelo://app?vid=9cb6aacc-9473-4648-b699-780d4d43c130"},"vehicle_type_id":"4","last_reported":1731575397,"current_range_meters":6400,"station_id":"ce4bhi12rcd13ifvqfq0","pricing_plan_id":"cebpf4jnsgd1na2vs0mg"},{"bike_id":"86955ecb-6f16-4a3a-b2e3-273a1e401fbf","system_id":"levelo_inurba_marseille","lat":43.30413,"lon":5.41279,"is_reserved":false,"is_disabled":false,"rental_uris":{"android":"levelo://app?vid=86955ecb-6f16-4a3a-b2e3-273a1e401fbf","ios":"levelo://app?vid=86955ecb-6f16-4a3a-b2e3-273a1e401fbf"},"vehicle_type_id":"4","last_reported":1731575397,"current_range_meters":6800,"station_id":"ce4bhop2rcd13ifvqh8g","pricing_plan_id":"cebpf4jnsgd1na2vs0mg"},{"bike_id":"5b721ead-3312-4fa6-b42a-ab57ebb3901a","system_id":"levelo_inurba_marseille","lat":43.29196,"lon":5.39314,"is_reserved":false,"is_disabled":false,"rental_uris":{"android":"levelo://app?vid=5b721ead-3312-4fa6-b42a-ab57ebb3901a","ios":"levelo://app?vid=5b721ead-3312-4fa6-b42a-ab57ebb3901a"},"vehicle_type_id":"4","last_reported":1731575397,"current_range_meters":16400,"station_id":"ce4bh192rcd13ifvqdd0","pricing_plan_id":"cebpf4jnsgd1na2vs0mg"},{"bike_id":"ba295aa4-e303-4da2-9863-82d8a34fc59c","system_id":"levelo_inurba_marseille","lat":43.23964,"lon":5.36629,"is_reserved":false,"is_disabled":false,"rental_uris":{"android":"levelo://app?vid=ba295aa4-e303-4da2-9863-82d8a34fc59c","ios":"levelo://app?vid=ba295aa4-e303-4da2-9863-82d8a34fc59c"},"vehicle_type_id":"4","last_reported":1731575397,"current_range_meters":16400,"station_id":"ce4bhi12rcd13ifvqfp0","pricing_plan_id":"cebpf4jnsgd1na2vs0mg"},{"bike_id":"61298d12-3ebc-46c2-b685-e360c0df2584","system_id":"levelo_inurba_marseille","lat":43.29843,"lon":5.36267,"is_reserved":false,"is_disabled":false,"rental_uris":{"android":"levelo://app?vid=61298d12-3ebc-46c2-b685-e360c0df2584","ios":"levelo://app?vid=61298d12-3ebc-46c2-b685-e360c0df2584"},"vehicle_type_id":"4","last_reported":1731575397,"current_range_meters":28000,"station_id":"ce4bgpp2rcd13ifvqc3g","pricing_plan_id":"cebpf4jnsgd1na2vs0mg"},{"bike_id":"30a5dc35-910c-400e-ba39-f0c43ffde61d","system_id":"levelo_inurba_marseille","lat":43.26947,"lon":5.38635,"is_reserved":false,"is_disabled":false,"rental_uris":{"android":"levelo://app?vid=30a5dc35-910c-400e-ba39-f0c43ffde61d","ios":"levelo://app?vid=30a5dc35-910c-400e-ba39-f0c43ffde61d"},"vehicle_type_id":"4","last_reported":1731575397,"current_range_meters":15200,"station_id":"ce4bhh92rcd13ifvqfh0","pricing_plan_id":"cebpf4jnsgd1na2vs0mg"},{"bike_id":"2dfe3ff7-15f1-44d8-8056-486b409d3678","system_id":"levelo_inurba_marseille","lat":43.31692,"lon":5.40464,"is_reserved":false,"is_disabled":false,"rental_uris":{"android":"levelo://app?vid=2dfe3ff7-15f1-44d8-8056-486b409d3678","ios":"levelo://app?vid=2dfe3ff7-15f1-44d8-8056-486b409d3678"},"vehicle_type_id":"4","last_reported":1731575397,"current_range_meters":35200,"station_id":"ce4bh012rcd13ifvqd00","pricing_plan_id":"cebpf4jnsgd1na2vs0mg"},{"bike_id":"d679573b-e087-4b04-8155-ab86b81310ae","system_id":"levelo_inurba_marseille","lat":43.30943,"lon":5.39038,"is_reserved":false,"is_disabled":false,"rental_uris":{"android":"levelo://app?vid=d679573b-e087-4b04-8155-ab86b81310ae","ios":"levelo://app?vid=d679573b-e087-4b04-8155-ab86b81310ae"},"vehicle_type_id":"4","last_reported":1731575397,"current_range_meters":4000,"station_id":"ce4bh0p2rcd13ifvqd80","pricing_plan_id":"cebpf4jnsgd1na2vs0mg"},{"bike_id":"8963f262-bdcb-43f5-9e37-237198779ba8","system_id":"levelo_inurba_marseille","lat":43.33773,"lon":5.37442,"is_reserved":false,"is_disabled":false,"rental_uris":{"android":"levelo://app?vid=8963f262-bdcb-43f5-9e37-237198779ba8","ios":"levelo://app?vid=8963f262-bdcb-43f5-9e37-237198779ba8"},"vehicle_type_id":"4","last_reported":1731575397,"current_range_meters":34000,"station_id":"","pricing_plan_id":"cebpf4jnsgd1na2vs0mg"},{"bike_id":"398b47b3-a042-4cec-b1dd-254773a78263","system_id":"levelo_inurba_marseille","lat":43.27409,"lon":5.38945,"is_reserved":false,"is_disabled":false,"rental_uris":{"android":"levelo://app?vid=398b47b3-a042-4cec-b1dd-254773a78263","ios":"levelo://app?vid=398b47b3-a042-4cec-b1dd-254773a78263"},"vehicle_type_id":"4","last_reported":1731575397,"current_range_meters":5600,"station_id":"","pricing_plan_id":"cebpf4jnsgd1na2vs0mg"},{"bike_id":"2e9bfb20-c726-4dff-9f4b-93c0d95af472","system_id":"levelo_inurba_marseille","lat":43.2407,"lon":5.37765,"is_reserved":false,"is_disabled":false,"rental_uris":{"android":"levelo://app?vid=2e9bfb20-c726-4dff-9f4b-93c0d95af472","ios":"levelo://app?vid=2e9bfb20-c726-4dff-9f4b-93c0d95af472"},"vehicle_type_id":"4","last_reported":1731575397,"current_range_meters":13600,"station_id":"ce4bhnp2rcd13ifvqgvg","pricing_plan_id":"cebpf4jnsgd1na2vs0mg"},{"bike_id":"aca23579-0a19-4a4b-a12f-57b0591e79bd","system_id":"levelo_inurba_marseille","lat":43.24082,"lon":5.37749,"is_reserved":false,"is_disabled":false,"rental_uris":{"android":"levelo://app?vid=aca23579-0a19-4a4b-a12f-57b0591e79bd","ios":"levelo://app?vid=aca23579-0a19-4a4b-a12f-57b0591e79bd"},"vehicle_type_id":"4","last_reported":1731575397,"current_range_meters":28000,"station_id":"ce4bhnp2rcd13ifvqgvg","pricing_plan_id":"cebpf4jnsgd1na2vs0mg"},{"bike_id":"b13a21e8-cc30-4660-8f65-03e72d91a9be","system_id":"levelo_inurba_marseille","lat":43.25111,"lon":5.40319,"is_reserved":false,"is_disabled":false,"rental_uris":{"android":"levelo://app?vid=b13a21e8-cc30-4660-8f65-03e72d91a9be","ios":"levelo://app?vid=b13a21e8-cc30-4660-8f65-03e72d91a9be"},"vehicle_type_id":"4","last_reported":1731575397,"current_range_meters":22800,"station_id":"ce4bhlh2rcd13ifvqgig","pricing_plan_id":"cebpf4jnsgd1na2vs0mg"},{"bike_id":"bfa67605-738a-4a04-8785-ac934e987ef3","system_id":"levelo_inurba_marseille","lat":43.3169,"lon":5.40467,"is_reserved":false,"is_disabled":false,"rental_uris":{"android":"levelo://app?vid=bfa67605-738a-4a04-8785-ac934e987ef3","ios":"levelo://app?vid=bfa67605-738a-4a04-8785-ac934e987ef3"},"vehicle_type_id":"4","last_reported":1731575397,"current_range_meters":38800,"station_id":"ce4bh012rcd13ifvqd00","pricing_plan_id":"cebpf4jnsgd1na2vs0mg"},{"bike_id":"92e3ad17-17c9-4714-a148-ef9436ad6113","system_id":"levelo_inurba_marseille","lat":43.22935,"lon":5.3538,"is_reserved":false,"is_disabled":false,"rental_uris":{"android":"levelo://app?vid=92e3ad17-17c9-4714-a148-ef9436ad6113","ios":"levelo://app?vid=92e3ad17-17c9-4714-a148-ef9436ad6113"},"vehicle_type_id":"4","last_reported":1731575397,"current_range_meters":39200,"station_id":"cpo3532slgdg3j2ikp40","pricing_plan_id":"cebpf4jnsgd1na2vs0mg"},{"bike_id":"187a7fa8-9afd-4d26-b5e7-6a10712e67a7","system_id":"levelo_inurba_marseille","lat":43.23147,"lon":5.43714,"is_reserved":false,"is_disabled":false,"rental_uris":{"android":"levelo://app?vid=187a7fa8-9afd-4d26-b5e7-6a10712e67a7","ios":"levelo://app?vid=187a7fa8-9afd-4d26-b5e7-6a10712e67a7"},"vehicle_type_id":"4","last_reported":1731575397,"current_range_meters":40000,"station_id":"ce4bhmp2rcd13ifvqgog","pricing_plan_id":"cebpf4jnsgd1na2vs0mg"},{"bike_id":"0f8efc19-3255-42a2-a1ec-cb067590a67d","system_id":"levelo_inurba_marseille","lat":43.31351,"lon":5.3669,"is_reserved":false,"is_disabled":false,"rental_uris":{"android":"levelo://app?vid=0f8efc19-3255-42a2-a1ec-cb067590a67d","ios":"levelo://app?vid=0f8efc19-3255-42a2-a1ec-cb067590a67d"},"vehicle_type_id":"4","last_reported":1731575397,"current_range_meters":25600,"station_id":"ce4bgr92rcd13ifvqc6g","pricing_plan_id":"cebpf4jnsgd1na2vs0mg"},{"bike_id":"beb7b9bd-a544-4d0c-b0ee-a6204f3f5108","system_id":"levelo_inurba_marseille","lat":43.291962,"lon":5.385193,"is_reserved":false,"is_disabled":false,"rental_uris":{"android":"levelo://app?vid=beb7b9bd-a544-4d0c-b0ee-a6204f3f5108","ios":"levelo://app?vid=beb7b9bd-a544-4d0c-b0ee-a6204f3f5108"},"vehicle_type_id":"4","last_reported":1731575397,"current_range_meters":25200,"station_id":"","pricing_plan_id":"cebpf4jnsgd1na2vs0mg"},{"bike_id":"82f309e6-c4ae-421f-89cb-1d64a8e0ef10","system_id":"levelo_inurba_marseille","lat":43.337444,"lon":5.374475,"is_reserved":false,"is_disabled":false,"rental_uris":{"android":"levelo://app?vid=82f309e6-c4ae-421f-89cb-1d64a8e0ef10","ios":"levelo://app?vid=82f309e6-c4ae-421f-89cb-1d64a8e0ef10"},"vehicle_type_id":"4","last_reported":1731575397,"current_range_meters":33200,"station_id":"","pricing_plan_id":"cebpf4jnsgd1na2vs0mg"},{"bike_id":"5419d154-3ce9-4c40-9294-d16b9d2b3431","system_id":"levelo_inurba_marseille","lat":43.337444,"lon":5.374475,"is_reserved":false,"is_disabled":false,"rental_uris":{"android":"levelo://app?vid=5419d154-3ce9-4c40-9294-d16b9d2b3431","ios":"levelo://app?vid=5419d154-3ce9-4c40-9294-d16b9d2b3431"},"vehicle_type_id":"4","last_reported":1731575397,"current_range_meters":33200,"station_id":"","pricing_plan_id":"cebpf4jnsgd1na2vs0mg"},{"bike_id":"20f2a15e-c673-43da-a761-3c4587dabb8b","system_id":"levelo_inurba_marseille","lat":43.26568,"lon":5.3901,"is_reserved":false,"is_disabled":false,"rental_uris":{"android":"levelo://app?vid=20f2a15e-c673-43da-a761-3c4587dabb8b","ios":"levelo://app?vid=20f2a15e-c673-43da-a761-3c4587dabb8b"},"vehicle_type_id":"4","last_reported":1731575397,"current_range_meters":19200,"station_id":"ce4bhe12rcd13ifvqf30","pricing_plan_id":"cebpf4jnsgd1na2vs0mg"},{"bike_id":"6e4ab7d2-c1df-4ea4-bb4b-2f5c43ed5717","system_id":"levelo_inurba_marseille","lat":43.33768,"lon":5.37439,"is_reserved":false,"is_disabled":false,"rental_uris":{"android":"levelo://app?vid=6e4ab7d2-c1df-4ea4-bb4b-2f5c43ed5717","ios":"levelo://app?vid=6e4ab7d2-c1df-4ea4-bb4b-2f5c43ed5717"},"vehicle_type_id":"4","last_reported":1731575397,"current_range_meters":33200,"station_id":"","pricing_plan_id":"cebpf4jnsgd1na2vs0mg"},{"bike_id":"bd465249-964f-4479-968e-5f6e32af60f1","system_id":"levelo_inurba_marseille","lat":43.337444,"lon":5.374475,"is_reserved":false,"is_disabled":false,"rental_uris":{"android":"levelo://app?vid=bd465249-964f-4479-968e-5f6e32af60f1","ios":"levelo://app?vid=bd465249-964f-4479-968e-5f6e32af60f1"},"vehicle_type_id":"4","last_reported":1731575397,"current_range_meters":35600,"station_id":"","pricing_plan_id":"cebpf4jnsgd1na2vs0mg"},{"bike_id":"e9884c3e-ef8b-4f5f-bbd2-a8caa762df54","system_id":"levelo_inurba_marseille","lat":43.24803,"lon":5.37456,"is_reserved":false,"is_disabled":false,"rental_uris":{"android":"levelo://app?vid=e9884c3e-ef8b-4f5f-bbd2-a8caa762df54","ios":"levelo://app?vid=e9884c3e-ef8b-4f5f-bbd2-a8caa762df54"},"vehicle_type_id":"4","last_reported":1731575397,"current_range_meters":2800,"station_id":"ce4bhgh2rcd13ifvqfb0","pricing_plan_id":"cebpf4jnsgd1na2vs0mg"},{"bike_id":"ab567196-6448-4d50-a225-babc4359ed54","system_id":"levelo_inurba_marseille","lat":43.30546,"lon":5.36699,"is_reserved":false,"is_disabled":false,"rental_uris":{"android":"levelo://app?vid=ab567196-6448-4d50-a225-babc4359ed54","ios":"levelo://app?vid=ab567196-6448-4d50-a225-babc4359ed54"},"vehicle_type_id":"4","last_reported":1731575397,"current_range_meters":24400,"station_id":"ce4bgrp2rcd13ifvqc9g","pricing_plan_id":"cebpf4jnsgd1na2vs0mg"},{"bike_id":"b13c0709-ac42-4a0e-865b-f0644298cf9b","system_id":"levelo_inurba_marseille","lat":43.30539,"lon":5.36542,"is_reserved":false,"is_disabled":false,"rental_uris":{"android":"levelo://app?vid=b13c0709-ac42-4a0e-865b-f0644298cf9b","ios":"levelo://app?vid=b13c0709-ac42-4a0e-865b-f0644298cf9b"},"vehicle_type_id":"4","last_reported":1731575397,"current_range_meters":36800,"station_id":"ce4bgs12rcd13ifvqcag","pricing_plan_id":"cebpf4jnsgd1na2vs0mg"},{"bike_id":"956b0e11-d66d-499b-a1ef-f74ac0cb077e","system_id":"levelo_inurba_marseille","lat":43.27074,"lon":5.42275,"is_reserved":false,"is_disabled":false,"rental_uris":{"android":"levelo://app?vid=956b0e11-d66d-499b-a1ef-f74ac0cb077e","ios":"levelo://app?vid=956b0e11-d66d-499b-a1ef-f74ac0cb077e"},"vehicle_type_id":"4","last_reported":1731575397,"current_range_meters":32400,"station_id":"ce4bhk92rcd13ifvqgb0","pricing_plan_id":"cebpf4jnsgd1na2vs0mg"},{"bike_id":"fac874d5-613b-476e-b896-330f965f6db3","system_id":"levelo_inurba_marseille","lat":43.31185,"lon":5.3871,"is_reserved":false,"is_disabled":false,"rental_uris":{"android":"levelo://app?vid=fac874d5-613b-476e-b896-330f965f6db3","ios":"levelo://app?vid=fac874d5-613b-476e-b896-330f965f6db3"},"vehicle_type_id":"4","last_reported":1731575397,"current_range_meters":7200,"station_id":"ce4bgv12rcd13ifvqcp0","pricing_plan_id":"cebpf4jnsgd1na2vs0mg"},{"bike_id":"9e456525-0f5f-4a80-9d37-85501f13c908","system_id":"levelo_inurba_marseille","lat":43.25084,"lon":5.39518,"is_reserved":false,"is_disabled":false,"rental_uris":{"android":"levelo://app?vid=9e456525-0f5f-4a80-9d37-85501f13c908","ios":"levelo://app?vid=9e456525-0f5f-4a80-9d37-85501f13c908"},"vehicle_type_id":"4","last_reported":1731575397,"current_range_meters":39200,"station_id":"ce4bhm12rcd13ifvqgkg","pricing_plan_id":"cebpf4jnsgd1na2vs0mg"},{"bike_id":"42744b5d-4b77-4c92-808c-ebf462138a5f","system_id":"levelo_inurba_marseille","lat":43.31558,"lon":5.38617,"is_reserved":false,"is_disabled":false,"rental_uris":{"android":"levelo://app?vid=42744b5d-4b77-4c92-808c-ebf462138a5f","ios":"levelo://app?vid=42744b5d-4b77-4c92-808c-ebf462138a5f"},"vehicle_type_id":"4","last_reported":1731575397,"current_range_meters":24400,"station_id":"","pricing_plan_id":"cebpf4jnsgd1na2vs0mg"},{"bike_id":"c9d041c0-acec-4cf4-bba2-e01a92441368","system_id":"levelo_inurba_marseille","lat":43.337444,"lon":5.374475,"is_reserved":false,"is_disabled":false,"rental_uris":{"android":"levelo://app?vid=c9d041c0-acec-4cf4-bba2-e01a92441368","ios":"levelo://app?vid=c9d041c0-acec-4cf4-bba2-e01a92441368"},"vehicle_type_id":"4","last_reported":1731575397,"current_range_meters":35200,"station_id":"","pricing_plan_id":"cebpf4jnsgd1na2vs0mg"},{"bike_id":"c5632cbd-40af-4c93-9f93-5def2f16fea5","system_id":"levelo_inurba_marseille","lat":43.3095,"lon":5.39044,"is_reserved":false,"is_disabled":false,"rental_uris":{"android":"levelo://app?vid=c5632cbd-40af-4c93-9f93-5def2f16fea5","ios":"levelo://app?vid=c5632cbd-40af-4c93-9f93-5def2f16fea5"},"vehicle_type_id":"4","last_reported":1731575397,"current_range_meters":27600,"station_id":"ce4bgup2rcd13ifvqco0","pricing_plan_id":"cebpf4jnsgd1na2vs0mg"},{"bike_id":"aab59851-7fc5-4654-bfb6-bc69a0fe9cc8","system_id":"levelo_inurba_marseille","lat":43.29575,"lon":5.37503,"is_reserved":false,"is_disabled":false,"rental_uris":{"android":"levelo://app?vid=aab59851-7fc5-4654-bfb6-bc69a0fe9cc8","ios":"levelo://app?vid=aab59851-7fc5-4654-bfb6-bc69a0fe9cc8"},"vehicle_type_id":"4","last_reported":1731575397,"current_range_meters":31200,"station_id":"ce4bgh92rcd13ifvqb50","pricing_plan_id":"cebpf4jnsgd1na2vs0mg"},{"bike_id":"f8861758-49fd-41b4-a46e-00cfd5e801f9","system_id":"levelo_inurba_marseille","lat":43.24546,"lon":5.3952,"is_reserved":false,"is_disabled":false,"rental_uris":{"android":"levelo://app?vid=f8861758-49fd-41b4-a46e-00cfd5e801f9","ios":"levelo://app?vid=f8861758-49fd-41b4-a46e-00cfd5e801f9"},"vehicle_type_id":"4","last_reported":1731575397,"current_range_meters":21600,"station_id":"ce4bhlp2rcd13ifvqgjg","pricing_plan_id":"cebpf4jnsgd1na2vs0mg"},{"bike_id":"1a3f88a7-ba66-47f0-b62b-2014c1df80d9","system_id":"levelo_inurba_marseille","lat":43.23152,"lon":5.43707,"is_reserved":false,"is_disabled":false,"rental_uris":{"android":"levelo://app?vid=1a3f88a7-ba66-47f0-b62b-2014c1df80d9","ios":"levelo://app?vid=1a3f88a7-ba66-47f0-b62b-2014c1df80d9"},"vehicle_type_id":"4","last_reported":1731575397,"current_range_meters":17200,"station_id":"ce4bhmp2rcd13ifvqgog","pricing_plan_id":"cebpf4jnsgd1na2vs0mg"},{"bike_id":"df66abf0-5814-42dd-b2a3-5842fb95e6fb","system_id":"levelo_inurba_marseille","lat":43.3414,"lon":5.40899,"is_reserved":false,"is_disabled":false,"rental_uris":{"android":"levelo://app?vid=df66abf0-5814-42dd-b2a3-5842fb95e6fb","ios":"levelo://app?vid=df66abf0-5814-42dd-b2a3-5842fb95e6fb"},"vehicle_type_id":"4","last_reported":1731575397,"current_range_meters":37600,"station_id":"ce4bhqh2rcd13ifvqhlg","pricing_plan_id":"cebpf4jnsgd1na2vs0mg"},{"bike_id":"8cc2aec6-7e03-4434-97a3-0d8e9d8caaf1","system_id":"levelo_inurba_marseille","lat":43.26953,"lon":5.38631,"is_reserved":false,"is_disabled":false,"rental_uris":{"android":"levelo://app?vid=8cc2aec6-7e03-4434-97a3-0d8e9d8caaf1","ios":"levelo://app?vid=8cc2aec6-7e03-4434-97a3-0d8e9d8caaf1"},"vehicle_type_id":"4","last_reported":1731575397,"current_range_meters":38800,"station_id":"ce4bhh92rcd13ifvqfh0","pricing_plan_id":"cebpf4jnsgd1na2vs0mg"},{"bike_id":"b9dc5e65-eeaf-42e7-a419-1ce825133c58","system_id":"levelo_inurba_marseille","lat":43.296222,"lon":5.371682,"is_reserved":false,"is_disabled":false,"rental_uris":{"android":"levelo://app?vid=b9dc5e65-eeaf-42e7-a419-1ce825133c58","ios":"levelo://app?vid=b9dc5e65-eeaf-42e7-a419-1ce825133c58"},"vehicle_type_id":"4","last_reported":1731575397,"current_range_meters":6000,"station_id":"ce4bh4p2rcd13ifvqe1g","pricing_plan_id":"cebpf4jnsgd1na2vs0mg"},{"bike_id":"52a2a24f-1582-4c1c-b7d8-d1b3dc644561","system_id":"levelo_inurba_marseille","lat":43.28429,"lon":5.34975,"is_reserved":false,"is_disabled":false,"rental_uris":{"android":"levelo://app?vid=52a2a24f-1582-4c1c-b7d8-d1b3dc644561","ios":"levelo://app?vid=52a2a24f-1582-4c1c-b7d8-d1b3dc644561"},"vehicle_type_id":"4","last_reported":1731575397,"current_range_meters":37600,"station_id":"ce4bhbh2rcd13ifvqepg","pricing_plan_id":"cebpf4jnsgd1na2vs0mg"},{"bike_id":"405716d9-2be8-4559-9370-b01533cfe98b","system_id":"levelo_inurba_marseille","lat":43.31348,"lon":5.36728,"is_reserved":false,"is_disabled":false,"rental_uris":{"android":"levelo://app?vid=405716d9-2be8-4559-9370-b01533cfe98b","ios":"levelo://app?vid=405716d9-2be8-4559-9370-b01533cfe98b"},"vehicle_type_id":"4","last_reported":1731575397,"current_range_meters":23200,"station_id":"ce4bgr92rcd13ifvqc6g","pricing_plan_id":"cebpf4jnsgd1na2vs0mg"},{"bike_id":"a6aefba3-3a19-4050-bc48-0171f063e022","system_id":"levelo_inurba_marseille","lat":43.27493,"lon":5.42443,"is_reserved":false,"is_disabled":false,"rental_uris":{"android":"levelo://app?vid=a6aefba3-3a19-4050-bc48-0171f063e022","ios":"levelo://app?vid=a6aefba3-3a19-4050-bc48-0171f063e022"},"vehicle_type_id":"4","last_reported":1731575397,"current_range_meters":28400,"station_id":"ce4bhn92rcd13ifvqgrg","pricing_plan_id":"cebpf4jnsgd1na2vs0mg"},{"bike_id":"7cc35c5c-f760-4acf-9c94-feed88d1dd83","system_id":"levelo_inurba_marseille","lat":43.24072,"lon":5.3776,"is_reserved":false,"is_disabled":false,"rental_uris":{"android":"levelo://app?vid=7cc35c5c-f760-4acf-9c94-feed88d1dd83","ios":"levelo://app?vid=7cc35c5c-f760-4acf-9c94-feed88d1dd83"},"vehicle_type_id":"4","last_reported":1731575397,"current_range_meters":37600,"station_id":"ce4bhnp2rcd13ifvqgvg","pricing_plan_id":"cebpf4jnsgd1na2vs0mg"},{"bike_id":"dcf71a52-f3e1-4df6-92d3-80fe9464d673","system_id":"levelo_inurba_marseille","lat":43.28001,"lon":5.40003,"is_reserved":false,"is_disabled":false,"rental_uris":{"android":"levelo://app?vid=dcf71a52-f3e1-4df6-92d3-80fe9464d673","ios":"levelo://app?vid=dcf71a52-f3e1-4df6-92d3-80fe9464d673"},"vehicle_type_id":"4","last_reported":1731575397,"current_range_meters":38800,"station_id":"ce4bho92rcd13ifvqh4g","pricing_plan_id":"cebpf4jnsgd1na2vs0mg"},{"bike_id":"cf337130-327d-4f8d-ac64-8750832558ab","system_id":"levelo_inurba_marseille","lat":43.251177,"lon":5.403276,"is_reserved":false,"is_disabled":false,"rental_uris":{"android":"levelo://app?vid=cf337130-327d-4f8d-ac64-8750832558ab","ios":"levelo://app?vid=cf337130-327d-4f8d-ac64-8750832558ab"},"vehicle_type_id":"4","last_reported":1731575397,"current_range_meters":34000,"station_id":"ce4bhlh2rcd13ifvqgig","pricing_plan_id":"cebpf4jnsgd1na2vs0mg"},{"bike_id":"942ebb39-b1c0-4e2a-8bd6-9132b397a7ce","system_id":"levelo_inurba_marseille","lat":43.27994,"lon":5.4166,"is_reserved":false,"is_disabled":false,"rental_uris":{"android":"levelo://app?vid=942ebb39-b1c0-4e2a-8bd6-9132b397a7ce","ios":"levelo://app?vid=942ebb39-b1c0-4e2a-8bd6-9132b397a7ce"},"vehicle_type_id":"4","last_reported":1731575397,"current_range_meters":36800,"station_id":"ce4bho12rcd13ifvqh1g","pricing_plan_id":"cebpf4jnsgd1na2vs0mg"},{"bike_id":"7993481c-6af9-41f2-9bac-c327a53be150","system_id":"levelo_inurba_marseille","lat":43.2315,"lon":5.43703,"is_reserved":false,"is_disabled":false,"rental_uris":{"android":"levelo://app?vid=7993481c-6af9-41f2-9bac-c327a53be150","ios":"levelo://app?vid=7993481c-6af9-41f2-9bac-c327a53be150"},"vehicle_type_id":"4","last_reported":1731575397,"current_range_meters":8000,"station_id":"ce4bhmp2rcd13ifvqgog","pricing_plan_id":"cebpf4jnsgd1na2vs0mg"},{"bike_id":"47aecfd0-98ff-4bc0-a0f8-c06de5d2d359","system_id":"levelo_inurba_marseille","lat":43.30139,"lon":5.39844,"is_reserved":false,"is_disabled":false,"rental_uris":{"android":"levelo://app?vid=47aecfd0-98ff-4bc0-a0f8-c06de5d2d359","ios":"levelo://app?vid=47aecfd0-98ff-4bc0-a0f8-c06de5d2d359"},"vehicle_type_id":"4","last_reported":1731575397,"current_range_meters":24800,"station_id":"ce4bh0h2rcd13ifvqd40","pricing_plan_id":"cebpf4jnsgd1na2vs0mg"},{"bike_id":"4b09a844-598b-47fd-b89b-9a6ffb3358d9","system_id":"levelo_inurba_marseille","lat":43.3254,"lon":5.41435,"is_reserved":false,"is_disabled":false,"rental_uris":{"android":"levelo://app?vid=4b09a844-598b-47fd-b89b-9a6ffb3358d9","ios":"levelo://app?vid=4b09a844-598b-47fd-b89b-9a6ffb3358d9"},"vehicle_type_id":"4","last_reported":1731575397,"current_range_meters":16000,"station_id":"ce4bhq12rcd13ifvqhhg","pricing_plan_id":"cebpf4jnsgd1na2vs0mg"},{"bike_id":"237875b9-2c13-47ee-907c-c048312c2f89","system_id":"levelo_inurba_marseille","lat":43.25585,"lon":5.38229,"is_reserved":false,"is_disabled":false,"rental_uris":{"android":"levelo://app?vid=237875b9-2c13-47ee-907c-c048312c2f89","ios":"levelo://app?vid=237875b9-2c13-47ee-907c-c048312c2f89"},"vehicle_type_id":"4","last_reported":1731575397,"current_range_meters":4000,"station_id":"ce4bhih2rcd13ifvqfs0","pricing_plan_id":"cebpf4jnsgd1na2vs0mg"},{"bike_id":"afe2e088-4a36-4017-9dde-ff8c960d2821","system_id":"levelo_inurba_marseille","lat":43.34145,"lon":5.40903,"is_reserved":false,"is_disabled":false,"rental_uris":{"android":"levelo://app?vid=afe2e088-4a36-4017-9dde-ff8c960d2821","ios":"levelo://app?vid=afe2e088-4a36-4017-9dde-ff8c960d2821"},"vehicle_type_id":"4","last_reported":1731575397,"current_range_meters":30400,"station_id":"ce4bhqh2rcd13ifvqhlg","pricing_plan_id":"cebpf4jnsgd1na2vs0mg"},{"bike_id":"e48cc742-94f8-4b58-8e08-b32f59f5545e","system_id":"levelo_inurba_marseille","lat":43.27674,"lon":5.38897,"is_reserved":false,"is_disabled":false,"rental_uris":{"android":"levelo://app?vid=e48cc742-94f8-4b58-8e08-b32f59f5545e","ios":"levelo://app?vid=e48cc742-94f8-4b58-8e08-b32f59f5545e"},"vehicle_type_id":"4","last_reported":1731575397,"current_range_meters":3600,"station_id":"ce4bhi12rcd13ifvqfo0","pricing_plan_id":"cebpf4jnsgd1na2vs0mg"},{"bike_id":"dc0a8ff7-79b6-4908-a701-7eecc75a6694","system_id":"levelo_inurba_marseille","lat":43.28483,"lon":5.38561,"is_reserved":false,"is_disabled":false,"rental_uris":{"android":"levelo://app?vid=dc0a8ff7-79b6-4908-a701-7eecc75a6694","ios":"levelo://app?vid=dc0a8ff7-79b6-4908-a701-7eecc75a6694"},"vehicle_type_id":"4","last_reported":1731575397,"current_range_meters":20800,"station_id":"ce4bh8p2rcd13ifvqeb0","pricing_plan_id":"cebpf4jnsgd1na2vs0mg"},{"bike_id":"337ea833-1b01-4041-a864-7a3676c066d7","system_id":"levelo_inurba_marseille","lat":43.27072,"lon":5.42273,"is_reserved":false,"is_disabled":false,"rental_uris":{"android":"levelo://app?vid=337ea833-1b01-4041-a864-7a3676c066d7","ios":"levelo://app?vid=337ea833-1b01-4041-a864-7a3676c066d7"},"vehicle_type_id":"4","last_reported":1731575397,"current_range_meters":38800,"station_id":"ce4bhk92rcd13ifvqgb0","pricing_plan_id":"cebpf4jnsgd1na2vs0mg"},{"bike_id":"8e48e685-0d61-4d6f-9810-7cd4aae0a3ec","system_id":"levelo_inurba_marseille","lat":43.28081,"lon":5.39659,"is_reserved":false,"is_disabled":false,"rental_uris":{"android":"levelo://app?vid=8e48e685-0d61-4d6f-9810-7cd4aae0a3ec","ios":"levelo://app?vid=8e48e685-0d61-4d6f-9810-7cd4aae0a3ec"},"vehicle_type_id":"4","last_reported":1731575397,"current_range_meters":19200,"station_id":"ce4bho12rcd13ifvqh2g","pricing_plan_id":"cebpf4jnsgd1na2vs0mg"},{"bike_id":"8dc67529-5229-43a1-8974-b429efa1d3ba","system_id":"levelo_inurba_marseille","lat":43.305555,"lon":5.3655,"is_reserved":false,"is_disabled":false,"rental_uris":{"android":"levelo://app?vid=8dc67529-5229-43a1-8974-b429efa1d3ba","ios":"levelo://app?vid=8dc67529-5229-43a1-8974-b429efa1d3ba"},"vehicle_type_id":"4","last_reported":1731575397,"current_range_meters":4400,"station_id":"ce4bgs12rcd13ifvqcag","pricing_plan_id":"cebpf4jnsgd1na2vs0mg"},{"bike_id":"96352786-b953-4b6d-96b3-5df619023394","system_id":"levelo_inurba_marseille","lat":43.31347,"lon":5.36707,"is_reserved":false,"is_disabled":false,"rental_uris":{"android":"levelo://app?vid=96352786-b953-4b6d-96b3-5df619023394","ios":"levelo://app?vid=96352786-b953-4b6d-96b3-5df619023394"},"vehicle_type_id":"4","last_reported":1731575397,"current_range_meters":6000,"station_id":"ce4bgr92rcd13ifvqc6g","pricing_plan_id":"cebpf4jnsgd1na2vs0mg"},{"bike_id":"4b0c5f0c-e1e0-486f-956e-a3d4d03ca077","system_id":"levelo_inurba_marseille","lat":43.27814,"lon":5.40709,"is_reserved":false,"is_disabled":false,"rental_uris":{"android":"levelo://app?vid=4b0c5f0c-e1e0-486f-956e-a3d4d03ca077","ios":"levelo://app?vid=4b0c5f0c-e1e0-486f-956e-a3d4d03ca077"},"vehicle_type_id":"4","last_reported":1731575397,"current_range_meters":38800,"station_id":"ce4bhnh2rcd13ifvqgtg","pricing_plan_id":"cebpf4jnsgd1na2vs0mg"},{"bike_id":"d1de8638-bffd-4be4-ae10-3dd7a5d6ff38","system_id":"levelo_inurba_marseille","lat":43.30545,"lon":5.36711,"is_reserved":false,"is_disabled":false,"rental_uris":{"android":"levelo://app?vid=d1de8638-bffd-4be4-ae10-3dd7a5d6ff38","ios":"levelo://app?vid=d1de8638-bffd-4be4-ae10-3dd7a5d6ff38"},"vehicle_type_id":"4","last_reported":1731575397,"current_range_meters":7200,"station_id":"ce4bgrp2rcd13ifvqc9g","pricing_plan_id":"cebpf4jnsgd1na2vs0mg"},{"bike_id":"fcdbc3e9-079c-476d-b92e-633acea3c392","system_id":"levelo_inurba_marseille","lat":43.27977,"lon":5.38734,"is_reserved":false,"is_disabled":false,"rental_uris":{"android":"levelo://app?vid=fcdbc3e9-079c-476d-b92e-633acea3c392","ios":"levelo://app?vid=fcdbc3e9-079c-476d-b92e-633acea3c392"},"vehicle_type_id":"4","last_reported":1731575397,"current_range_meters":8000,"station_id":"ce4bhg12rcd13ifvqf80","pricing_plan_id":"cebpf4jnsgd1na2vs0mg"},{"bike_id":"37212eb8-cfa6-47ba-9ed7-bfed51287466","system_id":"levelo_inurba_marseille","lat":43.31454,"lon":5.37374,"is_reserved":false,"is_disabled":false,"rental_uris":{"android":"levelo://app?vid=37212eb8-cfa6-47ba-9ed7-bfed51287466","ios":"levelo://app?vid=37212eb8-cfa6-47ba-9ed7-bfed51287466"},"vehicle_type_id":"4","last_reported":1731575397,"current_range_meters":38800,"station_id":"","pricing_plan_id":"cebpf4jnsgd1na2vs0mg"},{"bike_id":"84817729-7a11-4bfd-b918-6535d69c0b65","system_id":"levelo_inurba_marseille","lat":43.24073,"lon":5.37765,"is_reserved":false,"is_disabled":false,"rental_uris":{"android":"levelo://app?vid=84817729-7a11-4bfd-b918-6535d69c0b65","ios":"levelo://app?vid=84817729-7a11-4bfd-b918-6535d69c0b65"},"vehicle_type_id":"4","last_reported":1731575397,"current_range_meters":30000,"station_id":"ce4bhnp2rcd13ifvqgvg","pricing_plan_id":"cebpf4jnsgd1na2vs0mg"},{"bike_id":"9d73d99b-c534-402b-a023-0f39938e9708","system_id":"levelo_inurba_marseille","lat":43.31228,"lon":5.36849,"is_reserved":false,"is_disabled":false,"rental_uris":{"android":"levelo://app?vid=9d73d99b-c534-402b-a023-0f39938e9708","ios":"levelo://app?vid=9d73d99b-c534-402b-a023-0f39938e9708"},"vehicle_type_id":"4","last_reported":1731575397,"current_range_meters":38000,"station_id":"ce4bgl92rcd13ifvqbq0","pricing_plan_id":"cebpf4jnsgd1na2vs0mg"},{"bike_id":"012927f2-0ce0-4abc-933c-6366952c031d","system_id":"levelo_inurba_marseille","lat":43.24177,"lon":5.39728,"is_reserved":false,"is_disabled":false,"rental_uris":{"android":"levelo://app?vid=012927f2-0ce0-4abc-933c-6366952c031d","ios":"levelo://app?vid=012927f2-0ce0-4abc-933c-6366952c031d"},"vehicle_type_id":"4","last_reported":1731575397,"current_range_meters":27600,"station_id":"ce4bhn12rcd13ifvqgpg","pricing_plan_id":"cebpf4jnsgd1na2vs0mg"},{"bike_id":"3f7042d7-7ab2-4583-9643-3e96635206e7","system_id":"levelo_inurba_marseille","lat":43.24184,"lon":5.39727,"is_reserved":false,"is_disabled":false,"rental_uris":{"android":"levelo://app?vid=3f7042d7-7ab2-4583-9643-3e96635206e7","ios":"levelo://app?vid=3f7042d7-7ab2-4583-9643-3e96635206e7"},"vehicle_type_id":"4","last_reported":1731575397,"current_range_meters":12800,"station_id":"ce4bhn12rcd13ifvqgpg","pricing_plan_id":"cebpf4jnsgd1na2vs0mg"},{"bike_id":"464f0ef2-d8d1-4829-8d96-3d49f7f5868b","system_id":"levelo_inurba_marseille","lat":43.24072,"lon":5.37764,"is_reserved":false,"is_disabled":false,"rental_uris":{"android":"levelo://app?vid=464f0ef2-d8d1-4829-8d96-3d49f7f5868b","ios":"levelo://app?vid=464f0ef2-d8d1-4829-8d96-3d49f7f5868b"},"vehicle_type_id":"4","last_reported":1731575397,"current_range_meters":11600,"station_id":"ce4bhi12rcd13ifvqfp0","pricing_plan_id":"cebpf4jnsgd1na2vs0mg"},{"bike_id":"31547c7d-e5e6-47c5-91d8-ee7f4375a66a","system_id":"levelo_inurba_marseille","lat":43.303079,"lon":5.368929,"is_reserved":false,"is_disabled":false,"rental_uris":{"android":"levelo://app?vid=31547c7d-e5e6-47c5-91d8-ee7f4375a66a","ios":"levelo://app?vid=31547c7d-e5e6-47c5-91d8-ee7f4375a66a"},"vehicle_type_id":"4","last_reported":1731575397,"current_range_meters":38000,"station_id":"ce4bgqh2rcd13ifvqc5g","pricing_plan_id":"cebpf4jnsgd1na2vs0mg"},{"bike_id":"e320d189-79ad-4b4b-8378-af120e211eb6","system_id":"levelo_inurba_marseille","lat":43.25931,"lon":5.40887,"is_reserved":false,"is_disabled":false,"rental_uris":{"android":"levelo://app?vid=e320d189-79ad-4b4b-8378-af120e211eb6","ios":"levelo://app?vid=e320d189-79ad-4b4b-8378-af120e211eb6"},"vehicle_type_id":"4","last_reported":1731575397,"current_range_meters":27600,"station_id":"ce4bhm92rcd13ifvqglg","pricing_plan_id":"cebpf4jnsgd1na2vs0mg"},{"bike_id":"bab82320-e6fc-48dd-9d66-dc00547e2081","system_id":"levelo_inurba_marseille","lat":43.26952,"lon":5.38621,"is_reserved":false,"is_disabled":false,"rental_uris":{"android":"levelo://app?vid=bab82320-e6fc-48dd-9d66-dc00547e2081","ios":"levelo://app?vid=bab82320-e6fc-48dd-9d66-dc00547e2081"},"vehicle_type_id":"4","last_reported":1731575397,"current_range_meters":32000,"station_id":"ce4bhh92rcd13ifvqfh0","pricing_plan_id":"cebpf4jnsgd1na2vs0mg"},{"bike_id":"7c9b8995-ac96-4708-b4eb-b4b17631b9d8","system_id":"levelo_inurba_marseille","lat":43.337444,"lon":5.374475,"is_reserved":false,"is_disabled":false,"rental_uris":{"android":"levelo://app?vid=7c9b8995-ac96-4708-b4eb-b4b17631b9d8","ios":"levelo://app?vid=7c9b8995-ac96-4708-b4eb-b4b17631b9d8"},"vehicle_type_id":"4","last_reported":1731575397,"current_range_meters":33600,"station_id":"","pricing_plan_id":"cebpf4jnsgd1na2vs0mg"},{"bike_id":"aa6bb8a3-6021-42ac-b0b1-22f50ff8e5e7","system_id":"levelo_inurba_marseille","lat":43.30905,"lon":5.36851,"is_reserved":false,"is_disabled":false,"rental_uris":{"android":"levelo://app?vid=aa6bb8a3-6021-42ac-b0b1-22f50ff8e5e7","ios":"levelo://app?vid=aa6bb8a3-6021-42ac-b0b1-22f50ff8e5e7"},"vehicle_type_id":"4","last_reported":1731575397,"current_range_meters":39200,"station_id":"ce4bgn92rcd13ifvqbvg","pricing_plan_id":"cebpf4jnsgd1na2vs0mg"},{"bike_id":"10e8df17-e757-4f4d-b524-8804648ac5b8","system_id":"levelo_inurba_marseille","lat":43.30589,"lon":5.39356,"is_reserved":false,"is_disabled":false,"rental_uris":{"android":"levelo://app?vid=10e8df17-e757-4f4d-b524-8804648ac5b8","ios":"levelo://app?vid=10e8df17-e757-4f4d-b524-8804648ac5b8"},"vehicle_type_id":"4","last_reported":1731575397,"current_range_meters":4800,"station_id":"ce4bh0p2rcd13ifvqd80","pricing_plan_id":"cebpf4jnsgd1na2vs0mg"},{"bike_id":"a4df5d8f-a96e-44fd-a33c-a0551b9dcb5d","system_id":"levelo_inurba_marseille","lat":43.27083,"lon":5.42269,"is_reserved":false,"is_disabled":false,"rental_uris":{"android":"levelo://app?vid=a4df5d8f-a96e-44fd-a33c-a0551b9dcb5d","ios":"levelo://app?vid=a4df5d8f-a96e-44fd-a33c-a0551b9dcb5d"},"vehicle_type_id":"4","last_reported":1731575397,"current_range_meters":38800,"station_id":"ce4bhk92rcd13ifvqgb0","pricing_plan_id":"cebpf4jnsgd1na2vs0mg"},{"bike_id":"3c9c322e-da5e-4d1b-81c7-419d4cb49844","system_id":"levelo_inurba_marseille","lat":43.29361,"lon":5.37855,"is_reserved":false,"is_disabled":false,"rental_uris":{"android":"levelo://app?vid=3c9c322e-da5e-4d1b-81c7-419d4cb49844","ios":"levelo://app?vid=3c9c322e-da5e-4d1b-81c7-419d4cb49844"},"vehicle_type_id":"4","last_reported":1731575397,"current_range_meters":12800,"station_id":"ce4bgjh2rcd13ifvqbf0","pricing_plan_id":"cebpf4jnsgd1na2vs0mg"},{"bike_id":"64f8b148-a16b-4211-8323-403140a1c43e","system_id":"levelo_inurba_marseille","lat":43.28659,"lon":5.36348,"is_reserved":false,"is_disabled":false,"rental_uris":{"android":"levelo://app?vid=64f8b148-a16b-4211-8323-403140a1c43e","ios":"levelo://app?vid=64f8b148-a16b-4211-8323-403140a1c43e"},"vehicle_type_id":"4","last_reported":1731575397,"current_range_meters":30000,"station_id":"ce4bhah2rcd13ifvqej0","pricing_plan_id":"cebpf4jnsgd1na2vs0mg"},{"bike_id":"9ce51ac6-a7c0-40c6-8c4d-88854547eccb","system_id":"levelo_inurba_marseille","lat":43.28943,"lon":5.39635,"is_reserved":false,"is_disabled":false,"rental_uris":{"android":"levelo://app?vid=9ce51ac6-a7c0-40c6-8c4d-88854547eccb","ios":"levelo://app?vid=9ce51ac6-a7c0-40c6-8c4d-88854547eccb"},"vehicle_type_id":"4","last_reported":1731575397,"current_range_meters":37600,"station_id":"ce4bh3h2rcd13ifvqdn0","pricing_plan_id":"cebpf4jnsgd1na2vs0mg"},{"bike_id":"a592f289-7c17-4820-9105-4cfe6872b948","system_id":"levelo_inurba_marseille","lat":43.28148,"lon":5.42641,"is_reserved":false,"is_disabled":false,"rental_uris":{"android":"levelo://app?vid=a592f289-7c17-4820-9105-4cfe6872b948","ios":"levelo://app?vid=a592f289-7c17-4820-9105-4cfe6872b948"},"vehicle_type_id":"4","last_reported":1731575397,"current_range_meters":36800,"station_id":"ce4bhnh2rcd13ifvqgug","pricing_plan_id":"cebpf4jnsgd1na2vs0mg"},{"bike_id":"f5d3a35a-755e-4539-80f6-91465fe7f81a","system_id":"levelo_inurba_marseille","lat":43.26791,"lon":5.39414,"is_reserved":false,"is_disabled":false,"rental_uris":{"android":"levelo://app?vid=f5d3a35a-755e-4539-80f6-91465fe7f81a","ios":"levelo://app?vid=f5d3a35a-755e-4539-80f6-91465fe7f81a"},"vehicle_type_id":"4","last_reported":1731575397,"current_range_meters":38800,"station_id":"ce4bhh12rcd13ifvqfg0","pricing_plan_id":"cebpf4jnsgd1na2vs0mg"},{"bike_id":"285a2442-2a9c-4576-a4a3-065f9a11034c","system_id":"levelo_inurba_marseille","lat":43.28567,"lon":5.39501,"is_reserved":false,"is_disabled":false,"rental_uris":{"android":"levelo://app?vid=285a2442-2a9c-4576-a4a3-065f9a11034c","ios":"levelo://app?vid=285a2442-2a9c-4576-a4a3-065f9a11034c"},"vehicle_type_id":"4","last_reported":1731575397,"current_range_meters":13600,"station_id":"ce4bh292rcd13ifvqdg0","pricing_plan_id":"cebpf4jnsgd1na2vs0mg"},{"bike_id":"11dcdaa9-f959-4377-8827-31f7d056d56c","system_id":"levelo_inurba_marseille","lat":43.30948,"lon":5.39037,"is_reserved":false,"is_disabled":false,"rental_uris":{"android":"levelo://app?vid=11dcdaa9-f959-4377-8827-31f7d056d56c","ios":"levelo://app?vid=11dcdaa9-f959-4377-8827-31f7d056d56c"},"vehicle_type_id":"4","last_reported":1731575397,"current_range_meters":29600,"station_id":"ce4bgup2rcd13ifvqco0","pricing_plan_id":"cebpf4jnsgd1na2vs0mg"},{"bike_id":"83e569ea-cfca-4e63-a82d-824950d25e2f","system_id":"levelo_inurba_marseille","lat":43.2894,"lon":5.39634,"is_reserved":false,"is_disabled":false,"rental_uris":{"android":"levelo://app?vid=83e569ea-cfca-4e63-a82d-824950d25e2f","ios":"levelo://app?vid=83e569ea-cfca-4e63-a82d-824950d25e2f"},"vehicle_type_id":"4","last_reported":1731575397,"current_range_meters":21600,"station_id":"ce4bh4p2rcd13ifvqe0g","pricing_plan_id":"cebpf4jnsgd1na2vs0mg"},{"bike_id":"c0cbf0a5-d73b-40d0-a2b2-f79a751460e3","system_id":"levelo_inurba_marseille","lat":43.3059,"lon":5.39359,"is_reserved":false,"is_disabled":false,"rental_uris":{"android":"levelo://app?vid=c0cbf0a5-d73b-40d0-a2b2-f79a751460e3","ios":"levelo://app?vid=c0cbf0a5-d73b-40d0-a2b2-f79a751460e3"},"vehicle_type_id":"4","last_reported":1731575397,"current_range_meters":6400,"station_id":"ce4bh0p2rcd13ifvqd80","pricing_plan_id":"cebpf4jnsgd1na2vs0mg"},{"bike_id":"f0400df8-a33c-410f-84e8-56d9b17dfd3f","system_id":"levelo_inurba_marseille","lat":43.28941,"lon":5.36626,"is_reserved":false,"is_disabled":false,"rental_uris":{"android":"levelo://app?vid=f0400df8-a33c-410f-84e8-56d9b17dfd3f","ios":"levelo://app?vid=f0400df8-a33c-410f-84e8-56d9b17dfd3f"},"vehicle_type_id":"4","last_reported":1731575397,"current_range_meters":38800,"station_id":"ce4bhap2rcd13ifvqek0","pricing_plan_id":"cebpf4jnsgd1na2vs0mg"},{"bike_id":"fc746dc4-7003-4908-8493-3a62027ab2bc","system_id":"levelo_inurba_marseille","lat":43.27676,"lon":5.38883,"is_reserved":false,"is_disabled":false,"rental_uris":{"android":"levelo://app?vid=fc746dc4-7003-4908-8493-3a62027ab2bc","ios":"levelo://app?vid=fc746dc4-7003-4908-8493-3a62027ab2bc"},"vehicle_type_id":"4","last_reported":1731575397,"current_range_meters":38800,"station_id":"ce4bhi12rcd13ifvqfo0","pricing_plan_id":"cebpf4jnsgd1na2vs0mg"},{"bike_id":"3dc2a228-079c-4072-8fd5-6a4d42db143f","system_id":"levelo_inurba_marseille","lat":43.31352,"lon":5.36709,"is_reserved":false,"is_disabled":false,"rental_uris":{"android":"levelo://app?vid=3dc2a228-079c-4072-8fd5-6a4d42db143f","ios":"levelo://app?vid=3dc2a228-079c-4072-8fd5-6a4d42db143f"},"vehicle_type_id":"4","last_reported":1731575397,"current_range_meters":17200,"station_id":"ce4bgr92rcd13ifvqc6g","pricing_plan_id":"cebpf4jnsgd1na2vs0mg"},{"bike_id":"93ca2130-aaf5-470f-9099-d847f3932292","system_id":"levelo_inurba_marseille","lat":43.24075,"lon":5.37756,"is_reserved":false,"is_disabled":false,"rental_uris":{"android":"levelo://app?vid=93ca2130-aaf5-470f-9099-d847f3932292","ios":"levelo://app?vid=93ca2130-aaf5-470f-9099-d847f3932292"},"vehicle_type_id":"4","last_reported":1731575397,"current_range_meters":34000,"station_id":"ce4bhnp2rcd13ifvqgvg","pricing_plan_id":"cebpf4jnsgd1na2vs0mg"},{"bike_id":"302217a2-0056-477e-a525-f473de66ebad","system_id":"levelo_inurba_marseille","lat":43.27489,"lon":5.42459,"is_reserved":false,"is_disabled":false,"rental_uris":{"android":"levelo://app?vid=302217a2-0056-477e-a525-f473de66ebad","ios":"levelo://app?vid=302217a2-0056-477e-a525-f473de66ebad"},"vehicle_type_id":"4","last_reported":1731575397,"current_range_meters":22400,"station_id":"ce4bhn92rcd13ifvqgrg","pricing_plan_id":"cebpf4jnsgd1na2vs0mg"},{"bike_id":"7735a892-8d6b-4a93-b64f-341778d38d92","system_id":"levelo_inurba_marseille","lat":43.33611,"lon":5.4102,"is_reserved":false,"is_disabled":false,"rental_uris":{"android":"levelo://app?vid=7735a892-8d6b-4a93-b64f-341778d38d92","ios":"levelo://app?vid=7735a892-8d6b-4a93-b64f-341778d38d92"},"vehicle_type_id":"4","last_reported":1731575397,"current_range_meters":25600,"station_id":"ce4bhqh2rcd13ifvqhmg","pricing_plan_id":"cebpf4jnsgd1na2vs0mg"},{"bike_id":"a5baad26-2b66-4d5a-a9af-3321501fc6d9","system_id":"levelo_inurba_marseille","lat":43.30958,"lon":5.39031,"is_reserved":false,"is_disabled":false,"rental_uris":{"android":"levelo://app?vid=a5baad26-2b66-4d5a-a9af-3321501fc6d9","ios":"levelo://app?vid=a5baad26-2b66-4d5a-a9af-3321501fc6d9"},"vehicle_type_id":"4","last_reported":1731575397,"current_range_meters":13600,"station_id":"ce4bgup2rcd13ifvqco0","pricing_plan_id":"cebpf4jnsgd1na2vs0mg"},{"bike_id":"25e380a6-e146-4639-8cca-20015c2f0f14","system_id":"levelo_inurba_marseille","lat":43.32478,"lon":5.3656,"is_reserved":false,"is_disabled":false,"rental_uris":{"android":"levelo://app?vid=25e380a6-e146-4639-8cca-20015c2f0f14","ios":"levelo://app?vid=25e380a6-e146-4639-8cca-20015c2f0f14"},"vehicle_type_id":"4","last_reported":1731575397,"current_range_meters":30800,"station_id":"ce4bhs12rcd13ifvqhvg","pricing_plan_id":"cebpf4jnsgd1na2vs0mg"},{"bike_id":"d806e681-58ec-4112-8b30-9115697b12d1","system_id":"levelo_inurba_marseille","lat":43.27944,"lon":5.4104,"is_reserved":false,"is_disabled":false,"rental_uris":{"android":"levelo://app?vid=d806e681-58ec-4112-8b30-9115697b12d1","ios":"levelo://app?vid=d806e681-58ec-4112-8b30-9115697b12d1"},"vehicle_type_id":"4","last_reported":1731575397,"current_range_meters":32000,"station_id":"ce4bhnp2rcd13ifvqh0g","pricing_plan_id":"cebpf4jnsgd1na2vs0mg"},{"bike_id":"088719d3-df86-4762-930f-697dcfcb2014","system_id":"levelo_inurba_marseille","lat":43.29567,"lon":5.37515,"is_reserved":false,"is_disabled":false,"rental_uris":{"android":"levelo://app?vid=088719d3-df86-4762-930f-697dcfcb2014","ios":"levelo://app?vid=088719d3-df86-4762-930f-697dcfcb2014"},"vehicle_type_id":"4","last_reported":1731575397,"current_range_meters":4400,"station_id":"ce4bgh92rcd13ifvqb50","pricing_plan_id":"cebpf4jnsgd1na2vs0mg"},{"bike_id":"dae5cfe0-b8b5-4b7f-a29e-18f7f77aa5ed","system_id":"levelo_inurba_marseille","lat":43.29926,"lon":5.38026,"is_reserved":false,"is_disabled":false,"rental_uris":{"android":"levelo://app?vid=dae5cfe0-b8b5-4b7f-a29e-18f7f77aa5ed","ios":"levelo://app?vid=dae5cfe0-b8b5-4b7f-a29e-18f7f77aa5ed"},"vehicle_type_id":"4","last_reported":1731575397,"current_range_meters":24800,"station_id":"","pricing_plan_id":"cebpf4jnsgd1na2vs0mg"},{"bike_id":"d64789a5-6f7a-491a-b16a-1ea1a1a93312","system_id":"levelo_inurba_marseille","lat":43.3045,"lon":5.37904,"is_reserved":false,"is_disabled":false,"rental_uris":{"android":"levelo://app?vid=d64789a5-6f7a-491a-b16a-1ea1a1a93312","ios":"levelo://app?vid=d64789a5-6f7a-491a-b16a-1ea1a1a93312"},"vehicle_type_id":"4","last_reported":1731575397,"current_range_meters":12000,"station_id":"ce4bgup2rcd13ifvqcn0","pricing_plan_id":"cebpf4jnsgd1na2vs0mg"},{"bike_id":"8efad5db-810c-49d2-b266-01d74f7398f4","system_id":"levelo_inurba_marseille","lat":43.27991,"lon":5.40025,"is_reserved":false,"is_disabled":false,"rental_uris":{"android":"levelo://app?vid=8efad5db-810c-49d2-b266-01d74f7398f4","ios":"levelo://app?vid=8efad5db-810c-49d2-b266-01d74f7398f4"},"vehicle_type_id":"4","last_reported":1731575397,"current_range_meters":20000,"station_id":"ce4bho92rcd13ifvqh4g","pricing_plan_id":"cebpf4jnsgd1na2vs0mg"},{"bike_id":"385ec239-505b-4595-908c-fb22d2b2039f","system_id":"levelo_inurba_marseille","lat":43.31358,"lon":5.36691,"is_reserved":false,"is_disabled":false,"rental_uris":{"android":"levelo://app?vid=385ec239-505b-4595-908c-fb22d2b2039f","ios":"levelo://app?vid=385ec239-505b-4595-908c-fb22d2b2039f"},"vehicle_type_id":"4","last_reported":1731575397,"current_range_meters":25600,"station_id":"ce4bgr92rcd13ifvqc6g","pricing_plan_id":"cebpf4jnsgd1na2vs0mg"},{"bike_id":"07ee4904-f535-458a-b0b5-2f7426ce7969","system_id":"levelo_inurba_marseille","lat":43.24081,"lon":5.37752,"is_reserved":false,"is_disabled":false,"rental_uris":{"android":"levelo://app?vid=07ee4904-f535-458a-b0b5-2f7426ce7969","ios":"levelo://app?vid=07ee4904-f535-458a-b0b5-2f7426ce7969"},"vehicle_type_id":"4","last_reported":1731575397,"current_range_meters":8000,"station_id":"ce4bhnp2rcd13ifvqgvg","pricing_plan_id":"cebpf4jnsgd1na2vs0mg"},{"bike_id":"8aa67a89-0dc6-4b92-b9d3-266a6f0ca2c6","system_id":"levelo_inurba_marseille","lat":43.305338,"lon":5.367068,"is_reserved":false,"is_disabled":false,"rental_uris":{"android":"levelo://app?vid=8aa67a89-0dc6-4b92-b9d3-266a6f0ca2c6","ios":"levelo://app?vid=8aa67a89-0dc6-4b92-b9d3-266a6f0ca2c6"},"vehicle_type_id":"4","last_reported":1731575397,"current_range_meters":40000,"station_id":"ce4bgrp2rcd13ifvqc9g","pricing_plan_id":"cebpf4jnsgd1na2vs0mg"},{"bike_id":"31245746-08f3-4c24-9175-2c68da594b81","system_id":"levelo_inurba_marseille","lat":43.299118,"lon":5.381444,"is_reserved":false,"is_disabled":false,"rental_uris":{"android":"levelo://app?vid=31245746-08f3-4c24-9175-2c68da594b81","ios":"levelo://app?vid=31245746-08f3-4c24-9175-2c68da594b81"},"vehicle_type_id":"4","last_reported":1731575397,"current_range_meters":32000,"station_id":"ce4bh9p2rcd13ifvqec0","pricing_plan_id":"cebpf4jnsgd1na2vs0mg"},{"bike_id":"02b1bd0b-a86a-47f1-9ed3-78958123915a","system_id":"levelo_inurba_marseille","lat":43.24078,"lon":5.37757,"is_reserved":false,"is_disabled":false,"rental_uris":{"android":"levelo://app?vid=02b1bd0b-a86a-47f1-9ed3-78958123915a","ios":"levelo://app?vid=02b1bd0b-a86a-47f1-9ed3-78958123915a"},"vehicle_type_id":"4","last_reported":1731575397,"current_range_meters":8800,"station_id":"ce4bhnp2rcd13ifvqgvg","pricing_plan_id":"cebpf4jnsgd1na2vs0mg"},{"bike_id":"13477c0b-7244-4a30-80fa-2b1c286e6691","system_id":"levelo_inurba_marseille","lat":43.30961,"lon":5.390207,"is_reserved":false,"is_disabled":false,"rental_uris":{"android":"levelo://app?vid=13477c0b-7244-4a30-80fa-2b1c286e6691","ios":"levelo://app?vid=13477c0b-7244-4a30-80fa-2b1c286e6691"},"vehicle_type_id":"4","last_reported":1731575397,"current_range_meters":24000,"station_id":"ce4bgup2rcd13ifvqco0","pricing_plan_id":"cebpf4jnsgd1na2vs0mg"},{"bike_id":"ecc60700-2e3d-4c58-bd52-63dc24c25dd9","system_id":"levelo_inurba_marseille","lat":43.31351,"lon":5.36708,"is_reserved":false,"is_disabled":false,"rental_uris":{"android":"levelo://app?vid=ecc60700-2e3d-4c58-bd52-63dc24c25dd9","ios":"levelo://app?vid=ecc60700-2e3d-4c58-bd52-63dc24c25dd9"},"vehicle_type_id":"4","last_reported":1731575397,"current_range_meters":8400,"station_id":"ce4bgr92rcd13ifvqc6g","pricing_plan_id":"cebpf4jnsgd1na2vs0mg"},{"bike_id":"47d918a1-7282-4a7a-8ccf-c2762d1798c4","system_id":"levelo_inurba_marseille","lat":43.24085,"lon":5.37748,"is_reserved":false,"is_disabled":false,"rental_uris":{"android":"levelo://app?vid=47d918a1-7282-4a7a-8ccf-c2762d1798c4","ios":"levelo://app?vid=47d918a1-7282-4a7a-8ccf-c2762d1798c4"},"vehicle_type_id":"4","last_reported":1731575397,"current_range_meters":38000,"station_id":"ce4bhnp2rcd13ifvqgvg","pricing_plan_id":"cebpf4jnsgd1na2vs0mg"},{"bike_id":"b761fbf5-2bb8-4246-8985-7f4acd907d8e","system_id":"levelo_inurba_marseille","lat":43.29672,"lon":5.37292,"is_reserved":false,"is_disabled":false,"rental_uris":{"android":"levelo://app?vid=b761fbf5-2bb8-4246-8985-7f4acd907d8e","ios":"levelo://app?vid=b761fbf5-2bb8-4246-8985-7f4acd907d8e"},"vehicle_type_id":"4","last_reported":1731575397,"current_range_meters":14000,"station_id":"ce4bgk12rcd13ifvqbj0","pricing_plan_id":"cebpf4jnsgd1na2vs0mg"},{"bike_id":"2efd57f2-a2f1-4362-95f7-5aa3b7792e78","system_id":"levelo_inurba_marseille","lat":43.26684,"lon":5.38272,"is_reserved":false,"is_disabled":false,"rental_uris":{"android":"levelo://app?vid=2efd57f2-a2f1-4362-95f7-5aa3b7792e78","ios":"levelo://app?vid=2efd57f2-a2f1-4362-95f7-5aa3b7792e78"},"vehicle_type_id":"4","last_reported":1731575397,"current_range_meters":21600,"station_id":"ce4bhg92rcd13ifvqf90","pricing_plan_id":"cebpf4jnsgd1na2vs0mg"},{"bike_id":"2868211a-801a-40e9-87f4-374361291305","system_id":"levelo_inurba_marseille","lat":43.28152,"lon":5.42644,"is_reserved":false,"is_disabled":false,"rental_uris":{"android":"levelo://app?vid=2868211a-801a-40e9-87f4-374361291305","ios":"levelo://app?vid=2868211a-801a-40e9-87f4-374361291305"},"vehicle_type_id":"4","last_reported":1731575397,"current_range_meters":27200,"station_id":"ce4bhnh2rcd13ifvqgug","pricing_plan_id":"cebpf4jnsgd1na2vs0mg"},{"bike_id":"1311c692-6e9d-4afb-b7b0-20686564fe7a","system_id":"levelo_inurba_marseille","lat":43.337444,"lon":5.374475,"is_reserved":false,"is_disabled":false,"rental_uris":{"android":"levelo://app?vid=1311c692-6e9d-4afb-b7b0-20686564fe7a","ios":"levelo://app?vid=1311c692-6e9d-4afb-b7b0-20686564fe7a"},"vehicle_type_id":"4","last_reported":1731575397,"current_range_meters":33600,"station_id":"","pricing_plan_id":"cebpf4jnsgd1na2vs0mg"},{"bike_id":"1f3b14a9-4795-4e7b-a682-30e775eb0a9b","system_id":"levelo_inurba_marseille","lat":43.29731,"lon":5.37684,"is_reserved":false,"is_disabled":false,"rental_uris":{"android":"levelo://app?vid=1f3b14a9-4795-4e7b-a682-30e775eb0a9b","ios":"levelo://app?vid=1f3b14a9-4795-4e7b-a682-30e775eb0a9b"},"vehicle_type_id":"4","last_reported":1731575397,"current_range_meters":38800,"station_id":"ce4bgkh2rcd13ifvqbl0","pricing_plan_id":"cebpf4jnsgd1na2vs0mg"},{"bike_id":"1dad02b9-4eea-4be4-b9b6-0a8af339c060","system_id":"levelo_inurba_marseille","lat":43.29719,"lon":5.3661,"is_reserved":false,"is_disabled":false,"rental_uris":{"android":"levelo://app?vid=1dad02b9-4eea-4be4-b9b6-0a8af339c060","ios":"levelo://app?vid=1dad02b9-4eea-4be4-b9b6-0a8af339c060"},"vehicle_type_id":"4","last_reported":1731575397,"current_range_meters":11200,"station_id":"ce4bgn12rcd13ifvqbt0","pricing_plan_id":"cebpf4jnsgd1na2vs0mg"},{"bike_id":"07a4be1c-5cf0-4f3e-8c27-4c3e24078daa","system_id":"levelo_inurba_marseille","lat":43.24808,"lon":5.37455,"is_reserved":false,"is_disabled":false,"rental_uris":{"android":"levelo://app?vid=07a4be1c-5cf0-4f3e-8c27-4c3e24078daa","ios":"levelo://app?vid=07a4be1c-5cf0-4f3e-8c27-4c3e24078daa"},"vehicle_type_id":"4","last_reported":1731575397,"current_range_meters":15200,"station_id":"ce4bhgh2rcd13ifvqfb0","pricing_plan_id":"cebpf4jnsgd1na2vs0mg"},{"bike_id":"4950fae1-ce47-439e-aa06-0be740b50f99","system_id":"levelo_inurba_marseille","lat":43.24081,"lon":5.37755,"is_reserved":false,"is_disabled":false,"rental_uris":{"android":"levelo://app?vid=4950fae1-ce47-439e-aa06-0be740b50f99","ios":"levelo://app?vid=4950fae1-ce47-439e-aa06-0be740b50f99"},"vehicle_type_id":"4","last_reported":1731575397,"current_range_meters":24400,"station_id":"ce4bhnp2rcd13ifvqgvg","pricing_plan_id":"cebpf4jnsgd1na2vs0mg"},{"bike_id":"bbb76869-5f19-4adb-b3fd-8e5dab144919","system_id":"levelo_inurba_marseille","lat":43.24075,"lon":5.37759,"is_reserved":false,"is_disabled":false,"rental_uris":{"android":"levelo://app?vid=bbb76869-5f19-4adb-b3fd-8e5dab144919","ios":"levelo://app?vid=bbb76869-5f19-4adb-b3fd-8e5dab144919"},"vehicle_type_id":"4","last_reported":1731575397,"current_range_meters":24800,"station_id":"ce4bhnp2rcd13ifvqgvg","pricing_plan_id":"cebpf4jnsgd1na2vs0mg"},{"bike_id":"0c18554f-4fb6-4f63-98b2-d2dec88f5c1c","system_id":"levelo_inurba_marseille","lat":43.2315,"lon":5.43727,"is_reserved":false,"is_disabled":false,"rental_uris":{"android":"levelo://app?vid=0c18554f-4fb6-4f63-98b2-d2dec88f5c1c","ios":"levelo://app?vid=0c18554f-4fb6-4f63-98b2-d2dec88f5c1c"},"vehicle_type_id":"4","last_reported":1731575397,"current_range_meters":20400,"station_id":"ce4bhmp2rcd13ifvqgog","pricing_plan_id":"cebpf4jnsgd1na2vs0mg"},{"bike_id":"1cc3f9b9-f7c2-4871-8364-874b7f04737f","system_id":"levelo_inurba_marseille","lat":43.29803,"lon":5.38099,"is_reserved":false,"is_disabled":false,"rental_uris":{"android":"levelo://app?vid=1cc3f9b9-f7c2-4871-8364-874b7f04737f","ios":"levelo://app?vid=1cc3f9b9-f7c2-4871-8364-874b7f04737f"},"vehicle_type_id":"4","last_reported":1731575397,"current_range_meters":28400,"station_id":"ce4bgip2rcd13ifvqbb0","pricing_plan_id":"cebpf4jnsgd1na2vs0mg"},{"bike_id":"913e24fc-fcc0-4289-8c6b-d5f0b310633d","system_id":"levelo_inurba_marseille","lat":43.26685,"lon":5.38265,"is_reserved":false,"is_disabled":false,"rental_uris":{"android":"levelo://app?vid=913e24fc-fcc0-4289-8c6b-d5f0b310633d","ios":"levelo://app?vid=913e24fc-fcc0-4289-8c6b-d5f0b310633d"},"vehicle_type_id":"4","last_reported":1731575397,"current_range_meters":28400,"station_id":"ce4bhg92rcd13ifvqf90","pricing_plan_id":"cebpf4jnsgd1na2vs0mg"},{"bike_id":"f72b3f1a-cd67-4756-9aa5-453931722e55","system_id":"levelo_inurba_marseille","lat":43.25122,"lon":5.4032,"is_reserved":false,"is_disabled":false,"rental_uris":{"android":"levelo://app?vid=f72b3f1a-cd67-4756-9aa5-453931722e55","ios":"levelo://app?vid=f72b3f1a-cd67-4756-9aa5-453931722e55"},"vehicle_type_id":"4","last_reported":1731575397,"current_range_meters":36400,"station_id":"ce4bhlh2rcd13ifvqgig","pricing_plan_id":"cebpf4jnsgd1na2vs0mg"},{"bike_id":"14041b42-c763-4196-acb4-81474847f26a","system_id":"levelo_inurba_marseille","lat":43.24082,"lon":5.3775,"is_reserved":false,"is_disabled":false,"rental_uris":{"android":"levelo://app?vid=14041b42-c763-4196-acb4-81474847f26a","ios":"levelo://app?vid=14041b42-c763-4196-acb4-81474847f26a"},"vehicle_type_id":"4","last_reported":1731575397,"current_range_meters":38800,"station_id":"ce4bhnp2rcd13ifvqgvg","pricing_plan_id":"cebpf4jnsgd1na2vs0mg"},{"bike_id":"95698377-4547-46f6-8076-84067c925204","system_id":"levelo_inurba_marseille","lat":43.30184,"lon":5.36627,"is_reserved":false,"is_disabled":false,"rental_uris":{"android":"levelo://app?vid=95698377-4547-46f6-8076-84067c925204","ios":"levelo://app?vid=95698377-4547-46f6-8076-84067c925204"},"vehicle_type_id":"4","last_reported":1731575397,"current_range_meters":16000,"station_id":"ce4bgrh2rcd13ifvqc8g","pricing_plan_id":"cebpf4jnsgd1na2vs0mg"},{"bike_id":"02e8a2be-273e-4701-a489-d3560e326c7d","system_id":"levelo_inurba_marseille","lat":43.29907,"lon":5.38141,"is_reserved":false,"is_disabled":false,"rental_uris":{"android":"levelo://app?vid=02e8a2be-273e-4701-a489-d3560e326c7d","ios":"levelo://app?vid=02e8a2be-273e-4701-a489-d3560e326c7d"},"vehicle_type_id":"4","last_reported":1731575397,"current_range_meters":34800,"station_id":"ce4bgj12rcd13ifvqbc0","pricing_plan_id":"cebpf4jnsgd1na2vs0mg"},{"bike_id":"dbea415c-664f-4349-918f-89dbaf9d7c1c","system_id":"levelo_inurba_marseille","lat":43.30305,"lon":5.39205,"is_reserved":false,"is_disabled":false,"rental_uris":{"android":"levelo://app?vid=dbea415c-664f-4349-918f-89dbaf9d7c1c","ios":"levelo://app?vid=dbea415c-664f-4349-918f-89dbaf9d7c1c"},"vehicle_type_id":"4","last_reported":1731575397,"current_range_meters":35200,"station_id":"ce4bgkh2rcd13ifvqbk0","pricing_plan_id":"cebpf4jnsgd1na2vs0mg"},{"bike_id":"a1d9bdb9-e269-44ef-bd75-19b33effe1c2","system_id":"levelo_inurba_marseille","lat":43.32543,"lon":5.4143,"is_reserved":false,"is_disabled":false,"rental_uris":{"android":"levelo://app?vid=a1d9bdb9-e269-44ef-bd75-19b33effe1c2","ios":"levelo://app?vid=a1d9bdb9-e269-44ef-bd75-19b33effe1c2"},"vehicle_type_id":"4","last_reported":1731575397,"current_range_meters":38400,"station_id":"ce4bhq12rcd13ifvqhhg","pricing_plan_id":"cebpf4jnsgd1na2vs0mg"},{"bike_id":"a0c1ede0-9215-4f44-9d61-51d40c4efb2b","system_id":"levelo_inurba_marseille","lat":43.31358,"lon":5.38487,"is_reserved":false,"is_disabled":false,"rental_uris":{"android":"levelo://app?vid=a0c1ede0-9215-4f44-9d61-51d40c4efb2b","ios":"levelo://app?vid=a0c1ede0-9215-4f44-9d61-51d40c4efb2b"},"vehicle_type_id":"4","last_reported":1731575397,"current_range_meters":28800,"station_id":"ce4bgt92rcd13ifvqcf0","pricing_plan_id":"cebpf4jnsgd1na2vs0mg"},{"bike_id":"bba76986-27db-4a0b-aac9-b12dd5c4e056","system_id":"levelo_inurba_marseille","lat":43.3054,"lon":5.36529,"is_reserved":false,"is_disabled":false,"rental_uris":{"android":"levelo://app?vid=bba76986-27db-4a0b-aac9-b12dd5c4e056","ios":"levelo://app?vid=bba76986-27db-4a0b-aac9-b12dd5c4e056"},"vehicle_type_id":"4","last_reported":1731575397,"current_range_meters":38800,"station_id":"ce4bgs12rcd13ifvqcag","pricing_plan_id":"cebpf4jnsgd1na2vs0mg"},{"bike_id":"e172574a-62b1-4631-8fb4-dded1439cd60","system_id":"levelo_inurba_marseille","lat":43.27492,"lon":5.42455,"is_reserved":false,"is_disabled":false,"rental_uris":{"android":"levelo://app?vid=e172574a-62b1-4631-8fb4-dded1439cd60","ios":"levelo://app?vid=e172574a-62b1-4631-8fb4-dded1439cd60"},"vehicle_type_id":"4","last_reported":1731575397,"current_range_meters":16400,"station_id":"ce4bhn92rcd13ifvqgrg","pricing_plan_id":"cebpf4jnsgd1na2vs0mg"},{"bike_id":"6065c22b-315a-4a16-a63d-72181a1e5af6","system_id":"levelo_inurba_marseille","lat":43.3046,"lon":5.37903,"is_reserved":false,"is_disabled":false,"rental_uris":{"android":"levelo://app?vid=6065c22b-315a-4a16-a63d-72181a1e5af6","ios":"levelo://app?vid=6065c22b-315a-4a16-a63d-72181a1e5af6"},"vehicle_type_id":"4","last_reported":1731575397,"current_range_meters":17600,"station_id":"ce4bgup2rcd13ifvqcn0","pricing_plan_id":"cebpf4jnsgd1na2vs0mg"},{"bike_id":"8b9c9094-77af-4530-ba0c-e1687be735b4","system_id":"levelo_inurba_marseille","lat":43.33748,"lon":5.3746,"is_reserved":false,"is_disabled":false,"rental_uris":{"android":"levelo://app?vid=8b9c9094-77af-4530-ba0c-e1687be735b4","ios":"levelo://app?vid=8b9c9094-77af-4530-ba0c-e1687be735b4"},"vehicle_type_id":"4","last_reported":1731575397,"current_range_meters":38800,"station_id":"","pricing_plan_id":"cebpf4jnsgd1na2vs0mg"},{"bike_id":"3c0076c8-ba74-4588-862f-7e434d1ba05a","system_id":"levelo_inurba_marseille","lat":43.33771,"lon":5.37444,"is_reserved":false,"is_disabled":false,"rental_uris":{"android":"levelo://app?vid=3c0076c8-ba74-4588-862f-7e434d1ba05a","ios":"levelo://app?vid=3c0076c8-ba74-4588-862f-7e434d1ba05a"},"vehicle_type_id":"4","last_reported":1731575397,"current_range_meters":12800,"station_id":"","pricing_plan_id":"cebpf4jnsgd1na2vs0mg"},{"bike_id":"f5df91d9-4a7c-43df-9009-00af233090e5","system_id":"levelo_inurba_marseille","lat":43.33608,"lon":5.41027,"is_reserved":false,"is_disabled":false,"rental_uris":{"android":"levelo://app?vid=f5df91d9-4a7c-43df-9009-00af233090e5","ios":"levelo://app?vid=f5df91d9-4a7c-43df-9009-00af233090e5"},"vehicle_type_id":"4","last_reported":1731575397,"current_range_meters":39200,"station_id":"ce4bhqh2rcd13ifvqhmg","pricing_plan_id":"cebpf4jnsgd1na2vs0mg"},{"bike_id":"efb1425a-5c01-4e2c-9214-bac05f4069b6","system_id":"levelo_inurba_marseille","lat":43.28569,"lon":5.39505,"is_reserved":false,"is_disabled":false,"rental_uris":{"android":"levelo://app?vid=efb1425a-5c01-4e2c-9214-bac05f4069b6","ios":"levelo://app?vid=efb1425a-5c01-4e2c-9214-bac05f4069b6"},"vehicle_type_id":"4","last_reported":1731575397,"current_range_meters":37600,"station_id":"ce4bh492rcd13ifvqdvg","pricing_plan_id":"cebpf4jnsgd1na2vs0mg"},{"bike_id":"24b4e468-39c6-4869-962f-99ca8013f54e","system_id":"levelo_inurba_marseille","lat":43.3014,"lon":5.37391,"is_reserved":false,"is_disabled":false,"rental_uris":{"android":"levelo://app?vid=24b4e468-39c6-4869-962f-99ca8013f54e","ios":"levelo://app?vid=24b4e468-39c6-4869-962f-99ca8013f54e"},"vehicle_type_id":"4","last_reported":1731575397,"current_range_meters":8400,"station_id":"ce4bgs92rcd13ifvqcc0","pricing_plan_id":"cebpf4jnsgd1na2vs0mg"},{"bike_id":"e9ea028a-56a7-47f1-8151-84665ad7899a","system_id":"levelo_inurba_marseille","lat":43.295532,"lon":5.390379,"is_reserved":false,"is_disabled":false,"rental_uris":{"android":"levelo://app?vid=e9ea028a-56a7-47f1-8151-84665ad7899a","ios":"levelo://app?vid=e9ea028a-56a7-47f1-8151-84665ad7899a"},"vehicle_type_id":"4","last_reported":1731575397,"current_range_meters":19200,"station_id":"ce4bh3p2rcd13ifvqdp0","pricing_plan_id":"cebpf4jnsgd1na2vs0mg"},{"bike_id":"c5eaa274-764e-4094-8ea1-94a8521ea9e2","system_id":"levelo_inurba_marseille","lat":43.30959,"lon":5.39038,"is_reserved":false,"is_disabled":false,"rental_uris":{"android":"levelo://app?vid=c5eaa274-764e-4094-8ea1-94a8521ea9e2","ios":"levelo://app?vid=c5eaa274-764e-4094-8ea1-94a8521ea9e2"},"vehicle_type_id":"4","last_reported":1731575397,"current_range_meters":29600,"station_id":"ce4bgup2rcd13ifvqco0","pricing_plan_id":"cebpf4jnsgd1na2vs0mg"},{"bike_id":"5833315e-f940-4f6b-9fbd-d16ba94bd56a","system_id":"levelo_inurba_marseille","lat":43.31358,"lon":5.38487,"is_reserved":false,"is_disabled":false,"rental_uris":{"android":"levelo://app?vid=5833315e-f940-4f6b-9fbd-d16ba94bd56a","ios":"levelo://app?vid=5833315e-f940-4f6b-9fbd-d16ba94bd56a"},"vehicle_type_id":"4","last_reported":1731575397,"current_range_meters":24400,"station_id":"ce4bgt92rcd13ifvqcf0","pricing_plan_id":"cebpf4jnsgd1na2vs0mg"},{"bike_id":"ab620aae-740e-4d13-a0e3-9738d73ce49d","system_id":"levelo_inurba_marseille","lat":43.30956,"lon":5.39038,"is_reserved":false,"is_disabled":false,"rental_uris":{"android":"levelo://app?vid=ab620aae-740e-4d13-a0e3-9738d73ce49d","ios":"levelo://app?vid=ab620aae-740e-4d13-a0e3-9738d73ce49d"},"vehicle_type_id":"4","last_reported":1731575397,"current_range_meters":31200,"station_id":"ce4bgup2rcd13ifvqco0","pricing_plan_id":"cebpf4jnsgd1na2vs0mg"},{"bike_id":"2bd2782f-03e7-4948-a6c5-5a949b0b1d95","system_id":"levelo_inurba_marseille","lat":43.29309,"lon":5.37175,"is_reserved":false,"is_disabled":false,"rental_uris":{"android":"levelo://app?vid=2bd2782f-03e7-4948-a6c5-5a949b0b1d95","ios":"levelo://app?vid=2bd2782f-03e7-4948-a6c5-5a949b0b1d95"},"vehicle_type_id":"4","last_reported":1731575397,"current_range_meters":29600,"station_id":"ce4bgh92rcd13ifvqb40","pricing_plan_id":"cebpf4jnsgd1na2vs0mg"},{"bike_id":"b6bca026-1efe-4754-928d-9042ba992b22","system_id":"levelo_inurba_marseille","lat":43.28428,"lon":5.34976,"is_reserved":false,"is_disabled":false,"rental_uris":{"android":"levelo://app?vid=b6bca026-1efe-4754-928d-9042ba992b22","ios":"levelo://app?vid=b6bca026-1efe-4754-928d-9042ba992b22"},"vehicle_type_id":"4","last_reported":1731575397,"current_range_meters":37600,"station_id":"ce4bhbh2rcd13ifvqepg","pricing_plan_id":"cebpf4jnsgd1na2vs0mg"},{"bike_id":"7825fde2-bf57-41e8-9d0b-6f93ded2046d","system_id":"levelo_inurba_marseille","lat":43.26932,"lon":5.3892,"is_reserved":false,"is_disabled":false,"rental_uris":{"android":"levelo://app?vid=7825fde2-bf57-41e8-9d0b-6f93ded2046d","ios":"levelo://app?vid=7825fde2-bf57-41e8-9d0b-6f93ded2046d"},"vehicle_type_id":"4","last_reported":1731575397,"current_range_meters":28000,"station_id":"ce4bhhh2rcd13ifvqfl0","pricing_plan_id":"cebpf4jnsgd1na2vs0mg"},{"bike_id":"a9fd04f5-5c1a-40e1-9a0e-d3b9b22ef63d","system_id":"levelo_inurba_marseille","lat":43.29313,"lon":5.3717,"is_reserved":false,"is_disabled":false,"rental_uris":{"android":"levelo://app?vid=a9fd04f5-5c1a-40e1-9a0e-d3b9b22ef63d","ios":"levelo://app?vid=a9fd04f5-5c1a-40e1-9a0e-d3b9b22ef63d"},"vehicle_type_id":"4","last_reported":1731575397,"current_range_meters":33600,"station_id":"ce4bgh92rcd13ifvqb40","pricing_plan_id":"cebpf4jnsgd1na2vs0mg"},{"bike_id":"dbd750a9-0c24-495b-8b51-27338322d10f","system_id":"levelo_inurba_marseille","lat":43.30556,"lon":5.36545,"is_reserved":false,"is_disabled":false,"rental_uris":{"android":"levelo://app?vid=dbd750a9-0c24-495b-8b51-27338322d10f","ios":"levelo://app?vid=dbd750a9-0c24-495b-8b51-27338322d10f"},"vehicle_type_id":"4","last_reported":1731575397,"current_range_meters":7200,"station_id":"ce4bgs12rcd13ifvqcag","pricing_plan_id":"cebpf4jnsgd1na2vs0mg"},{"bike_id":"ad6133d0-d5da-42dd-98d2-45bed1eddf49","system_id":"levelo_inurba_marseille","lat":43.29303,"lon":5.37446,"is_reserved":false,"is_disabled":false,"rental_uris":{"android":"levelo://app?vid=ad6133d0-d5da-42dd-98d2-45bed1eddf49","ios":"levelo://app?vid=ad6133d0-d5da-42dd-98d2-45bed1eddf49"},"vehicle_type_id":"4","last_reported":1731575397,"current_range_meters":26000,"station_id":"ce4bgi12rcd13ifvqb70","pricing_plan_id":"cebpf4jnsgd1na2vs0mg"},{"bike_id":"8f6e4a2d-7245-40ff-b198-73575424a862","system_id":"levelo_inurba_marseille","lat":43.25582,"lon":5.38228,"is_reserved":false,"is_disabled":false,"rental_uris":{"android":"levelo://app?vid=8f6e4a2d-7245-40ff-b198-73575424a862","ios":"levelo://app?vid=8f6e4a2d-7245-40ff-b198-73575424a862"},"vehicle_type_id":"4","last_reported":1731575397,"current_range_meters":30800,"station_id":"ce4bhih2rcd13ifvqfs0","pricing_plan_id":"cebpf4jnsgd1na2vs0mg"},{"bike_id":"3bbbe6a0-c59c-4b9d-bd6d-fd4bdc3714fc","system_id":"levelo_inurba_marseille","lat":43.30226,"lon":5.39688,"is_reserved":false,"is_disabled":false,"rental_uris":{"android":"levelo://app?vid=3bbbe6a0-c59c-4b9d-bd6d-fd4bdc3714fc","ios":"levelo://app?vid=3bbbe6a0-c59c-4b9d-bd6d-fd4bdc3714fc"},