{"last_updated":1745680123,"ttl":60,"version":"2.2","data":{"bikes":[{"bike_id":"5f0bb2ff-2df1-42e9-af02-436842220ed9","system_id":"levelo_inurba_marseille","lat":43.30307,"lon":5.36884,"is_reserved":false,"is_disabled":false,"rental_uris":{"android":"levelo://app?vid=5f0bb2ff-2df1-42e9-af02-436842220ed9","ios":"levelo://app?vid=5f0bb2ff-2df1-42e9-af02-436842220ed9"},"vehicle_type_id":"4","last_reported":1745680123,"current_range_meters":2800,"station_id":"ce4bgqh2rcd13ifvqc5g","pricing_plan_id":"cebpf4jnsgd1na2vs0mg"},{"bike_id":"ef2d382b-46b3-4e5a-ad7d-b89295d9b561","system_id":"levelo_inurba_marseille","lat":43.26199,"lon":5.374435,"is_reserved":false,"is_disabled":false,"rental_uris":{"android":"levelo://app?vid=ef2d382b-46b3-4e5a-ad7d-b89295d9b561","ios":"levelo://app?vid=ef2d382b-46b3-4e5a-ad7d-b89295d9b561"},"vehicle_type_id":"4","last_reported":1745680123,"current_range_meters":2800,"station_id":"ce4bhgp2rcd13ifvqfc0","pricing_plan_id":"cebpf4jnsgd1na2vs0mg"},{"bike_id":"809e59ac-ee8e-4f79-a65e-a2fad53fd2cc","system_id":"levelo_inurba_marseille","lat":43.29768,"lon":5.40967,"is_reserved":false,"is_disabled":false,"rental_uris":{"android":"levelo://app?vid=809e59ac-ee8e-4f79-a65e-a2fad53fd2cc","ios":"levelo://app?vid=809e59ac-ee8e-4f79-a65e-a2fad53fd2cc"},"vehicle_type_id":"4","last_reported":1745680123,"current_range_meters":2800,"station_id":"","pricing_plan_id":"cebpf4jnsgd1na2vs0mg"},{"bike_id":"44ab10d6-edd3-4979-ab8f-8262c916e73e","system_id":"levelo_inurba_marseille","lat":43.28938,"lon":5.36636,"is_reserved":false,"is_disabled":false,"rental_uris":{"android":"levelo://app?vid=44ab10d6-edd3-4979-ab8f-8262c916e73e","ios":"levelo://app?vid=44ab10d6-edd3-4979-ab8f-8262c916e73e"},"vehicle_type_id":"4","last_reported":1745680123,"current_range_meters":2000,"station_id":"ce4bhap2rcd13ifvqek0","pricing_plan_id":"cebpf4jnsgd1na2vs0mg"},{"bike_id":"d7de41af-065c-4800-8588-617779d6acbd","system_id":"levelo_inurba_marseille","lat":43.26201,"lon":5.40358,"is_reserved":false,"is_disabled":false,"rental_uris":{"android":"levelo://app?vid=d7de41af-065c-4800-8588-617779d6acbd","ios":"levelo://app?vid=d7de41af-065c-4800-8588-617779d6acbd"},"vehicle_type_id":"4","last_reported":1745680123,"current_range_meters":3200,"station_id":"ce4bhmh2rcd13ifvqgmg","pricing_plan_id":"cebpf4jnsgd1na2vs0mg"},{"bike_id":"1c9f4215-e973-473e-8c72-b2b315e6039f","system_id":"levelo_inurba_marseille","lat":43.31166,"lon":5.38732,"is_reserved":false,"is_disabled":false,"rental_uris":{"android":"levelo://app?vid=1c9f4215-e973-473e-8c72-b2b315e6039f","ios":"levelo://app?vid=1c9f4215-e973-473e-8c72-b2b315e6039f"},"vehicle_type_id":"4","last_reported":1745680123,"current_range_meters":3200,"station_id":"ce4bgv12rcd13ifvqcp0","pricing_plan_id":"cebpf4jnsgd1na2vs0mg"},{"bike_id":"d2184e9b-e633-4a43-b2f5-98278abb6d45","system_id":"levelo_inurba_marseille","lat":43.26566,"lon":5.38993,"is_reserved":false,"is_disabled":false,"rental_uris":{"android":"levelo://app?vid=d2184e9b-e633-4a43-b2f5-98278abb6d45","ios":"levelo://app?vid=d2184e9b-e633-4a43-b2f5-98278abb6d45"},"vehicle_type_id":"4","last_reported":1745680123,"current_range_meters":3200,"station_id":"ce4bhe12rcd13ifvqf30","pricing_plan_id":"cebpf4jnsgd1na2vs0mg"},{"bike_id":"b5e3e190-c366-4d4e-800f-4a29ce23c96d","system_id":"levelo_inurba_marseille","lat":43.23964,"lon":5.366337,"is_reserved":false,"is_disabled":false,"rental_uris":{"android":"levelo://app?vid=b5e3e190-c366-4d4e-800f-4a29ce23c96d","ios":"levelo://app?vid=b5e3e190-c366-4d4e-800f-4a29ce23c96d"},"vehicle_type_id":"4","last_reported":1745680123,"current_range_meters":3200,"station_id":"ce4bhg92rcd13ifvqf90","pricing_plan_id":"cebpf4jnsgd1na2vs0mg"},{"bike_id":"01eba2c0-8ddc-454b-8ebe-3984acb789ad","system_id":"levelo_inurba_marseille","lat":43.30886,"lon":5.39655,"is_reserved":false,"is_disabled":false,"rental_uris":{"android":"levelo://app?vid=01eba2c0-8ddc-454b-8ebe-3984acb789ad","ios":"levelo://app?vid=01eba2c0-8ddc-454b-8ebe-3984acb789ad"},"vehicle_type_id":"4","last_reported":1745680123,"current_range_meters":3600,"station_id":"ce4bh012rcd13ifvqcv0","pricing_plan_id":"cebpf4jnsgd1na2vs0mg"},{"bike_id":"06dcd715-2e05-44c5-b391-a1d3b1628b54","system_id":"levelo_inurba_marseille","lat":43.29008,"lon":5.35609,"is_reserved":false,"is_disabled":false,"rental_uris":{"android":"levelo://app?vid=06dcd715-2e05-44c5-b391-a1d3b1628b54","ios":"levelo://app?vid=06dcd715-2e05-44c5-b391-a1d3b1628b54"},"vehicle_type_id":"4","last_reported":1745680123,"current_range_meters":3600,"station_id":"ce4bhb92rcd13ifvqen0","pricing_plan_id":"cebpf4jnsgd1na2vs0mg"},{"bike_id":"a31f8a10-44cb-4db2-a133-c186fa82eb43","system_id":"levelo_inurba_marseille","lat":43.2296,"lon":5.35397,"is_reserved":false,"is_disabled":false,"rental_uris":{"android":"levelo://app?vid=a31f8a10-44cb-4db2-a133-c186fa82eb43","ios":"levelo://app?vid=a31f8a10-44cb-4db2-a133-c186fa82eb43"},"vehicle_type_id":"4","last_reported":1745680123,"current_range_meters":3600,"station_id":"cpo3532slgdg3j2ikp40","pricing_plan_id":"cebpf4jnsgd1na2vs0mg"},{"bike_id":"2ade3993-dbda-4b91-a305-72c38e850da3","system_id":"levelo_inurba_marseille","lat":43.24806,"lon":5.37458,"is_reserved":false,"is_disabled":false,"rental_uris":{"android":"levelo://app?vid=2ade3993-dbda-4b91-a305-72c38e850da3","ios":"levelo://app?vid=2ade3993-dbda-4b91-a305-72c38e850da3"},"vehicle_type_id":"4","last_reported":1745680123,"current_range_meters":3600,"station_id":"ce4bhgh2rcd13ifvqfb0","pricing_plan_id":"cebpf4jnsgd1na2vs0mg"},{"bike_id":"d4820d6d-d8ee-4cee-8223-437f2618e67b","system_id":"levelo_inurba_marseille","lat":43.28415,"lon":5.34981,"is_reserved":false,"is_disabled":false,"rental_uris":{"android":"levelo://app?vid=d4820d6d-d8ee-4cee-8223-437f2618e67b","ios":"levelo://app?vid=d4820d6d-d8ee-4cee-8223-437f2618e67b"},"vehicle_type_id":"4","last_reported":1745680123,"current_range_meters":3600,"station_id":"ce4bhbh2rcd13ifvqepg","pricing_plan_id":"cebpf4jnsgd1na2vs0mg"},{"bike_id":"8f1f84a8-8b3e-4367-aaae-24597a10a4b0","system_id":"levelo_inurba_marseille","lat":43.26785,"lon":5.42688,"is_reserved":false,"is_disabled":false,"rental_uris":{"android":"levelo://app?vid=8f1f84a8-8b3e-4367-aaae-24597a10a4b0","ios":"levelo://app?vid=8f1f84a8-8b3e-4367-aaae-24597a10a4b0"},"vehicle_type_id":"4","last_reported":1745680123,"current_range_meters":3600,"station_id":"","pricing_plan_id":"cebpf4jnsgd1na2vs0mg"},{"bike_id":"7ec39f32-3e6a-4021-844c-96a68b24e19d","system_id":"levelo_inurba_marseille","lat":43.29688,"lon":5.37292,"is_reserved":false,"is_disabled":false,"rental_uris":{"android":"levelo://app?vid=7ec39f32-3e6a-4021-844c-96a68b24e19d","ios":"levelo://app?vid=7ec39f32-3e6a-4021-844c-96a68b24e19d"},"vehicle_type_id":"4","last_reported":1745680123,"current_range_meters":3600,"station_id":"ce4bgk12rcd13ifvqbj0","pricing_plan_id":"cebpf4jnsgd1na2vs0mg"},{"bike_id":"3306d275-97c5-41ab-ab5e-2c85e392129d","system_id":"levelo_inurba_marseille","lat":43.30531,"lon":5.36558,"is_reserved":false,"is_disabled":false,"rental_uris":{"android":"levelo://app?vid=3306d275-97c5-41ab-ab5e-2c85e392129d","ios":"levelo://app?vid=3306d275-97c5-41ab-ab5e-2c85e392129d"},"vehicle_type_id":"4","last_reported":1745680123,"current_range_meters":4000,"station_id":"ce4bgs12rcd13ifvqcag","pricing_plan_id":"cebpf4jnsgd1na2vs0mg"},{"bike_id":"ee696d87-e7d6-4c39-91b8-dd13e5f590f1","system_id":"levelo_inurba_marseille","lat":43.27963,"lon":5.3872,"is_reserved":false,"is_disabled":false,"rental_uris":{"android":"levelo://app?vid=ee696d87-e7d6-4c39-91b8-dd13e5f590f1","ios":"levelo://app?vid=ee696d87-e7d6-4c39-91b8-dd13e5f590f1"},"vehicle_type_id":"4","last_reported":1745680123,"current_range_meters":4000,"station_id":"ce4bhg12rcd13ifvqf80","pricing_plan_id":"cebpf4jnsgd1na2vs0mg"},{"bike_id":"d316c88f-c5af-418c-a177-3afbb27a3d13","system_id":"levelo_inurba_marseille","lat":43.28419,"lon":5.3498,"is_reserved":false,"is_disabled":false,"rental_uris":{"android":"levelo://app?vid=d316c88f-c5af-418c-a177-3afbb27a3d13","ios":"levelo://app?vid=d316c88f-c5af-418c-a177-3afbb27a3d13"},"vehicle_type_id":"4","last_reported":1745680123,"current_range_meters":4000,"station_id":"ce4bhbh2rcd13ifvqepg","pricing_plan_id":"cebpf4jnsgd1na2vs0mg"},{"bike_id":"8ca95544-ae79-45af-aec4-57b192384cda","system_id":"levelo_inurba_marseille","lat":43.29804,"lon":5.38103,"is_reserved":false,"is_disabled":false,"rental_uris":{"android":"levelo://app?vid=8ca95544-ae79-45af-aec4-57b192384cda","ios":"levelo://app?vid=8ca95544-ae79-45af-aec4-57b192384cda"},"vehicle_type_id":"4","last_reported":1745680123,"current_range_meters":4000,"station_id":"ce4bgip2rcd13ifvqbb0","pricing_plan_id":"cebpf4jnsgd1na2vs0mg"},{"bike_id":"82883b89-b2e7-44a3-84f3-e084e95f6574","system_id":"levelo_inurba_marseille","lat":43.22943,"lon":5.35401,"is_reserved":false,"is_disabled":false,"rental_uris":{"android":"levelo://app?vid=82883b89-b2e7-44a3-84f3-e084e95f6574","ios":"levelo://app?vid=82883b89-b2e7-44a3-84f3-e084e95f6574"},"vehicle_type_id":"4","last_reported":1745680123,"current_range_meters":4000,"station_id":"cpo3532slgdg3j2ikp40","pricing_plan_id":"cebpf4jnsgd1na2vs0mg"},{"bike_id":"7cca116e-ef83-4a23-be1d-a9593f9e71db","system_id":"levelo_inurba_marseille","lat":43.29257,"lon":5.40902,"is_reserved":false,"is_disabled":false,"rental_uris":{"android":"levelo://app?vid=7cca116e-ef83-4a23-be1d-a9593f9e71db","ios":"levelo://app?vid=7cca116e-ef83-4a23-be1d-a9593f9e71db"},"vehicle_type_id":"4","last_reported":1745680123,"current_range_meters":4000,"station_id":"ce4bh192rcd13ifvqdc0","pricing_plan_id":"cebpf4jnsgd1na2vs0mg"},{"bike_id":"58f84427-5ea1-40f6-a958-4dbfe8ffa71e","system_id":"levelo_inurba_marseille","lat":43.29845,"lon":5.36273,"is_reserved":false,"is_disabled":false,"rental_uris":{"android":"levelo://app?vid=58f84427-5ea1-40f6-a958-4dbfe8ffa71e","ios":"levelo://app?vid=58f84427-5ea1-40f6-a958-4dbfe8ffa71e"},"vehicle_type_id":"4","last_reported":1745680123,"current_range_meters":4400,"station_id":"ce4bgpp2rcd13ifvqc3g","pricing_plan_id":"cebpf4jnsgd1na2vs0mg"},{"bike_id":"7004048f-2c69-4428-b66e-b023b318223e","system_id":"levelo_inurba_marseille","lat":43.27375,"lon":5.36259,"is_reserved":false,"is_disabled":false,"rental_uris":{"android":"levelo://app?vid=7004048f-2c69-4428-b66e-b023b318223e","ios":"levelo://app?vid=7004048f-2c69-4428-b66e-b023b318223e"},"vehicle_type_id":"4","last_reported":1745680123,"current_range_meters":4400,"station_id":"ce4bhbh2rcd13ifvqeo0","pricing_plan_id":"cebpf4jnsgd1na2vs0mg"},{"bike_id":"f5101e9a-1ef1-4172-8e6d-e112eea8b803","system_id":"levelo_inurba_marseille","lat":43.27921,"lon":5.39579,"is_reserved":false,"is_disabled":false,"rental_uris":{"android":"levelo://app?vid=f5101e9a-1ef1-4172-8e6d-e112eea8b803","ios":"levelo://app?vid=f5101e9a-1ef1-4172-8e6d-e112eea8b803"},"vehicle_type_id":"4","last_reported":1745680123,"current_range_meters":4400,"station_id":"ce4bhf92rcd13ifvqf40","pricing_plan_id":"cebpf4jnsgd1na2vs0mg"},{"bike_id":"c6983332-2340-4443-9384-a831b05f8e36","system_id":"levelo_inurba_marseille","lat":43.24174,"lon":5.36383,"is_reserved":false,"is_disabled":false,"rental_uris":{"android":"levelo://app?vid=c6983332-2340-4443-9384-a831b05f8e36","ios":"levelo://app?vid=c6983332-2340-4443-9384-a831b05f8e36"},"vehicle_type_id":"4","last_reported":1745680123,"current_range_meters":4400,"station_id":"cpo36qri1sfpv3e86is0","pricing_plan_id":"cebpf4jnsgd1na2vs0mg"},{"bike_id":"327fa908-fafe-40ae-b97e-12862a152f1f","system_id":"levelo_inurba_marseille","lat":43.296536,"lon":5.37633,"is_reserved":false,"is_disabled":false,"rental_uris":{"android":"levelo://app?vid=327fa908-fafe-40ae-b97e-12862a152f1f","ios":"levelo://app?vid=327fa908-fafe-40ae-b97e-12862a152f1f"},"vehicle_type_id":"4","last_reported":1745680123,"current_range_meters":4800,"station_id":"","pricing_plan_id":"cebpf4jnsgd1na2vs0mg"},{"bike_id":"9c2f8172-cc39-4d9a-a5d9-928b9daa659c","system_id":"levelo_inurba_marseille","lat":43.2723,"lon":5.39156,"is_reserved":false,"is_disabled":false,"rental_uris":{"android":"levelo://app?vid=9c2f8172-cc39-4d9a-a5d9-928b9daa659c","ios":"levelo://app?vid=9c2f8172-cc39-4d9a-a5d9-928b9daa659c"},"vehicle_type_id":"4","last_reported":1745680123,"current_range_meters":4800,"station_id":"ce4bhhp2rcd13ifvqfm0","pricing_plan_id":"cebpf4jnsgd1na2vs0mg"},{"bike_id":"7a046f88-b19e-42b8-9ed1-d128a110eac4","system_id":"levelo_inurba_marseille","lat":43.27571,"lon":5.38415,"is_reserved":false,"is_disabled":false,"rental_uris":{"android":"levelo://app?vid=7a046f88-b19e-42b8-9ed1-d128a110eac4","ios":"levelo://app?vid=7a046f88-b19e-42b8-9ed1-d128a110eac4"},"vehicle_type_id":"4","last_reported":1745680123,"current_range_meters":4400,"station_id":"ce4bhh92rcd13ifvqfi0","pricing_plan_id":"cebpf4jnsgd1na2vs0mg"},{"bike_id":"1f2b1e01-ded7-4baf-a44b-c71ff580afa4","system_id":"levelo_inurba_marseille","lat":43.262448,"lon":5.374741,"is_reserved":false,"is_disabled":false,"rental_uris":{"android":"levelo://app?vid=1f2b1e01-ded7-4baf-a44b-c71ff580afa4","ios":"levelo://app?vid=1f2b1e01-ded7-4baf-a44b-c71ff580afa4"},"vehicle_type_id":"4","last_reported":1745680123,"current_range_meters":4800,"station_id":"ce4bh512rcd13ifvqe3g","pricing_plan_id":"cebpf4jnsgd1na2vs0mg"},{"bike_id":"a84dda67-2771-448f-9f2c-69a47019d774","system_id":"levelo_inurba_marseille","lat":43.33604,"lon":5.4101,"is_reserved":false,"is_disabled":true,"rental_uris":{"android":"levelo://app?vid=a84dda67-2771-448f-9f2c-69a47019d774","ios":"levelo://app?vid=a84dda67-2771-448f-9f2c-69a47019d774"},"vehicle_type_id":"4","last_reported":1745680123,"current_range_meters":4800,"station_id":"ce4bhqh2rcd13ifvqhmg","pricing_plan_id":"cebpf4jnsgd1na2vs0mg"},{"bike_id":"6320997b-aa71-40af-a095-276db4ba96a3","system_id":"levelo_inurba_marseille","lat":43.24396,"lon":5.37062,"is_reserved":false,"is_disabled":false,"rental_uris":{"android":"levelo://app?vid=6320997b-aa71-40af-a095-276db4ba96a3","ios":"levelo://app?vid=6320997b-aa71-40af-a095-276db4ba96a3"},"vehicle_type_id":"4","last_reported":1745680123,"current_range_meters":4800,"station_id":"ce4bhhh2rcd13ifvqfk0","pricing_plan_id":"cebpf4jnsgd1na2vs0mg"},{"bike_id":"f12707fa-c1e2-4e35-890c-0d045935da4e","system_id":"levelo_inurba_marseille","lat":43.24409,"lon":5.37077,"is_reserved":false,"is_disabled":false,"rental_uris":{"android":"levelo://app?vid=f12707fa-c1e2-4e35-890c-0d045935da4e","ios":"levelo://app?vid=f12707fa-c1e2-4e35-890c-0d045935da4e"},"vehicle_type_id":"4","last_reported":1745680123,"current_range_meters":4800,"station_id":"ce4bhhh2rcd13ifvqfk0","pricing_plan_id":"cebpf4jnsgd1na2vs0mg"},{"bike_id":"6d0a61fc-518d-48e6-b383-0cc8c0395f0a","system_id":"levelo_inurba_marseille","lat":43.24166,"lon":5.36398,"is_reserved":false,"is_disabled":false,"rental_uris":{"android":"levelo://app?vid=6d0a61fc-518d-48e6-b383-0cc8c0395f0a","ios":"levelo://app?vid=6d0a61fc-518d-48e6-b383-0cc8c0395f0a"},"vehicle_type_id":"4","last_reported":1745680123,"current_range_meters":5600,"station_id":"cpo36qri1sfpv3e86is0","pricing_plan_id":"cebpf4jnsgd1na2vs0mg"},{"bike_id":"1746265e-27ad-4913-8a06-b6dc5372d844","system_id":"levelo_inurba_marseille","lat":43.26013,"lon":5.3748,"is_reserved":false,"is_disabled":false,"rental_uris":{"android":"levelo://app?vid=1746265e-27ad-4913-8a06-b6dc5372d844","ios":"levelo://app?vid=1746265e-27ad-4913-8a06-b6dc5372d844"},"vehicle_type_id":"4","last_reported":1745680123,"current_range_meters":5600,"station_id":"","pricing_plan_id":"cebpf4jnsgd1na2vs0mg"},{"bike_id":"2cae0191-cbb2-4678-b93c-d744541d5d8a","system_id":"levelo_inurba_marseille","lat":43.29852,"lon":5.36289,"is_reserved":false,"is_disabled":false,"rental_uris":{"android":"levelo://app?vid=2cae0191-cbb2-4678-b93c-d744541d5d8a","ios":"levelo://app?vid=2cae0191-cbb2-4678-b93c-d744541d5d8a"},"vehicle_type_id":"4","last_reported":1745680123,"current_range_meters":5600,"station_id":"ce4bgpp2rcd13ifvqc3g","pricing_plan_id":"cebpf4jnsgd1na2vs0mg"},{"bike_id":"8381b48f-0091-4a94-b3a1-869f3491e578","system_id":"levelo_inurba_marseille","lat":43.27835,"lon":5.3921,"is_reserved":false,"is_disabled":false,"rental_uris":{"android":"levelo://app?vid=8381b48f-0091-4a94-b3a1-869f3491e578","ios":"levelo://app?vid=8381b48f-0091-4a94-b3a1-869f3491e578"},"vehicle_type_id":"4","last_reported":1745680123,"current_range_meters":4800,"station_id":"ce4bhjp2rcd13ifvqga0","pricing_plan_id":"cebpf4jnsgd1na2vs0mg"},{"bike_id":"69d76d92-0792-46e5-8046-cf6995d8c10a","system_id":"levelo_inurba_marseille","lat":43.29308,"lon":5.37172,"is_reserved":false,"is_disabled":false,"rental_uris":{"android":"levelo://app?vid=69d76d92-0792-46e5-8046-cf6995d8c10a","ios":"levelo://app?vid=69d76d92-0792-46e5-8046-cf6995d8c10a"},"vehicle_type_id":"4","last_reported":1745680123,"current_range_meters":5600,"station_id":"","pricing_plan_id":"cebpf4jnsgd1na2vs0mg"},{"bike_id":"656ebcf6-0f80-45c6-848e-9fef31d652b3","system_id":"levelo_inurba_marseille","lat":43.29303,"lon":5.37167,"is_reserved":false,"is_disabled":false,"rental_uris":{"android":"levelo://app?vid=656ebcf6-0f80-45c6-848e-9fef31d652b3","ios":"levelo://app?vid=656ebcf6-0f80-45c6-848e-9fef31d652b3"},"vehicle_type_id":"4","last_reported":1745680123,"current_range_meters":5600,"station_id":"","pricing_plan_id":"cebpf4jnsgd1na2vs0mg"},{"bike_id":"6957ad88-c99e-458a-8058-ba0b4133949e","system_id":"levelo_inurba_marseille","lat":43.29216,"lon":5.36053,"is_reserved":false,"is_disabled":false,"rental_uris":{"android":"levelo://app?vid=6957ad88-c99e-458a-8058-ba0b4133949e","ios":"levelo://app?vid=6957ad88-c99e-458a-8058-ba0b4133949e"},"vehicle_type_id":"4","last_reported":1745680123,"current_range_meters":5600,"station_id":"ce4bhbh2rcd13ifvqeqg","pricing_plan_id":"cebpf4jnsgd1na2vs0mg"},{"bike_id":"4cb2b75c-638c-4c22-bd61-4407edb72105","system_id":"levelo_inurba_marseille","lat":43.26194,"lon":5.37469,"is_reserved":false,"is_disabled":false,"rental_uris":{"android":"levelo://app?vid=4cb2b75c-638c-4c22-bd61-4407edb72105","ios":"levelo://app?vid=4cb2b75c-638c-4c22-bd61-4407edb72105"},"vehicle_type_id":"4","last_reported":1745680123,"current_range_meters":6000,"station_id":"ce4bhgp2rcd13ifvqfc0","pricing_plan_id":"cebpf4jnsgd1na2vs0mg"},{"bike_id":"8e1b7f9c-15cd-4196-9a56-b8c9c867228b","system_id":"levelo_inurba_marseille","lat":43.26216,"lon":5.37437,"is_reserved":false,"is_disabled":false,"rental_uris":{"android":"levelo://app?vid=8e1b7f9c-15cd-4196-9a56-b8c9c867228b","ios":"levelo://app?vid=8e1b7f9c-15cd-4196-9a56-b8c9c867228b"},"vehicle_type_id":"4","last_reported":1745680123,"current_range_meters":6000,"station_id":"ce4bhgp2rcd13ifvqfc0","pricing_plan_id":"cebpf4jnsgd1na2vs0mg"},{"bike_id":"2930550c-5e64-4e2c-8b10-b97acaab4a0d","system_id":"levelo_inurba_marseille","lat":43.30957,"lon":5.39021,"is_reserved":false,"is_disabled":false,"rental_uris":{"android":"levelo://app?vid=2930550c-5e64-4e2c-8b10-b97acaab4a0d","ios":"levelo://app?vid=2930550c-5e64-4e2c-8b10-b97acaab4a0d"},"vehicle_type_id":"4","last_reported":1745680123,"current_range_meters":6000,"station_id":"ce4bgup2rcd13ifvqco0","pricing_plan_id":"cebpf4jnsgd1na2vs0mg"},{"bike_id":"40f78a3f-fb63-4b44-b5f3-e24c279c253f","system_id":"levelo_inurba_marseille","lat":43.30952,"lon":5.39037,"is_reserved":false,"is_disabled":false,"rental_uris":{"android":"levelo://app?vid=40f78a3f-fb63-4b44-b5f3-e24c279c253f","ios":"levelo://app?vid=40f78a3f-fb63-4b44-b5f3-e24c279c253f"},"vehicle_type_id":"4","last_reported":1745680123,"current_range_meters":6000,"station_id":"ce4bgup2rcd13ifvqco0","pricing_plan_id":"cebpf4jnsgd1na2vs0mg"},{"bike_id":"13466bfc-8789-4e6f-bb11-201d31a40ffa","system_id":"levelo_inurba_marseille","lat":43.2465,"lon":5.3889,"is_reserved":false,"is_disabled":false,"rental_uris":{"android":"levelo://app?vid=13466bfc-8789-4e6f-bb11-201d31a40ffa","ios":"levelo://app?vid=13466bfc-8789-4e6f-bb11-201d31a40ffa"},"vehicle_type_id":"4","last_reported":1745680123,"current_range_meters":6000,"station_id":"ce4bhg12rcd13ifvqf60","pricing_plan_id":"cebpf4jnsgd1na2vs0mg"},{"bike_id":"fc3f228b-ceb1-47f1-bae7-e4730a91c3b7","system_id":"levelo_inurba_marseille","lat":43.24388,"lon":5.37065,"is_reserved":false,"is_disabled":false,"rental_uris":{"android":"levelo://app?vid=fc3f228b-ceb1-47f1-bae7-e4730a91c3b7","ios":"levelo://app?vid=fc3f228b-ceb1-47f1-bae7-e4730a91c3b7"},"vehicle_type_id":"4","last_reported":1745680123,"current_range_meters":6400,"station_id":"ce4bhhh2rcd13ifvqfk0","pricing_plan_id":"cebpf4jnsgd1na2vs0mg"},{"bike_id":"53042962-4b8c-4c1d-b5ee-60de3312dcef","system_id":"levelo_inurba_marseille","lat":43.22921,"lon":5.35374,"is_reserved":false,"is_disabled":false,"rental_uris":{"android":"levelo://app?vid=53042962-4b8c-4c1d-b5ee-60de3312dcef","ios":"levelo://app?vid=53042962-4b8c-4c1d-b5ee-60de3312dcef"},"vehicle_type_id":"4","last_reported":1745680123,"current_range_meters":6400,"station_id":"cpo3532slgdg3j2ikp40","pricing_plan_id":"cebpf4jnsgd1na2vs0mg"},{"bike_id":"4751c42c-df70-44f1-921f-311585e43c28","system_id":"levelo_inurba_marseille","lat":43.28001,"lon":5.3571,"is_reserved":false,"is_disabled":false,"rental_uris":{"android":"levelo://app?vid=4751c42c-df70-44f1-921f-311585e43c28","ios":"levelo://app?vid=4751c42c-df70-44f1-921f-311585e43c28"},"vehicle_type_id":"4","last_reported":1745680123,"current_range_meters":6400,"station_id":"ce4bhp92rcd13ifvqhbg","pricing_plan_id":"cebpf4jnsgd1na2vs0mg"},{"bike_id":"1f84ce0a-d3d4-45a0-a52c-c40787c67e8f","system_id":"levelo_inurba_marseille","lat":43.298683,"lon":5.363237,"is_reserved":false,"is_disabled":false,"rental_uris":{"android":"levelo://app?vid=1f84ce0a-d3d4-45a0-a52c-c40787c67e8f","ios":"levelo://app?vid=1f84ce0a-d3d4-45a0-a52c-c40787c67e8f"},"vehicle_type_id":"4","last_reported":1745680123,"current_range_meters":6400,"station_id":"ce4bgpp2rcd13ifvqc3g","pricing_plan_id":"cebpf4jnsgd1na2vs0mg"},{"bike_id":"74bf1832-a389-491d-9cf1-c0544e13bc20","system_id":"levelo_inurba_marseille","lat":43.27495,"lon":5.42471,"is_reserved":false,"is_disabled":false,"rental_uris":{"android":"levelo://app?vid=74bf1832-a389-491d-9cf1-c0544e13bc20","ios":"levelo://app?vid=74bf1832-a389-491d-9cf1-c0544e13bc20"},"vehicle_type_id":"4","last_reported":1745680123,"current_range_meters":6400,"station_id":"ce4bhn92rcd13ifvqgrg","pricing_plan_id":"cebpf4jnsgd1na2vs0mg"},{"bike_id":"3f530a8a-aedb-4aa8-87b5-ab35ee2a5915","system_id":"levelo_inurba_marseille","lat":43.28266,"lon":5.35046,"is_reserved":false,"is_disabled":false,"rental_uris":{"android":"levelo://app?vid=3f530a8a-aedb-4aa8-87b5-ab35ee2a5915","ios":"levelo://app?vid=3f530a8a-aedb-4aa8-87b5-ab35ee2a5915"},"vehicle_type_id":"4","last_reported":1745680123,"current_range_meters":6800,"station_id":"ce4bhbp2rcd13ifvqerg","pricing_plan_id":"cebpf4jnsgd1na2vs0mg"},{"bike_id":"144da2c1-9801-49e3-9fd1-f3f573449d7d","system_id":"levelo_inurba_marseille","lat":43.24078,"lon":5.37757,"is_reserved":false,"is_disabled":false,"rental_uris":{"android":"levelo://app?vid=144da2c1-9801-49e3-9fd1-f3f573449d7d","ios":"levelo://app?vid=144da2c1-9801-49e3-9fd1-f3f573449d7d"},"vehicle_type_id":"4","last_reported":1745680123,"current_range_meters":6800,"station_id":"ce4bhnp2rcd13ifvqgvg","pricing_plan_id":"cebpf4jnsgd1na2vs0mg"},{"bike_id":"35d34f53-6cf9-45cc-a9f9-401682c13a74","system_id":"levelo_inurba_marseille","lat":43.29291,"lon":5.37446,"is_reserved":false,"is_disabled":true,"rental_uris":{"android":"levelo://app?vid=35d34f53-6cf9-45cc-a9f9-401682c13a74","ios":"levelo://app?vid=35d34f53-6cf9-45cc-a9f9-401682c13a74"},"vehicle_type_id":"4","last_reported":1745680123,"current_range_meters":6800,"station_id":"ce4bgi12rcd13ifvqb70","pricing_plan_id":"cebpf4jnsgd1na2vs0mg"},{"bike_id":"18b37241-2d92-4bd6-8e58-65fec3172766","system_id":"levelo_inurba_marseille","lat":43.23065,"lon":5.35488,"is_reserved":false,"is_disabled":false,"rental_uris":{"android":"levelo://app?vid=18b37241-2d92-4bd6-8e58-65fec3172766","ios":"levelo://app?vid=18b37241-2d92-4bd6-8e58-65fec3172766"},"vehicle_type_id":"4","last_reported":1745680123,"current_range_meters":6800,"station_id":"cpo3342slgdg3j2ifvpg","pricing_plan_id":"cebpf4jnsgd1na2vs0mg"},{"bike_id":"a45396b4-6a30-4907-9c08-e415b6011144","system_id":"levelo_inurba_marseille","lat":43.24086,"lon":5.37789,"is_reserved":false,"is_disabled":false,"rental_uris":{"android":"levelo://app?vid=a45396b4-6a30-4907-9c08-e415b6011144","ios":"levelo://app?vid=a45396b4-6a30-4907-9c08-e415b6011144"},"vehicle_type_id":"4","last_reported":1745680123,"current_range_meters":6800,"station_id":"ce4bhnp2rcd13ifvqgvg","pricing_plan_id":"cebpf4jnsgd1na2vs0mg"},{"bike_id":"9b5609c6-90e7-42bb-850c-e8f51dd24fd3","system_id":"levelo_inurba_marseille","lat":43.29049,"lon":5.35909,"is_reserved":false,"is_disabled":false,"rental_uris":{"android":"levelo://app?vid=9b5609c6-90e7-42bb-850c-e8f51dd24fd3","ios":"levelo://app?vid=9b5609c6-90e7-42bb-850c-e8f51dd24fd3"},"vehicle_type_id":"4","last_reported":1745680123,"current_range_meters":6800,"station_id":"ce4bha92rcd13ifvqeg0","pricing_plan_id":"cebpf4jnsgd1na2vs0mg"},{"bike_id":"d1ff7e34-d25d-4063-9648-2bd4db47424f","system_id":"levelo_inurba_marseille","lat":43.32455,"lon":5.39145,"is_reserved":false,"is_disabled":false,"rental_uris":{"android":"levelo://app?vid=d1ff7e34-d25d-4063-9648-2bd4db47424f","ios":"levelo://app?vid=d1ff7e34-d25d-4063-9648-2bd4db47424f"},"vehicle_type_id":"4","last_reported":1745680123,"current_range_meters":6800,"station_id":"","pricing_plan_id":"cebpf4jnsgd1na2vs0mg"},{"bike_id":"fd3b53c2-9007-4209-b849-1242cafb5f19","system_id":"levelo_inurba_marseille","lat":43.29087,"lon":5.38145,"is_reserved":false,"is_disabled":false,"rental_uris":{"android":"levelo://app?vid=fd3b53c2-9007-4209-b849-1242cafb5f19","ios":"levelo://app?vid=fd3b53c2-9007-4209-b849-1242cafb5f19"},"vehicle_type_id":"4","last_reported":1745680123,"current_range_meters":6800,"station_id":"ce4bh512rcd13ifvqe2g","pricing_plan_id":"cebpf4jnsgd1na2vs0mg"},{"bike_id":"20a9c3f6-e961-4492-a83c-616b90fab351","system_id":"levelo_inurba_marseille","lat":43.29565,"lon":5.39947,"is_reserved":false,"is_disabled":false,"rental_uris":{"android":"levelo://app?vid=20a9c3f6-e961-4492-a83c-616b90fab351","ios":"levelo://app?vid=20a9c3f6-e961-4492-a83c-616b90fab351"},"vehicle_type_id":"4","last_reported":1745680123,"current_range_meters":6800,"station_id":"ce4bh312rcd13ifvqdj0","pricing_plan_id":"cebpf4jnsgd1na2vs0mg"},{"bike_id":"422b5989-c8b6-43aa-b2b9-3bfeb2e1ddc0","system_id":"levelo_inurba_marseille","lat":43.247195,"lon":5.411692,"is_reserved":false,"is_disabled":false,"rental_uris":{"android":"levelo://app?vid=422b5989-c8b6-43aa-b2b9-3bfeb2e1ddc0","ios":"levelo://app?vid=422b5989-c8b6-43aa-b2b9-3bfeb2e1ddc0"},"vehicle_type_id":"4","last_reported":1745680123,"current_range_meters":7200,"station_id":"","pricing_plan_id":"cebpf4jnsgd1na2vs0mg"},{"bike_id":"f62a4552-ec40-438e-82bf-49608a81162e","system_id":"levelo_inurba_marseille","lat":43.2396,"lon":5.36634,"is_reserved":false,"is_disabled":false,"rental_uris":{"android":"levelo://app?vid=f62a4552-ec40-438e-82bf-49608a81162e","ios":"levelo://app?vid=f62a4552-ec40-438e-82bf-49608a81162e"},"vehicle_type_id":"4","last_reported":1745680123,"current_range_meters":7200,"station_id":"ce4bhi12rcd13ifvqfp0","pricing_plan_id":"cebpf4jnsgd1na2vs0mg"},{"bike_id":"7c8b0050-da75-490e-a8f7-4daf22ee9e0c","system_id":"levelo_inurba_marseille","lat":43.27915,"lon":5.39586,"is_reserved":false,"is_disabled":false,"rental_uris":{"android":"levelo://app?vid=7c8b0050-da75-490e-a8f7-4daf22ee9e0c","ios":"levelo://app?vid=7c8b0050-da75-490e-a8f7-4daf22ee9e0c"},"vehicle_type_id":"4","last_reported":1745680123,"current_range_meters":7200,"station_id":"ce4bhf92rcd13ifvqf40","pricing_plan_id":"cebpf4jnsgd1na2vs0mg"},{"bike_id":"18ae1d78-8d9e-4697-bc48-a39d36035c1d","system_id":"levelo_inurba_marseille","lat":43.23981,"lon":5.36651,"is_reserved":false,"is_disabled":false,"rental_uris":{"android":"levelo://app?vid=18ae1d78-8d9e-4697-bc48-a39d36035c1d","ios":"levelo://app?vid=18ae1d78-8d9e-4697-bc48-a39d36035c1d"},"vehicle_type_id":"4","last_reported":1745680123,"current_range_meters":7200,"station_id":"ce4bhi12rcd13ifvqfp0","pricing_plan_id":"cebpf4jnsgd1na2vs0mg"},{"bike_id":"554fe001-fd7c-4ce9-8b9f-fe24a3da343a","system_id":"levelo_inurba_marseille","lat":43.23198,"lon":5.35557,"is_reserved":false,"is_disabled":false,"rental_uris":{"android":"levelo://app?vid=554fe001-fd7c-4ce9-8b9f-fe24a3da343a","ios":"levelo://app?vid=554fe001-fd7c-4ce9-8b9f-fe24a3da343a"},"vehicle_type_id":"4","last_reported":1745680123,"current_range_meters":8000,"station_id":"ce4bhu92rcd13ifvqi70","pricing_plan_id":"cebpf4jnsgd1na2vs0mg"},{"bike_id":"47d41b97-b583-4a96-bcde-22de9cf79581","system_id":"levelo_inurba_marseille","lat":43.2721,"lon":5.39168,"is_reserved":false,"is_disabled":false,"rental_uris":{"android":"levelo://app?vid=47d41b97-b583-4a96-bcde-22de9cf79581","ios":"levelo://app?vid=47d41b97-b583-4a96-bcde-22de9cf79581"},"vehicle_type_id":"4","last_reported":1745680123,"current_range_meters":7200,"station_id":"ce4bhhp2rcd13ifvqfm0","pricing_plan_id":"cebpf4jnsgd1na2vs0mg"},{"bike_id":"b4b6fc05-aa04-4b3c-87c0-5e8acf7cfc48","system_id":"levelo_inurba_marseille","lat":43.22927,"lon":5.3537,"is_reserved":false,"is_disabled":false,"rental_uris":{"android":"levelo://app?vid=b4b6fc05-aa04-4b3c-87c0-5e8acf7cfc48","ios":"levelo://app?vid=b4b6fc05-aa04-4b3c-87c0-5e8acf7cfc48"},"vehicle_type_id":"4","last_reported":1745680123,"current_range_meters":8000,"station_id":"cpo3532slgdg3j2ikp40","pricing_plan_id":"cebpf4jnsgd1na2vs0mg"},{"bike_id":"1633ed64-e423-42e4-93c5-471c5c6b4f37","system_id":"levelo_inurba_marseille","lat":43.2606,"lon":5.39373,"is_reserved":false,"is_disabled":false,"rental_uris":{"android":"levelo://app?vid=1633ed64-e423-42e4-93c5-471c5c6b4f37","ios":"levelo://app?vid=1633ed64-e423-42e4-93c5-471c5c6b4f37"},"vehicle_type_id":"4","last_reported":1745680123,"current_range_meters":8000,"station_id":"ce4bhh92rcd13ifvqfj0","pricing_plan_id":"cebpf4jnsgd1na2vs0mg"},{"bike_id":"2a44dd0f-f41d-403a-a655-f2144854b0da","system_id":"levelo_inurba_marseille","lat":43.24398,"lon":5.37055,"is_reserved":false,"is_disabled":false,"rental_uris":{"android":"levelo://app?vid=2a44dd0f-f41d-403a-a655-f2144854b0da","ios":"levelo://app?vid=2a44dd0f-f41d-403a-a655-f2144854b0da"},"vehicle_type_id":"4","last_reported":1745680123,"current_range_meters":8000,"station_id":"ce4bhhh2rcd13ifvqfk0","pricing_plan_id":"cebpf4jnsgd1na2vs0mg"},{"bike_id":"0f247a31-3b2b-48b7-9799-1620d33d6bc6","system_id":"levelo_inurba_marseille","lat":43.23146,"lon":5.43732,"is_reserved":false,"is_disabled":false,"rental_uris":{"android":"levelo://app?vid=0f247a31-3b2b-48b7-9799-1620d33d6bc6","ios":"levelo://app?vid=0f247a31-3b2b-48b7-9799-1620d33d6bc6"},"vehicle_type_id":"4","last_reported":1745680123,"current_range_meters":8400,"station_id":"ce4bhmp2rcd13ifvqgog","pricing_plan_id":"cebpf4jnsgd1na2vs0mg"},{"bike_id":"3fb10e7d-00e1-476c-a14f-2837b73331eb","system_id":"levelo_inurba_marseille","lat":43.26229,"lon":5.37467,"is_reserved":false,"is_disabled":false,"rental_uris":{"android":"levelo://app?vid=3fb10e7d-00e1-476c-a14f-2837b73331eb","ios":"levelo://app?vid=3fb10e7d-00e1-476c-a14f-2837b73331eb"},"vehicle_type_id":"4","last_reported":1745680123,"current_range_meters":8400,"station_id":"","pricing_plan_id":"cebpf4jnsgd1na2vs0mg"},{"bike_id":"78f86ce9-2162-45f6-b305-bcb23d0cd8a9","system_id":"levelo_inurba_marseille","lat":43.2444,"lon":5.3709,"is_reserved":false,"is_disabled":false,"rental_uris":{"android":"levelo://app?vid=78f86ce9-2162-45f6-b305-bcb23d0cd8a9","ios":"levelo://app?vid=78f86ce9-2162-45f6-b305-bcb23d0cd8a9"},"vehicle_type_id":"4","last_reported":1745680123,"current_range_meters":8400,"station_id":"","pricing_plan_id":"cebpf4jnsgd1na2vs0mg"},{"bike_id":"8cfe0fe0-6449-48b6-a31a-686d63b55505","system_id":"levelo_inurba_marseille","lat":43.298619,"lon":5.397332,"is_reserved":false,"is_disabled":false,"rental_uris":{"android":"levelo://app?vid=8cfe0fe0-6449-48b6-a31a-686d63b55505","ios":"levelo://app?vid=8cfe0fe0-6449-48b6-a31a-686d63b55505"},"vehicle_type_id":"4","last_reported":1745680123,"current_range_meters":8400,"station_id":"ce4bh0h2rcd13ifvqd50","pricing_plan_id":"cebpf4jnsgd1na2vs0mg"},{"bike_id":"841a99b1-ccda-4e23-9985-2585901feb3a","system_id":"levelo_inurba_marseille","lat":43.27377,"lon":5.36279,"is_reserved":false,"is_disabled":false,"rental_uris":{"android":"levelo://app?vid=841a99b1-ccda-4e23-9985-2585901feb3a","ios":"levelo://app?vid=841a99b1-ccda-4e23-9985-2585901feb3a"},"vehicle_type_id":"4","last_reported":1745680123,"current_range_meters":8400,"station_id":"ce4bhbh2rcd13ifvqeo0","pricing_plan_id":"cebpf4jnsgd1na2vs0mg"},{"bike_id":"51376682-930e-45ed-90e0-b53d931ddc33","system_id":"levelo_inurba_marseille","lat":43.2749,"lon":5.42451,"is_reserved":false,"is_disabled":false,"rental_uris":{"android":"levelo://app?vid=51376682-930e-45ed-90e0-b53d931ddc33","ios":"levelo://app?vid=51376682-930e-45ed-90e0-b53d931ddc33"},"vehicle_type_id":"4","last_reported":1745680123,"current_range_meters":8400,"station_id":"ce4bhn92rcd13ifvqgrg","pricing_plan_id":"cebpf4jnsgd1na2vs0mg"},{"bike_id":"5905bc36-47ec-4161-8afe-3f3ca650e80d","system_id":"levelo_inurba_marseille","lat":43.28082,"lon":5.3965,"is_reserved":false,"is_disabled":false,"rental_uris":{"android":"levelo://app?vid=5905bc36-47ec-4161-8afe-3f3ca650e80d","ios":"levelo://app?vid=5905bc36-47ec-4161-8afe-3f3ca650e80d"},"vehicle_type_id":"4","last_reported":1745680123,"current_range_meters":8400,"station_id":"ce4bho12rcd13ifvqh2g","pricing_plan_id":"cebpf4jnsgd1na2vs0mg"},{"bike_id":"d3c5f68b-2b0b-4f17-8da3-07aff1015494","system_id":"levelo_inurba_marseille","lat":43.29706,"lon":5.37815,"is_reserved":false,"is_disabled":false,"rental_uris":{"android":"levelo://app?vid=d3c5f68b-2b0b-4f17-8da3-07aff1015494","ios":"levelo://app?vid=d3c5f68b-2b0b-4f17-8da3-07aff1015494"},"vehicle_type_id":"4","last_reported":1745680123,"current_range_meters":10800,"station_id":"","pricing_plan_id":"cebpf4jnsgd1na2vs0mg"},{"bike_id":"bad72ae1-d985-47d3-a328-0516fc17bc67","system_id":"levelo_inurba_marseille","lat":43.292755,"lon":5.3684,"is_reserved":false,"is_disabled":false,"rental_uris":{"android":"levelo://app?vid=bad72ae1-d985-47d3-a328-0516fc17bc67","ios":"levelo://app?vid=bad72ae1-d985-47d3-a328-0516fc17bc67"},"vehicle_type_id":"4","last_reported":1745680123,"current_range_meters":8400,"station_id":"","pricing_plan_id":"cebpf4jnsgd1na2vs0mg"},{"bike_id":"de115be9-eb3d-47c9-ae4d-dc73477b0160","system_id":"levelo_inurba_marseille","lat":43.27894,"lon":5.38004,"is_reserved":false,"is_disabled":false,"rental_uris":{"android":"levelo://app?vid=de115be9-eb3d-47c9-ae4d-dc73477b0160","ios":"levelo://app?vid=de115be9-eb3d-47c9-ae4d-dc73477b0160"},"vehicle_type_id":"4","last_reported":1745680123,"current_range_meters":8400,"station_id":"ce4bhf92rcd13ifvqf50","pricing_plan_id":"cebpf4jnsgd1na2vs0mg"},{"bike_id":"c9c92a6d-6c31-47e2-8cb3-7b41be6d4b99","system_id":"levelo_inurba_marseille","lat":43.32481,"lon":5.36562,"is_reserved":false,"is_disabled":false,"rental_uris":{"android":"levelo://app?vid=c9c92a6d-6c31-47e2-8cb3-7b41be6d4b99","ios":"levelo://app?vid=c9c92a6d-6c31-47e2-8cb3-7b41be6d4b99"},"vehicle_type_id":"4","last_reported":1745680123,"current_range_meters":8400,"station_id":"ce4bhs12rcd13ifvqhvg","pricing_plan_id":"cebpf4jnsgd1na2vs0mg"},{"bike_id":"1596c4e4-440c-4e2a-938a-491cffaae877","system_id":"levelo_inurba_marseille","lat":43.2293,"lon":5.35399,"is_reserved":false,"is_disabled":false,"rental_uris":{"android":"levelo://app?vid=1596c4e4-440c-4e2a-938a-491cffaae877","ios":"levelo://app?vid=1596c4e4-440c-4e2a-938a-491cffaae877"},"vehicle_type_id":"4","last_reported":1745680123,"current_range_meters":8400,"station_id":"cpo3532slgdg3j2ikp40","pricing_plan_id":"cebpf4jnsgd1na2vs0mg"},{"bike_id":"2743111f-6f05-405a-b992-7e5d8fae8924","system_id":"levelo_inurba_marseille","lat":43.22952,"lon":5.35434,"is_reserved":false,"is_disabled":false,"rental_uris":{"android":"levelo://app?vid=2743111f-6f05-405a-b992-7e5d8fae8924","ios":"levelo://app?vid=2743111f-6f05-405a-b992-7e5d8fae8924"},"vehicle_type_id":"4","last_reported":1745680123,"current_range_meters":8400,"station_id":"cpo3532slgdg3j2ikp40","pricing_plan_id":"cebpf4jnsgd1na2vs0mg"},{"bike_id":"9a76399c-74bd-4199-8e06-6135347d9bbd","system_id":"levelo_inurba_marseille","lat":43.29851,"lon":5.36278,"is_reserved":false,"is_disabled":false,"rental_uris":{"android":"levelo://app?vid=9a76399c-74bd-4199-8e06-6135347d9bbd","ios":"levelo://app?vid=9a76399c-74bd-4199-8e06-6135347d9bbd"},"vehicle_type_id":"4","last_reported":1745680123,"current_range_meters":8400,"station_id":"ce4bgpp2rcd13ifvqc3g","pricing_plan_id":"cebpf4jnsgd1na2vs0mg"},{"bike_id":"d81afe40-1a18-431d-8092-de75de490789","system_id":"levelo_inurba_marseille","lat":43.22934,"lon":5.35377,"is_reserved":false,"is_disabled":false,"rental_uris":{"android":"levelo://app?vid=d81afe40-1a18-431d-8092-de75de490789","ios":"levelo://app?vid=d81afe40-1a18-431d-8092-de75de490789"},"vehicle_type_id":"4","last_reported":1745680123,"current_range_meters":8800,"station_id":"cpo3532slgdg3j2ikp40","pricing_plan_id":"cebpf4jnsgd1na2vs0mg"},{"bike_id":"52bc6bf7-26c8-4824-9b25-3b4ea70b4d99","system_id":"levelo_inurba_marseille","lat":43.30895,"lon":5.37208,"is_reserved":false,"is_disabled":false,"rental_uris":{"android":"levelo://app?vid=52bc6bf7-26c8-4824-9b25-3b4ea70b4d99","ios":"levelo://app?vid=52bc6bf7-26c8-4824-9b25-3b4ea70b4d99"},"vehicle_type_id":"4","last_reported":1745680123,"current_range_meters":8800,"station_id":"ce4bguh2rcd13ifvqckg","pricing_plan_id":"cebpf4jnsgd1na2vs0mg"},{"bike_id":"51587a7a-4431-438e-928f-ef27df76a80e","system_id":"levelo_inurba_marseille","lat":43.2621,"lon":5.37488,"is_reserved":false,"is_disabled":false,"rental_uris":{"android":"levelo://app?vid=51587a7a-4431-438e-928f-ef27df76a80e","ios":"levelo://app?vid=51587a7a-4431-438e-928f-ef27df76a80e"},"vehicle_type_id":"4","last_reported":1745680123,"current_range_meters":8800,"station_id":"ce4bhgp2rcd13ifvqfc0","pricing_plan_id":"cebpf4jnsgd1na2vs0mg"},{"bike_id":"6104de1b-83a6-4912-bfa1-49d35364e6af","system_id":"levelo_inurba_marseille","lat":43.2394,"lon":5.36671,"is_reserved":false,"is_disabled":false,"rental_uris":{"android":"levelo://app?vid=6104de1b-83a6-4912-bfa1-49d35364e6af","ios":"levelo://app?vid=6104de1b-83a6-4912-bfa1-49d35364e6af"},"vehicle_type_id":"4","last_reported":1745680123,"current_range_meters":8800,"station_id":"ce4bhi12rcd13ifvqfp0","pricing_plan_id":"cebpf4jnsgd1na2vs0mg"},{"bike_id":"dfea19fb-c70d-4da7-bb8d-59e3c4b130f9","system_id":"levelo_inurba_marseille","lat":43.26208,"lon":5.37934,"is_reserved":false,"is_disabled":false,"rental_uris":{"android":"levelo://app?vid=dfea19fb-c70d-4da7-bb8d-59e3c4b130f9","ios":"levelo://app?vid=dfea19fb-c70d-4da7-bb8d-59e3c4b130f9"},"vehicle_type_id":"4","last_reported":1745680123,"current_range_meters":8800,"station_id":"ce4bhjp2rcd13ifvqg90","pricing_plan_id":"cebpf4jnsgd1na2vs0mg"},{"bike_id":"b49cfbd8-15ef-4005-8a00-8a6d349e6176","system_id":"levelo_inurba_marseille","lat":43.24166,"lon":5.3642,"is_reserved":false,"is_disabled":false,"rental_uris":{"android":"levelo://app?vid=b49cfbd8-15ef-4005-8a00-8a6d349e6176","ios":"levelo://app?vid=b49cfbd8-15ef-4005-8a00-8a6d349e6176"},"vehicle_type_id":"4","last_reported":1745680123,"current_range_meters":8800,"station_id":"cpo36qri1sfpv3e86is0","pricing_plan_id":"cebpf4jnsgd1na2vs0mg"},{"bike_id":"652a9787-b409-4f95-9fa8-fde93c29a28c","system_id":"levelo_inurba_marseille","lat":43.267995,"lon":5.402711,"is_reserved":false,"is_disabled":false,"rental_uris":{"android":"levelo://app?vid=652a9787-b409-4f95-9fa8-fde93c29a28c","ios":"levelo://app?vid=652a9787-b409-4f95-9fa8-fde93c29a28c"},"vehicle_type_id":"4","last_reported":1745680123,"current_range_meters":8800,"station_id":"ce501612rcd8frsf0b60","pricing_plan_id":"cebpf4jnsgd1na2vs0mg"},{"bike_id":"dd1f484e-afbc-4327-914e-ee2f4d84e475","system_id":"levelo_inurba_marseille","lat":43.27376,"lon":5.36251,"is_reserved":false,"is_disabled":false,"rental_uris":{"android":"levelo://app?vid=dd1f484e-afbc-4327-914e-ee2f4d84e475","ios":"levelo://app?vid=dd1f484e-afbc-4327-914e-ee2f4d84e475"},"vehicle_type_id":"4","last_reported":1745680123,"current_range_meters":8800,"station_id":"ce4bhbh2rcd13ifvqeo0","pricing_plan_id":"cebpf4jnsgd1na2vs0mg"},{"bike_id":"b69a95f7-eb4e-4e1a-a6c6-b9dd7a96c34b","system_id":"levelo_inurba_marseille","lat":43.29447,"lon":5.39762,"is_reserved":false,"is_disabled":false,"rental_uris":{"android":"levelo://app?vid=b69a95f7-eb4e-4e1a-a6c6-b9dd7a96c34b","ios":"levelo://app?vid=b69a95f7-eb4e-4e1a-a6c6-b9dd7a96c34b"},"vehicle_type_id":"4","last_reported":1745680123,"current_range_meters":8800,"station_id":"ce4bh3h2rcd13ifvqdo0","pricing_plan_id":"cebpf4jnsgd1na2vs0mg"},{"bike_id":"001837ab-6d0f-4cd1-aa83-39ac5e9587cf","system_id":"levelo_inurba_marseille","lat":43.32483,"lon":5.36555,"is_reserved":false,"is_disabled":false,"rental_uris":{"android":"levelo://app?vid=001837ab-6d0f-4cd1-aa83-39ac5e9587cf","ios":"levelo://app?vid=001837ab-6d0f-4cd1-aa83-39ac5e9587cf"},"vehicle_type_id":"4","last_reported":1745680123,"current_range_meters":8800,"station_id":"ce4bhs12rcd13ifvqhvg","pricing_plan_id":"cebpf4jnsgd1na2vs0mg"},{"bike_id":"708f64b0-3713-43b0-93df-fa25e013af07","system_id":"levelo_inurba_marseille","lat":43.30522,"lon":5.3672,"is_reserved":false,"is_disabled":false,"rental_uris":{"android":"levelo://app?vid=708f64b0-3713-43b0-93df-fa25e013af07","ios":"levelo://app?vid=708f64b0-3713-43b0-93df-fa25e013af07"},"vehicle_type_id":"4","last_reported":1745680123,"current_range_meters":9200,"station_id":"ce4bgrp2rcd13ifvqc9g","pricing_plan_id":"cebpf4jnsgd1na2vs0mg"},{"bike_id":"72526dc2-e60d-4fa8-a278-fcec5fe77c27","system_id":"levelo_inurba_marseille","lat":43.30953,"lon":5.39026,"is_reserved":false,"is_disabled":false,"rental_uris":{"android":"levelo://app?vid=72526dc2-e60d-4fa8-a278-fcec5fe77c27","ios":"levelo://app?vid=72526dc2-e60d-4fa8-a278-fcec5fe77c27"},"vehicle_type_id":"4","last_reported":1745680123,"current_range_meters":9200,"station_id":"ce4bgup2rcd13ifvqco0","pricing_plan_id":"cebpf4jnsgd1na2vs0mg"},{"bike_id":"7c112dcd-73e3-40db-b25a-7a6c4f67433a","system_id":"levelo_inurba_marseille","lat":43.24394,"lon":5.3706,"is_reserved":false,"is_disabled":false,"rental_uris":{"android":"levelo://app?vid=7c112dcd-73e3-40db-b25a-7a6c4f67433a","ios":"levelo://app?vid=7c112dcd-73e3-40db-b25a-7a6c4f67433a"},"vehicle_type_id":"4","last_reported":1745680123,"current_range_meters":9200,"station_id":"ce4bhhh2rcd13ifvqfk0","pricing_plan_id":"cebpf4jnsgd1na2vs0mg"},{"bike_id":"5f5945e8-aa57-4f13-bf16-1f9684e59024","system_id":"levelo_inurba_marseille","lat":43.29287,"lon":5.37138,"is_reserved":false,"is_disabled":false,"rental_uris":{"android":"levelo://app?vid=5f5945e8-aa57-4f13-bf16-1f9684e59024","ios":"levelo://app?vid=5f5945e8-aa57-4f13-bf16-1f9684e59024"},"vehicle_type_id":"4","last_reported":1745680123,"current_range_meters":9200,"station_id":"","pricing_plan_id":"cebpf4jnsgd1na2vs0mg"},{"bike_id":"f2574849-73ea-4d56-a24e-86a417bec886","system_id":"levelo_inurba_marseille","lat":43.23068,"lon":5.35495,"is_reserved":false,"is_disabled":false,"rental_uris":{"android":"levelo://app?vid=f2574849-73ea-4d56-a24e-86a417bec886","ios":"levelo://app?vid=f2574849-73ea-4d56-a24e-86a417bec886"},"vehicle_type_id":"4","last_reported":1745680123,"current_range_meters":9600,"station_id":"cpo3342slgdg3j2ifvpg","pricing_plan_id":"cebpf4jnsgd1na2vs0mg"},{"bike_id":"db7de3ab-2965-4174-9cd8-8971df889cf5","system_id":"levelo_inurba_marseille","lat":43.2792,"lon":5.39577,"is_reserved":false,"is_disabled":false,"rental_uris":{"android":"levelo://app?vid=db7de3ab-2965-4174-9cd8-8971df889cf5","ios":"levelo://app?vid=db7de3ab-2965-4174-9cd8-8971df889cf5"},"vehicle_type_id":"4","last_reported":1745680123,"current_range_meters":9600,"station_id":"ce4bhf92rcd13ifvqf40","pricing_plan_id":"cebpf4jnsgd1na2vs0mg"},{"bike_id":"b5f3b0bf-2715-49d6-a3d8-1246666634a0","system_id":"levelo_inurba_marseille","lat":43.26199,"lon":5.37931,"is_reserved":false,"is_disabled":false,"rental_uris":{"android":"levelo://app?vid=b5f3b0bf-2715-49d6-a3d8-1246666634a0","ios":"levelo://app?vid=b5f3b0bf-2715-49d6-a3d8-1246666634a0"},"vehicle_type_id":"4","last_reported":1745680123,"current_range_meters":9200,"station_id":"ce4bhjp2rcd13ifvqg90","pricing_plan_id":"cebpf4jnsgd1na2vs0mg"},{"bike_id":"7126a5cc-4de1-45de-b52d-25f7fbc64cfe","system_id":"levelo_inurba_marseille","lat":43.25115,"lon":5.40317,"is_reserved":false,"is_disabled":false,"rental_uris":{"android":"levelo://app?vid=7126a5cc-4de1-45de-b52d-25f7fbc64cfe","ios":"levelo://app?vid=7126a5cc-4de1-45de-b52d-25f7fbc64cfe"},"vehicle_type_id":"4","last_reported":1745680123,"current_range_meters":9600,"station_id":"ce4bhlh2rcd13ifvqgig","pricing_plan_id":"cebpf4jnsgd1na2vs0mg"},{"bike_id":"be1c3b48-c701-4345-a096-f8211e1c8fd3","system_id":"levelo_inurba_marseille","lat":43.28501,"lon":5.36884,"is_reserved":false,"is_disabled":false,"rental_uris":{"android":"levelo://app?vid=be1c3b48-c701-4345-a096-f8211e1c8fd3","ios":"levelo://app?vid=be1c3b48-c701-4345-a096-f8211e1c8fd3"},"vehicle_type_id":"4","last_reported":1745680123,"current_range_meters":9600,"station_id":"","pricing_plan_id":"cebpf4jnsgd1na2vs0mg"},{"bike_id":"ff062f05-860f-4e02-8275-dd31fed8fe8c","system_id":"levelo_inurba_marseille","lat":43.27944,"lon":5.41043,"is_reserved":false,"is_disabled":false,"rental_uris":{"android":"levelo://app?vid=ff062f05-860f-4e02-8275-dd31fed8fe8c","ios":"levelo://app?vid=ff062f05-860f-4e02-8275-dd31fed8fe8c"},"vehicle_type_id":"4","last_reported":1745680123,"current_range_meters":9600,"station_id":"ce4bhnp2rcd13ifvqh0g","pricing_plan_id":"cebpf4jnsgd1na2vs0mg"},{"bike_id":"addadda9-1d7f-4e4d-ac06-a1d422f95abe","system_id":"levelo_inurba_marseille","lat":43.28609,"lon":5.37065,"is_reserved":false,"is_disabled":false,"rental_uris":{"android":"levelo://app?vid=addadda9-1d7f-4e4d-ac06-a1d422f95abe","ios":"levelo://app?vid=addadda9-1d7f-4e4d-ac06-a1d422f95abe"},"vehicle_type_id":"4","last_reported":1745680123,"current_range_meters":9600,"station_id":"ce4bht12rcd13ifvqi60","pricing_plan_id":"cebpf4jnsgd1na2vs0mg"},{"bike_id":"45f9ee3b-f797-476c-bd42-cfa3d409c924","system_id":"levelo_inurba_marseille","lat":43.298848,"lon":5.397453,"is_reserved":false,"is_disabled":false,"rental_uris":{"android":"levelo://app?vid=45f9ee3b-f797-476c-bd42-cfa3d409c924","ios":"levelo://app?vid=45f9ee3b-f797-476c-bd42-cfa3d409c924"},"vehicle_type_id":"4","last_reported":1745680123,"current_range_meters":9600,"station_id":"ce4bh0h2rcd13ifvqd50","pricing_plan_id":"cebpf4jnsgd1na2vs0mg"},{"bike_id":"e1616da3-c56f-44d0-b886-20462ab0fb76","system_id":"levelo_inurba_marseille","lat":43.29848,"lon":5.36274,"is_reserved":false,"is_disabled":false,"rental_uris":{"android":"levelo://app?vid=e1616da3-c56f-44d0-b886-20462ab0fb76","ios":"levelo://app?vid=e1616da3-c56f-44d0-b886-20462ab0fb76"},"vehicle_type_id":"4","last_reported":1745680123,"current_range_meters":9200,"station_id":"ce4bgpp2rcd13ifvqc3g","pricing_plan_id":"cebpf4jnsgd1na2vs0mg"},{"bike_id":"6ab5aa2c-103e-42f4-b2f1-81789469fbdd","system_id":"levelo_inurba_marseille","lat":43.30526,"lon":5.36577,"is_reserved":false,"is_disabled":false,"rental_uris":{"android":"levelo://app?vid=6ab5aa2c-103e-42f4-b2f1-81789469fbdd","ios":"levelo://app?vid=6ab5aa2c-103e-42f4-b2f1-81789469fbdd"},"vehicle_type_id":"4","last_reported":1745680123,"current_range_meters":9600,"station_id":"ce4bgs12rcd13ifvqcag","pricing_plan_id":"cebpf4jnsgd1na2vs0mg"},{"bike_id":"f46b162e-170a-446a-9c4b-0c8212412ceb","system_id":"levelo_inurba_marseille","lat":43.231831,"lon":5.399902,"is_reserved":false,"is_disabled":false,"rental_uris":{"android":"levelo://app?vid=f46b162e-170a-446a-9c4b-0c8212412ceb","ios":"levelo://app?vid=f46b162e-170a-446a-9c4b-0c8212412ceb"},"vehicle_type_id":"4","last_reported":1745680123,"current_range_meters":9600,"station_id":"ce4bhn12rcd13ifvqgqg","pricing_plan_id":"cebpf4jnsgd1na2vs0mg"},{"bike_id":"044b57e4-5b3a-4322-9b1b-eb1b69ccbe05","system_id":"levelo_inurba_marseille","lat":43.30436,"lon":5.38892,"is_reserved":false,"is_disabled":false,"rental_uris":{"android":"levelo://app?vid=044b57e4-5b3a-4322-9b1b-eb1b69ccbe05","ios":"levelo://app?vid=044b57e4-5b3a-4322-9b1b-eb1b69ccbe05"},"vehicle_type_id":"4","last_reported":1745680123,"current_range_meters":10000,"station_id":"ce4bgk12rcd13ifvqbi0","pricing_plan_id":"cebpf4jnsgd1na2vs0mg"},{"bike_id":"a9e689af-7396-49a4-9446-56c30f725424","system_id":"levelo_inurba_marseille","lat":43.28072,"lon":5.39655,"is_reserved":false,"is_disabled":false,"rental_uris":{"android":"levelo://app?vid=a9e689af-7396-49a4-9446-56c30f725424","ios":"levelo://app?vid=a9e689af-7396-49a4-9446-56c30f725424"},"vehicle_type_id":"4","last_reported":1745680123,"current_range_meters":10000,"station_id":"ce4bho12rcd13ifvqh2g","pricing_plan_id":"cebpf4jnsgd1na2vs0mg"},{"bike_id":"81050707-bcb2-4273-aac9-9465473a9955","system_id":"levelo_inurba_marseille","lat":43.23201,"lon":5.35554,"is_reserved":false,"is_disabled":false,"rental_uris":{"android":"levelo://app?vid=81050707-bcb2-4273-aac9-9465473a9955","ios":"levelo://app?vid=81050707-bcb2-4273-aac9-9465473a9955"},"vehicle_type_id":"4","last_reported":1745680123,"current_range_meters":10000,"station_id":"ce4bhu92rcd13ifvqi70","pricing_plan_id":"cebpf4jnsgd1na2vs0mg"},{"bike_id":"e70c2bf2-aada-4512-91dc-a1e6715a8852","system_id":"levelo_inurba_marseille","lat":43.24808,"lon":5.37456,"is_reserved":false,"is_disabled":false,"rental_uris":{"android":"levelo://app?vid=e70c2bf2-aada-4512-91dc-a1e6715a8852","ios":"levelo://app?vid=e70c2bf2-aada-4512-91dc-a1e6715a8852"},"vehicle_type_id":"4","last_reported":1745680123,"current_range_meters":10000,"station_id":"ce4bhgh2rcd13ifvqfb0","pricing_plan_id":"cebpf4jnsgd1na2vs0mg"},{"bike_id":"5cd6f791-97a4-4502-9585-a47c45db3579","system_id":"levelo_inurba_marseille","lat":43.28458,"lon":5.35881,"is_reserved":false,"is_disabled":false,"rental_uris":{"android":"levelo://app?vid=5cd6f791-97a4-4502-9585-a47c45db3579","ios":"levelo://app?vid=5cd6f791-97a4-4502-9585-a47c45db3579"},"vehicle_type_id":"4","last_reported":1745680123,"current_range_meters":10000,"station_id":"ce4bhah2rcd13ifvqei0","pricing_plan_id":"cebpf4jnsgd1na2vs0mg"},{"bike_id":"d93cf9ba-0405-43e6-a9be-4596f3e2e7e6","system_id":"levelo_inurba_marseille","lat":43.29799,"lon":5.36235,"is_reserved":false,"is_disabled":false,"rental_uris":{"android":"levelo://app?vid=d93cf9ba-0405-43e6-a9be-4596f3e2e7e6","ios":"levelo://app?vid=d93cf9ba-0405-43e6-a9be-4596f3e2e7e6"},"vehicle_type_id":"4","last_reported":1745680123,"current_range_meters":10000,"station_id":"","pricing_plan_id":"cebpf4jnsgd1na2vs0mg"},{"bike_id":"434ff797-4ea4-4435-a3ce-32a39e5db280","system_id":"levelo_inurba_marseille","lat":43.26209,"lon":5.37473,"is_reserved":false,"is_disabled":false,"rental_uris":{"android":"levelo://app?vid=434ff797-4ea4-4435-a3ce-32a39e5db280","ios":"levelo://app?vid=434ff797-4ea4-4435-a3ce-32a39e5db280"},"vehicle_type_id":"4","last_reported":1745680123,"current_range_meters":10000,"station_id":"ce4bhgp2rcd13ifvqfc0","pricing_plan_id":"cebpf4jnsgd1na2vs0mg"},{"bike_id":"aabe786e-5d3b-48a6-b765-92302ca4a5ba","system_id":"levelo_inurba_marseille","lat":43.31082,"lon":5.42461,"is_reserved":false,"is_disabled":false,"rental_uris":{"android":"levelo://app?vid=aabe786e-5d3b-48a6-b765-92302ca4a5ba","ios":"levelo://app?vid=aabe786e-5d3b-48a6-b765-92302ca4a5ba"},"vehicle_type_id":"4","last_reported":1745680123,"current_range_meters":10000,"station_id":"ce4bhp92rcd13ifvqhag","pricing_plan_id":"cebpf4jnsgd1na2vs0mg"},{"bike_id":"18037976-4342-475f-9f25-82b2bd7148bc","system_id":"levelo_inurba_marseille","lat":43.25003,"lon":5.38924,"is_reserved":false,"is_disabled":false,"rental_uris":{"android":"levelo://app?vid=18037976-4342-475f-9f25-82b2bd7148bc","ios":"levelo://app?vid=18037976-4342-475f-9f25-82b2bd7148bc"},"vehicle_type_id":"4","last_reported":1745680123,"current_range_meters":10800,"station_id":"ce4bhgp2rcd13ifvqfd0","pricing_plan_id":"cebpf4jnsgd1na2vs0mg"},{"bike_id":"5f9f4930-3c13-4afc-95bf-7480b5201924","system_id":"levelo_inurba_marseille","lat":43.26675,"lon":5.38264,"is_reserved":false,"is_disabled":false,"rental_uris":{"android":"levelo://app?vid=5f9f4930-3c13-4afc-95bf-7480b5201924","ios":"levelo://app?vid=5f9f4930-3c13-4afc-95bf-7480b5201924"},"vehicle_type_id":"4","last_reported":1745680123,"current_range_meters":10000,"station_id":"ce4bhg92rcd13ifvqf90","pricing_plan_id":"cebpf4jnsgd1na2vs0mg"},{"bike_id":"b337b47e-e0c0-40c3-878a-37e58bb44305","system_id":"levelo_inurba_marseille","lat":43.3117,"lon":5.40785,"is_reserved":false,"is_disabled":false,"rental_uris":{"android":"levelo://app?vid=b337b47e-e0c0-40c3-878a-37e58bb44305","ios":"levelo://app?vid=b337b47e-e0c0-40c3-878a-37e58bb44305"},"vehicle_type_id":"4","last_reported":1745680123,"current_range_meters":10800,"station_id":"","pricing_plan_id":"cebpf4jnsgd1na2vs0mg"},{"bike_id":"d2feb4db-a278-4eac-a7da-6e2cce5efb4f","system_id":"levelo_inurba_marseille","lat":43.256203,"lon":5.376761,"is_reserved":false,"is_disabled":false,"rental_uris":{"android":"levelo://app?vid=d2feb4db-a278-4eac-a7da-6e2cce5efb4f","ios":"levelo://app?vid=d2feb4db-a278-4eac-a7da-6e2cce5efb4f"},"vehicle_type_id":"4","last_reported":1745680123,"current_range_meters":10800,"station_id":"ce4bgvh2rcd13ifvqcs0","pricing_plan_id":"cebpf4jnsgd1na2vs0mg"},{"bike_id":"aa03442a-b94c-419e-988e-f3f224736d9e","system_id":"levelo_inurba_marseille","lat":43.28661,"lon":5.36347,"is_reserved":false,"is_disabled":false,"rental_uris":{"android":"levelo://app?vid=aa03442a-b94c-419e-988e-f3f224736d9e","ios":"levelo://app?vid=aa03442a-b94c-419e-988e-f3f224736d9e"},"vehicle_type_id":"4","last_reported":1745680123,"current_range_meters":10800,"station_id":"ce4bhah2rcd13ifvqej0","pricing_plan_id":"cebpf4jnsgd1na2vs0mg"},{"bike_id":"7d9669fc-32f8-4d0c-965b-3fa72110d608","system_id":"levelo_inurba_marseille","lat":43.23536,"lon":5.36016,"is_reserved":false,"is_disabled":false,"rental_uris":{"android":"levelo://app?vid=7d9669fc-32f8-4d0c-965b-3fa72110d608","ios":"levelo://app?vid=7d9669fc-32f8-4d0c-965b-3fa72110d608"},"vehicle_type_id":"4","last_reported":1745680123,"current_range_meters":10800,"station_id":"","pricing_plan_id":"cebpf4jnsgd1na2vs0mg"},{"bike_id":"ae2f8384-ab79-4241-aa7f-a13b45da22ce","system_id":"levelo_inurba_marseille","lat":43.262128,"lon":5.374415,"is_reserved":false,"is_disabled":false,"rental_uris":{"android":"levelo://app?vid=ae2f8384-ab79-4241-aa7f-a13b45da22ce","ios":"levelo://app?vid=ae2f8384-ab79-4241-aa7f-a13b45da22ce"},"vehicle_type_id":"4","last_reported":1745680123,"current_range_meters":10800,"station_id":"ce4bhgp2rcd13ifvqfc0","pricing_plan_id":"cebpf4jnsgd1na2vs0mg"},{"bike_id":"0935c0d8-3f30-4d0c-84fb-6da41f907c3f","system_id":"levelo_inurba_marseille","lat":43.29008,"lon":5.35614,"is_reserved":false,"is_disabled":false,"rental_uris":{"android":"levelo://app?vid=0935c0d8-3f30-4d0c-84fb-6da41f907c3f","ios":"levelo://app?vid=0935c0d8-3f30-4d0c-84fb-6da41f907c3f"},"vehicle_type_id":"4","last_reported":1745680123,"current_range_meters":11200,"station_id":"ce4bhb92rcd13ifvqen0","pricing_plan_id":"cebpf4jnsgd1na2vs0mg"},{"bike_id":"52e20648-895d-46c1-aaaa-61d285064325","system_id":"levelo_inurba_marseille","lat":43.23181,"lon":5.39989,"is_reserved":false,"is_disabled":false,"rental_uris":{"android":"levelo://app?vid=52e20648-895d-46c1-aaaa-61d285064325","ios":"levelo://app?vid=52e20648-895d-46c1-aaaa-61d285064325"},"vehicle_type_id":"4","last_reported":1745680123,"current_range_meters":11200,"station_id":"ce4bhn12rcd13ifvqgqg","pricing_plan_id":"cebpf4jnsgd1na2vs0mg"},{"bike_id":"af2ced06-fc8a-47d4-8897-663cf6d58009","system_id":"levelo_inurba_marseille","lat":43.28418,"lon":5.37516,"is_reserved":false,"is_disabled":false,"rental_uris":{"android":"levelo://app?vid=af2ced06-fc8a-47d4-8897-663cf6d58009","ios":"levelo://app?vid=af2ced06-fc8a-47d4-8897-663cf6d58009"},"vehicle_type_id":"4","last_reported":1745680123,"current_range_meters":11200,"station_id":"ce4bh412rcd13ifvqds0","pricing_plan_id":"cebpf4jnsgd1na2vs0mg"},{"bike_id":"89ec132d-9e14-4bc1-a361-6cdf62a64e7e","system_id":"levelo_inurba_marseille","lat":43.231937,"lon":5.4,"is_reserved":false,"is_disabled":false,"rental_uris":{"android":"levelo://app?vid=89ec132d-9e14-4bc1-a361-6cdf62a64e7e","ios":"levelo://app?vid=89ec132d-9e14-4bc1-a361-6cdf62a64e7e"},"vehicle_type_id":"4","last_reported":1745680123,"current_range_meters":10800,"station_id":"ce4bhn12rcd13ifvqgqg","pricing_plan_id":"cebpf4jnsgd1na2vs0mg"},{"bike_id":"aa7dd23a-c50c-4359-a4fa-3d29c4576751","system_id":"levelo_inurba_marseille","lat":43.24161,"lon":5.36434,"is_reserved":false,"is_disabled":false,"rental_uris":{"android":"levelo://app?vid=aa7dd23a-c50c-4359-a4fa-3d29c4576751","ios":"levelo://app?vid=aa7dd23a-c50c-4359-a4fa-3d29c4576751"},"vehicle_type_id":"4","last_reported":1745680123,"current_range_meters":11200,"station_id":"cpo36qri1sfpv3e86is0","pricing_plan_id":"cebpf4jnsgd1na2vs0mg"},{"bike_id":"41034a23-c43f-4a68-ac0f-c7189bfe018f","system_id":"levelo_inurba_marseille","lat":43.23194,"lon":5.35557,"is_reserved":false,"is_disabled":false,"rental_uris":{"android":"levelo://app?vid=41034a23-c43f-4a68-ac0f-c7189bfe018f","ios":"levelo://app?vid=41034a23-c43f-4a68-ac0f-c7189bfe018f"},"vehicle_type_id":"4","last_reported":1745680123,"current_range_meters":11200,"station_id":"ce4bhu92rcd13ifvqi70","pricing_plan_id":"cebpf4jnsgd1na2vs0mg"},{"bike_id":"aed1e797-394e-428b-87f9-c4ce148b98a9","system_id":"levelo_inurba_marseille","lat":43.30193,"lon":5.36628,"is_reserved":false,"is_disabled":false,"rental_uris":{"android":"levelo://app?vid=aed1e797-394e-428b-87f9-c4ce148b98a9","ios":"levelo://app?vid=aed1e797-394e-428b-87f9-c4ce148b98a9"},"vehicle_type_id":"4","last_reported":1745680123,"current_range_meters":11200,"station_id":"ce4bgrh2rcd13ifvqc8g","pricing_plan_id":"cebpf4jnsgd1na2vs0mg"},{"bike_id":"584fcb6d-4d38-48fd-83b2-1e8978d5a701","system_id":"levelo_inurba_marseille","lat":43.28936,"lon":5.36408,"is_reserved":false,"is_disabled":false,"rental_uris":{"android":"levelo://app?vid=584fcb6d-4d38-48fd-83b2-1e8978d5a701","ios":"levelo://app?vid=584fcb6d-4d38-48fd-83b2-1e8978d5a701"},"vehicle_type_id":"4","last_reported":1745680123,"current_range_meters":11200,"station_id":"ce4bhc92rcd13ifvqetg","pricing_plan_id":"cebpf4jnsgd1na2vs0mg"},{"bike_id":"6c96b953-7413-4074-a7b6-7cffbd0f978b","system_id":"levelo_inurba_marseille","lat":43.29396,"lon":5.41262,"is_reserved":false,"is_disabled":false,"rental_uris":{"android":"levelo://app?vid=6c96b953-7413-4074-a7b6-7cffbd0f978b","ios":"levelo://app?vid=6c96b953-7413-4074-a7b6-7cffbd0f978b"},"vehicle_type_id":"4","last_reported":1745680123,"current_range_meters":11600,"station_id":"","pricing_plan_id":"cebpf4jnsgd1na2vs0mg"},{"bike_id":"0368e639-bc0e-4552-ab50-4d1df2eff185","system_id":"levelo_inurba_marseille","lat":43.25086,"lon":5.39525,"is_reserved":false,"is_disabled":false,"rental_uris":{"android":"levelo://app?vid=0368e639-bc0e-4552-ab50-4d1df2eff185","ios":"levelo://app?vid=0368e639-bc0e-4552-ab50-4d1df2eff185"},"vehicle_type_id":"4","last_reported":1745680123,"current_range_meters":11200,"station_id":"ce4bhm12rcd13ifvqgkg","pricing_plan_id":"cebpf4jnsgd1na2vs0mg"},{"bike_id":"325d3f53-5fe5-4b80-97c9-927826fe8b07","system_id":"levelo_inurba_marseille","lat":43.28611,"lon":5.37066,"is_reserved":false,"is_disabled":false,"rental_uris":{"android":"levelo://app?vid=325d3f53-5fe5-4b80-97c9-927826fe8b07","ios":"levelo://app?vid=325d3f53-5fe5-4b80-97c9-927826fe8b07"},"vehicle_type_id":"4","last_reported":1745680123,"current_range_meters":12000,"station_id":"ce4bht12rcd13ifvqi60","pricing_plan_id":"cebpf4jnsgd1na2vs0mg"},{"bike_id":"6aea4dd1-f42b-47f2-8823-bdf87e6f37a5","system_id":"levelo_inurba_marseille","lat":43.29173,"lon":5.3716,"is_reserved":false,"is_disabled":false,"rental_uris":{"android":"levelo://app?vid=6aea4dd1-f42b-47f2-8823-bdf87e6f37a5","ios":"levelo://app?vid=6aea4dd1-f42b-47f2-8823-bdf87e6f37a5"},"vehicle_type_id":"4","last_reported":1745680123,"current_range_meters":12000,"station_id":"ce4bha92rcd13ifvqeh0","pricing_plan_id":"cebpf4jnsgd1na2vs0mg"},{"bike_id":"1f1a3b1d-7c0b-4745-920e-6b912f3244b7","system_id":"levelo_inurba_marseille","lat":43.23183,"lon":5.39985,"is_reserved":false,"is_disabled":false,"rental_uris":{"android":"levelo://app?vid=1f1a3b1d-7c0b-4745-920e-6b912f3244b7","ios":"levelo://app?vid=1f1a3b1d-7c0b-4745-920e-6b912f3244b7"},"vehicle_type_id":"4","last_reported":1745680123,"current_range_meters":11600,"station_id":"ce4bhn12rcd13ifvqgqg","pricing_plan_id":"cebpf4jnsgd1na2vs0mg"},{"bike_id":"f098d26c-ceed-4c22-86b3-555760ee46b3","system_id":"levelo_inurba_marseille","lat":43.29513,"lon":5.37508,"is_reserved":false,"is_disabled":false,"rental_uris":{"android":"levelo://app?vid=f098d26c-ceed-4c22-86b3-555760ee46b3","ios":"levelo://app?vid=f098d26c-ceed-4c22-86b3-555760ee46b3"},"vehicle_type_id":"4","last_reported":1745680123,"current_range_meters":12400,"station_id":"ce4bgkp2rcd13ifvqbmg","pricing_plan_id":"cebpf4jnsgd1na2vs0mg"},{"bike_id":"3f8e74df-4b8a-4fe8-9f20-4fbe47605119","system_id":"levelo_inurba_marseille","lat":43.29048,"lon":5.3757,"is_reserved":false,"is_disabled":true,"rental_uris":{"android":"levelo://app?vid=3f8e74df-4b8a-4fe8-9f20-4fbe47605119","ios":"levelo://app?vid=3f8e74df-4b8a-4fe8-9f20-4fbe47605119"},"vehicle_type_id":"4","last_reported":1745680123,"current_range_meters":12400,"station_id":"ce4bh692rcd13ifvqe90","pricing_plan_id":"cebpf4jnsgd1na2vs0mg"},{"bike_id":"2f6710be-d5b2-43ab-8729-6e6beeef9582","system_id":"levelo_inurba_marseille","lat":43.29685,"lon":5.37293,"is_reserved":false,"is_disabled":false,"rental_uris":{"android":"levelo://app?vid=2f6710be-d5b2-43ab-8729-6e6beeef9582","ios":"levelo://app?vid=2f6710be-d5b2-43ab-8729-6e6beeef9582"},"vehicle_type_id":"4","last_reported":1745680123,"current_range_meters":12400,"station_id":"ce4bgk12rcd13ifvqbj0","pricing_plan_id":"cebpf4jnsgd1na2vs0mg"},{"bike_id":"738753a0-ce79-4642-a5f6-2c11702b3e9b","system_id":"levelo_inurba_marseille","lat":43.28457,"lon":5.35889,"is_reserved":false,"is_disabled":false,"rental_uris":{"android":"levelo://app?vid=738753a0-ce79-4642-a5f6-2c11702b3e9b","ios":"levelo://app?vid=738753a0-ce79-4642-a5f6-2c11702b3e9b"},"vehicle_type_id":"4","last_reported":1745680123,"current_range_meters":12400,"station_id":"ce4bhah2rcd13ifvqei0","pricing_plan_id":"cebpf4jnsgd1na2vs0mg"},{"bike_id":"f5f01895-313f-4174-a697-6db19b1d996a","system_id":"levelo_inurba_marseille","lat":43.30094,"lon":5.39076,"is_reserved":false,"is_disabled":false,"rental_uris":{"android":"levelo://app?vid=f5f01895-313f-4174-a697-6db19b1d996a","ios":"levelo://app?vid=f5f01895-313f-4174-a697-6db19b1d996a"},"vehicle_type_id":"4","last_reported":1745680123,"current_range_meters":12400,"station_id":"ce4bh192rcd13ifvqdb0","pricing_plan_id":"cebpf4jnsgd1na2vs0mg"},{"bike_id":"a76e49be-e212-440b-a7d8-d9f22a87e576","system_id":"levelo_inurba_marseille","lat":43.25568,"lon":5.38242,"is_reserved":false,"is_disabled":false,"rental_uris":{"android":"levelo://app?vid=a76e49be-e212-440b-a7d8-d9f22a87e576","ios":"levelo://app?vid=a76e49be-e212-440b-a7d8-d9f22a87e576"},"vehicle_type_id":"4","last_reported":1745680123,"current_range_meters":12400,"station_id":"ce4bhih2rcd13ifvqfs0","pricing_plan_id":"cebpf4jnsgd1na2vs0mg"},{"bike_id":"925c3df0-627f-4955-b2a7-0522d2911669","system_id":"levelo_inurba_marseille","lat":43.24652,"lon":5.38888,"is_reserved":false,"is_disabled":false,"rental_uris":{"android":"levelo://app?vid=925c3df0-627f-4955-b2a7-0522d2911669","ios":"levelo://app?vid=925c3df0-627f-4955-b2a7-0522d2911669"},"vehicle_type_id":"4","last_reported":1745680123,"current_range_meters":12800,"station_id":"ce4bhg12rcd13ifvqf60","pricing_plan_id":"cebpf4jnsgd1na2vs0mg"},{"bike_id":"3aadeff2-46bf-461a-8e06-954215b362b7","system_id":"levelo_inurba_marseille","lat":43.29041,"lon":5.35911,"is_reserved":false,"is_disabled":false,"rental_uris":{"android":"levelo://app?vid=3aadeff2-46bf-461a-8e06-954215b362b7","ios":"levelo://app?vid=3aadeff2-46bf-461a-8e06-954215b362b7"},"vehicle_type_id":"4","last_reported":1745680123,"current_range_meters":12800,"station_id":"ce4bha92rcd13ifvqeg0","pricing_plan_id":"cebpf4jnsgd1na2vs0mg"},{"bike_id":"f6c26d1e-d7d1-41eb-be1f-4fc2467fcd47","system_id":"levelo_inurba_marseille","lat":43.296869,"lon":5.373737,"is_reserved":false,"is_disabled":false,"rental_uris":{"android":"levelo://app?vid=f6c26d1e-d7d1-41eb-be1f-4fc2467fcd47","ios":"levelo://app?vid=f6c26d1e-d7d1-41eb-be1f-4fc2467fcd47"},"vehicle_type_id":"4","last_reported":1745680123,"current_range_meters":12800,"station_id":"ce4bgr92rcd13ifvqc7g","pricing_plan_id":"cebpf4jnsgd1na2vs0mg"},{"bike_id":"5add306b-78c8-47f6-bc94-3697bcfab873","system_id":"levelo_inurba_marseille","lat":43.23182,"lon":5.39983,"is_reserved":false,"is_disabled":false,"rental_uris":{"android":"levelo://app?vid=5add306b-78c8-47f6-bc94-3697bcfab873","ios":"levelo://app?vid=5add306b-78c8-47f6-bc94-3697bcfab873"},"vehicle_type_id":"4","last_reported":1745680123,"current_range_meters":12400,"station_id":"ce4bhn12rcd13ifvqgqg","pricing_plan_id":"cebpf4jnsgd1na2vs0mg"},{"bike_id":"a00fab57-35a8-4075-9768-1cc376bc9a52","system_id":"levelo_inurba_marseille","lat":43.31238,"lon":5.36803,"is_reserved":false,"is_disabled":false,"rental_uris":{"android":"levelo://app?vid=a00fab57-35a8-4075-9768-1cc376bc9a52","ios":"levelo://app?vid=a00fab57-35a8-4075-9768-1cc376bc9a52"},"vehicle_type_id":"4","last_reported":1745680123,"current_range_meters":13600,"station_id":"ce4bgl92rcd13ifvqbq0","pricing_plan_id":"cebpf4jnsgd1na2vs0mg"},{"bike_id":"5b010d35-3642-4a05-9b97-43aaf5e5cf61","system_id":"levelo_inurba_marseille","lat":43.24169,"lon":5.36396,"is_reserved":false,"is_disabled":false,"rental_uris":{"android":"levelo://app?vid=5b010d35-3642-4a05-9b97-43aaf5e5cf61","ios":"levelo://app?vid=5b010d35-3642-4a05-9b97-43aaf5e5cf61"},"vehicle_type_id":"4","last_reported":1745680123,"current_range_meters":13600,"station_id":"cpo36qri1sfpv3e86is0","pricing_plan_id":"cebpf4jnsgd1na2vs0mg"},{"bike_id":"9fd21a65-d753-4746-bbea-7f90bbfe1235","system_id":"levelo_inurba_marseille","lat":43.292136,"lon":5.392631,"is_reserved":false,"is_disabled":false,"rental_uris":{"android":"levelo://app?vid=9fd21a65-d753-4746-bbea-7f90bbfe1235","ios":"levelo://app?vid=9fd21a65-d753-4746-bbea-7f90bbfe1235"},"vehicle_type_id":"4","last_reported":1745680123,"current_range_meters":13600,"station_id":"ce4bh192rcd13ifvqdd0","pricing_plan_id":"cebpf4jnsgd1na2vs0mg"},{"bike_id":"5f008605-0660-4905-8b07-a6af7cac1cba","system_id":"levelo_inurba_marseille","lat":43.2465,"lon":5.3889,"is_reserved":false,"is_disabled":false,"rental_uris":{"android":"levelo://app?vid=5f008605-0660-4905-8b07-a6af7cac1cba","ios":"levelo://app?vid=5f008605-0660-4905-8b07-a6af7cac1cba"},"vehicle_type_id":"4","last_reported":1745680123,"current_range_meters":13600,"station_id":"ce4bhg12rcd13ifvqf60","pricing_plan_id":"cebpf4jnsgd1na2vs0mg"},{"bike_id":"736ee7d5-708e-48bd-8281-35bb85d0bc7d","system_id":"levelo_inurba_marseille","lat":43.29006,"lon":5.35577,"is_reserved":false,"is_disabled":true,"rental_uris":{"android":"levelo://app?vid=736ee7d5-708e-48bd-8281-35bb85d0bc7d","ios":"levelo://app?vid=736ee7d5-708e-48bd-8281-35bb85d0bc7d"},"vehicle_type_id":"4","last_reported":1745680123,"current_range_meters":13600,"station_id":"ce4bhb92rcd13ifvqen0","pricing_plan_id":"cebpf4jnsgd1na2vs0mg"},{"bike_id":"86082c5a-74ec-45ee-9bbd-681fdfc8da73","system_id":"levelo_inurba_marseille","lat":43.23962,"lon":5.36628,"is_reserved":false,"is_disabled":false,"rental_uris":{"android":"levelo://app?vid=86082c5a-74ec-45ee-9bbd-681fdfc8da73","ios":"levelo://app?vid=86082c5a-74ec-45ee-9bbd-681fdfc8da73"},"vehicle_type_id":"4","last_reported":1745680123,"current_range_meters":14000,"station_id":"ce4bhi12rcd13ifvqfp0","pricing_plan_id":"cebpf4jnsgd1na2vs0mg"},{"bike_id":"fb6a289c-e109-4a9f-9fee-f527be63e744","system_id":"levelo_inurba_marseille","lat":43.25087,"lon":5.39528,"is_reserved":false,"is_disabled":false,"rental_uris":{"android":"levelo://app?vid=fb6a289c-e109-4a9f-9fee-f527be63e744","ios":"levelo://app?vid=fb6a289c-e109-4a9f-9fee-f527be63e744"},"vehicle_type_id":"4","last_reported":1745680123,"current_range_meters":14000,"station_id":"ce4bhm12rcd13ifvqgkg","pricing_plan_id":"cebpf4jnsgd1na2vs0mg"},{"bike_id":"ea13b3bd-1573-4e5e-9eee-48a44e9cb12b","system_id":"levelo_inurba_marseille","lat":43.23184,"lon":5.39993,"is_reserved":false,"is_disabled":false,"rental_uris":{"android":"levelo://app?vid=ea13b3bd-1573-4e5e-9eee-48a44e9cb12b","ios":"levelo://app?vid=ea13b3bd-1573-4e5e-9eee-48a44e9cb12b"},"vehicle_type_id":"4","last_reported":1745680123,"current_range_meters":14000,"station_id":"ce4bhn12rcd13ifvqgqg","pricing_plan_id":"cebpf4jnsgd1na2vs0mg"},{"bike_id":"ad1dd68c-20a8-4cb1-ba41-f86fa7298de1","system_id":"levelo_inurba_marseille","lat":43.30798,"lon":5.43517,"is_reserved":false,"is_disabled":false,"rental_uris":{"android":"levelo://app?vid=ad1dd68c-20a8-4cb1-ba41-f86fa7298de1","ios":"levelo://app?vid=ad1dd68c-20a8-4cb1-ba41-f86fa7298de1"},"vehicle_type_id":"4","last_reported":1745680123,"current_range_meters":14000,"station_id":"ce4bhph2rcd13ifvqheg","pricing_plan_id":"cebpf4jnsgd1na2vs0mg"},{"bike_id":"924426a3-8266-4276-a408-6c5000513151","system_id":"levelo_inurba_marseille","lat":43.25819,"lon":5.39442,"is_reserved":false,"is_disabled":false,"rental_uris":{"android":"levelo://app?vid=924426a3-8266-4276-a408-6c5000513151","ios":"levelo://app?vid=924426a3-8266-4276-a408-6c5000513151"},"vehicle_type_id":"4","last_reported":1745680123,"current_range_meters":14000,"station_id":"ce4bhip2rcd13ifvqft0","pricing_plan_id":"cebpf4jnsgd1na2vs0mg"},{"bike_id":"b5c90fbd-f3fc-4420-a679-ba8986b5a713","system_id":"levelo_inurba_marseille","lat":43.292969,"lon":5.376122,"is_reserved":false,"is_disabled":false,"rental_uris":{"android":"levelo://app?vid=b5c90fbd-f3fc-4420-a679-ba8986b5a713","ios":"levelo://app?vid=b5c90fbd-f3fc-4420-a679-ba8986b5a713"},"vehicle_type_id":"4","last_reported":1745680123,"current_range_meters":14000,"station_id":"ce4bh692rcd13ifvqea0","pricing_plan_id":"cebpf4jnsgd1na2vs0mg"},{"bike_id":"1e520cbc-be76-4365-89ad-71342175699b","system_id":"levelo_inurba_marseille","lat":43.2621,"lon":5.37442,"is_reserved":false,"is_disabled":false,"rental_uris":{"android":"levelo://app?vid=1e520cbc-be76-4365-89ad-71342175699b","ios":"levelo://app?vid=1e520cbc-be76-4365-89ad-71342175699b"},"vehicle_type_id":"4","last_reported":1745680123,"current_range_meters":14000,"station_id":"ce4bhgp2rcd13ifvqfc0","pricing_plan_id":"cebpf4jnsgd1na2vs0mg"},{"bike_id":"ebefa51e-1421-4d6a-a3c3-2ab4727a2f0f","system_id":"levelo_inurba_marseille","lat":43.26556,"lon":5.37282,"is_reserved":false,"is_disabled":false,"rental_uris":{"android":"levelo://app?vid=ebefa51e-1421-4d6a-a3c3-2ab4727a2f0f","ios":"levelo://app?vid=ebefa51e-1421-4d6a-a3c3-2ab4727a2f0f"},"vehicle_type_id":"4","last_reported":1745680123,"current_range_meters":14400,"station_id":"ce4bhg12rcd13ifvqf70","pricing_plan_id":"cebpf4jnsgd1na2vs0mg"},{"bike_id":"4046a82f-66e8-4b55-bd0a-356edea772d8","system_id":"levelo_inurba_marseille","lat":43.30795,"lon":5.3732,"is_reserved":false,"is_disabled":false,"rental_uris":{"android":"levelo://app?vid=4046a82f-66e8-4b55-bd0a-356edea772d8","ios":"levelo://app?vid=4046a82f-66e8-4b55-bd0a-356edea772d8"},"vehicle_type_id":"4","last_reported":1745680123,"current_range_meters":14400,"station_id":"","pricing_plan_id":"cebpf4jnsgd1na2vs0mg"},{"bike_id":"3d8519f8-6282-4333-86fd-b7d357aee91e","system_id":"levelo_inurba_marseille","lat":43.23201,"lon":5.35563,"is_reserved":false,"is_disabled":false,"rental_uris":{"android":"levelo://app?vid=3d8519f8-6282-4333-86fd-b7d357aee91e","ios":"levelo://app?vid=3d8519f8-6282-4333-86fd-b7d357aee91e"},"vehicle_type_id":"4","last_reported":1745680123,"current_range_meters":14400,"station_id":"ce4bhu92rcd13ifvqi70","pricing_plan_id":"cebpf4jnsgd1na2vs0mg"},{"bike_id":"d98ffb73-ab22-4d48-b42a-c0440ed9c9fa","system_id":"levelo_inurba_marseille","lat":43.29265,"lon":5.40898,"is_reserved":false,"is_disabled":false,"rental_uris":{"android":"levelo://app?vid=d98ffb73-ab22-4d48-b42a-c0440ed9c9fa","ios":"levelo://app?vid=d98ffb73-ab22-4d48-b42a-c0440ed9c9fa"},"vehicle_type_id":"4","last_reported":1745680123,"current_range_meters":14000,"station_id":"ce4bh192rcd13ifvqdc0","pricing_plan_id":"cebpf4jnsgd1na2vs0mg"},{"bike_id":"e00e0f29-1478-4902-bd2a-8db8ae66c179","system_id":"levelo_inurba_marseille","lat":43.30543,"lon":5.38416,"is_reserved":false,"is_disabled":false,"rental_uris":{"android":"levelo://app?vid=e00e0f29-1478-4902-bd2a-8db8ae66c179","ios":"levelo://app?vid=e00e0f29-1478-4902-bd2a-8db8ae66c179"},"vehicle_type_id":"4","last_reported":1745680123,"current_range_meters":14400,"station_id":"ce4bgg92rcd13ifvqb30","pricing_plan_id":"cebpf4jnsgd1na2vs0mg"},{"bike_id":"a0d26492-24b6-45f4-a3b8-5586683e4fc8","system_id":"levelo_inurba_marseille","lat":43.27392,"lon":5.36308,"is_reserved":false,"is_disabled":false,"rental_uris":{"android":"levelo://app?vid=a0d26492-24b6-45f4-a3b8-5586683e4fc8","ios":"levelo://app?vid=a0d26492-24b6-45f4-a3b8-5586683e4fc8"},"vehicle_type_id":"4","last_reported":1745680123,"current_range_meters":14400,"station_id":"ce4bhbh2rcd13ifvqeo0","pricing_plan_id":"cebpf4jnsgd1na2vs0mg"},{"bike_id":"995b3c75-842a-4f35-a681-74bd870769bb","system_id":"levelo_inurba_marseille","lat":43.30545,"lon":5.36536,"is_reserved":false,"is_disabled":false,"rental_uris":{"android":"levelo://app?vid=995b3c75-842a-4f35-a681-74bd870769bb","ios":"levelo://app?vid=995b3c75-842a-4f35-a681-74bd870769bb"},"vehicle_type_id":"4","last_reported":1745680123,"current_range_meters":14800,"station_id":"ce4bgs12rcd13ifvqcag","pricing_plan_id":"cebpf4jnsgd1na2vs0mg"},{"bike_id":"3ee52dd6-ee76-4da1-bbf0-da3ef76cb155","system_id":"levelo_inurba_marseille","lat":43.34695,"lon":5.34755,"is_reserved":false,"is_disabled":false,"rental_uris":{"android":"levelo://app?vid=3ee52dd6-ee76-4da1-bbf0-da3ef76cb155","ios":"levelo://app?vid=3ee52dd6-ee76-4da1-bbf0-da3ef76cb155"},"vehicle_type_id":"4","last_reported":1745680123,"current_range_meters":14800,"station_id":"","pricing_plan_id":"cebpf4jnsgd1na2vs0mg"},{"bike_id":"39926d7b-8a7d-456d-bde6-a6f35183b808","system_id":"levelo_inurba_marseille","lat":43.30481,"lon":5.37918,"is_reserved":false,"is_disabled":false,"rental_uris":{"android":"levelo://app?vid=39926d7b-8a7d-456d-bde6-a6f35183b808","ios":"levelo://app?vid=39926d7b-8a7d-456d-bde6-a6f35183b808"},"vehicle_type_id":"4","last_reported":1745680123,"current_range_meters":14800,"station_id":"ce4bgup2rcd13ifvqcn0","pricing_plan_id":"cebpf4jnsgd1na2vs0mg"},{"bike_id":"88121633-9ebd-41c8-a99e-1951c74d195e","system_id":"levelo_inurba_marseille","lat":43.23187,"lon":5.40011,"is_reserved":false,"is_disabled":false,"rental_uris":{"android":"levelo://app?vid=88121633-9ebd-41c8-a99e-1951c74d195e","ios":"levelo://app?vid=88121633-9ebd-41c8-a99e-1951c74d195e"},"vehicle_type_id":"4","last_reported":1745680123,"current_range_meters":14800,"station_id":"ce4bhn12rcd13ifvqgqg","pricing_plan_id":"cebpf4jnsgd1na2vs0mg"},{"bike_id":"1ea9d8dd-d245-4ac6-93f0-3699c832c5f7","system_id":"levelo_inurba_marseille","lat":43.27063,"lon":5.40251,"is_reserved":false,"is_disabled":false,"rental_uris":{"android":"levelo://app?vid=1ea9d8dd-d245-4ac6-93f0-3699c832c5f7","ios":"levelo://app?vid=1ea9d8dd-d245-4ac6-93f0-3699c832c5f7"},"vehicle_type_id":"4","last_reported":1745680123,"current_range_meters":15200,"station_id":"ce4bhk92rcd13ifvqgc0","pricing_plan_id":"cebpf4jnsgd1na2vs0mg"},{"bike_id":"943b767a-cf9c-4071-ae0a-e9171b38143b","system_id":"levelo_inurba_marseille","lat":43.23183,"lon":5.39991,"is_reserved":false,"is_disabled":false,"rental_uris":{"android":"levelo://app?vid=943b767a-cf9c-4071-ae0a-e9171b38143b","ios":"levelo://app?vid=943b767a-cf9c-4071-ae0a-e9171b38143b"},"vehicle_type_id":"4","last_reported":1745680123,"current_range_meters":15200,"station_id":"ce4bhn12rcd13ifvqgqg","pricing_plan_id":"cebpf4jnsgd1na2vs0mg"},{"bike_id":"c61a015a-3aea-4c8e-b045-673ad5c400fb","system_id":"levelo_inurba_marseille","lat":43.2417,"lon":5.36396,"is_reserved":false,"is_disabled":false,"rental_uris":{"android":"levelo://app?vid=c61a015a-3aea-4c8e-b045-673ad5c400fb","ios":"levelo://app?vid=c61a015a-3aea-4c8e-b045-673ad5c400fb"},"vehicle_type_id":"4","last_reported":1745680123,"current_range_meters":15200,"station_id":"cpo36qri1sfpv3e86is0","pricing_plan_id":"cebpf4jnsgd1na2vs0mg"},{"bike_id":"344f06de-dd8b-4591-a65a-a381a43f2707","system_id":"levelo_inurba_marseille","lat":43.30551,"lon":5.38432,"is_reserved":false,"is_disabled":false,"rental_uris":{"android":"levelo://app?vid=344f06de-dd8b-4591-a65a-a381a43f2707","ios":"levelo://app?vid=344f06de-dd8b-4591-a65a-a381a43f2707"},"vehicle_type_id":"4","last_reported":1745680123,"current_range_meters":15200,"station_id":"ce4bgg92rcd13ifvqb30","pricing_plan_id":"cebpf4jnsgd1na2vs0mg"},{"bike_id":"328d57a3-2c92-4abd-b90f-99d968bc0df3","system_id":"levelo_inurba_marseille","lat":43.248102,"lon":5.374573,"is_reserved":false,"is_disabled":false,"rental_uris":{"android":"levelo://app?vid=328d57a3-2c92-4abd-b90f-99d968bc0df3","ios":"levelo://app?vid=328d57a3-2c92-4abd-b90f-99d968bc0df3"},"vehicle_type_id":"4","last_reported":1745680123,"current_range_meters":15200,"station_id":"ce4bhgh2rcd13ifvqfb0","pricing_plan_id":"cebpf4jnsgd1na2vs0mg"},{"bike_id":"8c5aa527-9483-4c97-abc6-c3bcd51fabe6","system_id":"levelo_inurba_marseille","lat":43.30947,"lon":5.39027,"is_reserved":false,"is_disabled":false,"rental_uris":{"android":"levelo://app?vid=8c5aa527-9483-4c97-abc6-c3bcd51fabe6","ios":"levelo://app?vid=8c5aa527-9483-4c97-abc6-c3bcd51fabe6"},"vehicle_type_id":"4","last_reported":1745680123,"current_range_meters":16000,"station_id":"ce4bgup2rcd13ifvqco0","pricing_plan_id":"cebpf4jnsgd1na2vs0mg"},{"bike_id":"25013bb2-80c2-4fab-8300-f567f4995705","system_id":"levelo_inurba_marseille","lat":43.24086,"lon":5.37779,"is_reserved":false,"is_disabled":false,"rental_uris":{"android":"levelo://app?vid=25013bb2-80c2-4fab-8300-f567f4995705","ios":"levelo://app?vid=25013bb2-80c2-4fab-8300-f567f4995705"},"vehicle_type_id":"4","last_reported":1745680123,"current_range_meters":16000,"station_id":"ce4bhnp2rcd13ifvqgvg","pricing_plan_id":"cebpf4jnsgd1na2vs0mg"},{"bike_id":"356b76a1-af1a-4bef-951e-98e5b057a721","system_id":"levelo_inurba_marseille","lat":43.29258,"lon":5.38436,"is_reserved":false,"is_disabled":true,"rental_uris":{"android":"levelo://app?vid=356b76a1-af1a-4bef-951e-98e5b057a721","ios":"levelo://app?vid=356b76a1-af1a-4bef-951e-98e5b057a721"},"vehicle_type_id":"4","last_reported":1745680123,"current_range_meters":16000,"station_id":"ce4bh692rcd13ifvqea0","pricing_plan_id":"cebpf4jnsgd1na2vs0mg"},{"bike_id":"48cd06db-739b-43c6-8199-bd8aaaf3ba26","system_id":"levelo_inurba_marseille","lat":43.29847,"lon":5.36269,"is_reserved":false,"is_disabled":false,"rental_uris":{"android":"levelo://app?vid=48cd06db-739b-43c6-8199-bd8aaaf3ba26","ios":"levelo://app?vid=48cd06db-739b-43c6-8199-bd8aaaf3ba26"},"vehicle_type_id":"4","last_reported":1745680123,"current_range_meters":16000,"station_id":"ce4bgpp2rcd13ifvqc3g","pricing_plan_id":"cebpf4jnsgd1na2vs0mg"},{"bike_id":"70bf275c-582b-4597-b341-8d3e96c5360a","system_id":"levelo_inurba_marseille","lat":43.3051,"lon":5.3657,"is_reserved":false,"is_disabled":false,"rental_uris":{"android":"levelo://app?vid=70bf275c-582b-4597-b341-8d3e96c5360a","ios":"levelo://app?vid=70bf275c-582b-4597-b341-8d3e96c5360a"},"vehicle_type_id":"4","last_reported":1745680123,"current_range_meters":16400,"station_id":"","pricing_plan_id":"cebpf4jnsgd1na2vs0mg"},{"bike_id":"0053b840-de47-4900-98aa-cc8575176b05","system_id":"levelo_inurba_marseille","lat":43.24147,"lon":5.36411,"is_reserved":false,"is_disabled":true,"rental_uris":{"android":"levelo://app?vid=0053b840-de47-4900-98aa-cc8575176b05","ios":"levelo://app?vid=0053b840-de47-4900-98aa-cc8575176b05"},"vehicle_type_id":"4","last_reported":1745680123,"current_range_meters":16400,"station_id":"cpo36qri1sfpv3e86is0","pricing_plan_id":"cebpf4jnsgd1na2vs0mg"},{"bike_id":"84d9c958-11ff-4338-8745-9f681452de7d","system_id":"levelo_inurba_marseille","lat":43.30354,"lon":5.41876,"is_reserved":false,"is_disabled":false,"rental_uris":{"android":"levelo://app?vid=84d9c958-11ff-4338-8745-9f681452de7d","ios":"levelo://app?vid=84d9c958-11ff-4338-8745-9f681452de7d"},"vehicle_type_id":"4","last_reported":1745680123,"current_range_meters":16400,"station_id":"ce4bhop2rcd13ifvqh7g","pricing_plan_id":"cebpf4jnsgd1na2vs0mg"},{"bike_id":"a52e318d-8c25-4d0c-9310-8a872167d474","system_id":"levelo_inurba_marseille","lat":43.23156,"lon":5.43686,"is_reserved":false,"is_disabled":false,"rental_uris":{"android":"levelo://app?vid=a52e318d-8c25-4d0c-9310-8a872167d474","ios":"levelo://app?vid=a52e318d-8c25-4d0c-9310-8a872167d474"},"vehicle_type_id":"4","last_reported":1745680123,"current_range_meters":16400,"station_id":"ce4bhmp2rcd13ifvqgog","pricing_plan_id":"cebpf4jnsgd1na2vs0mg"},{"bike_id":"442cb962-c271-4b6c-9477-899b7b218d3c","system_id":"levelo_inurba_marseille","lat":43.28355,"lon":5.38112,"is_reserved":false,"is_disabled":false,"rental_uris":{"android":"levelo://app?vid=442cb962-c271-4b6c-9477-899b7b218d3c","ios":"levelo://app?vid=442cb962-c271-4b6c-9477-899b7b218d3c"},"vehicle_type_id":"4","last_reported":1745680123,"current_range_meters":16400,"station_id":"ce4bh412rcd13ifvqdr0","pricing_plan_id":"cebpf4jnsgd1na2vs0mg"},{"bike_id":"6126fdc0-91b2-4067-8533-6bcf7be070a6","system_id":"levelo_inurba_marseille","lat":43.30534,"lon":5.36545,"is_reserved":false,"is_disabled":false,"rental_uris":{"android":"levelo://app?vid=6126fdc0-91b2-4067-8533-6bcf7be070a6","ios":"levelo://app?vid=6126fdc0-91b2-4067-8533-6bcf7be070a6"},"vehicle_type_id":"4","last_reported":1745680123,"current_range_meters":16400,"station_id":"ce4bgs12rcd13ifvqcag","pricing_plan_id":"cebpf4jnsgd1na2vs0mg"},{"bike_id":"1c466bd2-9083-4c23-9c84-d3c77fd84431","system_id":"levelo_inurba_marseille","lat":43.28079,"lon":5.39664,"is_reserved":false,"is_disabled":false,"rental_uris":{"android":"levelo://app?vid=1c466bd2-9083-4c23-9c84-d3c77fd84431","ios":"levelo://app?vid=1c466bd2-9083-4c23-9c84-d3c77fd84431"},"vehicle_type_id":"4","last_reported":1745680123,"current_range_meters":16400,"station_id":"ce4bho12rcd13ifvqh2g","pricing_plan_id":"cebpf4jnsgd1na2vs0mg"},{"bike_id":"92e33dc3-646e-4560-9622-6b1b5b4f2b12","system_id":"levelo_inurba_marseille","lat":43.29785,"lon":5.37102,"is_reserved":false,"is_disabled":false,"rental_uris":{"android":"levelo://app?vid=92e33dc3-646e-4560-9622-6b1b5b4f2b12","ios":"levelo://app?vid=92e33dc3-646e-4560-9622-6b1b5b4f2b12"},"vehicle_type_id":"4","last_reported":1745680123,"current_range_meters":16400,"station_id":"ce4bgop2rcd13ifvqc1g","pricing_plan_id":"cebpf4jnsgd1na2vs0mg"},{"bike_id":"d663cf82-970f-4ada-81ed-45892a0011ad","system_id":"levelo_inurba_marseille","lat":43.26677,"lon":5.38268,"is_reserved":false,"is_disabled":false,"rental_uris":{"android":"levelo://app?vid=d663cf82-970f-4ada-81ed-45892a0011ad","ios":"levelo://app?vid=d663cf82-970f-4ada-81ed-45892a0011ad"},"vehicle_type_id":"4","last_reported":1745680123,"current_range_meters":16000,"station_id":"ce4bhg92rcd13ifvqf90","pricing_plan_id":"cebpf4jnsgd1na2vs0mg"},{"bike_id":"bd62916c-0d72-49d2-a875-119475942bec","system_id":"levelo_inurba_marseille","lat":43.31362,"lon":5.38492,"is_reserved":false,"is_disabled":false,"rental_uris":{"android":"levelo://app?vid=bd62916c-0d72-49d2-a875-119475942bec","ios":"levelo://app?vid=bd62916c-0d72-49d2-a875-119475942bec"},"vehicle_type_id":"4","last_reported":1745680123,"current_range_meters":16000,"station_id":"ce4bgt92rcd13ifvqcf0","pricing_plan_id":"cebpf4jnsgd1na2vs0mg"},{"bike_id":"50c147db-60be-4c88-a5f9-d3b77a033a6f","system_id":"levelo_inurba_marseille","lat":43.24112,"lon":5.37764,"is_reserved":false,"is_disabled":false,"rental_uris":{"android":"levelo://app?vid=50c147db-60be-4c88-a5f9-d3b77a033a6f","ios":"levelo://app?vid=50c147db-60be-4c88-a5f9-d3b77a033a6f"},"vehicle_type_id":"4","last_reported":1745680123,"current_range_meters":16400,"station_id":"ce4bhnp2rcd13ifvqgvg","pricing_plan_id":"cebpf4jnsgd1na2vs0mg"},{"bike_id":"d0d7e6e2-cfae-4f63-b676-9b779f78a3a8","system_id":"levelo_inurba_marseille","lat":43.22931,"lon":5.35372,"is_reserved":false,"is_disabled":false,"rental_uris":{"android":"levelo://app?vid=d0d7e6e2-cfae-4f63-b676-9b779f78a3a8","ios":"levelo://app?vid=d0d7e6e2-cfae-4f63-b676-9b779f78a3a8"},"vehicle_type_id":"4","last_reported":1745680123,"current_range_meters":16400,"station_id":"cpo3532slgdg3j2ikp40","pricing_plan_id":"cebpf4jnsgd1na2vs0mg"},{"bike_id":"ac621d79-d225-4594-aa3c-324d45205149","system_id":"levelo_inurba_marseille","lat":43.29955,"lon":5.41322,"is_reserved":false,"is_disabled":false,"rental_uris":{"android":"levelo://app?vid=ac621d79-d225-4594-aa3c-324d45205149","ios":"levelo://app?vid=ac621d79-d225-4594-aa3c-324d45205149"},"vehicle_type_id":"4","last_reported":1745680123,"current_range_meters":16400,"station_id":"ce4bhp12rcd13ifvqh9g","pricing_plan_id":"cebpf4jnsgd1na2vs0mg"},{"bike_id":"1545c628-78da-40c3-8c9e-23e80abea750","system_id":"levelo_inurba_marseille","lat":43.23143,"lon":5.43721,"is_reserved":false,"is_disabled":false,"rental_uris":{"android":"levelo://app?vid=1545c628-78da-40c3-8c9e-23e80abea750","ios":"levelo://app?vid=1545c628-78da-40c3-8c9e-23e80abea750"},"vehicle_type_id":"4","last_reported":1745680123,"current_range_meters":16800,"station_id":"ce4bhmp2rcd13ifvqgog","pricing_plan_id":"cebpf4jnsgd1na2vs0mg"},{"bike_id":"e95a1ffa-722d-4dcd-a1cf-0aa7aaabc7c4","system_id":"levelo_inurba_marseille","lat":43.29942,"lon":5.37961,"is_reserved":false,"is_disabled":false,"rental_uris":{"android":"levelo://app?vid=e95a1ffa-722d-4dcd-a1cf-0aa7aaabc7c4","ios":"levelo://app?vid=e95a1ffa-722d-4dcd-a1cf-0aa7aaabc7c4"},"vehicle_type_id":"4","last_reported":1745680123,"current_range_meters":16800,"station_id":"","pricing_plan_id":"cebpf4jnsgd1na2vs0mg"},{"bike_id":"8a957c8e-ad27-476e-9a0d-54dab61a55f2","system_id":"levelo_inurba_marseille","lat":43.24575,"lon":5.41578,"is_reserved":false,"is_disabled":false,"rental_uris":{"android":"levelo://app?vid=8a957c8e-ad27-476e-9a0d-54dab61a55f2","ios":"levelo://app?vid=8a957c8e-ad27-476e-9a0d-54dab61a55f2"},"vehicle_type_id":"4","last_reported":1745680123,"current_range_meters":16800,"station_id":"","pricing_plan_id":"cebpf4jnsgd1na2vs0mg"},{"bike_id":"314a7709-793a-4cd8-a4f0-aa8320fcf0cb","system_id":"levelo_inurba_marseille","lat":43.27502,"lon":5.42512,"is_reserved":false,"is_disabled":false,"rental_uris":{"android":"levelo://app?vid=314a7709-793a-4cd8-a4f0-aa8320fcf0cb","ios":"levelo://app?vid=314a7709-793a-4cd8-a4f0-aa8320fcf0cb"},"vehicle_type_id":"4","last_reported":1745680123,"current_range_meters":16800,"station_id":"ce4bhn92rcd13ifvqgrg","pricing_plan_id":"cebpf4jnsgd1na2vs0mg"},{"bike_id":"303b6be6-5f49-431b-9345-ad187445b596","system_id":"levelo_inurba_marseille","lat":43.27901,"lon":5.37994,"is_reserved":false,"is_disabled":false,"rental_uris":{"android":"levelo://app?vid=303b6be6-5f49-431b-9345-ad187445b596","ios":"levelo://app?vid=303b6be6-5f49-431b-9345-ad187445b596"},"vehicle_type_id":"4","last_reported":1745680123,"current_range_meters":16800,"station_id":"ce4bhf92rcd13ifvqf50","pricing_plan_id":"cebpf4jnsgd1na2vs0mg"},{"bike_id":"d4cfa8b4-21b2-4cd1-9979-a103bda94dc2","system_id":"levelo_inurba_marseille","lat":43.26947,"lon":5.38638,"is_reserved":false,"is_disabled":false,"rental_uris":{"android":"levelo://app?vid=d4cfa8b4-21b2-4cd1-9979-a103bda94dc2","ios":"levelo://app?vid=d4cfa8b4-21b2-4cd1-9979-a103bda94dc2"},"vehicle_type_id":"4","last_reported":1745680123,"current_range_meters":16400,"station_id":"ce4bhh92rcd13ifvqfh0","pricing_plan_id":"cebpf4jnsgd1na2vs0mg"},{"bike_id":"f0ec75ae-0f86-4b91-bb43-c5ec26c3498c","system_id":"levelo_inurba_marseille","lat":43.29868,"lon":5.39737,"is_reserved":false,"is_disabled":false,"rental_uris":{"android":"levelo://app?vid=f0ec75ae-0f86-4b91-bb43-c5ec26c3498c","ios":"levelo://app?vid=f0ec75ae-0f86-4b91-bb43-c5ec26c3498c"},"vehicle_type_id":"4","last_reported":1745680123,"current_range_meters":17200,"station_id":"ce4bh0h2rcd13ifvqd50","pricing_plan_id":"cebpf4jnsgd1na2vs0mg"},{"bike_id":"a08e6535-7d97-4f82-b424-5e6daf2d2362","system_id":"levelo_inurba_marseille","lat":43.29542,"lon":5.39387,"is_reserved":false,"is_disabled":true,"rental_uris":{"android":"levelo://app?vid=a08e6535-7d97-4f82-b424-5e6daf2d2362","ios":"levelo://app?vid=a08e6535-7d97-4f82-b424-5e6daf2d2362"},"vehicle_type_id":"4","last_reported":1745680123,"current_range_meters":17200,"station_id":"ce4bh292rcd13ifvqdf0","pricing_plan_id":"cebpf4jnsgd1na2vs0mg"},{"bike_id":"9de9d996-1620-4858-b125-d2c76650648e","system_id":"levelo_inurba_marseille","lat":43.26061,"lon":5.3755,"is_reserved":false,"is_disabled":false,"rental_uris":{"android":"levelo://app?vid=9de9d996-1620-4858-b125-d2c76650648e","ios":"levelo://app?vid=9de9d996-1620-4858-b125-d2c76650648e"},"vehicle_type_id":"4","last_reported":1745680123,"current_range_meters":17200,"station_id":"ce4bhgh2rcd13ifvqfa0","pricing_plan_id":"cebpf4jnsgd1na2vs0mg"},{"bike_id":"afd33670-82f7-4c5c-9029-2dc1c34e85e4","system_id":"levelo_inurba_marseille","lat":43.28758,"lon":5.39683,"is_reserved":false,"is_disabled":false,"rental_uris":{"android":"levelo://app?vid=afd33670-82f7-4c5c-9029-2dc1c34e85e4","ios":"levelo://app?vid=afd33670-82f7-4c5c-9029-2dc1c34e85e4"},"vehicle_type_id":"4","last_reported":1745680123,"current_range_meters":17200,"station_id":"","pricing_plan_id":"cebpf4jnsgd1na2vs0mg"},{"bike_id":"a27cac39-f793-4a24-9e04-fd1edefc7edc","system_id":"levelo_inurba_marseille","lat":43.29009,"lon":5.3561,"is_reserved":false,"is_disabled":false,"rental_uris":{"android":"levelo://app?vid=a27cac39-f793-4a24-9e04-fd1edefc7edc","ios":"levelo://app?vid=a27cac39-f793-4a24-9e04-fd1edefc7edc"},"vehicle_type_id":"4","last_reported":1745680123,"current_range_meters":17200,"station_id":"ce4bhb92rcd13ifvqen0","pricing_plan_id":"cebpf4jnsgd1na2vs0mg"},{"bike_id":"086697e6-4b20-4c42-8e6a-7429c031d21c","system_id":"levelo_inurba_marseille","lat":43.23194,"lon":5.35563,"is_reserved":false,"is_disabled":false,"rental_uris":{"android":"levelo://app?vid=086697e6-4b20-4c42-8e6a-7429c031d21c","ios":"levelo://app?vid=086697e6-4b20-4c42-8e6a-7429c031d21c"},"vehicle_type_id":"4","last_reported":1745680123,"current_range_meters":17200,"station_id":"ce4bhu92rcd13ifvqi70","pricing_plan_id":"cebpf4jnsgd1na2vs0mg"},{"bike_id":"127900f2-8e5c-4b23-89a9-4d15e4c66919","system_id":"levelo_inurba_marseille","lat":43.2315,"lon":5.43724,"is_reserved":false,"is_disabled":false,"rental_uris":{"android":"levelo://app?vid=127900f2-8e5c-4b23-89a9-4d15e4c66919","ios":"levelo://app?vid=127900f2-8e5c-4b23-89a9-4d15e4c66919"},"vehicle_type_id":"4","last_reported":1745680123,"current_range_meters":17600,"station_id":"ce4bhmp2rcd13ifvqgog","pricing_plan_id":"cebpf4jnsgd1na2vs0mg"},{"bike_id":"39be4719-9424-4809-a4ae-1fd88fc28531","system_id":"levelo_inurba_marseille","lat":43.24655,"lon":5.38893,"is_reserved":false,"is_disabled":false,"rental_uris":{"android":"levelo://app?vid=39be4719-9424-4809-a4ae-1fd88fc28531","ios":"levelo://app?vid=39be4719-9424-4809-a4ae-1fd88fc28531"},"vehicle_type_id":"4","last_reported":1745680123,"current_range_meters":17600,"station_id":"ce4bhg12rcd13ifvqf60","pricing_plan_id":"cebpf4jnsgd1na2vs0mg"},{"bike_id":"602434a1-39cf-4f7a-8ae1-3a71ed801030","system_id":"levelo_inurba_marseille","lat":43.27373,"lon":5.36265,"is_reserved":false,"is_disabled":false,"rental_uris":{"android":"levelo://app?vid=602434a1-39cf-4f7a-8ae1-3a71ed801030","ios":"levelo://app?vid=602434a1-39cf-4f7a-8ae1-3a71ed801030"},"vehicle_type_id":"4","last_reported":1745680123,"current_range_meters":17600,"station_id":"ce4bhbh2rcd13ifvqeo0","pricing_plan_id":"cebpf4jnsgd1na2vs0mg"},{"bike_id":"fdc66931-0a08-4e77-ab37-624791ccc3c2","system_id":"levelo_inurba_marseille","lat":43.30466,"lon":5.37917,"is_reserved":false,"is_disabled":false,"rental_uris":{"android":"levelo://app?vid=fdc66931-0a08-4e77-ab37-624791ccc3c2","ios":"levelo://app?vid=fdc66931-0a08-4e77-ab37-624791ccc3c2"},"vehicle_type_id":"4","last_reported":1745680123,"current_range_meters":17600,"station_id":"ce4bgup2rcd13ifvqcn0","pricing_plan_id":"cebpf4jnsgd1na2vs0mg"},{"bike_id":"6e2d9382-da02-4fb7-b209-2f80ce287f30","system_id":"levelo_inurba_marseille","lat":43.29875,"lon":5.39721,"is_reserved":false,"is_disabled":false,"rental_uris":{"android":"levelo://app?vid=6e2d9382-da02-4fb7-b209-2f80ce287f30","ios":"levelo://app?vid=6e2d9382-da02-4fb7-b209-2f80ce287f30"},"vehicle_type_id":"4","last_reported":1745680123,"current_range_meters":17600,"station_id":"ce4bh0h2rcd13ifvqd50","pricing_plan_id":"cebpf4jnsgd1na2vs0mg"},{"bike_id":"e6486816-92b4-4ef0-9445-443e011d5268","system_id":"levelo_inurba_marseille","lat":43.30478,"lon":5.37935,"is_reserved":false,"is_disabled":false,"rental_uris":{"android":"levelo://app?vid=e6486816-92b4-4ef0-9445-443e011d5268","ios":"levelo://app?vid=e6486816-92b4-4ef0-9445-443e011d5268"},"vehicle_type_id":"4","last_reported":1745680123,"current_range_meters":17600,"station_id":"ce4bgup2rcd13ifvqcn0","pricing_plan_id":"cebpf4jnsgd1na2vs0mg"},{"bike_id":"560f12bb-1614-4d7c-b78e-ccf5bdec9ea6","system_id":"levelo_inurba_marseille","lat":43.28489,"lon":5.35919,"is_reserved":false,"is_disabled":true,"rental_uris":{"android":"levelo://app?vid=560f12bb-1614-4d7c-b78e-ccf5bdec9ea6","ios":"levelo://app?vid=560f12bb-1614-4d7c-b78e-ccf5bdec9ea6"},"vehicle_type_id":"4","last_reported":1745680123,"current_range_meters":17600,"station_id":"","pricing_plan_id":"cebpf4jnsgd1na2vs0mg"},{"bike_id":"00d79805-5f16-4c52-b8e5-e3976abd7e93","system_id":"levelo_inurba_marseille","lat":43.28612,"lon":5.37059,"is_reserved":false,"is_disabled":false,"rental_uris":{"android":"levelo://app?vid=00d79805-5f16-4c52-b8e5-e3976abd7e93","ios":"levelo://app?vid=00d79805-5f16-4c52-b8e5-e3976abd7e93"},"vehicle_type_id":"4","last_reported":1745680123,"current_range_meters":18000,"station_id":"ce4bht12rcd13ifvqi60","pricing_plan_id":"cebpf4jnsgd1na2vs0mg"},{"bike_id":"7bd87b63-c3e8-4ae9-be84-a200fbdcbf25","system_id":"levelo_inurba_marseille","lat":43.24815,"lon":5.37452,"is_reserved":false,"is_disabled":false,"rental_uris":{"android":"levelo://app?vid=7bd87b63-c3e8-4ae9-be84-a200fbdcbf25","ios":"levelo://app?vid=7bd87b63-c3e8-4ae9-be84-a200fbdcbf25"},"vehicle_type_id":"4","last_reported":1745680123,"current_range_meters":18000,"station_id":"ce4bhgh2rcd13ifvqfb0","pricing_plan_id":"cebpf4jnsgd1na2vs0mg"},{"bike_id":"b00ae42f-8734-4cca-98f7-e81cb2ffe510","system_id":"levelo_inurba_marseille","lat":43.29269,"lon":5.38439,"is_reserved":false,"is_disabled":false,"rental_uris":{"android":"levelo://app?vid=b00ae42f-8734-4cca-98f7-e81cb2ffe510","ios":"levelo://app?vid=b00ae42f-8734-4cca-98f7-e81cb2ffe510"},"vehicle_type_id":"4","last_reported":1745680123,"current_range_meters":18800,"station_id":"ce4bh692rcd13ifvqea0","pricing_plan_id":"cebpf4jnsgd1na2vs0mg"},{"bike_id":"c3d73529-864f-43ce-8d6f-351c48160c99","system_id":"levelo_inurba_marseille","lat":43.27995,"lon":5.40036,"is_reserved":false,"is_disabled":false,"rental_uris":{"android":"levelo://app?vid=c3d73529-864f-43ce-8d6f-351c48160c99","ios":"levelo://app?vid=c3d73529-864f-43ce-8d6f-351c48160c99"},"vehicle_type_id":"4","last_reported":1745680123,"current_range_meters":18800,"station_id":"ce4bho92rcd13ifvqh4g","pricing_plan_id":"cebpf4jnsgd1na2vs0mg"},{"bike_id":"6e688ff1-bbc0-4450-b4cb-24afb315b114","system_id":"levelo_inurba_marseille","lat":43.2901,"lon":5.35619,"is_reserved":false,"is_disabled":false,"rental_uris":{"android":"levelo://app?vid=6e688ff1-bbc0-4450-b4cb-24afb315b114","ios":"levelo://app?vid=6e688ff1-bbc0-4450-b4cb-24afb315b114"},"vehicle_type_id":"4","last_reported":1745680123,"current_range_meters":18800,"station_id":"ce4bhb92rcd13ifvqen0","pricing_plan_id":"cebpf4jnsgd1na2vs0mg"},{"bike_id":"c2afd97f-df2b-4bbd-a07b-2b7b9d12cbfb","system_id":"levelo_inurba_marseille","lat":43.29492,"lon":5.39563,"is_reserved":false,"is_disabled":false,"rental_uris":{"android":"levelo://app?vid=c2afd97f-df2b-4bbd-a07b-2b7b9d12cbfb","ios":"levelo://app?vid=c2afd97f-df2b-4bbd-a07b-2b7b9d12cbfb"},"vehicle_type_id":"4","last_reported":1745680123,"current_range_meters":18800,"station_id":"","pricing_plan_id":"cebpf4jnsgd1na2vs0mg"},{"bike_id":"9400eaf0-9994-4b35-85ce-22818c9143cc","system_id":"levelo_inurba_marseille","lat":43.24169,"lon":5.36421,"is_reserved":false,"is_disabled":false,"rental_uris":{"android":"levelo://app?vid=9400eaf0-9994-4b35-85ce-22818c9143cc","ios":"levelo://app?vid=9400eaf0-9994-4b35-85ce-22818c9143cc"},"vehicle_type_id":"4","last_reported":1745680123,"current_range_meters":18800,"station_id":"cpo36qri1sfpv3e86is0","pricing_plan_id":"cebpf4jnsgd1na2vs0mg"},{"bike_id":"57ebd52c-bbc8-4a4d-8d80-2da8f6250dbd","system_id":"levelo_inurba_marseille","lat":43.27818,"lon":5.40724,"is_reserved":false,"is_disabled":true,"rental_uris":{"android":"levelo://app?vid=57ebd52c-bbc8-4a4d-8d80-2da8f6250dbd","ios":"levelo://app?vid=57ebd52c-bbc8-4a4d-8d80-2da8f6250dbd"},"vehicle_type_id":"4","last_reported":1745680123,"current_range_meters":18800,"station_id":"ce4bhnh2rcd13ifvqgtg","pricing_plan_id":"cebpf4jnsgd1na2vs0mg"},{"bike_id":"4180cc3c-1d06-46b7-8130-58d944626cc2","system_id":"levelo_inurba_marseille","lat":43.29976,"lon":5.37178,"is_reserved":false,"is_disabled":false,"rental_uris":{"android":"levelo://app?vid=4180cc3c-1d06-46b7-8130-58d944626cc2","ios":"levelo://app?vid=4180cc3c-1d06-46b7-8130-58d944626cc2"},"vehicle_type_id":"4","last_reported":1745680123,"current_range_meters":18800,"station_id":"ce4bgr92rcd13ifvqc7g","pricing_plan_id":"cebpf4jnsgd1na2vs0mg"},{"bike_id":"aee254f1-2f46-4f03-8aba-114ec38eee2b","system_id":"levelo_inurba_marseille","lat":43.292241,"lon":5.360659,"is_reserved":false,"is_disabled":false,"rental_uris":{"android":"levelo://app?vid=aee254f1-2f46-4f03-8aba-114ec38eee2b","ios":"levelo://app?vid=aee254f1-2f46-4f03-8aba-114ec38eee2b"},"vehicle_type_id":"4","last_reported":1745680123,"current_range_meters":18800,"station_id":"ce4bhbh2rcd13ifvqeqg","pricing_plan_id":"cebpf4jnsgd1na2vs0mg"},{"bike_id":"0d777af5-4166-475a-a6b9-6a0197032592","system_id":"levelo_inurba_marseille","lat":43.23258,"lon":5.35242,"is_reserved":false,"is_disabled":false,"rental_uris":{"android":"levelo://app?vid=0d777af5-4166-475a-a6b9-6a0197032592","ios":"levelo://app?vid=0d777af5-4166-475a-a6b9-6a0197032592"},"vehicle_type_id":"4","last_reported":1745680123,"current_range_meters":19200,"station_id":"","pricing_plan_id":"cebpf4jnsgd1na2vs0mg"},{"bike_id":"7ab23f3c-9c07-4a41-a40f-6c682044aa3d","system_id":"levelo_inurba_marseille","lat":43.29933,"lon":5.36533,"is_reserved":false,"is_disabled":false,"rental_uris":{"android":"levelo://app?vid=7ab23f3c-9c07-4a41-a40f-6c682044aa3d","ios":"levelo://app?vid=7ab23f3c-9c07-4a41-a40f-6c682044aa3d"},"vehicle_type_id":"4","last_reported":1745680123,"current_range_meters":19200,"station_id":"ce4bgm92rcd13ifvqbr0","pricing_plan_id":"cebpf4jnsgd1na2vs0mg"},{"bike_id":"ac4c4173-35f2-480f-a156-1e96630b45e8","system_id":"levelo_inurba_marseille","lat":43.24066,"lon":5.37753,"is_reserved":false,"is_disabled":false,"rental_uris":{"android":"levelo://app?vid=ac4c4173-35f2-480f-a156-1e96630b45e8","ios":"levelo://app?vid=ac4c4173-35f2-480f-a156-1e96630b45e8"},"vehicle_type_id":"4","last_reported":1745680123,"current_range_meters":19200,"station_id":"ce4bhnp2rcd13ifvqgvg","pricing_plan_id":"cebpf4jnsgd1na2vs0mg"},