{"last_updated":1687756068,"ttl":30,"version":"2.2","data":{"bikes":[{"bike_id":"0b6ff1ee-d95b-4ba1-916f-60788cbd236b","system_id":"levelo_inurba_marseille","lat":43.31341,"lon":5.367098,"is_reserved":false,"is_disabled":false,"rental_uris":{"android":"levelo://app?vid=0b6ff1ee-d95b-4ba1-916f-60788cbd236b","ios":"levelo://app?vid=0b6ff1ee-d95b-4ba1-916f-60788cbd236b"},"vehicle_type_id":"4","last_reported":1687756069,"current_range_meters":27600,"station_id":"ce4bgr92rcd13ifvqc6g","pricing_plan_id":"free"},{"bike_id":"0bcfe379-1efa-4d8e-8cb1-a0940c2394a5","system_id":"levelo_inurba_marseille","lat":43.313391,"lon":5.36706,"is_reserved":false,"is_disabled":false,"rental_uris":{"android":"levelo://app?vid=0bcfe379-1efa-4d8e-8cb1-a0940c2394a5","ios":"levelo://app?vid=0bcfe379-1efa-4d8e-8cb1-a0940c2394a5"},"vehicle_type_id":"4","last_reported":1687756069,"current_range_meters":28800,"station_id":"ce4bgr92rcd13ifvqc6g","pricing_plan_id":"free"},{"bike_id":"07d63f0e-9c14-4918-9f6a-0f09c910822e","system_id":"levelo_inurba_marseille","lat":43.312239,"lon":5.368562,"is_reserved":false,"is_disabled":false,"rental_uris":{"android":"levelo://app?vid=07d63f0e-9c14-4918-9f6a-0f09c910822e","ios":"levelo://app?vid=07d63f0e-9c14-4918-9f6a-0f09c910822e"},"vehicle_type_id":"4","last_reported":1687756069,"current_range_meters":13600,"station_id":"ce4bgl92rcd13ifvqbq0","pricing_plan_id":"free"},{"bike_id":"f8f49d27-0e38-45ec-91a6-eb11ea8088e6","system_id":"levelo_inurba_marseille","lat":43.312239,"lon":5.368562,"is_reserved":false,"is_disabled":false,"rental_uris":{"android":"levelo://app?vid=f8f49d27-0e38-45ec-91a6-eb11ea8088e6","ios":"levelo://app?vid=f8f49d27-0e38-45ec-91a6-eb11ea8088e6"},"vehicle_type_id":"4","last_reported":1687756069,"current_range_meters":30400,"station_id":"ce4bgl92rcd13ifvqbq0","pricing_plan_id":"free"},{"bike_id":"3b5b1104-287a-41d9-8c32-9d4ec3f29bc2","system_id":"levelo_inurba_marseille","lat":43.312239,"lon":5.368562,"is_reserved":false,"is_disabled":false,"rental_uris":{"android":"levelo://app?vid=3b5b1104-287a-41d9-8c32-9d4ec3f29bc2","ios":"levelo://app?vid=3b5b1104-287a-41d9-8c32-9d4ec3f29bc2"},"vehicle_type_id":"4","last_reported":1687756069,"current_range_meters":25600,"station_id":"ce4bgl92rcd13ifvqbq0","pricing_plan_id":"free"},{"bike_id":"eb98b716-7990-489b-91bb-31e589f247fe","system_id":"levelo_inurba_marseille","lat":43.312239,"lon":5.368562,"is_reserved":false,"is_disabled":false,"rental_uris":{"android":"levelo://app?vid=eb98b716-7990-489b-91bb-31e589f247fe","ios":"levelo://app?vid=eb98b716-7990-489b-91bb-31e589f247fe"},"vehicle_type_id":"4","last_reported":1687756069,"current_range_meters":31200,"station_id":"ce4bgl92rcd13ifvqbq0","pricing_plan_id":"free"},{"bike_id":"2e6a5939-6f82-450d-8840-7d119f39c2d1","system_id":"levelo_inurba_marseille","lat":43.31237,"lon":5.36922,"is_reserved":false,"is_disabled":false,"rental_uris":{"android":"levelo://app?vid=2e6a5939-6f82-450d-8840-7d119f39c2d1","ios":"levelo://app?vid=2e6a5939-6f82-450d-8840-7d119f39c2d1"},"vehicle_type_id":"4","last_reported":1687756069,"current_range_meters":17600,"station_id":"","pricing_plan_id":"free"},{"bike_id":"2c34d321-408f-42c2-b816-f52a7d5ba983","system_id":"levelo_inurba_marseille","lat":43.309076,"lon":5.368465,"is_reserved":false,"is_disabled":false,"rental_uris":{"android":"levelo://app?vid=2c34d321-408f-42c2-b816-f52a7d5ba983","ios":"levelo://app?vid=2c34d321-408f-42c2-b816-f52a7d5ba983"},"vehicle_type_id":"4","last_reported":1687756069,"current_range_meters":27200,"station_id":"ce4bgn92rcd13ifvqbvg","pricing_plan_id":"free"},{"bike_id":"1aaf2698-b834-4671-ae2e-e68975e9a3ac","system_id":"levelo_inurba_marseille","lat":43.30907,"lon":5.36846,"is_reserved":false,"is_disabled":false,"rental_uris":{"android":"levelo://app?vid=1aaf2698-b834-4671-ae2e-e68975e9a3ac","ios":"levelo://app?vid=1aaf2698-b834-4671-ae2e-e68975e9a3ac"},"vehicle_type_id":"4","last_reported":1687756069,"current_range_meters":27200,"station_id":"ce4bgn92rcd13ifvqbvg","pricing_plan_id":"free"},{"bike_id":"f00dd3ac-1945-4a5c-8f4d-a20ea6cf44d1","system_id":"levelo_inurba_marseille","lat":43.30903,"lon":5.36853,"is_reserved":false,"is_disabled":false,"rental_uris":{"android":"levelo://app?vid=f00dd3ac-1945-4a5c-8f4d-a20ea6cf44d1","ios":"levelo://app?vid=f00dd3ac-1945-4a5c-8f4d-a20ea6cf44d1"},"vehicle_type_id":"4","last_reported":1687756069,"current_range_meters":28800,"station_id":"ce4bgn92rcd13ifvqbvg","pricing_plan_id":"free"},{"bike_id":"4a0a9fbe-f4a9-448d-8904-3d519b5a8e03","system_id":"levelo_inurba_marseille","lat":43.314811,"lon":5.373103,"is_reserved":false,"is_disabled":false,"rental_uris":{"android":"levelo://app?vid=4a0a9fbe-f4a9-448d-8904-3d519b5a8e03","ios":"levelo://app?vid=4a0a9fbe-f4a9-448d-8904-3d519b5a8e03"},"vehicle_type_id":"4","last_reported":1687756069,"current_range_meters":31200,"station_id":"ce4bgt12rcd13ifvqcd0","pricing_plan_id":"free"},{"bike_id":"ba40d5f5-5ff3-40eb-81ad-82dd0cc0ca14","system_id":"levelo_inurba_marseille","lat":43.314811,"lon":5.373104,"is_reserved":false,"is_disabled":false,"rental_uris":{"android":"levelo://app?vid=ba40d5f5-5ff3-40eb-81ad-82dd0cc0ca14","ios":"levelo://app?vid=ba40d5f5-5ff3-40eb-81ad-82dd0cc0ca14"},"vehicle_type_id":"4","last_reported":1687756069,"current_range_meters":31200,"station_id":"ce4bgt12rcd13ifvqcd0","pricing_plan_id":"free"},{"bike_id":"0c4d2340-7be2-41f2-9457-9093f611916d","system_id":"levelo_inurba_marseille","lat":43.314811,"lon":5.373103,"is_reserved":false,"is_disabled":false,"rental_uris":{"android":"levelo://app?vid=0c4d2340-7be2-41f2-9457-9093f611916d","ios":"levelo://app?vid=0c4d2340-7be2-41f2-9457-9093f611916d"},"vehicle_type_id":"4","last_reported":1687756069,"current_range_meters":29600,"station_id":"ce4bgt12rcd13ifvqcd0","pricing_plan_id":"free"},{"bike_id":"fbc8b818-fa67-4b57-9cac-d3b3d662201d","system_id":"levelo_inurba_marseille","lat":43.305368,"lon":5.367343,"is_reserved":false,"is_disabled":false,"rental_uris":{"android":"levelo://app?vid=fbc8b818-fa67-4b57-9cac-d3b3d662201d","ios":"levelo://app?vid=fbc8b818-fa67-4b57-9cac-d3b3d662201d"},"vehicle_type_id":"4","last_reported":1687756069,"current_range_meters":27200,"station_id":"ce4bgrp2rcd13ifvqc9g","pricing_plan_id":"free"},{"bike_id":"fcacb6af-8451-4362-ad68-e836c608405a","system_id":"levelo_inurba_marseille","lat":43.305368,"lon":5.367343,"is_reserved":false,"is_disabled":false,"rental_uris":{"android":"levelo://app?vid=fcacb6af-8451-4362-ad68-e836c608405a","ios":"levelo://app?vid=fcacb6af-8451-4362-ad68-e836c608405a"},"vehicle_type_id":"4","last_reported":1687756069,"current_range_meters":3600,"station_id":"ce4bgrp2rcd13ifvqc9g","pricing_plan_id":"free"},{"bike_id":"1ccca58a-676d-42e1-be5a-74a7aea72173","system_id":"levelo_inurba_marseille","lat":43.305368,"lon":5.367343,"is_reserved":false,"is_disabled":false,"rental_uris":{"android":"levelo://app?vid=1ccca58a-676d-42e1-be5a-74a7aea72173","ios":"levelo://app?vid=1ccca58a-676d-42e1-be5a-74a7aea72173"},"vehicle_type_id":"4","last_reported":1687756069,"current_range_meters":15200,"station_id":"ce4bgrp2rcd13ifvqc9g","pricing_plan_id":"free"},{"bike_id":"d2bff929-1586-4bb7-b5d0-4d70f27a9aa2","system_id":"levelo_inurba_marseille","lat":43.305368,"lon":5.367343,"is_reserved":false,"is_disabled":false,"rental_uris":{"android":"levelo://app?vid=d2bff929-1586-4bb7-b5d0-4d70f27a9aa2","ios":"levelo://app?vid=d2bff929-1586-4bb7-b5d0-4d70f27a9aa2"},"vehicle_type_id":"4","last_reported":1687756069,"current_range_meters":3200,"station_id":"ce4bgrp2rcd13ifvqc9g","pricing_plan_id":"free"},{"bike_id":"ec27c196-b732-413f-88b4-2e22ff173038","system_id":"levelo_inurba_marseille","lat":43.305706,"lon":5.365654,"is_reserved":false,"is_disabled":false,"rental_uris":{"android":"levelo://app?vid=ec27c196-b732-413f-88b4-2e22ff173038","ios":"levelo://app?vid=ec27c196-b732-413f-88b4-2e22ff173038"},"vehicle_type_id":"4","last_reported":1687756069,"current_range_meters":28400,"station_id":"ce4bgs12rcd13ifvqcag","pricing_plan_id":"free"},{"bike_id":"1f475743-4858-49a5-88fb-ef573b761d63","system_id":"levelo_inurba_marseille","lat":43.311125,"lon":5.377624,"is_reserved":false,"is_disabled":false,"rental_uris":{"android":"levelo://app?vid=1f475743-4858-49a5-88fb-ef573b761d63","ios":"levelo://app?vid=1f475743-4858-49a5-88fb-ef573b761d63"},"vehicle_type_id":"4","last_reported":1687756069,"current_range_meters":31200,"station_id":"ce4bgt92rcd13ifvqcg0","pricing_plan_id":"free"},{"bike_id":"f206f1bd-2289-4e8d-9f01-b741dd55c19b","system_id":"levelo_inurba_marseille","lat":43.311131,"lon":5.377651,"is_reserved":false,"is_disabled":false,"rental_uris":{"android":"levelo://app?vid=f206f1bd-2289-4e8d-9f01-b741dd55c19b","ios":"levelo://app?vid=f206f1bd-2289-4e8d-9f01-b741dd55c19b"},"vehicle_type_id":"4","last_reported":1687756069,"current_range_meters":31200,"station_id":"ce4bgt92rcd13ifvqcg0","pricing_plan_id":"free"},{"bike_id":"e605edc0-a209-429c-bf00-66bfcdb1ada6","system_id":"levelo_inurba_marseille","lat":43.311131,"lon":5.377651,"is_reserved":false,"is_disabled":false,"rental_uris":{"android":"levelo://app?vid=e605edc0-a209-429c-bf00-66bfcdb1ada6","ios":"levelo://app?vid=e605edc0-a209-429c-bf00-66bfcdb1ada6"},"vehicle_type_id":"4","last_reported":1687756069,"current_range_meters":31200,"station_id":"ce4bgt92rcd13ifvqcg0","pricing_plan_id":"free"},{"bike_id":"2621e017-558d-458a-91c7-e898762b09ff","system_id":"levelo_inurba_marseille","lat":43.311131,"lon":5.377651,"is_reserved":false,"is_disabled":false,"rental_uris":{"android":"levelo://app?vid=2621e017-558d-458a-91c7-e898762b09ff","ios":"levelo://app?vid=2621e017-558d-458a-91c7-e898762b09ff"},"vehicle_type_id":"4","last_reported":1687756069,"current_range_meters":24000,"station_id":"ce4bgt92rcd13ifvqcg0","pricing_plan_id":"free"},{"bike_id":"e6d7c914-d8b8-43ad-8c5a-a235c76b1ad7","system_id":"levelo_inurba_marseille","lat":43.311131,"lon":5.377651,"is_reserved":false,"is_disabled":false,"rental_uris":{"android":"levelo://app?vid=e6d7c914-d8b8-43ad-8c5a-a235c76b1ad7","ios":"levelo://app?vid=e6d7c914-d8b8-43ad-8c5a-a235c76b1ad7"},"vehicle_type_id":"4","last_reported":1687756069,"current_range_meters":28400,"station_id":"ce4bgt92rcd13ifvqcg0","pricing_plan_id":"free"},{"bike_id":"ca04c187-f5e0-4829-813e-d7b92476eb9c","system_id":"levelo_inurba_marseille","lat":43.311131,"lon":5.377651,"is_reserved":false,"is_disabled":false,"rental_uris":{"android":"levelo://app?vid=ca04c187-f5e0-4829-813e-d7b92476eb9c","ios":"levelo://app?vid=ca04c187-f5e0-4829-813e-d7b92476eb9c"},"vehicle_type_id":"4","last_reported":1687756069,"current_range_meters":1200,"station_id":"ce4bgt92rcd13ifvqcg0","pricing_plan_id":"free"},{"bike_id":"150652a2-6c2d-45db-9e0d-7e982e89b0bb","system_id":"levelo_inurba_marseille","lat":43.311125,"lon":5.377624,"is_reserved":false,"is_disabled":false,"rental_uris":{"android":"levelo://app?vid=150652a2-6c2d-45db-9e0d-7e982e89b0bb","ios":"levelo://app?vid=150652a2-6c2d-45db-9e0d-7e982e89b0bb"},"vehicle_type_id":"4","last_reported":1687756069,"current_range_meters":19600,"station_id":"ce4bgt92rcd13ifvqcg0","pricing_plan_id":"free"},{"bike_id":"3d94bb9d-2dc2-496c-92b1-64a902c8c01f","system_id":"levelo_inurba_marseille","lat":43.317075,"lon":5.377367,"is_reserved":false,"is_disabled":false,"rental_uris":{"android":"levelo://app?vid=3d94bb9d-2dc2-496c-92b1-64a902c8c01f","ios":"levelo://app?vid=3d94bb9d-2dc2-496c-92b1-64a902c8c01f"},"vehicle_type_id":"4","last_reported":1687756069,"current_range_meters":30800,"station_id":"ce4bgth2rcd13ifvqch0","pricing_plan_id":"free"},{"bike_id":"98680256-4421-4b07-9d99-2e9f3acc14a5","system_id":"levelo_inurba_marseille","lat":43.303046,"lon":5.368981,"is_reserved":false,"is_disabled":false,"rental_uris":{"android":"levelo://app?vid=98680256-4421-4b07-9d99-2e9f3acc14a5","ios":"levelo://app?vid=98680256-4421-4b07-9d99-2e9f3acc14a5"},"vehicle_type_id":"4","last_reported":1687756069,"current_range_meters":31200,"station_id":"ce4bgqh2rcd13ifvqc5g","pricing_plan_id":"free"},{"bike_id":"7bf5e8ee-15e3-4ad5-aabd-1c9e06018583","system_id":"levelo_inurba_marseille","lat":43.303046,"lon":5.368981,"is_reserved":false,"is_disabled":false,"rental_uris":{"android":"levelo://app?vid=7bf5e8ee-15e3-4ad5-aabd-1c9e06018583","ios":"levelo://app?vid=7bf5e8ee-15e3-4ad5-aabd-1c9e06018583"},"vehicle_type_id":"4","last_reported":1687756069,"current_range_meters":10400,"station_id":"ce4bgqh2rcd13ifvqc5g","pricing_plan_id":"free"},{"bike_id":"2e53edcb-7a79-4ac5-a230-b398a933ea9e","system_id":"levelo_inurba_marseille","lat":43.303046,"lon":5.368981,"is_reserved":false,"is_disabled":false,"rental_uris":{"android":"levelo://app?vid=2e53edcb-7a79-4ac5-a230-b398a933ea9e","ios":"levelo://app?vid=2e53edcb-7a79-4ac5-a230-b398a933ea9e"},"vehicle_type_id":"4","last_reported":1687756069,"current_range_meters":30400,"station_id":"ce4bgqh2rcd13ifvqc5g","pricing_plan_id":"free"},{"bike_id":"952eb3d2-b09a-4153-8dbe-b6c1a31dbf23","system_id":"levelo_inurba_marseille","lat":43.303046,"lon":5.368981,"is_reserved":false,"is_disabled":false,"rental_uris":{"android":"levelo://app?vid=952eb3d2-b09a-4153-8dbe-b6c1a31dbf23","ios":"levelo://app?vid=952eb3d2-b09a-4153-8dbe-b6c1a31dbf23"},"vehicle_type_id":"4","last_reported":1687756069,"current_range_meters":31200,"station_id":"ce4bgqh2rcd13ifvqc5g","pricing_plan_id":"free"},{"bike_id":"708b7446-5001-4766-9e6c-5ef85b8fb228","system_id":"levelo_inurba_marseille","lat":43.315293,"lon":5.380349,"is_reserved":false,"is_disabled":false,"rental_uris":{"android":"levelo://app?vid=708b7446-5001-4766-9e6c-5ef85b8fb228","ios":"levelo://app?vid=708b7446-5001-4766-9e6c-5ef85b8fb228"},"vehicle_type_id":"4","last_reported":1687756069,"current_range_meters":31200,"station_id":"ce4bhsp2rcd13ifvqi50","pricing_plan_id":"free"},{"bike_id":"4b2f0658-8ca5-4a73-b916-cdf680458010","system_id":"levelo_inurba_marseille","lat":43.315293,"lon":5.380349,"is_reserved":false,"is_disabled":false,"rental_uris":{"android":"levelo://app?vid=4b2f0658-8ca5-4a73-b916-cdf680458010","ios":"levelo://app?vid=4b2f0658-8ca5-4a73-b916-cdf680458010"},"vehicle_type_id":"4","last_reported":1687756069,"current_range_meters":11600,"station_id":"ce4bhsp2rcd13ifvqi50","pricing_plan_id":"free"},{"bike_id":"bda3eb18-9589-4d10-bc70-19f19186e762","system_id":"levelo_inurba_marseille","lat":43.315293,"lon":5.380349,"is_reserved":false,"is_disabled":false,"rental_uris":{"android":"levelo://app?vid=bda3eb18-9589-4d10-bc70-19f19186e762","ios":"levelo://app?vid=bda3eb18-9589-4d10-bc70-19f19186e762"},"vehicle_type_id":"4","last_reported":1687756069,"current_range_meters":17600,"station_id":"ce4bhsp2rcd13ifvqi50","pricing_plan_id":"free"},{"bike_id":"5887664d-c4c8-43a4-8f4b-bab2402dba9b","system_id":"levelo_inurba_marseille","lat":43.315293,"lon":5.380349,"is_reserved":false,"is_disabled":false,"rental_uris":{"android":"levelo://app?vid=5887664d-c4c8-43a4-8f4b-bab2402dba9b","ios":"levelo://app?vid=5887664d-c4c8-43a4-8f4b-bab2402dba9b"},"vehicle_type_id":"4","last_reported":1687756069,"current_range_meters":17600,"station_id":"ce4bhsp2rcd13ifvqi50","pricing_plan_id":"free"},{"bike_id":"c2e523aa-84a1-4795-bf3a-e5de7e50f217","system_id":"levelo_inurba_marseille","lat":43.315293,"lon":5.380349,"is_reserved":false,"is_disabled":false,"rental_uris":{"android":"levelo://app?vid=c2e523aa-84a1-4795-bf3a-e5de7e50f217","ios":"levelo://app?vid=c2e523aa-84a1-4795-bf3a-e5de7e50f217"},"vehicle_type_id":"4","last_reported":1687756069,"current_range_meters":28000,"station_id":"ce4bhsp2rcd13ifvqi50","pricing_plan_id":"free"},{"bike_id":"d82dc065-eadb-45e4-b927-5d830eb828b3","system_id":"levelo_inurba_marseille","lat":43.315293,"lon":5.380349,"is_reserved":false,"is_disabled":false,"rental_uris":{"android":"levelo://app?vid=d82dc065-eadb-45e4-b927-5d830eb828b3","ios":"levelo://app?vid=d82dc065-eadb-45e4-b927-5d830eb828b3"},"vehicle_type_id":"4","last_reported":1687756069,"current_range_meters":31200,"station_id":"ce4bhsp2rcd13ifvqi50","pricing_plan_id":"free"},{"bike_id":"d0a035ba-611c-4a31-9c14-aa95dfa96ae0","system_id":"levelo_inurba_marseille","lat":43.315293,"lon":5.380349,"is_reserved":false,"is_disabled":false,"rental_uris":{"android":"levelo://app?vid=d0a035ba-611c-4a31-9c14-aa95dfa96ae0","ios":"levelo://app?vid=d0a035ba-611c-4a31-9c14-aa95dfa96ae0"},"vehicle_type_id":"4","last_reported":1687756069,"current_range_meters":24800,"station_id":"ce4bhsp2rcd13ifvqi50","pricing_plan_id":"free"},{"bike_id":"96eb104a-dbdf-4261-96aa-58578b790bc8","system_id":"levelo_inurba_marseille","lat":43.315293,"lon":5.380349,"is_reserved":false,"is_disabled":false,"rental_uris":{"android":"levelo://app?vid=96eb104a-dbdf-4261-96aa-58578b790bc8","ios":"levelo://app?vid=96eb104a-dbdf-4261-96aa-58578b790bc8"},"vehicle_type_id":"4","last_reported":1687756069,"current_range_meters":23600,"station_id":"ce4bhsp2rcd13ifvqi50","pricing_plan_id":"free"},{"bike_id":"0b3a595f-e364-4a9c-bed9-7b29e0182973","system_id":"levelo_inurba_marseille","lat":43.31545,"lon":5.38031,"is_reserved":false,"is_disabled":false,"rental_uris":{"android":"levelo://app?vid=0b3a595f-e364-4a9c-bed9-7b29e0182973","ios":"levelo://app?vid=0b3a595f-e364-4a9c-bed9-7b29e0182973"},"vehicle_type_id":"4","last_reported":1687756069,"current_range_meters":7200,"station_id":"ce4bhsp2rcd13ifvqi50","pricing_plan_id":"free"},{"bike_id":"4fd5be37-41da-4acc-a9e7-f845c6cee45c","system_id":"levelo_inurba_marseille","lat":43.31527,"lon":5.38038,"is_reserved":false,"is_disabled":false,"rental_uris":{"android":"levelo://app?vid=4fd5be37-41da-4acc-a9e7-f845c6cee45c","ios":"levelo://app?vid=4fd5be37-41da-4acc-a9e7-f845c6cee45c"},"vehicle_type_id":"4","last_reported":1687756069,"current_range_meters":9200,"station_id":"ce4bhsp2rcd13ifvqi50","pricing_plan_id":"free"},{"bike_id":"ba6b99af-42b5-424e-a277-60033aa2123c","system_id":"levelo_inurba_marseille","lat":43.31536,"lon":5.38039,"is_reserved":false,"is_disabled":false,"rental_uris":{"android":"levelo://app?vid=ba6b99af-42b5-424e-a277-60033aa2123c","ios":"levelo://app?vid=ba6b99af-42b5-424e-a277-60033aa2123c"},"vehicle_type_id":"4","last_reported":1687756069,"current_range_meters":30400,"station_id":"ce4bhsp2rcd13ifvqi50","pricing_plan_id":"free"},{"bike_id":"8576c04e-58c0-4d76-aea2-11937630880f","system_id":"levelo_inurba_marseille","lat":43.301939,"lon":5.366286,"is_reserved":false,"is_disabled":false,"rental_uris":{"android":"levelo://app?vid=8576c04e-58c0-4d76-aea2-11937630880f","ios":"levelo://app?vid=8576c04e-58c0-4d76-aea2-11937630880f"},"vehicle_type_id":"4","last_reported":1687756069,"current_range_meters":20800,"station_id":"ce4bgrh2rcd13ifvqc8g","pricing_plan_id":"free"},{"bike_id":"74901467-c02c-45d6-8094-517b1b50e1cd","system_id":"levelo_inurba_marseille","lat":43.301939,"lon":5.366286,"is_reserved":false,"is_disabled":false,"rental_uris":{"android":"levelo://app?vid=74901467-c02c-45d6-8094-517b1b50e1cd","ios":"levelo://app?vid=74901467-c02c-45d6-8094-517b1b50e1cd"},"vehicle_type_id":"4","last_reported":1687756069,"current_range_meters":30000,"station_id":"ce4bgrh2rcd13ifvqc8g","pricing_plan_id":"free"},{"bike_id":"0187cae0-4116-4268-ab43-ed6616f74cdc","system_id":"levelo_inurba_marseille","lat":43.301939,"lon":5.366286,"is_reserved":false,"is_disabled":false,"rental_uris":{"android":"levelo://app?vid=0187cae0-4116-4268-ab43-ed6616f74cdc","ios":"levelo://app?vid=0187cae0-4116-4268-ab43-ed6616f74cdc"},"vehicle_type_id":"4","last_reported":1687756069,"current_range_meters":7600,"station_id":"ce4bgrh2rcd13ifvqc8g","pricing_plan_id":"free"},{"bike_id":"be154d81-6611-4522-8a06-71acb6b7e871","system_id":"levelo_inurba_marseille","lat":43.301939,"lon":5.366286,"is_reserved":false,"is_disabled":false,"rental_uris":{"android":"levelo://app?vid=be154d81-6611-4522-8a06-71acb6b7e871","ios":"levelo://app?vid=be154d81-6611-4522-8a06-71acb6b7e871"},"vehicle_type_id":"4","last_reported":1687756069,"current_range_meters":18400,"station_id":"ce4bgrh2rcd13ifvqc8g","pricing_plan_id":"free"},{"bike_id":"521e7ec7-ee27-47a6-93d4-7dbab8815ee7","system_id":"levelo_inurba_marseille","lat":43.301939,"lon":5.366286,"is_reserved":false,"is_disabled":false,"rental_uris":{"android":"levelo://app?vid=521e7ec7-ee27-47a6-93d4-7dbab8815ee7","ios":"levelo://app?vid=521e7ec7-ee27-47a6-93d4-7dbab8815ee7"},"vehicle_type_id":"4","last_reported":1687756069,"current_range_meters":29600,"station_id":"ce4bgrh2rcd13ifvqc8g","pricing_plan_id":"free"},{"bike_id":"92d72554-99cb-45a5-8789-83066f48300d","system_id":"levelo_inurba_marseille","lat":43.30798,"lon":5.3815,"is_reserved":false,"is_disabled":false,"rental_uris":{"android":"levelo://app?vid=92d72554-99cb-45a5-8789-83066f48300d","ios":"levelo://app?vid=92d72554-99cb-45a5-8789-83066f48300d"},"vehicle_type_id":"4","last_reported":1687756069,"current_range_meters":30800,"station_id":"ce4bgt12rcd13ifvqce0","pricing_plan_id":"free"},{"bike_id":"7961c058-6bbf-43fe-9e62-f3ba9264f471","system_id":"levelo_inurba_marseille","lat":43.30217,"lon":5.37403,"is_reserved":false,"is_disabled":false,"rental_uris":{"android":"levelo://app?vid=7961c058-6bbf-43fe-9e62-f3ba9264f471","ios":"levelo://app?vid=7961c058-6bbf-43fe-9e62-f3ba9264f471"},"vehicle_type_id":"4","last_reported":1687756069,"current_range_meters":2000,"station_id":"","pricing_plan_id":"free"},{"bike_id":"794dd90e-a88a-4fdc-ba19-794c5480b830","system_id":"levelo_inurba_marseille","lat":43.304606,"lon":5.379026,"is_reserved":false,"is_disabled":false,"rental_uris":{"android":"levelo://app?vid=794dd90e-a88a-4fdc-ba19-794c5480b830","ios":"levelo://app?vid=794dd90e-a88a-4fdc-ba19-794c5480b830"},"vehicle_type_id":"4","last_reported":1687756069,"current_range_meters":22800,"station_id":"ce4bgup2rcd13ifvqcn0","pricing_plan_id":"free"},{"bike_id":"e0fbcdfb-89c4-44ae-a02a-b1f17a823def","system_id":"levelo_inurba_marseille","lat":43.304606,"lon":5.379026,"is_reserved":false,"is_disabled":false,"rental_uris":{"android":"levelo://app?vid=e0fbcdfb-89c4-44ae-a02a-b1f17a823def","ios":"levelo://app?vid=e0fbcdfb-89c4-44ae-a02a-b1f17a823def"},"vehicle_type_id":"4","last_reported":1687756069,"current_range_meters":15600,"station_id":"ce4bgup2rcd13ifvqcn0","pricing_plan_id":"free"},{"bike_id":"28935269-c41f-47fc-a7c8-0c62e687dce0","system_id":"levelo_inurba_marseille","lat":43.304606,"lon":5.379026,"is_reserved":false,"is_disabled":false,"rental_uris":{"android":"levelo://app?vid=28935269-c41f-47fc-a7c8-0c62e687dce0","ios":"levelo://app?vid=28935269-c41f-47fc-a7c8-0c62e687dce0"},"vehicle_type_id":"4","last_reported":1687756069,"current_range_meters":19600,"station_id":"ce4bgup2rcd13ifvqcn0","pricing_plan_id":"free"},{"bike_id":"ce6d5303-b807-496a-b7f0-dd5ae76cf1a8","system_id":"levelo_inurba_marseille","lat":43.304606,"lon":5.379026,"is_reserved":false,"is_disabled":false,"rental_uris":{"android":"levelo://app?vid=ce6d5303-b807-496a-b7f0-dd5ae76cf1a8","ios":"levelo://app?vid=ce6d5303-b807-496a-b7f0-dd5ae76cf1a8"},"vehicle_type_id":"4","last_reported":1687756069,"current_range_meters":31200,"station_id":"ce4bgup2rcd13ifvqcn0","pricing_plan_id":"free"},{"bike_id":"97f5ae2f-4023-4ea7-b209-e8cae9bd9fe1","system_id":"levelo_inurba_marseille","lat":43.304606,"lon":5.379026,"is_reserved":false,"is_disabled":false,"rental_uris":{"android":"levelo://app?vid=97f5ae2f-4023-4ea7-b209-e8cae9bd9fe1","ios":"levelo://app?vid=97f5ae2f-4023-4ea7-b209-e8cae9bd9fe1"},"vehicle_type_id":"4","last_reported":1687756069,"current_range_meters":31200,"station_id":"ce4bgup2rcd13ifvqcn0","pricing_plan_id":"free"},{"bike_id":"dfea8ecc-5c97-412b-bcc8-cb22c2c6297f","system_id":"levelo_inurba_marseille","lat":43.304606,"lon":5.379026,"is_reserved":false,"is_disabled":false,"rental_uris":{"android":"levelo://app?vid=dfea8ecc-5c97-412b-bcc8-cb22c2c6297f","ios":"levelo://app?vid=dfea8ecc-5c97-412b-bcc8-cb22c2c6297f"},"vehicle_type_id":"4","last_reported":1687756069,"current_range_meters":22000,"station_id":"ce4bgup2rcd13ifvqcn0","pricing_plan_id":"free"},{"bike_id":"d9b7fe51-6a67-4dfe-a857-934ebdebe60c","system_id":"levelo_inurba_marseille","lat":43.304606,"lon":5.379026,"is_reserved":false,"is_disabled":false,"rental_uris":{"android":"levelo://app?vid=d9b7fe51-6a67-4dfe-a857-934ebdebe60c","ios":"levelo://app?vid=d9b7fe51-6a67-4dfe-a857-934ebdebe60c"},"vehicle_type_id":"4","last_reported":1687756069,"current_range_meters":31200,"station_id":"ce4bgup2rcd13ifvqcn0","pricing_plan_id":"free"},{"bike_id":"71b45d86-4f12-4a8f-88d4-2d46ba39a438","system_id":"levelo_inurba_marseille","lat":43.304606,"lon":5.379026,"is_reserved":false,"is_disabled":false,"rental_uris":{"android":"levelo://app?vid=71b45d86-4f12-4a8f-88d4-2d46ba39a438","ios":"levelo://app?vid=71b45d86-4f12-4a8f-88d4-2d46ba39a438"},"vehicle_type_id":"4","last_reported":1687756069,"current_range_meters":31600,"station_id":"ce4bgup2rcd13ifvqcn0","pricing_plan_id":"free"},{"bike_id":"053cf6cf-c54d-4581-83ed-27387f20f407","system_id":"levelo_inurba_marseille","lat":43.304606,"lon":5.379026,"is_reserved":false,"is_disabled":false,"rental_uris":{"android":"levelo://app?vid=053cf6cf-c54d-4581-83ed-27387f20f407","ios":"levelo://app?vid=053cf6cf-c54d-4581-83ed-27387f20f407"},"vehicle_type_id":"4","last_reported":1687756069,"current_range_meters":31200,"station_id":"ce4bgup2rcd13ifvqcn0","pricing_plan_id":"free"},{"bike_id":"5fd5f5a2-1020-443b-86cf-d5568f6d6515","system_id":"levelo_inurba_marseille","lat":43.304606,"lon":5.379026,"is_reserved":false,"is_disabled":false,"rental_uris":{"android":"levelo://app?vid=5fd5f5a2-1020-443b-86cf-d5568f6d6515","ios":"levelo://app?vid=5fd5f5a2-1020-443b-86cf-d5568f6d6515"},"vehicle_type_id":"4","last_reported":1687756069,"current_range_meters":30800,"station_id":"ce4bgup2rcd13ifvqcn0","pricing_plan_id":"free"},{"bike_id":"a96dbab3-ef2c-4046-a327-2d1bcc2dab88","system_id":"levelo_inurba_marseille","lat":43.304606,"lon":5.379026,"is_reserved":false,"is_disabled":false,"rental_uris":{"android":"levelo://app?vid=a96dbab3-ef2c-4046-a327-2d1bcc2dab88","ios":"levelo://app?vid=a96dbab3-ef2c-4046-a327-2d1bcc2dab88"},"vehicle_type_id":"4","last_reported":1687756069,"current_range_meters":14000,"station_id":"ce4bgup2rcd13ifvqcn0","pricing_plan_id":"free"},{"bike_id":"90bb5cd5-09e0-49cc-9133-385e2a3ba367","system_id":"levelo_inurba_marseille","lat":43.304606,"lon":5.379026,"is_reserved":false,"is_disabled":false,"rental_uris":{"android":"levelo://app?vid=90bb5cd5-09e0-49cc-9133-385e2a3ba367","ios":"levelo://app?vid=90bb5cd5-09e0-49cc-9133-385e2a3ba367"},"vehicle_type_id":"4","last_reported":1687756069,"current_range_meters":31200,"station_id":"ce4bgup2rcd13ifvqcn0","pricing_plan_id":"free"},{"bike_id":"e1f9ab3c-3a61-4e04-9af0-adabfd5465bc","system_id":"levelo_inurba_marseille","lat":43.304606,"lon":5.379026,"is_reserved":false,"is_disabled":false,"rental_uris":{"android":"levelo://app?vid=e1f9ab3c-3a61-4e04-9af0-adabfd5465bc","ios":"levelo://app?vid=e1f9ab3c-3a61-4e04-9af0-adabfd5465bc"},"vehicle_type_id":"4","last_reported":1687756069,"current_range_meters":22000,"station_id":"ce4bgup2rcd13ifvqcn0","pricing_plan_id":"free"},{"bike_id":"d0e31c21-3bf2-4224-a084-43c5c60ae856","system_id":"levelo_inurba_marseille","lat":43.304606,"lon":5.379026,"is_reserved":false,"is_disabled":false,"rental_uris":{"android":"levelo://app?vid=d0e31c21-3bf2-4224-a084-43c5c60ae856","ios":"levelo://app?vid=d0e31c21-3bf2-4224-a084-43c5c60ae856"},"vehicle_type_id":"4","last_reported":1687756069,"current_range_meters":31200,"station_id":"ce4bgup2rcd13ifvqcn0","pricing_plan_id":"free"},{"bike_id":"a06823db-25a1-4b2f-8019-92076d5a5a53","system_id":"levelo_inurba_marseille","lat":43.304606,"lon":5.379026,"is_reserved":false,"is_disabled":false,"rental_uris":{"android":"levelo://app?vid=a06823db-25a1-4b2f-8019-92076d5a5a53","ios":"levelo://app?vid=a06823db-25a1-4b2f-8019-92076d5a5a53"},"vehicle_type_id":"4","last_reported":1687756069,"current_range_meters":31200,"station_id":"ce4bgup2rcd13ifvqcn0","pricing_plan_id":"free"},{"bike_id":"bb22689f-83c6-4a90-ba57-91ecc2e683e9","system_id":"levelo_inurba_marseille","lat":43.304606,"lon":5.379026,"is_reserved":false,"is_disabled":false,"rental_uris":{"android":"levelo://app?vid=bb22689f-83c6-4a90-ba57-91ecc2e683e9","ios":"levelo://app?vid=bb22689f-83c6-4a90-ba57-91ecc2e683e9"},"vehicle_type_id":"4","last_reported":1687756069,"current_range_meters":30000,"station_id":"ce4bgup2rcd13ifvqcn0","pricing_plan_id":"free"},{"bike_id":"f1762e3e-b82a-4bf3-a2c3-3d63e070e8c6","system_id":"levelo_inurba_marseille","lat":43.304606,"lon":5.379026,"is_reserved":false,"is_disabled":false,"rental_uris":{"android":"levelo://app?vid=f1762e3e-b82a-4bf3-a2c3-3d63e070e8c6","ios":"levelo://app?vid=f1762e3e-b82a-4bf3-a2c3-3d63e070e8c6"},"vehicle_type_id":"4","last_reported":1687756069,"current_range_meters":26400,"station_id":"ce4bgup2rcd13ifvqcn0","pricing_plan_id":"free"},{"bike_id":"4f7fc781-288f-48ab-a97d-ffd4e5c737aa","system_id":"levelo_inurba_marseille","lat":43.304606,"lon":5.379026,"is_reserved":false,"is_disabled":false,"rental_uris":{"android":"levelo://app?vid=4f7fc781-288f-48ab-a97d-ffd4e5c737aa","ios":"levelo://app?vid=4f7fc781-288f-48ab-a97d-ffd4e5c737aa"},"vehicle_type_id":"4","last_reported":1687756069,"current_range_meters":22000,"station_id":"ce4bgup2rcd13ifvqcn0","pricing_plan_id":"free"},{"bike_id":"26d6711c-01ff-4b10-be5b-45860baad4cc","system_id":"levelo_inurba_marseille","lat":43.304606,"lon":5.379026,"is_reserved":false,"is_disabled":false,"rental_uris":{"android":"levelo://app?vid=26d6711c-01ff-4b10-be5b-45860baad4cc","ios":"levelo://app?vid=26d6711c-01ff-4b10-be5b-45860baad4cc"},"vehicle_type_id":"4","last_reported":1687756069,"current_range_meters":26400,"station_id":"ce4bgup2rcd13ifvqcn0","pricing_plan_id":"free"},{"bike_id":"1e98a45e-5bcc-4bbd-a9c7-4dc896215b01","system_id":"levelo_inurba_marseille","lat":43.304606,"lon":5.379026,"is_reserved":false,"is_disabled":false,"rental_uris":{"android":"levelo://app?vid=1e98a45e-5bcc-4bbd-a9c7-4dc896215b01","ios":"levelo://app?vid=1e98a45e-5bcc-4bbd-a9c7-4dc896215b01"},"vehicle_type_id":"4","last_reported":1687756069,"current_range_meters":24000,"station_id":"ce4bgup2rcd13ifvqcn0","pricing_plan_id":"free"},{"bike_id":"a6c8bc47-1f97-4bc9-9d4f-b5b3ad62551e","system_id":"levelo_inurba_marseille","lat":43.304606,"lon":5.379026,"is_reserved":false,"is_disabled":false,"rental_uris":{"android":"levelo://app?vid=a6c8bc47-1f97-4bc9-9d4f-b5b3ad62551e","ios":"levelo://app?vid=a6c8bc47-1f97-4bc9-9d4f-b5b3ad62551e"},"vehicle_type_id":"4","last_reported":1687756069,"current_range_meters":30000,"station_id":"ce4bgup2rcd13ifvqcn0","pricing_plan_id":"free"},{"bike_id":"cddef7b0-51b3-4433-a2b1-950aee15a53b","system_id":"levelo_inurba_marseille","lat":43.304606,"lon":5.379026,"is_reserved":false,"is_disabled":false,"rental_uris":{"android":"levelo://app?vid=cddef7b0-51b3-4433-a2b1-950aee15a53b","ios":"levelo://app?vid=cddef7b0-51b3-4433-a2b1-950aee15a53b"},"vehicle_type_id":"4","last_reported":1687756069,"current_range_meters":29600,"station_id":"ce4bgup2rcd13ifvqcn0","pricing_plan_id":"free"},{"bike_id":"eea22f0d-1f40-44cc-a952-7da19a8a0089","system_id":"levelo_inurba_marseille","lat":43.304606,"lon":5.379026,"is_reserved":false,"is_disabled":false,"rental_uris":{"android":"levelo://app?vid=eea22f0d-1f40-44cc-a952-7da19a8a0089","ios":"levelo://app?vid=eea22f0d-1f40-44cc-a952-7da19a8a0089"},"vehicle_type_id":"4","last_reported":1687756069,"current_range_meters":19200,"station_id":"ce4bgup2rcd13ifvqcn0","pricing_plan_id":"free"},{"bike_id":"35602643-ea00-4320-b2a5-16dcf0529faa","system_id":"levelo_inurba_marseille","lat":43.304606,"lon":5.379026,"is_reserved":false,"is_disabled":false,"rental_uris":{"android":"levelo://app?vid=35602643-ea00-4320-b2a5-16dcf0529faa","ios":"levelo://app?vid=35602643-ea00-4320-b2a5-16dcf0529faa"},"vehicle_type_id":"4","last_reported":1687756069,"current_range_meters":24800,"station_id":"ce4bgup2rcd13ifvqcn0","pricing_plan_id":"free"},{"bike_id":"a4ca2915-e093-4005-8ba4-8b71952ce054","system_id":"levelo_inurba_marseille","lat":43.304606,"lon":5.379026,"is_reserved":false,"is_disabled":false,"rental_uris":{"android":"levelo://app?vid=a4ca2915-e093-4005-8ba4-8b71952ce054","ios":"levelo://app?vid=a4ca2915-e093-4005-8ba4-8b71952ce054"},"vehicle_type_id":"4","last_reported":1687756069,"current_range_meters":30400,"station_id":"ce4bgup2rcd13ifvqcn0","pricing_plan_id":"free"},{"bike_id":"ef100a47-ac0e-4ea9-b89b-1690cade4a26","system_id":"levelo_inurba_marseille","lat":43.304606,"lon":5.379026,"is_reserved":false,"is_disabled":false,"rental_uris":{"android":"levelo://app?vid=ef100a47-ac0e-4ea9-b89b-1690cade4a26","ios":"levelo://app?vid=ef100a47-ac0e-4ea9-b89b-1690cade4a26"},"vehicle_type_id":"4","last_reported":1687756069,"current_range_meters":30800,"station_id":"ce4bgup2rcd13ifvqcn0","pricing_plan_id":"free"},{"bike_id":"bec6f70d-ff2f-4f5d-9c2e-a2cda9e5b814","system_id":"levelo_inurba_marseille","lat":43.304606,"lon":5.379026,"is_reserved":false,"is_disabled":false,"rental_uris":{"android":"levelo://app?vid=bec6f70d-ff2f-4f5d-9c2e-a2cda9e5b814","ios":"levelo://app?vid=bec6f70d-ff2f-4f5d-9c2e-a2cda9e5b814"},"vehicle_type_id":"4","last_reported":1687756069,"current_range_meters":31200,"station_id":"ce4bgup2rcd13ifvqcn0","pricing_plan_id":"free"},{"bike_id":"89cb4be3-a406-467e-b9eb-cbe079e43a73","system_id":"levelo_inurba_marseille","lat":43.304606,"lon":5.379026,"is_reserved":false,"is_disabled":false,"rental_uris":{"android":"levelo://app?vid=89cb4be3-a406-467e-b9eb-cbe079e43a73","ios":"levelo://app?vid=89cb4be3-a406-467e-b9eb-cbe079e43a73"},"vehicle_type_id":"4","last_reported":1687756069,"current_range_meters":13600,"station_id":"ce4bgup2rcd13ifvqcn0","pricing_plan_id":"free"},{"bike_id":"22f8ee53-70af-4664-b362-9dd1f6e379ea","system_id":"levelo_inurba_marseille","lat":43.304606,"lon":5.379026,"is_reserved":false,"is_disabled":false,"rental_uris":{"android":"levelo://app?vid=22f8ee53-70af-4664-b362-9dd1f6e379ea","ios":"levelo://app?vid=22f8ee53-70af-4664-b362-9dd1f6e379ea"},"vehicle_type_id":"4","last_reported":1687756069,"current_range_meters":14400,"station_id":"ce4bgup2rcd13ifvqcn0","pricing_plan_id":"free"},{"bike_id":"25990b5d-433c-4dbf-88c2-fada30c219bd","system_id":"levelo_inurba_marseille","lat":43.302784,"lon":5.377158,"is_reserved":false,"is_disabled":false,"rental_uris":{"android":"levelo://app?vid=25990b5d-433c-4dbf-88c2-fada30c219bd","ios":"levelo://app?vid=25990b5d-433c-4dbf-88c2-fada30c219bd"},"vehicle_type_id":"4","last_reported":1687756069,"current_range_meters":28800,"station_id":"ce4bguh2rcd13ifvqcj0","pricing_plan_id":"free"},{"bike_id":"cc963213-b62d-4ca2-a140-865bd279a26e","system_id":"levelo_inurba_marseille","lat":43.301429,"lon":5.37413,"is_reserved":false,"is_disabled":false,"rental_uris":{"android":"levelo://app?vid=cc963213-b62d-4ca2-a140-865bd279a26e","ios":"levelo://app?vid=cc963213-b62d-4ca2-a140-865bd279a26e"},"vehicle_type_id":"4","last_reported":1687756069,"current_range_meters":31200,"station_id":"ce4bgs92rcd13ifvqcc0","pricing_plan_id":"free"},{"bike_id":"a9d771e0-fcae-4382-9ba3-1e488829334f","system_id":"levelo_inurba_marseille","lat":43.30143,"lon":5.37413,"is_reserved":false,"is_disabled":false,"rental_uris":{"android":"levelo://app?vid=a9d771e0-fcae-4382-9ba3-1e488829334f","ios":"levelo://app?vid=a9d771e0-fcae-4382-9ba3-1e488829334f"},"vehicle_type_id":"4","last_reported":1687756069,"current_range_meters":0,"station_id":"ce4bgs92rcd13ifvqcc0","pricing_plan_id":"free"},{"bike_id":"e5564a1b-7eaa-42d7-9eac-0b69cc97b61e","system_id":"levelo_inurba_marseille","lat":43.319935,"lon":5.381699,"is_reserved":false,"is_disabled":false,"rental_uris":{"android":"levelo://app?vid=e5564a1b-7eaa-42d7-9eac-0b69cc97b61e","ios":"levelo://app?vid=e5564a1b-7eaa-42d7-9eac-0b69cc97b61e"},"vehicle_type_id":"4","last_reported":1687756069,"current_range_meters":12400,"station_id":"ce4bhr12rcd13ifvqhpg","pricing_plan_id":"free"},{"bike_id":"e38717ae-c7f5-4ce6-854c-e3e79116dd3b","system_id":"levelo_inurba_marseille","lat":43.31996,"lon":5.38151,"is_reserved":false,"is_disabled":false,"rental_uris":{"android":"levelo://app?vid=e38717ae-c7f5-4ce6-854c-e3e79116dd3b","ios":"levelo://app?vid=e38717ae-c7f5-4ce6-854c-e3e79116dd3b"},"vehicle_type_id":"4","last_reported":1687756069,"current_range_meters":4000,"station_id":"ce4bhr12rcd13ifvqhpg","pricing_plan_id":"free"},{"bike_id":"39aa6b74-1448-4de8-9326-cbc6c72a7294","system_id":"levelo_inurba_marseille","lat":43.319935,"lon":5.381699,"is_reserved":false,"is_disabled":false,"rental_uris":{"android":"levelo://app?vid=39aa6b74-1448-4de8-9326-cbc6c72a7294","ios":"levelo://app?vid=39aa6b74-1448-4de8-9326-cbc6c72a7294"},"vehicle_type_id":"4","last_reported":1687756069,"current_range_meters":30800,"station_id":"ce4bhr12rcd13ifvqhpg","pricing_plan_id":"free"},{"bike_id":"9fb2af00-a3bb-4d59-9a9c-bf6fb58d47f0","system_id":"levelo_inurba_marseille","lat":43.319935,"lon":5.381699,"is_reserved":false,"is_disabled":false,"rental_uris":{"android":"levelo://app?vid=9fb2af00-a3bb-4d59-9a9c-bf6fb58d47f0","ios":"levelo://app?vid=9fb2af00-a3bb-4d59-9a9c-bf6fb58d47f0"},"vehicle_type_id":"4","last_reported":1687756069,"current_range_meters":26800,"station_id":"ce4bhr12rcd13ifvqhpg","pricing_plan_id":"free"},{"bike_id":"bd617cff-93d9-4b4c-8609-70833642c7aa","system_id":"levelo_inurba_marseille","lat":43.319935,"lon":5.381699,"is_reserved":false,"is_disabled":false,"rental_uris":{"android":"levelo://app?vid=bd617cff-93d9-4b4c-8609-70833642c7aa","ios":"levelo://app?vid=bd617cff-93d9-4b4c-8609-70833642c7aa"},"vehicle_type_id":"4","last_reported":1687756069,"current_range_meters":31200,"station_id":"ce4bhr12rcd13ifvqhpg","pricing_plan_id":"free"},{"bike_id":"af07dc7a-d0c6-4e2c-a3ef-7492d835d46b","system_id":"levelo_inurba_marseille","lat":43.313571,"lon":5.384829,"is_reserved":false,"is_disabled":false,"rental_uris":{"android":"levelo://app?vid=af07dc7a-d0c6-4e2c-a3ef-7492d835d46b","ios":"levelo://app?vid=af07dc7a-d0c6-4e2c-a3ef-7492d835d46b"},"vehicle_type_id":"4","last_reported":1687756069,"current_range_meters":30800,"station_id":"ce4bgt92rcd13ifvqcf0","pricing_plan_id":"free"},{"bike_id":"d61d93ef-fed8-4b00-b9c1-2718efad4b67","system_id":"levelo_inurba_marseille","lat":43.313571,"lon":5.384829,"is_reserved":false,"is_disabled":false,"rental_uris":{"android":"levelo://app?vid=d61d93ef-fed8-4b00-b9c1-2718efad4b67","ios":"levelo://app?vid=d61d93ef-fed8-4b00-b9c1-2718efad4b67"},"vehicle_type_id":"4","last_reported":1687756069,"current_range_meters":30000,"station_id":"ce4bgt92rcd13ifvqcf0","pricing_plan_id":"free"},{"bike_id":"a9621aa3-9ff9-48d7-b8dc-2ea8d96458b1","system_id":"levelo_inurba_marseille","lat":43.313571,"lon":5.384829,"is_reserved":false,"is_disabled":false,"rental_uris":{"android":"levelo://app?vid=a9621aa3-9ff9-48d7-b8dc-2ea8d96458b1","ios":"levelo://app?vid=a9621aa3-9ff9-48d7-b8dc-2ea8d96458b1"},"vehicle_type_id":"4","last_reported":1687756069,"current_range_meters":10800,"station_id":"ce4bgt92rcd13ifvqcf0","pricing_plan_id":"free"},{"bike_id":"d416d8a6-a944-48fb-84c4-825fb7301ab4","system_id":"levelo_inurba_marseille","lat":43.29943,"lon":5.36536,"is_reserved":false,"is_disabled":false,"rental_uris":{"android":"levelo://app?vid=d416d8a6-a944-48fb-84c4-825fb7301ab4","ios":"levelo://app?vid=d416d8a6-a944-48fb-84c4-825fb7301ab4"},"vehicle_type_id":"4","last_reported":1687756069,"current_range_meters":30800,"station_id":"","pricing_plan_id":"free"},{"bike_id":"dfc92f65-92ae-4623-880a-ac4e714d6760","system_id":"levelo_inurba_marseille","lat":43.299222,"lon":5.365554,"is_reserved":false,"is_disabled":false,"rental_uris":{"android":"levelo://app?vid=dfc92f65-92ae-4623-880a-ac4e714d6760","ios":"levelo://app?vid=dfc92f65-92ae-4623-880a-ac4e714d6760"},"vehicle_type_id":"4","last_reported":1687756069,"current_range_meters":22800,"station_id":"ce4bgm92rcd13ifvqbr0","pricing_plan_id":"free"},{"bike_id":"84fb82b4-c04f-42d9-8d7b-f538bf93bb1a","system_id":"levelo_inurba_marseille","lat":43.299222,"lon":5.365554,"is_reserved":false,"is_disabled":false,"rental_uris":{"android":"levelo://app?vid=84fb82b4-c04f-42d9-8d7b-f538bf93bb1a","ios":"levelo://app?vid=84fb82b4-c04f-42d9-8d7b-f538bf93bb1a"},"vehicle_type_id":"4","last_reported":1687756069,"current_range_meters":7600,"station_id":"ce4bgm92rcd13ifvqbr0","pricing_plan_id":"free"},{"bike_id":"84e29f33-77bb-4f0c-8f6e-2bacb5c25174","system_id":"levelo_inurba_marseille","lat":43.299222,"lon":5.365554,"is_reserved":false,"is_disabled":false,"rental_uris":{"android":"levelo://app?vid=84e29f33-77bb-4f0c-8f6e-2bacb5c25174","ios":"levelo://app?vid=84e29f33-77bb-4f0c-8f6e-2bacb5c25174"},"vehicle_type_id":"4","last_reported":1687756069,"current_range_meters":12400,"station_id":"ce4bgm92rcd13ifvqbr0","pricing_plan_id":"free"},{"bike_id":"7ab631e5-2ba7-4085-b3fa-f3bab0157cf1","system_id":"levelo_inurba_marseille","lat":43.299222,"lon":5.365554,"is_reserved":false,"is_disabled":false,"rental_uris":{"android":"levelo://app?vid=7ab631e5-2ba7-4085-b3fa-f3bab0157cf1","ios":"levelo://app?vid=7ab631e5-2ba7-4085-b3fa-f3bab0157cf1"},"vehicle_type_id":"4","last_reported":1687756069,"current_range_meters":12800,"station_id":"ce4bgm92rcd13ifvqbr0","pricing_plan_id":"free"},{"bike_id":"baca0e3a-5610-4fd1-bb9d-5cf9acd55265","system_id":"levelo_inurba_marseille","lat":43.305364,"lon":5.384119,"is_reserved":false,"is_disabled":false,"rental_uris":{"android":"levelo://app?vid=baca0e3a-5610-4fd1-bb9d-5cf9acd55265","ios":"levelo://app?vid=baca0e3a-5610-4fd1-bb9d-5cf9acd55265"},"vehicle_type_id":"4","last_reported":1687756069,"current_range_meters":30800,"station_id":"ce4bgg92rcd13ifvqb30","pricing_plan_id":"free"},{"bike_id":"1c4f34ce-815d-4c30-b297-5bb0b2858752","system_id":"levelo_inurba_marseille","lat":43.298433,"lon":5.362774,"is_reserved":false,"is_disabled":false,"rental_uris":{"android":"levelo://app?vid=1c4f34ce-815d-4c30-b297-5bb0b2858752","ios":"levelo://app?vid=1c4f34ce-815d-4c30-b297-5bb0b2858752"},"vehicle_type_id":"4","last_reported":1687756069,"current_range_meters":28000,"station_id":"ce4bgpp2rcd13ifvqc3g","pricing_plan_id":"free"},{"bike_id":"c3d74f73-9d35-4ed1-a1af-190709b10d9f","system_id":"levelo_inurba_marseille","lat":43.298433,"lon":5.362774,"is_reserved":false,"is_disabled":false,"rental_uris":{"android":"levelo://app?vid=c3d74f73-9d35-4ed1-a1af-190709b10d9f","ios":"levelo://app?vid=c3d74f73-9d35-4ed1-a1af-190709b10d9f"},"vehicle_type_id":"4","last_reported":1687756069,"current_range_meters":30800,"station_id":"ce4bgpp2rcd13ifvqc3g","pricing_plan_id":"free"},{"bike_id":"aa3a18af-fada-4b36-b8ee-f821a6728453","system_id":"levelo_inurba_marseille","lat":43.30534,"lon":5.38432,"is_reserved":false,"is_disabled":false,"rental_uris":{"android":"levelo://app?vid=aa3a18af-fada-4b36-b8ee-f821a6728453","ios":"levelo://app?vid=aa3a18af-fada-4b36-b8ee-f821a6728453"},"vehicle_type_id":"4","last_reported":1687756069,"current_range_meters":15600,"station_id":"ce4bgg92rcd13ifvqb30","pricing_plan_id":"free"},{"bike_id":"26a8fb04-383d-49f0-aabb-234c26b1c88b","system_id":"levelo_inurba_marseille","lat":43.311722,"lon":5.387247,"is_reserved":false,"is_disabled":false,"rental_uris":{"android":"levelo://app?vid=26a8fb04-383d-49f0-aabb-234c26b1c88b","ios":"levelo://app?vid=26a8fb04-383d-49f0-aabb-234c26b1c88b"},"vehicle_type_id":"4","last_reported":1687756069,"current_range_meters":22400,"station_id":"ce4bgv12rcd13ifvqcp0","pricing_plan_id":"free"},{"bike_id":"87f21a15-8032-4a02-b5d4-a302bd015162","system_id":"levelo_inurba_marseille","lat":43.299243,"lon":5.37481,"is_reserved":false,"is_disabled":false,"rental_uris":{"android":"levelo://app?vid=87f21a15-8032-4a02-b5d4-a302bd015162","ios":"levelo://app?vid=87f21a15-8032-4a02-b5d4-a302bd015162"},"vehicle_type_id":"4","last_reported":1687756069,"current_range_meters":29600,"station_id":"ce4bgjh2rcd13ifvqbg0","pricing_plan_id":"free"},{"bike_id":"8d7658fb-cbcf-47b3-9225-d71884d9e10a","system_id":"levelo_inurba_marseille","lat":43.311722,"lon":5.387247,"is_reserved":false,"is_disabled":false,"rental_uris":{"android":"levelo://app?vid=8d7658fb-cbcf-47b3-9225-d71884d9e10a","ios":"levelo://app?vid=8d7658fb-cbcf-47b3-9225-d71884d9e10a"},"vehicle_type_id":"4","last_reported":1687756069,"current_range_meters":31200,"station_id":"ce4bgv12rcd13ifvqcp0","pricing_plan_id":"free"},{"bike_id":"f5233992-2221-4241-9289-209172ec9842","system_id":"levelo_inurba_marseille","lat":43.311722,"lon":5.387247,"is_reserved":false,"is_disabled":false,"rental_uris":{"android":"levelo://app?vid=f5233992-2221-4241-9289-209172ec9842","ios":"levelo://app?vid=f5233992-2221-4241-9289-209172ec9842"},"vehicle_type_id":"4","last_reported":1687756069,"current_range_meters":17600,"station_id":"ce4bgv12rcd13ifvqcp0","pricing_plan_id":"free"},{"bike_id":"b018ab26-c9fc-4eb9-bdc5-9d46da32cf06","system_id":"levelo_inurba_marseille","lat":43.299243,"lon":5.374807,"is_reserved":false,"is_disabled":false,"rental_uris":{"android":"levelo://app?vid=b018ab26-c9fc-4eb9-bdc5-9d46da32cf06","ios":"levelo://app?vid=b018ab26-c9fc-4eb9-bdc5-9d46da32cf06"},"vehicle_type_id":"4","last_reported":1687756069,"current_range_meters":29200,"station_id":"ce4bgjh2rcd13ifvqbg0","pricing_plan_id":"free"},{"bike_id":"11c74471-f5e3-48c0-8265-ad55d03c6505","system_id":"levelo_inurba_marseille","lat":43.297794,"lon":5.370888,"is_reserved":false,"is_disabled":false,"rental_uris":{"android":"levelo://app?vid=11c74471-f5e3-48c0-8265-ad55d03c6505","ios":"levelo://app?vid=11c74471-f5e3-48c0-8265-ad55d03c6505"},"vehicle_type_id":"4","last_reported":1687756069,"current_range_meters":31200,"station_id":"ce4bgop2rcd13ifvqc1g","pricing_plan_id":"free"},{"bike_id":"6e911fd3-e526-4d3e-b00d-05312f4b68f5","system_id":"levelo_inurba_marseille","lat":43.29779,"lon":5.37107,"is_reserved":false,"is_disabled":false,"rental_uris":{"android":"levelo://app?vid=6e911fd3-e526-4d3e-b00d-05312f4b68f5","ios":"levelo://app?vid=6e911fd3-e526-4d3e-b00d-05312f4b68f5"},"vehicle_type_id":"4","last_reported":1687756069,"current_range_meters":28800,"station_id":"ce4bgop2rcd13ifvqc1g","pricing_plan_id":"free"},{"bike_id":"1580a472-182f-4d91-8a6c-4c3a23a9c034","system_id":"levelo_inurba_marseille","lat":43.302,"lon":5.3821,"is_reserved":false,"is_disabled":false,"rental_uris":{"android":"levelo://app?vid=1580a472-182f-4d91-8a6c-4c3a23a9c034","ios":"levelo://app?vid=1580a472-182f-4d91-8a6c-4c3a23a9c034"},"vehicle_type_id":"4","last_reported":1687756069,"current_range_meters":10800,"station_id":"","pricing_plan_id":"free"},{"bike_id":"76c65ad2-6f1a-4f0c-b95e-e8c7ce1f54bb","system_id":"levelo_inurba_marseille","lat":43.328371,"lon":5.366909,"is_reserved":false,"is_disabled":false,"rental_uris":{"android":"levelo://app?vid=76c65ad2-6f1a-4f0c-b95e-e8c7ce1f54bb","ios":"levelo://app?vid=76c65ad2-6f1a-4f0c-b95e-e8c7ce1f54bb"},"vehicle_type_id":"4","last_reported":1687756069,"current_range_meters":26400,"station_id":"ce4bhs92rcd13ifvqi0g","pricing_plan_id":"free"},{"bike_id":"be4c2b1e-4409-4655-b800-08e6615894b0","system_id":"levelo_inurba_marseille","lat":43.328371,"lon":5.366909,"is_reserved":false,"is_disabled":false,"rental_uris":{"android":"levelo://app?vid=be4c2b1e-4409-4655-b800-08e6615894b0","ios":"levelo://app?vid=be4c2b1e-4409-4655-b800-08e6615894b0"},"vehicle_type_id":"4","last_reported":1687756069,"current_range_meters":30800,"station_id":"ce4bhs92rcd13ifvqi0g","pricing_plan_id":"free"},{"bike_id":"5108659d-1431-4d89-a11a-e27336cba391","system_id":"levelo_inurba_marseille","lat":43.328371,"lon":5.366909,"is_reserved":false,"is_disabled":false,"rental_uris":{"android":"levelo://app?vid=5108659d-1431-4d89-a11a-e27336cba391","ios":"levelo://app?vid=5108659d-1431-4d89-a11a-e27336cba391"},"vehicle_type_id":"4","last_reported":1687756069,"current_range_meters":28400,"station_id":"ce4bhs92rcd13ifvqi0g","pricing_plan_id":"free"},{"bike_id":"c0ba4054-03d2-4233-93b4-0461723bc0b5","system_id":"levelo_inurba_marseille","lat":43.328371,"lon":5.366909,"is_reserved":false,"is_disabled":false,"rental_uris":{"android":"levelo://app?vid=c0ba4054-03d2-4233-93b4-0461723bc0b5","ios":"levelo://app?vid=c0ba4054-03d2-4233-93b4-0461723bc0b5"},"vehicle_type_id":"4","last_reported":1687756069,"current_range_meters":30800,"station_id":"ce4bhs92rcd13ifvqi0g","pricing_plan_id":"free"},{"bike_id":"8b17aad1-d072-4063-bcd5-d1dd5ac05981","system_id":"levelo_inurba_marseille","lat":43.328371,"lon":5.366909,"is_reserved":false,"is_disabled":false,"rental_uris":{"android":"levelo://app?vid=8b17aad1-d072-4063-bcd5-d1dd5ac05981","ios":"levelo://app?vid=8b17aad1-d072-4063-bcd5-d1dd5ac05981"},"vehicle_type_id":"4","last_reported":1687756069,"current_range_meters":28800,"station_id":"ce4bhs92rcd13ifvqi0g","pricing_plan_id":"free"},{"bike_id":"a7f0de62-cbcb-4f09-8e9e-1b6465dbbc67","system_id":"levelo_inurba_marseille","lat":43.32828,"lon":5.36692,"is_reserved":false,"is_disabled":false,"rental_uris":{"android":"levelo://app?vid=a7f0de62-cbcb-4f09-8e9e-1b6465dbbc67","ios":"levelo://app?vid=a7f0de62-cbcb-4f09-8e9e-1b6465dbbc67"},"vehicle_type_id":"4","last_reported":1687756069,"current_range_meters":26400,"station_id":"ce4bhs92rcd13ifvqi0g","pricing_plan_id":"free"},{"bike_id":"4a26794d-e1b4-47b4-9ca8-950738dccf91","system_id":"levelo_inurba_marseille","lat":43.328371,"lon":5.366909,"is_reserved":false,"is_disabled":false,"rental_uris":{"android":"levelo://app?vid=4a26794d-e1b4-47b4-9ca8-950738dccf91","ios":"levelo://app?vid=4a26794d-e1b4-47b4-9ca8-950738dccf91"},"vehicle_type_id":"4","last_reported":1687756069,"current_range_meters":17600,"station_id":"ce4bhs92rcd13ifvqi0g","pricing_plan_id":"free"},{"bike_id":"c6b4996e-2d65-4055-b068-f5b368c9d079","system_id":"levelo_inurba_marseille","lat":43.328371,"lon":5.366909,"is_reserved":false,"is_disabled":false,"rental_uris":{"android":"levelo://app?vid=c6b4996e-2d65-4055-b068-f5b368c9d079","ios":"levelo://app?vid=c6b4996e-2d65-4055-b068-f5b368c9d079"},"vehicle_type_id":"4","last_reported":1687756069,"current_range_meters":22800,"station_id":"ce4bhs92rcd13ifvqi0g","pricing_plan_id":"free"},{"bike_id":"84310711-9ffd-45bf-a8e1-79683581878e","system_id":"levelo_inurba_marseille","lat":43.328371,"lon":5.366909,"is_reserved":false,"is_disabled":false,"rental_uris":{"android":"levelo://app?vid=84310711-9ffd-45bf-a8e1-79683581878e","ios":"levelo://app?vid=84310711-9ffd-45bf-a8e1-79683581878e"},"vehicle_type_id":"4","last_reported":1687756069,"current_range_meters":18400,"station_id":"ce4bhs92rcd13ifvqi0g","pricing_plan_id":"free"},{"bike_id":"b6159e29-22dd-4f8a-8788-85702808985c","system_id":"levelo_inurba_marseille","lat":43.328371,"lon":5.366909,"is_reserved":false,"is_disabled":false,"rental_uris":{"android":"levelo://app?vid=b6159e29-22dd-4f8a-8788-85702808985c","ios":"levelo://app?vid=b6159e29-22dd-4f8a-8788-85702808985c"},"vehicle_type_id":"4","last_reported":1687756069,"current_range_meters":22400,"station_id":"ce4bhs92rcd13ifvqi0g","pricing_plan_id":"free"},{"bike_id":"0b3da861-82a0-44d0-9c51-767a2daa6a59","system_id":"levelo_inurba_marseille","lat":43.328371,"lon":5.366909,"is_reserved":false,"is_disabled":false,"rental_uris":{"android":"levelo://app?vid=0b3da861-82a0-44d0-9c51-767a2daa6a59","ios":"levelo://app?vid=0b3da861-82a0-44d0-9c51-767a2daa6a59"},"vehicle_type_id":"4","last_reported":1687756069,"current_range_meters":21600,"station_id":"ce4bhs92rcd13ifvqi0g","pricing_plan_id":"free"},{"bike_id":"e0d28c6d-cda5-4ad7-9ed5-96823da4f883","system_id":"levelo_inurba_marseille","lat":43.328371,"lon":5.366909,"is_reserved":false,"is_disabled":false,"rental_uris":{"android":"levelo://app?vid=e0d28c6d-cda5-4ad7-9ed5-96823da4f883","ios":"levelo://app?vid=e0d28c6d-cda5-4ad7-9ed5-96823da4f883"},"vehicle_type_id":"4","last_reported":1687756069,"current_range_meters":16000,"station_id":"ce4bhs92rcd13ifvqi0g","pricing_plan_id":"free"},{"bike_id":"24df5618-e424-4263-9b25-3499c343556d","system_id":"levelo_inurba_marseille","lat":43.297163,"lon":5.365866,"is_reserved":false,"is_disabled":false,"rental_uris":{"android":"levelo://app?vid=24df5618-e424-4263-9b25-3499c343556d","ios":"levelo://app?vid=24df5618-e424-4263-9b25-3499c343556d"},"vehicle_type_id":"4","last_reported":1687756069,"current_range_meters":22000,"station_id":"ce4bgn12rcd13ifvqbt0","pricing_plan_id":"free"},{"bike_id":"8d98417a-cbe4-4269-8bc9-598373a7d5de","system_id":"levelo_inurba_marseille","lat":43.32862,"lon":5.363,"is_reserved":false,"is_disabled":false,"rental_uris":{"android":"levelo://app?vid=8d98417a-cbe4-4269-8bc9-598373a7d5de","ios":"levelo://app?vid=8d98417a-cbe4-4269-8bc9-598373a7d5de"},"vehicle_type_id":"4","last_reported":1687756069,"current_range_meters":14400,"station_id":"","pricing_plan_id":"free"},{"bike_id":"9f59b092-c451-49a4-870f-a9213b90e767","system_id":"levelo_inurba_marseille","lat":43.32948,"lon":5.36647,"is_reserved":false,"is_disabled":false,"rental_uris":{"android":"levelo://app?vid=9f59b092-c451-49a4-870f-a9213b90e767","ios":"levelo://app?vid=9f59b092-c451-49a4-870f-a9213b90e767"},"vehicle_type_id":"4","last_reported":1687756069,"current_range_meters":0,"station_id":"","pricing_plan_id":"free"},{"bike_id":"7435225d-2e93-44b0-b23a-6df2e600cc2b","system_id":"levelo_inurba_marseille","lat":43.296131,"lon":5.370791,"is_reserved":false,"is_disabled":false,"rental_uris":{"android":"levelo://app?vid=7435225d-2e93-44b0-b23a-6df2e600cc2b","ios":"levelo://app?vid=7435225d-2e93-44b0-b23a-6df2e600cc2b"},"vehicle_type_id":"4","last_reported":1687756069,"current_range_meters":4000,"station_id":"ce4bgnh2rcd13ifvqc0g","pricing_plan_id":"free"},{"bike_id":"c5fca945-2a7b-4a0b-818f-bfa91df4911c","system_id":"levelo_inurba_marseille","lat":43.296131,"lon":5.370791,"is_reserved":false,"is_disabled":false,"rental_uris":{"android":"levelo://app?vid=c5fca945-2a7b-4a0b-818f-bfa91df4911c","ios":"levelo://app?vid=c5fca945-2a7b-4a0b-818f-bfa91df4911c"},"vehicle_type_id":"4","last_reported":1687756069,"current_range_meters":24400,"station_id":"ce4bgnh2rcd13ifvqc0g","pricing_plan_id":"free"},{"bike_id":"7b0fdb91-1507-46bc-9dce-bdfb7cf150dc","system_id":"levelo_inurba_marseille","lat":43.296129,"lon":5.370777,"is_reserved":false,"is_disabled":false,"rental_uris":{"android":"levelo://app?vid=7b0fdb91-1507-46bc-9dce-bdfb7cf150dc","ios":"levelo://app?vid=7b0fdb91-1507-46bc-9dce-bdfb7cf150dc"},"vehicle_type_id":"4","last_reported":1687756069,"current_range_meters":25200,"station_id":"ce4bgnh2rcd13ifvqc0g","pricing_plan_id":"free"},{"bike_id":"ae3920a0-9333-467e-a0b4-cd20e21931ec","system_id":"levelo_inurba_marseille","lat":43.296129,"lon":5.370777,"is_reserved":false,"is_disabled":false,"rental_uris":{"android":"levelo://app?vid=ae3920a0-9333-467e-a0b4-cd20e21931ec","ios":"levelo://app?vid=ae3920a0-9333-467e-a0b4-cd20e21931ec"},"vehicle_type_id":"4","last_reported":1687756069,"current_range_meters":30000,"station_id":"ce4bgnh2rcd13ifvqc0g","pricing_plan_id":"free"},{"bike_id":"d0fc2e52-fcbd-40b6-81a8-ddad76baa17a","system_id":"levelo_inurba_marseille","lat":43.29573,"lon":5.367355,"is_reserved":false,"is_disabled":false,"rental_uris":{"android":"levelo://app?vid=d0fc2e52-fcbd-40b6-81a8-ddad76baa17a","ios":"levelo://app?vid=d0fc2e52-fcbd-40b6-81a8-ddad76baa17a"},"vehicle_type_id":"4","last_reported":1687756069,"current_range_meters":20800,"station_id":"ce4bgph2rcd13ifvqc2g","pricing_plan_id":"free"},{"bike_id":"2a274bf0-c2a8-4398-abb8-839b6dbeed68","system_id":"levelo_inurba_marseille","lat":43.29573,"lon":5.367355,"is_reserved":false,"is_disabled":false,"rental_uris":{"android":"levelo://app?vid=2a274bf0-c2a8-4398-abb8-839b6dbeed68","ios":"levelo://app?vid=2a274bf0-c2a8-4398-abb8-839b6dbeed68"},"vehicle_type_id":"4","last_reported":1687756069,"current_range_meters":30400,"station_id":"ce4bgph2rcd13ifvqc2g","pricing_plan_id":"free"},{"bike_id":"3b67e0dd-23f8-47f8-938c-9073e9f2bb5e","system_id":"levelo_inurba_marseille","lat":43.29573,"lon":5.367355,"is_reserved":false,"is_disabled":false,"rental_uris":{"android":"levelo://app?vid=3b67e0dd-23f8-47f8-938c-9073e9f2bb5e","ios":"levelo://app?vid=3b67e0dd-23f8-47f8-938c-9073e9f2bb5e"},"vehicle_type_id":"4","last_reported":1687756069,"current_range_meters":31200,"station_id":"ce4bgph2rcd13ifvqc2g","pricing_plan_id":"free"},{"bike_id":"f590c93e-6f3f-4d67-8a47-af8026270c2d","system_id":"levelo_inurba_marseille","lat":43.299028,"lon":5.381509,"is_reserved":false,"is_disabled":false,"rental_uris":{"android":"levelo://app?vid=f590c93e-6f3f-4d67-8a47-af8026270c2d","ios":"levelo://app?vid=f590c93e-6f3f-4d67-8a47-af8026270c2d"},"vehicle_type_id":"4","last_reported":1687756069,"current_range_meters":23200,"station_id":"ce4bgj12rcd13ifvqbc0","pricing_plan_id":"free"},{"bike_id":"b812699b-95df-4bd7-ad66-f6a929f2fc93","system_id":"levelo_inurba_marseille","lat":43.299028,"lon":5.381509,"is_reserved":false,"is_disabled":false,"rental_uris":{"android":"levelo://app?vid=b812699b-95df-4bd7-ad66-f6a929f2fc93","ios":"levelo://app?vid=b812699b-95df-4bd7-ad66-f6a929f2fc93"},"vehicle_type_id":"4","last_reported":1687756069,"current_range_meters":31200,"station_id":"ce4bgj12rcd13ifvqbc0","pricing_plan_id":"free"},{"bike_id":"041bc147-ef2f-419b-bb81-deca3bdf89e2","system_id":"levelo_inurba_marseille","lat":43.29611,"lon":5.36046,"is_reserved":false,"is_disabled":false,"rental_uris":{"android":"levelo://app?vid=041bc147-ef2f-419b-bb81-deca3bdf89e2","ios":"levelo://app?vid=041bc147-ef2f-419b-bb81-deca3bdf89e2"},"vehicle_type_id":"4","last_reported":1687756069,"current_range_meters":400,"station_id":"","pricing_plan_id":"free"},{"bike_id":"99ccde02-f525-4e92-a5ff-fc769b0bea9d","system_id":"levelo_inurba_marseille","lat":43.299028,"lon":5.381509,"is_reserved":false,"is_disabled":false,"rental_uris":{"android":"levelo://app?vid=99ccde02-f525-4e92-a5ff-fc769b0bea9d","ios":"levelo://app?vid=99ccde02-f525-4e92-a5ff-fc769b0bea9d"},"vehicle_type_id":"4","last_reported":1687756069,"current_range_meters":24000,"station_id":"ce4bgj12rcd13ifvqbc0","pricing_plan_id":"free"},{"bike_id":"a031e39d-cc40-4948-96e2-2fe3b43f583d","system_id":"levelo_inurba_marseille","lat":43.299028,"lon":5.381509,"is_reserved":false,"is_disabled":false,"rental_uris":{"android":"levelo://app?vid=a031e39d-cc40-4948-96e2-2fe3b43f583d","ios":"levelo://app?vid=a031e39d-cc40-4948-96e2-2fe3b43f583d"},"vehicle_type_id":"4","last_reported":1687756069,"current_range_meters":22800,"station_id":"ce4bgj12rcd13ifvqbc0","pricing_plan_id":"free"},{"bike_id":"44b7c4b5-9472-4c7a-becd-8b757da9d34a","system_id":"levelo_inurba_marseille","lat":43.299028,"lon":5.381509,"is_reserved":false,"is_disabled":false,"rental_uris":{"android":"levelo://app?vid=44b7c4b5-9472-4c7a-becd-8b757da9d34a","ios":"levelo://app?vid=44b7c4b5-9472-4c7a-becd-8b757da9d34a"},"vehicle_type_id":"4","last_reported":1687756069,"current_range_meters":31200,"station_id":"ce4bgj12rcd13ifvqbc0","pricing_plan_id":"free"},{"bike_id":"2a926240-1b36-4879-9518-91667041d524","system_id":"levelo_inurba_marseille","lat":43.299028,"lon":5.381509,"is_reserved":false,"is_disabled":false,"rental_uris":{"android":"levelo://app?vid=2a926240-1b36-4879-9518-91667041d524","ios":"levelo://app?vid=2a926240-1b36-4879-9518-91667041d524"},"vehicle_type_id":"4","last_reported":1687756069,"current_range_meters":31200,"station_id":"ce4bgj12rcd13ifvqbc0","pricing_plan_id":"free"},{"bike_id":"1f19b3c2-f40e-4f5c-8f74-076f631d0a4a","system_id":"levelo_inurba_marseille","lat":43.309589,"lon":5.390258,"is_reserved":false,"is_disabled":false,"rental_uris":{"android":"levelo://app?vid=1f19b3c2-f40e-4f5c-8f74-076f631d0a4a","ios":"levelo://app?vid=1f19b3c2-f40e-4f5c-8f74-076f631d0a4a"},"vehicle_type_id":"4","last_reported":1687756069,"current_range_meters":31200,"station_id":"ce4bgup2rcd13ifvqco0","pricing_plan_id":"free"},{"bike_id":"485d23ea-d216-483b-b924-e6636d1fffe7","system_id":"levelo_inurba_marseille","lat":43.296921,"lon":5.376579,"is_reserved":false,"is_disabled":false,"rental_uris":{"android":"levelo://app?vid=485d23ea-d216-483b-b924-e6636d1fffe7","ios":"levelo://app?vid=485d23ea-d216-483b-b924-e6636d1fffe7"},"vehicle_type_id":"4","last_reported":1687756069,"current_range_meters":24400,"station_id":"ce4bgkh2rcd13ifvqbl0","pricing_plan_id":"free"},{"bike_id":"bb656512-9a48-4c32-92d1-a167ad8114f0","system_id":"levelo_inurba_marseille","lat":43.296921,"lon":5.376579,"is_reserved":false,"is_disabled":false,"rental_uris":{"android":"levelo://app?vid=bb656512-9a48-4c32-92d1-a167ad8114f0","ios":"levelo://app?vid=bb656512-9a48-4c32-92d1-a167ad8114f0"},"vehicle_type_id":"4","last_reported":1687756069,"current_range_meters":2800,"station_id":"ce4bgkh2rcd13ifvqbl0","pricing_plan_id":"free"},{"bike_id":"46e1d509-21a2-494b-b9d0-c3bfa45b2ab0","system_id":"levelo_inurba_marseille","lat":43.309589,"lon":5.390258,"is_reserved":false,"is_disabled":false,"rental_uris":{"android":"levelo://app?vid=46e1d509-21a2-494b-b9d0-c3bfa45b2ab0","ios":"levelo://app?vid=46e1d509-21a2-494b-b9d0-c3bfa45b2ab0"},"vehicle_type_id":"4","last_reported":1687756069,"current_range_meters":24400,"station_id":"ce4bgup2rcd13ifvqco0","pricing_plan_id":"free"},{"bike_id":"20130909-6291-4f09-bbb3-a52556284e76","system_id":"levelo_inurba_marseille","lat":43.296921,"lon":5.376579,"is_reserved":false,"is_disabled":false,"rental_uris":{"android":"levelo://app?vid=20130909-6291-4f09-bbb3-a52556284e76","ios":"levelo://app?vid=20130909-6291-4f09-bbb3-a52556284e76"},"vehicle_type_id":"4","last_reported":1687756069,"current_range_meters":30000,"station_id":"ce4bgkh2rcd13ifvqbl0","pricing_plan_id":"free"},{"bike_id":"17bc0f8a-0f3c-4610-990c-51bd46da1f37","system_id":"levelo_inurba_marseille","lat":43.299028,"lon":5.381509,"is_reserved":false,"is_disabled":false,"rental_uris":{"android":"levelo://app?vid=17bc0f8a-0f3c-4610-990c-51bd46da1f37","ios":"levelo://app?vid=17bc0f8a-0f3c-4610-990c-51bd46da1f37"},"vehicle_type_id":"4","last_reported":1687756069,"current_range_meters":27600,"station_id":"ce4bgj12rcd13ifvqbc0","pricing_plan_id":"free"},{"bike_id":"82e01616-a4c0-42a2-bf54-b58e8e84893d","system_id":"levelo_inurba_marseille","lat":43.296935,"lon":5.376544,"is_reserved":false,"is_disabled":false,"rental_uris":{"android":"levelo://app?vid=82e01616-a4c0-42a2-bf54-b58e8e84893d","ios":"levelo://app?vid=82e01616-a4c0-42a2-bf54-b58e8e84893d"},"vehicle_type_id":"4","last_reported":1687756069,"current_range_meters":800,"station_id":"ce4bgkh2rcd13ifvqbl0","pricing_plan_id":"free"},{"bike_id":"910c37f7-2d91-4dab-ad54-a2bb86c3a304","system_id":"levelo_inurba_marseille","lat":43.3175,"lon":5.39016,"is_reserved":false,"is_disabled":false,"rental_uris":{"android":"levelo://app?vid=910c37f7-2d91-4dab-ad54-a2bb86c3a304","ios":"levelo://app?vid=910c37f7-2d91-4dab-ad54-a2bb86c3a304"},"vehicle_type_id":"4","last_reported":1687756069,"current_range_meters":28800,"station_id":"ce4bhqp2rcd13ifvqhng","pricing_plan_id":"free"},{"bike_id":"2d5c12d8-86fe-4049-b84f-e0e00f3ac654","system_id":"levelo_inurba_marseille","lat":43.3175,"lon":5.39017,"is_reserved":false,"is_disabled":false,"rental_uris":{"android":"levelo://app?vid=2d5c12d8-86fe-4049-b84f-e0e00f3ac654","ios":"levelo://app?vid=2d5c12d8-86fe-4049-b84f-e0e00f3ac654"},"vehicle_type_id":"4","last_reported":1687756069,"current_range_meters":23200,"station_id":"ce4bhqp2rcd13ifvqhng","pricing_plan_id":"free"},{"bike_id":"39fff2c9-220b-4ff0-b53a-9873e9f06e01","system_id":"levelo_inurba_marseille","lat":43.31748,"lon":5.39018,"is_reserved":false,"is_disabled":false,"rental_uris":{"android":"levelo://app?vid=39fff2c9-220b-4ff0-b53a-9873e9f06e01","ios":"levelo://app?vid=39fff2c9-220b-4ff0-b53a-9873e9f06e01"},"vehicle_type_id":"4","last_reported":1687756069,"current_range_meters":24000,"station_id":"ce4bhqp2rcd13ifvqhng","pricing_plan_id":"free"},{"bike_id":"3ecb1419-ec96-4c17-8e0a-de207f3a5e04","system_id":"levelo_inurba_marseille","lat":43.317557,"lon":5.390173,"is_reserved":false,"is_disabled":false,"rental_uris":{"android":"levelo://app?vid=3ecb1419-ec96-4c17-8e0a-de207f3a5e04","ios":"levelo://app?vid=3ecb1419-ec96-4c17-8e0a-de207f3a5e04"},"vehicle_type_id":"4","last_reported":1687756069,"current_range_meters":30400,"station_id":"ce4bhqp2rcd13ifvqhng","pricing_plan_id":"free"},{"bike_id":"b4d6a511-a66c-486e-a287-cf8f752ae340","system_id":"levelo_inurba_marseille","lat":43.298037,"lon":5.381066,"is_reserved":false,"is_disabled":false,"rental_uris":{"android":"levelo://app?vid=b4d6a511-a66c-486e-a287-cf8f752ae340","ios":"levelo://app?vid=b4d6a511-a66c-486e-a287-cf8f752ae340"},"vehicle_type_id":"4","last_reported":1687756069,"current_range_meters":31200,"station_id":"ce4bgip2rcd13ifvqbb0","pricing_plan_id":"free"},{"bike_id":"94b2511e-4aab-4b1a-bdbe-c65eedf8b5d5","system_id":"levelo_inurba_marseille","lat":43.298037,"lon":5.381066,"is_reserved":false,"is_disabled":false,"rental_uris":{"android":"levelo://app?vid=94b2511e-4aab-4b1a-bdbe-c65eedf8b5d5","ios":"levelo://app?vid=94b2511e-4aab-4b1a-bdbe-c65eedf8b5d5"},"vehicle_type_id":"4","last_reported":1687756069,"current_range_meters":29200,"station_id":"ce4bgip2rcd13ifvqbb0","pricing_plan_id":"free"},{"bike_id":"8c80e8a8-3593-41a9-a051-07c9422bf690","system_id":"levelo_inurba_marseille","lat":43.295748,"lon":5.37522,"is_reserved":false,"is_disabled":false,"rental_uris":{"android":"levelo://app?vid=8c80e8a8-3593-41a9-a051-07c9422bf690","ios":"levelo://app?vid=8c80e8a8-3593-41a9-a051-07c9422bf690"},"vehicle_type_id":"4","last_reported":1687756069,"current_range_meters":27600,"station_id":"ce4bgh92rcd13ifvqb50","pricing_plan_id":"free"},{"bike_id":"ab80f2b5-e9b3-445c-a6cd-c1756ea9a97c","system_id":"levelo_inurba_marseille","lat":43.29572,"lon":5.37512,"is_reserved":false,"is_disabled":false,"rental_uris":{"android":"levelo://app?vid=ab80f2b5-e9b3-445c-a6cd-c1756ea9a97c","ios":"levelo://app?vid=ab80f2b5-e9b3-445c-a6cd-c1756ea9a97c"},"vehicle_type_id":"4","last_reported":1687756069,"current_range_meters":14400,"station_id":"","pricing_plan_id":"free"},{"bike_id":"84205f7c-89a6-4a38-80d7-b717ab90d9b1","system_id":"levelo_inurba_marseille","lat":43.304278,"lon":5.388868,"is_reserved":false,"is_disabled":false,"rental_uris":{"android":"levelo://app?vid=84205f7c-89a6-4a38-80d7-b717ab90d9b1","ios":"levelo://app?vid=84205f7c-89a6-4a38-80d7-b717ab90d9b1"},"vehicle_type_id":"4","last_reported":1687756069,"current_range_meters":23600,"station_id":"ce4bgk12rcd13ifvqbi0","pricing_plan_id":"free"},{"bike_id":"0bd893ce-fd93-46d3-933c-0757eb4b4210","system_id":"levelo_inurba_marseille","lat":43.304278,"lon":5.388868,"is_reserved":false,"is_disabled":false,"rental_uris":{"android":"levelo://app?vid=0bd893ce-fd93-46d3-933c-0757eb4b4210","ios":"levelo://app?vid=0bd893ce-fd93-46d3-933c-0757eb4b4210"},"vehicle_type_id":"4","last_reported":1687756069,"current_range_meters":21200,"station_id":"ce4bgk12rcd13ifvqbi0","pricing_plan_id":"free"},{"bike_id":"d97340a3-df19-4be7-9a01-0b13078a5bf2","system_id":"levelo_inurba_marseille","lat":43.304278,"lon":5.388868,"is_reserved":false,"is_disabled":false,"rental_uris":{"android":"levelo://app?vid=d97340a3-df19-4be7-9a01-0b13078a5bf2","ios":"levelo://app?vid=d97340a3-df19-4be7-9a01-0b13078a5bf2"},"vehicle_type_id":"4","last_reported":1687756069,"current_range_meters":24400,"station_id":"ce4bgk12rcd13ifvqbi0","pricing_plan_id":"free"},{"bike_id":"620990f4-da2c-49ad-bbb4-85471356cb6c","system_id":"levelo_inurba_marseille","lat":43.29571,"lon":5.37525,"is_reserved":false,"is_disabled":false,"rental_uris":{"android":"levelo://app?vid=620990f4-da2c-49ad-bbb4-85471356cb6c","ios":"levelo://app?vid=620990f4-da2c-49ad-bbb4-85471356cb6c"},"vehicle_type_id":"4","last_reported":1687756069,"current_range_meters":15200,"station_id":"ce4bgh92rcd13ifvqb50","pricing_plan_id":"free"},{"bike_id":"d4f24aac-aa6f-40b7-99b0-910527f97b06","system_id":"levelo_inurba_marseille","lat":43.304278,"lon":5.388868,"is_reserved":false,"is_disabled":false,"rental_uris":{"android":"levelo://app?vid=d4f24aac-aa6f-40b7-99b0-910527f97b06","ios":"levelo://app?vid=d4f24aac-aa6f-40b7-99b0-910527f97b06"},"vehicle_type_id":"4","last_reported":1687756069,"current_range_meters":16000,"station_id":"ce4bgk12rcd13ifvqbi0","pricing_plan_id":"free"},{"bike_id":"a3e316c6-e724-4491-b8b4-49d33f77040a","system_id":"levelo_inurba_marseille","lat":43.304274,"lon":5.388873,"is_reserved":false,"is_disabled":false,"rental_uris":{"android":"levelo://app?vid=a3e316c6-e724-4491-b8b4-49d33f77040a","ios":"levelo://app?vid=a3e316c6-e724-4491-b8b4-49d33f77040a"},"vehicle_type_id":"4","last_reported":1687756069,"current_range_meters":28000,"station_id":"ce4bgk12rcd13ifvqbi0","pricing_plan_id":"free"},{"bike_id":"5575a7ae-bdc4-4d2c-9e23-7ee8aea19f41","system_id":"levelo_inurba_marseille","lat":43.295279,"lon":5.375048,"is_reserved":false,"is_disabled":false,"rental_uris":{"android":"levelo://app?vid=5575a7ae-bdc4-4d2c-9e23-7ee8aea19f41","ios":"levelo://app?vid=5575a7ae-bdc4-4d2c-9e23-7ee8aea19f41"},"vehicle_type_id":"4","last_reported":1687756069,"current_range_meters":27600,"station_id":"ce4bgkp2rcd13ifvqbmg","pricing_plan_id":"free"},{"bike_id":"f8b75470-30e0-4426-a8e3-8578c064d86f","system_id":"levelo_inurba_marseille","lat":43.32367,"lon":5.388836,"is_reserved":false,"is_disabled":false,"rental_uris":{"android":"levelo://app?vid=f8b75470-30e0-4426-a8e3-8578c064d86f","ios":"levelo://app?vid=f8b75470-30e0-4426-a8e3-8578c064d86f"},"vehicle_type_id":"4","last_reported":1687756069,"current_range_meters":31200,"station_id":"ce4bhqp2rcd13ifvqhog","pricing_plan_id":"free"},{"bike_id":"b173e8ee-2a06-4354-913b-a46b68538fd1","system_id":"levelo_inurba_marseille","lat":43.32367,"lon":5.388836,"is_reserved":false,"is_disabled":false,"rental_uris":{"android":"levelo://app?vid=b173e8ee-2a06-4354-913b-a46b68538fd1","ios":"levelo://app?vid=b173e8ee-2a06-4354-913b-a46b68538fd1"},"vehicle_type_id":"4","last_reported":1687756069,"current_range_meters":15200,"station_id":"ce4bhqp2rcd13ifvqhog","pricing_plan_id":"free"},{"bike_id":"47274d14-05f9-4676-9d7a-13e812c41f71","system_id":"levelo_inurba_marseille","lat":43.32367,"lon":5.388836,"is_reserved":false,"is_disabled":false,"rental_uris":{"android":"levelo://app?vid=47274d14-05f9-4676-9d7a-13e812c41f71","ios":"levelo://app?vid=47274d14-05f9-4676-9d7a-13e812c41f71"},"vehicle_type_id":"4","last_reported":1687756069,"current_range_meters":19600,"station_id":"ce4bhqp2rcd13ifvqhog","pricing_plan_id":"free"},{"bike_id":"d300f5ef-c196-441b-94a3-523dd5b07b4a","system_id":"levelo_inurba_marseille","lat":43.32367,"lon":5.388836,"is_reserved":false,"is_disabled":false,"rental_uris":{"android":"levelo://app?vid=d300f5ef-c196-441b-94a3-523dd5b07b4a","ios":"levelo://app?vid=d300f5ef-c196-441b-94a3-523dd5b07b4a"},"vehicle_type_id":"4","last_reported":1687756069,"current_range_meters":26800,"station_id":"ce4bhqp2rcd13ifvqhog","pricing_plan_id":"free"},{"bike_id":"483f7ea2-e701-4d58-a5fb-2520d9901a7a","system_id":"levelo_inurba_marseille","lat":43.32367,"lon":5.388836,"is_reserved":false,"is_disabled":false,"rental_uris":{"android":"levelo://app?vid=483f7ea2-e701-4d58-a5fb-2520d9901a7a","ios":"levelo://app?vid=483f7ea2-e701-4d58-a5fb-2520d9901a7a"},"vehicle_type_id":"4","last_reported":1687756069,"current_range_meters":31200,"station_id":"ce4bhqp2rcd13ifvqhog","pricing_plan_id":"free"},{"bike_id":"2d0c369d-2cb5-4e48-bea9-5765e9d89cf4","system_id":"levelo_inurba_marseille","lat":43.32367,"lon":5.388836,"is_reserved":false,"is_disabled":false,"rental_uris":{"android":"levelo://app?vid=2d0c369d-2cb5-4e48-bea9-5765e9d89cf4","ios":"levelo://app?vid=2d0c369d-2cb5-4e48-bea9-5765e9d89cf4"},"vehicle_type_id":"4","last_reported":1687756069,"current_range_meters":8000,"station_id":"ce4bhqp2rcd13ifvqhog","pricing_plan_id":"free"},{"bike_id":"4783d9b9-a677-4f36-ad6a-330e59bc93c3","system_id":"levelo_inurba_marseille","lat":43.29316,"lon":5.37174,"is_reserved":false,"is_disabled":false,"rental_uris":{"android":"levelo://app?vid=4783d9b9-a677-4f36-ad6a-330e59bc93c3","ios":"levelo://app?vid=4783d9b9-a677-4f36-ad6a-330e59bc93c3"},"vehicle_type_id":"4","last_reported":1687756069,"current_range_meters":0,"station_id":"ce4bgh92rcd13ifvqb40","pricing_plan_id":"free"},{"bike_id":"73a04831-1211-45c0-b8bb-492900d83cf4","system_id":"levelo_inurba_marseille","lat":43.29276,"lon":5.36849,"is_reserved":false,"is_disabled":false,"rental_uris":{"android":"levelo://app?vid=73a04831-1211-45c0-b8bb-492900d83cf4","ios":"levelo://app?vid=73a04831-1211-45c0-b8bb-492900d83cf4"},"vehicle_type_id":"4","last_reported":1687756069,"current_range_meters":31200,"station_id":"ce4bhbp2rcd13ifvqesg","pricing_plan_id":"free"},{"bike_id":"e6028da8-d848-4f19-9cde-8bf2ded8eda6","system_id":"levelo_inurba_marseille","lat":43.292749,"lon":5.368398,"is_reserved":false,"is_disabled":false,"rental_uris":{"android":"levelo://app?vid=e6028da8-d848-4f19-9cde-8bf2ded8eda6","ios":"levelo://app?vid=e6028da8-d848-4f19-9cde-8bf2ded8eda6"},"vehicle_type_id":"4","last_reported":1687756069,"current_range_meters":29600,"station_id":"ce4bhbp2rcd13ifvqesg","pricing_plan_id":"free"},{"bike_id":"c79037ff-211e-4800-be2e-c7a6cb4efe1c","system_id":"levelo_inurba_marseille","lat":43.29299,"lon":5.37444,"is_reserved":false,"is_disabled":false,"rental_uris":{"android":"levelo://app?vid=c79037ff-211e-4800-be2e-c7a6cb4efe1c","ios":"levelo://app?vid=c79037ff-211e-4800-be2e-c7a6cb4efe1c"},"vehicle_type_id":"4","last_reported":1687756069,"current_range_meters":16800,"station_id":"ce4bgi12rcd13ifvqb70","pricing_plan_id":"free"},{"bike_id":"7eb621d3-534d-490d-a389-fc5aca895379","system_id":"levelo_inurba_marseille","lat":43.293009,"lon":5.374584,"is_reserved":false,"is_disabled":false,"rental_uris":{"android":"levelo://app?vid=7eb621d3-534d-490d-a389-fc5aca895379","ios":"levelo://app?vid=7eb621d3-534d-490d-a389-fc5aca895379"},"vehicle_type_id":"4","last_reported":1687756069,"current_range_meters":30800,"station_id":"ce4bgi12rcd13ifvqb70","pricing_plan_id":"free"},{"bike_id":"09f5b63d-41a3-4410-be64-66a5d6c8c557","system_id":"levelo_inurba_marseille","lat":43.29287,"lon":5.37446,"is_reserved":false,"is_disabled":false,"rental_uris":{"android":"levelo://app?vid=09f5b63d-41a3-4410-be64-66a5d6c8c557","ios":"levelo://app?vid=09f5b63d-41a3-4410-be64-66a5d6c8c557"},"vehicle_type_id":"4","last_reported":1687756069,"current_range_meters":30400,"station_id":"ce4bgi12rcd13ifvqb70","pricing_plan_id":"free"},{"bike_id":"62595253-695f-43ba-ac87-6229668b5217","system_id":"levelo_inurba_marseille","lat":43.2936,"lon":5.37835,"is_reserved":false,"is_disabled":false,"rental_uris":{"android":"levelo://app?vid=62595253-695f-43ba-ac87-6229668b5217","ios":"levelo://app?vid=62595253-695f-43ba-ac87-6229668b5217"},"vehicle_type_id":"4","last_reported":1687756069,"current_range_meters":28000,"station_id":"ce4bgjh2rcd13ifvqbf0","pricing_plan_id":"free"},{"bike_id":"dbfac3fc-14a7-4a33-b1a6-de55185d900a","system_id":"levelo_inurba_marseille","lat":43.30296,"lon":5.392,"is_reserved":false,"is_disabled":false,"rental_uris":{"android":"levelo://app?vid=dbfac3fc-14a7-4a33-b1a6-de55185d900a","ios":"levelo://app?vid=dbfac3fc-14a7-4a33-b1a6-de55185d900a"},"vehicle_type_id":"4","last_reported":1687756069,"current_range_meters":30800,"station_id":"ce4bgkh2rcd13ifvqbk0","pricing_plan_id":"free"},{"bike_id":"f557d282-3da3-4091-a10d-3e0eaabe9c86","system_id":"levelo_inurba_marseille","lat":43.2936,"lon":5.37835,"is_reserved":false,"is_disabled":false,"rental_uris":{"android":"levelo://app?vid=f557d282-3da3-4091-a10d-3e0eaabe9c86","ios":"levelo://app?vid=f557d282-3da3-4091-a10d-3e0eaabe9c86"},"vehicle_type_id":"4","last_reported":1687756069,"current_range_meters":31200,"station_id":"ce4bgjh2rcd13ifvqbf0","pricing_plan_id":"free"},{"bike_id":"0a766f4a-e8b3-44c0-97ea-f12e7ce72385","system_id":"levelo_inurba_marseille","lat":43.302992,"lon":5.392136,"is_reserved":false,"is_disabled":false,"rental_uris":{"android":"levelo://app?vid=0a766f4a-e8b3-44c0-97ea-f12e7ce72385","ios":"levelo://app?vid=0a766f4a-e8b3-44c0-97ea-f12e7ce72385"},"vehicle_type_id":"4","last_reported":1687756069,"current_range_meters":31200,"station_id":"ce4bgkh2rcd13ifvqbk0","pricing_plan_id":"free"},{"bike_id":"252d8eaa-b2cf-45db-8461-99163ea5c1ee","system_id":"levelo_inurba_marseille","lat":43.302992,"lon":5.392136,"is_reserved":false,"is_disabled":false,"rental_uris":{"android":"levelo://app?vid=252d8eaa-b2cf-45db-8461-99163ea5c1ee","ios":"levelo://app?vid=252d8eaa-b2cf-45db-8461-99163ea5c1ee"},"vehicle_type_id":"4","last_reported":1687756069,"current_range_meters":31200,"station_id":"ce4bgkh2rcd13ifvqbk0","pricing_plan_id":"free"},{"bike_id":"f45c0947-a99c-4f31-a4c9-229cb998760f","system_id":"levelo_inurba_marseille","lat":43.2936,"lon":5.37835,"is_reserved":false,"is_disabled":false,"rental_uris":{"android":"levelo://app?vid=f45c0947-a99c-4f31-a4c9-229cb998760f","ios":"levelo://app?vid=f45c0947-a99c-4f31-a4c9-229cb998760f"},"vehicle_type_id":"4","last_reported":1687756069,"current_range_meters":25200,"station_id":"ce4bgjh2rcd13ifvqbf0","pricing_plan_id":"free"},{"bike_id":"c6143693-230b-4038-8997-337437f32014","system_id":"levelo_inurba_marseille","lat":43.29368,"lon":5.37862,"is_reserved":false,"is_disabled":false,"rental_uris":{"android":"levelo://app?vid=c6143693-230b-4038-8997-337437f32014","ios":"levelo://app?vid=c6143693-230b-4038-8997-337437f32014"},"vehicle_type_id":"4","last_reported":1687756069,"current_range_meters":28800,"station_id":"","pricing_plan_id":"free"},{"bike_id":"1cc3a6d6-1383-4e39-9b67-780a56c7dc33","system_id":"levelo_inurba_marseille","lat":43.30085,"lon":5.390856,"is_reserved":false,"is_disabled":false,"rental_uris":{"android":"levelo://app?vid=1cc3a6d6-1383-4e39-9b67-780a56c7dc33","ios":"levelo://app?vid=1cc3a6d6-1383-4e39-9b67-780a56c7dc33"},"vehicle_type_id":"4","last_reported":1687756069,"current_range_meters":12400,"station_id":"ce4bh192rcd13ifvqdb0","pricing_plan_id":"free"},{"bike_id":"7fe98351-b2ac-48c4-8ae8-445e471b6b3c","system_id":"levelo_inurba_marseille","lat":43.30085,"lon":5.390856,"is_reserved":false,"is_disabled":false,"rental_uris":{"android":"levelo://app?vid=7fe98351-b2ac-48c4-8ae8-445e471b6b3c","ios":"levelo://app?vid=7fe98351-b2ac-48c4-8ae8-445e471b6b3c"},"vehicle_type_id":"4","last_reported":1687756069,"current_range_meters":30800,"station_id":"ce4bh192rcd13ifvqdb0","pricing_plan_id":"free"},{"bike_id":"38bdb01c-1fc5-4721-8b40-d9b994df01ec","system_id":"levelo_inurba_marseille","lat":43.2923,"lon":5.36055,"is_reserved":false,"is_disabled":false,"rental_uris":{"android":"levelo://app?vid=38bdb01c-1fc5-4721-8b40-d9b994df01ec","ios":"levelo://app?vid=38bdb01c-1fc5-4721-8b40-d9b994df01ec"},"vehicle_type_id":"4","last_reported":1687756069,"current_range_meters":30400,"station_id":"","pricing_plan_id":"free"},{"bike_id":"47c38b38-a2b4-453d-8666-9f320488293e","system_id":"levelo_inurba_marseille","lat":43.30085,"lon":5.390856,"is_reserved":false,"is_disabled":false,"rental_uris":{"android":"levelo://app?vid=47c38b38-a2b4-453d-8666-9f320488293e","ios":"levelo://app?vid=47c38b38-a2b4-453d-8666-9f320488293e"},"vehicle_type_id":"4","last_reported":1687756069,"current_range_meters":31200,"station_id":"ce4bh192rcd13ifvqdb0","pricing_plan_id":"free"},{"bike_id":"84be7a85-dee7-4731-8b76-37fd4b3b67e0","system_id":"levelo_inurba_marseille","lat":43.30085,"lon":5.390856,"is_reserved":false,"is_disabled":false,"rental_uris":{"android":"levelo://app?vid=84be7a85-dee7-4731-8b76-37fd4b3b67e0","ios":"levelo://app?vid=84be7a85-dee7-4731-8b76-37fd4b3b67e0"},"vehicle_type_id":"4","last_reported":1687756069,"current_range_meters":21200,"station_id":"ce4bh192rcd13ifvqdb0","pricing_plan_id":"free"},{"bike_id":"c783c9a1-37dd-4f9b-930b-af9aa07182d9","system_id":"levelo_inurba_marseille","lat":43.29224,"lon":5.36069,"is_reserved":false,"is_disabled":false,"rental_uris":{"android":"levelo://app?vid=c783c9a1-37dd-4f9b-930b-af9aa07182d9","ios":"levelo://app?vid=c783c9a1-37dd-4f9b-930b-af9aa07182d9"},"vehicle_type_id":"4","last_reported":1687756069,"current_range_meters":31200,"station_id":"","pricing_plan_id":"free"},{"bike_id":"0919de2f-eb5d-42ee-a27b-775604c38282","system_id":"levelo_inurba_marseille","lat":43.29224,"lon":5.36057,"is_reserved":false,"is_disabled":false,"rental_uris":{"android":"levelo://app?vid=0919de2f-eb5d-42ee-a27b-775604c38282","ios":"levelo://app?vid=0919de2f-eb5d-42ee-a27b-775604c38282"},"vehicle_type_id":"4","last_reported":1687756069,"current_range_meters":22400,"station_id":"","pricing_plan_id":"free"},{"bike_id":"88584c38-fb15-4cf7-acee-80f56e4b3d4d","system_id":"levelo_inurba_marseille","lat":43.29221,"lon":5.36074,"is_reserved":false,"is_disabled":false,"rental_uris":{"android":"levelo://app?vid=88584c38-fb15-4cf7-acee-80f56e4b3d4d","ios":"levelo://app?vid=88584c38-fb15-4cf7-acee-80f56e4b3d4d"},"vehicle_type_id":"4","last_reported":1687756069,"current_range_meters":30800,"station_id":"","pricing_plan_id":"free"},{"bike_id":"06c95629-9835-44a6-a690-b0d94a84ab6e","system_id":"levelo_inurba_marseille","lat":43.29222,"lon":5.36065,"is_reserved":false,"is_disabled":false,"rental_uris":{"android":"levelo://app?vid=06c95629-9835-44a6-a690-b0d94a84ab6e","ios":"levelo://app?vid=06c95629-9835-44a6-a690-b0d94a84ab6e"},"vehicle_type_id":"4","last_reported":1687756069,"current_range_meters":28800,"station_id":"","pricing_plan_id":"free"},{"bike_id":"238e0306-279d-486d-b301-2617ebdcd28c","system_id":"levelo_inurba_marseille","lat":43.2922,"lon":5.36076,"is_reserved":false,"is_disabled":false,"rental_uris":{"android":"levelo://app?vid=238e0306-279d-486d-b301-2617ebdcd28c","ios":"levelo://app?vid=238e0306-279d-486d-b301-2617ebdcd28c"},"vehicle_type_id":"4","last_reported":1687756069,"current_range_meters":17200,"station_id":"","pricing_plan_id":"free"},{"bike_id":"e08a92dc-1682-40c0-9d5f-25fbedd9ab4f","system_id":"levelo_inurba_marseille","lat":43.30085,"lon":5.390856,"is_reserved":false,"is_disabled":false,"rental_uris":{"android":"levelo://app?vid=e08a92dc-1682-40c0-9d5f-25fbedd9ab4f","ios":"levelo://app?vid=e08a92dc-1682-40c0-9d5f-25fbedd9ab4f"},"vehicle_type_id":"4","last_reported":1687756069,"current_range_meters":29600,"station_id":"ce4bh192rcd13ifvqdb0","pricing_plan_id":"free"},{"bike_id":"d0ddb699-fd20-4a8c-be89-ab2ae3dedb2e","system_id":"levelo_inurba_marseille","lat":43.30085,"lon":5.390856,"is_reserved":false,"is_disabled":false,"rental_uris":{"android":"levelo://app?vid=d0ddb699-fd20-4a8c-be89-ab2ae3dedb2e","ios":"levelo://app?vid=d0ddb699-fd20-4a8c-be89-ab2ae3dedb2e"},"vehicle_type_id":"4","last_reported":1687756069,"current_range_meters":16800,"station_id":"ce4bh192rcd13ifvqdb0","pricing_plan_id":"free"},{"bike_id":"1c6fffcf-9e5e-4868-b6af-dc3fbcbd74cb","system_id":"levelo_inurba_marseille","lat":43.29221,"lon":5.36065,"is_reserved":false,"is_disabled":false,"rental_uris":{"android":"levelo://app?vid=1c6fffcf-9e5e-4868-b6af-dc3fbcbd74cb","ios":"levelo://app?vid=1c6fffcf-9e5e-4868-b6af-dc3fbcbd74cb"},"vehicle_type_id":"4","last_reported":1687756069,"current_range_meters":31200,"station_id":"","pricing_plan_id":"free"},{"bike_id":"d9939aac-ccce-4773-8a28-69b188a361f7","system_id":"levelo_inurba_marseille","lat":43.30085,"lon":5.390856,"is_reserved":false,"is_disabled":false,"rental_uris":{"android":"levelo://app?vid=d9939aac-ccce-4773-8a28-69b188a361f7","ios":"levelo://app?vid=d9939aac-ccce-4773-8a28-69b188a361f7"},"vehicle_type_id":"4","last_reported":1687756069,"current_range_meters":27600,"station_id":"ce4bh192rcd13ifvqdb0","pricing_plan_id":"free"},{"bike_id":"ea9c08c0-70d2-4912-8999-ee6a6e43f58d","system_id":"levelo_inurba_marseille","lat":43.30085,"lon":5.390856,"is_reserved":false,"is_disabled":false,"rental_uris":{"android":"levelo://app?vid=ea9c08c0-70d2-4912-8999-ee6a6e43f58d","ios":"levelo://app?vid=ea9c08c0-70d2-4912-8999-ee6a6e43f58d"},"vehicle_type_id":"4","last_reported":1687756069,"current_range_meters":13600,"station_id":"ce4bh192rcd13ifvqdb0","pricing_plan_id":"free"},{"bike_id":"5655bc56-bc07-42bf-98f0-44145798a355","system_id":"levelo_inurba_marseille","lat":43.29217,"lon":5.36069,"is_reserved":false,"is_disabled":false,"rental_uris":{"android":"levelo://app?vid=5655bc56-bc07-42bf-98f0-44145798a355","ios":"levelo://app?vid=5655bc56-bc07-42bf-98f0-44145798a355"},"vehicle_type_id":"4","last_reported":1687756069,"current_range_meters":31200,"station_id":"","pricing_plan_id":"free"},{"bike_id":"32f91c3b-bacb-4fb6-a124-a58ec1d6d730","system_id":"levelo_inurba_marseille","lat":43.30085,"lon":5.390856,"is_reserved":false,"is_disabled":false,"rental_uris":{"android":"levelo://app?vid=32f91c3b-bacb-4fb6-a124-a58ec1d6d730","ios":"levelo://app?vid=32f91c3b-bacb-4fb6-a124-a58ec1d6d730"},"vehicle_type_id":"4","last_reported":1687756069,"current_range_meters":31200,"station_id":"ce4bh192rcd13ifvqdb0","pricing_plan_id":"free"},{"bike_id":"9cb2c11d-6414-4b64-ad8f-63779ac023a4","system_id":"levelo_inurba_marseille","lat":43.30085,"lon":5.390856,"is_reserved":false,"is_disabled":false,"rental_uris":{"android":"levelo://app?vid=9cb2c11d-6414-4b64-ad8f-63779ac023a4","ios":"levelo://app?vid=9cb2c11d-6414-4b64-ad8f-63779ac023a4"},"vehicle_type_id":"4","last_reported":1687756069,"current_range_meters":31200,"station_id":"ce4bh192rcd13ifvqdb0","pricing_plan_id":"free"},{"bike_id":"1bd002bc-67ec-4396-a309-0c12a28bb4a0","system_id":"levelo_inurba_marseille","lat":43.290995,"lon":5.381361,"is_reserved":false,"is_disabled":false,"rental_uris":{"android":"levelo://app?vid=1bd002bc-67ec-4396-a309-0c12a28bb4a0","ios":"levelo://app?vid=1bd002bc-67ec-4396-a309-0c12a28bb4a0"},"vehicle_type_id":"4","last_reported":1687756069,"current_range_meters":29600,"station_id":"ce4bh512rcd13ifvqe2g","pricing_plan_id":"free"},{"bike_id":"112de89f-2e4a-4dac-954e-4dbd6276973c","system_id":"levelo_inurba_marseille","lat":43.291675,"lon":5.371583,"is_reserved":false,"is_disabled":false,"rental_uris":{"android":"levelo://app?vid=112de89f-2e4a-4dac-954e-4dbd6276973c","ios":"levelo://app?vid=112de89f-2e4a-4dac-954e-4dbd6276973c"},"vehicle_type_id":"4","last_reported":1687756069,"current_range_meters":30400,"station_id":"ce4bha92rcd13ifvqeh0","pricing_plan_id":"free"},{"bike_id":"f1a1b29f-dd0f-4829-87cb-9997f5b9733a","system_id":"levelo_inurba_marseille","lat":43.309038,"lon":5.396546,"is_reserved":false,"is_disabled":false,"rental_uris":{"android":"levelo://app?vid=f1a1b29f-dd0f-4829-87cb-9997f5b9733a","ios":"levelo://app?vid=f1a1b29f-dd0f-4829-87cb-9997f5b9733a"},"vehicle_type_id":"4","last_reported":1687756069,"current_range_meters":29600,"station_id":"ce4bh012rcd13ifvqcv0","pricing_plan_id":"free"},{"bike_id":"dee11cc7-dcf3-4a40-9e8d-8f44e26424f7","system_id":"levelo_inurba_marseille","lat":43.309038,"lon":5.396546,"is_reserved":false,"is_disabled":false,"rental_uris":{"android":"levelo://app?vid=dee11cc7-dcf3-4a40-9e8d-8f44e26424f7","ios":"levelo://app?vid=dee11cc7-dcf3-4a40-9e8d-8f44e26424f7"},"vehicle_type_id":"4","last_reported":1687756069,"current_range_meters":30800,"station_id":"ce4bh012rcd13ifvqcv0","pricing_plan_id":"free"},{"bike_id":"88b49755-5fa7-4be7-b652-e6a97af5abce","system_id":"levelo_inurba_marseille","lat":43.30883,"lon":5.39624,"is_reserved":false,"is_disabled":false,"rental_uris":{"android":"levelo://app?vid=88b49755-5fa7-4be7-b652-e6a97af5abce","ios":"levelo://app?vid=88b49755-5fa7-4be7-b652-e6a97af5abce"},"vehicle_type_id":"4","last_reported":1687756069,"current_range_meters":17200,"station_id":"","pricing_plan_id":"free"},{"bike_id":"04daedfb-c9e6-4dbd-8793-ca684b435061","system_id":"levelo_inurba_marseille","lat":43.309038,"lon":5.396546,"is_reserved":false,"is_disabled":false,"rental_uris":{"android":"levelo://app?vid=04daedfb-c9e6-4dbd-8793-ca684b435061","ios":"levelo://app?vid=04daedfb-c9e6-4dbd-8793-ca684b435061"},"vehicle_type_id":"4","last_reported":1687756069,"current_range_meters":13200,"station_id":"ce4bh012rcd13ifvqcv0","pricing_plan_id":"free"},{"bike_id":"38d297c6-bf61-45ba-a637-ca7287b9e928","system_id":"levelo_inurba_marseille","lat":43.309038,"lon":5.396546,"is_reserved":false,"is_disabled":false,"rental_uris":{"android":"levelo://app?vid=38d297c6-bf61-45ba-a637-ca7287b9e928","ios":"levelo://app?vid=38d297c6-bf61-45ba-a637-ca7287b9e928"},"vehicle_type_id":"4","last_reported":1687756069,"current_range_meters":31200,"station_id":"ce4bh012rcd13ifvqcv0","pricing_plan_id":"free"},{"bike_id":"77740e64-d0d5-4bc2-80d6-20e9d6789cf7","system_id":"levelo_inurba_marseille","lat":43.309038,"lon":5.396546,"is_reserved":false,"is_disabled":false,"rental_uris":{"android":"levelo://app?vid=77740e64-d0d5-4bc2-80d6-20e9d6789cf7","ios":"levelo://app?vid=77740e64-d0d5-4bc2-80d6-20e9d6789cf7"},"vehicle_type_id":"4","last_reported":1687756069,"current_range_meters":30800,"station_id":"ce4bh012rcd13ifvqcv0","pricing_plan_id":"free"},{"bike_id":"85dff4b6-a636-4f97-970d-3b9b08a752f6","system_id":"levelo_inurba_marseille","lat":43.30879,"lon":5.39632,"is_reserved":false,"is_disabled":false,"rental_uris":{"android":"levelo://app?vid=85dff4b6-a636-4f97-970d-3b9b08a752f6","ios":"levelo://app?vid=85dff4b6-a636-4f97-970d-3b9b08a752f6"},"vehicle_type_id":"4","last_reported":1687756069,"current_range_meters":9600,"station_id":"","pricing_plan_id":"free"},{"bike_id":"650610c1-995a-42c6-867d-e7dde35d3e42","system_id":"levelo_inurba_marseille","lat":43.3088,"lon":5.39633,"is_reserved":false,"is_disabled":false,"rental_uris":{"android":"levelo://app?vid=650610c1-995a-42c6-867d-e7dde35d3e42","ios":"levelo://app?vid=650610c1-995a-42c6-867d-e7dde35d3e42"},"vehicle_type_id":"4","last_reported":1687756069,"current_range_meters":19200,"station_id":"","pricing_plan_id":"free"},{"bike_id":"936c5dcf-47ef-4943-9282-95953000598c","system_id":"levelo_inurba_marseille","lat":43.30874,"lon":5.39632,"is_reserved":false,"is_disabled":false,"rental_uris":{"android":"levelo://app?vid=936c5dcf-47ef-4943-9282-95953000598c","ios":"levelo://app?vid=936c5dcf-47ef-4943-9282-95953000598c"},"vehicle_type_id":"4","last_reported":1687756069,"current_range_meters":12800,"station_id":"","pricing_plan_id":"free"},{"bike_id":"f8dfcbb0-ae24-4226-9366-d4e8de9cd77e","system_id":"levelo_inurba_marseille","lat":43.30874,"lon":5.39635,"is_reserved":false,"is_disabled":false,"rental_uris":{"android":"levelo://app?vid=f8dfcbb0-ae24-4226-9366-d4e8de9cd77e","ios":"levelo://app?vid=f8dfcbb0-ae24-4226-9366-d4e8de9cd77e"},"vehicle_type_id":"4","last_reported":1687756069,"current_range_meters":20800,"station_id":"","pricing_plan_id":"free"},{"bike_id":"5f34ca0d-c37a-46c1-8593-c11a0ef9c583","system_id":"levelo_inurba_marseille","lat":43.30878,"lon":5.39637,"is_reserved":false,"is_disabled":false,"rental_uris":{"android":"levelo://app?vid=5f34ca0d-c37a-46c1-8593-c11a0ef9c583","ios":"levelo://app?vid=5f34ca0d-c37a-46c1-8593-c11a0ef9c583"},"vehicle_type_id":"4","last_reported":1687756069,"current_range_meters":12000,"station_id":"","pricing_plan_id":"free"},{"bike_id":"b7cd80c7-b349-4f4b-b8c1-1b370b24937d","system_id":"levelo_inurba_marseille","lat":43.31329,"lon":5.3969,"is_reserved":false,"is_disabled":false,"rental_uris":{"android":"levelo://app?vid=b7cd80c7-b349-4f4b-b8c1-1b370b24937d","ios":"levelo://app?vid=b7cd80c7-b349-4f4b-b8c1-1b370b24937d"},"vehicle_type_id":"4","last_reported":1687756069,"current_range_meters":31200,"station_id":"ce4bgvp2rcd13ifvqcu0","pricing_plan_id":"free"},{"bike_id":"c7ddb878-2a6c-45fa-b3d8-75c1b3a88cf4","system_id":"levelo_inurba_marseille","lat":43.31329,"lon":5.3969,"is_reserved":false,"is_disabled":false,"rental_uris":{"android":"levelo://app?vid=c7ddb878-2a6c-45fa-b3d8-75c1b3a88cf4","ios":"levelo://app?vid=c7ddb878-2a6c-45fa-b3d8-75c1b3a88cf4"},"vehicle_type_id":"4","last_reported":1687756069,"current_range_meters":13200,"station_id":"ce4bgvp2rcd13ifvqcu0","pricing_plan_id":"free"},{"bike_id":"6acec185-2d0e-4797-976d-27920f2edd5f","system_id":"levelo_inurba_marseille","lat":43.313291,"lon":5.396838,"is_reserved":false,"is_disabled":false,"rental_uris":{"android":"levelo://app?vid=6acec185-2d0e-4797-976d-27920f2edd5f","ios":"levelo://app?vid=6acec185-2d0e-4797-976d-27920f2edd5f"},"vehicle_type_id":"4","last_reported":1687756069,"current_range_meters":21600,"station_id":"ce4bgvp2rcd13ifvqcu0","pricing_plan_id":"free"},{"bike_id":"59f26f76-8283-46eb-83fb-495057d0b16d","system_id":"levelo_inurba_marseille","lat":43.3088,"lon":5.39645,"is_reserved":false,"is_disabled":false,"rental_uris":{"android":"levelo://app?vid=59f26f76-8283-46eb-83fb-495057d0b16d","ios":"levelo://app?vid=59f26f76-8283-46eb-83fb-495057d0b16d"},"vehicle_type_id":"4","last_reported":1687756069,"current_range_meters":12400,"station_id":"","pricing_plan_id":"free"},{"bike_id":"aaf3eb4e-a95d-42f9-b697-f31176e0ccc4","system_id":"levelo_inurba_marseille","lat":43.31324,"lon":5.39694,"is_reserved":false,"is_disabled":false,"rental_uris":{"android":"levelo://app?vid=aaf3eb4e-a95d-42f9-b697-f31176e0ccc4","ios":"levelo://app?vid=aaf3eb4e-a95d-42f9-b697-f31176e0ccc4"},"vehicle_type_id":"4","last_reported":1687756069,"current_range_meters":12800,"station_id":"ce4bgvp2rcd13ifvqcu0","pricing_plan_id":"free"},{"bike_id":"bec46323-76df-49df-a312-ba1f20f7ab66","system_id":"levelo_inurba_marseille","lat":43.31332,"lon":5.39696,"is_reserved":false,"is_disabled":false,"rental_uris":{"android":"levelo://app?vid=bec46323-76df-49df-a312-ba1f20f7ab66","ios":"levelo://app?vid=bec46323-76df-49df-a312-ba1f20f7ab66"},"vehicle_type_id":"4","last_reported":1687756069,"current_range_meters":12000,"station_id":"ce4bgvp2rcd13ifvqcu0","pricing_plan_id":"free"},{"bike_id":"d484cd29-63d4-4e54-b533-1006257bc75d","system_id":"levelo_inurba_marseille","lat":43.291994,"lon":5.357886,"is_reserved":false,"is_disabled":false,"rental_uris":{"android":"levelo://app?vid=d484cd29-63d4-4e54-b533-1006257bc75d","ios":"levelo://app?vid=d484cd29-63d4-4e54-b533-1006257bc75d"},"vehicle_type_id":"4","last_reported":1687756069,"current_range_meters":28400,"station_id":"ce4bhb12rcd13ifvqel0","pricing_plan_id":"free"},{"bike_id":"79541d9a-a210-4f2b-9e26-45feb814c62c","system_id":"levelo_inurba_marseille","lat":43.31332,"lon":5.397,"is_reserved":false,"is_disabled":false,"rental_uris":{"android":"levelo://app?vid=79541d9a-a210-4f2b-9e26-45feb814c62c","ios":"levelo://app?vid=79541d9a-a210-4f2b-9e26-45feb814c62c"},"vehicle_type_id":"4","last_reported":1687756069,"current_range_meters":26400,"station_id":"ce4bgvp2rcd13ifvqcu0","pricing_plan_id":"free"},{"bike_id":"c77e6c6b-f0cf-4857-8812-22f929fc2cdd","system_id":"levelo_inurba_marseille","lat":43.291994,"lon":5.357886,"is_reserved":false,"is_disabled":false,"rental_uris":{"android":"levelo://app?vid=c77e6c6b-f0cf-4857-8812-22f929fc2cdd","ios":"levelo://app?vid=c77e6c6b-f0cf-4857-8812-22f929fc2cdd"},"vehicle_type_id":"4","last_reported":1687756069,"current_range_meters":31200,"station_id":"ce4bhb12rcd13ifvqel0","pricing_plan_id":"free"},{"bike_id":"a9ee37a4-bdfd-4116-a102-d33611927b04","system_id":"levelo_inurba_marseille","lat":43.313291,"lon":5.396838,"is_reserved":false,"is_disabled":false,"rental_uris":{"android":"levelo://app?vid=a9ee37a4-bdfd-4116-a102-d33611927b04","ios":"levelo://app?vid=a9ee37a4-bdfd-4116-a102-d33611927b04"},"vehicle_type_id":"4","last_reported":1687756069,"current_range_meters":22800,"station_id":"ce4bgvp2rcd13ifvqcu0","pricing_plan_id":"free"},{"bike_id":"39e8a089-0857-40ac-bf4d-060685dc550c","system_id":"levelo_inurba_marseille","lat":43.313291,"lon":5.396838,"is_reserved":false,"is_disabled":false,"rental_uris":{"android":"levelo://app?vid=39e8a089-0857-40ac-bf4d-060685dc550c","ios":"levelo://app?vid=39e8a089-0857-40ac-bf4d-060685dc550c"},"vehicle_type_id":"4","last_reported":1687756069,"current_range_meters":31200,"station_id":"ce4bgvp2rcd13ifvqcu0","pricing_plan_id":"free"},{"bike_id":"ae4f7482-dbb8-47d8-a3fb-fd929ad08b2a","system_id":"levelo_inurba_marseille","lat":43.302008,"lon":5.394694,"is_reserved":false,"is_disabled":false,"rental_uris":{"android":"levelo://app?vid=ae4f7482-dbb8-47d8-a3fb-fd929ad08b2a","ios":"levelo://app?vid=ae4f7482-dbb8-47d8-a3fb-fd929ad08b2a"},"vehicle_type_id":"4","last_reported":1687756069,"current_range_meters":28800,"station_id":"ce4bh0p2rcd13ifvqd70","pricing_plan_id":"free"},{"bike_id":"b5a423b8-be9d-407b-b3a3-24d637b91ae2","system_id":"levelo_inurba_marseille","lat":43.302008,"lon":5.394694,"is_reserved":false,"is_disabled":false,"rental_uris":{"android":"levelo://app?vid=b5a423b8-be9d-407b-b3a3-24d637b91ae2","ios":"levelo://app?vid=b5a423b8-be9d-407b-b3a3-24d637b91ae2"},"vehicle_type_id":"4","last_reported":1687756069,"current_range_meters":27200,"station_id":"ce4bh0p2rcd13ifvqd70","pricing_plan_id":"free"},{"bike_id":"a4d95d55-fe47-4186-828f-035133392354","system_id":"levelo_inurba_marseille","lat":43.302008,"lon":5.394694,"is_reserved":false,"is_disabled":false,"rental_uris":{"android":"levelo://app?vid=a4d95d55-fe47-4186-828f-035133392354","ios":"levelo://app?vid=a4d95d55-fe47-4186-828f-035133392354"},"vehicle_type_id":"4","last_reported":1687756069,"current_range_meters":20400,"station_id":"ce4bh0p2rcd13ifvqd70","pricing_plan_id":"free"},{"bike_id":"6107dd79-b9c8-4dce-9e9b-6d26d32b775f","system_id":"levelo_inurba_marseille","lat":43.302008,"lon":5.394694,"is_reserved":false,"is_disabled":false,"rental_uris":{"android":"levelo://app?vid=6107dd79-b9c8-4dce-9e9b-6d26d32b775f","ios":"levelo://app?vid=6107dd79-b9c8-4dce-9e9b-6d26d32b775f"},"vehicle_type_id":"4","last_reported":1687756069,"current_range_meters":31200,"station_id":"ce4bh0p2rcd13ifvqd70","pricing_plan_id":"free"},{"bike_id":"c506a433-7813-48ae-9235-f43fc68a8f88","system_id":"levelo_inurba_marseille","lat":43.29056,"lon":5.35896,"is_reserved":false,"is_disabled":false,"rental_uris":{"android":"levelo://app?vid=c506a433-7813-48ae-9235-f43fc68a8f88","ios":"levelo://app?vid=c506a433-7813-48ae-9235-f43fc68a8f88"},"vehicle_type_id":"4","last_reported":1687756069,"current_range_meters":2800,"station_id":"","pricing_plan_id":"free"},{"bike_id":"704dc378-afbc-41e2-9478-184a3f1fb8bc","system_id":"levelo_inurba_marseille","lat":43.294153,"lon":5.386305,"is_reserved":false,"is_disabled":false,"rental_uris":{"android":"levelo://app?vid=704dc378-afbc-41e2-9478-184a3f1fb8bc","ios":"levelo://app?vid=704dc378-afbc-41e2-9478-184a3f1fb8bc"},"vehicle_type_id":"4","last_reported":1687756069,"current_range_meters":14400,"station_id":"ce4bh2h2rcd13ifvqdh0","pricing_plan_id":"free"},{"bike_id":"c73cad45-9790-4429-80c2-bc84e0dc7503","system_id":"levelo_inurba_marseille","lat":43.294153,"lon":5.386305,"is_reserved":false,"is_disabled":false,"rental_uris":{"android":"levelo://app?vid=c73cad45-9790-4429-80c2-bc84e0dc7503","ios":"levelo://app?vid=c73cad45-9790-4429-80c2-bc84e0dc7503"},"vehicle_type_id":"4","last_reported":1687756069,"current_range_meters":16400,"station_id":"ce4bh2h2rcd13ifvqdh0","pricing_plan_id":"free"},{"bike_id":"829dedee-d1c9-46fe-8c1f-3ee3d05d1fd2","system_id":"levelo_inurba_marseille","lat":43.294153,"lon":5.386305,"is_reserved":false,"is_disabled":false,"rental_uris":{"android":"levelo://app?vid=829dedee-d1c9-46fe-8c1f-3ee3d05d1fd2","ios":"levelo://app?vid=829dedee-d1c9-46fe-8c1f-3ee3d05d1fd2"},"vehicle_type_id":"4","last_reported":1687756069,"current_range_meters":2000,"station_id":"ce4bh2h2rcd13ifvqdh0","pricing_plan_id":"free"},{"bike_id":"20b2702a-2cf1-439f-b7da-41f192fa1a0a","system_id":"levelo_inurba_marseille","lat":43.29411,"lon":5.38614,"is_reserved":false,"is_disabled":false,"rental_uris":{"android":"levelo://app?vid=20b2702a-2cf1-439f-b7da-41f192fa1a0a","ios":"levelo://app?vid=20b2702a-2cf1-439f-b7da-41f192fa1a0a"},"vehicle_type_id":"4","last_reported":1687756069,"current_range_meters":12800,"station_id":"","pricing_plan_id":"free"},{"bike_id":"1bbde2d8-d8f5-41b8-a188-79785ff6e4ec","system_id":"levelo_inurba_marseille","lat":43.28947,"lon":5.3641,"is_reserved":false,"is_disabled":false,"rental_uris":{"android":"levelo://app?vid=1bbde2d8-d8f5-41b8-a188-79785ff6e4ec","ios":"levelo://app?vid=1bbde2d8-d8f5-41b8-a188-79785ff6e4ec"},"vehicle_type_id":"4","last_reported":1687756069,"current_range_meters":31200,"station_id":"ce4bhc92rcd13ifvqetg","pricing_plan_id":"free"},