{"last_updated":1677013608,"ttl":30,"version":"2.2","data":{"bikes":[{"bike_id":"630d99c4-4ba5-48ca-92fc-be229ba73f8b","system_id":"levelo_inurba_marseille","lat":43.312239,"lon":5.368562,"is_reserved":false,"is_disabled":false,"rental_uris":{"android":"levelo://app?vid=630d99c4-4ba5-48ca-92fc-be229ba73f8b","ios":"levelo://app?vid=630d99c4-4ba5-48ca-92fc-be229ba73f8b"},"vehicle_type_id":"4","last_reported":1677013608,"current_range_meters":22800,"station_id":"ce4bgl92rcd13ifvqbq0","pricing_plan_id":"free"},{"bike_id":"eba11d40-6281-4fad-9345-e8e58b7f0b57","system_id":"levelo_inurba_marseille","lat":43.312342,"lon":5.373041,"is_reserved":false,"is_disabled":false,"rental_uris":{"android":"levelo://app?vid=eba11d40-6281-4fad-9345-e8e58b7f0b57","ios":"levelo://app?vid=eba11d40-6281-4fad-9345-e8e58b7f0b57"},"vehicle_type_id":"4","last_reported":1677013608,"current_range_meters":0,"station_id":"","pricing_plan_id":"free"},{"bike_id":"1e1d2d51-b422-466c-a8f7-1d2f30f7fb0f","system_id":"levelo_inurba_marseille","lat":43.31483,"lon":5.3731,"is_reserved":false,"is_disabled":false,"rental_uris":{"android":"levelo://app?vid=1e1d2d51-b422-466c-a8f7-1d2f30f7fb0f","ios":"levelo://app?vid=1e1d2d51-b422-466c-a8f7-1d2f30f7fb0f"},"vehicle_type_id":"4","last_reported":1677013608,"current_range_meters":18800,"station_id":"","pricing_plan_id":"free"},{"bike_id":"e0d52371-bb0e-4961-a4fe-7de59745e195","system_id":"levelo_inurba_marseille","lat":43.308614,"lon":5.372098,"is_reserved":false,"is_disabled":false,"rental_uris":{"android":"levelo://app?vid=e0d52371-bb0e-4961-a4fe-7de59745e195","ios":"levelo://app?vid=e0d52371-bb0e-4961-a4fe-7de59745e195"},"vehicle_type_id":"4","last_reported":1677013608,"current_range_meters":8400,"station_id":"ce4bguh2rcd13ifvqckg","pricing_plan_id":"free"},{"bike_id":"5d806228-f3f5-419f-a893-21180ebdef32","system_id":"levelo_inurba_marseille","lat":43.305989,"lon":5.37225,"is_reserved":false,"is_disabled":false,"rental_uris":{"android":"levelo://app?vid=5d806228-f3f5-419f-a893-21180ebdef32","ios":"levelo://app?vid=5d806228-f3f5-419f-a893-21180ebdef32"},"vehicle_type_id":"4","last_reported":1677013608,"current_range_meters":16000,"station_id":"ce4bgqh2rcd13ifvqc4g","pricing_plan_id":"free"},{"bike_id":"11f6cd3b-fd67-4410-9020-e56dabfb7361","system_id":"levelo_inurba_marseille","lat":43.305989,"lon":5.37225,"is_reserved":false,"is_disabled":false,"rental_uris":{"android":"levelo://app?vid=11f6cd3b-fd67-4410-9020-e56dabfb7361","ios":"levelo://app?vid=11f6cd3b-fd67-4410-9020-e56dabfb7361"},"vehicle_type_id":"4","last_reported":1677013608,"current_range_meters":4800,"station_id":"ce4bgqh2rcd13ifvqc4g","pricing_plan_id":"free"},{"bike_id":"fd95ebf9-bd64-436d-86d3-e79076dfd247","system_id":"levelo_inurba_marseille","lat":43.3193,"lon":5.37286,"is_reserved":false,"is_disabled":false,"rental_uris":{"android":"levelo://app?vid=fd95ebf9-bd64-436d-86d3-e79076dfd247","ios":"levelo://app?vid=fd95ebf9-bd64-436d-86d3-e79076dfd247"},"vehicle_type_id":"4","last_reported":1677013608,"current_range_meters":20400,"station_id":"","pricing_plan_id":"free"},{"bike_id":"efd6bcd4-e29b-4920-be7b-828a615cf249","system_id":"levelo_inurba_marseille","lat":43.317075,"lon":5.377367,"is_reserved":false,"is_disabled":false,"rental_uris":{"android":"levelo://app?vid=efd6bcd4-e29b-4920-be7b-828a615cf249","ios":"levelo://app?vid=efd6bcd4-e29b-4920-be7b-828a615cf249"},"vehicle_type_id":"4","last_reported":1677013608,"current_range_meters":25200,"station_id":"ce4bgth2rcd13ifvqch0","pricing_plan_id":"free"},{"bike_id":"ce29d482-1cc3-4b79-962d-2230574f39bd","system_id":"levelo_inurba_marseille","lat":43.317075,"lon":5.377367,"is_reserved":false,"is_disabled":false,"rental_uris":{"android":"levelo://app?vid=ce29d482-1cc3-4b79-962d-2230574f39bd","ios":"levelo://app?vid=ce29d482-1cc3-4b79-962d-2230574f39bd"},"vehicle_type_id":"4","last_reported":1677013608,"current_range_meters":8000,"station_id":"ce4bgth2rcd13ifvqch0","pricing_plan_id":"free"},{"bike_id":"15e7d0ce-9a65-401a-a5ee-d9bd3ee881ce","system_id":"levelo_inurba_marseille","lat":43.3059,"lon":5.37625,"is_reserved":false,"is_disabled":false,"rental_uris":{"android":"levelo://app?vid=15e7d0ce-9a65-401a-a5ee-d9bd3ee881ce","ios":"levelo://app?vid=15e7d0ce-9a65-401a-a5ee-d9bd3ee881ce"},"vehicle_type_id":"4","last_reported":1677013608,"current_range_meters":2800,"station_id":"","pricing_plan_id":"free"},{"bike_id":"ba4cba63-68c3-452f-bd2a-edd7ca408c2a","system_id":"levelo_inurba_marseille","lat":43.301939,"lon":5.366286,"is_reserved":false,"is_disabled":false,"rental_uris":{"android":"levelo://app?vid=ba4cba63-68c3-452f-bd2a-edd7ca408c2a","ios":"levelo://app?vid=ba4cba63-68c3-452f-bd2a-edd7ca408c2a"},"vehicle_type_id":"4","last_reported":1677013608,"current_range_meters":5200,"station_id":"ce4bgrh2rcd13ifvqc8g","pricing_plan_id":"free"},{"bike_id":"2ad35dd3-3289-46ca-a4ae-7c31e0f0d07c","system_id":"levelo_inurba_marseille","lat":43.308012,"lon":5.381511,"is_reserved":false,"is_disabled":false,"rental_uris":{"android":"levelo://app?vid=2ad35dd3-3289-46ca-a4ae-7c31e0f0d07c","ios":"levelo://app?vid=2ad35dd3-3289-46ca-a4ae-7c31e0f0d07c"},"vehicle_type_id":"4","last_reported":1677013608,"current_range_meters":6000,"station_id":"ce4bgt12rcd13ifvqce0","pricing_plan_id":"free"},{"bike_id":"a501cb05-0efa-4719-b712-52685167eb03","system_id":"levelo_inurba_marseille","lat":43.308012,"lon":5.381511,"is_reserved":false,"is_disabled":false,"rental_uris":{"android":"levelo://app?vid=a501cb05-0efa-4719-b712-52685167eb03","ios":"levelo://app?vid=a501cb05-0efa-4719-b712-52685167eb03"},"vehicle_type_id":"4","last_reported":1677013608,"current_range_meters":30800,"station_id":"ce4bgt12rcd13ifvqce0","pricing_plan_id":"free"},{"bike_id":"391aaf3c-7dee-4c9a-8b6b-0c4ace447734","system_id":"levelo_inurba_marseille","lat":43.308012,"lon":5.381511,"is_reserved":false,"is_disabled":false,"rental_uris":{"android":"levelo://app?vid=391aaf3c-7dee-4c9a-8b6b-0c4ace447734","ios":"levelo://app?vid=391aaf3c-7dee-4c9a-8b6b-0c4ace447734"},"vehicle_type_id":"4","last_reported":1677013608,"current_range_meters":27600,"station_id":"ce4bgt12rcd13ifvqce0","pricing_plan_id":"free"},{"bike_id":"21882520-4f43-4750-b988-b7f2ce1ece23","system_id":"levelo_inurba_marseille","lat":43.308012,"lon":5.381511,"is_reserved":false,"is_disabled":false,"rental_uris":{"android":"levelo://app?vid=21882520-4f43-4750-b988-b7f2ce1ece23","ios":"levelo://app?vid=21882520-4f43-4750-b988-b7f2ce1ece23"},"vehicle_type_id":"4","last_reported":1677013608,"current_range_meters":4000,"station_id":"ce4bgt12rcd13ifvqce0","pricing_plan_id":"free"},{"bike_id":"28da475e-c1fc-44fc-adde-fd5c22ad0913","system_id":"levelo_inurba_marseille","lat":43.308012,"lon":5.381511,"is_reserved":false,"is_disabled":false,"rental_uris":{"android":"levelo://app?vid=28da475e-c1fc-44fc-adde-fd5c22ad0913","ios":"levelo://app?vid=28da475e-c1fc-44fc-adde-fd5c22ad0913"},"vehicle_type_id":"4","last_reported":1677013608,"current_range_meters":27600,"station_id":"ce4bgt12rcd13ifvqce0","pricing_plan_id":"free"},{"bike_id":"721fc7b3-6bb8-41bb-89b9-deabb4235cb8","system_id":"levelo_inurba_marseille","lat":43.304606,"lon":5.379026,"is_reserved":false,"is_disabled":false,"rental_uris":{"android":"levelo://app?vid=721fc7b3-6bb8-41bb-89b9-deabb4235cb8","ios":"levelo://app?vid=721fc7b3-6bb8-41bb-89b9-deabb4235cb8"},"vehicle_type_id":"4","last_reported":1677013608,"current_range_meters":25600,"station_id":"ce4bgup2rcd13ifvqcn0","pricing_plan_id":"free"},{"bike_id":"b1430336-88b5-4d1c-a6e0-87bc8c72f411","system_id":"levelo_inurba_marseille","lat":43.313571,"lon":5.384829,"is_reserved":false,"is_disabled":false,"rental_uris":{"android":"levelo://app?vid=b1430336-88b5-4d1c-a6e0-87bc8c72f411","ios":"levelo://app?vid=b1430336-88b5-4d1c-a6e0-87bc8c72f411"},"vehicle_type_id":"4","last_reported":1677013608,"current_range_meters":1600,"station_id":"ce4bgt92rcd13ifvqcf0","pricing_plan_id":"free"},{"bike_id":"307f3881-a370-4717-a9b2-25a053e62a20","system_id":"levelo_inurba_marseille","lat":43.313571,"lon":5.384829,"is_reserved":false,"is_disabled":false,"rental_uris":{"android":"levelo://app?vid=307f3881-a370-4717-a9b2-25a053e62a20","ios":"levelo://app?vid=307f3881-a370-4717-a9b2-25a053e62a20"},"vehicle_type_id":"4","last_reported":1677013608,"current_range_meters":24000,"station_id":"ce4bgt92rcd13ifvqcf0","pricing_plan_id":"free"},{"bike_id":"58747423-527a-49e9-a649-94bcbe0e9741","system_id":"levelo_inurba_marseille","lat":43.298433,"lon":5.362774,"is_reserved":false,"is_disabled":false,"rental_uris":{"android":"levelo://app?vid=58747423-527a-49e9-a649-94bcbe0e9741","ios":"levelo://app?vid=58747423-527a-49e9-a649-94bcbe0e9741"},"vehicle_type_id":"4","last_reported":1677013608,"current_range_meters":18000,"station_id":"ce4bgpp2rcd13ifvqc3g","pricing_plan_id":"free"},{"bike_id":"a6f377a2-c980-43bc-9e24-f19cf34e51bc","system_id":"levelo_inurba_marseille","lat":43.311722,"lon":5.387247,"is_reserved":false,"is_disabled":false,"rental_uris":{"android":"levelo://app?vid=a6f377a2-c980-43bc-9e24-f19cf34e51bc","ios":"levelo://app?vid=a6f377a2-c980-43bc-9e24-f19cf34e51bc"},"vehicle_type_id":"4","last_reported":1677013608,"current_range_meters":19600,"station_id":"ce4bgv12rcd13ifvqcp0","pricing_plan_id":"free"},{"bike_id":"549fc5ff-3a37-45fd-a32b-13a3b534f344","system_id":"levelo_inurba_marseille","lat":43.31173,"lon":5.38714,"is_reserved":false,"is_disabled":false,"rental_uris":{"android":"levelo://app?vid=549fc5ff-3a37-45fd-a32b-13a3b534f344","ios":"levelo://app?vid=549fc5ff-3a37-45fd-a32b-13a3b534f344"},"vehicle_type_id":"4","last_reported":1677013608,"current_range_meters":31600,"station_id":"","pricing_plan_id":"free"},{"bike_id":"a236deff-5f26-43e3-8c2d-cf1243c2ffb4","system_id":"levelo_inurba_marseille","lat":43.311748,"lon":5.387156,"is_reserved":false,"is_disabled":false,"rental_uris":{"android":"levelo://app?vid=a236deff-5f26-43e3-8c2d-cf1243c2ffb4","ios":"levelo://app?vid=a236deff-5f26-43e3-8c2d-cf1243c2ffb4"},"vehicle_type_id":"4","last_reported":1677013608,"current_range_meters":31600,"station_id":"","pricing_plan_id":"free"},{"bike_id":"8642b95f-ca6b-447a-aeaf-a7da5c17ee87","system_id":"levelo_inurba_marseille","lat":43.31168,"lon":5.38716,"is_reserved":false,"is_disabled":false,"rental_uris":{"android":"levelo://app?vid=8642b95f-ca6b-447a-aeaf-a7da5c17ee87","ios":"levelo://app?vid=8642b95f-ca6b-447a-aeaf-a7da5c17ee87"},"vehicle_type_id":"4","last_reported":1677013608,"current_range_meters":30800,"station_id":"","pricing_plan_id":"free"},{"bike_id":"1665b516-6651-44a0-a109-d629dfd422c2","system_id":"levelo_inurba_marseille","lat":43.311722,"lon":5.387247,"is_reserved":false,"is_disabled":false,"rental_uris":{"android":"levelo://app?vid=1665b516-6651-44a0-a109-d629dfd422c2","ios":"levelo://app?vid=1665b516-6651-44a0-a109-d629dfd422c2"},"vehicle_type_id":"4","last_reported":1677013608,"current_range_meters":20400,"station_id":"ce4bgv12rcd13ifvqcp0","pricing_plan_id":"free"},{"bike_id":"cf223a4d-08ef-457a-a55e-4902de0b5cf5","system_id":"levelo_inurba_marseille","lat":43.311722,"lon":5.387247,"is_reserved":false,"is_disabled":false,"rental_uris":{"android":"levelo://app?vid=cf223a4d-08ef-457a-a55e-4902de0b5cf5","ios":"levelo://app?vid=cf223a4d-08ef-457a-a55e-4902de0b5cf5"},"vehicle_type_id":"4","last_reported":1677013608,"current_range_meters":32000,"station_id":"ce4bgv12rcd13ifvqcp0","pricing_plan_id":"free"},{"bike_id":"c8719379-e22d-4504-9cff-fc5fb64cff79","system_id":"levelo_inurba_marseille","lat":43.311722,"lon":5.387247,"is_reserved":false,"is_disabled":false,"rental_uris":{"android":"levelo://app?vid=c8719379-e22d-4504-9cff-fc5fb64cff79","ios":"levelo://app?vid=c8719379-e22d-4504-9cff-fc5fb64cff79"},"vehicle_type_id":"4","last_reported":1677013608,"current_range_meters":30800,"station_id":"ce4bgv12rcd13ifvqcp0","pricing_plan_id":"free"},{"bike_id":"15e6d3d0-71a7-483f-86e7-21e50ab04c5e","system_id":"levelo_inurba_marseille","lat":43.31617,"lon":5.38898,"is_reserved":false,"is_disabled":false,"rental_uris":{"android":"levelo://app?vid=15e6d3d0-71a7-483f-86e7-21e50ab04c5e","ios":"levelo://app?vid=15e6d3d0-71a7-483f-86e7-21e50ab04c5e"},"vehicle_type_id":"4","last_reported":1677013608,"current_range_meters":22800,"station_id":"","pricing_plan_id":"free"},{"bike_id":"d8a97faf-61c3-4827-9f6c-6f5fa4ead81c","system_id":"levelo_inurba_marseille","lat":43.309574,"lon":5.390303,"is_reserved":false,"is_disabled":false,"rental_uris":{"android":"levelo://app?vid=d8a97faf-61c3-4827-9f6c-6f5fa4ead81c","ios":"levelo://app?vid=d8a97faf-61c3-4827-9f6c-6f5fa4ead81c"},"vehicle_type_id":"4","last_reported":1677013608,"current_range_meters":18000,"station_id":"","pricing_plan_id":"free"},{"bike_id":"1ee0f064-9a73-4fb9-bb89-b268fc393dcb","system_id":"levelo_inurba_marseille","lat":43.299028,"lon":5.381509,"is_reserved":false,"is_disabled":false,"rental_uris":{"android":"levelo://app?vid=1ee0f064-9a73-4fb9-bb89-b268fc393dcb","ios":"levelo://app?vid=1ee0f064-9a73-4fb9-bb89-b268fc393dcb"},"vehicle_type_id":"4","last_reported":1677013608,"current_range_meters":6000,"station_id":"ce4bgj12rcd13ifvqbc0","pricing_plan_id":"free"},{"bike_id":"ae78b7b4-0290-4e78-b78a-c2ec9e7f9901","system_id":"levelo_inurba_marseille","lat":43.299028,"lon":5.381509,"is_reserved":false,"is_disabled":false,"rental_uris":{"android":"levelo://app?vid=ae78b7b4-0290-4e78-b78a-c2ec9e7f9901","ios":"levelo://app?vid=ae78b7b4-0290-4e78-b78a-c2ec9e7f9901"},"vehicle_type_id":"4","last_reported":1677013608,"current_range_meters":17200,"station_id":"ce4bgj12rcd13ifvqbc0","pricing_plan_id":"free"},{"bike_id":"da182bc8-6dcd-4495-a4d7-c17d7f300b3a","system_id":"levelo_inurba_marseille","lat":43.30955,"lon":5.39033,"is_reserved":false,"is_disabled":false,"rental_uris":{"android":"levelo://app?vid=da182bc8-6dcd-4495-a4d7-c17d7f300b3a","ios":"levelo://app?vid=da182bc8-6dcd-4495-a4d7-c17d7f300b3a"},"vehicle_type_id":"4","last_reported":1677013608,"current_range_meters":20400,"station_id":"ce4bgup2rcd13ifvqco0","pricing_plan_id":"free"},{"bike_id":"650b0ea8-d622-4c6c-9e67-c5fc37dae11f","system_id":"levelo_inurba_marseille","lat":43.309484,"lon":5.390321,"is_reserved":false,"is_disabled":false,"rental_uris":{"android":"levelo://app?vid=650b0ea8-d622-4c6c-9e67-c5fc37dae11f","ios":"levelo://app?vid=650b0ea8-d622-4c6c-9e67-c5fc37dae11f"},"vehicle_type_id":"4","last_reported":1677013608,"current_range_meters":14800,"station_id":"ce4bgup2rcd13ifvqco0","pricing_plan_id":"free"},{"bike_id":"6e5bd3d8-1230-4295-b1df-f54c2aed8a47","system_id":"levelo_inurba_marseille","lat":43.309527,"lon":5.39034,"is_reserved":false,"is_disabled":false,"rental_uris":{"android":"levelo://app?vid=6e5bd3d8-1230-4295-b1df-f54c2aed8a47","ios":"levelo://app?vid=6e5bd3d8-1230-4295-b1df-f54c2aed8a47"},"vehicle_type_id":"4","last_reported":1677013608,"current_range_meters":20400,"station_id":"","pricing_plan_id":"free"},{"bike_id":"57eb44b0-d5a4-4624-834d-ad9e57f805b9","system_id":"levelo_inurba_marseille","lat":43.299028,"lon":5.381509,"is_reserved":false,"is_disabled":false,"rental_uris":{"android":"levelo://app?vid=57eb44b0-d5a4-4624-834d-ad9e57f805b9","ios":"levelo://app?vid=57eb44b0-d5a4-4624-834d-ad9e57f805b9"},"vehicle_type_id":"4","last_reported":1677013608,"current_range_meters":10400,"station_id":"ce4bgj12rcd13ifvqbc0","pricing_plan_id":"free"},{"bike_id":"d72bada2-84dc-423f-b620-f703ce4863cd","system_id":"levelo_inurba_marseille","lat":43.309589,"lon":5.390258,"is_reserved":false,"is_disabled":false,"rental_uris":{"android":"levelo://app?vid=d72bada2-84dc-423f-b620-f703ce4863cd","ios":"levelo://app?vid=d72bada2-84dc-423f-b620-f703ce4863cd"},"vehicle_type_id":"4","last_reported":1677013608,"current_range_meters":31600,"station_id":"ce4bgup2rcd13ifvqco0","pricing_plan_id":"free"},{"bike_id":"ae17f027-bd8f-485c-90ba-bd88568edd86","system_id":"levelo_inurba_marseille","lat":43.309516,"lon":5.390421,"is_reserved":false,"is_disabled":false,"rental_uris":{"android":"levelo://app?vid=ae17f027-bd8f-485c-90ba-bd88568edd86","ios":"levelo://app?vid=ae17f027-bd8f-485c-90ba-bd88568edd86"},"vehicle_type_id":"4","last_reported":1677013608,"current_range_meters":30400,"station_id":"","pricing_plan_id":"free"},{"bike_id":"512f6eb2-1b04-4b06-a749-b1d8082a3c0b","system_id":"levelo_inurba_marseille","lat":43.30952,"lon":5.39043,"is_reserved":false,"is_disabled":false,"rental_uris":{"android":"levelo://app?vid=512f6eb2-1b04-4b06-a749-b1d8082a3c0b","ios":"levelo://app?vid=512f6eb2-1b04-4b06-a749-b1d8082a3c0b"},"vehicle_type_id":"4","last_reported":1677013608,"current_range_meters":24400,"station_id":"","pricing_plan_id":"free"},{"bike_id":"35a2688b-1f2d-4a56-b5c3-8bcb78ec0898","system_id":"levelo_inurba_marseille","lat":43.317557,"lon":5.390173,"is_reserved":false,"is_disabled":false,"rental_uris":{"android":"levelo://app?vid=35a2688b-1f2d-4a56-b5c3-8bcb78ec0898","ios":"levelo://app?vid=35a2688b-1f2d-4a56-b5c3-8bcb78ec0898"},"vehicle_type_id":"4","last_reported":1677013608,"current_range_meters":30000,"station_id":"ce4bhqp2rcd13ifvqhng","pricing_plan_id":"free"},{"bike_id":"220117c2-3709-4d6e-85ff-185ce30da37d","system_id":"levelo_inurba_marseille","lat":43.317557,"lon":5.390173,"is_reserved":false,"is_disabled":false,"rental_uris":{"android":"levelo://app?vid=220117c2-3709-4d6e-85ff-185ce30da37d","ios":"levelo://app?vid=220117c2-3709-4d6e-85ff-185ce30da37d"},"vehicle_type_id":"4","last_reported":1677013608,"current_range_meters":24400,"station_id":"ce4bhqp2rcd13ifvqhng","pricing_plan_id":"free"},{"bike_id":"a9ebcb65-fe00-40a6-9cbb-985d69de2557","system_id":"levelo_inurba_marseille","lat":43.317557,"lon":5.390173,"is_reserved":false,"is_disabled":false,"rental_uris":{"android":"levelo://app?vid=a9ebcb65-fe00-40a6-9cbb-985d69de2557","ios":"levelo://app?vid=a9ebcb65-fe00-40a6-9cbb-985d69de2557"},"vehicle_type_id":"4","last_reported":1677013608,"current_range_meters":31600,"station_id":"ce4bhqp2rcd13ifvqhng","pricing_plan_id":"free"},{"bike_id":"5acf2df8-fa8c-41b2-b8db-04fab423fafb","system_id":"levelo_inurba_marseille","lat":43.317557,"lon":5.390173,"is_reserved":false,"is_disabled":false,"rental_uris":{"android":"levelo://app?vid=5acf2df8-fa8c-41b2-b8db-04fab423fafb","ios":"levelo://app?vid=5acf2df8-fa8c-41b2-b8db-04fab423fafb"},"vehicle_type_id":"4","last_reported":1677013608,"current_range_meters":16800,"station_id":"ce4bhqp2rcd13ifvqhng","pricing_plan_id":"free"},{"bike_id":"3c2ec567-22fb-4a95-a3b8-75225e75f460","system_id":"levelo_inurba_marseille","lat":43.295748,"lon":5.37522,"is_reserved":false,"is_disabled":false,"rental_uris":{"android":"levelo://app?vid=3c2ec567-22fb-4a95-a3b8-75225e75f460","ios":"levelo://app?vid=3c2ec567-22fb-4a95-a3b8-75225e75f460"},"vehicle_type_id":"4","last_reported":1677013608,"current_range_meters":29600,"station_id":"ce4bgh92rcd13ifvqb50","pricing_plan_id":"free"},{"bike_id":"d22fb3a9-04ba-4b1a-8d37-ee87b52a6291","system_id":"levelo_inurba_marseille","lat":43.295517,"lon":5.374477,"is_reserved":false,"is_disabled":false,"rental_uris":{"android":"levelo://app?vid=d22fb3a9-04ba-4b1a-8d37-ee87b52a6291","ios":"levelo://app?vid=d22fb3a9-04ba-4b1a-8d37-ee87b52a6291"},"vehicle_type_id":"4","last_reported":1677013608,"current_range_meters":20000,"station_id":"","pricing_plan_id":"free"},{"bike_id":"ddced006-07bb-4e91-b46e-fdc171141d1b","system_id":"levelo_inurba_marseille","lat":43.295748,"lon":5.37522,"is_reserved":false,"is_disabled":false,"rental_uris":{"android":"levelo://app?vid=ddced006-07bb-4e91-b46e-fdc171141d1b","ios":"levelo://app?vid=ddced006-07bb-4e91-b46e-fdc171141d1b"},"vehicle_type_id":"4","last_reported":1677013608,"current_range_meters":8400,"station_id":"ce4bgh92rcd13ifvqb50","pricing_plan_id":"free"},{"bike_id":"61f7d9d6-6153-4c69-95ba-6d4170fa51bc","system_id":"levelo_inurba_marseille","lat":43.296167,"lon":5.37701,"is_reserved":false,"is_disabled":false,"rental_uris":{"android":"levelo://app?vid=61f7d9d6-6153-4c69-95ba-6d4170fa51bc","ios":"levelo://app?vid=61f7d9d6-6153-4c69-95ba-6d4170fa51bc"},"vehicle_type_id":"4","last_reported":1677013608,"current_range_meters":0,"station_id":"","pricing_plan_id":"free"},{"bike_id":"a100a3ee-f4b7-4b28-a69e-84430e8a6ba1","system_id":"levelo_inurba_marseille","lat":43.298037,"lon":5.381066,"is_reserved":false,"is_disabled":false,"rental_uris":{"android":"levelo://app?vid=a100a3ee-f4b7-4b28-a69e-84430e8a6ba1","ios":"levelo://app?vid=a100a3ee-f4b7-4b28-a69e-84430e8a6ba1"},"vehicle_type_id":"4","last_reported":1677013608,"current_range_meters":10000,"station_id":"ce4bgip2rcd13ifvqbb0","pricing_plan_id":"free"},{"bike_id":"55385d97-fcd5-4014-805d-1ff11473ad5f","system_id":"levelo_inurba_marseille","lat":43.295279,"lon":5.375048,"is_reserved":false,"is_disabled":false,"rental_uris":{"android":"levelo://app?vid=55385d97-fcd5-4014-805d-1ff11473ad5f","ios":"levelo://app?vid=55385d97-fcd5-4014-805d-1ff11473ad5f"},"vehicle_type_id":"4","last_reported":1677013608,"current_range_meters":31200,"station_id":"ce4bgkp2rcd13ifvqbmg","pricing_plan_id":"free"},{"bike_id":"3608f452-84c4-497f-ad59-a5f7e01f487d","system_id":"levelo_inurba_marseille","lat":43.295279,"lon":5.375048,"is_reserved":false,"is_disabled":false,"rental_uris":{"android":"levelo://app?vid=3608f452-84c4-497f-ad59-a5f7e01f487d","ios":"levelo://app?vid=3608f452-84c4-497f-ad59-a5f7e01f487d"},"vehicle_type_id":"4","last_reported":1677013608,"current_range_meters":31200,"station_id":"ce4bgkp2rcd13ifvqbmg","pricing_plan_id":"free"},{"bike_id":"63fb4e1a-fe7a-489e-8133-85e718607d08","system_id":"levelo_inurba_marseille","lat":43.295279,"lon":5.375048,"is_reserved":false,"is_disabled":false,"rental_uris":{"android":"levelo://app?vid=63fb4e1a-fe7a-489e-8133-85e718607d08","ios":"levelo://app?vid=63fb4e1a-fe7a-489e-8133-85e718607d08"},"vehicle_type_id":"4","last_reported":1677013608,"current_range_meters":28800,"station_id":"ce4bgkp2rcd13ifvqbmg","pricing_plan_id":"free"},{"bike_id":"590105cd-6a63-4d19-9059-c63ec4827086","system_id":"levelo_inurba_marseille","lat":43.295279,"lon":5.375048,"is_reserved":false,"is_disabled":false,"rental_uris":{"android":"levelo://app?vid=590105cd-6a63-4d19-9059-c63ec4827086","ios":"levelo://app?vid=590105cd-6a63-4d19-9059-c63ec4827086"},"vehicle_type_id":"4","last_reported":1677013608,"current_range_meters":13600,"station_id":"ce4bgkp2rcd13ifvqbmg","pricing_plan_id":"free"},{"bike_id":"520222c2-e183-4b7a-b072-56571052ae6c","system_id":"levelo_inurba_marseille","lat":43.295279,"lon":5.375048,"is_reserved":false,"is_disabled":false,"rental_uris":{"android":"levelo://app?vid=520222c2-e183-4b7a-b072-56571052ae6c","ios":"levelo://app?vid=520222c2-e183-4b7a-b072-56571052ae6c"},"vehicle_type_id":"4","last_reported":1677013608,"current_range_meters":15200,"station_id":"ce4bgkp2rcd13ifvqbmg","pricing_plan_id":"free"},{"bike_id":"279e6bc2-e6ee-4f40-a316-f0c47ec7182c","system_id":"levelo_inurba_marseille","lat":43.32367,"lon":5.38882,"is_reserved":false,"is_disabled":false,"rental_uris":{"android":"levelo://app?vid=279e6bc2-e6ee-4f40-a316-f0c47ec7182c","ios":"levelo://app?vid=279e6bc2-e6ee-4f40-a316-f0c47ec7182c"},"vehicle_type_id":"4","last_reported":1677013608,"current_range_meters":21600,"station_id":"","pricing_plan_id":"free"},{"bike_id":"d4801501-57c1-4a1f-861d-3d40e5d5affb","system_id":"levelo_inurba_marseille","lat":43.32367,"lon":5.388836,"is_reserved":false,"is_disabled":false,"rental_uris":{"android":"levelo://app?vid=d4801501-57c1-4a1f-861d-3d40e5d5affb","ios":"levelo://app?vid=d4801501-57c1-4a1f-861d-3d40e5d5affb"},"vehicle_type_id":"4","last_reported":1677013608,"current_range_meters":28800,"station_id":"ce4bhqp2rcd13ifvqhog","pricing_plan_id":"free"},{"bike_id":"84d2be41-880a-481e-9636-47c41327f5f3","system_id":"levelo_inurba_marseille","lat":43.32367,"lon":5.388836,"is_reserved":false,"is_disabled":false,"rental_uris":{"android":"levelo://app?vid=84d2be41-880a-481e-9636-47c41327f5f3","ios":"levelo://app?vid=84d2be41-880a-481e-9636-47c41327f5f3"},"vehicle_type_id":"4","last_reported":1677013608,"current_range_meters":25200,"station_id":"ce4bhqp2rcd13ifvqhog","pricing_plan_id":"free"},{"bike_id":"4821fcc6-3ef3-4feb-99d2-a6d88de1b7dd","system_id":"levelo_inurba_marseille","lat":43.32367,"lon":5.388836,"is_reserved":false,"is_disabled":false,"rental_uris":{"android":"levelo://app?vid=4821fcc6-3ef3-4feb-99d2-a6d88de1b7dd","ios":"levelo://app?vid=4821fcc6-3ef3-4feb-99d2-a6d88de1b7dd"},"vehicle_type_id":"4","last_reported":1677013608,"current_range_meters":12400,"station_id":"ce4bhqp2rcd13ifvqhog","pricing_plan_id":"free"},{"bike_id":"636860b9-ce00-49dd-81ca-1ee40142aca4","system_id":"levelo_inurba_marseille","lat":43.32367,"lon":5.388836,"is_reserved":false,"is_disabled":false,"rental_uris":{"android":"levelo://app?vid=636860b9-ce00-49dd-81ca-1ee40142aca4","ios":"levelo://app?vid=636860b9-ce00-49dd-81ca-1ee40142aca4"},"vehicle_type_id":"4","last_reported":1677013608,"current_range_meters":21200,"station_id":"ce4bhqp2rcd13ifvqhog","pricing_plan_id":"free"},{"bike_id":"9de07007-2f0a-4e79-8ee9-bae81fcb84fc","system_id":"levelo_inurba_marseille","lat":43.32367,"lon":5.388836,"is_reserved":false,"is_disabled":false,"rental_uris":{"android":"levelo://app?vid=9de07007-2f0a-4e79-8ee9-bae81fcb84fc","ios":"levelo://app?vid=9de07007-2f0a-4e79-8ee9-bae81fcb84fc"},"vehicle_type_id":"4","last_reported":1677013608,"current_range_meters":23200,"station_id":"ce4bhqp2rcd13ifvqhog","pricing_plan_id":"free"},{"bike_id":"ad763750-9e7b-47c9-858a-425e7d3ebd56","system_id":"levelo_inurba_marseille","lat":43.32369,"lon":5.38884,"is_reserved":false,"is_disabled":false,"rental_uris":{"android":"levelo://app?vid=ad763750-9e7b-47c9-858a-425e7d3ebd56","ios":"levelo://app?vid=ad763750-9e7b-47c9-858a-425e7d3ebd56"},"vehicle_type_id":"4","last_reported":1677013608,"current_range_meters":25600,"station_id":"","pricing_plan_id":"free"},{"bike_id":"96d768b0-ff0b-44be-a14b-d4484e3897ac","system_id":"levelo_inurba_marseille","lat":43.32296,"lon":5.38966,"is_reserved":false,"is_disabled":false,"rental_uris":{"android":"levelo://app?vid=96d768b0-ff0b-44be-a14b-d4484e3897ac","ios":"levelo://app?vid=96d768b0-ff0b-44be-a14b-d4484e3897ac"},"vehicle_type_id":"4","last_reported":1677013608,"current_range_meters":20800,"station_id":"","pricing_plan_id":"free"},{"bike_id":"fdd92bcf-df80-43f1-a242-d8469ac09bc9","system_id":"levelo_inurba_marseille","lat":43.305994,"lon":5.393687,"is_reserved":false,"is_disabled":false,"rental_uris":{"android":"levelo://app?vid=fdd92bcf-df80-43f1-a242-d8469ac09bc9","ios":"levelo://app?vid=fdd92bcf-df80-43f1-a242-d8469ac09bc9"},"vehicle_type_id":"4","last_reported":1677013608,"current_range_meters":22800,"station_id":"ce4bh0p2rcd13ifvqd80","pricing_plan_id":"free"},{"bike_id":"a478b935-cbaa-4ee0-a917-29df7526f1d4","system_id":"levelo_inurba_marseille","lat":43.305994,"lon":5.393687,"is_reserved":false,"is_disabled":false,"rental_uris":{"android":"levelo://app?vid=a478b935-cbaa-4ee0-a917-29df7526f1d4","ios":"levelo://app?vid=a478b935-cbaa-4ee0-a917-29df7526f1d4"},"vehicle_type_id":"4","last_reported":1677013608,"current_range_meters":10800,"station_id":"ce4bh0p2rcd13ifvqd80","pricing_plan_id":"free"},{"bike_id":"e3278a90-f631-41d3-b56e-639c8c17f951","system_id":"levelo_inurba_marseille","lat":43.305994,"lon":5.393687,"is_reserved":false,"is_disabled":false,"rental_uris":{"android":"levelo://app?vid=e3278a90-f631-41d3-b56e-639c8c17f951","ios":"levelo://app?vid=e3278a90-f631-41d3-b56e-639c8c17f951"},"vehicle_type_id":"4","last_reported":1677013608,"current_range_meters":19600,"station_id":"ce4bh0p2rcd13ifvqd80","pricing_plan_id":"free"},{"bike_id":"eb51647c-bb6d-4ebc-bfd3-fe3e32826ca0","system_id":"levelo_inurba_marseille","lat":43.305994,"lon":5.393687,"is_reserved":false,"is_disabled":false,"rental_uris":{"android":"levelo://app?vid=eb51647c-bb6d-4ebc-bfd3-fe3e32826ca0","ios":"levelo://app?vid=eb51647c-bb6d-4ebc-bfd3-fe3e32826ca0"},"vehicle_type_id":"4","last_reported":1677013608,"current_range_meters":13600,"station_id":"ce4bh0p2rcd13ifvqd80","pricing_plan_id":"free"},{"bike_id":"cdace79b-b1a1-4828-9143-71f993a84f86","system_id":"levelo_inurba_marseille","lat":43.305994,"lon":5.393687,"is_reserved":false,"is_disabled":false,"rental_uris":{"android":"levelo://app?vid=cdace79b-b1a1-4828-9143-71f993a84f86","ios":"levelo://app?vid=cdace79b-b1a1-4828-9143-71f993a84f86"},"vehicle_type_id":"4","last_reported":1677013608,"current_range_meters":4800,"station_id":"ce4bh0p2rcd13ifvqd80","pricing_plan_id":"free"},{"bike_id":"47299705-5f35-443d-abff-1739f13d0b20","system_id":"levelo_inurba_marseille","lat":43.305994,"lon":5.393687,"is_reserved":false,"is_disabled":false,"rental_uris":{"android":"levelo://app?vid=47299705-5f35-443d-abff-1739f13d0b20","ios":"levelo://app?vid=47299705-5f35-443d-abff-1739f13d0b20"},"vehicle_type_id":"4","last_reported":1677013608,"current_range_meters":11200,"station_id":"ce4bh0p2rcd13ifvqd80","pricing_plan_id":"free"},{"bike_id":"c0bc6279-94e4-4f00-8ffb-887651430d5b","system_id":"levelo_inurba_marseille","lat":43.305994,"lon":5.393687,"is_reserved":false,"is_disabled":false,"rental_uris":{"android":"levelo://app?vid=c0bc6279-94e4-4f00-8ffb-887651430d5b","ios":"levelo://app?vid=c0bc6279-94e4-4f00-8ffb-887651430d5b"},"vehicle_type_id":"4","last_reported":1677013608,"current_range_meters":6000,"station_id":"ce4bh0p2rcd13ifvqd80","pricing_plan_id":"free"},{"bike_id":"82b7379c-3cdb-4ee7-9ad5-f19590890539","system_id":"levelo_inurba_marseille","lat":43.305994,"lon":5.393687,"is_reserved":false,"is_disabled":false,"rental_uris":{"android":"levelo://app?vid=82b7379c-3cdb-4ee7-9ad5-f19590890539","ios":"levelo://app?vid=82b7379c-3cdb-4ee7-9ad5-f19590890539"},"vehicle_type_id":"4","last_reported":1677013608,"current_range_meters":16800,"station_id":"ce4bh0p2rcd13ifvqd80","pricing_plan_id":"free"},{"bike_id":"74ec574e-8ae1-444b-a664-e77d052148f2","system_id":"levelo_inurba_marseille","lat":43.305994,"lon":5.393687,"is_reserved":false,"is_disabled":false,"rental_uris":{"android":"levelo://app?vid=74ec574e-8ae1-444b-a664-e77d052148f2","ios":"levelo://app?vid=74ec574e-8ae1-444b-a664-e77d052148f2"},"vehicle_type_id":"4","last_reported":1677013608,"current_range_meters":9600,"station_id":"ce4bh0p2rcd13ifvqd80","pricing_plan_id":"free"},{"bike_id":"580489c3-ca2a-4a99-8b17-7af9fd3b2163","system_id":"levelo_inurba_marseille","lat":43.305994,"lon":5.393687,"is_reserved":false,"is_disabled":false,"rental_uris":{"android":"levelo://app?vid=580489c3-ca2a-4a99-8b17-7af9fd3b2163","ios":"levelo://app?vid=580489c3-ca2a-4a99-8b17-7af9fd3b2163"},"vehicle_type_id":"4","last_reported":1677013608,"current_range_meters":24800,"station_id":"ce4bh0p2rcd13ifvqd80","pricing_plan_id":"free"},{"bike_id":"84101e77-e901-4775-bcb3-5556e3951d9a","system_id":"levelo_inurba_marseille","lat":43.292311,"lon":5.360731,"is_reserved":false,"is_disabled":false,"rental_uris":{"android":"levelo://app?vid=84101e77-e901-4775-bcb3-5556e3951d9a","ios":"levelo://app?vid=84101e77-e901-4775-bcb3-5556e3951d9a"},"vehicle_type_id":"4","last_reported":1677013608,"current_range_meters":13200,"station_id":"ce4bhbh2rcd13ifvqeqg","pricing_plan_id":"free"},{"bike_id":"12ce5a6d-d07b-4c77-8629-e6db0df73974","system_id":"levelo_inurba_marseille","lat":43.2923,"lon":5.36071,"is_reserved":false,"is_disabled":false,"rental_uris":{"android":"levelo://app?vid=12ce5a6d-d07b-4c77-8629-e6db0df73974","ios":"levelo://app?vid=12ce5a6d-d07b-4c77-8629-e6db0df73974"},"vehicle_type_id":"4","last_reported":1677013608,"current_range_meters":18000,"station_id":"","pricing_plan_id":"free"},{"bike_id":"cf8dbfc8-fbff-46ae-8987-24f2fd4830ee","system_id":"levelo_inurba_marseille","lat":43.300852,"lon":5.390859,"is_reserved":false,"is_disabled":false,"rental_uris":{"android":"levelo://app?vid=cf8dbfc8-fbff-46ae-8987-24f2fd4830ee","ios":"levelo://app?vid=cf8dbfc8-fbff-46ae-8987-24f2fd4830ee"},"vehicle_type_id":"4","last_reported":1677013608,"current_range_meters":8400,"station_id":"ce4bh192rcd13ifvqdb0","pricing_plan_id":"free"},{"bike_id":"091efc28-3973-481a-a557-79a5b70e7f31","system_id":"levelo_inurba_marseille","lat":43.29229,"lon":5.36068,"is_reserved":false,"is_disabled":false,"rental_uris":{"android":"levelo://app?vid=091efc28-3973-481a-a557-79a5b70e7f31","ios":"levelo://app?vid=091efc28-3973-481a-a557-79a5b70e7f31"},"vehicle_type_id":"4","last_reported":1677013608,"current_range_meters":17600,"station_id":"ce4bhbh2rcd13ifvqeqg","pricing_plan_id":"free"},{"bike_id":"9a7dbc8a-1e74-4804-8cc1-3066900b49d0","system_id":"levelo_inurba_marseille","lat":43.29226,"lon":5.360692,"is_reserved":false,"is_disabled":false,"rental_uris":{"android":"levelo://app?vid=9a7dbc8a-1e74-4804-8cc1-3066900b49d0","ios":"levelo://app?vid=9a7dbc8a-1e74-4804-8cc1-3066900b49d0"},"vehicle_type_id":"4","last_reported":1677013608,"current_range_meters":2000,"station_id":"ce4bhbh2rcd13ifvqeqg","pricing_plan_id":"free"},{"bike_id":"8e8d09a4-6d05-413f-b2cf-b434cf67d31f","system_id":"levelo_inurba_marseille","lat":43.292311,"lon":5.360731,"is_reserved":false,"is_disabled":false,"rental_uris":{"android":"levelo://app?vid=8e8d09a4-6d05-413f-b2cf-b434cf67d31f","ios":"levelo://app?vid=8e8d09a4-6d05-413f-b2cf-b434cf67d31f"},"vehicle_type_id":"4","last_reported":1677013608,"current_range_meters":31600,"station_id":"ce4bhbh2rcd13ifvqeqg","pricing_plan_id":"free"},{"bike_id":"93d8b3f3-779c-4652-86d1-c544651a6107","system_id":"levelo_inurba_marseille","lat":43.292311,"lon":5.360731,"is_reserved":false,"is_disabled":false,"rental_uris":{"android":"levelo://app?vid=93d8b3f3-779c-4652-86d1-c544651a6107","ios":"levelo://app?vid=93d8b3f3-779c-4652-86d1-c544651a6107"},"vehicle_type_id":"4","last_reported":1677013608,"current_range_meters":30400,"station_id":"ce4bhbh2rcd13ifvqeqg","pricing_plan_id":"free"},{"bike_id":"139cde0e-b7bd-4f62-8dfd-a500beb973bd","system_id":"levelo_inurba_marseille","lat":43.300852,"lon":5.390859,"is_reserved":false,"is_disabled":false,"rental_uris":{"android":"levelo://app?vid=139cde0e-b7bd-4f62-8dfd-a500beb973bd","ios":"levelo://app?vid=139cde0e-b7bd-4f62-8dfd-a500beb973bd"},"vehicle_type_id":"4","last_reported":1677013608,"current_range_meters":28800,"station_id":"ce4bh192rcd13ifvqdb0","pricing_plan_id":"free"},{"bike_id":"2ee23e30-197d-4495-8c73-a86b5020cd93","system_id":"levelo_inurba_marseille","lat":43.298764,"lon":5.388973,"is_reserved":false,"is_disabled":false,"rental_uris":{"android":"levelo://app?vid=2ee23e30-197d-4495-8c73-a86b5020cd93","ios":"levelo://app?vid=2ee23e30-197d-4495-8c73-a86b5020cd93"},"vehicle_type_id":"4","last_reported":1677013608,"current_range_meters":6800,"station_id":"ce4bh392rcd13ifvqdl0","pricing_plan_id":"free"},{"bike_id":"e535970e-5fee-41ae-a6ec-443de4ef630f","system_id":"levelo_inurba_marseille","lat":43.298764,"lon":5.388973,"is_reserved":false,"is_disabled":false,"rental_uris":{"android":"levelo://app?vid=e535970e-5fee-41ae-a6ec-443de4ef630f","ios":"levelo://app?vid=e535970e-5fee-41ae-a6ec-443de4ef630f"},"vehicle_type_id":"4","last_reported":1677013608,"current_range_meters":19600,"station_id":"ce4bh392rcd13ifvqdl0","pricing_plan_id":"free"},{"bike_id":"50147afc-b055-4446-af3a-6629f3a4d918","system_id":"levelo_inurba_marseille","lat":43.298764,"lon":5.388973,"is_reserved":false,"is_disabled":false,"rental_uris":{"android":"levelo://app?vid=50147afc-b055-4446-af3a-6629f3a4d918","ios":"levelo://app?vid=50147afc-b055-4446-af3a-6629f3a4d918"},"vehicle_type_id":"4","last_reported":1677013608,"current_range_meters":0,"station_id":"ce4bh392rcd13ifvqdl0","pricing_plan_id":"free"},{"bike_id":"0a14accd-0fc7-4c38-b4f6-b448d44db4c2","system_id":"levelo_inurba_marseille","lat":43.298764,"lon":5.388973,"is_reserved":false,"is_disabled":false,"rental_uris":{"android":"levelo://app?vid=0a14accd-0fc7-4c38-b4f6-b448d44db4c2","ios":"levelo://app?vid=0a14accd-0fc7-4c38-b4f6-b448d44db4c2"},"vehicle_type_id":"4","last_reported":1677013608,"current_range_meters":15200,"station_id":"ce4bh392rcd13ifvqdl0","pricing_plan_id":"free"},{"bike_id":"1d0f08c2-cfdd-4455-b5dd-9a1570bf3649","system_id":"levelo_inurba_marseille","lat":43.31329,"lon":5.39686,"is_reserved":false,"is_disabled":false,"rental_uris":{"android":"levelo://app?vid=1d0f08c2-cfdd-4455-b5dd-9a1570bf3649","ios":"levelo://app?vid=1d0f08c2-cfdd-4455-b5dd-9a1570bf3649"},"vehicle_type_id":"4","last_reported":1677013608,"current_range_meters":10400,"station_id":"","pricing_plan_id":"free"},{"bike_id":"65580627-6d76-4bce-b134-49d7ffd88af2","system_id":"levelo_inurba_marseille","lat":43.313293,"lon":5.396893,"is_reserved":false,"is_disabled":false,"rental_uris":{"android":"levelo://app?vid=65580627-6d76-4bce-b134-49d7ffd88af2","ios":"levelo://app?vid=65580627-6d76-4bce-b134-49d7ffd88af2"},"vehicle_type_id":"4","last_reported":1677013608,"current_range_meters":22400,"station_id":"","pricing_plan_id":"free"},{"bike_id":"ae485313-65a8-408e-9a0d-5d7eed71ef10","system_id":"levelo_inurba_marseille","lat":43.313258,"lon":5.396895,"is_reserved":false,"is_disabled":false,"rental_uris":{"android":"levelo://app?vid=ae485313-65a8-408e-9a0d-5d7eed71ef10","ios":"levelo://app?vid=ae485313-65a8-408e-9a0d-5d7eed71ef10"},"vehicle_type_id":"4","last_reported":1677013608,"current_range_meters":13200,"station_id":"ce4bgvp2rcd13ifvqcu0","pricing_plan_id":"free"},{"bike_id":"e610d252-6c11-4935-9ff3-ba3cf769d833","system_id":"levelo_inurba_marseille","lat":43.313291,"lon":5.396838,"is_reserved":false,"is_disabled":false,"rental_uris":{"android":"levelo://app?vid=e610d252-6c11-4935-9ff3-ba3cf769d833","ios":"levelo://app?vid=e610d252-6c11-4935-9ff3-ba3cf769d833"},"vehicle_type_id":"4","last_reported":1677013608,"current_range_meters":12000,"station_id":"ce4bgvp2rcd13ifvqcu0","pricing_plan_id":"free"},{"bike_id":"2b75d94e-65a6-4755-ba02-1a099a85ecc2","system_id":"levelo_inurba_marseille","lat":43.3133,"lon":5.3969,"is_reserved":false,"is_disabled":false,"rental_uris":{"android":"levelo://app?vid=2b75d94e-65a6-4755-ba02-1a099a85ecc2","ios":"levelo://app?vid=2b75d94e-65a6-4755-ba02-1a099a85ecc2"},"vehicle_type_id":"4","last_reported":1677013608,"current_range_meters":1600,"station_id":"ce4bgvp2rcd13ifvqcu0","pricing_plan_id":"free"},{"bike_id":"f101b930-cb59-4498-ae93-a25af2daf06e","system_id":"levelo_inurba_marseille","lat":43.3133,"lon":5.3969,"is_reserved":false,"is_disabled":false,"rental_uris":{"android":"levelo://app?vid=f101b930-cb59-4498-ae93-a25af2daf06e","ios":"levelo://app?vid=f101b930-cb59-4498-ae93-a25af2daf06e"},"vehicle_type_id":"4","last_reported":1677013608,"current_range_meters":16000,"station_id":"ce4bgvp2rcd13ifvqcu0","pricing_plan_id":"free"},{"bike_id":"d498c9cf-23b5-4b9b-af37-b55aef7a789b","system_id":"levelo_inurba_marseille","lat":43.313301,"lon":5.396917,"is_reserved":false,"is_disabled":false,"rental_uris":{"android":"levelo://app?vid=d498c9cf-23b5-4b9b-af37-b55aef7a789b","ios":"levelo://app?vid=d498c9cf-23b5-4b9b-af37-b55aef7a789b"},"vehicle_type_id":"4","last_reported":1677013608,"current_range_meters":26800,"station_id":"","pricing_plan_id":"free"},{"bike_id":"a31946fe-e974-4023-885e-9523c46d8754","system_id":"levelo_inurba_marseille","lat":43.31325,"lon":5.39692,"is_reserved":false,"is_disabled":false,"rental_uris":{"android":"levelo://app?vid=a31946fe-e974-4023-885e-9523c46d8754","ios":"levelo://app?vid=a31946fe-e974-4023-885e-9523c46d8754"},"vehicle_type_id":"4","last_reported":1677013608,"current_range_meters":31600,"station_id":"ce4bgvp2rcd13ifvqcu0","pricing_plan_id":"free"},{"bike_id":"bd4404a1-0669-4afe-8e7f-4a91917d2866","system_id":"levelo_inurba_marseille","lat":43.313291,"lon":5.396838,"is_reserved":false,"is_disabled":false,"rental_uris":{"android":"levelo://app?vid=bd4404a1-0669-4afe-8e7f-4a91917d2866","ios":"levelo://app?vid=bd4404a1-0669-4afe-8e7f-4a91917d2866"},"vehicle_type_id":"4","last_reported":1677013608,"current_range_meters":29600,"station_id":"ce4bgvp2rcd13ifvqcu0","pricing_plan_id":"free"},{"bike_id":"bdae90e9-65b6-4c74-afbc-7eff74cf9351","system_id":"levelo_inurba_marseille","lat":43.31329,"lon":5.39694,"is_reserved":false,"is_disabled":false,"rental_uris":{"android":"levelo://app?vid=bdae90e9-65b6-4c74-afbc-7eff74cf9351","ios":"levelo://app?vid=bdae90e9-65b6-4c74-afbc-7eff74cf9351"},"vehicle_type_id":"4","last_reported":1677013608,"current_range_meters":13200,"station_id":"","pricing_plan_id":"free"},{"bike_id":"b052aa27-7943-47f3-bc7d-df3d7d015386","system_id":"levelo_inurba_marseille","lat":43.31332,"lon":5.39694,"is_reserved":false,"is_disabled":false,"rental_uris":{"android":"levelo://app?vid=b052aa27-7943-47f3-bc7d-df3d7d015386","ios":"levelo://app?vid=b052aa27-7943-47f3-bc7d-df3d7d015386"},"vehicle_type_id":"4","last_reported":1677013608,"current_range_meters":17600,"station_id":"","pricing_plan_id":"free"},{"bike_id":"ccddc2c9-b2ad-4603-82a6-8be4212cd0ff","system_id":"levelo_inurba_marseille","lat":43.31333,"lon":5.39694,"is_reserved":false,"is_disabled":false,"rental_uris":{"android":"levelo://app?vid=ccddc2c9-b2ad-4603-82a6-8be4212cd0ff","ios":"levelo://app?vid=ccddc2c9-b2ad-4603-82a6-8be4212cd0ff"},"vehicle_type_id":"4","last_reported":1677013608,"current_range_meters":15600,"station_id":"ce4bgvp2rcd13ifvqcu0","pricing_plan_id":"free"},{"bike_id":"b99ece43-50d3-46f8-8452-5e9d366f436b","system_id":"levelo_inurba_marseille","lat":43.31321,"lon":5.39695,"is_reserved":false,"is_disabled":false,"rental_uris":{"android":"levelo://app?vid=b99ece43-50d3-46f8-8452-5e9d366f436b","ios":"levelo://app?vid=b99ece43-50d3-46f8-8452-5e9d366f436b"},"vehicle_type_id":"4","last_reported":1677013608,"current_range_meters":25200,"station_id":"ce4bgvp2rcd13ifvqcu0","pricing_plan_id":"free"},{"bike_id":"87639c56-b448-4980-a422-e7f6f0067531","system_id":"levelo_inurba_marseille","lat":43.31324,"lon":5.39695,"is_reserved":false,"is_disabled":false,"rental_uris":{"android":"levelo://app?vid=87639c56-b448-4980-a422-e7f6f0067531","ios":"levelo://app?vid=87639c56-b448-4980-a422-e7f6f0067531"},"vehicle_type_id":"4","last_reported":1677013608,"current_range_meters":21600,"station_id":"","pricing_plan_id":"free"},{"bike_id":"8b1f5dc1-bdd2-4375-a47c-eb47bf708e2c","system_id":"levelo_inurba_marseille","lat":43.31332,"lon":5.39695,"is_reserved":false,"is_disabled":false,"rental_uris":{"android":"levelo://app?vid=8b1f5dc1-bdd2-4375-a47c-eb47bf708e2c","ios":"levelo://app?vid=8b1f5dc1-bdd2-4375-a47c-eb47bf708e2c"},"vehicle_type_id":"4","last_reported":1677013608,"current_range_meters":17600,"station_id":"","pricing_plan_id":"free"},{"bike_id":"b7cba92e-7626-4edc-bf57-67d2a8cd133e","system_id":"levelo_inurba_marseille","lat":43.31326,"lon":5.39696,"is_reserved":false,"is_disabled":false,"rental_uris":{"android":"levelo://app?vid=b7cba92e-7626-4edc-bf57-67d2a8cd133e","ios":"levelo://app?vid=b7cba92e-7626-4edc-bf57-67d2a8cd133e"},"vehicle_type_id":"4","last_reported":1677013608,"current_range_meters":18000,"station_id":"ce4bgvp2rcd13ifvqcu0","pricing_plan_id":"free"},{"bike_id":"7e026940-2f87-4827-b358-44cda3b6a35b","system_id":"levelo_inurba_marseille","lat":43.31331,"lon":5.39697,"is_reserved":false,"is_disabled":false,"rental_uris":{"android":"levelo://app?vid=7e026940-2f87-4827-b358-44cda3b6a35b","ios":"levelo://app?vid=7e026940-2f87-4827-b358-44cda3b6a35b"},"vehicle_type_id":"4","last_reported":1677013608,"current_range_meters":16400,"station_id":"ce4bgvp2rcd13ifvqcu0","pricing_plan_id":"free"},{"bike_id":"7921f092-353e-403e-9f01-605cd3a7f736","system_id":"levelo_inurba_marseille","lat":43.313309,"lon":5.396971,"is_reserved":false,"is_disabled":false,"rental_uris":{"android":"levelo://app?vid=7921f092-353e-403e-9f01-605cd3a7f736","ios":"levelo://app?vid=7921f092-353e-403e-9f01-605cd3a7f736"},"vehicle_type_id":"4","last_reported":1677013608,"current_range_meters":27600,"station_id":"","pricing_plan_id":"free"},{"bike_id":"2e7e5eef-e0f0-4bf8-867c-8d6bf377f15d","system_id":"levelo_inurba_marseille","lat":43.31324,"lon":5.39698,"is_reserved":false,"is_disabled":false,"rental_uris":{"android":"levelo://app?vid=2e7e5eef-e0f0-4bf8-867c-8d6bf377f15d","ios":"levelo://app?vid=2e7e5eef-e0f0-4bf8-867c-8d6bf377f15d"},"vehicle_type_id":"4","last_reported":1677013608,"current_range_meters":20000,"station_id":"","pricing_plan_id":"free"},{"bike_id":"ec8ce9b7-7bac-4446-a93b-d911b13b5ab9","system_id":"levelo_inurba_marseille","lat":43.313276,"lon":5.396983,"is_reserved":false,"is_disabled":false,"rental_uris":{"android":"levelo://app?vid=ec8ce9b7-7bac-4446-a93b-d911b13b5ab9","ios":"levelo://app?vid=ec8ce9b7-7bac-4446-a93b-d911b13b5ab9"},"vehicle_type_id":"4","last_reported":1677013608,"current_range_meters":29200,"station_id":"ce4bgvp2rcd13ifvqcu0","pricing_plan_id":"free"},{"bike_id":"d05e7c88-a4cf-4932-b267-e7d08fb4c6d3","system_id":"levelo_inurba_marseille","lat":43.313291,"lon":5.396838,"is_reserved":false,"is_disabled":false,"rental_uris":{"android":"levelo://app?vid=d05e7c88-a4cf-4932-b267-e7d08fb4c6d3","ios":"levelo://app?vid=d05e7c88-a4cf-4932-b267-e7d08fb4c6d3"},"vehicle_type_id":"4","last_reported":1677013608,"current_range_meters":30000,"station_id":"ce4bgvp2rcd13ifvqcu0","pricing_plan_id":"free"},{"bike_id":"b83305c3-a60e-421d-9725-8127da49a0aa","system_id":"levelo_inurba_marseille","lat":43.31325,"lon":5.39701,"is_reserved":false,"is_disabled":false,"rental_uris":{"android":"levelo://app?vid=b83305c3-a60e-421d-9725-8127da49a0aa","ios":"levelo://app?vid=b83305c3-a60e-421d-9725-8127da49a0aa"},"vehicle_type_id":"4","last_reported":1677013608,"current_range_meters":31200,"station_id":"ce4bgvp2rcd13ifvqcu0","pricing_plan_id":"free"},{"bike_id":"1228af27-c54f-4d3e-bc27-e5c5383d4f26","system_id":"levelo_inurba_marseille","lat":43.31327,"lon":5.39702,"is_reserved":false,"is_disabled":false,"rental_uris":{"android":"levelo://app?vid=1228af27-c54f-4d3e-bc27-e5c5383d4f26","ios":"levelo://app?vid=1228af27-c54f-4d3e-bc27-e5c5383d4f26"},"vehicle_type_id":"4","last_reported":1677013608,"current_range_meters":12800,"station_id":"ce4bgvp2rcd13ifvqcu0","pricing_plan_id":"free"},{"bike_id":"473e1904-1e69-46fd-87c7-7f36e61661c1","system_id":"levelo_inurba_marseille","lat":43.313291,"lon":5.396838,"is_reserved":false,"is_disabled":false,"rental_uris":{"android":"levelo://app?vid=473e1904-1e69-46fd-87c7-7f36e61661c1","ios":"levelo://app?vid=473e1904-1e69-46fd-87c7-7f36e61661c1"},"vehicle_type_id":"4","last_reported":1677013608,"current_range_meters":29600,"station_id":"ce4bgvp2rcd13ifvqcu0","pricing_plan_id":"free"},{"bike_id":"3adf8e8a-0038-4d36-9e03-99d99d13da7c","system_id":"levelo_inurba_marseille","lat":43.31331,"lon":5.39702,"is_reserved":false,"is_disabled":false,"rental_uris":{"android":"levelo://app?vid=3adf8e8a-0038-4d36-9e03-99d99d13da7c","ios":"levelo://app?vid=3adf8e8a-0038-4d36-9e03-99d99d13da7c"},"vehicle_type_id":"4","last_reported":1677013608,"current_range_meters":28800,"station_id":"","pricing_plan_id":"free"},{"bike_id":"d4b03af4-e567-457b-9435-c557ca3645e7","system_id":"levelo_inurba_marseille","lat":43.29529,"lon":5.385581,"is_reserved":false,"is_disabled":false,"rental_uris":{"android":"levelo://app?vid=d4b03af4-e567-457b-9435-c557ca3645e7","ios":"levelo://app?vid=d4b03af4-e567-457b-9435-c557ca3645e7"},"vehicle_type_id":"4","last_reported":1677013608,"current_range_meters":31600,"station_id":"ce4bgih2rcd13ifvqba0","pricing_plan_id":"free"},{"bike_id":"d5cf42e3-3a50-4832-8457-c85edb508345","system_id":"levelo_inurba_marseille","lat":43.29529,"lon":5.385581,"is_reserved":false,"is_disabled":false,"rental_uris":{"android":"levelo://app?vid=d5cf42e3-3a50-4832-8457-c85edb508345","ios":"levelo://app?vid=d5cf42e3-3a50-4832-8457-c85edb508345"},"vehicle_type_id":"4","last_reported":1677013608,"current_range_meters":1200,"station_id":"ce4bgih2rcd13ifvqba0","pricing_plan_id":"free"},{"bike_id":"597135b6-afd0-4d41-8cb1-9df9ce9047d3","system_id":"levelo_inurba_marseille","lat":43.29529,"lon":5.385581,"is_reserved":false,"is_disabled":false,"rental_uris":{"android":"levelo://app?vid=597135b6-afd0-4d41-8cb1-9df9ce9047d3","ios":"levelo://app?vid=597135b6-afd0-4d41-8cb1-9df9ce9047d3"},"vehicle_type_id":"4","last_reported":1677013608,"current_range_meters":6400,"station_id":"ce4bgih2rcd13ifvqba0","pricing_plan_id":"free"},{"bike_id":"5cdff23c-2f78-4f42-89c9-2b40121d54bf","system_id":"levelo_inurba_marseille","lat":43.29529,"lon":5.385581,"is_reserved":false,"is_disabled":false,"rental_uris":{"android":"levelo://app?vid=5cdff23c-2f78-4f42-89c9-2b40121d54bf","ios":"levelo://app?vid=5cdff23c-2f78-4f42-89c9-2b40121d54bf"},"vehicle_type_id":"4","last_reported":1677013608,"current_range_meters":22400,"station_id":"ce4bgih2rcd13ifvqba0","pricing_plan_id":"free"},{"bike_id":"41b93eb5-270a-4870-93d2-df6798433382","system_id":"levelo_inurba_marseille","lat":43.295313,"lon":5.38538,"is_reserved":false,"is_disabled":false,"rental_uris":{"android":"levelo://app?vid=41b93eb5-270a-4870-93d2-df6798433382","ios":"levelo://app?vid=41b93eb5-270a-4870-93d2-df6798433382"},"vehicle_type_id":"4","last_reported":1677013608,"current_range_meters":1200,"station_id":"ce4bgih2rcd13ifvqba0","pricing_plan_id":"free"},{"bike_id":"1801ba0e-76ab-4bf1-9409-cdcc1ff0090a","system_id":"levelo_inurba_marseille","lat":43.29529,"lon":5.385581,"is_reserved":false,"is_disabled":false,"rental_uris":{"android":"levelo://app?vid=1801ba0e-76ab-4bf1-9409-cdcc1ff0090a","ios":"levelo://app?vid=1801ba0e-76ab-4bf1-9409-cdcc1ff0090a"},"vehicle_type_id":"4","last_reported":1677013608,"current_range_meters":26800,"station_id":"ce4bgih2rcd13ifvqba0","pricing_plan_id":"free"},{"bike_id":"6761c7a0-02a0-425a-bbc0-b9a2e83018ac","system_id":"levelo_inurba_marseille","lat":43.29533,"lon":5.38546,"is_reserved":false,"is_disabled":false,"rental_uris":{"android":"levelo://app?vid=6761c7a0-02a0-425a-bbc0-b9a2e83018ac","ios":"levelo://app?vid=6761c7a0-02a0-425a-bbc0-b9a2e83018ac"},"vehicle_type_id":"4","last_reported":1677013608,"current_range_meters":4800,"station_id":"ce4bgih2rcd13ifvqba0","pricing_plan_id":"free"},{"bike_id":"6e7a9ade-11e7-47b9-9262-6e60b79a479a","system_id":"levelo_inurba_marseille","lat":43.29529,"lon":5.385581,"is_reserved":false,"is_disabled":false,"rental_uris":{"android":"levelo://app?vid=6e7a9ade-11e7-47b9-9262-6e60b79a479a","ios":"levelo://app?vid=6e7a9ade-11e7-47b9-9262-6e60b79a479a"},"vehicle_type_id":"4","last_reported":1677013608,"current_range_meters":28000,"station_id":"ce4bgih2rcd13ifvqba0","pricing_plan_id":"free"},{"bike_id":"4bebae80-7bee-46b9-bc8d-9a620d9f80b6","system_id":"levelo_inurba_marseille","lat":43.29529,"lon":5.385581,"is_reserved":false,"is_disabled":false,"rental_uris":{"android":"levelo://app?vid=4bebae80-7bee-46b9-bc8d-9a620d9f80b6","ios":"levelo://app?vid=4bebae80-7bee-46b9-bc8d-9a620d9f80b6"},"vehicle_type_id":"4","last_reported":1677013608,"current_range_meters":28000,"station_id":"ce4bgih2rcd13ifvqba0","pricing_plan_id":"free"},{"bike_id":"83e247a8-35c7-4a27-88ce-6fd1ed22597c","system_id":"levelo_inurba_marseille","lat":43.29529,"lon":5.385581,"is_reserved":false,"is_disabled":false,"rental_uris":{"android":"levelo://app?vid=83e247a8-35c7-4a27-88ce-6fd1ed22597c","ios":"levelo://app?vid=83e247a8-35c7-4a27-88ce-6fd1ed22597c"},"vehicle_type_id":"4","last_reported":1677013608,"current_range_meters":10400,"station_id":"ce4bgih2rcd13ifvqba0","pricing_plan_id":"free"},{"bike_id":"4e31f680-37d4-405d-9ded-b1d385801fc9","system_id":"levelo_inurba_marseille","lat":43.29529,"lon":5.385581,"is_reserved":false,"is_disabled":false,"rental_uris":{"android":"levelo://app?vid=4e31f680-37d4-405d-9ded-b1d385801fc9","ios":"levelo://app?vid=4e31f680-37d4-405d-9ded-b1d385801fc9"},"vehicle_type_id":"4","last_reported":1677013608,"current_range_meters":4400,"station_id":"ce4bgih2rcd13ifvqba0","pricing_plan_id":"free"},{"bike_id":"f859ba26-63df-40e1-a1da-00a550fb8896","system_id":"levelo_inurba_marseille","lat":43.290779,"lon":5.371482,"is_reserved":false,"is_disabled":false,"rental_uris":{"android":"levelo://app?vid=f859ba26-63df-40e1-a1da-00a550fb8896","ios":"levelo://app?vid=f859ba26-63df-40e1-a1da-00a550fb8896"},"vehicle_type_id":"4","last_reported":1677013608,"current_range_meters":24800,"station_id":"ce4bh5p2rcd13ifvqe4g","pricing_plan_id":"free"},{"bike_id":"ab576438-c660-4f28-a97a-e9a6424dc6e3","system_id":"levelo_inurba_marseille","lat":43.290779,"lon":5.371482,"is_reserved":false,"is_disabled":false,"rental_uris":{"android":"levelo://app?vid=ab576438-c660-4f28-a97a-e9a6424dc6e3","ios":"levelo://app?vid=ab576438-c660-4f28-a97a-e9a6424dc6e3"},"vehicle_type_id":"4","last_reported":1677013608,"current_range_meters":22800,"station_id":"ce4bh5p2rcd13ifvqe4g","pricing_plan_id":"free"},{"bike_id":"f67485f5-f42e-4e24-9917-914f885b3fdb","system_id":"levelo_inurba_marseille","lat":43.3225,"lon":5.39481,"is_reserved":false,"is_disabled":false,"rental_uris":{"android":"levelo://app?vid=f67485f5-f42e-4e24-9917-914f885b3fdb","ios":"levelo://app?vid=f67485f5-f42e-4e24-9917-914f885b3fdb"},"vehicle_type_id":"4","last_reported":1677013608,"current_range_meters":16000,"station_id":"","pricing_plan_id":"free"},{"bike_id":"91c2739c-f97a-46bf-bb48-652497f315c8","system_id":"levelo_inurba_marseille","lat":43.290779,"lon":5.371482,"is_reserved":false,"is_disabled":false,"rental_uris":{"android":"levelo://app?vid=91c2739c-f97a-46bf-bb48-652497f315c8","ios":"levelo://app?vid=91c2739c-f97a-46bf-bb48-652497f315c8"},"vehicle_type_id":"4","last_reported":1677013608,"current_range_meters":30800,"station_id":"ce4bh5p2rcd13ifvqe4g","pricing_plan_id":"free"},{"bike_id":"11ca8ea1-6a09-4712-b7fe-7d4dd422594d","system_id":"levelo_inurba_marseille","lat":43.302008,"lon":5.394694,"is_reserved":false,"is_disabled":false,"rental_uris":{"android":"levelo://app?vid=11ca8ea1-6a09-4712-b7fe-7d4dd422594d","ios":"levelo://app?vid=11ca8ea1-6a09-4712-b7fe-7d4dd422594d"},"vehicle_type_id":"4","last_reported":1677013608,"current_range_meters":31200,"station_id":"ce4bh0p2rcd13ifvqd70","pricing_plan_id":"free"},{"bike_id":"032c86af-de45-44db-9622-988efbf1801f","system_id":"levelo_inurba_marseille","lat":43.302008,"lon":5.394694,"is_reserved":false,"is_disabled":false,"rental_uris":{"android":"levelo://app?vid=032c86af-de45-44db-9622-988efbf1801f","ios":"levelo://app?vid=032c86af-de45-44db-9622-988efbf1801f"},"vehicle_type_id":"4","last_reported":1677013608,"current_range_meters":32000,"station_id":"ce4bh0p2rcd13ifvqd70","pricing_plan_id":"free"},{"bike_id":"0d67ce51-ba60-45da-b485-ed5144c7dfb7","system_id":"levelo_inurba_marseille","lat":43.302008,"lon":5.394694,"is_reserved":false,"is_disabled":false,"rental_uris":{"android":"levelo://app?vid=0d67ce51-ba60-45da-b485-ed5144c7dfb7","ios":"levelo://app?vid=0d67ce51-ba60-45da-b485-ed5144c7dfb7"},"vehicle_type_id":"4","last_reported":1677013608,"current_range_meters":12800,"station_id":"ce4bh0p2rcd13ifvqd70","pricing_plan_id":"free"},{"bike_id":"c6dcc9ae-15f8-4402-b575-81104123584e","system_id":"levelo_inurba_marseille","lat":43.302008,"lon":5.394694,"is_reserved":false,"is_disabled":false,"rental_uris":{"android":"levelo://app?vid=c6dcc9ae-15f8-4402-b575-81104123584e","ios":"levelo://app?vid=c6dcc9ae-15f8-4402-b575-81104123584e"},"vehicle_type_id":"4","last_reported":1677013608,"current_range_meters":23600,"station_id":"ce4bh0p2rcd13ifvqd70","pricing_plan_id":"free"},{"bike_id":"49c1bdce-ae53-4183-b15a-65283f605817","system_id":"levelo_inurba_marseille","lat":43.302008,"lon":5.394694,"is_reserved":false,"is_disabled":false,"rental_uris":{"android":"levelo://app?vid=49c1bdce-ae53-4183-b15a-65283f605817","ios":"levelo://app?vid=49c1bdce-ae53-4183-b15a-65283f605817"},"vehicle_type_id":"4","last_reported":1677013608,"current_range_meters":24800,"station_id":"ce4bh0p2rcd13ifvqd70","pricing_plan_id":"free"},{"bike_id":"b2a7cfe7-b934-40f9-9ae3-41ce0f6907b8","system_id":"levelo_inurba_marseille","lat":43.302008,"lon":5.394694,"is_reserved":false,"is_disabled":false,"rental_uris":{"android":"levelo://app?vid=b2a7cfe7-b934-40f9-9ae3-41ce0f6907b8","ios":"levelo://app?vid=b2a7cfe7-b934-40f9-9ae3-41ce0f6907b8"},"vehicle_type_id":"4","last_reported":1677013608,"current_range_meters":32000,"station_id":"ce4bh0p2rcd13ifvqd70","pricing_plan_id":"free"},{"bike_id":"d6170e59-49b1-4c25-ba5e-d97a62c4f0f7","system_id":"levelo_inurba_marseille","lat":43.302008,"lon":5.394694,"is_reserved":false,"is_disabled":false,"rental_uris":{"android":"levelo://app?vid=d6170e59-49b1-4c25-ba5e-d97a62c4f0f7","ios":"levelo://app?vid=d6170e59-49b1-4c25-ba5e-d97a62c4f0f7"},"vehicle_type_id":"4","last_reported":1677013608,"current_range_meters":32000,"station_id":"ce4bh0p2rcd13ifvqd70","pricing_plan_id":"free"},{"bike_id":"bd1a5b1b-2f91-4d44-95f1-247fbb8c835e","system_id":"levelo_inurba_marseille","lat":43.302008,"lon":5.394694,"is_reserved":false,"is_disabled":false,"rental_uris":{"android":"levelo://app?vid=bd1a5b1b-2f91-4d44-95f1-247fbb8c835e","ios":"levelo://app?vid=bd1a5b1b-2f91-4d44-95f1-247fbb8c835e"},"vehicle_type_id":"4","last_reported":1677013608,"current_range_meters":30800,"station_id":"ce4bh0p2rcd13ifvqd70","pricing_plan_id":"free"},{"bike_id":"854f3e20-e840-490b-9da7-fd56363ed109","system_id":"levelo_inurba_marseille","lat":43.302008,"lon":5.394694,"is_reserved":false,"is_disabled":false,"rental_uris":{"android":"levelo://app?vid=854f3e20-e840-490b-9da7-fd56363ed109","ios":"levelo://app?vid=854f3e20-e840-490b-9da7-fd56363ed109"},"vehicle_type_id":"4","last_reported":1677013608,"current_range_meters":13600,"station_id":"ce4bh0p2rcd13ifvqd70","pricing_plan_id":"free"},{"bike_id":"f54ed867-55d4-49f1-8677-9cc32553a206","system_id":"levelo_inurba_marseille","lat":43.302008,"lon":5.394694,"is_reserved":false,"is_disabled":false,"rental_uris":{"android":"levelo://app?vid=f54ed867-55d4-49f1-8677-9cc32553a206","ios":"levelo://app?vid=f54ed867-55d4-49f1-8677-9cc32553a206"},"vehicle_type_id":"4","last_reported":1677013608,"current_range_meters":32000,"station_id":"ce4bh0p2rcd13ifvqd70","pricing_plan_id":"free"},{"bike_id":"fb59753c-414d-4f7e-94b8-a8de5eea16b3","system_id":"levelo_inurba_marseille","lat":43.302008,"lon":5.394694,"is_reserved":false,"is_disabled":false,"rental_uris":{"android":"levelo://app?vid=fb59753c-414d-4f7e-94b8-a8de5eea16b3","ios":"levelo://app?vid=fb59753c-414d-4f7e-94b8-a8de5eea16b3"},"vehicle_type_id":"4","last_reported":1677013608,"current_range_meters":20800,"station_id":"ce4bh0p2rcd13ifvqd70","pricing_plan_id":"free"},{"bike_id":"d8903bbd-0077-4f17-ad7a-c3027a664d94","system_id":"levelo_inurba_marseille","lat":43.302008,"lon":5.394694,"is_reserved":false,"is_disabled":false,"rental_uris":{"android":"levelo://app?vid=d8903bbd-0077-4f17-ad7a-c3027a664d94","ios":"levelo://app?vid=d8903bbd-0077-4f17-ad7a-c3027a664d94"},"vehicle_type_id":"4","last_reported":1677013608,"current_range_meters":31600,"station_id":"ce4bh0p2rcd13ifvqd70","pricing_plan_id":"free"},{"bike_id":"3eae39c1-aa5e-4205-8d94-856c06d60120","system_id":"levelo_inurba_marseille","lat":43.290624,"lon":5.359245,"is_reserved":false,"is_disabled":false,"rental_uris":{"android":"levelo://app?vid=3eae39c1-aa5e-4205-8d94-856c06d60120","ios":"levelo://app?vid=3eae39c1-aa5e-4205-8d94-856c06d60120"},"vehicle_type_id":"4","last_reported":1677013608,"current_range_meters":18000,"station_id":"ce4bha92rcd13ifvqeg0","pricing_plan_id":"free"},{"bike_id":"d316bf91-6b81-441a-abf4-0d5354e5489a","system_id":"levelo_inurba_marseille","lat":43.29037,"lon":5.35915,"is_reserved":false,"is_disabled":false,"rental_uris":{"android":"levelo://app?vid=d316bf91-6b81-441a-abf4-0d5354e5489a","ios":"levelo://app?vid=d316bf91-6b81-441a-abf4-0d5354e5489a"},"vehicle_type_id":"4","last_reported":1677013608,"current_range_meters":14800,"station_id":"","pricing_plan_id":"free"},{"bike_id":"94afa280-6a02-4484-9a8b-01adb1d5fe49","system_id":"levelo_inurba_marseille","lat":43.290076,"lon":5.372907,"is_reserved":false,"is_disabled":false,"rental_uris":{"android":"levelo://app?vid=94afa280-6a02-4484-9a8b-01adb1d5fe49","ios":"levelo://app?vid=94afa280-6a02-4484-9a8b-01adb1d5fe49"},"vehicle_type_id":"4","last_reported":1677013608,"current_range_meters":0,"station_id":"","pricing_plan_id":"free"},{"bike_id":"8c9c6a7a-0d7b-484c-ab04-342901d17c39","system_id":"levelo_inurba_marseille","lat":43.290332,"lon":5.375136,"is_reserved":false,"is_disabled":false,"rental_uris":{"android":"levelo://app?vid=8c9c6a7a-0d7b-484c-ab04-342901d17c39","ios":"levelo://app?vid=8c9c6a7a-0d7b-484c-ab04-342901d17c39"},"vehicle_type_id":"4","last_reported":1677013608,"current_range_meters":26800,"station_id":"ce4bh692rcd13ifvqe90","pricing_plan_id":"free"},{"bike_id":"fbe14462-8006-4678-b411-74fdbed5a0c3","system_id":"levelo_inurba_marseille","lat":43.289563,"lon":5.364077,"is_reserved":false,"is_disabled":false,"rental_uris":{"android":"levelo://app?vid=fbe14462-8006-4678-b411-74fdbed5a0c3","ios":"levelo://app?vid=fbe14462-8006-4678-b411-74fdbed5a0c3"},"vehicle_type_id":"4","last_reported":1677013608,"current_range_meters":16400,"station_id":"","pricing_plan_id":"free"},{"bike_id":"5d1e4629-af71-4c3f-aa78-cdcf5947cd9d","system_id":"levelo_inurba_marseille","lat":43.289184,"lon":5.366408,"is_reserved":false,"is_disabled":false,"rental_uris":{"android":"levelo://app?vid=5d1e4629-af71-4c3f-aa78-cdcf5947cd9d","ios":"levelo://app?vid=5d1e4629-af71-4c3f-aa78-cdcf5947cd9d"},"vehicle_type_id":"4","last_reported":1677013608,"current_range_meters":26800,"station_id":"ce4bhap2rcd13ifvqek0","pricing_plan_id":"free"},{"bike_id":"bdca0d97-4cfb-4c42-aae5-7bf1c404a257","system_id":"levelo_inurba_marseille","lat":43.28945,"lon":5.36634,"is_reserved":false,"is_disabled":false,"rental_uris":{"android":"levelo://app?vid=bdca0d97-4cfb-4c42-aae5-7bf1c404a257","ios":"levelo://app?vid=bdca0d97-4cfb-4c42-aae5-7bf1c404a257"},"vehicle_type_id":"4","last_reported":1677013608,"current_range_meters":4000,"station_id":"","pricing_plan_id":"free"},{"bike_id":"f320f33b-dbaf-4d92-94db-1175b41d2818","system_id":"levelo_inurba_marseille","lat":43.289184,"lon":5.366408,"is_reserved":false,"is_disabled":false,"rental_uris":{"android":"levelo://app?vid=f320f33b-dbaf-4d92-94db-1175b41d2818","ios":"levelo://app?vid=f320f33b-dbaf-4d92-94db-1175b41d2818"},"vehicle_type_id":"4","last_reported":1677013608,"current_range_meters":24800,"station_id":"ce4bhap2rcd13ifvqek0","pricing_plan_id":"free"},{"bike_id":"9a204431-35c4-4052-a6e6-d0e61b6ceccd","system_id":"levelo_inurba_marseille","lat":43.289184,"lon":5.366408,"is_reserved":false,"is_disabled":false,"rental_uris":{"android":"levelo://app?vid=9a204431-35c4-4052-a6e6-d0e61b6ceccd","ios":"levelo://app?vid=9a204431-35c4-4052-a6e6-d0e61b6ceccd"},"vehicle_type_id":"4","last_reported":1677013608,"current_range_meters":31600,"station_id":"ce4bhap2rcd13ifvqek0","pricing_plan_id":"free"},{"bike_id":"4e912f1b-41cd-40f7-9409-5bb88a195964","system_id":"levelo_inurba_marseille","lat":43.289184,"lon":5.366408,"is_reserved":false,"is_disabled":false,"rental_uris":{"android":"levelo://app?vid=4e912f1b-41cd-40f7-9409-5bb88a195964","ios":"levelo://app?vid=4e912f1b-41cd-40f7-9409-5bb88a195964"},"vehicle_type_id":"4","last_reported":1677013608,"current_range_meters":15600,"station_id":"ce4bhap2rcd13ifvqek0","pricing_plan_id":"free"},{"bike_id":"724806bd-055f-4c2e-a2d3-8991d57c3a20","system_id":"levelo_inurba_marseille","lat":43.289184,"lon":5.366408,"is_reserved":false,"is_disabled":false,"rental_uris":{"android":"levelo://app?vid=724806bd-055f-4c2e-a2d3-8991d57c3a20","ios":"levelo://app?vid=724806bd-055f-4c2e-a2d3-8991d57c3a20"},"vehicle_type_id":"4","last_reported":1677013608,"current_range_meters":20400,"station_id":"ce4bhap2rcd13ifvqek0","pricing_plan_id":"free"},{"bike_id":"248ab4de-4272-4960-bbf5-47a51d8fc780","system_id":"levelo_inurba_marseille","lat":43.289468,"lon":5.363719,"is_reserved":false,"is_disabled":false,"rental_uris":{"android":"levelo://app?vid=248ab4de-4272-4960-bbf5-47a51d8fc780","ios":"levelo://app?vid=248ab4de-4272-4960-bbf5-47a51d8fc780"},"vehicle_type_id":"4","last_reported":1677013608,"current_range_meters":6400,"station_id":"ce4bhc92rcd13ifvqetg","pricing_plan_id":"free"},{"bike_id":"03f5f3fb-5d82-4640-84ff-daf643a3fed8","system_id":"levelo_inurba_marseille","lat":43.2894,"lon":5.36641,"is_reserved":false,"is_disabled":false,"rental_uris":{"android":"levelo://app?vid=03f5f3fb-5d82-4640-84ff-daf643a3fed8","ios":"levelo://app?vid=03f5f3fb-5d82-4640-84ff-daf643a3fed8"},"vehicle_type_id":"4","last_reported":1677013608,"current_range_meters":8400,"station_id":"ce4bhap2rcd13ifvqek0","pricing_plan_id":"free"},{"bike_id":"66955d56-5fb3-4d7c-984f-fea1daf8878d","system_id":"levelo_inurba_marseille","lat":43.28939,"lon":5.36641,"is_reserved":false,"is_disabled":false,"rental_uris":{"android":"levelo://app?vid=66955d56-5fb3-4d7c-984f-fea1daf8878d","ios":"levelo://app?vid=66955d56-5fb3-4d7c-984f-fea1daf8878d"},"vehicle_type_id":"4","last_reported":1677013608,"current_range_meters":800,"station_id":"ce4bhap2rcd13ifvqek0","pricing_plan_id":"free"},{"bike_id":"ec8b862b-e7bf-4caf-9fa7-44641675ce5c","system_id":"levelo_inurba_marseille","lat":43.289184,"lon":5.366408,"is_reserved":false,"is_disabled":false,"rental_uris":{"android":"levelo://app?vid=ec8b862b-e7bf-4caf-9fa7-44641675ce5c","ios":"levelo://app?vid=ec8b862b-e7bf-4caf-9fa7-44641675ce5c"},"vehicle_type_id":"4","last_reported":1677013608,"current_range_meters":31600,"station_id":"ce4bhap2rcd13ifvqek0","pricing_plan_id":"free"},{"bike_id":"23ac943d-8b87-4644-b712-1eb0389a7fc4","system_id":"levelo_inurba_marseille","lat":43.289184,"lon":5.366408,"is_reserved":false,"is_disabled":false,"rental_uris":{"android":"levelo://app?vid=23ac943d-8b87-4644-b712-1eb0389a7fc4","ios":"levelo://app?vid=23ac943d-8b87-4644-b712-1eb0389a7fc4"},"vehicle_type_id":"4","last_reported":1677013608,"current_range_meters":17200,"station_id":"ce4bhap2rcd13ifvqek0","pricing_plan_id":"free"},{"bike_id":"e1d6470d-3d30-4452-9d19-32bcd4b56732","system_id":"levelo_inurba_marseille","lat":43.289184,"lon":5.366408,"is_reserved":false,"is_disabled":false,"rental_uris":{"android":"levelo://app?vid=e1d6470d-3d30-4452-9d19-32bcd4b56732","ios":"levelo://app?vid=e1d6470d-3d30-4452-9d19-32bcd4b56732"},"vehicle_type_id":"4","last_reported":1677013608,"current_range_meters":11200,"station_id":"ce4bhap2rcd13ifvqek0","pricing_plan_id":"free"},{"bike_id":"3bfb5a33-de19-4ed8-bca0-5ad4d43d8003","system_id":"levelo_inurba_marseille","lat":43.289184,"lon":5.366408,"is_reserved":false,"is_disabled":false,"rental_uris":{"android":"levelo://app?vid=3bfb5a33-de19-4ed8-bca0-5ad4d43d8003","ios":"levelo://app?vid=3bfb5a33-de19-4ed8-bca0-5ad4d43d8003"},"vehicle_type_id":"4","last_reported":1677013608,"current_range_meters":30800,"station_id":"ce4bhap2rcd13ifvqek0","pricing_plan_id":"free"},{"bike_id":"b4ac9dbf-6f33-43cf-b445-cb54f98f82cf","system_id":"levelo_inurba_marseille","lat":43.28936,"lon":5.3664,"is_reserved":false,"is_disabled":false,"rental_uris":{"android":"levelo://app?vid=b4ac9dbf-6f33-43cf-b445-cb54f98f82cf","ios":"levelo://app?vid=b4ac9dbf-6f33-43cf-b445-cb54f98f82cf"},"vehicle_type_id":"4","last_reported":1677013608,"current_range_meters":22000,"station_id":"","pricing_plan_id":"free"},{"bike_id":"506861ab-f732-41dd-80c6-907aea9def3d","system_id":"levelo_inurba_marseille","lat":43.28936,"lon":5.36631,"is_reserved":false,"is_disabled":false,"rental_uris":{"android":"levelo://app?vid=506861ab-f732-41dd-80c6-907aea9def3d","ios":"levelo://app?vid=506861ab-f732-41dd-80c6-907aea9def3d"},"vehicle_type_id":"4","last_reported":1677013608,"current_range_meters":28800,"station_id":"ce4bhap2rcd13ifvqek0","pricing_plan_id":"free"},{"bike_id":"f232f5bf-a0a4-4213-9fa2-8e4f924c556f","system_id":"levelo_inurba_marseille","lat":43.289184,"lon":5.366408,"is_reserved":false,"is_disabled":false,"rental_uris":{"android":"levelo://app?vid=f232f5bf-a0a4-4213-9fa2-8e4f924c556f","ios":"levelo://app?vid=f232f5bf-a0a4-4213-9fa2-8e4f924c556f"},"vehicle_type_id":"4","last_reported":1677013608,"current_range_meters":32000,"station_id":"ce4bhap2rcd13ifvqek0","pricing_plan_id":"free"},{"bike_id":"e081672a-83fe-4d4c-9a23-b1f6317aa159","system_id":"levelo_inurba_marseille","lat":43.289323,"lon":5.366347,"is_reserved":false,"is_disabled":false,"rental_uris":{"android":"levelo://app?vid=e081672a-83fe-4d4c-9a23-b1f6317aa159","ios":"levelo://app?vid=e081672a-83fe-4d4c-9a23-b1f6317aa159"},"vehicle_type_id":"4","last_reported":1677013608,"current_range_meters":18000,"station_id":"","pricing_plan_id":"free"},{"bike_id":"c3a5422f-740f-411b-8534-f28bdf36f7be","system_id":"levelo_inurba_marseille","lat":43.289184,"lon":5.366408,"is_reserved":false,"is_disabled":false,"rental_uris":{"android":"levelo://app?vid=c3a5422f-740f-411b-8534-f28bdf36f7be","ios":"levelo://app?vid=c3a5422f-740f-411b-8534-f28bdf36f7be"},"vehicle_type_id":"4","last_reported":1677013608,"current_range_meters":11200,"station_id":"ce4bhap2rcd13ifvqek0","pricing_plan_id":"free"},{"bike_id":"73c578d8-9538-4c21-ae7f-951ef16d8759","system_id":"levelo_inurba_marseille","lat":43.289303,"lon":5.366373,"is_reserved":false,"is_disabled":false,"rental_uris":{"android":"levelo://app?vid=73c578d8-9538-4c21-ae7f-951ef16d8759","ios":"levelo://app?vid=73c578d8-9538-4c21-ae7f-951ef16d8759"},"vehicle_type_id":"4","last_reported":1677013608,"current_range_meters":17200,"station_id":"ce4bhap2rcd13ifvqek0","pricing_plan_id":"free"},{"bike_id":"a8cc8d83-39b2-4d64-9e37-d107be8dd71b","system_id":"levelo_inurba_marseille","lat":43.2893,"lon":5.36634,"is_reserved":false,"is_disabled":false,"rental_uris":{"android":"levelo://app?vid=a8cc8d83-39b2-4d64-9e37-d107be8dd71b","ios":"levelo://app?vid=a8cc8d83-39b2-4d64-9e37-d107be8dd71b"},"vehicle_type_id":"4","last_reported":1677013608,"current_range_meters":17200,"station_id":"ce4bhap2rcd13ifvqek0","pricing_plan_id":"free"},{"bike_id":"2c7fecab-b682-4b43-886b-b90517d70911","system_id":"levelo_inurba_marseille","lat":43.289468,"lon":5.363719,"is_reserved":false,"is_disabled":false,"rental_uris":{"android":"levelo://app?vid=2c7fecab-b682-4b43-886b-b90517d70911","ios":"levelo://app?vid=2c7fecab-b682-4b43-886b-b90517d70911"},"vehicle_type_id":"4","last_reported":1677013608,"current_range_meters":28000,"station_id":"ce4bhc92rcd13ifvqetg","pricing_plan_id":"free"},{"bike_id":"ff193efb-88dc-43a1-b562-440e0253edd2","system_id":"levelo_inurba_marseille","lat":43.289468,"lon":5.363719,"is_reserved":false,"is_disabled":false,"rental_uris":{"android":"levelo://app?vid=ff193efb-88dc-43a1-b562-440e0253edd2","ios":"levelo://app?vid=ff193efb-88dc-43a1-b562-440e0253edd2"},"vehicle_type_id":"4","last_reported":1677013608,"current_range_meters":29600,"station_id":"ce4bhc92rcd13ifvqetg","pricing_plan_id":"free"},{"bike_id":"1b3c325f-0d43-4031-b7de-ef1d20e34dfb","system_id":"levelo_inurba_marseille","lat":43.289468,"lon":5.363719,"is_reserved":false,"is_disabled":false,"rental_uris":{"android":"levelo://app?vid=1b3c325f-0d43-4031-b7de-ef1d20e34dfb","ios":"levelo://app?vid=1b3c325f-0d43-4031-b7de-ef1d20e34dfb"},"vehicle_type_id":"4","last_reported":1677013608,"current_range_meters":30800,"station_id":"ce4bhc92rcd13ifvqetg","pricing_plan_id":"free"},{"bike_id":"bb6a5723-01b4-490a-9b70-bb9527bd394f","system_id":"levelo_inurba_marseille","lat":43.289468,"lon":5.363719,"is_reserved":false,"is_disabled":false,"rental_uris":{"android":"levelo://app?vid=bb6a5723-01b4-490a-9b70-bb9527bd394f","ios":"levelo://app?vid=bb6a5723-01b4-490a-9b70-bb9527bd394f"},"vehicle_type_id":"4","last_reported":1677013608,"current_range_meters":31600,"station_id":"ce4bhc92rcd13ifvqetg","pricing_plan_id":"free"},{"bike_id":"d76590c1-a1ff-4668-95ab-1dd2766063cc","system_id":"levelo_inurba_marseille","lat":43.289468,"lon":5.363719,"is_reserved":false,"is_disabled":false,"rental_uris":{"android":"levelo://app?vid=d76590c1-a1ff-4668-95ab-1dd2766063cc","ios":"levelo://app?vid=d76590c1-a1ff-4668-95ab-1dd2766063cc"},"vehicle_type_id":"4","last_reported":1677013608,"current_range_meters":27600,"station_id":"ce4bhc92rcd13ifvqetg","pricing_plan_id":"free"},{"bike_id":"4c59ac5b-f90b-46c7-84be-d28120b3fb72","system_id":"levelo_inurba_marseille","lat":43.292644,"lon":5.384257,"is_reserved":false,"is_disabled":false,"rental_uris":{"android":"levelo://app?vid=4c59ac5b-f90b-46c7-84be-d28120b3fb72","ios":"levelo://app?vid=4c59ac5b-f90b-46c7-84be-d28120b3fb72"},"vehicle_type_id":"4","last_reported":1677013608,"current_range_meters":24400,"station_id":"ce4bh692rcd13ifvqea0","pricing_plan_id":"free"},{"bike_id":"61c612a3-7f91-4935-b56e-c1de5595755c","system_id":"levelo_inurba_marseille","lat":43.29271,"lon":5.38447,"is_reserved":false,"is_disabled":false,"rental_uris":{"android":"levelo://app?vid=61c612a3-7f91-4935-b56e-c1de5595755c","ios":"levelo://app?vid=61c612a3-7f91-4935-b56e-c1de5595755c"},"vehicle_type_id":"4","last_reported":1677013608,"current_range_meters":12400,"station_id":"ce4bh692rcd13ifvqea0","pricing_plan_id":"free"},{"bike_id":"f6ff7946-8930-45c5-abd2-1a93bd167ede","system_id":"levelo_inurba_marseille","lat":43.292665,"lon":5.384374,"is_reserved":false,"is_disabled":false,"rental_uris":{"android":"levelo://app?vid=f6ff7946-8930-45c5-abd2-1a93bd167ede","ios":"levelo://app?vid=f6ff7946-8930-45c5-abd2-1a93bd167ede"},"vehicle_type_id":"4","last_reported":1677013608,"current_range_meters":29200,"station_id":"","pricing_plan_id":"free"},{"bike_id":"596ce858-1144-443c-b4da-af26098e2f61","system_id":"levelo_inurba_marseille","lat":43.292644,"lon":5.384257,"is_reserved":false,"is_disabled":false,"rental_uris":{"android":"levelo://app?vid=596ce858-1144-443c-b4da-af26098e2f61","ios":"levelo://app?vid=596ce858-1144-443c-b4da-af26098e2f61"},"vehicle_type_id":"4","last_reported":1677013608,"current_range_meters":22000,"station_id":"ce4bh692rcd13ifvqea0","pricing_plan_id":"free"},{"bike_id":"67621e3c-7979-4822-a3ed-6acd372908a1","system_id":"levelo_inurba_marseille","lat":43.292644,"lon":5.384257,"is_reserved":false,"is_disabled":false,"rental_uris":{"android":"levelo://app?vid=67621e3c-7979-4822-a3ed-6acd372908a1","ios":"levelo://app?vid=67621e3c-7979-4822-a3ed-6acd372908a1"},"vehicle_type_id":"4","last_reported":1677013608,"current_range_meters":7600,"station_id":"ce4bh692rcd13ifvqea0","pricing_plan_id":"free"},{"bike_id":"387293c1-ff8f-4584-83c1-2af6c83e87c9","system_id":"levelo_inurba_marseille","lat":43.29268,"lon":5.384436,"is_reserved":false,"is_disabled":false,"rental_uris":{"android":"levelo://app?vid=387293c1-ff8f-4584-83c1-2af6c83e87c9","ios":"levelo://app?vid=387293c1-ff8f-4584-83c1-2af6c83e87c9"},"vehicle_type_id":"4","last_reported":1677013608,"current_range_meters":12400,"station_id":"ce4bgj92rcd13ifvqbd0","pricing_plan_id":"free"},{"bike_id":"eeb40588-1a52-4b11-b3b3-a8178956a455","system_id":"levelo_inurba_marseille","lat":43.292644,"lon":5.384257,"is_reserved":false,"is_disabled":false,"rental_uris":{"android":"levelo://app?vid=eeb40588-1a52-4b11-b3b3-a8178956a455","ios":"levelo://app?vid=eeb40588-1a52-4b11-b3b3-a8178956a455"},"vehicle_type_id":"4","last_reported":1677013608,"current_range_meters":800,"station_id":"ce4bh692rcd13ifvqea0","pricing_plan_id":"free"},{"bike_id":"b2b7bae7-4b89-4a36-9b5f-126be3a17576","system_id":"levelo_inurba_marseille","lat":43.29263,"lon":5.38436,"is_reserved":false,"is_disabled":false,"rental_uris":{"android":"levelo://app?vid=b2b7bae7-4b89-4a36-9b5f-126be3a17576","ios":"levelo://app?vid=b2b7bae7-4b89-4a36-9b5f-126be3a17576"},"vehicle_type_id":"4","last_reported":1677013608,"current_range_meters":14800,"station_id":"","pricing_plan_id":"free"},{"bike_id":"636740df-c5eb-4283-97fb-ce22c5bd227b","system_id":"levelo_inurba_marseille","lat":43.29263,"lon":5.38441,"is_reserved":false,"is_disabled":false,"rental_uris":{"android":"levelo://app?vid=636740df-c5eb-4283-97fb-ce22c5bd227b","ios":"levelo://app?vid=636740df-c5eb-4283-97fb-ce22c5bd227b"},"vehicle_type_id":"4","last_reported":1677013608,"current_range_meters":25600,"station_id":"ce4bh692rcd13ifvqea0","pricing_plan_id":"free"},{"bike_id":"e00ea974-d6a0-4203-b67f-249f32f575e7","system_id":"levelo_inurba_marseille","lat":43.29255,"lon":5.38424,"is_reserved":false,"is_disabled":false,"rental_uris":{"android":"levelo://app?vid=e00ea974-d6a0-4203-b67f-249f32f575e7","ios":"levelo://app?vid=e00ea974-d6a0-4203-b67f-249f32f575e7"},"vehicle_type_id":"4","last_reported":1677013608,"current_range_meters":25200,"station_id":"ce4bh692rcd13ifvqea0","pricing_plan_id":"free"},{"bike_id":"64f4295d-d094-4238-b91f-efdadee4cd24","system_id":"levelo_inurba_marseille","lat":43.29261,"lon":5.38439,"is_reserved":false,"is_disabled":false,"rental_uris":{"android":"levelo://app?vid=64f4295d-d094-4238-b91f-efdadee4cd24","ios":"levelo://app?vid=64f4295d-d094-4238-b91f-efdadee4cd24"},"vehicle_type_id":"4","last_reported":1677013608,"current_range_meters":10000,"station_id":"","pricing_plan_id":"free"},{"bike_id":"7e40ab47-61fd-4522-97cb-5f279c913feb","system_id":"levelo_inurba_marseille","lat":43.292618,"lon":5.384413,"is_reserved":false,"is_disabled":false,"rental_uris":{"android":"levelo://app?vid=7e40ab47-61fd-4522-97cb-5f279c913feb","ios":"levelo://app?vid=7e40ab47-61fd-4522-97cb-5f279c913feb"},"vehicle_type_id":"4","last_reported":1677013608,"current_range_meters":18000,"station_id":"ce4bh692rcd13ifvqea0","pricing_plan_id":"free"},{"bike_id":"39c3351a-0c67-4827-b055-e3aeaaee7656","system_id":"levelo_inurba_marseille","lat":43.292589,"lon":5.384408,"is_reserved":false,"is_disabled":false,"rental_uris":{"android":"levelo://app?vid=39c3351a-0c67-4827-b055-e3aeaaee7656","ios":"levelo://app?vid=39c3351a-0c67-4827-b055-e3aeaaee7656"},"vehicle_type_id":"4","last_reported":1677013608,"current_range_meters":6800,"station_id":"","pricing_plan_id":"free"},{"bike_id":"419483ad-eb4b-48e5-841b-d92f67235fb4","system_id":"levelo_inurba_marseille","lat":43.292629,"lon":5.384496,"is_reserved":false,"is_disabled":false,"rental_uris":{"android":"levelo://app?vid=419483ad-eb4b-48e5-841b-d92f67235fb4","ios":"levelo://app?vid=419483ad-eb4b-48e5-841b-d92f67235fb4"},"vehicle_type_id":"4","last_reported":1677013608,"current_range_meters":29600,"station_id":"ce4bh692rcd13ifvqea0","pricing_plan_id":"free"},{"bike_id":"c79ccd1c-ebfe-40eb-b74e-d5aa3b3cbdc0","system_id":"levelo_inurba_marseille","lat":43.29257,"lon":5.38439,"is_reserved":false,"is_disabled":false,"rental_uris":{"android":"levelo://app?vid=c79ccd1c-ebfe-40eb-b74e-d5aa3b3cbdc0","ios":"levelo://app?vid=c79ccd1c-ebfe-40eb-b74e-d5aa3b3cbdc0"},"vehicle_type_id":"4","last_reported":1677013608,"current_range_meters":9600,"station_id":"ce4bh692rcd13ifvqea0","pricing_plan_id":"free"},{"bike_id":"38c88d95-4c08-4b63-8823-a11b79742273","system_id":"levelo_inurba_marseille","lat":43.330442,"lon":5.389148,"is_reserved":false,"is_disabled":false,"rental_uris":{"android":"levelo://app?vid=38c88d95-4c08-4b63-8823-a11b79742273","ios":"levelo://app?vid=38c88d95-4c08-4b63-8823-a11b79742273"},"vehicle_type_id":"4","last_reported":1677013608,"current_range_meters":29600,"station_id":"ce4bhr92rcd13ifvqhrg","pricing_plan_id":"free"},{"bike_id":"8976d564-88b6-44b0-8894-679ade9c1b18","system_id":"levelo_inurba_marseille","lat":43.33041,"lon":5.38917,"is_reserved":false,"is_disabled":false,"rental_uris":{"android":"levelo://app?vid=8976d564-88b6-44b0-8894-679ade9c1b18","ios":"levelo://app?vid=8976d564-88b6-44b0-8894-679ade9c1b18"},"vehicle_type_id":"4","last_reported":1677013608,"current_range_meters":22000,"station_id":"","pricing_plan_id":"free"},{"bike_id":"4233ddf7-f7c0-44df-ad78-5b391cc7adbb","system_id":"levelo_inurba_marseille","lat":43.330442,"lon":5.389148,"is_reserved":false,"is_disabled":false,"rental_uris":{"android":"levelo://app?vid=4233ddf7-f7c0-44df-ad78-5b391cc7adbb","ios":"levelo://app?vid=4233ddf7-f7c0-44df-ad78-5b391cc7adbb"},"vehicle_type_id":"4","last_reported":1677013608,"current_range_meters":22000,"station_id":"ce4bhr92rcd13ifvqhrg","pricing_plan_id":"free"},{"bike_id":"9b9ebb7f-6f87-4e74-b9c7-27631756ced7","system_id":"levelo_inurba_marseille","lat":43.33042,"lon":5.38916,"is_reserved":false,"is_disabled":false,"rental_uris":{"android":"levelo://app?vid=9b9ebb7f-6f87-4e74-b9c7-27631756ced7","ios":"levelo://app?vid=9b9ebb7f-6f87-4e74-b9c7-27631756ced7"},"vehicle_type_id":"4","last_reported":1677013608,"current_range_meters":21200,"station_id":"ce4bhr92rcd13ifvqhrg","pricing_plan_id":"free"},{"bike_id":"eb376ea6-d84a-4137-b610-5e03150ed6fa","system_id":"levelo_inurba_marseille","lat":43.33046,"lon":5.3891,"is_reserved":false,"is_disabled":false,"rental_uris":{"android":"levelo://app?vid=eb376ea6-d84a-4137-b610-5e03150ed6fa","ios":"levelo://app?vid=eb376ea6-d84a-4137-b610-5e03150ed6fa"},"vehicle_type_id":"4","last_reported":1677013608,"current_range_meters":19600,"station_id":"ce4bhr92rcd13ifvqhrg","pricing_plan_id":"free"},{"bike_id":"be595316-bd55-4a7e-a827-8641323e82fc","system_id":"levelo_inurba_marseille","lat":43.33044,"lon":5.38915,"is_reserved":false,"is_disabled":false,"rental_uris":{"android":"levelo://app?vid=be595316-bd55-4a7e-a827-8641323e82fc","ios":"levelo://app?vid=be595316-bd55-4a7e-a827-8641323e82fc"},"vehicle_type_id":"4","last_reported":1677013608,"current_range_meters":17600,"station_id":"ce4bhr92rcd13ifvqhrg","pricing_plan_id":"free"},{"bike_id":"2617cc59-6db4-4be0-a4c1-0cd1168aec94","system_id":"levelo_inurba_marseille","lat":43.330442,"lon":5.389148,"is_reserved":false,"is_disabled":false,"rental_uris":{"android":"levelo://app?vid=2617cc59-6db4-4be0-a4c1-0cd1168aec94","ios":"levelo://app?vid=2617cc59-6db4-4be0-a4c1-0cd1168aec94"},"vehicle_type_id":"4","last_reported":1677013608,"current_range_meters":5600,"station_id":"ce4bhr92rcd13ifvqhrg","pricing_plan_id":"free"},{"bike_id":"ddd2f434-0afe-484b-92c0-2f87cedd9da7","system_id":"levelo_inurba_marseille","lat":43.330442,"lon":5.389148,"is_reserved":false,"is_disabled":false,"rental_uris":{"android":"levelo://app?vid=ddd2f434-0afe-484b-92c0-2f87cedd9da7","ios":"levelo://app?vid=ddd2f434-0afe-484b-92c0-2f87cedd9da7"},"vehicle_type_id":"4","last_reported":1677013608,"current_range_meters":31600,"station_id":"ce4bhr92rcd13ifvqhrg","pricing_plan_id":"free"},{"bike_id":"c60ba407-4975-49f1-a984-01c4d084c712","system_id":"levelo_inurba_marseille","lat":43.33045,"lon":5.38915,"is_reserved":false,"is_disabled":false,"rental_uris":{"android":"levelo://app?vid=c60ba407-4975-49f1-a984-01c4d084c712","ios":"levelo://app?vid=c60ba407-4975-49f1-a984-01c4d084c712"},"vehicle_type_id":"4","last_reported":1677013608,"current_range_meters":18800,"station_id":"ce4bhr92rcd13ifvqhrg","pricing_plan_id":"free"},{"bike_id":"1f602585-a93f-442e-9f5c-d694b0b14d0c","system_id":"levelo_inurba_marseille","lat":43.330439,"lon":5.389174,"is_reserved":false,"is_disabled":false,"rental_uris":{"android":"levelo://app?vid=1f602585-a93f-442e-9f5c-d694b0b14d0c","ios":"levelo://app?vid=1f602585-a93f-442e-9f5c-d694b0b14d0c"},"vehicle_type_id":"4","last_reported":1677013608,"current_range_meters":12000,"station_id":"ce4bhr92rcd13ifvqhrg","pricing_plan_id":"free"},{"bike_id":"bd7c814b-abfc-44a0-9eac-33a897eef79d","system_id":"levelo_inurba_marseille","lat":43.290104,"lon":5.356111,"is_reserved":false,"is_disabled":false,"rental_uris":{"android":"levelo://app?vid=bd7c814b-abfc-44a0-9eac-33a897eef79d","ios":"levelo://app?vid=bd7c814b-abfc-44a0-9eac-33a897eef79d"},"vehicle_type_id":"4","last_reported":1677013608,"current_range_meters":31600,"station_id":"ce4bhb92rcd13ifvqen0","pricing_plan_id":"free"},{"bike_id":"617fdbff-7c00-47d5-a403-454d6a521411","system_id":"levelo_inurba_marseille","lat":43.330442,"lon":5.389148,"is_reserved":false,"is_disabled":false,"rental_uris":{"android":"levelo://app?vid=617fdbff-7c00-47d5-a403-454d6a521411","ios":"levelo://app?vid=617fdbff-7c00-47d5-a403-454d6a521411"},"vehicle_type_id":"4","last_reported":1677013608,"current_range_meters":26400,"station_id":"ce4bhr92rcd13ifvqhrg","pricing_plan_id":"free"},{"bike_id":"e20b535b-3167-44d7-9176-3453c119bcd4","system_id":"levelo_inurba_marseille","lat":43.33044,"lon":5.38918,"is_reserved":false,"is_disabled":false,"rental_uris":{"android":"levelo://app?vid=e20b535b-3167-44d7-9176-3453c119bcd4","ios":"levelo://app?vid=e20b535b-3167-44d7-9176-3453c119bcd4"},"vehicle_type_id":"4","last_reported":1677013608,"current_range_meters":20800,"station_id":"","pricing_plan_id":"free"},{"bike_id":"fbc686b7-c9a0-42ce-b5be-bf59c21b0fca","system_id":"levelo_inurba_marseille","lat":43.33044,"lon":5.38919,"is_reserved":false,"is_disabled":false,"rental_uris":{"android":"levelo://app?vid=fbc686b7-c9a0-42ce-b5be-bf59c21b0fca","ios":"levelo://app?vid=fbc686b7-c9a0-42ce-b5be-bf59c21b0fca"},"vehicle_type_id":"4","last_reported":1677013608,"current_range_meters":20800,"station_id":"","pricing_plan_id":"free"},{"bike_id":"a56a281b-e238-4110-8ef1-d8fbe8b20453","system_id":"levelo_inurba_marseille","lat":43.330442,"lon":5.389148,"is_reserved":false,"is_disabled":false,"rental_uris":{"android":"levelo://app?vid=a56a281b-e238-4110-8ef1-d8fbe8b20453","ios":"levelo://app?vid=a56a281b-e238-4110-8ef1-d8fbe8b20453"},"vehicle_type_id":"4","last_reported":1677013608,"current_range_meters":6800,"station_id":"ce4bhr92rcd13ifvqhrg","pricing_plan_id":"free"},{"bike_id":"ced15387-c628-4f04-a115-7459c77531f3","system_id":"levelo_inurba_marseille","lat":43.33045,"lon":5.38918,"is_reserved":false,"is_disabled":false,"rental_uris":{"android":"levelo://app?vid=ced15387-c628-4f04-a115-7459c77531f3","ios":"levelo://app?vid=ced15387-c628-4f04-a115-7459c77531f3"},"vehicle_type_id":"4","last_reported":1677013608,"current_range_meters":29200,"station_id":"ce4bhr92rcd13ifvqhrg","pricing_plan_id":"free"},{"bike_id":"4d829b95-9ba3-4f90-8ad2-f8378ed95f0f","system_id":"levelo_inurba_marseille","lat":43.290104,"lon":5.356111,"is_reserved":false,"is_disabled":false,"rental_uris":{"android":"levelo://app?vid=4d829b95-9ba3-4f90-8ad2-f8378ed95f0f","ios":"levelo://app?vid=4d829b95-9ba3-4f90-8ad2-f8378ed95f0f"},"vehicle_type_id":"4","last_reported":1677013608,"current_range_meters":22000,"station_id":"ce4bhb92rcd13ifvqen0","pricing_plan_id":"free"},{"bike_id":"65442a22-bb11-47c8-bb9f-5f72d78e5546","system_id":"levelo_inurba_marseille","lat":43.330442,"lon":5.389148,"is_reserved":false,"is_disabled":false,"rental_uris":{"android":"levelo://app?vid=65442a22-bb11-47c8-bb9f-5f72d78e5546","ios":"levelo://app?vid=65442a22-bb11-47c8-bb9f-5f72d78e5546"},"vehicle_type_id":"4","last_reported":1677013608,"current_range_meters":1600,"station_id":"ce4bhr92rcd13ifvqhrg","pricing_plan_id":"free"},{"bike_id":"2f57434c-886c-4573-9d55-ec6b247af0ae","system_id":"levelo_inurba_marseille","lat":43.330442,"lon":5.389148,"is_reserved":false,"is_disabled":false,"rental_uris":{"android":"levelo://app?vid=2f57434c-886c-4573-9d55-ec6b247af0ae","ios":"levelo://app?vid=2f57434c-886c-4573-9d55-ec6b247af0ae"},"vehicle_type_id":"4","last_reported":1677013608,"current_range_meters":21600,"station_id":"ce4bhr92rcd13ifvqhrg","pricing_plan_id":"free"},{"bike_id":"f92a914d-738a-45c2-b2a2-801bff1d71b6","system_id":"levelo_inurba_marseille","lat":43.290104,"lon":5.356111,"is_reserved":false,"is_disabled":false,"rental_uris":{"android":"levelo://app?vid=f92a914d-738a-45c2-b2a2-801bff1d71b6","ios":"levelo://app?vid=f92a914d-738a-45c2-b2a2-801bff1d71b6"},"vehicle_type_id":"4","last_reported":1677013608,"current_range_meters":23200,"station_id":"ce4bhb92rcd13ifvqen0","pricing_plan_id":"free"},{"bike_id":"4ff4b905-6214-4d55-8490-50f1aa552805","system_id":"levelo_inurba_marseille","lat":43.33045,"lon":5.38919,"is_reserved":false,"is_disabled":false,"rental_uris":{"android":"levelo://app?vid=4ff4b905-6214-4d55-8490-50f1aa552805","ios":"levelo://app?vid=4ff4b905-6214-4d55-8490-50f1aa552805"},"vehicle_type_id":"4","last_reported":1677013608,"current_range_meters":25600,"station_id":"","pricing_plan_id":"free"},{"bike_id":"4b5c614a-ae12-4ad4-b7c2-784cc95b37db","system_id":"levelo_inurba_marseille","lat":43.290104,"lon":5.356111,"is_reserved":false,"is_disabled":false,"rental_uris":{"android":"levelo://app?vid=4b5c614a-ae12-4ad4-b7c2-784cc95b37db","ios":"levelo://app?vid=4b5c614a-ae12-4ad4-b7c2-784cc95b37db"},"vehicle_type_id":"4","last_reported":1677013608,"current_range_meters":8000,"station_id":"ce4bhb92rcd13ifvqen0","pricing_plan_id":"free"},{"bike_id":"1a65607f-afe0-49e7-b3a5-9d025751a6f7","system_id":"levelo_inurba_marseille","lat":43.290104,"lon":5.356111,"is_reserved":false,"is_disabled":false,"rental_uris":{"android":"levelo://app?vid=1a65607f-afe0-49e7-b3a5-9d025751a6f7","ios":"levelo://app?vid=1a65607f-afe0-49e7-b3a5-9d025751a6f7"},"vehicle_type_id":"4","last_reported":1677013608,"current_range_meters":12000,"station_id":"ce4bhb92rcd13ifvqen0","pricing_plan_id":"free"},{"bike_id":"e5b56d11-91b9-4806-bc8e-991a030edc14","system_id":"levelo_inurba_marseille","lat":43.33046,"lon":5.3892,"is_reserved":false,"is_disabled":false,"rental_uris":{"android":"levelo://app?vid=e5b56d11-91b9-4806-bc8e-991a030edc14","ios":"levelo://app?vid=e5b56d11-91b9-4806-bc8e-991a030edc14"},"vehicle_type_id":"4","last_reported":1677013608,"current_range_meters":16400,"station_id":"","pricing_plan_id":"free"},{"bike_id":"3254ca33-aae3-4918-b9b5-3aaeddcfa97f","system_id":"levelo_inurba_marseille","lat":43.33046,"lon":5.38922,"is_reserved":false,"is_disabled":false,"rental_uris":{"android":"levelo://app?vid=3254ca33-aae3-4918-b9b5-3aaeddcfa97f","ios":"levelo://app?vid=3254ca33-aae3-4918-b9b5-3aaeddcfa97f"},"vehicle_type_id":"4","last_reported":1677013608,"current_range_meters":22400,"station_id":"","pricing_plan_id":"free"},{"bike_id":"a1b389e1-a312-4c2c-b6bd-063c978153c2","system_id":"levelo_inurba_marseille","lat":43.330442,"lon":5.389148,"is_reserved":false,"is_disabled":false,"rental_uris":{"android":"levelo://app?vid=a1b389e1-a312-4c2c-b6bd-063c978153c2","ios":"levelo://app?vid=a1b389e1-a312-4c2c-b6bd-063c978153c2"},"vehicle_type_id":"4","last_reported":1677013608,"current_range_meters":20000,"station_id":"ce4bhr92rcd13ifvqhrg","pricing_plan_id":"free"},{"bike_id":"6a3dcc83-a618-4218-ad1f-24caa54aa909","system_id":"levelo_inurba_marseille","lat":43.291103,"lon":5.381273,"is_reserved":false,"is_disabled":false,"rental_uris":{"android":"levelo://app?vid=6a3dcc83-a618-4218-ad1f-24caa54aa909","ios":"levelo://app?vid=6a3dcc83-a618-4218-ad1f-24caa54aa909"},"vehicle_type_id":"4","last_reported":1677013608,"current_range_meters":7600,"station_id":"ce4bh512rcd13ifvqe2g","pricing_plan_id":"free"},{"bike_id":"82aba843-3888-4a0e-b3ec-59670f403e31","system_id":"levelo_inurba_marseille","lat":43.290104,"lon":5.356111,"is_reserved":false,"is_disabled":false,"rental_uris":{"android":"levelo://app?vid=82aba843-3888-4a0e-b3ec-59670f403e31","ios":"levelo://app?vid=82aba843-3888-4a0e-b3ec-59670f403e31"},"vehicle_type_id":"4","last_reported":1677013608,"current_range_meters":13200,"station_id":"ce4bhb92rcd13ifvqen0","pricing_plan_id":"free"},{"bike_id":"7ed958bd-f3da-41ed-b951-ce05f3ab7f55","system_id":"levelo_inurba_marseille","lat":43.290104,"lon":5.356111,"is_reserved":false,"is_disabled":false,"rental_uris":{"android":"levelo://app?vid=7ed958bd-f3da-41ed-b951-ce05f3ab7f55","ios":"levelo://app?vid=7ed958bd-f3da-41ed-b951-ce05f3ab7f55"},"vehicle_type_id":"4","last_reported":1677013608,"current_range_meters":23600,"station_id":"ce4bhb92rcd13ifvqen0","pricing_plan_id":"free"},{"bike_id":"45da3615-4e2d-42e5-a2fd-2e7c4161e5ea","system_id":"levelo_inurba_marseille","lat":43.29094,"lon":5.38141,"is_reserved":false,"is_disabled":false,"rental_uris":{"android":"levelo://app?vid=45da3615-4e2d-42e5-a2fd-2e7c4161e5ea","ios":"levelo://app?vid=45da3615-4e2d-42e5-a2fd-2e7c4161e5ea"},"vehicle_type_id":"4","last_reported":1677013608,"current_range_meters":8800,"station_id":"","pricing_plan_id":"free"},{"bike_id":"7649268f-0c04-4e40-861d-8bb40a117cc2","system_id":"levelo_inurba_marseille","lat":43.295169,"lon":5.390426,"is_reserved":false,"is_disabled":false,"rental_uris":{"android":"levelo://app?vid=7649268f-0c04-4e40-861d-8bb40a117cc2","ios":"levelo://app?vid=7649268f-0c04-4e40-861d-8bb40a117cc2"},"vehicle_type_id":"4","last_reported":1677013608,"current_range_meters":2800,"station_id":"ce4bh3p2rcd13ifvqdp0","pricing_plan_id":"free"},{"bike_id":"b2e679f4-5464-4c45-b143-391fc1c5c65e","system_id":"levelo_inurba_marseille","lat":43.295169,"lon":5.390426,"is_reserved":false,"is_disabled":false,"rental_uris":{"android":"levelo://app?vid=b2e679f4-5464-4c45-b143-391fc1c5c65e","ios":"levelo://app?vid=b2e679f4-5464-4c45-b143-391fc1c5c65e"},"vehicle_type_id":"4","last_reported":1677013608,"current_range_meters":24000,"station_id":"ce4bh3p2rcd13ifvqdp0","pricing_plan_id":"free"},{"bike_id":"82136394-a9c8-453a-8d25-c352f185fbca","system_id":"levelo_inurba_marseille","lat":43.28859,"lon":5.35858,"is_reserved":false,"is_disabled":false,"rental_uris":{"android":"levelo://app?vid=82136394-a9c8-453a-8d25-c352f185fbca","ios":"levelo://app?vid=82136394-a9c8-453a-8d25-c352f185fbca"},"vehicle_type_id":"4","last_reported":1677013608,"current_range_meters":14400,"station_id":"","pricing_plan_id":"free"},{"bike_id":"5ecff1ae-9b79-45c4-a794-727324b59e77","system_id":"levelo_inurba_marseille","lat":43.28856,"lon":5.358371,"is_reserved":false,"is_disabled":false,"rental_uris":{"android":"levelo://app?vid=5ecff1ae-9b79-45c4-a794-727324b59e77","ios":"levelo://app?vid=5ecff1ae-9b79-45c4-a794-727324b59e77"},"vehicle_type_id":"4","last_reported":1677013608,"current_range_meters":23200,"station_id":"ce4bhb12rcd13ifvqem0","pricing_plan_id":"free"},{"bike_id":"c619ce6a-9291-43b2-9819-fe9c3cc26a2e","system_id":"levelo_inurba_marseille","lat":43.28856,"lon":5.358371,"is_reserved":false,"is_disabled":false,"rental_uris":{"android":"levelo://app?vid=c619ce6a-9291-43b2-9819-fe9c3cc26a2e","ios":"levelo://app?vid=c619ce6a-9291-43b2-9819-fe9c3cc26a2e"},"vehicle_type_id":"4","last_reported":1677013608,"current_range_meters":17600,"station_id":"ce4bhb12rcd13ifvqem0","pricing_plan_id":"free"},{"bike_id":"dabdf18d-4923-4dba-94dd-83c0afa6f0d9","system_id":"levelo_inurba_marseille","lat":43.28856,"lon":5.358371,"is_reserved":false,"is_disabled":false,"rental_uris":{"android":"levelo://app?vid=dabdf18d-4923-4dba-94dd-83c0afa6f0d9","ios":"levelo://app?vid=dabdf18d-4923-4dba-94dd-83c0afa6f0d9"},"vehicle_type_id":"4","last_reported":1677013608,"current_range_meters":28000,"station_id":"ce4bhb12rcd13ifvqem0","pricing_plan_id":"free"},{"bike_id":"dab99765-2a6e-40a5-aaed-8daf5a6b0543","system_id":"levelo_inurba_marseille","lat":43.28856,"lon":5.358371,"is_reserved":false,"is_disabled":false,"rental_uris":{"android":"levelo://app?vid=dab99765-2a6e-40a5-aaed-8daf5a6b0543","ios":"levelo://app?vid=dab99765-2a6e-40a5-aaed-8daf5a6b0543"},"vehicle_type_id":"4","last_reported":1677013608,"current_range_meters":25200,"station_id":"ce4bhb12rcd13ifvqem0","pricing_plan_id":"free"},{"bike_id":"860bafd6-36a2-476a-bfed-c281edf1b4ac","system_id":"levelo_inurba_marseille","lat":43.28856,"lon":5.358371,"is_reserved":false,"is_disabled":false,"rental_uris":{"android":"levelo://app?vid=860bafd6-36a2-476a-bfed-c281edf1b4ac","ios":"levelo://app?vid=860bafd6-36a2-476a-bfed-c281edf1b4ac"},"vehicle_type_id":"4","last_reported":1677013608,"current_range_meters":25200,"station_id":"ce4bhb12rcd13ifvqem0","pricing_plan_id":"free"},{"bike_id":"51188524-1670-4157-b543-2f23f44cffab","system_id":"levelo_inurba_marseille","lat":43.28856,"lon":5.358371,"is_reserved":false,"is_disabled":false,"rental_uris":{"android":"levelo://app?vid=51188524-1670-4157-b543-2f23f44cffab","ios":"levelo://app?vid=51188524-1670-4157-b543-2f23f44cffab"},"vehicle_type_id":"4","last_reported":1677013608,"current_range_meters":28400,"station_id":"ce4bhb12rcd13ifvqem0","pricing_plan_id":"free"},{"bike_id":"126b8001-4ede-4da2-9c57-6391f9e7dcc5","system_id":"levelo_inurba_marseille","lat":43.28856,"lon":5.358371,"is_reserved":false,"is_disabled":false,"rental_uris":{"android":"levelo://app?vid=126b8001-4ede-4da2-9c57-6391f9e7dcc5","ios":"levelo://app?vid=126b8001-4ede-4da2-9c57-6391f9e7dcc5"},"vehicle_type_id":"4","last_reported":1677013608,"current_range_meters":0,"station_id":"ce4bhb12rcd13ifvqem0","pricing_plan_id":"free"},{"bike_id":"7a692f7d-c714-4cfc-bef9-f86629f69961","system_id":"levelo_inurba_marseille","lat":43.28856,"lon":5.358371,"is_reserved":false,"is_disabled":false,"rental_uris":{"android":"levelo://app?vid=7a692f7d-c714-4cfc-bef9-f86629f69961","ios":"levelo://app?vid=7a692f7d-c714-4cfc-bef9-f86629f69961"},"vehicle_type_id":"4","last_reported":1677013608,"current_range_meters":26000,"station_id":"ce4bhb12rcd13ifvqem0","pricing_plan_id":"free"},{"bike_id":"2732f3cb-1c4b-45c0-8b2c-78d1cd561e6d","system_id":"levelo_inurba_marseille","lat":43.306474,"lon":5.400761,"is_reserved":false,"is_disabled":false,"rental_uris":{"android":"levelo://app?vid=2732f3cb-1c4b-45c0-8b2c-78d1cd561e6d","ios":"levelo://app?vid=2732f3cb-1c4b-45c0-8b2c-78d1cd561e6d"},"vehicle_type_id":"4","last_reported":1677013608,"current_range_meters":28000,"station_id":"","pricing_plan_id":"free"},{"bike_id":"60f31aeb-174d-46ea-8242-be1e22549261","system_id":"levelo_inurba_marseille","lat":43.306492,"lon":5.400776,"is_reserved":false,"is_disabled":false,"rental_uris":{"android":"levelo://app?vid=60f31aeb-174d-46ea-8242-be1e22549261","ios":"levelo://app?vid=60f31aeb-174d-46ea-8242-be1e22549261"},"vehicle_type_id":"4","last_reported":1677013608,"current_range_meters":10400,"station_id":"","pricing_plan_id":"free"},{"bike_id":"dc7c116a-218a-4935-831a-8413a1770b13","system_id":"levelo_inurba_marseille","lat":43.30642,"lon":5.401031,"is_reserved":false,"is_disabled":false,"rental_uris":{"android":"levelo://app?vid=dc7c116a-218a-4935-831a-8413a1770b13","ios":"levelo://app?vid=dc7c116a-218a-4935-831a-8413a1770b13"},"vehicle_type_id":"4","last_reported":1677013608,"current_range_meters":29600,"station_id":"ce4bh112rcd13ifvqda0","pricing_plan_id":"free"},{"bike_id":"15d85aa8-483b-4141-bd08-5290f036e0e0","system_id":"levelo_inurba_marseille","lat":43.306432,"lon":5.400771,"is_reserved":false,"is_disabled":false,"rental_uris":{"android":"levelo://app?vid=15d85aa8-483b-4141-bd08-5290f036e0e0","ios":"levelo://app?vid=15d85aa8-483b-4141-bd08-5290f036e0e0"},"vehicle_type_id":"4","last_reported":1677013608,"current_range_meters":27600,"station_id":"","pricing_plan_id":"free"},{"bike_id":"251c5667-df31-4606-bc26-e039622a57d2","system_id":"levelo_inurba_marseille","lat":43.306435,"lon":5.400776,"is_reserved":false,"is_disabled":false,"rental_uris":{"android":"levelo://app?vid=251c5667-df31-4606-bc26-e039622a57d2","ios":"levelo://app?vid=251c5667-df31-4606-bc26-e039622a57d2"},"vehicle_type_id":"4","last_reported":1677013608,"current_range_meters":23600,"station_id":"","pricing_plan_id":"free"},{"bike_id":"0c22902a-675c-462e-83c2-c05ad792bfdc","system_id":"levelo_inurba_marseille","lat":43.30642,"lon":5.401031,"is_reserved":false,"is_disabled":false,"rental_uris":{"android":"levelo://app?vid=0c22902a-675c-462e-83c2-c05ad792bfdc","ios":"levelo://app?vid=0c22902a-675c-462e-83c2-c05ad792bfdc"},"vehicle_type_id":"4","last_reported":1677013608,"current_range_meters":19600,"station_id":"ce4bh112rcd13ifvqda0","pricing_plan_id":"free"},{"bike_id":"245d84a4-f8b5-47c1-8ec9-0c359e2154cc","system_id":"levelo_inurba_marseille","lat":43.30643,"lon":5.400824,"is_reserved":false,"is_disabled":false,"rental_uris":{"android":"levelo://app?vid=245d84a4-f8b5-47c1-8ec9-0c359e2154cc","ios":"levelo://app?vid=245d84a4-f8b5-47c1-8ec9-0c359e2154cc"},"vehicle_type_id":"4","last_reported":1677013608,"current_range_meters":18400,"station_id":"","pricing_plan_id":"free"},{"bike_id":"b48e142c-3340-4fb2-9714-fdc50f9b3c9a","system_id":"levelo_inurba_marseille","lat":43.30642,"lon":5.401031,"is_reserved":false,"is_disabled":false,"rental_uris":{"android":"levelo://app?vid=b48e142c-3340-4fb2-9714-fdc50f9b3c9a","ios":"levelo://app?vid=b48e142c-3340-4fb2-9714-fdc50f9b3c9a"},"vehicle_type_id":"4","last_reported":1677013608,"current_range_meters":24000,"station_id":"ce4bh112rcd13ifvqda0","pricing_plan_id":"free"},