{"last_updated":1724180794,"ttl":30,"version":"2.2","data":{"bikes":[{"bike_id":"1f869dc8-30b6-42dd-980c-ed66089cbdf9","system_id":"levelo_inurba_marseille","lat":43.312239,"lon":5.368562,"is_reserved":false,"is_disabled":false,"rental_uris":{"android":"levelo://app?vid=1f869dc8-30b6-42dd-980c-ed66089cbdf9","ios":"levelo://app?vid=1f869dc8-30b6-42dd-980c-ed66089cbdf9"},"vehicle_type_id":"4","last_reported":1724180794,"current_range_meters":29200,"station_id":"ce4bgl92rcd13ifvqbq0","pricing_plan_id":"cebpf4jnsgd1na2vs0mg"},{"bike_id":"4308e53f-45ae-459e-8ea4-4fe6b358f5a6","system_id":"levelo_inurba_marseille","lat":43.314811,"lon":5.373103,"is_reserved":false,"is_disabled":false,"rental_uris":{"android":"levelo://app?vid=4308e53f-45ae-459e-8ea4-4fe6b358f5a6","ios":"levelo://app?vid=4308e53f-45ae-459e-8ea4-4fe6b358f5a6"},"vehicle_type_id":"4","last_reported":1724180794,"current_range_meters":16000,"station_id":"ce4bgt12rcd13ifvqcd0","pricing_plan_id":"cebpf4jnsgd1na2vs0mg"},{"bike_id":"b5827bd4-0069-4bad-aab9-cb9a08a95012","system_id":"levelo_inurba_marseille","lat":43.314811,"lon":5.373103,"is_reserved":false,"is_disabled":false,"rental_uris":{"android":"levelo://app?vid=b5827bd4-0069-4bad-aab9-cb9a08a95012","ios":"levelo://app?vid=b5827bd4-0069-4bad-aab9-cb9a08a95012"},"vehicle_type_id":"4","last_reported":1724180794,"current_range_meters":2000,"station_id":"ce4bgt12rcd13ifvqcd0","pricing_plan_id":"cebpf4jnsgd1na2vs0mg"},{"bike_id":"f17d341d-47af-4494-991a-75592260b1f5","system_id":"levelo_inurba_marseille","lat":43.305712,"lon":5.365641,"is_reserved":false,"is_disabled":false,"rental_uris":{"android":"levelo://app?vid=f17d341d-47af-4494-991a-75592260b1f5","ios":"levelo://app?vid=f17d341d-47af-4494-991a-75592260b1f5"},"vehicle_type_id":"4","last_reported":1724180794,"current_range_meters":400,"station_id":"ce4bgs12rcd13ifvqcag","pricing_plan_id":"cebpf4jnsgd1na2vs0mg"},{"bike_id":"13ed464a-9d00-4699-8605-b813ae7078e1","system_id":"levelo_inurba_marseille","lat":43.305714,"lon":5.365633,"is_reserved":false,"is_disabled":false,"rental_uris":{"android":"levelo://app?vid=13ed464a-9d00-4699-8605-b813ae7078e1","ios":"levelo://app?vid=13ed464a-9d00-4699-8605-b813ae7078e1"},"vehicle_type_id":"4","last_reported":1724180794,"current_range_meters":0,"station_id":"ce4bgs12rcd13ifvqcag","pricing_plan_id":"cebpf4jnsgd1na2vs0mg"},{"bike_id":"adaf3d01-3b8c-44d9-954d-bdb36e07fbdf","system_id":"levelo_inurba_marseille","lat":43.30537,"lon":5.367345,"is_reserved":false,"is_disabled":false,"rental_uris":{"android":"levelo://app?vid=adaf3d01-3b8c-44d9-954d-bdb36e07fbdf","ios":"levelo://app?vid=adaf3d01-3b8c-44d9-954d-bdb36e07fbdf"},"vehicle_type_id":"4","last_reported":1724180794,"current_range_meters":28800,"station_id":"ce4bgrp2rcd13ifvqc9g","pricing_plan_id":"cebpf4jnsgd1na2vs0mg"},{"bike_id":"14e01e23-51eb-4a3c-a112-0e7f316a2297","system_id":"levelo_inurba_marseille","lat":43.306147,"lon":5.372107,"is_reserved":false,"is_disabled":false,"rental_uris":{"android":"levelo://app?vid=14e01e23-51eb-4a3c-a112-0e7f316a2297","ios":"levelo://app?vid=14e01e23-51eb-4a3c-a112-0e7f316a2297"},"vehicle_type_id":"4","last_reported":1724180794,"current_range_meters":7600,"station_id":"ce4bgqh2rcd13ifvqc4g","pricing_plan_id":"cebpf4jnsgd1na2vs0mg"},{"bike_id":"7e45096c-8a7d-4b62-abc7-4a2bb219ef48","system_id":"levelo_inurba_marseille","lat":43.305989,"lon":5.37225,"is_reserved":false,"is_disabled":false,"rental_uris":{"android":"levelo://app?vid=7e45096c-8a7d-4b62-abc7-4a2bb219ef48","ios":"levelo://app?vid=7e45096c-8a7d-4b62-abc7-4a2bb219ef48"},"vehicle_type_id":"4","last_reported":1724180794,"current_range_meters":17200,"station_id":"ce4bgqh2rcd13ifvqc4g","pricing_plan_id":"cebpf4jnsgd1na2vs0mg"},{"bike_id":"74ae9b72-97d9-4776-8c57-d5b53f64e654","system_id":"levelo_inurba_marseille","lat":43.31122,"lon":5.3776,"is_reserved":false,"is_disabled":false,"rental_uris":{"android":"levelo://app?vid=74ae9b72-97d9-4776-8c57-d5b53f64e654","ios":"levelo://app?vid=74ae9b72-97d9-4776-8c57-d5b53f64e654"},"vehicle_type_id":"4","last_reported":1724180794,"current_range_meters":0,"station_id":"ce4bgt92rcd13ifvqcg0","pricing_plan_id":"cebpf4jnsgd1na2vs0mg"},{"bike_id":"167b16ad-8a36-4ce8-a3ce-be2adbb4a337","system_id":"levelo_inurba_marseille","lat":43.311131,"lon":5.377651,"is_reserved":false,"is_disabled":false,"rental_uris":{"android":"levelo://app?vid=167b16ad-8a36-4ce8-a3ce-be2adbb4a337","ios":"levelo://app?vid=167b16ad-8a36-4ce8-a3ce-be2adbb4a337"},"vehicle_type_id":"4","last_reported":1724180794,"current_range_meters":400,"station_id":"ce4bgt92rcd13ifvqcg0","pricing_plan_id":"cebpf4jnsgd1na2vs0mg"},{"bike_id":"25f56820-49e8-486c-858d-92a442666a94","system_id":"levelo_inurba_marseille","lat":43.307945,"lon":5.376487,"is_reserved":false,"is_disabled":false,"rental_uris":{"android":"levelo://app?vid=25f56820-49e8-486c-858d-92a442666a94","ios":"levelo://app?vid=25f56820-49e8-486c-858d-92a442666a94"},"vehicle_type_id":"4","last_reported":1724180794,"current_range_meters":16400,"station_id":"ce4bgv92rcd13ifvqcq0","pricing_plan_id":"cebpf4jnsgd1na2vs0mg"},{"bike_id":"1864babe-6c87-4f93-b938-bd49f7b4a64f","system_id":"levelo_inurba_marseille","lat":43.307945,"lon":5.376487,"is_reserved":false,"is_disabled":false,"rental_uris":{"android":"levelo://app?vid=1864babe-6c87-4f93-b938-bd49f7b4a64f","ios":"levelo://app?vid=1864babe-6c87-4f93-b938-bd49f7b4a64f"},"vehicle_type_id":"4","last_reported":1724180794,"current_range_meters":20400,"station_id":"ce4bgv92rcd13ifvqcq0","pricing_plan_id":"cebpf4jnsgd1na2vs0mg"},{"bike_id":"810b60dd-83c9-45e5-aaf0-8199ba2a7b05","system_id":"levelo_inurba_marseille","lat":43.307945,"lon":5.376487,"is_reserved":false,"is_disabled":false,"rental_uris":{"android":"levelo://app?vid=810b60dd-83c9-45e5-aaf0-8199ba2a7b05","ios":"levelo://app?vid=810b60dd-83c9-45e5-aaf0-8199ba2a7b05"},"vehicle_type_id":"4","last_reported":1724180794,"current_range_meters":30400,"station_id":"ce4bgv92rcd13ifvqcq0","pricing_plan_id":"cebpf4jnsgd1na2vs0mg"},{"bike_id":"147a20fe-5f4c-46c4-83a7-41fb45f24ba9","system_id":"levelo_inurba_marseille","lat":43.307945,"lon":5.376487,"is_reserved":false,"is_disabled":false,"rental_uris":{"android":"levelo://app?vid=147a20fe-5f4c-46c4-83a7-41fb45f24ba9","ios":"levelo://app?vid=147a20fe-5f4c-46c4-83a7-41fb45f24ba9"},"vehicle_type_id":"4","last_reported":1724180794,"current_range_meters":23200,"station_id":"ce4bgv92rcd13ifvqcq0","pricing_plan_id":"cebpf4jnsgd1na2vs0mg"},{"bike_id":"82a01b0d-6c08-4730-877e-aa0dd124517f","system_id":"levelo_inurba_marseille","lat":43.307945,"lon":5.376487,"is_reserved":false,"is_disabled":false,"rental_uris":{"android":"levelo://app?vid=82a01b0d-6c08-4730-877e-aa0dd124517f","ios":"levelo://app?vid=82a01b0d-6c08-4730-877e-aa0dd124517f"},"vehicle_type_id":"4","last_reported":1724180794,"current_range_meters":3200,"station_id":"ce4bgv92rcd13ifvqcq0","pricing_plan_id":"cebpf4jnsgd1na2vs0mg"},{"bike_id":"fa9ab0dd-c488-4516-95a9-7768dd8bab70","system_id":"levelo_inurba_marseille","lat":43.317075,"lon":5.377367,"is_reserved":false,"is_disabled":false,"rental_uris":{"android":"levelo://app?vid=fa9ab0dd-c488-4516-95a9-7768dd8bab70","ios":"levelo://app?vid=fa9ab0dd-c488-4516-95a9-7768dd8bab70"},"vehicle_type_id":"4","last_reported":1724180794,"current_range_meters":30800,"station_id":"ce4bgth2rcd13ifvqch0","pricing_plan_id":"cebpf4jnsgd1na2vs0mg"},{"bike_id":"75cd5b07-e655-478f-9d12-84bf54703b08","system_id":"levelo_inurba_marseille","lat":43.310121,"lon":5.379236,"is_reserved":false,"is_disabled":false,"rental_uris":{"android":"levelo://app?vid=75cd5b07-e655-478f-9d12-84bf54703b08","ios":"levelo://app?vid=75cd5b07-e655-478f-9d12-84bf54703b08"},"vehicle_type_id":"4","last_reported":1724180794,"current_range_meters":0,"station_id":"","pricing_plan_id":"cebpf4jnsgd1na2vs0mg"},{"bike_id":"70201816-746f-4eb4-b83a-962e15b620fb","system_id":"levelo_inurba_marseille","lat":43.3031,"lon":5.36912,"is_reserved":false,"is_disabled":false,"rental_uris":{"android":"levelo://app?vid=70201816-746f-4eb4-b83a-962e15b620fb","ios":"levelo://app?vid=70201816-746f-4eb4-b83a-962e15b620fb"},"vehicle_type_id":"4","last_reported":1724180794,"current_range_meters":0,"station_id":"ce4bgqh2rcd13ifvqc5g","pricing_plan_id":"cebpf4jnsgd1na2vs0mg"},{"bike_id":"bfc3c93d-873c-480e-9de1-e8067c48e662","system_id":"levelo_inurba_marseille","lat":43.31578,"lon":5.38061,"is_reserved":false,"is_disabled":false,"rental_uris":{"android":"levelo://app?vid=bfc3c93d-873c-480e-9de1-e8067c48e662","ios":"levelo://app?vid=bfc3c93d-873c-480e-9de1-e8067c48e662"},"vehicle_type_id":"4","last_reported":1724180794,"current_range_meters":11200,"station_id":"","pricing_plan_id":"cebpf4jnsgd1na2vs0mg"},{"bike_id":"a1394324-7439-46ae-a741-adaaf581e30e","system_id":"levelo_inurba_marseille","lat":43.304606,"lon":5.379026,"is_reserved":false,"is_disabled":false,"rental_uris":{"android":"levelo://app?vid=a1394324-7439-46ae-a741-adaaf581e30e","ios":"levelo://app?vid=a1394324-7439-46ae-a741-adaaf581e30e"},"vehicle_type_id":"4","last_reported":1724180794,"current_range_meters":1200,"station_id":"ce4bgup2rcd13ifvqcn0","pricing_plan_id":"cebpf4jnsgd1na2vs0mg"},{"bike_id":"b514540e-84fa-4232-9746-f12894086444","system_id":"levelo_inurba_marseille","lat":43.324771,"lon":5.36557,"is_reserved":false,"is_disabled":false,"rental_uris":{"android":"levelo://app?vid=b514540e-84fa-4232-9746-f12894086444","ios":"levelo://app?vid=b514540e-84fa-4232-9746-f12894086444"},"vehicle_type_id":"4","last_reported":1724180794,"current_range_meters":11600,"station_id":"ce4bhs12rcd13ifvqhvg","pricing_plan_id":"cebpf4jnsgd1na2vs0mg"},{"bike_id":"210a6170-e272-4db4-b817-adb03dd3aac2","system_id":"levelo_inurba_marseille","lat":43.324771,"lon":5.36557,"is_reserved":false,"is_disabled":false,"rental_uris":{"android":"levelo://app?vid=210a6170-e272-4db4-b817-adb03dd3aac2","ios":"levelo://app?vid=210a6170-e272-4db4-b817-adb03dd3aac2"},"vehicle_type_id":"4","last_reported":1724180794,"current_range_meters":26000,"station_id":"ce4bhs12rcd13ifvqhvg","pricing_plan_id":"cebpf4jnsgd1na2vs0mg"},{"bike_id":"f1a2c979-e770-4963-95b3-4f9db4709f25","system_id":"levelo_inurba_marseille","lat":43.324771,"lon":5.36557,"is_reserved":false,"is_disabled":false,"rental_uris":{"android":"levelo://app?vid=f1a2c979-e770-4963-95b3-4f9db4709f25","ios":"levelo://app?vid=f1a2c979-e770-4963-95b3-4f9db4709f25"},"vehicle_type_id":"4","last_reported":1724180794,"current_range_meters":3200,"station_id":"ce4bhs12rcd13ifvqhvg","pricing_plan_id":"cebpf4jnsgd1na2vs0mg"},{"bike_id":"dc18ef80-7b17-4500-950b-a5b475701f80","system_id":"levelo_inurba_marseille","lat":43.324771,"lon":5.36557,"is_reserved":false,"is_disabled":false,"rental_uris":{"android":"levelo://app?vid=dc18ef80-7b17-4500-950b-a5b475701f80","ios":"levelo://app?vid=dc18ef80-7b17-4500-950b-a5b475701f80"},"vehicle_type_id":"4","last_reported":1724180794,"current_range_meters":6800,"station_id":"ce4bhs12rcd13ifvqhvg","pricing_plan_id":"cebpf4jnsgd1na2vs0mg"},{"bike_id":"278b0b8d-f4d5-4d54-bea8-763ba57487ff","system_id":"levelo_inurba_marseille","lat":43.302784,"lon":5.377158,"is_reserved":false,"is_disabled":false,"rental_uris":{"android":"levelo://app?vid=278b0b8d-f4d5-4d54-bea8-763ba57487ff","ios":"levelo://app?vid=278b0b8d-f4d5-4d54-bea8-763ba57487ff"},"vehicle_type_id":"4","last_reported":1724180794,"current_range_meters":0,"station_id":"ce4bguh2rcd13ifvqcj0","pricing_plan_id":"cebpf4jnsgd1na2vs0mg"},{"bike_id":"5219cef4-0439-4ed6-b2b3-b1f196fd620d","system_id":"levelo_inurba_marseille","lat":43.31357,"lon":5.38491,"is_reserved":false,"is_disabled":false,"rental_uris":{"android":"levelo://app?vid=5219cef4-0439-4ed6-b2b3-b1f196fd620d","ios":"levelo://app?vid=5219cef4-0439-4ed6-b2b3-b1f196fd620d"},"vehicle_type_id":"4","last_reported":1724180794,"current_range_meters":0,"station_id":"ce4bgt92rcd13ifvqcf0","pricing_plan_id":"cebpf4jnsgd1na2vs0mg"},{"bike_id":"0e46eee4-a2e4-483e-a969-cad859b8d001","system_id":"levelo_inurba_marseille","lat":43.313571,"lon":5.384829,"is_reserved":false,"is_disabled":false,"rental_uris":{"android":"levelo://app?vid=0e46eee4-a2e4-483e-a969-cad859b8d001","ios":"levelo://app?vid=0e46eee4-a2e4-483e-a969-cad859b8d001"},"vehicle_type_id":"4","last_reported":1724180794,"current_range_meters":2800,"station_id":"ce4bgt92rcd13ifvqcf0","pricing_plan_id":"cebpf4jnsgd1na2vs0mg"},{"bike_id":"1e77c456-d4b6-4587-9625-fde250a38700","system_id":"levelo_inurba_marseille","lat":43.313571,"lon":5.384829,"is_reserved":false,"is_disabled":false,"rental_uris":{"android":"levelo://app?vid=1e77c456-d4b6-4587-9625-fde250a38700","ios":"levelo://app?vid=1e77c456-d4b6-4587-9625-fde250a38700"},"vehicle_type_id":"4","last_reported":1724180794,"current_range_meters":4800,"station_id":"ce4bgt92rcd13ifvqcf0","pricing_plan_id":"cebpf4jnsgd1na2vs0mg"},{"bike_id":"9ff8bd72-86bd-4af3-a886-ec6cc9ca0eef","system_id":"levelo_inurba_marseille","lat":43.299222,"lon":5.365554,"is_reserved":false,"is_disabled":false,"rental_uris":{"android":"levelo://app?vid=9ff8bd72-86bd-4af3-a886-ec6cc9ca0eef","ios":"levelo://app?vid=9ff8bd72-86bd-4af3-a886-ec6cc9ca0eef"},"vehicle_type_id":"4","last_reported":1724180794,"current_range_meters":26000,"station_id":"ce4bgm92rcd13ifvqbr0","pricing_plan_id":"cebpf4jnsgd1na2vs0mg"},{"bike_id":"3acc260e-c798-40a9-add8-974577386942","system_id":"levelo_inurba_marseille","lat":43.299724,"lon":5.371829,"is_reserved":false,"is_disabled":false,"rental_uris":{"android":"levelo://app?vid=3acc260e-c798-40a9-add8-974577386942","ios":"levelo://app?vid=3acc260e-c798-40a9-add8-974577386942"},"vehicle_type_id":"4","last_reported":1724180794,"current_range_meters":23200,"station_id":"ce4bgr92rcd13ifvqc7g","pricing_plan_id":"cebpf4jnsgd1na2vs0mg"},{"bike_id":"d6a80cdb-056b-4bc5-b740-551eb0f41449","system_id":"levelo_inurba_marseille","lat":43.299222,"lon":5.365554,"is_reserved":false,"is_disabled":false,"rental_uris":{"android":"levelo://app?vid=d6a80cdb-056b-4bc5-b740-551eb0f41449","ios":"levelo://app?vid=d6a80cdb-056b-4bc5-b740-551eb0f41449"},"vehicle_type_id":"4","last_reported":1724180794,"current_range_meters":23200,"station_id":"ce4bgm92rcd13ifvqbr0","pricing_plan_id":"cebpf4jnsgd1na2vs0mg"},{"bike_id":"4e21e326-e557-4500-99c7-1ef1891953a6","system_id":"levelo_inurba_marseille","lat":43.299222,"lon":5.365554,"is_reserved":false,"is_disabled":false,"rental_uris":{"android":"levelo://app?vid=4e21e326-e557-4500-99c7-1ef1891953a6","ios":"levelo://app?vid=4e21e326-e557-4500-99c7-1ef1891953a6"},"vehicle_type_id":"4","last_reported":1724180794,"current_range_meters":30000,"station_id":"ce4bgm92rcd13ifvqbr0","pricing_plan_id":"cebpf4jnsgd1na2vs0mg"},{"bike_id":"03a742fa-1190-4c07-b6e9-54425bd42d48","system_id":"levelo_inurba_marseille","lat":43.30648,"lon":5.38416,"is_reserved":false,"is_disabled":false,"rental_uris":{"android":"levelo://app?vid=03a742fa-1190-4c07-b6e9-54425bd42d48","ios":"levelo://app?vid=03a742fa-1190-4c07-b6e9-54425bd42d48"},"vehicle_type_id":"4","last_reported":1724180794,"current_range_meters":26000,"station_id":"","pricing_plan_id":"cebpf4jnsgd1na2vs0mg"},{"bike_id":"f391eb39-0c65-4c9b-808f-2de2839f4720","system_id":"levelo_inurba_marseille","lat":43.299243,"lon":5.37481,"is_reserved":false,"is_disabled":false,"rental_uris":{"android":"levelo://app?vid=f391eb39-0c65-4c9b-808f-2de2839f4720","ios":"levelo://app?vid=f391eb39-0c65-4c9b-808f-2de2839f4720"},"vehicle_type_id":"4","last_reported":1724180794,"current_range_meters":24800,"station_id":"ce4bgjh2rcd13ifvqbg0","pricing_plan_id":"cebpf4jnsgd1na2vs0mg"},{"bike_id":"585ccab1-4ac0-4fac-b5f9-82e6954835df","system_id":"levelo_inurba_marseille","lat":43.299243,"lon":5.374807,"is_reserved":false,"is_disabled":false,"rental_uris":{"android":"levelo://app?vid=585ccab1-4ac0-4fac-b5f9-82e6954835df","ios":"levelo://app?vid=585ccab1-4ac0-4fac-b5f9-82e6954835df"},"vehicle_type_id":"4","last_reported":1724180794,"current_range_meters":21200,"station_id":"ce4bgjh2rcd13ifvqbg0","pricing_plan_id":"cebpf4jnsgd1na2vs0mg"},{"bike_id":"683a2395-f2ee-4205-99e7-d900df15d807","system_id":"levelo_inurba_marseille","lat":43.298433,"lon":5.362774,"is_reserved":false,"is_disabled":false,"rental_uris":{"android":"levelo://app?vid=683a2395-f2ee-4205-99e7-d900df15d807","ios":"levelo://app?vid=683a2395-f2ee-4205-99e7-d900df15d807"},"vehicle_type_id":"4","last_reported":1724180794,"current_range_meters":14400,"station_id":"ce4bgpp2rcd13ifvqc3g","pricing_plan_id":"cebpf4jnsgd1na2vs0mg"},{"bike_id":"105e499b-9f4d-48e6-b4ae-193ecdc89c66","system_id":"levelo_inurba_marseille","lat":43.299243,"lon":5.374807,"is_reserved":false,"is_disabled":false,"rental_uris":{"android":"levelo://app?vid=105e499b-9f4d-48e6-b4ae-193ecdc89c66","ios":"levelo://app?vid=105e499b-9f4d-48e6-b4ae-193ecdc89c66"},"vehicle_type_id":"4","last_reported":1724180794,"current_range_meters":0,"station_id":"ce4bgjh2rcd13ifvqbg0","pricing_plan_id":"cebpf4jnsgd1na2vs0mg"},{"bike_id":"867c9c83-93c0-43ae-a2f4-7e37d27243c9","system_id":"levelo_inurba_marseille","lat":43.299243,"lon":5.37481,"is_reserved":false,"is_disabled":false,"rental_uris":{"android":"levelo://app?vid=867c9c83-93c0-43ae-a2f4-7e37d27243c9","ios":"levelo://app?vid=867c9c83-93c0-43ae-a2f4-7e37d27243c9"},"vehicle_type_id":"4","last_reported":1724180794,"current_range_meters":0,"station_id":"ce4bgjh2rcd13ifvqbg0","pricing_plan_id":"cebpf4jnsgd1na2vs0mg"},{"bike_id":"d1c6efa5-16e6-4a30-a832-1291389d2b52","system_id":"levelo_inurba_marseille","lat":43.299243,"lon":5.37481,"is_reserved":false,"is_disabled":false,"rental_uris":{"android":"levelo://app?vid=d1c6efa5-16e6-4a30-a832-1291389d2b52","ios":"levelo://app?vid=d1c6efa5-16e6-4a30-a832-1291389d2b52"},"vehicle_type_id":"4","last_reported":1724180794,"current_range_meters":20000,"station_id":"ce4bgjh2rcd13ifvqbg0","pricing_plan_id":"cebpf4jnsgd1na2vs0mg"},{"bike_id":"013e665c-bd43-46e2-bf0e-840063967650","system_id":"levelo_inurba_marseille","lat":43.297774,"lon":5.370875,"is_reserved":false,"is_disabled":false,"rental_uris":{"android":"levelo://app?vid=013e665c-bd43-46e2-bf0e-840063967650","ios":"levelo://app?vid=013e665c-bd43-46e2-bf0e-840063967650"},"vehicle_type_id":"4","last_reported":1724180794,"current_range_meters":30000,"station_id":"ce4bgop2rcd13ifvqc1g","pricing_plan_id":"cebpf4jnsgd1na2vs0mg"},{"bike_id":"c93e48f7-5699-4c81-b832-c267fda0c679","system_id":"levelo_inurba_marseille","lat":43.297794,"lon":5.370888,"is_reserved":false,"is_disabled":false,"rental_uris":{"android":"levelo://app?vid=c93e48f7-5699-4c81-b832-c267fda0c679","ios":"levelo://app?vid=c93e48f7-5699-4c81-b832-c267fda0c679"},"vehicle_type_id":"4","last_reported":1724180794,"current_range_meters":3200,"station_id":"ce4bgop2rcd13ifvqc1g","pricing_plan_id":"cebpf4jnsgd1na2vs0mg"},{"bike_id":"9de35079-ff0b-4f26-9e89-a57d9850ad50","system_id":"levelo_inurba_marseille","lat":43.322872,"lon":5.382756,"is_reserved":false,"is_disabled":false,"rental_uris":{"android":"levelo://app?vid=9de35079-ff0b-4f26-9e89-a57d9850ad50","ios":"levelo://app?vid=9de35079-ff0b-4f26-9e89-a57d9850ad50"},"vehicle_type_id":"4","last_reported":1724180794,"current_range_meters":18800,"station_id":"ce4bhr12rcd13ifvqhqg","pricing_plan_id":"cebpf4jnsgd1na2vs0mg"},{"bike_id":"38b10a66-6051-4349-afd2-1d54758bdc3a","system_id":"levelo_inurba_marseille","lat":43.322872,"lon":5.382756,"is_reserved":false,"is_disabled":false,"rental_uris":{"android":"levelo://app?vid=38b10a66-6051-4349-afd2-1d54758bdc3a","ios":"levelo://app?vid=38b10a66-6051-4349-afd2-1d54758bdc3a"},"vehicle_type_id":"4","last_reported":1724180794,"current_range_meters":26800,"station_id":"ce4bhr12rcd13ifvqhqg","pricing_plan_id":"cebpf4jnsgd1na2vs0mg"},{"bike_id":"72ee5bcc-c564-4def-a85b-42a7c2e5d2fc","system_id":"levelo_inurba_marseille","lat":43.298916,"lon":5.376038,"is_reserved":false,"is_disabled":false,"rental_uris":{"android":"levelo://app?vid=72ee5bcc-c564-4def-a85b-42a7c2e5d2fc","ios":"levelo://app?vid=72ee5bcc-c564-4def-a85b-42a7c2e5d2fc"},"vehicle_type_id":"4","last_reported":1724180794,"current_range_meters":8400,"station_id":"","pricing_plan_id":"cebpf4jnsgd1na2vs0mg"},{"bike_id":"5af0c0ba-c3ba-45f8-89fe-e7f19d4c3e51","system_id":"levelo_inurba_marseille","lat":43.29768,"lon":5.37103,"is_reserved":false,"is_disabled":false,"rental_uris":{"android":"levelo://app?vid=5af0c0ba-c3ba-45f8-89fe-e7f19d4c3e51","ios":"levelo://app?vid=5af0c0ba-c3ba-45f8-89fe-e7f19d4c3e51"},"vehicle_type_id":"4","last_reported":1724180794,"current_range_meters":4400,"station_id":"ce4bgop2rcd13ifvqc1g","pricing_plan_id":"cebpf4jnsgd1na2vs0mg"},{"bike_id":"e90fb3b6-4ba5-4768-8484-edf2d46fa148","system_id":"levelo_inurba_marseille","lat":43.322872,"lon":5.382756,"is_reserved":false,"is_disabled":false,"rental_uris":{"android":"levelo://app?vid=e90fb3b6-4ba5-4768-8484-edf2d46fa148","ios":"levelo://app?vid=e90fb3b6-4ba5-4768-8484-edf2d46fa148"},"vehicle_type_id":"4","last_reported":1724180794,"current_range_meters":8400,"station_id":"ce4bhr12rcd13ifvqhqg","pricing_plan_id":"cebpf4jnsgd1na2vs0mg"},{"bike_id":"bf4f6403-c5ef-464e-b431-841f53d807fd","system_id":"levelo_inurba_marseille","lat":43.29805,"lon":5.37409,"is_reserved":false,"is_disabled":false,"rental_uris":{"android":"levelo://app?vid=bf4f6403-c5ef-464e-b431-841f53d807fd","ios":"levelo://app?vid=bf4f6403-c5ef-464e-b431-841f53d807fd"},"vehicle_type_id":"4","last_reported":1724180794,"current_range_meters":0,"station_id":"","pricing_plan_id":"cebpf4jnsgd1na2vs0mg"},{"bike_id":"173c87e2-330e-4e49-92a9-1f77ef590222","system_id":"levelo_inurba_marseille","lat":43.29672,"lon":5.36435,"is_reserved":false,"is_disabled":false,"rental_uris":{"android":"levelo://app?vid=173c87e2-330e-4e49-92a9-1f77ef590222","ios":"levelo://app?vid=173c87e2-330e-4e49-92a9-1f77ef590222"},"vehicle_type_id":"4","last_reported":1724180794,"current_range_meters":26000,"station_id":"","pricing_plan_id":"cebpf4jnsgd1na2vs0mg"},{"bike_id":"4a618ea7-91d1-45d1-9950-a06a3226296c","system_id":"levelo_inurba_marseille","lat":43.317557,"lon":5.390173,"is_reserved":false,"is_disabled":false,"rental_uris":{"android":"levelo://app?vid=4a618ea7-91d1-45d1-9950-a06a3226296c","ios":"levelo://app?vid=4a618ea7-91d1-45d1-9950-a06a3226296c"},"vehicle_type_id":"4","last_reported":1724180794,"current_range_meters":0,"station_id":"ce4bhqp2rcd13ifvqhng","pricing_plan_id":"cebpf4jnsgd1na2vs0mg"},{"bike_id":"245cfcf3-1e39-4779-91f4-7d8c461b83d0","system_id":"levelo_inurba_marseille","lat":43.29631,"lon":5.37184,"is_reserved":false,"is_disabled":false,"rental_uris":{"android":"levelo://app?vid=245cfcf3-1e39-4779-91f4-7d8c461b83d0","ios":"levelo://app?vid=245cfcf3-1e39-4779-91f4-7d8c461b83d0"},"vehicle_type_id":"4","last_reported":1724180794,"current_range_meters":24800,"station_id":"ce4bgnh2rcd13ifvqc0g","pricing_plan_id":"cebpf4jnsgd1na2vs0mg"},{"bike_id":"50d252ec-6aeb-4ada-a464-32b8be9d5906","system_id":"levelo_inurba_marseille","lat":43.296131,"lon":5.370791,"is_reserved":false,"is_disabled":false,"rental_uris":{"android":"levelo://app?vid=50d252ec-6aeb-4ada-a464-32b8be9d5906","ios":"levelo://app?vid=50d252ec-6aeb-4ada-a464-32b8be9d5906"},"vehicle_type_id":"4","last_reported":1724180794,"current_range_meters":11600,"station_id":"ce4bgnh2rcd13ifvqc0g","pricing_plan_id":"cebpf4jnsgd1na2vs0mg"},{"bike_id":"1d5af1c4-17e9-4ec6-a93c-3d97c04993eb","system_id":"levelo_inurba_marseille","lat":43.296131,"lon":5.370773,"is_reserved":false,"is_disabled":false,"rental_uris":{"android":"levelo://app?vid=1d5af1c4-17e9-4ec6-a93c-3d97c04993eb","ios":"levelo://app?vid=1d5af1c4-17e9-4ec6-a93c-3d97c04993eb"},"vehicle_type_id":"4","last_reported":1724180794,"current_range_meters":6400,"station_id":"ce4bgnh2rcd13ifvqc0g","pricing_plan_id":"cebpf4jnsgd1na2vs0mg"},{"bike_id":"164fb9eb-d855-4a2b-8f35-c425658c8b0a","system_id":"levelo_inurba_marseille","lat":43.296131,"lon":5.370791,"is_reserved":false,"is_disabled":false,"rental_uris":{"android":"levelo://app?vid=164fb9eb-d855-4a2b-8f35-c425658c8b0a","ios":"levelo://app?vid=164fb9eb-d855-4a2b-8f35-c425658c8b0a"},"vehicle_type_id":"4","last_reported":1724180794,"current_range_meters":7600,"station_id":"ce4bgnh2rcd13ifvqc0g","pricing_plan_id":"cebpf4jnsgd1na2vs0mg"},{"bike_id":"ad7d5d50-c485-4b8b-95d9-6abc35108f31","system_id":"levelo_inurba_marseille","lat":43.296131,"lon":5.370773,"is_reserved":false,"is_disabled":false,"rental_uris":{"android":"levelo://app?vid=ad7d5d50-c485-4b8b-95d9-6abc35108f31","ios":"levelo://app?vid=ad7d5d50-c485-4b8b-95d9-6abc35108f31"},"vehicle_type_id":"4","last_reported":1724180794,"current_range_meters":3200,"station_id":"ce4bgnh2rcd13ifvqc0g","pricing_plan_id":"cebpf4jnsgd1na2vs0mg"},{"bike_id":"67eaad31-159a-4d03-82ce-2529fdb873eb","system_id":"levelo_inurba_marseille","lat":43.29573,"lon":5.367355,"is_reserved":false,"is_disabled":false,"rental_uris":{"android":"levelo://app?vid=67eaad31-159a-4d03-82ce-2529fdb873eb","ios":"levelo://app?vid=67eaad31-159a-4d03-82ce-2529fdb873eb"},"vehicle_type_id":"4","last_reported":1724180794,"current_range_meters":31200,"station_id":"ce4bgph2rcd13ifvqc2g","pricing_plan_id":"cebpf4jnsgd1na2vs0mg"},{"bike_id":"5a56d1a7-304b-4f0f-a21b-0a2e22022380","system_id":"levelo_inurba_marseille","lat":43.29573,"lon":5.367355,"is_reserved":false,"is_disabled":false,"rental_uris":{"android":"levelo://app?vid=5a56d1a7-304b-4f0f-a21b-0a2e22022380","ios":"levelo://app?vid=5a56d1a7-304b-4f0f-a21b-0a2e22022380"},"vehicle_type_id":"4","last_reported":1724180794,"current_range_meters":3600,"station_id":"ce4bgph2rcd13ifvqc2g","pricing_plan_id":"cebpf4jnsgd1na2vs0mg"},{"bike_id":"0b607721-fa94-46eb-8c51-6fe7bc83d58f","system_id":"levelo_inurba_marseille","lat":43.29579,"lon":5.36745,"is_reserved":false,"is_disabled":false,"rental_uris":{"android":"levelo://app?vid=0b607721-fa94-46eb-8c51-6fe7bc83d58f","ios":"levelo://app?vid=0b607721-fa94-46eb-8c51-6fe7bc83d58f"},"vehicle_type_id":"4","last_reported":1724180794,"current_range_meters":0,"station_id":"ce4bgph2rcd13ifvqc2g","pricing_plan_id":"cebpf4jnsgd1na2vs0mg"},{"bike_id":"0ec949e2-3fac-4ef4-8ff2-9c086dd1b95d","system_id":"levelo_inurba_marseille","lat":43.299028,"lon":5.381509,"is_reserved":false,"is_disabled":false,"rental_uris":{"android":"levelo://app?vid=0ec949e2-3fac-4ef4-8ff2-9c086dd1b95d","ios":"levelo://app?vid=0ec949e2-3fac-4ef4-8ff2-9c086dd1b95d"},"vehicle_type_id":"4","last_reported":1724180794,"current_range_meters":4000,"station_id":"ce4bgj12rcd13ifvqbc0","pricing_plan_id":"cebpf4jnsgd1na2vs0mg"},{"bike_id":"af17e0f8-8b3e-492b-b5bb-34492566aa46","system_id":"levelo_inurba_marseille","lat":43.296921,"lon":5.376579,"is_reserved":false,"is_disabled":false,"rental_uris":{"android":"levelo://app?vid=af17e0f8-8b3e-492b-b5bb-34492566aa46","ios":"levelo://app?vid=af17e0f8-8b3e-492b-b5bb-34492566aa46"},"vehicle_type_id":"4","last_reported":1724180794,"current_range_meters":13200,"station_id":"ce4bgkh2rcd13ifvqbl0","pricing_plan_id":"cebpf4jnsgd1na2vs0mg"},{"bike_id":"061bba91-718b-4104-81a1-b50c2492ea4b","system_id":"levelo_inurba_marseille","lat":43.309589,"lon":5.390258,"is_reserved":false,"is_disabled":false,"rental_uris":{"android":"levelo://app?vid=061bba91-718b-4104-81a1-b50c2492ea4b","ios":"levelo://app?vid=061bba91-718b-4104-81a1-b50c2492ea4b"},"vehicle_type_id":"4","last_reported":1724180794,"current_range_meters":31200,"station_id":"ce4bgup2rcd13ifvqco0","pricing_plan_id":"cebpf4jnsgd1na2vs0mg"},{"bike_id":"407df8fc-4f00-4132-b9e1-4fa065b320de","system_id":"levelo_inurba_marseille","lat":43.30948,"lon":5.39026,"is_reserved":false,"is_disabled":false,"rental_uris":{"android":"levelo://app?vid=407df8fc-4f00-4132-b9e1-4fa065b320de","ios":"levelo://app?vid=407df8fc-4f00-4132-b9e1-4fa065b320de"},"vehicle_type_id":"4","last_reported":1724180794,"current_range_meters":31200,"station_id":"ce4bgup2rcd13ifvqco0","pricing_plan_id":"cebpf4jnsgd1na2vs0mg"},{"bike_id":"f38b3c6e-5a1f-4d41-942b-2fb5b1950c0c","system_id":"levelo_inurba_marseille","lat":43.299028,"lon":5.381509,"is_reserved":false,"is_disabled":false,"rental_uris":{"android":"levelo://app?vid=f38b3c6e-5a1f-4d41-942b-2fb5b1950c0c","ios":"levelo://app?vid=f38b3c6e-5a1f-4d41-942b-2fb5b1950c0c"},"vehicle_type_id":"4","last_reported":1724180794,"current_range_meters":16800,"station_id":"ce4bgj12rcd13ifvqbc0","pricing_plan_id":"cebpf4jnsgd1na2vs0mg"},{"bike_id":"b43f5c23-2963-4570-891c-5db980bdcfd2","system_id":"levelo_inurba_marseille","lat":43.296935,"lon":5.376544,"is_reserved":false,"is_disabled":false,"rental_uris":{"android":"levelo://app?vid=b43f5c23-2963-4570-891c-5db980bdcfd2","ios":"levelo://app?vid=b43f5c23-2963-4570-891c-5db980bdcfd2"},"vehicle_type_id":"4","last_reported":1724180794,"current_range_meters":6000,"station_id":"ce4bgkh2rcd13ifvqbl0","pricing_plan_id":"cebpf4jnsgd1na2vs0mg"},{"bike_id":"06bb841e-bf66-43e6-8438-c274d46e3bea","system_id":"levelo_inurba_marseille","lat":43.309589,"lon":5.390258,"is_reserved":false,"is_disabled":false,"rental_uris":{"android":"levelo://app?vid=06bb841e-bf66-43e6-8438-c274d46e3bea","ios":"levelo://app?vid=06bb841e-bf66-43e6-8438-c274d46e3bea"},"vehicle_type_id":"4","last_reported":1724180794,"current_range_meters":28800,"station_id":"ce4bgup2rcd13ifvqco0","pricing_plan_id":"cebpf4jnsgd1na2vs0mg"},{"bike_id":"912047bc-bccb-4b85-9cf6-b7f3aff9e051","system_id":"levelo_inurba_marseille","lat":43.296263,"lon":5.377094,"is_reserved":false,"is_disabled":false,"rental_uris":{"android":"levelo://app?vid=912047bc-bccb-4b85-9cf6-b7f3aff9e051","ios":"levelo://app?vid=912047bc-bccb-4b85-9cf6-b7f3aff9e051"},"vehicle_type_id":"4","last_reported":1724180794,"current_range_meters":2800,"station_id":"ce4bgi92rcd13ifvqb90","pricing_plan_id":"cebpf4jnsgd1na2vs0mg"},{"bike_id":"cc61c49f-5874-4137-b55c-7df5f8e5ace5","system_id":"levelo_inurba_marseille","lat":43.296284,"lon":5.377064,"is_reserved":false,"is_disabled":false,"rental_uris":{"android":"levelo://app?vid=cc61c49f-5874-4137-b55c-7df5f8e5ace5","ios":"levelo://app?vid=cc61c49f-5874-4137-b55c-7df5f8e5ace5"},"vehicle_type_id":"4","last_reported":1724180794,"current_range_meters":0,"station_id":"ce4bgi92rcd13ifvqb90","pricing_plan_id":"cebpf4jnsgd1na2vs0mg"},{"bike_id":"165c130e-1b75-45b1-b17b-330526c3554e","system_id":"levelo_inurba_marseille","lat":43.296263,"lon":5.377094,"is_reserved":false,"is_disabled":false,"rental_uris":{"android":"levelo://app?vid=165c130e-1b75-45b1-b17b-330526c3554e","ios":"levelo://app?vid=165c130e-1b75-45b1-b17b-330526c3554e"},"vehicle_type_id":"4","last_reported":1724180794,"current_range_meters":3200,"station_id":"ce4bgi92rcd13ifvqb90","pricing_plan_id":"cebpf4jnsgd1na2vs0mg"},{"bike_id":"45054494-95be-4d9e-960f-732968a5ec01","system_id":"levelo_inurba_marseille","lat":43.304274,"lon":5.388873,"is_reserved":false,"is_disabled":false,"rental_uris":{"android":"levelo://app?vid=45054494-95be-4d9e-960f-732968a5ec01","ios":"levelo://app?vid=45054494-95be-4d9e-960f-732968a5ec01"},"vehicle_type_id":"4","last_reported":1724180794,"current_range_meters":22000,"station_id":"ce4bgk12rcd13ifvqbi0","pricing_plan_id":"cebpf4jnsgd1na2vs0mg"},{"bike_id":"23d75d01-69f9-4fcd-846a-21fd5b387fe1","system_id":"levelo_inurba_marseille","lat":43.29632,"lon":5.37723,"is_reserved":false,"is_disabled":false,"rental_uris":{"android":"levelo://app?vid=23d75d01-69f9-4fcd-846a-21fd5b387fe1","ios":"levelo://app?vid=23d75d01-69f9-4fcd-846a-21fd5b387fe1"},"vehicle_type_id":"4","last_reported":1724180794,"current_range_meters":0,"station_id":"ce4bgi92rcd13ifvqb90","pricing_plan_id":"cebpf4jnsgd1na2vs0mg"},{"bike_id":"741399f3-dbfd-4f16-b741-2a5ee8987b25","system_id":"levelo_inurba_marseille","lat":43.304274,"lon":5.388873,"is_reserved":false,"is_disabled":false,"rental_uris":{"android":"levelo://app?vid=741399f3-dbfd-4f16-b741-2a5ee8987b25","ios":"levelo://app?vid=741399f3-dbfd-4f16-b741-2a5ee8987b25"},"vehicle_type_id":"4","last_reported":1724180794,"current_range_meters":0,"station_id":"ce4bgk12rcd13ifvqbi0","pricing_plan_id":"cebpf4jnsgd1na2vs0mg"},{"bike_id":"c789227b-6f55-49bd-9145-a87116b71e0e","system_id":"levelo_inurba_marseille","lat":43.296263,"lon":5.377094,"is_reserved":false,"is_disabled":false,"rental_uris":{"android":"levelo://app?vid=c789227b-6f55-49bd-9145-a87116b71e0e","ios":"levelo://app?vid=c789227b-6f55-49bd-9145-a87116b71e0e"},"vehicle_type_id":"4","last_reported":1724180794,"current_range_meters":25600,"station_id":"ce4bgi92rcd13ifvqb90","pricing_plan_id":"cebpf4jnsgd1na2vs0mg"},{"bike_id":"65708f72-5963-4ab0-b8b2-2b22a82b6b24","system_id":"levelo_inurba_marseille","lat":43.29784,"lon":5.38106,"is_reserved":false,"is_disabled":false,"rental_uris":{"android":"levelo://app?vid=65708f72-5963-4ab0-b8b2-2b22a82b6b24","ios":"levelo://app?vid=65708f72-5963-4ab0-b8b2-2b22a82b6b24"},"vehicle_type_id":"4","last_reported":1724180794,"current_range_meters":29600,"station_id":"ce4bgip2rcd13ifvqbb0","pricing_plan_id":"cebpf4jnsgd1na2vs0mg"},{"bike_id":"9c36918f-fe62-4a7e-9d32-3f560baf308e","system_id":"levelo_inurba_marseille","lat":43.296263,"lon":5.377094,"is_reserved":false,"is_disabled":false,"rental_uris":{"android":"levelo://app?vid=9c36918f-fe62-4a7e-9d32-3f560baf308e","ios":"levelo://app?vid=9c36918f-fe62-4a7e-9d32-3f560baf308e"},"vehicle_type_id":"4","last_reported":1724180794,"current_range_meters":8800,"station_id":"ce4bgi92rcd13ifvqb90","pricing_plan_id":"cebpf4jnsgd1na2vs0mg"},{"bike_id":"fc25d323-bfc1-4024-83de-55cdcdc63e83","system_id":"levelo_inurba_marseille","lat":43.296263,"lon":5.377094,"is_reserved":false,"is_disabled":false,"rental_uris":{"android":"levelo://app?vid=fc25d323-bfc1-4024-83de-55cdcdc63e83","ios":"levelo://app?vid=fc25d323-bfc1-4024-83de-55cdcdc63e83"},"vehicle_type_id":"4","last_reported":1724180794,"current_range_meters":7600,"station_id":"ce4bgi92rcd13ifvqb90","pricing_plan_id":"cebpf4jnsgd1na2vs0mg"},{"bike_id":"82e959eb-3224-42a6-95dd-7aa6166aa98d","system_id":"levelo_inurba_marseille","lat":43.296263,"lon":5.377094,"is_reserved":false,"is_disabled":false,"rental_uris":{"android":"levelo://app?vid=82e959eb-3224-42a6-95dd-7aa6166aa98d","ios":"levelo://app?vid=82e959eb-3224-42a6-95dd-7aa6166aa98d"},"vehicle_type_id":"4","last_reported":1724180794,"current_range_meters":25200,"station_id":"ce4bgi92rcd13ifvqb90","pricing_plan_id":"cebpf4jnsgd1na2vs0mg"},{"bike_id":"6d3381e2-be65-4686-8df8-c0d8de8109c4","system_id":"levelo_inurba_marseille","lat":43.296263,"lon":5.377094,"is_reserved":false,"is_disabled":false,"rental_uris":{"android":"levelo://app?vid=6d3381e2-be65-4686-8df8-c0d8de8109c4","ios":"levelo://app?vid=6d3381e2-be65-4686-8df8-c0d8de8109c4"},"vehicle_type_id":"4","last_reported":1724180794,"current_range_meters":12400,"station_id":"ce4bgi92rcd13ifvqb90","pricing_plan_id":"cebpf4jnsgd1na2vs0mg"},{"bike_id":"d0d5b288-8d70-41bf-8fce-dfe04de5b5c0","system_id":"levelo_inurba_marseille","lat":43.296263,"lon":5.377094,"is_reserved":false,"is_disabled":false,"rental_uris":{"android":"levelo://app?vid=d0d5b288-8d70-41bf-8fce-dfe04de5b5c0","ios":"levelo://app?vid=d0d5b288-8d70-41bf-8fce-dfe04de5b5c0"},"vehicle_type_id":"4","last_reported":1724180794,"current_range_meters":400,"station_id":"ce4bgi92rcd13ifvqb90","pricing_plan_id":"cebpf4jnsgd1na2vs0mg"},{"bike_id":"f1ce4d15-d351-4e48-af06-920aa9ecc019","system_id":"levelo_inurba_marseille","lat":43.29559,"lon":5.37522,"is_reserved":false,"is_disabled":false,"rental_uris":{"android":"levelo://app?vid=f1ce4d15-d351-4e48-af06-920aa9ecc019","ios":"levelo://app?vid=f1ce4d15-d351-4e48-af06-920aa9ecc019"},"vehicle_type_id":"4","last_reported":1724180794,"current_range_meters":4000,"station_id":"ce4bgh92rcd13ifvqb50","pricing_plan_id":"cebpf4jnsgd1na2vs0mg"},{"bike_id":"21abe1ac-a90b-4bb4-9e61-373b4d1ecfb1","system_id":"levelo_inurba_marseille","lat":43.299724,"lon":5.384848,"is_reserved":false,"is_disabled":false,"rental_uris":{"android":"levelo://app?vid=21abe1ac-a90b-4bb4-9e61-373b4d1ecfb1","ios":"levelo://app?vid=21abe1ac-a90b-4bb4-9e61-373b4d1ecfb1"},"vehicle_type_id":"4","last_reported":1724180794,"current_range_meters":30800,"station_id":"ce4bgj92rcd13ifvqbd0","pricing_plan_id":"cebpf4jnsgd1na2vs0mg"},{"bike_id":"9d20a716-d52f-46bf-b374-d876929dd6de","system_id":"levelo_inurba_marseille","lat":43.299724,"lon":5.384848,"is_reserved":false,"is_disabled":false,"rental_uris":{"android":"levelo://app?vid=9d20a716-d52f-46bf-b374-d876929dd6de","ios":"levelo://app?vid=9d20a716-d52f-46bf-b374-d876929dd6de"},"vehicle_type_id":"4","last_reported":1724180794,"current_range_meters":3200,"station_id":"ce4bgj92rcd13ifvqbd0","pricing_plan_id":"cebpf4jnsgd1na2vs0mg"},{"bike_id":"4e60f7ee-f743-48bd-93aa-5559026f8742","system_id":"levelo_inurba_marseille","lat":43.299724,"lon":5.384848,"is_reserved":false,"is_disabled":false,"rental_uris":{"android":"levelo://app?vid=4e60f7ee-f743-48bd-93aa-5559026f8742","ios":"levelo://app?vid=4e60f7ee-f743-48bd-93aa-5559026f8742"},"vehicle_type_id":"4","last_reported":1724180794,"current_range_meters":800,"station_id":"ce4bgj92rcd13ifvqbd0","pricing_plan_id":"cebpf4jnsgd1na2vs0mg"},{"bike_id":"0e5a0b0d-3ba6-4f81-a32b-7c6e0d565b2f","system_id":"levelo_inurba_marseille","lat":43.299724,"lon":5.384848,"is_reserved":false,"is_disabled":false,"rental_uris":{"android":"levelo://app?vid=0e5a0b0d-3ba6-4f81-a32b-7c6e0d565b2f","ios":"levelo://app?vid=0e5a0b0d-3ba6-4f81-a32b-7c6e0d565b2f"},"vehicle_type_id":"4","last_reported":1724180794,"current_range_meters":31200,"station_id":"ce4bgj92rcd13ifvqbd0","pricing_plan_id":"cebpf4jnsgd1na2vs0mg"},{"bike_id":"1015ff92-6e87-4eb7-bbd5-d9789c5ee81c","system_id":"levelo_inurba_marseille","lat":43.30143,"lon":5.38779,"is_reserved":false,"is_disabled":false,"rental_uris":{"android":"levelo://app?vid=1015ff92-6e87-4eb7-bbd5-d9789c5ee81c","ios":"levelo://app?vid=1015ff92-6e87-4eb7-bbd5-d9789c5ee81c"},"vehicle_type_id":"4","last_reported":1724180794,"current_range_meters":0,"station_id":"ce4bghh2rcd13ifvqb60","pricing_plan_id":"cebpf4jnsgd1na2vs0mg"},{"bike_id":"ccef5f5a-c1fd-4e29-b324-6663d630e1fa","system_id":"levelo_inurba_marseille","lat":43.30141,"lon":5.38778,"is_reserved":false,"is_disabled":false,"rental_uris":{"android":"levelo://app?vid=ccef5f5a-c1fd-4e29-b324-6663d630e1fa","ios":"levelo://app?vid=ccef5f5a-c1fd-4e29-b324-6663d630e1fa"},"vehicle_type_id":"4","last_reported":1724180794,"current_range_meters":27600,"station_id":"ce4bghh2rcd13ifvqb60","pricing_plan_id":"cebpf4jnsgd1na2vs0mg"},{"bike_id":"7d00275e-6661-4e69-b00f-0fa5ca76531b","system_id":"levelo_inurba_marseille","lat":43.30143,"lon":5.38782,"is_reserved":false,"is_disabled":false,"rental_uris":{"android":"levelo://app?vid=7d00275e-6661-4e69-b00f-0fa5ca76531b","ios":"levelo://app?vid=7d00275e-6661-4e69-b00f-0fa5ca76531b"},"vehicle_type_id":"4","last_reported":1724180794,"current_range_meters":0,"station_id":"ce4bghh2rcd13ifvqb60","pricing_plan_id":"cebpf4jnsgd1na2vs0mg"},{"bike_id":"7ca89cb9-8b01-48ed-8400-202ab36b138b","system_id":"levelo_inurba_marseille","lat":43.310804,"lon":5.38359,"is_reserved":false,"is_disabled":false,"rental_uris":{"android":"levelo://app?vid=7ca89cb9-8b01-48ed-8400-202ab36b138b","ios":"levelo://app?vid=7ca89cb9-8b01-48ed-8400-202ab36b138b"},"vehicle_type_id":"4","last_reported":1724180794,"current_range_meters":10000,"station_id":"ce4bgv92rcd13ifvqcr0","pricing_plan_id":"cebpf4jnsgd1na2vs0mg"},{"bike_id":"6c511264-2a30-40a3-8e64-57e34dfaa43b","system_id":"levelo_inurba_marseille","lat":43.301396,"lon":5.387812,"is_reserved":false,"is_disabled":false,"rental_uris":{"android":"levelo://app?vid=6c511264-2a30-40a3-8e64-57e34dfaa43b","ios":"levelo://app?vid=6c511264-2a30-40a3-8e64-57e34dfaa43b"},"vehicle_type_id":"4","last_reported":1724180794,"current_range_meters":9200,"station_id":"ce4bghh2rcd13ifvqb60","pricing_plan_id":"cebpf4jnsgd1na2vs0mg"},{"bike_id":"6bea9c93-8d6e-48ee-860b-a64659c70646","system_id":"levelo_inurba_marseille","lat":43.30139,"lon":5.38786,"is_reserved":false,"is_disabled":false,"rental_uris":{"android":"levelo://app?vid=6bea9c93-8d6e-48ee-860b-a64659c70646","ios":"levelo://app?vid=6bea9c93-8d6e-48ee-860b-a64659c70646"},"vehicle_type_id":"4","last_reported":1724180794,"current_range_meters":0,"station_id":"ce4bghh2rcd13ifvqb60","pricing_plan_id":"cebpf4jnsgd1na2vs0mg"},{"bike_id":"44c3bb2e-5024-4656-b430-1530a131733d","system_id":"levelo_inurba_marseille","lat":43.30138,"lon":5.38787,"is_reserved":false,"is_disabled":false,"rental_uris":{"android":"levelo://app?vid=44c3bb2e-5024-4656-b430-1530a131733d","ios":"levelo://app?vid=44c3bb2e-5024-4656-b430-1530a131733d"},"vehicle_type_id":"4","last_reported":1724180794,"current_range_meters":27600,"station_id":"ce4bghh2rcd13ifvqb60","pricing_plan_id":"cebpf4jnsgd1na2vs0mg"},{"bike_id":"7409d33b-2152-4857-ae80-cffd3d7629fe","system_id":"levelo_inurba_marseille","lat":43.32367,"lon":5.388836,"is_reserved":false,"is_disabled":false,"rental_uris":{"android":"levelo://app?vid=7409d33b-2152-4857-ae80-cffd3d7629fe","ios":"levelo://app?vid=7409d33b-2152-4857-ae80-cffd3d7629fe"},"vehicle_type_id":"4","last_reported":1724180794,"current_range_meters":0,"station_id":"ce4bhqp2rcd13ifvqhog","pricing_plan_id":"cebpf4jnsgd1na2vs0mg"},{"bike_id":"79b656ca-cc6f-463b-978c-493f3b9bee3a","system_id":"levelo_inurba_marseille","lat":43.29614,"lon":5.38105,"is_reserved":false,"is_disabled":false,"rental_uris":{"android":"levelo://app?vid=79b656ca-cc6f-463b-978c-493f3b9bee3a","ios":"levelo://app?vid=79b656ca-cc6f-463b-978c-493f3b9bee3a"},"vehicle_type_id":"4","last_reported":1724180794,"current_range_meters":21600,"station_id":"ce4bgl12rcd13ifvqbo0","pricing_plan_id":"cebpf4jnsgd1na2vs0mg"},{"bike_id":"d47ba498-af11-4638-a6f1-4ae36b82f11d","system_id":"levelo_inurba_marseille","lat":43.29613,"lon":5.38105,"is_reserved":false,"is_disabled":false,"rental_uris":{"android":"levelo://app?vid=d47ba498-af11-4638-a6f1-4ae36b82f11d","ios":"levelo://app?vid=d47ba498-af11-4638-a6f1-4ae36b82f11d"},"vehicle_type_id":"4","last_reported":1724180794,"current_range_meters":3200,"station_id":"ce4bgl12rcd13ifvqbo0","pricing_plan_id":"cebpf4jnsgd1na2vs0mg"},{"bike_id":"d8393591-9d6b-437d-ba1d-d15c8e1f6bd4","system_id":"levelo_inurba_marseille","lat":43.29601,"lon":5.381084,"is_reserved":false,"is_disabled":false,"rental_uris":{"android":"levelo://app?vid=d8393591-9d6b-437d-ba1d-d15c8e1f6bd4","ios":"levelo://app?vid=d8393591-9d6b-437d-ba1d-d15c8e1f6bd4"},"vehicle_type_id":"4","last_reported":1724180794,"current_range_meters":23200,"station_id":"ce4bgl12rcd13ifvqbo0","pricing_plan_id":"cebpf4jnsgd1na2vs0mg"},{"bike_id":"550d5c99-d073-473c-b83c-06e770b31f96","system_id":"levelo_inurba_marseille","lat":43.296113,"lon":5.381093,"is_reserved":false,"is_disabled":false,"rental_uris":{"android":"levelo://app?vid=550d5c99-d073-473c-b83c-06e770b31f96","ios":"levelo://app?vid=550d5c99-d073-473c-b83c-06e770b31f96"},"vehicle_type_id":"4","last_reported":1724180794,"current_range_meters":24400,"station_id":"ce4bgl12rcd13ifvqbo0","pricing_plan_id":"cebpf4jnsgd1na2vs0mg"},{"bike_id":"a4fe3cb6-c8b1-43ca-a6a6-fe3289fe22ff","system_id":"levelo_inurba_marseille","lat":43.29604,"lon":5.38105,"is_reserved":false,"is_disabled":false,"rental_uris":{"android":"levelo://app?vid=a4fe3cb6-c8b1-43ca-a6a6-fe3289fe22ff","ios":"levelo://app?vid=a4fe3cb6-c8b1-43ca-a6a6-fe3289fe22ff"},"vehicle_type_id":"4","last_reported":1724180794,"current_range_meters":3600,"station_id":"ce4bgl12rcd13ifvqbo0","pricing_plan_id":"cebpf4jnsgd1na2vs0mg"},{"bike_id":"543b0178-f2c2-46d2-aaaf-22ac9158f72e","system_id":"levelo_inurba_marseille","lat":43.296,"lon":5.38101,"is_reserved":false,"is_disabled":false,"rental_uris":{"android":"levelo://app?vid=543b0178-f2c2-46d2-aaaf-22ac9158f72e","ios":"levelo://app?vid=543b0178-f2c2-46d2-aaaf-22ac9158f72e"},"vehicle_type_id":"4","last_reported":1724180794,"current_range_meters":27600,"station_id":"ce4bgl12rcd13ifvqbo0","pricing_plan_id":"cebpf4jnsgd1na2vs0mg"},{"bike_id":"73a30fb5-0254-491e-9766-7fc00c8b4d72","system_id":"levelo_inurba_marseille","lat":43.29602,"lon":5.381084,"is_reserved":false,"is_disabled":false,"rental_uris":{"android":"levelo://app?vid=73a30fb5-0254-491e-9766-7fc00c8b4d72","ios":"levelo://app?vid=73a30fb5-0254-491e-9766-7fc00c8b4d72"},"vehicle_type_id":"4","last_reported":1724180794,"current_range_meters":19200,"station_id":"ce4bgl12rcd13ifvqbo0","pricing_plan_id":"cebpf4jnsgd1na2vs0mg"},{"bike_id":"817b7000-d447-4735-a33f-208faf22024b","system_id":"levelo_inurba_marseille","lat":43.29602,"lon":5.381084,"is_reserved":false,"is_disabled":false,"rental_uris":{"android":"levelo://app?vid=817b7000-d447-4735-a33f-208faf22024b","ios":"levelo://app?vid=817b7000-d447-4735-a33f-208faf22024b"},"vehicle_type_id":"4","last_reported":1724180794,"current_range_meters":8400,"station_id":"ce4bgl12rcd13ifvqbo0","pricing_plan_id":"cebpf4jnsgd1na2vs0mg"},{"bike_id":"ede61598-2d61-49a7-a7a3-e6d57a126e4c","system_id":"levelo_inurba_marseille","lat":43.29602,"lon":5.38124,"is_reserved":false,"is_disabled":false,"rental_uris":{"android":"levelo://app?vid=ede61598-2d61-49a7-a7a3-e6d57a126e4c","ios":"levelo://app?vid=ede61598-2d61-49a7-a7a3-e6d57a126e4c"},"vehicle_type_id":"4","last_reported":1724180794,"current_range_meters":31200,"station_id":"ce4bgl12rcd13ifvqbo0","pricing_plan_id":"cebpf4jnsgd1na2vs0mg"},{"bike_id":"6c6781fa-3a4e-4306-83c3-9e3fc0efce37","system_id":"levelo_inurba_marseille","lat":43.293226,"lon":5.371446,"is_reserved":false,"is_disabled":false,"rental_uris":{"android":"levelo://app?vid=6c6781fa-3a4e-4306-83c3-9e3fc0efce37","ios":"levelo://app?vid=6c6781fa-3a4e-4306-83c3-9e3fc0efce37"},"vehicle_type_id":"4","last_reported":1724180794,"current_range_meters":0,"station_id":"ce4bgh92rcd13ifvqb40","pricing_plan_id":"cebpf4jnsgd1na2vs0mg"},{"bike_id":"5049d808-b7ba-4465-a514-99d3879a1c32","system_id":"levelo_inurba_marseille","lat":43.292749,"lon":5.368402,"is_reserved":false,"is_disabled":false,"rental_uris":{"android":"levelo://app?vid=5049d808-b7ba-4465-a514-99d3879a1c32","ios":"levelo://app?vid=5049d808-b7ba-4465-a514-99d3879a1c32"},"vehicle_type_id":"4","last_reported":1724180794,"current_range_meters":18400,"station_id":"ce4bhbp2rcd13ifvqesg","pricing_plan_id":"cebpf4jnsgd1na2vs0mg"},{"bike_id":"8f104b58-3d35-478e-a78f-ae8b82f236cf","system_id":"levelo_inurba_marseille","lat":43.29307,"lon":5.37171,"is_reserved":false,"is_disabled":false,"rental_uris":{"android":"levelo://app?vid=8f104b58-3d35-478e-a78f-ae8b82f236cf","ios":"levelo://app?vid=8f104b58-3d35-478e-a78f-ae8b82f236cf"},"vehicle_type_id":"4","last_reported":1724180794,"current_range_meters":27600,"station_id":"ce4bgh92rcd13ifvqb40","pricing_plan_id":"cebpf4jnsgd1na2vs0mg"},{"bike_id":"b9b309b8-f62a-4132-8528-a54d23ca0b6a","system_id":"levelo_inurba_marseille","lat":43.29279,"lon":5.36851,"is_reserved":false,"is_disabled":false,"rental_uris":{"android":"levelo://app?vid=b9b309b8-f62a-4132-8528-a54d23ca0b6a","ios":"levelo://app?vid=b9b309b8-f62a-4132-8528-a54d23ca0b6a"},"vehicle_type_id":"4","last_reported":1724180794,"current_range_meters":21600,"station_id":"ce4bhbp2rcd13ifvqesg","pricing_plan_id":"cebpf4jnsgd1na2vs0mg"},{"bike_id":"41a8ce0d-1eb6-41a0-a074-21f9aa6bf5d3","system_id":"levelo_inurba_marseille","lat":43.29308,"lon":5.37185,"is_reserved":false,"is_disabled":false,"rental_uris":{"android":"levelo://app?vid=41a8ce0d-1eb6-41a0-a074-21f9aa6bf5d3","ios":"levelo://app?vid=41a8ce0d-1eb6-41a0-a074-21f9aa6bf5d3"},"vehicle_type_id":"4","last_reported":1724180794,"current_range_meters":4400,"station_id":"ce4bgh92rcd13ifvqb40","pricing_plan_id":"cebpf4jnsgd1na2vs0mg"},{"bike_id":"606acd87-d61f-4a5a-854c-a6297a996dd4","system_id":"levelo_inurba_marseille","lat":43.292749,"lon":5.368402,"is_reserved":false,"is_disabled":false,"rental_uris":{"android":"levelo://app?vid=606acd87-d61f-4a5a-854c-a6297a996dd4","ios":"levelo://app?vid=606acd87-d61f-4a5a-854c-a6297a996dd4"},"vehicle_type_id":"4","last_reported":1724180794,"current_range_meters":15200,"station_id":"ce4bhbp2rcd13ifvqesg","pricing_plan_id":"cebpf4jnsgd1na2vs0mg"},{"bike_id":"56b463ae-6754-491a-ba4c-d1eee2aa568e","system_id":"levelo_inurba_marseille","lat":43.292749,"lon":5.368402,"is_reserved":false,"is_disabled":false,"rental_uris":{"android":"levelo://app?vid=56b463ae-6754-491a-ba4c-d1eee2aa568e","ios":"levelo://app?vid=56b463ae-6754-491a-ba4c-d1eee2aa568e"},"vehicle_type_id":"4","last_reported":1724180794,"current_range_meters":1200,"station_id":"ce4bhbp2rcd13ifvqesg","pricing_plan_id":"cebpf4jnsgd1na2vs0mg"},{"bike_id":"a6c886c2-abeb-48fa-b844-aa923f5e9395","system_id":"levelo_inurba_marseille","lat":43.29303,"lon":5.37168,"is_reserved":false,"is_disabled":false,"rental_uris":{"android":"levelo://app?vid=a6c886c2-abeb-48fa-b844-aa923f5e9395","ios":"levelo://app?vid=a6c886c2-abeb-48fa-b844-aa923f5e9395"},"vehicle_type_id":"4","last_reported":1724180794,"current_range_meters":18400,"station_id":"ce4bgh92rcd13ifvqb40","pricing_plan_id":"cebpf4jnsgd1na2vs0mg"},{"bike_id":"4a6bba4c-335d-4343-b70f-f767cbefca67","system_id":"levelo_inurba_marseille","lat":43.292749,"lon":5.368402,"is_reserved":false,"is_disabled":false,"rental_uris":{"android":"levelo://app?vid=4a6bba4c-335d-4343-b70f-f767cbefca67","ios":"levelo://app?vid=4a6bba4c-335d-4343-b70f-f767cbefca67"},"vehicle_type_id":"4","last_reported":1724180794,"current_range_meters":11600,"station_id":"ce4bhbp2rcd13ifvqesg","pricing_plan_id":"cebpf4jnsgd1na2vs0mg"},{"bike_id":"afed36c1-8735-4db8-83ab-2edd467dfabe","system_id":"levelo_inurba_marseille","lat":43.29303,"lon":5.3718,"is_reserved":false,"is_disabled":false,"rental_uris":{"android":"levelo://app?vid=afed36c1-8735-4db8-83ab-2edd467dfabe","ios":"levelo://app?vid=afed36c1-8735-4db8-83ab-2edd467dfabe"},"vehicle_type_id":"4","last_reported":1724180794,"current_range_meters":0,"station_id":"ce4bgh92rcd13ifvqb40","pricing_plan_id":"cebpf4jnsgd1na2vs0mg"},{"bike_id":"8b452e76-818d-4cc9-8d51-c926f38f7f80","system_id":"levelo_inurba_marseille","lat":43.29274,"lon":5.36841,"is_reserved":false,"is_disabled":false,"rental_uris":{"android":"levelo://app?vid=8b452e76-818d-4cc9-8d51-c926f38f7f80","ios":"levelo://app?vid=8b452e76-818d-4cc9-8d51-c926f38f7f80"},"vehicle_type_id":"4","last_reported":1724180794,"current_range_meters":30000,"station_id":"ce4bhbp2rcd13ifvqesg","pricing_plan_id":"cebpf4jnsgd1na2vs0mg"},{"bike_id":"2516479f-7b68-48d3-ac86-12f08df593a5","system_id":"levelo_inurba_marseille","lat":43.292979,"lon":5.371761,"is_reserved":false,"is_disabled":false,"rental_uris":{"android":"levelo://app?vid=2516479f-7b68-48d3-ac86-12f08df593a5","ios":"levelo://app?vid=2516479f-7b68-48d3-ac86-12f08df593a5"},"vehicle_type_id":"4","last_reported":1724180794,"current_range_meters":31200,"station_id":"ce4bgh92rcd13ifvqb40","pricing_plan_id":"cebpf4jnsgd1na2vs0mg"},{"bike_id":"f192a918-64b9-4c85-8e77-b99ba04c3f96","system_id":"levelo_inurba_marseille","lat":43.292749,"lon":5.368402,"is_reserved":false,"is_disabled":false,"rental_uris":{"android":"levelo://app?vid=f192a918-64b9-4c85-8e77-b99ba04c3f96","ios":"levelo://app?vid=f192a918-64b9-4c85-8e77-b99ba04c3f96"},"vehicle_type_id":"4","last_reported":1724180794,"current_range_meters":31200,"station_id":"ce4bhbp2rcd13ifvqesg","pricing_plan_id":"cebpf4jnsgd1na2vs0mg"},{"bike_id":"8828d8af-7130-4fc2-8474-e22ecf70a723","system_id":"levelo_inurba_marseille","lat":43.2923,"lon":5.36634,"is_reserved":false,"is_disabled":false,"rental_uris":{"android":"levelo://app?vid=8828d8af-7130-4fc2-8474-e22ecf70a723","ios":"levelo://app?vid=8828d8af-7130-4fc2-8474-e22ecf70a723"},"vehicle_type_id":"4","last_reported":1724180794,"current_range_meters":17200,"station_id":"ce4bha92rcd13ifvqeh0","pricing_plan_id":"cebpf4jnsgd1na2vs0mg"},{"bike_id":"bc2afc93-3849-47a2-af10-e57ee048f5e6","system_id":"levelo_inurba_marseille","lat":43.305994,"lon":5.393687,"is_reserved":false,"is_disabled":false,"rental_uris":{"android":"levelo://app?vid=bc2afc93-3849-47a2-af10-e57ee048f5e6","ios":"levelo://app?vid=bc2afc93-3849-47a2-af10-e57ee048f5e6"},"vehicle_type_id":"4","last_reported":1724180794,"current_range_meters":6400,"station_id":"ce4bh0p2rcd13ifvqd80","pricing_plan_id":"cebpf4jnsgd1na2vs0mg"},{"bike_id":"b4558e2b-da3d-44cf-a942-cde44c07ac27","system_id":"levelo_inurba_marseille","lat":43.293009,"lon":5.374584,"is_reserved":false,"is_disabled":false,"rental_uris":{"android":"levelo://app?vid=b4558e2b-da3d-44cf-a942-cde44c07ac27","ios":"levelo://app?vid=b4558e2b-da3d-44cf-a942-cde44c07ac27"},"vehicle_type_id":"4","last_reported":1724180794,"current_range_meters":5200,"station_id":"ce4bgi12rcd13ifvqb70","pricing_plan_id":"cebpf4jnsgd1na2vs0mg"},{"bike_id":"b3c53fd2-d66e-4b1c-92e2-7c1f3754a332","system_id":"levelo_inurba_marseille","lat":43.293009,"lon":5.374584,"is_reserved":false,"is_disabled":false,"rental_uris":{"android":"levelo://app?vid=b3c53fd2-d66e-4b1c-92e2-7c1f3754a332","ios":"levelo://app?vid=b3c53fd2-d66e-4b1c-92e2-7c1f3754a332"},"vehicle_type_id":"4","last_reported":1724180794,"current_range_meters":23200,"station_id":"ce4bgi12rcd13ifvqb70","pricing_plan_id":"cebpf4jnsgd1na2vs0mg"},{"bike_id":"89a80d7a-fcf0-4ef2-8f1b-a2fd646c4566","system_id":"levelo_inurba_marseille","lat":43.293009,"lon":5.374584,"is_reserved":false,"is_disabled":false,"rental_uris":{"android":"levelo://app?vid=89a80d7a-fcf0-4ef2-8f1b-a2fd646c4566","ios":"levelo://app?vid=89a80d7a-fcf0-4ef2-8f1b-a2fd646c4566"},"vehicle_type_id":"4","last_reported":1724180794,"current_range_meters":27600,"station_id":"ce4bgi12rcd13ifvqb70","pricing_plan_id":"cebpf4jnsgd1na2vs0mg"},{"bike_id":"e2ac5fc2-02c9-41d3-bb7b-0dc60977063d","system_id":"levelo_inurba_marseille","lat":43.293009,"lon":5.374584,"is_reserved":false,"is_disabled":false,"rental_uris":{"android":"levelo://app?vid=e2ac5fc2-02c9-41d3-bb7b-0dc60977063d","ios":"levelo://app?vid=e2ac5fc2-02c9-41d3-bb7b-0dc60977063d"},"vehicle_type_id":"4","last_reported":1724180794,"current_range_meters":29600,"station_id":"ce4bgi12rcd13ifvqb70","pricing_plan_id":"cebpf4jnsgd1na2vs0mg"},{"bike_id":"dfc71d3e-c10d-4bc3-a8b7-5d812fb45d32","system_id":"levelo_inurba_marseille","lat":43.29298,"lon":5.37449,"is_reserved":false,"is_disabled":false,"rental_uris":{"android":"levelo://app?vid=dfc71d3e-c10d-4bc3-a8b7-5d812fb45d32","ios":"levelo://app?vid=dfc71d3e-c10d-4bc3-a8b7-5d812fb45d32"},"vehicle_type_id":"4","last_reported":1724180794,"current_range_meters":31200,"station_id":"ce4bgi12rcd13ifvqb70","pricing_plan_id":"cebpf4jnsgd1na2vs0mg"},{"bike_id":"4faac643-4e05-45b8-b076-cda30f0b5344","system_id":"levelo_inurba_marseille","lat":43.29299,"lon":5.37458,"is_reserved":false,"is_disabled":false,"rental_uris":{"android":"levelo://app?vid=4faac643-4e05-45b8-b076-cda30f0b5344","ios":"levelo://app?vid=4faac643-4e05-45b8-b076-cda30f0b5344"},"vehicle_type_id":"4","last_reported":1724180794,"current_range_meters":31200,"station_id":"ce4bgi12rcd13ifvqb70","pricing_plan_id":"cebpf4jnsgd1na2vs0mg"},{"bike_id":"29e29359-6f08-4928-bf67-fbec0de22019","system_id":"levelo_inurba_marseille","lat":43.29299,"lon":5.3746,"is_reserved":false,"is_disabled":false,"rental_uris":{"android":"levelo://app?vid=29e29359-6f08-4928-bf67-fbec0de22019","ios":"levelo://app?vid=29e29359-6f08-4928-bf67-fbec0de22019"},"vehicle_type_id":"4","last_reported":1724180794,"current_range_meters":22400,"station_id":"ce4bgi12rcd13ifvqb70","pricing_plan_id":"cebpf4jnsgd1na2vs0mg"},{"bike_id":"25c85efa-c805-43a6-acbc-180628274b38","system_id":"levelo_inurba_marseille","lat":43.293009,"lon":5.374584,"is_reserved":false,"is_disabled":false,"rental_uris":{"android":"levelo://app?vid=25c85efa-c805-43a6-acbc-180628274b38","ios":"levelo://app?vid=25c85efa-c805-43a6-acbc-180628274b38"},"vehicle_type_id":"4","last_reported":1724180794,"current_range_meters":16000,"station_id":"ce4bgi12rcd13ifvqb70","pricing_plan_id":"cebpf4jnsgd1na2vs0mg"},{"bike_id":"25b55c41-ad31-4d52-843d-9faa315fc3a9","system_id":"levelo_inurba_marseille","lat":43.293009,"lon":5.374584,"is_reserved":false,"is_disabled":false,"rental_uris":{"android":"levelo://app?vid=25b55c41-ad31-4d52-843d-9faa315fc3a9","ios":"levelo://app?vid=25b55c41-ad31-4d52-843d-9faa315fc3a9"},"vehicle_type_id":"4","last_reported":1724180794,"current_range_meters":16400,"station_id":"ce4bgi12rcd13ifvqb70","pricing_plan_id":"cebpf4jnsgd1na2vs0mg"},{"bike_id":"d3d1b54c-7f54-481e-bfe7-bbaf5564b67f","system_id":"levelo_inurba_marseille","lat":43.30598,"lon":5.3936,"is_reserved":false,"is_disabled":false,"rental_uris":{"android":"levelo://app?vid=d3d1b54c-7f54-481e-bfe7-bbaf5564b67f","ios":"levelo://app?vid=d3d1b54c-7f54-481e-bfe7-bbaf5564b67f"},"vehicle_type_id":"4","last_reported":1724180794,"current_range_meters":0,"station_id":"ce4bh0p2rcd13ifvqd80","pricing_plan_id":"cebpf4jnsgd1na2vs0mg"},{"bike_id":"76896e1d-2533-482c-972d-b601ca2ebcfd","system_id":"levelo_inurba_marseille","lat":43.29296,"lon":5.3746,"is_reserved":false,"is_disabled":false,"rental_uris":{"android":"levelo://app?vid=76896e1d-2533-482c-972d-b601ca2ebcfd","ios":"levelo://app?vid=76896e1d-2533-482c-972d-b601ca2ebcfd"},"vehicle_type_id":"4","last_reported":1724180794,"current_range_meters":31600,"station_id":"ce4bgi12rcd13ifvqb70","pricing_plan_id":"cebpf4jnsgd1na2vs0mg"},{"bike_id":"928a632e-9f23-4b8c-aa5f-74770a1832bd","system_id":"levelo_inurba_marseille","lat":43.303002,"lon":5.392142,"is_reserved":false,"is_disabled":false,"rental_uris":{"android":"levelo://app?vid=928a632e-9f23-4b8c-aa5f-74770a1832bd","ios":"levelo://app?vid=928a632e-9f23-4b8c-aa5f-74770a1832bd"},"vehicle_type_id":"4","last_reported":1724180794,"current_range_meters":31200,"station_id":"ce4bgkh2rcd13ifvqbk0","pricing_plan_id":"cebpf4jnsgd1na2vs0mg"},{"bike_id":"ada80e18-01cd-4a44-8cb8-c78a89cfc524","system_id":"levelo_inurba_marseille","lat":43.303002,"lon":5.392142,"is_reserved":false,"is_disabled":false,"rental_uris":{"android":"levelo://app?vid=ada80e18-01cd-4a44-8cb8-c78a89cfc524","ios":"levelo://app?vid=ada80e18-01cd-4a44-8cb8-c78a89cfc524"},"vehicle_type_id":"4","last_reported":1724180794,"current_range_meters":0,"station_id":"ce4bgkh2rcd13ifvqbk0","pricing_plan_id":"cebpf4jnsgd1na2vs0mg"},{"bike_id":"20ec04c0-474a-49b3-94ca-f5add81a34f4","system_id":"levelo_inurba_marseille","lat":43.30295,"lon":5.39204,"is_reserved":false,"is_disabled":false,"rental_uris":{"android":"levelo://app?vid=20ec04c0-474a-49b3-94ca-f5add81a34f4","ios":"levelo://app?vid=20ec04c0-474a-49b3-94ca-f5add81a34f4"},"vehicle_type_id":"4","last_reported":1724180794,"current_range_meters":0,"station_id":"ce4bgkh2rcd13ifvqbk0","pricing_plan_id":"cebpf4jnsgd1na2vs0mg"},{"bike_id":"5f9edd3e-9865-482c-a03d-33f38273c1e9","system_id":"levelo_inurba_marseille","lat":43.29377,"lon":5.37861,"is_reserved":false,"is_disabled":false,"rental_uris":{"android":"levelo://app?vid=5f9edd3e-9865-482c-a03d-33f38273c1e9","ios":"levelo://app?vid=5f9edd3e-9865-482c-a03d-33f38273c1e9"},"vehicle_type_id":"4","last_reported":1724180794,"current_range_meters":21600,"station_id":"ce4bgjh2rcd13ifvqbf0","pricing_plan_id":"cebpf4jnsgd1na2vs0mg"},{"bike_id":"bdb23ec9-ccf0-4336-834e-1a8e0d78378d","system_id":"levelo_inurba_marseille","lat":43.2936,"lon":5.37835,"is_reserved":false,"is_disabled":false,"rental_uris":{"android":"levelo://app?vid=bdb23ec9-ccf0-4336-834e-1a8e0d78378d","ios":"levelo://app?vid=bdb23ec9-ccf0-4336-834e-1a8e0d78378d"},"vehicle_type_id":"4","last_reported":1724180794,"current_range_meters":11600,"station_id":"ce4bgjh2rcd13ifvqbf0","pricing_plan_id":"cebpf4jnsgd1na2vs0mg"},{"bike_id":"26b4b23c-9e90-4e49-96f9-e4cd48c4081f","system_id":"levelo_inurba_marseille","lat":43.29371,"lon":5.3785,"is_reserved":false,"is_disabled":false,"rental_uris":{"android":"levelo://app?vid=26b4b23c-9e90-4e49-96f9-e4cd48c4081f","ios":"levelo://app?vid=26b4b23c-9e90-4e49-96f9-e4cd48c4081f"},"vehicle_type_id":"4","last_reported":1724180794,"current_range_meters":1200,"station_id":"ce4bgjh2rcd13ifvqbf0","pricing_plan_id":"cebpf4jnsgd1na2vs0mg"},{"bike_id":"e3850bfd-6adb-420e-85fb-6627f2648e30","system_id":"levelo_inurba_marseille","lat":43.305994,"lon":5.393687,"is_reserved":false,"is_disabled":false,"rental_uris":{"android":"levelo://app?vid=e3850bfd-6adb-420e-85fb-6627f2648e30","ios":"levelo://app?vid=e3850bfd-6adb-420e-85fb-6627f2648e30"},"vehicle_type_id":"4","last_reported":1724180794,"current_range_meters":800,"station_id":"ce4bh0p2rcd13ifvqd80","pricing_plan_id":"cebpf4jnsgd1na2vs0mg"},{"bike_id":"7eab7e14-04c2-4a74-9b63-e32b63c7bf09","system_id":"levelo_inurba_marseille","lat":43.300852,"lon":5.390859,"is_reserved":false,"is_disabled":false,"rental_uris":{"android":"levelo://app?vid=7eab7e14-04c2-4a74-9b63-e32b63c7bf09","ios":"levelo://app?vid=7eab7e14-04c2-4a74-9b63-e32b63c7bf09"},"vehicle_type_id":"4","last_reported":1724180794,"current_range_meters":18000,"station_id":"ce4bh192rcd13ifvqdb0","pricing_plan_id":"cebpf4jnsgd1na2vs0mg"},{"bike_id":"97e025a6-dbb7-4a13-9255-9882f6fb59ee","system_id":"levelo_inurba_marseille","lat":43.292311,"lon":5.360731,"is_reserved":false,"is_disabled":false,"rental_uris":{"android":"levelo://app?vid=97e025a6-dbb7-4a13-9255-9882f6fb59ee","ios":"levelo://app?vid=97e025a6-dbb7-4a13-9255-9882f6fb59ee"},"vehicle_type_id":"4","last_reported":1724180794,"current_range_meters":30800,"station_id":"ce4bhbh2rcd13ifvqeqg","pricing_plan_id":"cebpf4jnsgd1na2vs0mg"},{"bike_id":"67af4f5a-cc99-4a58-9728-8106061bb2d0","system_id":"levelo_inurba_marseille","lat":43.300852,"lon":5.390859,"is_reserved":false,"is_disabled":false,"rental_uris":{"android":"levelo://app?vid=67af4f5a-cc99-4a58-9728-8106061bb2d0","ios":"levelo://app?vid=67af4f5a-cc99-4a58-9728-8106061bb2d0"},"vehicle_type_id":"4","last_reported":1724180794,"current_range_meters":31200,"station_id":"ce4bh192rcd13ifvqdb0","pricing_plan_id":"cebpf4jnsgd1na2vs0mg"},{"bike_id":"88cf835a-dde9-4b5a-952f-f6b1a9b0f7d4","system_id":"levelo_inurba_marseille","lat":43.292311,"lon":5.360731,"is_reserved":false,"is_disabled":false,"rental_uris":{"android":"levelo://app?vid=88cf835a-dde9-4b5a-952f-f6b1a9b0f7d4","ios":"levelo://app?vid=88cf835a-dde9-4b5a-952f-f6b1a9b0f7d4"},"vehicle_type_id":"4","last_reported":1724180794,"current_range_meters":31200,"station_id":"ce4bhbh2rcd13ifvqeqg","pricing_plan_id":"cebpf4jnsgd1na2vs0mg"},{"bike_id":"226e6584-f64b-4def-9cc1-a8a9064cdc8f","system_id":"levelo_inurba_marseille","lat":43.292311,"lon":5.360731,"is_reserved":false,"is_disabled":false,"rental_uris":{"android":"levelo://app?vid=226e6584-f64b-4def-9cc1-a8a9064cdc8f","ios":"levelo://app?vid=226e6584-f64b-4def-9cc1-a8a9064cdc8f"},"vehicle_type_id":"4","last_reported":1724180794,"current_range_meters":26400,"station_id":"ce4bhbh2rcd13ifvqeqg","pricing_plan_id":"cebpf4jnsgd1na2vs0mg"},{"bike_id":"8e045254-6787-4dbb-9ffe-4ea2c64dfc24","system_id":"levelo_inurba_marseille","lat":43.30085,"lon":5.390856,"is_reserved":false,"is_disabled":false,"rental_uris":{"android":"levelo://app?vid=8e045254-6787-4dbb-9ffe-4ea2c64dfc24","ios":"levelo://app?vid=8e045254-6787-4dbb-9ffe-4ea2c64dfc24"},"vehicle_type_id":"4","last_reported":1724180794,"current_range_meters":400,"station_id":"ce4bh192rcd13ifvqdb0","pricing_plan_id":"cebpf4jnsgd1na2vs0mg"},{"bike_id":"c9c2c3e3-ac59-4a06-b13f-5d1e7afe7ccc","system_id":"levelo_inurba_marseille","lat":43.300852,"lon":5.390859,"is_reserved":false,"is_disabled":false,"rental_uris":{"android":"levelo://app?vid=c9c2c3e3-ac59-4a06-b13f-5d1e7afe7ccc","ios":"levelo://app?vid=c9c2c3e3-ac59-4a06-b13f-5d1e7afe7ccc"},"vehicle_type_id":"4","last_reported":1724180794,"current_range_meters":28000,"station_id":"ce4bh192rcd13ifvqdb0","pricing_plan_id":"cebpf4jnsgd1na2vs0mg"},{"bike_id":"0b114b8e-4b1e-4aa3-80c8-111c55927384","system_id":"levelo_inurba_marseille","lat":43.300852,"lon":5.390859,"is_reserved":false,"is_disabled":false,"rental_uris":{"android":"levelo://app?vid=0b114b8e-4b1e-4aa3-80c8-111c55927384","ios":"levelo://app?vid=0b114b8e-4b1e-4aa3-80c8-111c55927384"},"vehicle_type_id":"4","last_reported":1724180794,"current_range_meters":12400,"station_id":"ce4bh192rcd13ifvqdb0","pricing_plan_id":"cebpf4jnsgd1na2vs0mg"},{"bike_id":"6f99c002-7e46-4d9e-808e-cf7b480731d4","system_id":"levelo_inurba_marseille","lat":43.30085,"lon":5.390856,"is_reserved":false,"is_disabled":false,"rental_uris":{"android":"levelo://app?vid=6f99c002-7e46-4d9e-808e-cf7b480731d4","ios":"levelo://app?vid=6f99c002-7e46-4d9e-808e-cf7b480731d4"},"vehicle_type_id":"4","last_reported":1724180794,"current_range_meters":31200,"station_id":"ce4bh192rcd13ifvqdb0","pricing_plan_id":"cebpf4jnsgd1na2vs0mg"},{"bike_id":"1c14f1ea-53da-4684-90c8-ff43f365bfb4","system_id":"levelo_inurba_marseille","lat":43.30085,"lon":5.390856,"is_reserved":false,"is_disabled":false,"rental_uris":{"android":"levelo://app?vid=1c14f1ea-53da-4684-90c8-ff43f365bfb4","ios":"levelo://app?vid=1c14f1ea-53da-4684-90c8-ff43f365bfb4"},"vehicle_type_id":"4","last_reported":1724180794,"current_range_meters":22400,"station_id":"ce4bh192rcd13ifvqdb0","pricing_plan_id":"cebpf4jnsgd1na2vs0mg"},{"bike_id":"f4819780-d25b-4f1a-aa0c-75d78c61d4fe","system_id":"levelo_inurba_marseille","lat":43.300852,"lon":5.390859,"is_reserved":false,"is_disabled":false,"rental_uris":{"android":"levelo://app?vid=f4819780-d25b-4f1a-aa0c-75d78c61d4fe","ios":"levelo://app?vid=f4819780-d25b-4f1a-aa0c-75d78c61d4fe"},"vehicle_type_id":"4","last_reported":1724180794,"current_range_meters":12400,"station_id":"ce4bh192rcd13ifvqdb0","pricing_plan_id":"cebpf4jnsgd1na2vs0mg"},{"bike_id":"5418e9ac-44b5-40c7-b92c-255859a9135d","system_id":"levelo_inurba_marseille","lat":43.300852,"lon":5.390859,"is_reserved":false,"is_disabled":false,"rental_uris":{"android":"levelo://app?vid=5418e9ac-44b5-40c7-b92c-255859a9135d","ios":"levelo://app?vid=5418e9ac-44b5-40c7-b92c-255859a9135d"},"vehicle_type_id":"4","last_reported":1724180794,"current_range_meters":26800,"station_id":"ce4bh192rcd13ifvqdb0","pricing_plan_id":"cebpf4jnsgd1na2vs0mg"},{"bike_id":"3f526e2a-d97a-42d9-bed3-083694a9c6c7","system_id":"levelo_inurba_marseille","lat":43.30085,"lon":5.390856,"is_reserved":false,"is_disabled":false,"rental_uris":{"android":"levelo://app?vid=3f526e2a-d97a-42d9-bed3-083694a9c6c7","ios":"levelo://app?vid=3f526e2a-d97a-42d9-bed3-083694a9c6c7"},"vehicle_type_id":"4","last_reported":1724180794,"current_range_meters":29200,"station_id":"ce4bh192rcd13ifvqdb0","pricing_plan_id":"cebpf4jnsgd1na2vs0mg"},{"bike_id":"f7d5c580-02ba-42a7-aabd-e6e06c398498","system_id":"levelo_inurba_marseille","lat":43.31361,"lon":5.395984,"is_reserved":false,"is_disabled":false,"rental_uris":{"android":"levelo://app?vid=f7d5c580-02ba-42a7-aabd-e6e06c398498","ios":"levelo://app?vid=f7d5c580-02ba-42a7-aabd-e6e06c398498"},"vehicle_type_id":"4","last_reported":1724180794,"current_range_meters":18800,"station_id":"","pricing_plan_id":"cebpf4jnsgd1na2vs0mg"},{"bike_id":"ae7e3037-9238-4973-b044-f9072080baea","system_id":"levelo_inurba_marseille","lat":43.298764,"lon":5.388973,"is_reserved":false,"is_disabled":false,"rental_uris":{"android":"levelo://app?vid=ae7e3037-9238-4973-b044-f9072080baea","ios":"levelo://app?vid=ae7e3037-9238-4973-b044-f9072080baea"},"vehicle_type_id":"4","last_reported":1724180794,"current_range_meters":24400,"station_id":"ce4bh392rcd13ifvqdl0","pricing_plan_id":"cebpf4jnsgd1na2vs0mg"},{"bike_id":"c6ea7e55-ae2e-422f-8a35-8cf31577d495","system_id":"levelo_inurba_marseille","lat":43.298764,"lon":5.388973,"is_reserved":false,"is_disabled":false,"rental_uris":{"android":"levelo://app?vid=c6ea7e55-ae2e-422f-8a35-8cf31577d495","ios":"levelo://app?vid=c6ea7e55-ae2e-422f-8a35-8cf31577d495"},"vehicle_type_id":"4","last_reported":1724180794,"current_range_meters":31200,"station_id":"ce4bh392rcd13ifvqdl0","pricing_plan_id":"cebpf4jnsgd1na2vs0mg"},{"bike_id":"ce245433-d151-4804-953b-9d9416cae8d3","system_id":"levelo_inurba_marseille","lat":43.298764,"lon":5.388973,"is_reserved":false,"is_disabled":false,"rental_uris":{"android":"levelo://app?vid=ce245433-d151-4804-953b-9d9416cae8d3","ios":"levelo://app?vid=ce245433-d151-4804-953b-9d9416cae8d3"},"vehicle_type_id":"4","last_reported":1724180794,"current_range_meters":26400,"station_id":"ce4bh392rcd13ifvqdl0","pricing_plan_id":"cebpf4jnsgd1na2vs0mg"},{"bike_id":"e3ad3bc6-b265-4310-88a7-384a8d64e769","system_id":"levelo_inurba_marseille","lat":43.298764,"lon":5.388973,"is_reserved":false,"is_disabled":false,"rental_uris":{"android":"levelo://app?vid=e3ad3bc6-b265-4310-88a7-384a8d64e769","ios":"levelo://app?vid=e3ad3bc6-b265-4310-88a7-384a8d64e769"},"vehicle_type_id":"4","last_reported":1724180794,"current_range_meters":0,"station_id":"ce4bh392rcd13ifvqdl0","pricing_plan_id":"cebpf4jnsgd1na2vs0mg"},{"bike_id":"632d5dd9-b88b-4b33-b447-92d1666af478","system_id":"levelo_inurba_marseille","lat":43.292005,"lon":5.357875,"is_reserved":false,"is_disabled":false,"rental_uris":{"android":"levelo://app?vid=632d5dd9-b88b-4b33-b447-92d1666af478","ios":"levelo://app?vid=632d5dd9-b88b-4b33-b447-92d1666af478"},"vehicle_type_id":"4","last_reported":1724180794,"current_range_meters":30400,"station_id":"ce4bhb12rcd13ifvqel0","pricing_plan_id":"cebpf4jnsgd1na2vs0mg"},{"bike_id":"f8229575-795a-4788-be45-19cb302d1e30","system_id":"levelo_inurba_marseille","lat":43.292005,"lon":5.357875,"is_reserved":false,"is_disabled":false,"rental_uris":{"android":"levelo://app?vid=f8229575-795a-4788-be45-19cb302d1e30","ios":"levelo://app?vid=f8229575-795a-4788-be45-19cb302d1e30"},"vehicle_type_id":"4","last_reported":1724180794,"current_range_meters":800,"station_id":"ce4bhb12rcd13ifvqel0","pricing_plan_id":"cebpf4jnsgd1na2vs0mg"},{"bike_id":"c06b2b8c-2813-4902-bd8b-61d426a721a2","system_id":"levelo_inurba_marseille","lat":43.305364,"lon":5.384119,"is_reserved":false,"is_disabled":false,"rental_uris":{"android":"levelo://app?vid=c06b2b8c-2813-4902-bd8b-61d426a721a2","ios":"levelo://app?vid=c06b2b8c-2813-4902-bd8b-61d426a721a2"},"vehicle_type_id":"4","last_reported":1724180794,"current_range_meters":30800,"station_id":"ce4bgg92rcd13ifvqb30","pricing_plan_id":"cebpf4jnsgd1na2vs0mg"},{"bike_id":"b4746a0a-8caa-435f-b16e-7657ca2a7ab1","system_id":"levelo_inurba_marseille","lat":43.313291,"lon":5.396838,"is_reserved":false,"is_disabled":false,"rental_uris":{"android":"levelo://app?vid=b4746a0a-8caa-435f-b16e-7657ca2a7ab1","ios":"levelo://app?vid=b4746a0a-8caa-435f-b16e-7657ca2a7ab1"},"vehicle_type_id":"4","last_reported":1724180794,"current_range_meters":13600,"station_id":"ce4bgvp2rcd13ifvqcu0","pricing_plan_id":"cebpf4jnsgd1na2vs0mg"},{"bike_id":"6d5d5690-30dc-4636-b9aa-0213ad4d814a","system_id":"levelo_inurba_marseille","lat":43.313291,"lon":5.396838,"is_reserved":false,"is_disabled":false,"rental_uris":{"android":"levelo://app?vid=6d5d5690-30dc-4636-b9aa-0213ad4d814a","ios":"levelo://app?vid=6d5d5690-30dc-4636-b9aa-0213ad4d814a"},"vehicle_type_id":"4","last_reported":1724180794,"current_range_meters":6400,"station_id":"ce4bgvp2rcd13ifvqcu0","pricing_plan_id":"cebpf4jnsgd1na2vs0mg"},{"bike_id":"cd793c11-2195-4d53-bf4e-cd7648cf5881","system_id":"levelo_inurba_marseille","lat":43.313291,"lon":5.396838,"is_reserved":false,"is_disabled":false,"rental_uris":{"android":"levelo://app?vid=cd793c11-2195-4d53-bf4e-cd7648cf5881","ios":"levelo://app?vid=cd793c11-2195-4d53-bf4e-cd7648cf5881"},"vehicle_type_id":"4","last_reported":1724180794,"current_range_meters":31200,"station_id":"ce4bgvp2rcd13ifvqcu0","pricing_plan_id":"cebpf4jnsgd1na2vs0mg"},{"bike_id":"5e06b87f-c5a6-4623-9134-430a8458de51","system_id":"levelo_inurba_marseille","lat":43.313291,"lon":5.396838,"is_reserved":false,"is_disabled":false,"rental_uris":{"android":"levelo://app?vid=5e06b87f-c5a6-4623-9134-430a8458de51","ios":"levelo://app?vid=5e06b87f-c5a6-4623-9134-430a8458de51"},"vehicle_type_id":"4","last_reported":1724180794,"current_range_meters":30000,"station_id":"ce4bgvp2rcd13ifvqcu0","pricing_plan_id":"cebpf4jnsgd1na2vs0mg"},{"bike_id":"ecc476b5-78e5-4ed0-88e6-b8666362792f","system_id":"levelo_inurba_marseille","lat":43.309038,"lon":5.396546,"is_reserved":false,"is_disabled":false,"rental_uris":{"android":"levelo://app?vid=ecc476b5-78e5-4ed0-88e6-b8666362792f","ios":"levelo://app?vid=ecc476b5-78e5-4ed0-88e6-b8666362792f"},"vehicle_type_id":"4","last_reported":1724180794,"current_range_meters":24800,"station_id":"ce4bh012rcd13ifvqcv0","pricing_plan_id":"cebpf4jnsgd1na2vs0mg"},{"bike_id":"be8404ca-336c-4a24-a3da-2a8417556af5","system_id":"levelo_inurba_marseille","lat":43.29529,"lon":5.385581,"is_reserved":false,"is_disabled":false,"rental_uris":{"android":"levelo://app?vid=be8404ca-336c-4a24-a3da-2a8417556af5","ios":"levelo://app?vid=be8404ca-336c-4a24-a3da-2a8417556af5"},"vehicle_type_id":"4","last_reported":1724180794,"current_range_meters":31200,"station_id":"ce4bgih2rcd13ifvqba0","pricing_plan_id":"cebpf4jnsgd1na2vs0mg"},{"bike_id":"eef31e06-ca7c-4677-9708-7157cc472d0d","system_id":"levelo_inurba_marseille","lat":43.29529,"lon":5.385581,"is_reserved":false,"is_disabled":false,"rental_uris":{"android":"levelo://app?vid=eef31e06-ca7c-4677-9708-7157cc472d0d","ios":"levelo://app?vid=eef31e06-ca7c-4677-9708-7157cc472d0d"},"vehicle_type_id":"4","last_reported":1724180794,"current_range_meters":29600,"station_id":"ce4bgih2rcd13ifvqba0","pricing_plan_id":"cebpf4jnsgd1na2vs0mg"},{"bike_id":"a2af4794-90f8-4e5d-bff5-13787dadde5d","system_id":"levelo_inurba_marseille","lat":43.29529,"lon":5.385581,"is_reserved":false,"is_disabled":false,"rental_uris":{"android":"levelo://app?vid=a2af4794-90f8-4e5d-bff5-13787dadde5d","ios":"levelo://app?vid=a2af4794-90f8-4e5d-bff5-13787dadde5d"},"vehicle_type_id":"4","last_reported":1724180794,"current_range_meters":31600,"station_id":"ce4bgih2rcd13ifvqba0","pricing_plan_id":"cebpf4jnsgd1na2vs0mg"},{"bike_id":"6c7acb38-d49d-42f6-a83c-4ea68232b283","system_id":"levelo_inurba_marseille","lat":43.29529,"lon":5.385581,"is_reserved":false,"is_disabled":false,"rental_uris":{"android":"levelo://app?vid=6c7acb38-d49d-42f6-a83c-4ea68232b283","ios":"levelo://app?vid=6c7acb38-d49d-42f6-a83c-4ea68232b283"},"vehicle_type_id":"4","last_reported":1724180794,"current_range_meters":17200,"station_id":"ce4bgih2rcd13ifvqba0","pricing_plan_id":"cebpf4jnsgd1na2vs0mg"},{"bike_id":"728215ad-16e6-40ec-848c-7f0fbcf800c2","system_id":"levelo_inurba_marseille","lat":43.309038,"lon":5.396546,"is_reserved":false,"is_disabled":false,"rental_uris":{"android":"levelo://app?vid=728215ad-16e6-40ec-848c-7f0fbcf800c2","ios":"levelo://app?vid=728215ad-16e6-40ec-848c-7f0fbcf800c2"},"vehicle_type_id":"4","last_reported":1724180794,"current_range_meters":24800,"station_id":"ce4bh012rcd13ifvqcv0","pricing_plan_id":"cebpf4jnsgd1na2vs0mg"},{"bike_id":"b19d8a6d-1ab2-4e81-9c3f-32a9714e5f79","system_id":"levelo_inurba_marseille","lat":43.29529,"lon":5.385581,"is_reserved":false,"is_disabled":false,"rental_uris":{"android":"levelo://app?vid=b19d8a6d-1ab2-4e81-9c3f-32a9714e5f79","ios":"levelo://app?vid=b19d8a6d-1ab2-4e81-9c3f-32a9714e5f79"},"vehicle_type_id":"4","last_reported":1724180794,"current_range_meters":27600,"station_id":"ce4bgih2rcd13ifvqba0","pricing_plan_id":"cebpf4jnsgd1na2vs0mg"},{"bike_id":"02657829-8a0a-477e-9397-b0fb1df3ccd5","system_id":"levelo_inurba_marseille","lat":43.29529,"lon":5.385581,"is_reserved":false,"is_disabled":false,"rental_uris":{"android":"levelo://app?vid=02657829-8a0a-477e-9397-b0fb1df3ccd5","ios":"levelo://app?vid=02657829-8a0a-477e-9397-b0fb1df3ccd5"},"vehicle_type_id":"4","last_reported":1724180794,"current_range_meters":8400,"station_id":"ce4bgih2rcd13ifvqba0","pricing_plan_id":"cebpf4jnsgd1na2vs0mg"},{"bike_id":"c4d46c83-8b68-4902-82e0-7c92dc408eb7","system_id":"levelo_inurba_marseille","lat":43.29529,"lon":5.385581,"is_reserved":false,"is_disabled":false,"rental_uris":{"android":"levelo://app?vid=c4d46c83-8b68-4902-82e0-7c92dc408eb7","ios":"levelo://app?vid=c4d46c83-8b68-4902-82e0-7c92dc408eb7"},"vehicle_type_id":"4","last_reported":1724180794,"current_range_meters":26000,"station_id":"ce4bgih2rcd13ifvqba0","pricing_plan_id":"cebpf4jnsgd1na2vs0mg"},{"bike_id":"910e0885-011a-46c5-9c2f-35badc29bbc4","system_id":"levelo_inurba_marseille","lat":43.29529,"lon":5.385581,"is_reserved":false,"is_disabled":false,"rental_uris":{"android":"levelo://app?vid=910e0885-011a-46c5-9c2f-35badc29bbc4","ios":"levelo://app?vid=910e0885-011a-46c5-9c2f-35badc29bbc4"},"vehicle_type_id":"4","last_reported":1724180794,"current_range_meters":31200,"station_id":"ce4bgih2rcd13ifvqba0","pricing_plan_id":"cebpf4jnsgd1na2vs0mg"},{"bike_id":"93fca5a7-e4c4-48ab-91bc-b388686b7391","system_id":"levelo_inurba_marseille","lat":43.29529,"lon":5.385581,"is_reserved":false,"is_disabled":false,"rental_uris":{"android":"levelo://app?vid=93fca5a7-e4c4-48ab-91bc-b388686b7391","ios":"levelo://app?vid=93fca5a7-e4c4-48ab-91bc-b388686b7391"},"vehicle_type_id":"4","last_reported":1724180794,"current_range_meters":31200,"station_id":"ce4bgih2rcd13ifvqba0","pricing_plan_id":"cebpf4jnsgd1na2vs0mg"},{"bike_id":"40c1feac-6139-4b42-aad3-c510de972fad","system_id":"levelo_inurba_marseille","lat":43.29529,"lon":5.385581,"is_reserved":false,"is_disabled":false,"rental_uris":{"android":"levelo://app?vid=40c1feac-6139-4b42-aad3-c510de972fad","ios":"levelo://app?vid=40c1feac-6139-4b42-aad3-c510de972fad"},"vehicle_type_id":"4","last_reported":1724180794,"current_range_meters":31200,"station_id":"ce4bgih2rcd13ifvqba0","pricing_plan_id":"cebpf4jnsgd1na2vs0mg"},{"bike_id":"53712013-9de7-4dd1-b28d-2c55e8e73807","system_id":"levelo_inurba_marseille","lat":43.29529,"lon":5.385581,"is_reserved":false,"is_disabled":false,"rental_uris":{"android":"levelo://app?vid=53712013-9de7-4dd1-b28d-2c55e8e73807","ios":"levelo://app?vid=53712013-9de7-4dd1-b28d-2c55e8e73807"},"vehicle_type_id":"4","last_reported":1724180794,"current_range_meters":29600,"station_id":"ce4bgih2rcd13ifvqba0","pricing_plan_id":"cebpf4jnsgd1na2vs0mg"},{"bike_id":"7f79b426-cfdb-46c3-8804-977968066b1d","system_id":"levelo_inurba_marseille","lat":43.29529,"lon":5.385581,"is_reserved":false,"is_disabled":false,"rental_uris":{"android":"levelo://app?vid=7f79b426-cfdb-46c3-8804-977968066b1d","ios":"levelo://app?vid=7f79b426-cfdb-46c3-8804-977968066b1d"},"vehicle_type_id":"4","last_reported":1724180794,"current_range_meters":10800,"station_id":"ce4bgih2rcd13ifvqba0","pricing_plan_id":"cebpf4jnsgd1na2vs0mg"},{"bike_id":"96c2a947-93c0-41a4-86d2-168c77b5f770","system_id":"levelo_inurba_marseille","lat":43.29529,"lon":5.38549,"is_reserved":false,"is_disabled":false,"rental_uris":{"android":"levelo://app?vid=96c2a947-93c0-41a4-86d2-168c77b5f770","ios":"levelo://app?vid=96c2a947-93c0-41a4-86d2-168c77b5f770"},"vehicle_type_id":"4","last_reported":1724180794,"current_range_meters":31200,"station_id":"ce4bgih2rcd13ifvqba0","pricing_plan_id":"cebpf4jnsgd1na2vs0mg"},{"bike_id":"c68ca823-2bcb-4fa4-9c35-951a32c436fb","system_id":"levelo_inurba_marseille","lat":43.29526,"lon":5.3855,"is_reserved":false,"is_disabled":false,"rental_uris":{"android":"levelo://app?vid=c68ca823-2bcb-4fa4-9c35-951a32c436fb","ios":"levelo://app?vid=c68ca823-2bcb-4fa4-9c35-951a32c436fb"},"vehicle_type_id":"4","last_reported":1724180794,"current_range_meters":12000,"station_id":"ce4bgih2rcd13ifvqba0","pricing_plan_id":"cebpf4jnsgd1na2vs0mg"},{"bike_id":"e5f470d9-d6c5-41ad-b89b-76c36ef5c658","system_id":"levelo_inurba_marseille","lat":43.33246,"lon":5.38068,"is_reserved":false,"is_disabled":false,"rental_uris":{"android":"levelo://app?vid=e5f470d9-d6c5-41ad-b89b-76c36ef5c658","ios":"levelo://app?vid=e5f470d9-d6c5-41ad-b89b-76c36ef5c658"},"vehicle_type_id":"4","last_reported":1724180794,"current_range_meters":13600,"station_id":"","pricing_plan_id":"cebpf4jnsgd1na2vs0mg"},{"bike_id":"1c51c65b-bd17-4bdc-8551-98772ff50972","system_id":"levelo_inurba_marseille","lat":43.29316,"lon":5.3811,"is_reserved":false,"is_disabled":false,"rental_uris":{"android":"levelo://app?vid=1c51c65b-bd17-4bdc-8551-98772ff50972","ios":"levelo://app?vid=1c51c65b-bd17-4bdc-8551-98772ff50972"},"vehicle_type_id":"4","last_reported":1724180794,"current_range_meters":31200,"station_id":"","pricing_plan_id":"cebpf4jnsgd1na2vs0mg"},{"bike_id":"74b5e0ee-1928-4b77-9adf-6239a191c7fc","system_id":"levelo_inurba_marseille","lat":43.290779,"lon":5.371482,"is_reserved":false,"is_disabled":false,"rental_uris":{"android":"levelo://app?vid=74b5e0ee-1928-4b77-9adf-6239a191c7fc","ios":"levelo://app?vid=74b5e0ee-1928-4b77-9adf-6239a191c7fc"},"vehicle_type_id":"4","last_reported":1724180794,"current_range_meters":28400,"station_id":"ce4bh5p2rcd13ifvqe4g","pricing_plan_id":"cebpf4jnsgd1na2vs0mg"},{"bike_id":"277f74ec-913c-46ba-ab43-2c532fc54e81","system_id":"levelo_inurba_marseille","lat":43.30218,"lon":5.39464,"is_reserved":false,"is_disabled":false,"rental_uris":{"android":"levelo://app?vid=277f74ec-913c-46ba-ab43-2c532fc54e81","ios":"levelo://app?vid=277f74ec-913c-46ba-ab43-2c532fc54e81"},"vehicle_type_id":"4","last_reported":1724180794,"current_range_meters":15200,"station_id":"ce4bh0p2rcd13ifvqd70","pricing_plan_id":"cebpf4jnsgd1na2vs0mg"},{"bike_id":"64c27aaa-45a4-4556-8567-7db2e0a69e0e","system_id":"levelo_inurba_marseille","lat":43.30211,"lon":5.39461,"is_reserved":false,"is_disabled":false,"rental_uris":{"android":"levelo://app?vid=64c27aaa-45a4-4556-8567-7db2e0a69e0e","ios":"levelo://app?vid=64c27aaa-45a4-4556-8567-7db2e0a69e0e"},"vehicle_type_id":"4","last_reported":1724180794,"current_range_meters":30400,"station_id":"ce4bh0p2rcd13ifvqd70","pricing_plan_id":"cebpf4jnsgd1na2vs0mg"},{"bike_id":"b18b7d68-1415-4b08-98a0-8a5cc726b8e7","system_id":"levelo_inurba_marseille","lat":43.302008,"lon":5.394694,"is_reserved":false,"is_disabled":false,"rental_uris":{"android":"levelo://app?vid=b18b7d68-1415-4b08-98a0-8a5cc726b8e7","ios":"levelo://app?vid=b18b7d68-1415-4b08-98a0-8a5cc726b8e7"},"vehicle_type_id":"4","last_reported":1724180794,"current_range_meters":31200,"station_id":"ce4bh0p2rcd13ifvqd70","pricing_plan_id":"cebpf4jnsgd1na2vs0mg"},{"bike_id":"92ef7a41-17b3-485a-8441-8ea6681c90f1","system_id":"levelo_inurba_marseille","lat":43.29429,"lon":5.38619,"is_reserved":false,"is_disabled":false,"rental_uris":{"android":"levelo://app?vid=92ef7a41-17b3-485a-8441-8ea6681c90f1","ios":"levelo://app?vid=92ef7a41-17b3-485a-8441-8ea6681c90f1"},"vehicle_type_id":"4","last_reported":1724180794,"current_range_meters":0,"station_id":"ce4bh2h2rcd13ifvqdh0","pricing_plan_id":"cebpf4jnsgd1na2vs0mg"},{"bike_id":"82452eac-9e0f-47c6-92e0-9426edeb49ec","system_id":"levelo_inurba_marseille","lat":43.294153,"lon":5.386305,"is_reserved":false,"is_disabled":false,"rental_uris":{"android":"levelo://app?vid=82452eac-9e0f-47c6-92e0-9426edeb49ec","ios":"levelo://app?vid=82452eac-9e0f-47c6-92e0-9426edeb49ec"},"vehicle_type_id":"4","last_reported":1724180794,"current_range_meters":26800,"station_id":"ce4bh2h2rcd13ifvqdh0","pricing_plan_id":"cebpf4jnsgd1na2vs0mg"},{"bike_id":"f3ffe89c-40bd-4248-9153-90911c8af354","system_id":"levelo_inurba_marseille","lat":43.29424,"lon":5.38623,"is_reserved":false,"is_disabled":false,"rental_uris":{"android":"levelo://app?vid=f3ffe89c-40bd-4248-9153-90911c8af354","ios":"levelo://app?vid=f3ffe89c-40bd-4248-9153-90911c8af354"},"vehicle_type_id":"4","last_reported":1724180794,"current_range_meters":16400,"station_id":"ce4bh2h2rcd13ifvqdh0","pricing_plan_id":"cebpf4jnsgd1na2vs0mg"},{"bike_id":"d9fba37d-0f61-48b9-80de-5b3f37cfd14f","system_id":"levelo_inurba_marseille","lat":43.29423,"lon":5.38624,"is_reserved":false,"is_disabled":false,"rental_uris":{"android":"levelo://app?vid=d9fba37d-0f61-48b9-80de-5b3f37cfd14f","ios":"levelo://app?vid=d9fba37d-0f61-48b9-80de-5b3f37cfd14f"},"vehicle_type_id":"4","last_reported":1724180794,"current_range_meters":0,"station_id":"ce4bh2h2rcd13ifvqdh0","pricing_plan_id":"cebpf4jnsgd1na2vs0mg"},{"bike_id":"bf88c4df-9b9e-48ab-939d-274a8dcbcaee","system_id":"levelo_inurba_marseille","lat":43.294237,"lon":5.386307,"is_reserved":false,"is_disabled":false,"rental_uris":{"android":"levelo://app?vid=bf88c4df-9b9e-48ab-939d-274a8dcbcaee","ios":"levelo://app?vid=bf88c4df-9b9e-48ab-939d-274a8dcbcaee"},"vehicle_type_id":"4","last_reported":1724180794,"current_range_meters":18800,"station_id":"ce4bh2h2rcd13ifvqdh0","pricing_plan_id":"cebpf4jnsgd1na2vs0mg"},{"bike_id":"79494a78-78f5-4551-8564-f9dbd21f15d8","system_id":"levelo_inurba_marseille","lat":43.2942,"lon":5.38625,"is_reserved":false,"is_disabled":false,"rental_uris":{"android":"levelo://app?vid=79494a78-78f5-4551-8564-f9dbd21f15d8","ios":"levelo://app?vid=79494a78-78f5-4551-8564-f9dbd21f15d8"},"vehicle_type_id":"4","last_reported":1724180794,"current_range_meters":10800,"station_id":"ce4bh2h2rcd13ifvqdh0","pricing_plan_id":"cebpf4jnsgd1na2vs0mg"},{"bike_id":"89a11b19-09b5-493f-80a4-b70481a99b4b","system_id":"levelo_inurba_marseille","lat":43.29421,"lon":5.38627,"is_reserved":false,"is_disabled":false,"rental_uris":{"android":"levelo://app?vid=89a11b19-09b5-493f-80a4-b70481a99b4b","ios":"levelo://app?vid=89a11b19-09b5-493f-80a4-b70481a99b4b"},"vehicle_type_id":"4","last_reported":1724180794,"current_range_meters":2000,"station_id":"ce4bh2h2rcd13ifvqdh0","pricing_plan_id":"cebpf4jnsgd1na2vs0mg"},{"bike_id":"6d9b3694-e2f2-479f-a28c-19740f68dc3b","system_id":"levelo_inurba_marseille","lat":43.29417,"lon":5.38622,"is_reserved":false,"is_disabled":false,"rental_uris":{"android":"levelo://app?vid=6d9b3694-e2f2-479f-a28c-19740f68dc3b","ios":"levelo://app?vid=6d9b3694-e2f2-479f-a28c-19740f68dc3b"},"vehicle_type_id":"4","last_reported":1724180794,"current_range_meters":1200,"station_id":"ce4bh2h2rcd13ifvqdh0","pricing_plan_id":"cebpf4jnsgd1na2vs0mg"},{"bike_id":"6b1185c2-43a3-4b07-8896-7f94233537ff","system_id":"levelo_inurba_marseille","lat":43.29417,"lon":5.38622,"is_reserved":false,"is_disabled":false,"rental_uris":{"android":"levelo://app?vid=6b1185c2-43a3-4b07-8896-7f94233537ff","ios":"levelo://app?vid=6b1185c2-43a3-4b07-8896-7f94233537ff"},"vehicle_type_id":"4","last_reported":1724180794,"current_range_meters":14000,"station_id":"ce4bh2h2rcd13ifvqdh0","pricing_plan_id":"cebpf4jnsgd1na2vs0mg"},{"bike_id":"e9f2cae1-c3fe-4c56-be70-caa24feb015d","system_id":"levelo_inurba_marseille","lat":43.29417,"lon":5.38622,"is_reserved":false,"is_disabled":false,"rental_uris":{"android":"levelo://app?vid=e9f2cae1-c3fe-4c56-be70-caa24feb015d","ios":"levelo://app?vid=e9f2cae1-c3fe-4c56-be70-caa24feb015d"},"vehicle_type_id":"4","last_reported":1724180794,"current_range_meters":10800,"station_id":"ce4bh2h2rcd13ifvqdh0","pricing_plan_id":"cebpf4jnsgd1na2vs0mg"},{"bike_id":"db75ef17-0ce9-4814-b0ad-6711c6eec297","system_id":"levelo_inurba_marseille","lat":43.28946,"lon":5.36631,"is_reserved":false,"is_disabled":false,"rental_uris":{"android":"levelo://app?vid=db75ef17-0ce9-4814-b0ad-6711c6eec297","ios":"levelo://app?vid=db75ef17-0ce9-4814-b0ad-6711c6eec297"},"vehicle_type_id":"4","last_reported":1724180794,"current_range_meters":31200,"station_id":"ce4bhap2rcd13ifvqek0","pricing_plan_id":"cebpf4jnsgd1na2vs0mg"},{"bike_id":"4d927fc9-7e6b-4fff-b18b-38a24ee2f641","system_id":"levelo_inurba_marseille","lat":43.29416,"lon":5.38622,"is_reserved":false,"is_disabled":false,"rental_uris":{"android":"levelo://app?vid=4d927fc9-7e6b-4fff-b18b-38a24ee2f641","ios":"levelo://app?vid=4d927fc9-7e6b-4fff-b18b-38a24ee2f641"},"vehicle_type_id":"4","last_reported":1724180794,"current_range_meters":26400,"station_id":"ce4bh2h2rcd13ifvqdh0","pricing_plan_id":"cebpf4jnsgd1na2vs0mg"},{"bike_id":"950c8bcd-b479-4f8d-adf9-cea0757e7149","system_id":"levelo_inurba_marseille","lat":43.29417,"lon":5.38624,"is_reserved":false,"is_disabled":false,"rental_uris":{"android":"levelo://app?vid=950c8bcd-b479-4f8d-adf9-cea0757e7149","ios":"levelo://app?vid=950c8bcd-b479-4f8d-adf9-cea0757e7149"},"vehicle_type_id":"4","last_reported":1724180794,"current_range_meters":27600,"station_id":"ce4bh2h2rcd13ifvqdh0","pricing_plan_id":"cebpf4jnsgd1na2vs0mg"},{"bike_id":"126a212b-4208-4cc8-b2d5-22d1b18b7658","system_id":"levelo_inurba_marseille","lat":43.29417,"lon":5.38625,"is_reserved":false,"is_disabled":false,"rental_uris":{"android":"levelo://app?vid=126a212b-4208-4cc8-b2d5-22d1b18b7658","ios":"levelo://app?vid=126a212b-4208-4cc8-b2d5-22d1b18b7658"},"vehicle_type_id":"4","last_reported":1724180794,"current_range_meters":400,"station_id":"ce4bh2h2rcd13ifvqdh0","pricing_plan_id":"cebpf4jnsgd1na2vs0mg"},{"bike_id":"8958563a-3b18-402b-958d-ae3642eb90a0","system_id":"levelo_inurba_marseille","lat":43.29417,"lon":5.38627,"is_reserved":false,"is_disabled":false,"rental_uris":{"android":"levelo://app?vid=8958563a-3b18-402b-958d-ae3642eb90a0","ios":"levelo://app?vid=8958563a-3b18-402b-958d-ae3642eb90a0"},"vehicle_type_id":"4","last_reported":1724180794,"current_range_meters":3600,"station_id":"ce4bh2h2rcd13ifvqdh0","pricing_plan_id":"cebpf4jnsgd1na2vs0mg"},{"bike_id":"cf8509aa-bde9-466e-85a0-1cc135f84712","system_id":"levelo_inurba_marseille","lat":43.29416,"lon":5.38626,"is_reserved":false,"is_disabled":false,"rental_uris":{"android":"levelo://app?vid=cf8509aa-bde9-466e-85a0-1cc135f84712","ios":"levelo://app?vid=cf8509aa-bde9-466e-85a0-1cc135f84712"},"vehicle_type_id":"4","last_reported":1724180794,"current_range_meters":3200,"station_id":"ce4bh2h2rcd13ifvqdh0","pricing_plan_id":"cebpf4jnsgd1na2vs0mg"},{"bike_id":"061f72b9-b93a-4371-abea-1eeb4a73d446","system_id":"levelo_inurba_marseille","lat":43.29417,"lon":5.38628,"is_reserved":false,"is_disabled":false,"rental_uris":{"android":"levelo://app?vid=061f72b9-b93a-4371-abea-1eeb4a73d446","ios":"levelo://app?vid=061f72b9-b93a-4371-abea-1eeb4a73d446"},"vehicle_type_id":"4","last_reported":1724180794,"current_range_meters":28000,"station_id":"ce4bh2h2rcd13ifvqdh0","pricing_plan_id":"cebpf4jnsgd1na2vs0mg"},{"bike_id":"170a76f5-f68d-40b5-9fe6-a7d65ba69641","system_id":"levelo_inurba_marseille","lat":43.29417,"lon":5.38629,"is_reserved":false,"is_disabled":false,"rental_uris":{"android":"levelo://app?vid=170a76f5-f68d-40b5-9fe6-a7d65ba69641","ios":"levelo://app?vid=170a76f5-f68d-40b5-9fe6-a7d65ba69641"},"vehicle_type_id":"4","last_reported":1724180794,"current_range_meters":2800,"station_id":"ce4bh2h2rcd13ifvqdh0","pricing_plan_id":"cebpf4jnsgd1na2vs0mg"},{"bike_id":"fe68b2fe-5d16-4227-b426-83ba89bd84de","system_id":"levelo_inurba_marseille","lat":43.29417,"lon":5.3863,"is_reserved":false,"is_disabled":false,"rental_uris":{"android":"levelo://app?vid=fe68b2fe-5d16-4227-b426-83ba89bd84de","ios":"levelo://app?vid=fe68b2fe-5d16-4227-b426-83ba89bd84de"},"vehicle_type_id":"4","last_reported":1724180794,"current_range_meters":3200,"station_id":"ce4bh2h2rcd13ifvqdh0","pricing_plan_id":"cebpf4jnsgd1na2vs0mg"},{"bike_id":"ca71b538-3e40-48c8-aa9e-3159f0aa8545","system_id":"levelo_inurba_marseille","lat":43.29418,"lon":5.38632,"is_reserved":false,"is_disabled":false,"rental_uris":{"android":"levelo://app?vid=ca71b538-3e40-48c8-aa9e-3159f0aa8545","ios":"levelo://app?vid=ca71b538-3e40-48c8-aa9e-3159f0aa8545"},"vehicle_type_id":"4","last_reported":1724180794,"current_range_meters":2000,"station_id":"ce4bh2h2rcd13ifvqdh0","pricing_plan_id":"cebpf4jnsgd1na2vs0mg"},{"bike_id":"9f18b094-a7e4-4f93-901e-7b06e6c24347","system_id":"levelo_inurba_marseille","lat":43.29413,"lon":5.38623,"is_reserved":false,"is_disabled":false,"rental_uris":{"android":"levelo://app?vid=9f18b094-a7e4-4f93-901e-7b06e6c24347","ios":"levelo://app?vid=9f18b094-a7e4-4f93-901e-7b06e6c24347"},"vehicle_type_id":"4","last_reported":1724180794,"current_range_meters":14800,"station_id":"ce4bh2h2rcd13ifvqdh0","pricing_plan_id":"cebpf4jnsgd1na2vs0mg"},{"bike_id":"cfa56d69-3a05-4772-a6cf-7d211e20266c","system_id":"levelo_inurba_marseille","lat":43.29414,"lon":5.38625,"is_reserved":false,"is_disabled":false,"rental_uris":{"android":"levelo://app?vid=cfa56d69-3a05-4772-a6cf-7d211e20266c","ios":"levelo://app?vid=cfa56d69-3a05-4772-a6cf-7d211e20266c"},"vehicle_type_id":"4","last_reported":1724180794,"current_range_meters":28000,"station_id":"ce4bh2h2rcd13ifvqdh0","pricing_plan_id":"cebpf4jnsgd1na2vs0mg"},{"bike_id":"67ce8b56-ce3b-4be1-9f07-cf80d7ee50aa","system_id":"levelo_inurba_marseille","lat":43.289184,"lon":5.366408,"is_reserved":false,"is_disabled":false,"rental_uris":{"android":"levelo://app?vid=67ce8b56-ce3b-4be1-9f07-cf80d7ee50aa","ios":"levelo://app?vid=67ce8b56-ce3b-4be1-9f07-cf80d7ee50aa"},"vehicle_type_id":"4","last_reported":1724180794,"current_range_meters":0,"station_id":"ce4bhap2rcd13ifvqek0","pricing_plan_id":"cebpf4jnsgd1na2vs0mg"},{"bike_id":"afbba0f7-80ae-4c86-afcb-740fa8055475","system_id":"levelo_inurba_marseille","lat":43.29415,"lon":5.38628,"is_reserved":false,"is_disabled":false,"rental_uris":{"android":"levelo://app?vid=afbba0f7-80ae-4c86-afcb-740fa8055475","ios":"levelo://app?vid=afbba0f7-80ae-4c86-afcb-740fa8055475"},"vehicle_type_id":"4","last_reported":1724180794,"current_range_meters":25600,"station_id":"ce4bh2h2rcd13ifvqdh0","pricing_plan_id":"cebpf4jnsgd1na2vs0mg"},{"bike_id":"ce655b84-bd38-4533-b6db-5ef08aab98d0","system_id":"levelo_inurba_marseille","lat":43.294169,"lon":5.386316,"is_reserved":false,"is_disabled":false,"rental_uris":{"android":"levelo://app?vid=ce655b84-bd38-4533-b6db-5ef08aab98d0","ios":"levelo://app?vid=ce655b84-bd38-4533-b6db-5ef08aab98d0"},"vehicle_type_id":"4","last_reported":1724180794,"current_range_meters":4800,"station_id":"ce4bh3p2rcd13ifvqdq0","pricing_plan_id":"cebpf4jnsgd1na2vs0mg"},{"bike_id":"bc2b3409-89c9-461f-8170-6684fba364e0","system_id":"levelo_inurba_marseille","lat":43.29413,"lon":5.38625,"is_reserved":false,"is_disabled":false,"rental_uris":{"android":"levelo://app?vid=bc2b3409-89c9-461f-8170-6684fba364e0","ios":"levelo://app?vid=bc2b3409-89c9-461f-8170-6684fba364e0"},"vehicle_type_id":"4","last_reported":1724180794,"current_range_meters":10000,"station_id":"ce4bh2h2rcd13ifvqdh0","pricing_plan_id":"cebpf4jnsgd1na2vs0mg"},{"bike_id":"6e17ce42-b9f2-4158-8f75-3b1c0567ac40","system_id":"levelo_inurba_marseille","lat":43.29415,"lon":5.38629,"is_reserved":false,"is_disabled":false,"rental_uris":{"android":"levelo://app?vid=6e17ce42-b9f2-4158-8f75-3b1c0567ac40","ios":"levelo://app?vid=6e17ce42-b9f2-4158-8f75-3b1c0567ac40"},"vehicle_type_id":"4","last_reported":1724180794,"current_range_meters":15600,"station_id":"ce4bh2h2rcd13ifvqdh0","pricing_plan_id":"cebpf4jnsgd1na2vs0mg"},{"bike_id":"5161d409-3884-4f50-9ed7-ead5c00cab54","system_id":"levelo_inurba_marseille","lat":43.29416,"lon":5.38631,"is_reserved":false,"is_disabled":false,"rental_uris":{"android":"levelo://app?vid=5161d409-3884-4f50-9ed7-ead5c00cab54","ios":"levelo://app?vid=5161d409-3884-4f50-9ed7-ead5c00cab54"},"vehicle_type_id":"4","last_reported":1724180794,"current_range_meters":21600,"station_id":"ce4bh2h2rcd13ifvqdh0","pricing_plan_id":"cebpf4jnsgd1na2vs0mg"},{"bike_id":"fa8a5a35-bcab-43ae-bb47-5fb76b84c163","system_id":"levelo_inurba_marseille","lat":43.29418,"lon":5.38637,"is_reserved":false,"is_disabled":false,"rental_uris":{"android":"levelo://app?vid=fa8a5a35-bcab-43ae-bb47-5fb76b84c163","ios":"levelo://app?vid=fa8a5a35-bcab-43ae-bb47-5fb76b84c163"},"vehicle_type_id":"4","last_reported":1724180794,"current_range_meters":0,"station_id":"ce4bh2h2rcd13ifvqdh0","pricing_plan_id":"cebpf4jnsgd1na2vs0mg"},{"bike_id":"73322591-e8ee-4867-aaf8-1a9ca9863fe7","system_id":"levelo_inurba_marseille","lat":43.289184,"lon":5.366408,"is_reserved":false,"is_disabled":false,"rental_uris":{"android":"levelo://app?vid=73322591-e8ee-4867-aaf8-1a9ca9863fe7","ios":"levelo://app?vid=73322591-e8ee-4867-aaf8-1a9ca9863fe7"},"vehicle_type_id":"4","last_reported":1724180794,"current_range_meters":31200,"station_id":"ce4bhap2rcd13ifvqek0","pricing_plan_id":"cebpf4jnsgd1na2vs0mg"},{"bike_id":"fb197465-1328-4b74-9aaf-a10e4d5956c2","system_id":"levelo_inurba_marseille","lat":43.29411,"lon":5.38626,"is_reserved":false,"is_disabled":false,"rental_uris":{"android":"levelo://app?vid=fb197465-1328-4b74-9aaf-a10e4d5956c2","ios":"levelo://app?vid=fb197465-1328-4b74-9aaf-a10e4d5956c2"},"vehicle_type_id":"4","last_reported":1724180794,"current_range_meters":9200,"station_id":"ce4bh2h2rcd13ifvqdh0","pricing_plan_id":"cebpf4jnsgd1na2vs0mg"},{"bike_id":"987ed898-322a-4bc3-a47e-7d9988015a5d","system_id":"levelo_inurba_marseille","lat":43.29418,"lon":5.38639,"is_reserved":false,"is_disabled":false,"rental_uris":{"android":"levelo://app?vid=987ed898-322a-4bc3-a47e-7d9988015a5d","ios":"levelo://app?vid=987ed898-322a-4bc3-a47e-7d9988015a5d"},"vehicle_type_id":"4","last_reported":1724180794,"current_range_meters":9600,"station_id":"ce4bh2h2rcd13ifvqdh0","pricing_plan_id":"cebpf4jnsgd1na2vs0mg"},{"bike_id":"9fa0b0ca-2671-4678-90e9-5095f0800896","system_id":"levelo_inurba_marseille","lat":43.29415,"lon":5.38634,"is_reserved":false,"is_disabled":false,"rental_uris":{"android":"levelo://app?vid=9fa0b0ca-2671-4678-90e9-5095f0800896","ios":"levelo://app?vid=9fa0b0ca-2671-4678-90e9-5095f0800896"},"vehicle_type_id":"4","last_reported":1724180794,"current_range_meters":11600,"station_id":"ce4bh2h2rcd13ifvqdh0","pricing_plan_id":"cebpf4jnsgd1na2vs0mg"},{"bike_id":"e48d9af5-dc94-48ee-b069-2f20e1f7370f","system_id":"levelo_inurba_marseille","lat":43.29413,"lon":5.38631,"is_reserved":false,"is_disabled":false,"rental_uris":{"android":"levelo://app?vid=e48d9af5-dc94-48ee-b069-2f20e1f7370f","ios":"levelo://app?vid=e48d9af5-dc94-48ee-b069-2f20e1f7370f"},"vehicle_type_id":"4","last_reported":1724180794,"current_range_meters":27600,"station_id":"ce4bh2h2rcd13ifvqdh0","pricing_plan_id":"cebpf4jnsgd1na2vs0mg"},{"bike_id":"63aebc78-2f80-4e34-85a8-ae3b4d83d5bf","system_id":"levelo_inurba_marseille","lat":43.28939,"lon":5.3663,"is_reserved":false,"is_disabled":false,"rental_uris":{"android":"levelo://app?vid=63aebc78-2f80-4e34-85a8-ae3b4d83d5bf","ios":"levelo://app?vid=63aebc78-2f80-4e34-85a8-ae3b4d83d5bf"},"vehicle_type_id":"4","last_reported":1724180794,"current_range_meters":31200,"station_id":"ce4bhap2rcd13ifvqek0","pricing_plan_id":"cebpf4jnsgd1na2vs0mg"},{"bike_id":"e0f95a09-f69f-4bdf-9eb5-ccaa73d92a26","system_id":"levelo_inurba_marseille","lat":43.289184,"lon":5.366408,"is_reserved":false,"is_disabled":false,"rental_uris":{"android":"levelo://app?vid=e0f95a09-f69f-4bdf-9eb5-ccaa73d92a26","ios":"levelo://app?vid=e0f95a09-f69f-4bdf-9eb5-ccaa73d92a26"},"vehicle_type_id":"4","last_reported":1724180794,"current_range_meters":31200,"station_id":"ce4bhap2rcd13ifvqek0","pricing_plan_id":"cebpf4jnsgd1na2vs0mg"},{"bike_id":"ac80302a-3079-4df1-bf70-fcc10f2645cb","system_id":"levelo_inurba_marseille","lat":43.289468,"lon":5.363719,"is_reserved":false,"is_disabled":false,"rental_uris":{"android":"levelo://app?vid=ac80302a-3079-4df1-bf70-fcc10f2645cb","ios":"levelo://app?vid=ac80302a-3079-4df1-bf70-fcc10f2645cb"},"vehicle_type_id":"4","last_reported":1724180794,"current_range_meters":2800,"station_id":"ce4bhc92rcd13ifvqetg","pricing_plan_id":"cebpf4jnsgd1na2vs0mg"},{"bike_id":"8a5b418c-e536-4829-ada8-9e6b37f4002d","system_id":"levelo_inurba_marseille","lat":43.289468,"lon":5.363719,"is_reserved":false,"is_disabled":false,"rental_uris":{"android":"levelo://app?vid=8a5b418c-e536-4829-ada8-9e6b37f4002d","ios":"levelo://app?vid=8a5b418c-e536-4829-ada8-9e6b37f4002d"},"vehicle_type_id":"4","last_reported":1724180794,"current_range_meters":12000,"station_id":"ce4bhc92rcd13ifvqetg","pricing_plan_id":"cebpf4jnsgd1na2vs0mg"},{"bike_id":"40864704-d3b8-4308-b177-47cfba418106","system_id":"levelo_inurba_marseille","lat":43.289184,"lon":5.366408,"is_reserved":false,"is_disabled":false,"rental_uris":{"android":"levelo://app?vid=40864704-d3b8-4308-b177-47cfba418106","ios":"levelo://app?vid=40864704-d3b8-4308-b177-47cfba418106"},"vehicle_type_id":"4","last_reported":1724180794,"current_range_meters":16800,"station_id":"ce4bhap2rcd13ifvqek0","pricing_plan_id":"cebpf4jnsgd1na2vs0mg"},{"bike_id":"f0aa1fc2-671a-42af-819d-0188362b688e","system_id":"levelo_inurba_marseille","lat":43.289184,"lon":5.366408,"is_reserved":false,"is_disabled":false,"rental_uris":{"android":"levelo://app?vid=f0aa1fc2-671a-42af-819d-0188362b688e","ios":"levelo://app?vid=f0aa1fc2-671a-42af-819d-0188362b688e"},