{"last_updated":1702969595,"ttl":30,"version":"2.2","data":{"bikes":[{"bike_id":"c6fa8f52-4c81-4ee7-903f-6c94dbeb9953","system_id":"levelo_inurba_marseille","lat":43.309076,"lon":5.368465,"is_reserved":false,"is_disabled":false,"rental_uris":{"android":"levelo://app?vid=c6fa8f52-4c81-4ee7-903f-6c94dbeb9953","ios":"levelo://app?vid=c6fa8f52-4c81-4ee7-903f-6c94dbeb9953"},"vehicle_type_id":"4","last_reported":1702969596,"current_range_meters":20400,"station_id":"ce4bgn92rcd13ifvqbvg","pricing_plan_id":"free"},{"bike_id":"ef7e7f4f-095c-4e3c-8c97-83cdbc6db205","system_id":"levelo_inurba_marseille","lat":43.314811,"lon":5.373103,"is_reserved":false,"is_disabled":false,"rental_uris":{"android":"levelo://app?vid=ef7e7f4f-095c-4e3c-8c97-83cdbc6db205","ios":"levelo://app?vid=ef7e7f4f-095c-4e3c-8c97-83cdbc6db205"},"vehicle_type_id":"4","last_reported":1702969596,"current_range_meters":26400,"station_id":"ce4bgt12rcd13ifvqcd0","pricing_plan_id":"free"},{"bike_id":"b564ba57-2f8d-4f45-b4f3-ed32f9f69b8f","system_id":"levelo_inurba_marseille","lat":43.309039,"lon":5.371797,"is_reserved":false,"is_disabled":false,"rental_uris":{"android":"levelo://app?vid=b564ba57-2f8d-4f45-b4f3-ed32f9f69b8f","ios":"levelo://app?vid=b564ba57-2f8d-4f45-b4f3-ed32f9f69b8f"},"vehicle_type_id":"4","last_reported":1702969596,"current_range_meters":28400,"station_id":"ce4bguh2rcd13ifvqckg","pricing_plan_id":"free"},{"bike_id":"293e8745-e127-4333-85dd-fa0fb52fbf36","system_id":"levelo_inurba_marseille","lat":43.305712,"lon":5.365641,"is_reserved":false,"is_disabled":false,"rental_uris":{"android":"levelo://app?vid=293e8745-e127-4333-85dd-fa0fb52fbf36","ios":"levelo://app?vid=293e8745-e127-4333-85dd-fa0fb52fbf36"},"vehicle_type_id":"4","last_reported":1702969596,"current_range_meters":18400,"station_id":"ce4bgs12rcd13ifvqcag","pricing_plan_id":"free"},{"bike_id":"190bb94a-8dd4-4249-8948-cef756ef4849","system_id":"levelo_inurba_marseille","lat":43.305712,"lon":5.365641,"is_reserved":false,"is_disabled":false,"rental_uris":{"android":"levelo://app?vid=190bb94a-8dd4-4249-8948-cef756ef4849","ios":"levelo://app?vid=190bb94a-8dd4-4249-8948-cef756ef4849"},"vehicle_type_id":"4","last_reported":1702969596,"current_range_meters":22400,"station_id":"ce4bgs12rcd13ifvqcag","pricing_plan_id":"free"},{"bike_id":"65b47587-eb09-42fd-bfe1-63a9e6f48657","system_id":"levelo_inurba_marseille","lat":43.305706,"lon":5.365654,"is_reserved":false,"is_disabled":false,"rental_uris":{"android":"levelo://app?vid=65b47587-eb09-42fd-bfe1-63a9e6f48657","ios":"levelo://app?vid=65b47587-eb09-42fd-bfe1-63a9e6f48657"},"vehicle_type_id":"4","last_reported":1702969596,"current_range_meters":28400,"station_id":"ce4bgs12rcd13ifvqcag","pricing_plan_id":"free"},{"bike_id":"dcf103a4-038b-4932-9161-bd76ecec98d8","system_id":"levelo_inurba_marseille","lat":43.305989,"lon":5.37225,"is_reserved":false,"is_disabled":false,"rental_uris":{"android":"levelo://app?vid=dcf103a4-038b-4932-9161-bd76ecec98d8","ios":"levelo://app?vid=dcf103a4-038b-4932-9161-bd76ecec98d8"},"vehicle_type_id":"4","last_reported":1702969596,"current_range_meters":23600,"station_id":"ce4bgqh2rcd13ifvqc4g","pricing_plan_id":"free"},{"bike_id":"5ca5790e-14a6-4220-9204-7bd8467c6156","system_id":"levelo_inurba_marseille","lat":43.305989,"lon":5.37225,"is_reserved":false,"is_disabled":false,"rental_uris":{"android":"levelo://app?vid=5ca5790e-14a6-4220-9204-7bd8467c6156","ios":"levelo://app?vid=5ca5790e-14a6-4220-9204-7bd8467c6156"},"vehicle_type_id":"4","last_reported":1702969596,"current_range_meters":30400,"station_id":"ce4bgqh2rcd13ifvqc4g","pricing_plan_id":"free"},{"bike_id":"25057b1a-c922-4150-9523-e3e241c6fc58","system_id":"levelo_inurba_marseille","lat":43.317075,"lon":5.377367,"is_reserved":false,"is_disabled":false,"rental_uris":{"android":"levelo://app?vid=25057b1a-c922-4150-9523-e3e241c6fc58","ios":"levelo://app?vid=25057b1a-c922-4150-9523-e3e241c6fc58"},"vehicle_type_id":"4","last_reported":1702969596,"current_range_meters":24800,"station_id":"ce4bgth2rcd13ifvqch0","pricing_plan_id":"free"},{"bike_id":"e5800022-71f9-4e9e-82ef-aab1c991e31f","system_id":"levelo_inurba_marseille","lat":43.301939,"lon":5.366286,"is_reserved":false,"is_disabled":false,"rental_uris":{"android":"levelo://app?vid=e5800022-71f9-4e9e-82ef-aab1c991e31f","ios":"levelo://app?vid=e5800022-71f9-4e9e-82ef-aab1c991e31f"},"vehicle_type_id":"4","last_reported":1702969596,"current_range_meters":4800,"station_id":"ce4bgrh2rcd13ifvqc8g","pricing_plan_id":"free"},{"bike_id":"532dcc8e-8d4b-4446-95bd-0bd90acb659b","system_id":"levelo_inurba_marseille","lat":43.3064,"lon":5.37993,"is_reserved":false,"is_disabled":false,"rental_uris":{"android":"levelo://app?vid=532dcc8e-8d4b-4446-95bd-0bd90acb659b","ios":"levelo://app?vid=532dcc8e-8d4b-4446-95bd-0bd90acb659b"},"vehicle_type_id":"4","last_reported":1702969596,"current_range_meters":20800,"station_id":"","pricing_plan_id":"free"},{"bike_id":"37e56516-08c8-459b-b513-0791704f423f","system_id":"levelo_inurba_marseille","lat":43.30809,"lon":5.38141,"is_reserved":false,"is_disabled":false,"rental_uris":{"android":"levelo://app?vid=37e56516-08c8-459b-b513-0791704f423f","ios":"levelo://app?vid=37e56516-08c8-459b-b513-0791704f423f"},"vehicle_type_id":"4","last_reported":1702969596,"current_range_meters":27600,"station_id":"ce4bgt12rcd13ifvqce0","pricing_plan_id":"free"},{"bike_id":"2c9d1f7c-101d-4b54-bf5b-233b762665f7","system_id":"levelo_inurba_marseille","lat":43.308012,"lon":5.381511,"is_reserved":false,"is_disabled":false,"rental_uris":{"android":"levelo://app?vid=2c9d1f7c-101d-4b54-bf5b-233b762665f7","ios":"levelo://app?vid=2c9d1f7c-101d-4b54-bf5b-233b762665f7"},"vehicle_type_id":"4","last_reported":1702969596,"current_range_meters":28400,"station_id":"ce4bgt12rcd13ifvqce0","pricing_plan_id":"free"},{"bike_id":"97a0e8da-913a-4e61-99fd-9b347e4c9fbf","system_id":"levelo_inurba_marseille","lat":43.304606,"lon":5.379026,"is_reserved":false,"is_disabled":false,"rental_uris":{"android":"levelo://app?vid=97a0e8da-913a-4e61-99fd-9b347e4c9fbf","ios":"levelo://app?vid=97a0e8da-913a-4e61-99fd-9b347e4c9fbf"},"vehicle_type_id":"4","last_reported":1702969596,"current_range_meters":25200,"station_id":"ce4bgup2rcd13ifvqcn0","pricing_plan_id":"free"},{"bike_id":"c97da268-2ce2-4f15-b2c5-d6fcbe5db83a","system_id":"levelo_inurba_marseille","lat":43.30469,"lon":5.37898,"is_reserved":false,"is_disabled":false,"rental_uris":{"android":"levelo://app?vid=c97da268-2ce2-4f15-b2c5-d6fcbe5db83a","ios":"levelo://app?vid=c97da268-2ce2-4f15-b2c5-d6fcbe5db83a"},"vehicle_type_id":"4","last_reported":1702969596,"current_range_meters":19600,"station_id":"ce4bgup2rcd13ifvqcn0","pricing_plan_id":"free"},{"bike_id":"c7ed9b37-fecb-427b-91d7-b888d06415b1","system_id":"levelo_inurba_marseille","lat":43.304711,"lon":5.379063,"is_reserved":false,"is_disabled":false,"rental_uris":{"android":"levelo://app?vid=c7ed9b37-fecb-427b-91d7-b888d06415b1","ios":"levelo://app?vid=c7ed9b37-fecb-427b-91d7-b888d06415b1"},"vehicle_type_id":"4","last_reported":1702969596,"current_range_meters":24000,"station_id":"ce4bgup2rcd13ifvqcn0","pricing_plan_id":"free"},{"bike_id":"59037b46-fcc4-47ce-a51b-b48ab6c25d5b","system_id":"levelo_inurba_marseille","lat":43.30473,"lon":5.37909,"is_reserved":false,"is_disabled":false,"rental_uris":{"android":"levelo://app?vid=59037b46-fcc4-47ce-a51b-b48ab6c25d5b","ios":"levelo://app?vid=59037b46-fcc4-47ce-a51b-b48ab6c25d5b"},"vehicle_type_id":"4","last_reported":1702969596,"current_range_meters":27600,"station_id":"ce4bgup2rcd13ifvqcn0","pricing_plan_id":"free"},{"bike_id":"44d478ea-cf8f-4760-ae04-af0dddea91f3","system_id":"levelo_inurba_marseille","lat":43.304606,"lon":5.379026,"is_reserved":false,"is_disabled":false,"rental_uris":{"android":"levelo://app?vid=44d478ea-cf8f-4760-ae04-af0dddea91f3","ios":"levelo://app?vid=44d478ea-cf8f-4760-ae04-af0dddea91f3"},"vehicle_type_id":"4","last_reported":1702969596,"current_range_meters":31600,"station_id":"ce4bgup2rcd13ifvqcn0","pricing_plan_id":"free"},{"bike_id":"efb942f9-d4ea-416d-986e-c4095efb5d0f","system_id":"levelo_inurba_marseille","lat":43.30471,"lon":5.37909,"is_reserved":false,"is_disabled":false,"rental_uris":{"android":"levelo://app?vid=efb942f9-d4ea-416d-986e-c4095efb5d0f","ios":"levelo://app?vid=efb942f9-d4ea-416d-986e-c4095efb5d0f"},"vehicle_type_id":"4","last_reported":1702969596,"current_range_meters":25200,"station_id":"ce4bgup2rcd13ifvqcn0","pricing_plan_id":"free"},{"bike_id":"cabf491f-e058-445b-ab42-e41c41306fd9","system_id":"levelo_inurba_marseille","lat":43.3047,"lon":5.3791,"is_reserved":false,"is_disabled":false,"rental_uris":{"android":"levelo://app?vid=cabf491f-e058-445b-ab42-e41c41306fd9","ios":"levelo://app?vid=cabf491f-e058-445b-ab42-e41c41306fd9"},"vehicle_type_id":"4","last_reported":1702969596,"current_range_meters":29200,"station_id":"ce4bgup2rcd13ifvqcn0","pricing_plan_id":"free"},{"bike_id":"658642f7-0353-4bab-8751-64b2c01987f3","system_id":"levelo_inurba_marseille","lat":43.304606,"lon":5.379026,"is_reserved":false,"is_disabled":false,"rental_uris":{"android":"levelo://app?vid=658642f7-0353-4bab-8751-64b2c01987f3","ios":"levelo://app?vid=658642f7-0353-4bab-8751-64b2c01987f3"},"vehicle_type_id":"4","last_reported":1702969596,"current_range_meters":25600,"station_id":"ce4bgup2rcd13ifvqcn0","pricing_plan_id":"free"},{"bike_id":"6cdda08a-7957-4e33-a252-513590f57fd0","system_id":"levelo_inurba_marseille","lat":43.304606,"lon":5.379026,"is_reserved":false,"is_disabled":false,"rental_uris":{"android":"levelo://app?vid=6cdda08a-7957-4e33-a252-513590f57fd0","ios":"levelo://app?vid=6cdda08a-7957-4e33-a252-513590f57fd0"},"vehicle_type_id":"4","last_reported":1702969596,"current_range_meters":13600,"station_id":"ce4bgup2rcd13ifvqcn0","pricing_plan_id":"free"},{"bike_id":"c6cb9eb7-49d3-4036-ba5d-ba9f1a001a60","system_id":"levelo_inurba_marseille","lat":43.304606,"lon":5.379026,"is_reserved":false,"is_disabled":false,"rental_uris":{"android":"levelo://app?vid=c6cb9eb7-49d3-4036-ba5d-ba9f1a001a60","ios":"levelo://app?vid=c6cb9eb7-49d3-4036-ba5d-ba9f1a001a60"},"vehicle_type_id":"4","last_reported":1702969596,"current_range_meters":29200,"station_id":"ce4bgup2rcd13ifvqcn0","pricing_plan_id":"free"},{"bike_id":"ca146743-008e-44df-a02e-f99b188aee30","system_id":"levelo_inurba_marseille","lat":43.30474,"lon":5.37918,"is_reserved":false,"is_disabled":false,"rental_uris":{"android":"levelo://app?vid=ca146743-008e-44df-a02e-f99b188aee30","ios":"levelo://app?vid=ca146743-008e-44df-a02e-f99b188aee30"},"vehicle_type_id":"4","last_reported":1702969596,"current_range_meters":28400,"station_id":"ce4bgup2rcd13ifvqcn0","pricing_plan_id":"free"},{"bike_id":"ab55a8e5-a5b3-4382-87e1-9a751e70e7cc","system_id":"levelo_inurba_marseille","lat":43.304606,"lon":5.379026,"is_reserved":false,"is_disabled":false,"rental_uris":{"android":"levelo://app?vid=ab55a8e5-a5b3-4382-87e1-9a751e70e7cc","ios":"levelo://app?vid=ab55a8e5-a5b3-4382-87e1-9a751e70e7cc"},"vehicle_type_id":"4","last_reported":1702969596,"current_range_meters":18400,"station_id":"ce4bgup2rcd13ifvqcn0","pricing_plan_id":"free"},{"bike_id":"9b77e5f6-f964-412d-8d4a-9813d1093ce5","system_id":"levelo_inurba_marseille","lat":43.304606,"lon":5.379026,"is_reserved":false,"is_disabled":false,"rental_uris":{"android":"levelo://app?vid=9b77e5f6-f964-412d-8d4a-9813d1093ce5","ios":"levelo://app?vid=9b77e5f6-f964-412d-8d4a-9813d1093ce5"},"vehicle_type_id":"4","last_reported":1702969596,"current_range_meters":28800,"station_id":"ce4bgup2rcd13ifvqcn0","pricing_plan_id":"free"},{"bike_id":"deeaa89b-a4c5-4194-b0ba-5f2e67f60487","system_id":"levelo_inurba_marseille","lat":43.30465,"lon":5.3791,"is_reserved":false,"is_disabled":false,"rental_uris":{"android":"levelo://app?vid=deeaa89b-a4c5-4194-b0ba-5f2e67f60487","ios":"levelo://app?vid=deeaa89b-a4c5-4194-b0ba-5f2e67f60487"},"vehicle_type_id":"4","last_reported":1702969596,"current_range_meters":24400,"station_id":"ce4bgup2rcd13ifvqcn0","pricing_plan_id":"free"},{"bike_id":"c9b01ed3-70ce-4aef-9a91-022c40a4b053","system_id":"levelo_inurba_marseille","lat":43.30462,"lon":5.37908,"is_reserved":false,"is_disabled":false,"rental_uris":{"android":"levelo://app?vid=c9b01ed3-70ce-4aef-9a91-022c40a4b053","ios":"levelo://app?vid=c9b01ed3-70ce-4aef-9a91-022c40a4b053"},"vehicle_type_id":"4","last_reported":1702969596,"current_range_meters":24400,"station_id":"ce4bgup2rcd13ifvqcn0","pricing_plan_id":"free"},{"bike_id":"7a982037-6bb6-47e7-8c19-ad619cffee83","system_id":"levelo_inurba_marseille","lat":43.304606,"lon":5.379026,"is_reserved":false,"is_disabled":false,"rental_uris":{"android":"levelo://app?vid=7a982037-6bb6-47e7-8c19-ad619cffee83","ios":"levelo://app?vid=7a982037-6bb6-47e7-8c19-ad619cffee83"},"vehicle_type_id":"4","last_reported":1702969596,"current_range_meters":9200,"station_id":"ce4bgup2rcd13ifvqcn0","pricing_plan_id":"free"},{"bike_id":"33f0b5e6-70ed-4e2e-a102-21e0d9571c2c","system_id":"levelo_inurba_marseille","lat":43.324771,"lon":5.36557,"is_reserved":false,"is_disabled":false,"rental_uris":{"android":"levelo://app?vid=33f0b5e6-70ed-4e2e-a102-21e0d9571c2c","ios":"levelo://app?vid=33f0b5e6-70ed-4e2e-a102-21e0d9571c2c"},"vehicle_type_id":"4","last_reported":1702969596,"current_range_meters":13200,"station_id":"ce4bhs12rcd13ifvqhvg","pricing_plan_id":"free"},{"bike_id":"cb1ab7b0-454f-4e79-aeaa-aa09727f169d","system_id":"levelo_inurba_marseille","lat":43.313571,"lon":5.384829,"is_reserved":false,"is_disabled":false,"rental_uris":{"android":"levelo://app?vid=cb1ab7b0-454f-4e79-aeaa-aa09727f169d","ios":"levelo://app?vid=cb1ab7b0-454f-4e79-aeaa-aa09727f169d"},"vehicle_type_id":"4","last_reported":1702969596,"current_range_meters":28400,"station_id":"ce4bgt92rcd13ifvqcf0","pricing_plan_id":"free"},{"bike_id":"7ec0740f-cf62-4cc4-bc5d-d6058314ad41","system_id":"levelo_inurba_marseille","lat":43.313575,"lon":5.385037,"is_reserved":false,"is_disabled":false,"rental_uris":{"android":"levelo://app?vid=7ec0740f-cf62-4cc4-bc5d-d6058314ad41","ios":"levelo://app?vid=7ec0740f-cf62-4cc4-bc5d-d6058314ad41"},"vehicle_type_id":"4","last_reported":1702969596,"current_range_meters":28800,"station_id":"ce4bgt92rcd13ifvqcf0","pricing_plan_id":"free"},{"bike_id":"669ddb67-1886-4082-82e0-1447ae68cc96","system_id":"levelo_inurba_marseille","lat":43.299222,"lon":5.365554,"is_reserved":false,"is_disabled":false,"rental_uris":{"android":"levelo://app?vid=669ddb67-1886-4082-82e0-1447ae68cc96","ios":"levelo://app?vid=669ddb67-1886-4082-82e0-1447ae68cc96"},"vehicle_type_id":"4","last_reported":1702969596,"current_range_meters":29200,"station_id":"ce4bgm92rcd13ifvqbr0","pricing_plan_id":"free"},{"bike_id":"7ab91979-2f66-4a05-90a2-9237a310cfce","system_id":"levelo_inurba_marseille","lat":43.299209,"lon":5.365547,"is_reserved":false,"is_disabled":false,"rental_uris":{"android":"levelo://app?vid=7ab91979-2f66-4a05-90a2-9237a310cfce","ios":"levelo://app?vid=7ab91979-2f66-4a05-90a2-9237a310cfce"},"vehicle_type_id":"4","last_reported":1702969596,"current_range_meters":23200,"station_id":"ce4bgm92rcd13ifvqbr0","pricing_plan_id":"free"},{"bike_id":"f1de1dda-0018-4aeb-b2ad-ade6079e69fe","system_id":"levelo_inurba_marseille","lat":43.30544,"lon":5.38415,"is_reserved":false,"is_disabled":false,"rental_uris":{"android":"levelo://app?vid=f1de1dda-0018-4aeb-b2ad-ade6079e69fe","ios":"levelo://app?vid=f1de1dda-0018-4aeb-b2ad-ade6079e69fe"},"vehicle_type_id":"4","last_reported":1702969596,"current_range_meters":29200,"station_id":"ce4bgg92rcd13ifvqb30","pricing_plan_id":"free"},{"bike_id":"dae279e1-a1ce-416e-8c71-dd3c7412a369","system_id":"levelo_inurba_marseille","lat":43.305364,"lon":5.384119,"is_reserved":false,"is_disabled":false,"rental_uris":{"android":"levelo://app?vid=dae279e1-a1ce-416e-8c71-dd3c7412a369","ios":"levelo://app?vid=dae279e1-a1ce-416e-8c71-dd3c7412a369"},"vehicle_type_id":"4","last_reported":1702969596,"current_range_meters":23600,"station_id":"ce4bgg92rcd13ifvqb30","pricing_plan_id":"free"},{"bike_id":"8c547439-d2e4-4f6b-8b52-e0686b9e55a1","system_id":"levelo_inurba_marseille","lat":43.30538,"lon":5.38426,"is_reserved":false,"is_disabled":false,"rental_uris":{"android":"levelo://app?vid=8c547439-d2e4-4f6b-8b52-e0686b9e55a1","ios":"levelo://app?vid=8c547439-d2e4-4f6b-8b52-e0686b9e55a1"},"vehicle_type_id":"4","last_reported":1702969596,"current_range_meters":26000,"station_id":"ce4bgg92rcd13ifvqb30","pricing_plan_id":"free"},{"bike_id":"ca0834b0-077b-48e5-8d61-d563b65c06e3","system_id":"levelo_inurba_marseille","lat":43.305434,"lon":5.384359,"is_reserved":false,"is_disabled":false,"rental_uris":{"android":"levelo://app?vid=ca0834b0-077b-48e5-8d61-d563b65c06e3","ios":"levelo://app?vid=ca0834b0-077b-48e5-8d61-d563b65c06e3"},"vehicle_type_id":"4","last_reported":1702969596,"current_range_meters":4400,"station_id":"ce4bgg92rcd13ifvqb30","pricing_plan_id":"free"},{"bike_id":"64388d2f-4799-45f6-8d2c-a5b4651f7c8b","system_id":"levelo_inurba_marseille","lat":43.297794,"lon":5.370888,"is_reserved":false,"is_disabled":false,"rental_uris":{"android":"levelo://app?vid=64388d2f-4799-45f6-8d2c-a5b4651f7c8b","ios":"levelo://app?vid=64388d2f-4799-45f6-8d2c-a5b4651f7c8b"},"vehicle_type_id":"4","last_reported":1702969596,"current_range_meters":21200,"station_id":"ce4bgop2rcd13ifvqc1g","pricing_plan_id":"free"},{"bike_id":"ee5c0e2c-4f04-481f-838e-b1ede6632684","system_id":"levelo_inurba_marseille","lat":43.297783,"lon":5.371167,"is_reserved":false,"is_disabled":false,"rental_uris":{"android":"levelo://app?vid=ee5c0e2c-4f04-481f-838e-b1ede6632684","ios":"levelo://app?vid=ee5c0e2c-4f04-481f-838e-b1ede6632684"},"vehicle_type_id":"4","last_reported":1702969596,"current_range_meters":28400,"station_id":"ce4bgop2rcd13ifvqc1g","pricing_plan_id":"free"},{"bike_id":"e634940c-1ae4-4771-a219-f87b156a8c65","system_id":"levelo_inurba_marseille","lat":43.322872,"lon":5.382756,"is_reserved":false,"is_disabled":false,"rental_uris":{"android":"levelo://app?vid=e634940c-1ae4-4771-a219-f87b156a8c65","ios":"levelo://app?vid=e634940c-1ae4-4771-a219-f87b156a8c65"},"vehicle_type_id":"4","last_reported":1702969596,"current_range_meters":22000,"station_id":"ce4bhr12rcd13ifvqhqg","pricing_plan_id":"free"},{"bike_id":"bdcd694d-0746-4772-a7e2-19b26a64793f","system_id":"levelo_inurba_marseille","lat":43.328371,"lon":5.366909,"is_reserved":false,"is_disabled":false,"rental_uris":{"android":"levelo://app?vid=bdcd694d-0746-4772-a7e2-19b26a64793f","ios":"levelo://app?vid=bdcd694d-0746-4772-a7e2-19b26a64793f"},"vehicle_type_id":"4","last_reported":1702969596,"current_range_meters":21200,"station_id":"ce4bhs92rcd13ifvqi0g","pricing_plan_id":"free"},{"bike_id":"d83fbae2-5f8f-42f4-8ccf-5b712fffb999","system_id":"levelo_inurba_marseille","lat":43.328371,"lon":5.366909,"is_reserved":false,"is_disabled":false,"rental_uris":{"android":"levelo://app?vid=d83fbae2-5f8f-42f4-8ccf-5b712fffb999","ios":"levelo://app?vid=d83fbae2-5f8f-42f4-8ccf-5b712fffb999"},"vehicle_type_id":"4","last_reported":1702969596,"current_range_meters":28000,"station_id":"ce4bhs92rcd13ifvqi0g","pricing_plan_id":"free"},{"bike_id":"40554fe8-87bf-41d5-b75a-7fd0e2ec929c","system_id":"levelo_inurba_marseille","lat":43.317536,"lon":5.390224,"is_reserved":false,"is_disabled":false,"rental_uris":{"android":"levelo://app?vid=40554fe8-87bf-41d5-b75a-7fd0e2ec929c","ios":"levelo://app?vid=40554fe8-87bf-41d5-b75a-7fd0e2ec929c"},"vehicle_type_id":"4","last_reported":1702969596,"current_range_meters":30800,"station_id":"ce4bhqp2rcd13ifvqhng","pricing_plan_id":"free"},{"bike_id":"91d7f487-83c8-4377-8e10-45256bb9d156","system_id":"levelo_inurba_marseille","lat":43.29814,"lon":5.38106,"is_reserved":false,"is_disabled":false,"rental_uris":{"android":"levelo://app?vid=91d7f487-83c8-4377-8e10-45256bb9d156","ios":"levelo://app?vid=91d7f487-83c8-4377-8e10-45256bb9d156"},"vehicle_type_id":"4","last_reported":1702969596,"current_range_meters":30400,"station_id":"ce4bgip2rcd13ifvqbb0","pricing_plan_id":"free"},{"bike_id":"80de899d-44e5-4816-b6ac-aba3e450790f","system_id":"levelo_inurba_marseille","lat":43.2981,"lon":5.381,"is_reserved":false,"is_disabled":false,"rental_uris":{"android":"levelo://app?vid=80de899d-44e5-4816-b6ac-aba3e450790f","ios":"levelo://app?vid=80de899d-44e5-4816-b6ac-aba3e450790f"},"vehicle_type_id":"4","last_reported":1702969596,"current_range_meters":18800,"station_id":"ce4bgip2rcd13ifvqbb0","pricing_plan_id":"free"},{"bike_id":"a6086d05-941f-45be-972d-43a5272f795c","system_id":"levelo_inurba_marseille","lat":43.29807,"lon":5.38111,"is_reserved":false,"is_disabled":false,"rental_uris":{"android":"levelo://app?vid=a6086d05-941f-45be-972d-43a5272f795c","ios":"levelo://app?vid=a6086d05-941f-45be-972d-43a5272f795c"},"vehicle_type_id":"4","last_reported":1702969596,"current_range_meters":29200,"station_id":"ce4bgip2rcd13ifvqbb0","pricing_plan_id":"free"},{"bike_id":"027f642c-cab5-42d0-9951-095228f3d0c4","system_id":"levelo_inurba_marseille","lat":43.29786,"lon":5.38113,"is_reserved":false,"is_disabled":false,"rental_uris":{"android":"levelo://app?vid=027f642c-cab5-42d0-9951-095228f3d0c4","ios":"levelo://app?vid=027f642c-cab5-42d0-9951-095228f3d0c4"},"vehicle_type_id":"4","last_reported":1702969596,"current_range_meters":12800,"station_id":"","pricing_plan_id":"free"},{"bike_id":"8fecf37b-21b4-4076-8d4d-efb524ae6261","system_id":"levelo_inurba_marseille","lat":43.296425,"lon":5.37791,"is_reserved":false,"is_disabled":false,"rental_uris":{"android":"levelo://app?vid=8fecf37b-21b4-4076-8d4d-efb524ae6261","ios":"levelo://app?vid=8fecf37b-21b4-4076-8d4d-efb524ae6261"},"vehicle_type_id":"4","last_reported":1702969596,"current_range_meters":23200,"station_id":"","pricing_plan_id":"free"},{"bike_id":"c0d6ac87-c0b6-4ffc-8bb5-38d22470252d","system_id":"levelo_inurba_marseille","lat":43.296263,"lon":5.377094,"is_reserved":false,"is_disabled":false,"rental_uris":{"android":"levelo://app?vid=c0d6ac87-c0b6-4ffc-8bb5-38d22470252d","ios":"levelo://app?vid=c0d6ac87-c0b6-4ffc-8bb5-38d22470252d"},"vehicle_type_id":"4","last_reported":1702969596,"current_range_meters":29200,"station_id":"ce4bgi92rcd13ifvqb90","pricing_plan_id":"free"},{"bike_id":"d50180b6-c1ab-48a8-b7a9-25e57d1ad3d0","system_id":"levelo_inurba_marseille","lat":43.299724,"lon":5.384848,"is_reserved":false,"is_disabled":false,"rental_uris":{"android":"levelo://app?vid=d50180b6-c1ab-48a8-b7a9-25e57d1ad3d0","ios":"levelo://app?vid=d50180b6-c1ab-48a8-b7a9-25e57d1ad3d0"},"vehicle_type_id":"4","last_reported":1702969596,"current_range_meters":29600,"station_id":"ce4bgj92rcd13ifvqbd0","pricing_plan_id":"free"},{"bike_id":"24494088-4271-40e3-b304-08222d494acf","system_id":"levelo_inurba_marseille","lat":43.30209,"lon":5.38862,"is_reserved":false,"is_disabled":false,"rental_uris":{"android":"levelo://app?vid=24494088-4271-40e3-b304-08222d494acf","ios":"levelo://app?vid=24494088-4271-40e3-b304-08222d494acf"},"vehicle_type_id":"4","last_reported":1702969596,"current_range_meters":26000,"station_id":"","pricing_plan_id":"free"},{"bike_id":"854ef04e-92c2-4da6-a4e1-6c66bde6d5c4","system_id":"levelo_inurba_marseille","lat":43.29602,"lon":5.381084,"is_reserved":false,"is_disabled":false,"rental_uris":{"android":"levelo://app?vid=854ef04e-92c2-4da6-a4e1-6c66bde6d5c4","ios":"levelo://app?vid=854ef04e-92c2-4da6-a4e1-6c66bde6d5c4"},"vehicle_type_id":"4","last_reported":1702969596,"current_range_meters":20800,"station_id":"ce4bgl12rcd13ifvqbo0","pricing_plan_id":"free"},{"bike_id":"fa687276-c119-4920-a684-a28c28aff065","system_id":"levelo_inurba_marseille","lat":43.292749,"lon":5.368402,"is_reserved":false,"is_disabled":false,"rental_uris":{"android":"levelo://app?vid=fa687276-c119-4920-a684-a28c28aff065","ios":"levelo://app?vid=fa687276-c119-4920-a684-a28c28aff065"},"vehicle_type_id":"4","last_reported":1702969596,"current_range_meters":30000,"station_id":"ce4bhbp2rcd13ifvqesg","pricing_plan_id":"free"},{"bike_id":"bed66e00-4675-452c-9e22-122136506b4d","system_id":"levelo_inurba_marseille","lat":43.305994,"lon":5.393687,"is_reserved":false,"is_disabled":false,"rental_uris":{"android":"levelo://app?vid=bed66e00-4675-452c-9e22-122136506b4d","ios":"levelo://app?vid=bed66e00-4675-452c-9e22-122136506b4d"},"vehicle_type_id":"4","last_reported":1702969596,"current_range_meters":24800,"station_id":"ce4bh0p2rcd13ifvqd80","pricing_plan_id":"free"},{"bike_id":"a1751dd0-d80e-49d2-bd00-9d9f48c2f379","system_id":"levelo_inurba_marseille","lat":43.305994,"lon":5.393687,"is_reserved":false,"is_disabled":false,"rental_uris":{"android":"levelo://app?vid=a1751dd0-d80e-49d2-bd00-9d9f48c2f379","ios":"levelo://app?vid=a1751dd0-d80e-49d2-bd00-9d9f48c2f379"},"vehicle_type_id":"4","last_reported":1702969596,"current_range_meters":30800,"station_id":"ce4bh0p2rcd13ifvqd80","pricing_plan_id":"free"},{"bike_id":"b726198a-fecb-43f1-b50a-354184c7f1bf","system_id":"levelo_inurba_marseille","lat":43.305994,"lon":5.393687,"is_reserved":false,"is_disabled":false,"rental_uris":{"android":"levelo://app?vid=b726198a-fecb-43f1-b50a-354184c7f1bf","ios":"levelo://app?vid=b726198a-fecb-43f1-b50a-354184c7f1bf"},"vehicle_type_id":"4","last_reported":1702969596,"current_range_meters":26000,"station_id":"ce4bh0p2rcd13ifvqd80","pricing_plan_id":"free"},{"bike_id":"d93c6f6d-f49e-481f-8e63-51e083536d5b","system_id":"levelo_inurba_marseille","lat":43.305994,"lon":5.393687,"is_reserved":false,"is_disabled":false,"rental_uris":{"android":"levelo://app?vid=d93c6f6d-f49e-481f-8e63-51e083536d5b","ios":"levelo://app?vid=d93c6f6d-f49e-481f-8e63-51e083536d5b"},"vehicle_type_id":"4","last_reported":1702969596,"current_range_meters":20400,"station_id":"ce4bh0p2rcd13ifvqd80","pricing_plan_id":"free"},{"bike_id":"21409adf-0415-4a27-b794-66e31e72438a","system_id":"levelo_inurba_marseille","lat":43.305994,"lon":5.393687,"is_reserved":false,"is_disabled":false,"rental_uris":{"android":"levelo://app?vid=21409adf-0415-4a27-b794-66e31e72438a","ios":"levelo://app?vid=21409adf-0415-4a27-b794-66e31e72438a"},"vehicle_type_id":"4","last_reported":1702969596,"current_range_meters":28800,"station_id":"ce4bh0p2rcd13ifvqd80","pricing_plan_id":"free"},{"bike_id":"926d98c7-314c-4e21-8811-1754f186711a","system_id":"levelo_inurba_marseille","lat":43.305994,"lon":5.393687,"is_reserved":false,"is_disabled":false,"rental_uris":{"android":"levelo://app?vid=926d98c7-314c-4e21-8811-1754f186711a","ios":"levelo://app?vid=926d98c7-314c-4e21-8811-1754f186711a"},"vehicle_type_id":"4","last_reported":1702969596,"current_range_meters":29200,"station_id":"ce4bh0p2rcd13ifvqd80","pricing_plan_id":"free"},{"bike_id":"ecfd2f48-7acc-4d77-ad08-fc6f79abe33e","system_id":"levelo_inurba_marseille","lat":43.305994,"lon":5.393687,"is_reserved":false,"is_disabled":false,"rental_uris":{"android":"levelo://app?vid=ecfd2f48-7acc-4d77-ad08-fc6f79abe33e","ios":"levelo://app?vid=ecfd2f48-7acc-4d77-ad08-fc6f79abe33e"},"vehicle_type_id":"4","last_reported":1702969596,"current_range_meters":27600,"station_id":"ce4bh0p2rcd13ifvqd80","pricing_plan_id":"free"},{"bike_id":"833357d9-8197-44d4-aabf-1559a92d7a0a","system_id":"levelo_inurba_marseille","lat":43.305994,"lon":5.393687,"is_reserved":false,"is_disabled":false,"rental_uris":{"android":"levelo://app?vid=833357d9-8197-44d4-aabf-1559a92d7a0a","ios":"levelo://app?vid=833357d9-8197-44d4-aabf-1559a92d7a0a"},"vehicle_type_id":"4","last_reported":1702969596,"current_range_meters":28400,"station_id":"ce4bh0p2rcd13ifvqd80","pricing_plan_id":"free"},{"bike_id":"71f59629-6aa3-4621-a836-93c1bba93a51","system_id":"levelo_inurba_marseille","lat":43.292311,"lon":5.360731,"is_reserved":false,"is_disabled":false,"rental_uris":{"android":"levelo://app?vid=71f59629-6aa3-4621-a836-93c1bba93a51","ios":"levelo://app?vid=71f59629-6aa3-4621-a836-93c1bba93a51"},"vehicle_type_id":"4","last_reported":1702969596,"current_range_meters":28800,"station_id":"ce4bhbh2rcd13ifvqeqg","pricing_plan_id":"free"},{"bike_id":"c5f90cbd-bca6-44b3-b13f-9dc5ec32e846","system_id":"levelo_inurba_marseille","lat":43.292311,"lon":5.360731,"is_reserved":false,"is_disabled":false,"rental_uris":{"android":"levelo://app?vid=c5f90cbd-bca6-44b3-b13f-9dc5ec32e846","ios":"levelo://app?vid=c5f90cbd-bca6-44b3-b13f-9dc5ec32e846"},"vehicle_type_id":"4","last_reported":1702969596,"current_range_meters":26800,"station_id":"ce4bhbh2rcd13ifvqeqg","pricing_plan_id":"free"},{"bike_id":"c6c2e409-89ef-45ee-a14f-3a31d87f8c47","system_id":"levelo_inurba_marseille","lat":43.300961,"lon":5.390836,"is_reserved":false,"is_disabled":false,"rental_uris":{"android":"levelo://app?vid=c6c2e409-89ef-45ee-a14f-3a31d87f8c47","ios":"levelo://app?vid=c6c2e409-89ef-45ee-a14f-3a31d87f8c47"},"vehicle_type_id":"4","last_reported":1702969596,"current_range_meters":29600,"station_id":"","pricing_plan_id":"free"},{"bike_id":"9a85ffe9-4149-40e4-8ed0-a7b363cb0c9e","system_id":"levelo_inurba_marseille","lat":43.291671,"lon":5.371575,"is_reserved":false,"is_disabled":false,"rental_uris":{"android":"levelo://app?vid=9a85ffe9-4149-40e4-8ed0-a7b363cb0c9e","ios":"levelo://app?vid=9a85ffe9-4149-40e4-8ed0-a7b363cb0c9e"},"vehicle_type_id":"4","last_reported":1702969596,"current_range_meters":27200,"station_id":"ce4bha92rcd13ifvqeh0","pricing_plan_id":"free"},{"bike_id":"6d14a338-9ae1-4c0a-bd30-a52e88af75e6","system_id":"levelo_inurba_marseille","lat":43.291675,"lon":5.371583,"is_reserved":false,"is_disabled":false,"rental_uris":{"android":"levelo://app?vid=6d14a338-9ae1-4c0a-bd30-a52e88af75e6","ios":"levelo://app?vid=6d14a338-9ae1-4c0a-bd30-a52e88af75e6"},"vehicle_type_id":"4","last_reported":1702969596,"current_range_meters":16800,"station_id":"ce4bha92rcd13ifvqeh0","pricing_plan_id":"free"},{"bike_id":"2c4aff21-ec77-4fa1-a3c6-e8a1929404c6","system_id":"levelo_inurba_marseille","lat":43.291675,"lon":5.371583,"is_reserved":false,"is_disabled":false,"rental_uris":{"android":"levelo://app?vid=2c4aff21-ec77-4fa1-a3c6-e8a1929404c6","ios":"levelo://app?vid=2c4aff21-ec77-4fa1-a3c6-e8a1929404c6"},"vehicle_type_id":"4","last_reported":1702969596,"current_range_meters":15600,"station_id":"ce4bha92rcd13ifvqeh0","pricing_plan_id":"free"},{"bike_id":"603b5dd0-cde7-4529-9ff2-09fab299f6c5","system_id":"levelo_inurba_marseille","lat":43.291994,"lon":5.357886,"is_reserved":false,"is_disabled":false,"rental_uris":{"android":"levelo://app?vid=603b5dd0-cde7-4529-9ff2-09fab299f6c5","ios":"levelo://app?vid=603b5dd0-cde7-4529-9ff2-09fab299f6c5"},"vehicle_type_id":"4","last_reported":1702969596,"current_range_meters":17600,"station_id":"ce4bhb12rcd13ifvqel0","pricing_plan_id":"free"},{"bike_id":"f5382ae6-08f8-4653-8a5e-ec32bf4ce7e3","system_id":"levelo_inurba_marseille","lat":43.313281,"lon":5.397014,"is_reserved":false,"is_disabled":false,"rental_uris":{"android":"levelo://app?vid=f5382ae6-08f8-4653-8a5e-ec32bf4ce7e3","ios":"levelo://app?vid=f5382ae6-08f8-4653-8a5e-ec32bf4ce7e3"},"vehicle_type_id":"4","last_reported":1702969596,"current_range_meters":29600,"station_id":"ce4bgvp2rcd13ifvqcu0","pricing_plan_id":"free"},{"bike_id":"f0557f32-760b-4270-9df7-f3ba968f6773","system_id":"levelo_inurba_marseille","lat":43.290624,"lon":5.359245,"is_reserved":false,"is_disabled":false,"rental_uris":{"android":"levelo://app?vid=f0557f32-760b-4270-9df7-f3ba968f6773","ios":"levelo://app?vid=f0557f32-760b-4270-9df7-f3ba968f6773"},"vehicle_type_id":"4","last_reported":1702969596,"current_range_meters":17600,"station_id":"ce4bha92rcd13ifvqeg0","pricing_plan_id":"free"},{"bike_id":"5c112b1f-68e9-4690-ba23-1e0d2caa2e15","system_id":"levelo_inurba_marseille","lat":43.302008,"lon":5.394694,"is_reserved":false,"is_disabled":false,"rental_uris":{"android":"levelo://app?vid=5c112b1f-68e9-4690-ba23-1e0d2caa2e15","ios":"levelo://app?vid=5c112b1f-68e9-4690-ba23-1e0d2caa2e15"},"vehicle_type_id":"4","last_reported":1702969596,"current_range_meters":17600,"station_id":"ce4bh0p2rcd13ifvqd70","pricing_plan_id":"free"},{"bike_id":"52d10a58-0132-495c-854a-8a770d15e85d","system_id":"levelo_inurba_marseille","lat":43.302008,"lon":5.394694,"is_reserved":false,"is_disabled":false,"rental_uris":{"android":"levelo://app?vid=52d10a58-0132-495c-854a-8a770d15e85d","ios":"levelo://app?vid=52d10a58-0132-495c-854a-8a770d15e85d"},"vehicle_type_id":"4","last_reported":1702969596,"current_range_meters":29600,"station_id":"ce4bh0p2rcd13ifvqd70","pricing_plan_id":"free"},{"bike_id":"b530734e-5d2b-47d9-9875-64904de70054","system_id":"levelo_inurba_marseille","lat":43.290631,"lon":5.359244,"is_reserved":false,"is_disabled":false,"rental_uris":{"android":"levelo://app?vid=b530734e-5d2b-47d9-9875-64904de70054","ios":"levelo://app?vid=b530734e-5d2b-47d9-9875-64904de70054"},"vehicle_type_id":"4","last_reported":1702969596,"current_range_meters":26000,"station_id":"ce4bha92rcd13ifvqeg0","pricing_plan_id":"free"},{"bike_id":"6e3f145f-5dce-46dc-90e6-fbd99e7fb5de","system_id":"levelo_inurba_marseille","lat":43.290631,"lon":5.359244,"is_reserved":false,"is_disabled":false,"rental_uris":{"android":"levelo://app?vid=6e3f145f-5dce-46dc-90e6-fbd99e7fb5de","ios":"levelo://app?vid=6e3f145f-5dce-46dc-90e6-fbd99e7fb5de"},"vehicle_type_id":"4","last_reported":1702969596,"current_range_meters":24800,"station_id":"ce4bha92rcd13ifvqeg0","pricing_plan_id":"free"},{"bike_id":"a5a86a09-d1cd-4ad1-b7e5-c2c08ab6e79c","system_id":"levelo_inurba_marseille","lat":43.289184,"lon":5.366408,"is_reserved":false,"is_disabled":false,"rental_uris":{"android":"levelo://app?vid=a5a86a09-d1cd-4ad1-b7e5-c2c08ab6e79c","ios":"levelo://app?vid=a5a86a09-d1cd-4ad1-b7e5-c2c08ab6e79c"},"vehicle_type_id":"4","last_reported":1702969596,"current_range_meters":24800,"station_id":"ce4bhap2rcd13ifvqek0","pricing_plan_id":"free"},{"bike_id":"3b11c80e-9e64-4da4-aed4-6a227c0f6e72","system_id":"levelo_inurba_marseille","lat":43.289468,"lon":5.363719,"is_reserved":false,"is_disabled":false,"rental_uris":{"android":"levelo://app?vid=3b11c80e-9e64-4da4-aed4-6a227c0f6e72","ios":"levelo://app?vid=3b11c80e-9e64-4da4-aed4-6a227c0f6e72"},"vehicle_type_id":"4","last_reported":1702969596,"current_range_meters":23200,"station_id":"ce4bhc92rcd13ifvqetg","pricing_plan_id":"free"},{"bike_id":"6e295b55-0088-4eea-925f-be9ac705546b","system_id":"levelo_inurba_marseille","lat":43.289184,"lon":5.366408,"is_reserved":false,"is_disabled":false,"rental_uris":{"android":"levelo://app?vid=6e295b55-0088-4eea-925f-be9ac705546b","ios":"levelo://app?vid=6e295b55-0088-4eea-925f-be9ac705546b"},"vehicle_type_id":"4","last_reported":1702969596,"current_range_meters":23200,"station_id":"ce4bhap2rcd13ifvqek0","pricing_plan_id":"free"},{"bike_id":"c6de1a14-aa95-4194-b630-bf2e59be4022","system_id":"levelo_inurba_marseille","lat":43.289184,"lon":5.366408,"is_reserved":false,"is_disabled":false,"rental_uris":{"android":"levelo://app?vid=c6de1a14-aa95-4194-b630-bf2e59be4022","ios":"levelo://app?vid=c6de1a14-aa95-4194-b630-bf2e59be4022"},"vehicle_type_id":"4","last_reported":1702969596,"current_range_meters":21200,"station_id":"ce4bhap2rcd13ifvqek0","pricing_plan_id":"free"},{"bike_id":"cb910b51-4e5c-4b5d-8fbb-fe95dceea582","system_id":"levelo_inurba_marseille","lat":43.289184,"lon":5.366408,"is_reserved":false,"is_disabled":false,"rental_uris":{"android":"levelo://app?vid=cb910b51-4e5c-4b5d-8fbb-fe95dceea582","ios":"levelo://app?vid=cb910b51-4e5c-4b5d-8fbb-fe95dceea582"},"vehicle_type_id":"4","last_reported":1702969596,"current_range_meters":22800,"station_id":"ce4bhap2rcd13ifvqek0","pricing_plan_id":"free"},{"bike_id":"fcd6e49e-f1f9-437c-9ae5-84aab9c07a1b","system_id":"levelo_inurba_marseille","lat":43.289468,"lon":5.363719,"is_reserved":false,"is_disabled":false,"rental_uris":{"android":"levelo://app?vid=fcd6e49e-f1f9-437c-9ae5-84aab9c07a1b","ios":"levelo://app?vid=fcd6e49e-f1f9-437c-9ae5-84aab9c07a1b"},"vehicle_type_id":"4","last_reported":1702969596,"current_range_meters":18400,"station_id":"ce4bhc92rcd13ifvqetg","pricing_plan_id":"free"},{"bike_id":"8493974a-3fa1-4c20-9619-e1d5bd731f5a","system_id":"levelo_inurba_marseille","lat":43.292642,"lon":5.384254,"is_reserved":false,"is_disabled":false,"rental_uris":{"android":"levelo://app?vid=8493974a-3fa1-4c20-9619-e1d5bd731f5a","ios":"levelo://app?vid=8493974a-3fa1-4c20-9619-e1d5bd731f5a"},"vehicle_type_id":"4","last_reported":1702969596,"current_range_meters":24000,"station_id":"ce4bh692rcd13ifvqea0","pricing_plan_id":"free"},{"bike_id":"9e9779bc-89b0-4f14-958f-f2fe490ca400","system_id":"levelo_inurba_marseille","lat":43.292644,"lon":5.384257,"is_reserved":false,"is_disabled":false,"rental_uris":{"android":"levelo://app?vid=9e9779bc-89b0-4f14-958f-f2fe490ca400","ios":"levelo://app?vid=9e9779bc-89b0-4f14-958f-f2fe490ca400"},"vehicle_type_id":"4","last_reported":1702969596,"current_range_meters":26400,"station_id":"ce4bh692rcd13ifvqea0","pricing_plan_id":"free"},{"bike_id":"65ffdd0f-c51c-409e-8447-8af22222a32b","system_id":"levelo_inurba_marseille","lat":43.30425,"lon":5.39756,"is_reserved":false,"is_disabled":false,"rental_uris":{"android":"levelo://app?vid=65ffdd0f-c51c-409e-8447-8af22222a32b","ios":"levelo://app?vid=65ffdd0f-c51c-409e-8447-8af22222a32b"},"vehicle_type_id":"4","last_reported":1702969596,"current_range_meters":27200,"station_id":"ce4bh092rcd13ifvqd20","pricing_plan_id":"free"},{"bike_id":"69e65f6b-55ee-4e95-8d31-592fae03949d","system_id":"levelo_inurba_marseille","lat":43.290104,"lon":5.356111,"is_reserved":false,"is_disabled":false,"rental_uris":{"android":"levelo://app?vid=69e65f6b-55ee-4e95-8d31-592fae03949d","ios":"levelo://app?vid=69e65f6b-55ee-4e95-8d31-592fae03949d"},"vehicle_type_id":"4","last_reported":1702969596,"current_range_meters":15600,"station_id":"ce4bhb92rcd13ifvqen0","pricing_plan_id":"free"},{"bike_id":"5d5921d7-f487-44a5-aab9-c27738199fa5","system_id":"levelo_inurba_marseille","lat":43.330442,"lon":5.389148,"is_reserved":false,"is_disabled":false,"rental_uris":{"android":"levelo://app?vid=5d5921d7-f487-44a5-aab9-c27738199fa5","ios":"levelo://app?vid=5d5921d7-f487-44a5-aab9-c27738199fa5"},"vehicle_type_id":"4","last_reported":1702969596,"current_range_meters":30400,"station_id":"ce4bhr92rcd13ifvqhrg","pricing_plan_id":"free"},{"bike_id":"1b9fc5bf-3def-4ca2-9a00-9b46359290e7","system_id":"levelo_inurba_marseille","lat":43.330442,"lon":5.389148,"is_reserved":false,"is_disabled":false,"rental_uris":{"android":"levelo://app?vid=1b9fc5bf-3def-4ca2-9a00-9b46359290e7","ios":"levelo://app?vid=1b9fc5bf-3def-4ca2-9a00-9b46359290e7"},"vehicle_type_id":"4","last_reported":1702969596,"current_range_meters":30800,"station_id":"ce4bhr92rcd13ifvqhrg","pricing_plan_id":"free"},{"bike_id":"fb541042-ca34-42cc-9403-1629f61ffdf5","system_id":"levelo_inurba_marseille","lat":43.330442,"lon":5.389148,"is_reserved":false,"is_disabled":false,"rental_uris":{"android":"levelo://app?vid=fb541042-ca34-42cc-9403-1629f61ffdf5","ios":"levelo://app?vid=fb541042-ca34-42cc-9403-1629f61ffdf5"},"vehicle_type_id":"4","last_reported":1702969596,"current_range_meters":31200,"station_id":"ce4bhr92rcd13ifvqhrg","pricing_plan_id":"free"},{"bike_id":"7269fc81-2794-4e90-abe7-3469bc2c2ea4","system_id":"levelo_inurba_marseille","lat":43.330442,"lon":5.389148,"is_reserved":false,"is_disabled":false,"rental_uris":{"android":"levelo://app?vid=7269fc81-2794-4e90-abe7-3469bc2c2ea4","ios":"levelo://app?vid=7269fc81-2794-4e90-abe7-3469bc2c2ea4"},"vehicle_type_id":"4","last_reported":1702969596,"current_range_meters":25600,"station_id":"ce4bhr92rcd13ifvqhrg","pricing_plan_id":"free"},{"bike_id":"a511e3f4-2a34-40bd-8502-fc720705ef07","system_id":"levelo_inurba_marseille","lat":43.290995,"lon":5.381361,"is_reserved":false,"is_disabled":false,"rental_uris":{"android":"levelo://app?vid=a511e3f4-2a34-40bd-8502-fc720705ef07","ios":"levelo://app?vid=a511e3f4-2a34-40bd-8502-fc720705ef07"},"vehicle_type_id":"4","last_reported":1702969596,"current_range_meters":23200,"station_id":"ce4bh512rcd13ifvqe2g","pricing_plan_id":"free"},{"bike_id":"01ec7629-3ae6-4241-bdd2-421f087a3c8c","system_id":"levelo_inurba_marseille","lat":43.290995,"lon":5.381361,"is_reserved":false,"is_disabled":false,"rental_uris":{"android":"levelo://app?vid=01ec7629-3ae6-4241-bdd2-421f087a3c8c","ios":"levelo://app?vid=01ec7629-3ae6-4241-bdd2-421f087a3c8c"},"vehicle_type_id":"4","last_reported":1702969596,"current_range_meters":27600,"station_id":"ce4bh512rcd13ifvqe2g","pricing_plan_id":"free"},{"bike_id":"3840976d-e6d6-4907-afe7-241c49e6eb07","system_id":"levelo_inurba_marseille","lat":43.289743,"lon":5.378304,"is_reserved":false,"is_disabled":false,"rental_uris":{"android":"levelo://app?vid=3840976d-e6d6-4907-afe7-241c49e6eb07","ios":"levelo://app?vid=3840976d-e6d6-4907-afe7-241c49e6eb07"},"vehicle_type_id":"4","last_reported":1702969596,"current_range_meters":19600,"station_id":"ce4bh9p2rcd13ifvqed0","pricing_plan_id":"free"},{"bike_id":"0e3c31bd-118f-4368-82b3-4cdd6f6f3853","system_id":"levelo_inurba_marseille","lat":43.29526,"lon":5.39042,"is_reserved":false,"is_disabled":false,"rental_uris":{"android":"levelo://app?vid=0e3c31bd-118f-4368-82b3-4cdd6f6f3853","ios":"levelo://app?vid=0e3c31bd-118f-4368-82b3-4cdd6f6f3853"},"vehicle_type_id":"4","last_reported":1702969596,"current_range_meters":29600,"station_id":"ce4bh3p2rcd13ifvqdp0","pricing_plan_id":"free"},{"bike_id":"09d9e639-464e-4fbb-a91f-932a8aabef19","system_id":"levelo_inurba_marseille","lat":43.28856,"lon":5.358371,"is_reserved":false,"is_disabled":false,"rental_uris":{"android":"levelo://app?vid=09d9e639-464e-4fbb-a91f-932a8aabef19","ios":"levelo://app?vid=09d9e639-464e-4fbb-a91f-932a8aabef19"},"vehicle_type_id":"4","last_reported":1702969596,"current_range_meters":4400,"station_id":"ce4bhb12rcd13ifvqem0","pricing_plan_id":"free"},{"bike_id":"1f42d9b8-b7e5-4d9e-a6db-34b91c387762","system_id":"levelo_inurba_marseille","lat":43.28856,"lon":5.358371,"is_reserved":false,"is_disabled":false,"rental_uris":{"android":"levelo://app?vid=1f42d9b8-b7e5-4d9e-a6db-34b91c387762","ios":"levelo://app?vid=1f42d9b8-b7e5-4d9e-a6db-34b91c387762"},"vehicle_type_id":"4","last_reported":1702969596,"current_range_meters":20400,"station_id":"ce4bhb12rcd13ifvqem0","pricing_plan_id":"free"},{"bike_id":"e15613d9-6773-401d-b1b2-9f87c9cf287e","system_id":"levelo_inurba_marseille","lat":43.337458,"lon":5.374563,"is_reserved":false,"is_disabled":false,"rental_uris":{"android":"levelo://app?vid=e15613d9-6773-401d-b1b2-9f87c9cf287e","ios":"levelo://app?vid=e15613d9-6773-401d-b1b2-9f87c9cf287e"},"vehicle_type_id":"4","last_reported":1702969596,"current_range_meters":26400,"station_id":"","pricing_plan_id":"free"},{"bike_id":"fb94f0fe-9ca1-4784-a022-987a7ebabd5d","system_id":"levelo_inurba_marseille","lat":43.309371,"lon":5.401449,"is_reserved":false,"is_disabled":false,"rental_uris":{"android":"levelo://app?vid=fb94f0fe-9ca1-4784-a022-987a7ebabd5d","ios":"levelo://app?vid=fb94f0fe-9ca1-4784-a022-987a7ebabd5d"},"vehicle_type_id":"4","last_reported":1702969596,"current_range_meters":28800,"station_id":"ce4bgvp2rcd13ifvqct0","pricing_plan_id":"free"},{"bike_id":"c3c3cbbb-aa08-4874-94d9-d40777882ceb","system_id":"levelo_inurba_marseille","lat":43.337604,"lon":5.374361,"is_reserved":false,"is_disabled":false,"rental_uris":{"android":"levelo://app?vid=c3c3cbbb-aa08-4874-94d9-d40777882ceb","ios":"levelo://app?vid=c3c3cbbb-aa08-4874-94d9-d40777882ceb"},"vehicle_type_id":"4","last_reported":1702969596,"current_range_meters":10000,"station_id":"","pricing_plan_id":"free"},{"bike_id":"9a34662e-7672-4bde-b7ba-140022d0d98c","system_id":"levelo_inurba_marseille","lat":43.28727,"lon":5.36078,"is_reserved":false,"is_disabled":false,"rental_uris":{"android":"levelo://app?vid=9a34662e-7672-4bde-b7ba-140022d0d98c","ios":"levelo://app?vid=9a34662e-7672-4bde-b7ba-140022d0d98c"},"vehicle_type_id":"4","last_reported":1702969596,"current_range_meters":30000,"station_id":"cki0cbj6b192h4jlfktg","pricing_plan_id":"free"},{"bike_id":"026ef091-f336-469a-b39c-3d8609e5bc5d","system_id":"levelo_inurba_marseille","lat":43.28727,"lon":5.36078,"is_reserved":false,"is_disabled":false,"rental_uris":{"android":"levelo://app?vid=026ef091-f336-469a-b39c-3d8609e5bc5d","ios":"levelo://app?vid=026ef091-f336-469a-b39c-3d8609e5bc5d"},"vehicle_type_id":"4","last_reported":1702969596,"current_range_meters":18400,"station_id":"cki0cbj6b192h4jlfktg","pricing_plan_id":"free"},{"bike_id":"c5272d7a-2fee-49bd-bff7-bdb1432ab2ff","system_id":"levelo_inurba_marseille","lat":43.28727,"lon":5.36078,"is_reserved":false,"is_disabled":false,"rental_uris":{"android":"levelo://app?vid=c5272d7a-2fee-49bd-bff7-bdb1432ab2ff","ios":"levelo://app?vid=c5272d7a-2fee-49bd-bff7-bdb1432ab2ff"},"vehicle_type_id":"4","last_reported":1702969596,"current_range_meters":31200,"station_id":"cki0cbj6b192h4jlfktg","pricing_plan_id":"free"},{"bike_id":"7c201bb1-9f38-4e3e-a349-4458434d0c69","system_id":"levelo_inurba_marseille","lat":43.28727,"lon":5.36078,"is_reserved":false,"is_disabled":false,"rental_uris":{"android":"levelo://app?vid=7c201bb1-9f38-4e3e-a349-4458434d0c69","ios":"levelo://app?vid=7c201bb1-9f38-4e3e-a349-4458434d0c69"},"vehicle_type_id":"4","last_reported":1702969596,"current_range_meters":30000,"station_id":"cki0cbj6b192h4jlfktg","pricing_plan_id":"free"},{"bike_id":"68db378a-73d0-43bd-a4b2-0722c53a46b3","system_id":"levelo_inurba_marseille","lat":43.28727,"lon":5.36078,"is_reserved":false,"is_disabled":false,"rental_uris":{"android":"levelo://app?vid=68db378a-73d0-43bd-a4b2-0722c53a46b3","ios":"levelo://app?vid=68db378a-73d0-43bd-a4b2-0722c53a46b3"},"vehicle_type_id":"4","last_reported":1702969596,"current_range_meters":28000,"station_id":"cki0cbj6b192h4jlfktg","pricing_plan_id":"free"},{"bike_id":"5f21a093-09f4-4134-bc46-e96b8fb952a6","system_id":"levelo_inurba_marseille","lat":43.290345,"lon":5.38646,"is_reserved":false,"is_disabled":false,"rental_uris":{"android":"levelo://app?vid=5f21a093-09f4-4134-bc46-e96b8fb952a6","ios":"levelo://app?vid=5f21a093-09f4-4134-bc46-e96b8fb952a6"},"vehicle_type_id":"4","last_reported":1702969596,"current_range_meters":26400,"station_id":"ce4bh4p2rcd13ifvqe0g","pricing_plan_id":"free"},{"bike_id":"41501bbc-b034-45ad-b316-c32409342290","system_id":"levelo_inurba_marseille","lat":43.286039,"lon":5.370679,"is_reserved":false,"is_disabled":false,"rental_uris":{"android":"levelo://app?vid=41501bbc-b034-45ad-b316-c32409342290","ios":"levelo://app?vid=41501bbc-b034-45ad-b316-c32409342290"},"vehicle_type_id":"4","last_reported":1702969596,"current_range_meters":30400,"station_id":"ce4bht12rcd13ifvqi60","pricing_plan_id":"free"},{"bike_id":"a7d20bc2-1432-42d7-89d5-09b0f3465c9b","system_id":"levelo_inurba_marseille","lat":43.28716,"lon":5.379293,"is_reserved":false,"is_disabled":false,"rental_uris":{"android":"levelo://app?vid=a7d20bc2-1432-42d7-89d5-09b0f3465c9b","ios":"levelo://app?vid=a7d20bc2-1432-42d7-89d5-09b0f3465c9b"},"vehicle_type_id":"4","last_reported":1702969596,"current_range_meters":23600,"station_id":"ce4bh9p2rcd13ifvqec0","pricing_plan_id":"free"},{"bike_id":"a2288546-2d78-4f98-ae7b-92119213ac60","system_id":"levelo_inurba_marseille","lat":43.287106,"lon":5.379248,"is_reserved":false,"is_disabled":false,"rental_uris":{"android":"levelo://app?vid=a2288546-2d78-4f98-ae7b-92119213ac60","ios":"levelo://app?vid=a2288546-2d78-4f98-ae7b-92119213ac60"},"vehicle_type_id":"4","last_reported":1702969596,"current_range_meters":25600,"station_id":"ce4bh9p2rcd13ifvqec0","pricing_plan_id":"free"},{"bike_id":"93346383-00fa-46bd-af3d-c292b1e70c94","system_id":"levelo_inurba_marseille","lat":43.291994,"lon":5.392907,"is_reserved":false,"is_disabled":false,"rental_uris":{"android":"levelo://app?vid=93346383-00fa-46bd-af3d-c292b1e70c94","ios":"levelo://app?vid=93346383-00fa-46bd-af3d-c292b1e70c94"},"vehicle_type_id":"4","last_reported":1702969596,"current_range_meters":29200,"station_id":"ce4bh192rcd13ifvqdd0","pricing_plan_id":"free"},{"bike_id":"4d5c7227-cbc3-41ae-8e3b-4ff06b6986df","system_id":"levelo_inurba_marseille","lat":43.291994,"lon":5.392907,"is_reserved":false,"is_disabled":false,"rental_uris":{"android":"levelo://app?vid=4d5c7227-cbc3-41ae-8e3b-4ff06b6986df","ios":"levelo://app?vid=4d5c7227-cbc3-41ae-8e3b-4ff06b6986df"},"vehicle_type_id":"4","last_reported":1702969596,"current_range_meters":27600,"station_id":"ce4bh192rcd13ifvqdd0","pricing_plan_id":"free"},{"bike_id":"280c294d-0da1-423d-bf75-a7eff002c375","system_id":"levelo_inurba_marseille","lat":43.291994,"lon":5.392907,"is_reserved":false,"is_disabled":false,"rental_uris":{"android":"levelo://app?vid=280c294d-0da1-423d-bf75-a7eff002c375","ios":"levelo://app?vid=280c294d-0da1-423d-bf75-a7eff002c375"},"vehicle_type_id":"4","last_reported":1702969596,"current_range_meters":26800,"station_id":"ce4bh192rcd13ifvqdd0","pricing_plan_id":"free"},{"bike_id":"33ee932d-fc15-4e53-9da2-b05a14e9ba9c","system_id":"levelo_inurba_marseille","lat":43.284538,"lon":5.358657,"is_reserved":false,"is_disabled":false,"rental_uris":{"android":"levelo://app?vid=33ee932d-fc15-4e53-9da2-b05a14e9ba9c","ios":"levelo://app?vid=33ee932d-fc15-4e53-9da2-b05a14e9ba9c"},"vehicle_type_id":"4","last_reported":1702969596,"current_range_meters":28000,"station_id":"ce4bhah2rcd13ifvqei0","pricing_plan_id":"free"},{"bike_id":"5597c04c-4f02-40c7-a228-eb0ab5596efb","system_id":"levelo_inurba_marseille","lat":43.28463,"lon":5.358955,"is_reserved":false,"is_disabled":false,"rental_uris":{"android":"levelo://app?vid=5597c04c-4f02-40c7-a228-eb0ab5596efb","ios":"levelo://app?vid=5597c04c-4f02-40c7-a228-eb0ab5596efb"},"vehicle_type_id":"4","last_reported":1702969596,"current_range_meters":22800,"station_id":"ce4bhah2rcd13ifvqei0","pricing_plan_id":"free"},{"bike_id":"6035fb5e-98e2-4845-b1eb-c1e292f871a9","system_id":"levelo_inurba_marseille","lat":43.285856,"lon":5.350771,"is_reserved":false,"is_disabled":false,"rental_uris":{"android":"levelo://app?vid=6035fb5e-98e2-4845-b1eb-c1e292f871a9","ios":"levelo://app?vid=6035fb5e-98e2-4845-b1eb-c1e292f871a9"},"vehicle_type_id":"4","last_reported":1702969596,"current_range_meters":29200,"station_id":"ce4bhch2rcd13ifvqeug","pricing_plan_id":"free"},{"bike_id":"8538e6dd-dbef-4a5a-a119-9a857fd021ad","system_id":"levelo_inurba_marseille","lat":43.33218,"lon":5.397067,"is_reserved":false,"is_disabled":false,"rental_uris":{"android":"levelo://app?vid=8538e6dd-dbef-4a5a-a119-9a857fd021ad","ios":"levelo://app?vid=8538e6dd-dbef-4a5a-a119-9a857fd021ad"},"vehicle_type_id":"4","last_reported":1702969596,"current_range_meters":2400,"station_id":"","pricing_plan_id":"free"},{"bike_id":"e61ff965-b89c-4655-992c-d88d91925443","system_id":"levelo_inurba_marseille","lat":43.283998,"lon":5.375062,"is_reserved":false,"is_disabled":false,"rental_uris":{"android":"levelo://app?vid=e61ff965-b89c-4655-992c-d88d91925443","ios":"levelo://app?vid=e61ff965-b89c-4655-992c-d88d91925443"},"vehicle_type_id":"4","last_reported":1702969596,"current_range_meters":30400,"station_id":"ce4bh412rcd13ifvqds0","pricing_plan_id":"free"},{"bike_id":"fd1aacc1-901b-4924-98dd-d6220ff66905","system_id":"levelo_inurba_marseille","lat":43.318862,"lon":5.407401,"is_reserved":false,"is_disabled":false,"rental_uris":{"android":"levelo://app?vid=fd1aacc1-901b-4924-98dd-d6220ff66905","ios":"levelo://app?vid=fd1aacc1-901b-4924-98dd-d6220ff66905"},"vehicle_type_id":"4","last_reported":1702969596,"current_range_meters":28000,"station_id":"ce4bhq12rcd13ifvqhig","pricing_plan_id":"free"},{"bike_id":"6ef61fad-a186-4f16-b238-060b73663567","system_id":"levelo_inurba_marseille","lat":43.323464,"lon":5.406297,"is_reserved":false,"is_disabled":false,"rental_uris":{"android":"levelo://app?vid=6ef61fad-a186-4f16-b238-060b73663567","ios":"levelo://app?vid=6ef61fad-a186-4f16-b238-060b73663567"},"vehicle_type_id":"4","last_reported":1702969596,"current_range_meters":31200,"station_id":"ce4bhq92rcd13ifvqhjg","pricing_plan_id":"free"},{"bike_id":"18e7facd-1023-4c6b-85b7-81049600964e","system_id":"levelo_inurba_marseille","lat":43.323464,"lon":5.406297,"is_reserved":false,"is_disabled":false,"rental_uris":{"android":"levelo://app?vid=18e7facd-1023-4c6b-85b7-81049600964e","ios":"levelo://app?vid=18e7facd-1023-4c6b-85b7-81049600964e"},"vehicle_type_id":"4","last_reported":1702969596,"current_range_meters":31200,"station_id":"ce4bhq92rcd13ifvqhjg","pricing_plan_id":"free"},{"bike_id":"c84df334-9391-47bf-968a-801111648554","system_id":"levelo_inurba_marseille","lat":43.28486,"lon":5.38422,"is_reserved":false,"is_disabled":false,"rental_uris":{"android":"levelo://app?vid=c84df334-9391-47bf-968a-801111648554","ios":"levelo://app?vid=c84df334-9391-47bf-968a-801111648554"},"vehicle_type_id":"4","last_reported":1702969596,"current_range_meters":3600,"station_id":"ce4bh512rcd13ifvqe3g","pricing_plan_id":"free"},{"bike_id":"454c87a2-5ee5-4af8-bbe5-95ebcc00268a","system_id":"levelo_inurba_marseille","lat":43.297946,"lon":5.404063,"is_reserved":false,"is_disabled":false,"rental_uris":{"android":"levelo://app?vid=454c87a2-5ee5-4af8-bbe5-95ebcc00268a","ios":"levelo://app?vid=454c87a2-5ee5-4af8-bbe5-95ebcc00268a"},"vehicle_type_id":"4","last_reported":1702969596,"current_range_meters":27600,"station_id":"ce4bh112rcd13ifvqd90","pricing_plan_id":"free"},{"bike_id":"8d3b5ca2-25e8-4c0c-b6b4-eaa12d7b4387","system_id":"levelo_inurba_marseille","lat":43.29795,"lon":5.404086,"is_reserved":false,"is_disabled":false,"rental_uris":{"android":"levelo://app?vid=8d3b5ca2-25e8-4c0c-b6b4-eaa12d7b4387","ios":"levelo://app?vid=8d3b5ca2-25e8-4c0c-b6b4-eaa12d7b4387"},"vehicle_type_id":"4","last_reported":1702969596,"current_range_meters":2000,"station_id":"ce4bh112rcd13ifvqd90","pricing_plan_id":"free"},{"bike_id":"11f3fc09-ce2e-4440-99d3-4e474a9bff9a","system_id":"levelo_inurba_marseille","lat":43.283494,"lon":5.380945,"is_reserved":false,"is_disabled":false,"rental_uris":{"android":"levelo://app?vid=11f3fc09-ce2e-4440-99d3-4e474a9bff9a","ios":"levelo://app?vid=11f3fc09-ce2e-4440-99d3-4e474a9bff9a"},"vehicle_type_id":"4","last_reported":1702969596,"current_range_meters":30400,"station_id":"ce4bh412rcd13ifvqdr0","pricing_plan_id":"free"},{"bike_id":"76bc2fe9-9446-4487-9d71-73a546f99fa3","system_id":"levelo_inurba_marseille","lat":43.283494,"lon":5.380945,"is_reserved":false,"is_disabled":false,"rental_uris":{"android":"levelo://app?vid=76bc2fe9-9446-4487-9d71-73a546f99fa3","ios":"levelo://app?vid=76bc2fe9-9446-4487-9d71-73a546f99fa3"},"vehicle_type_id":"4","last_reported":1702969596,"current_range_meters":18000,"station_id":"ce4bh412rcd13ifvqdr0","pricing_plan_id":"free"},{"bike_id":"35e5c977-c3ec-4302-85e4-7f44ba15ca6f","system_id":"levelo_inurba_marseille","lat":43.306412,"lon":5.401035,"is_reserved":false,"is_disabled":false,"rental_uris":{"android":"levelo://app?vid=35e5c977-c3ec-4302-85e4-7f44ba15ca6f","ios":"levelo://app?vid=35e5c977-c3ec-4302-85e4-7f44ba15ca6f"},"vehicle_type_id":"4","last_reported":1702969596,"current_range_meters":24000,"station_id":"ce4bh112rcd13ifvqda0","pricing_plan_id":"free"},{"bike_id":"f9df2472-b618-4676-b97c-ef4556ab3a34","system_id":"levelo_inurba_marseille","lat":43.289385,"lon":5.396185,"is_reserved":false,"is_disabled":false,"rental_uris":{"android":"levelo://app?vid=f9df2472-b618-4676-b97c-ef4556ab3a34","ios":"levelo://app?vid=f9df2472-b618-4676-b97c-ef4556ab3a34"},"vehicle_type_id":"4","last_reported":1702969596,"current_range_meters":1600,"station_id":"ce4bgkh2rcd13ifvqbl0","pricing_plan_id":"free"},{"bike_id":"f8e7582e-d059-456d-b9b4-bfc15266416b","system_id":"levelo_inurba_marseille","lat":43.289363,"lon":5.396322,"is_reserved":false,"is_disabled":false,"rental_uris":{"android":"levelo://app?vid=f8e7582e-d059-456d-b9b4-bfc15266416b","ios":"levelo://app?vid=f8e7582e-d059-456d-b9b4-bfc15266416b"},"vehicle_type_id":"4","last_reported":1702969596,"current_range_meters":26400,"station_id":"ce4bh3h2rcd13ifvqdn0","pricing_plan_id":"free"},{"bike_id":"f13cc841-5a38-45a4-b63c-db3f051db055","system_id":"levelo_inurba_marseille","lat":43.289363,"lon":5.396322,"is_reserved":false,"is_disabled":false,"rental_uris":{"android":"levelo://app?vid=f13cc841-5a38-45a4-b63c-db3f051db055","ios":"levelo://app?vid=f13cc841-5a38-45a4-b63c-db3f051db055"},"vehicle_type_id":"4","last_reported":1702969596,"current_range_meters":28400,"station_id":"ce4bh3h2rcd13ifvqdn0","pricing_plan_id":"free"},{"bike_id":"96700077-a833-48c2-9990-894cbf8f812b","system_id":"levelo_inurba_marseille","lat":43.292724,"lon":5.401131,"is_reserved":false,"is_disabled":false,"rental_uris":{"android":"levelo://app?vid=96700077-a833-48c2-9990-894cbf8f812b","ios":"levelo://app?vid=96700077-a833-48c2-9990-894cbf8f812b"},"vehicle_type_id":"4","last_reported":1702969596,"current_range_meters":25200,"station_id":"ce4bh312rcd13ifvqdk0","pricing_plan_id":"free"},{"bike_id":"7b4b351c-6a2f-484c-9d1c-65b9a1c71f86","system_id":"levelo_inurba_marseille","lat":43.282754,"lon":5.350519,"is_reserved":false,"is_disabled":false,"rental_uris":{"android":"levelo://app?vid=7b4b351c-6a2f-484c-9d1c-65b9a1c71f86","ios":"levelo://app?vid=7b4b351c-6a2f-484c-9d1c-65b9a1c71f86"},"vehicle_type_id":"4","last_reported":1702969596,"current_range_meters":18400,"station_id":"ce4bhbp2rcd13ifvqerg","pricing_plan_id":"free"},{"bike_id":"96aa4a73-56d2-4f7c-ba8a-a64633a55b35","system_id":"levelo_inurba_marseille","lat":43.282744,"lon":5.350533,"is_reserved":false,"is_disabled":false,"rental_uris":{"android":"levelo://app?vid=96aa4a73-56d2-4f7c-ba8a-a64633a55b35","ios":"levelo://app?vid=96aa4a73-56d2-4f7c-ba8a-a64633a55b35"},"vehicle_type_id":"4","last_reported":1702969596,"current_range_meters":31200,"station_id":"ce4bhbp2rcd13ifvqerg","pricing_plan_id":"free"},{"bike_id":"69b03fd2-a5df-47b3-9e42-55d285a4ae9b","system_id":"levelo_inurba_marseille","lat":43.282754,"lon":5.350519,"is_reserved":false,"is_disabled":false,"rental_uris":{"android":"levelo://app?vid=69b03fd2-a5df-47b3-9e42-55d285a4ae9b","ios":"levelo://app?vid=69b03fd2-a5df-47b3-9e42-55d285a4ae9b"},"vehicle_type_id":"4","last_reported":1702969596,"current_range_meters":30400,"station_id":"ce4bhbp2rcd13ifvqerg","pricing_plan_id":"free"},{"bike_id":"9fa97c25-b9d8-4a12-9a8a-23cf4b8c5b1d","system_id":"levelo_inurba_marseille","lat":43.290412,"lon":5.399633,"is_reserved":false,"is_disabled":false,"rental_uris":{"android":"levelo://app?vid=9fa97c25-b9d8-4a12-9a8a-23cf4b8c5b1d","ios":"levelo://app?vid=9fa97c25-b9d8-4a12-9a8a-23cf4b8c5b1d"},"vehicle_type_id":"4","last_reported":1702969596,"current_range_meters":30000,"station_id":"ce4bh392rcd13ifvqdm0","pricing_plan_id":"free"},{"bike_id":"e8a4948e-1e23-433c-8316-3a18086e788a","system_id":"levelo_inurba_marseille","lat":43.29041,"lon":5.399634,"is_reserved":false,"is_disabled":false,"rental_uris":{"android":"levelo://app?vid=e8a4948e-1e23-433c-8316-3a18086e788a","ios":"levelo://app?vid=e8a4948e-1e23-433c-8316-3a18086e788a"},"vehicle_type_id":"4","last_reported":1702969596,"current_range_meters":21600,"station_id":"ce4bh392rcd13ifvqdm0","pricing_plan_id":"free"},{"bike_id":"01521999-0e1d-4771-9c8c-dfb5b8eb18b5","system_id":"levelo_inurba_marseille","lat":43.29041,"lon":5.399634,"is_reserved":false,"is_disabled":false,"rental_uris":{"android":"levelo://app?vid=01521999-0e1d-4771-9c8c-dfb5b8eb18b5","ios":"levelo://app?vid=01521999-0e1d-4771-9c8c-dfb5b8eb18b5"},"vehicle_type_id":"4","last_reported":1702969596,"current_range_meters":24000,"station_id":"ce4bh392rcd13ifvqdm0","pricing_plan_id":"free"},{"bike_id":"258be35e-5092-4e8d-8c57-eb73617b17a2","system_id":"levelo_inurba_marseille","lat":43.29041,"lon":5.399634,"is_reserved":false,"is_disabled":false,"rental_uris":{"android":"levelo://app?vid=258be35e-5092-4e8d-8c57-eb73617b17a2","ios":"levelo://app?vid=258be35e-5092-4e8d-8c57-eb73617b17a2"},"vehicle_type_id":"4","last_reported":1702969596,"current_range_meters":26800,"station_id":"ce4bh392rcd13ifvqdm0","pricing_plan_id":"free"},{"bike_id":"bc55305d-446f-4e5d-8159-6b910898c347","system_id":"levelo_inurba_marseille","lat":43.28106,"lon":5.37833,"is_reserved":false,"is_disabled":false,"rental_uris":{"android":"levelo://app?vid=bc55305d-446f-4e5d-8159-6b910898c347","ios":"levelo://app?vid=bc55305d-446f-4e5d-8159-6b910898c347"},"vehicle_type_id":"4","last_reported":1702969596,"current_range_meters":15200,"station_id":"ce4bha12rcd13ifvqee0","pricing_plan_id":"free"},{"bike_id":"fa824c7f-698d-459b-bb98-9c7e13d5d3d3","system_id":"levelo_inurba_marseille","lat":43.281044,"lon":5.378308,"is_reserved":false,"is_disabled":false,"rental_uris":{"android":"levelo://app?vid=fa824c7f-698d-459b-bb98-9c7e13d5d3d3","ios":"levelo://app?vid=fa824c7f-698d-459b-bb98-9c7e13d5d3d3"},"vehicle_type_id":"4","last_reported":1702969596,"current_range_meters":30400,"station_id":"ce4bha12rcd13ifvqee0","pricing_plan_id":"free"},{"bike_id":"941a2c51-81cd-4912-8f8f-c1a817b49507","system_id":"levelo_inurba_marseille","lat":43.281044,"lon":5.378308,"is_reserved":false,"is_disabled":false,"rental_uris":{"android":"levelo://app?vid=941a2c51-81cd-4912-8f8f-c1a817b49507","ios":"levelo://app?vid=941a2c51-81cd-4912-8f8f-c1a817b49507"},"vehicle_type_id":"4","last_reported":1702969596,"current_range_meters":31200,"station_id":"ce4bha12rcd13ifvqee0","pricing_plan_id":"free"},{"bike_id":"4475aeb3-3068-45fd-a5ab-6625d24c3007","system_id":"levelo_inurba_marseille","lat":43.284462,"lon":5.392121,"is_reserved":false,"is_disabled":false,"rental_uris":{"android":"levelo://app?vid=4475aeb3-3068-45fd-a5ab-6625d24c3007","ios":"levelo://app?vid=4475aeb3-3068-45fd-a5ab-6625d24c3007"},"vehicle_type_id":"4","last_reported":1702969596,"current_range_meters":18000,"station_id":"ce4bhoh2rcd13ifvqh5g","pricing_plan_id":"free"},{"bike_id":"31a79384-b95f-4ca5-b533-9b47f852a4cc","system_id":"levelo_inurba_marseille","lat":43.304188,"lon":5.412904,"is_reserved":false,"is_disabled":false,"rental_uris":{"android":"levelo://app?vid=31a79384-b95f-4ca5-b533-9b47f852a4cc","ios":"levelo://app?vid=31a79384-b95f-4ca5-b533-9b47f852a4cc"},"vehicle_type_id":"4","last_reported":1702969596,"current_range_meters":31200,"station_id":"ce4bhop2rcd13ifvqh8g","pricing_plan_id":"free"},{"bike_id":"268ef7c2-c243-494a-a56f-aca6ab063c15","system_id":"levelo_inurba_marseille","lat":43.304188,"lon":5.412904,"is_reserved":false,"is_disabled":false,"rental_uris":{"android":"levelo://app?vid=268ef7c2-c243-494a-a56f-aca6ab063c15","ios":"levelo://app?vid=268ef7c2-c243-494a-a56f-aca6ab063c15"},"vehicle_type_id":"4","last_reported":1702969596,"current_range_meters":31200,"station_id":"ce4bhop2rcd13ifvqh8g","pricing_plan_id":"free"},{"bike_id":"e7f5b011-25a6-42a0-999f-0c0459bd3669","system_id":"levelo_inurba_marseille","lat":43.287154,"lon":5.399979,"is_reserved":false,"is_disabled":false,"rental_uris":{"android":"levelo://app?vid=e7f5b011-25a6-42a0-999f-0c0459bd3669","ios":"levelo://app?vid=e7f5b011-25a6-42a0-999f-0c0459bd3669"},"vehicle_type_id":"4","last_reported":1702969596,"current_range_meters":30000,"station_id":"ce4bho92rcd13ifvqh3g","pricing_plan_id":"free"},{"bike_id":"2bbfe932-524c-4962-9e47-c95036c37112","system_id":"levelo_inurba_marseille","lat":43.299579,"lon":5.413255,"is_reserved":false,"is_disabled":false,"rental_uris":{"android":"levelo://app?vid=2bbfe932-524c-4962-9e47-c95036c37112","ios":"levelo://app?vid=2bbfe932-524c-4962-9e47-c95036c37112"},"vehicle_type_id":"4","last_reported":1702969596,"current_range_meters":29200,"station_id":"ce4bhp12rcd13ifvqh9g","pricing_plan_id":"free"},{"bike_id":"89508d0f-e74e-43de-9316-936ef4bd1896","system_id":"levelo_inurba_marseille","lat":43.299579,"lon":5.413255,"is_reserved":false,"is_disabled":false,"rental_uris":{"android":"levelo://app?vid=89508d0f-e74e-43de-9316-936ef4bd1896","ios":"levelo://app?vid=89508d0f-e74e-43de-9316-936ef4bd1896"},"vehicle_type_id":"4","last_reported":1702969596,"current_range_meters":31200,"station_id":"ce4bhp12rcd13ifvqh9g","pricing_plan_id":"free"},{"bike_id":"40686c10-84a4-405a-9cd7-375127e2b02d","system_id":"levelo_inurba_marseille","lat":43.325233,"lon":5.414318,"is_reserved":false,"is_disabled":false,"rental_uris":{"android":"levelo://app?vid=40686c10-84a4-405a-9cd7-375127e2b02d","ios":"levelo://app?vid=40686c10-84a4-405a-9cd7-375127e2b02d"},"vehicle_type_id":"4","last_reported":1702969596,"current_range_meters":24400,"station_id":"ce4bhq12rcd13ifvqhhg","pricing_plan_id":"free"},{"bike_id":"c5dcbd5a-0763-49e1-be7f-724129c74ec9","system_id":"levelo_inurba_marseille","lat":43.292564,"lon":5.409131,"is_reserved":false,"is_disabled":false,"rental_uris":{"android":"levelo://app?vid=c5dcbd5a-0763-49e1-be7f-724129c74ec9","ios":"levelo://app?vid=c5dcbd5a-0763-49e1-be7f-724129c74ec9"},"vehicle_type_id":"4","last_reported":1702969596,"current_range_meters":30800,"station_id":"ce4bh192rcd13ifvqdc0","pricing_plan_id":"free"},{"bike_id":"b73b1dc9-66f1-4f8b-9dc1-65b99e7137a5","system_id":"levelo_inurba_marseille","lat":43.325233,"lon":5.414318,"is_reserved":false,"is_disabled":false,"rental_uris":{"android":"levelo://app?vid=b73b1dc9-66f1-4f8b-9dc1-65b99e7137a5","ios":"levelo://app?vid=b73b1dc9-66f1-4f8b-9dc1-65b99e7137a5"},"vehicle_type_id":"4","last_reported":1702969596,"current_range_meters":31200,"station_id":"ce4bhq12rcd13ifvqhhg","pricing_plan_id":"free"},{"bike_id":"175508af-eec8-4668-bae1-1bdc4eea0891","system_id":"levelo_inurba_marseille","lat":43.303837,"lon":5.418724,"is_reserved":false,"is_disabled":false,"rental_uris":{"android":"levelo://app?vid=175508af-eec8-4668-bae1-1bdc4eea0891","ios":"levelo://app?vid=175508af-eec8-4668-bae1-1bdc4eea0891"},"vehicle_type_id":"4","last_reported":1702969596,"current_range_meters":6800,"station_id":"ce4bhop2rcd13ifvqh7g","pricing_plan_id":"free"},{"bike_id":"f6cd6077-b59c-4daf-968f-1a651ace9597","system_id":"levelo_inurba_marseille","lat":43.273609,"lon":5.362708,"is_reserved":false,"is_disabled":false,"rental_uris":{"android":"levelo://app?vid=f6cd6077-b59c-4daf-968f-1a651ace9597","ios":"levelo://app?vid=f6cd6077-b59c-4daf-968f-1a651ace9597"},"vehicle_type_id":"4","last_reported":1702969596,"current_range_meters":28000,"station_id":"ce4bhbh2rcd13ifvqeo0","pricing_plan_id":"free"},{"bike_id":"65c4566b-6173-4230-83e2-568640ce6df1","system_id":"levelo_inurba_marseille","lat":43.276769,"lon":5.388787,"is_reserved":false,"is_disabled":false,"rental_uris":{"android":"levelo://app?vid=65c4566b-6173-4230-83e2-568640ce6df1","ios":"levelo://app?vid=65c4566b-6173-4230-83e2-568640ce6df1"},"vehicle_type_id":"4","last_reported":1702969596,"current_range_meters":19200,"station_id":"ce4bhi12rcd13ifvqfo0","pricing_plan_id":"free"},{"bike_id":"52b8022a-e222-4c84-a794-bdc0da738d26","system_id":"levelo_inurba_marseille","lat":43.336134,"lon":5.410341,"is_reserved":false,"is_disabled":false,"rental_uris":{"android":"levelo://app?vid=52b8022a-e222-4c84-a794-bdc0da738d26","ios":"levelo://app?vid=52b8022a-e222-4c84-a794-bdc0da738d26"},"vehicle_type_id":"4","last_reported":1702969596,"current_range_meters":27600,"station_id":"ce4bhqh2rcd13ifvqhmg","pricing_plan_id":"free"},{"bike_id":"31105b0d-9caa-458e-be21-970bd74394ad","system_id":"levelo_inurba_marseille","lat":43.324129,"lon":5.420021,"is_reserved":false,"is_disabled":false,"rental_uris":{"android":"levelo://app?vid=31105b0d-9caa-458e-be21-970bd74394ad","ios":"levelo://app?vid=31105b0d-9caa-458e-be21-970bd74394ad"},"vehicle_type_id":"4","last_reported":1702969596,"current_range_meters":29600,"station_id":"","pricing_plan_id":"free"},{"bike_id":"cae25428-d9bf-485f-81f8-16fff4106245","system_id":"levelo_inurba_marseille","lat":43.279952,"lon":5.400085,"is_reserved":false,"is_disabled":false,"rental_uris":{"android":"levelo://app?vid=cae25428-d9bf-485f-81f8-16fff4106245","ios":"levelo://app?vid=cae25428-d9bf-485f-81f8-16fff4106245"},"vehicle_type_id":"4","last_reported":1702969596,"current_range_meters":25200,"station_id":"ce4bho92rcd13ifvqh4g","pricing_plan_id":"free"},{"bike_id":"032ab50a-e8ed-46eb-a784-ec24434ca4e9","system_id":"levelo_inurba_marseille","lat":43.325233,"lon":5.414318,"is_reserved":false,"is_disabled":false,"rental_uris":{"android":"levelo://app?vid=032ab50a-e8ed-46eb-a784-ec24434ca4e9","ios":"levelo://app?vid=032ab50a-e8ed-46eb-a784-ec24434ca4e9"},"vehicle_type_id":"4","last_reported":1702969596,"current_range_meters":27600,"station_id":"ce4bhq12rcd13ifvqhhg","pricing_plan_id":"free"},{"bike_id":"c4a5c924-f3eb-4034-998e-839c0ed11382","system_id":"levelo_inurba_marseille","lat":43.340804,"lon":5.410219,"is_reserved":false,"is_disabled":false,"rental_uris":{"android":"levelo://app?vid=c4a5c924-f3eb-4034-998e-839c0ed11382","ios":"levelo://app?vid=c4a5c924-f3eb-4034-998e-839c0ed11382"},"vehicle_type_id":"4","last_reported":1702969596,"current_range_meters":28000,"station_id":"ce4bhqh2rcd13ifvqhlg","pricing_plan_id":"free"},{"bike_id":"974dc7db-ff3c-4554-8964-132f9db52d9b","system_id":"levelo_inurba_marseille","lat":43.276092,"lon":5.395289,"is_reserved":false,"is_disabled":false,"rental_uris":{"android":"levelo://app?vid=974dc7db-ff3c-4554-8964-132f9db52d9b","ios":"levelo://app?vid=974dc7db-ff3c-4554-8964-132f9db52d9b"},"vehicle_type_id":"4","last_reported":1702969596,"current_range_meters":8800,"station_id":"","pricing_plan_id":"free"},{"bike_id":"fd98eaf7-5fda-4f94-b1c2-8ddba9ff4778","system_id":"levelo_inurba_marseille","lat":43.273156,"lon":5.390834,"is_reserved":false,"is_disabled":false,"rental_uris":{"android":"levelo://app?vid=fd98eaf7-5fda-4f94-b1c2-8ddba9ff4778","ios":"levelo://app?vid=fd98eaf7-5fda-4f94-b1c2-8ddba9ff4778"},"vehicle_type_id":"4","last_reported":1702969596,"current_range_meters":26800,"station_id":"ce4bhgp2rcd13ifvqfe0","pricing_plan_id":"free"},{"bike_id":"a081c23c-f116-4b1f-bbae-1a4761f4cfae","system_id":"levelo_inurba_marseille","lat":43.274099,"lon":5.394019,"is_reserved":false,"is_disabled":false,"rental_uris":{"android":"levelo://app?vid=a081c23c-f116-4b1f-bbae-1a4761f4cfae","ios":"levelo://app?vid=a081c23c-f116-4b1f-bbae-1a4761f4cfae"},"vehicle_type_id":"4","last_reported":1702969596,"current_range_meters":25200,"station_id":"ce4bhdp2rcd13ifvqf20","pricing_plan_id":"free"},{"bike_id":"35eedb2a-8179-4ed2-babf-1dbb38db73cf","system_id":"levelo_inurba_marseille","lat":43.273129,"lon":5.390725,"is_reserved":false,"is_disabled":false,"rental_uris":{"android":"levelo://app?vid=35eedb2a-8179-4ed2-babf-1dbb38db73cf","ios":"levelo://app?vid=35eedb2a-8179-4ed2-babf-1dbb38db73cf"},"vehicle_type_id":"4","last_reported":1702969596,"current_range_meters":28000,"station_id":"ce4bhgp2rcd13ifvqfe0","pricing_plan_id":"free"},{"bike_id":"c2d01cf4-416b-479a-8195-73cfbf290ea6","system_id":"levelo_inurba_marseille","lat":43.304096,"lon":5.425385,"is_reserved":false,"is_disabled":false,"rental_uris":{"android":"levelo://app?vid=c2d01cf4-416b-479a-8195-73cfbf290ea6","ios":"levelo://app?vid=c2d01cf4-416b-479a-8195-73cfbf290ea6"},"vehicle_type_id":"4","last_reported":1702969596,"current_range_meters":30400,"station_id":"ce4bhoh2rcd13ifvqh6g","pricing_plan_id":"free"},{"bike_id":"bbc1dded-28d0-40d2-98b9-c718a84b2b55","system_id":"levelo_inurba_marseille","lat":43.304096,"lon":5.425385,"is_reserved":false,"is_disabled":false,"rental_uris":{"android":"levelo://app?vid=bbc1dded-28d0-40d2-98b9-c718a84b2b55","ios":"levelo://app?vid=bbc1dded-28d0-40d2-98b9-c718a84b2b55"},"vehicle_type_id":"4","last_reported":1702969596,"current_range_meters":18400,"station_id":"ce4bhoh2rcd13ifvqh6g","pricing_plan_id":"free"},{"bike_id":"5259d34a-d8f2-47e1-9b2f-e2f2c6ed23b7","system_id":"levelo_inurba_marseille","lat":43.30416,"lon":5.42545,"is_reserved":false,"is_disabled":false,"rental_uris":{"android":"levelo://app?vid=5259d34a-d8f2-47e1-9b2f-e2f2c6ed23b7","ios":"levelo://app?vid=5259d34a-d8f2-47e1-9b2f-e2f2c6ed23b7"},"vehicle_type_id":"4","last_reported":1702969596,"current_range_meters":27600,"station_id":"ce4bhoh2rcd13ifvqh6g","pricing_plan_id":"free"},{"bike_id":"3cfccba8-f3c6-422f-bec0-1d7a4825ad24","system_id":"levelo_inurba_marseille","lat":43.304096,"lon":5.425385,"is_reserved":false,"is_disabled":false,"rental_uris":{"android":"levelo://app?vid=3cfccba8-f3c6-422f-bec0-1d7a4825ad24","ios":"levelo://app?vid=3cfccba8-f3c6-422f-bec0-1d7a4825ad24"},"vehicle_type_id":"4","last_reported":1702969596,"current_range_meters":30400,"station_id":"ce4bhoh2rcd13ifvqh6g","pricing_plan_id":"free"},{"bike_id":"04abe4ce-c306-49a3-9b90-d0dedcef4fb2","system_id":"levelo_inurba_marseille","lat":43.295511,"lon":5.422926,"is_reserved":false,"is_disabled":false,"rental_uris":{"android":"levelo://app?vid=04abe4ce-c306-49a3-9b90-d0dedcef4fb2","ios":"levelo://app?vid=04abe4ce-c306-49a3-9b90-d0dedcef4fb2"},"vehicle_type_id":"4","last_reported":1702969596,"current_range_meters":31200,"station_id":"ce4bhph2rcd13ifvqhdg","pricing_plan_id":"free"},{"bike_id":"ca314493-3848-477b-95b3-e1722a7aef04","system_id":"levelo_inurba_marseille","lat":43.295173,"lon":5.422623,"is_reserved":false,"is_disabled":false,"rental_uris":{"android":"levelo://app?vid=ca314493-3848-477b-95b3-e1722a7aef04","ios":"levelo://app?vid=ca314493-3848-477b-95b3-e1722a7aef04"},"vehicle_type_id":"4","last_reported":1702969596,"current_range_meters":17200,"station_id":"ce4bhph2rcd13ifvqhdg","pricing_plan_id":"free"},{"bike_id":"1aaeade2-16f7-4c2d-b598-dfecd6c04985","system_id":"levelo_inurba_marseille","lat":43.295522,"lon":5.42288,"is_reserved":false,"is_disabled":false,"rental_uris":{"android":"levelo://app?vid=1aaeade2-16f7-4c2d-b598-dfecd6c04985","ios":"levelo://app?vid=1aaeade2-16f7-4c2d-b598-dfecd6c04985"},"vehicle_type_id":"4","last_reported":1702969596,"current_range_meters":20400,"station_id":"ce4bhph2rcd13ifvqhdg","pricing_plan_id":"free"},{"bike_id":"f0d927f9-4d81-4a61-9e75-257d4a0281cb","system_id":"levelo_inurba_marseille","lat":43.29549,"lon":5.42289,"is_reserved":false,"is_disabled":false,"rental_uris":{"android":"levelo://app?vid=f0d927f9-4d81-4a61-9e75-257d4a0281cb","ios":"levelo://app?vid=f0d927f9-4d81-4a61-9e75-257d4a0281cb"},"vehicle_type_id":"4","last_reported":1702969596,"current_range_meters":24400,"station_id":"ce4bhph2rcd13ifvqhdg","pricing_plan_id":"free"},{"bike_id":"953115ce-4e3e-4b07-87a6-34fb25e80c12","system_id":"levelo_inurba_marseille","lat":43.295523,"lon":5.422926,"is_reserved":false,"is_disabled":false,"rental_uris":{"android":"levelo://app?vid=953115ce-4e3e-4b07-87a6-34fb25e80c12","ios":"levelo://app?vid=953115ce-4e3e-4b07-87a6-34fb25e80c12"},"vehicle_type_id":"4","last_reported":1702969596,"current_range_meters":24800,"station_id":"ce4bhph2rcd13ifvqhdg","pricing_plan_id":"free"},{"bike_id":"70de5d11-94cc-4b37-92cb-97961c848786","system_id":"levelo_inurba_marseille","lat":43.272124,"lon":5.391768,"is_reserved":false,"is_disabled":false,"rental_uris":{"android":"levelo://app?vid=70de5d11-94cc-4b37-92cb-97961c848786","ios":"levelo://app?vid=70de5d11-94cc-4b37-92cb-97961c848786"},"vehicle_type_id":"4","last_reported":1702969596,"current_range_meters":30400,"station_id":"ce4bhhp2rcd13ifvqfm0","pricing_plan_id":"free"},{"bike_id":"2d342b8c-dc97-47e2-8a64-9ee027f8c144","system_id":"levelo_inurba_marseille","lat":43.272116,"lon":5.391763,"is_reserved":false,"is_disabled":false,"rental_uris":{"android":"levelo://app?vid=2d342b8c-dc97-47e2-8a64-9ee027f8c144","ios":"levelo://app?vid=2d342b8c-dc97-47e2-8a64-9ee027f8c144"},"vehicle_type_id":"4","last_reported":1702969596,"current_range_meters":18800,"station_id":"ce4bhhp2rcd13ifvqfm0","pricing_plan_id":"free"},{"bike_id":"e75a71e2-4e57-4af2-b952-27bce75081a4","system_id":"levelo_inurba_marseille","lat":43.272124,"lon":5.391768,"is_reserved":false,"is_disabled":false,"rental_uris":{"android":"levelo://app?vid=e75a71e2-4e57-4af2-b952-27bce75081a4","ios":"levelo://app?vid=e75a71e2-4e57-4af2-b952-27bce75081a4"},"vehicle_type_id":"4","last_reported":1702969596,"current_range_meters":0,"station_id":"ce4bhhp2rcd13ifvqfm0","pricing_plan_id":"free"},{"bike_id":"4b82cb48-7a2a-435f-9936-f6333053748c","system_id":"levelo_inurba_marseille","lat":43.272124,"lon":5.391768,"is_reserved":false,"is_disabled":false,"rental_uris":{"android":"levelo://app?vid=4b82cb48-7a2a-435f-9936-f6333053748c","ios":"levelo://app?vid=4b82cb48-7a2a-435f-9936-f6333053748c"},"vehicle_type_id":"4","last_reported":1702969596,"current_range_meters":26400,"station_id":"ce4bhhp2rcd13ifvqfm0","pricing_plan_id":"free"},{"bike_id":"323437ab-6264-4ea7-b863-7c7169fcf54c","system_id":"levelo_inurba_marseille","lat":43.272124,"lon":5.391768,"is_reserved":false,"is_disabled":false,"rental_uris":{"android":"levelo://app?vid=323437ab-6264-4ea7-b863-7c7169fcf54c","ios":"levelo://app?vid=323437ab-6264-4ea7-b863-7c7169fcf54c"},"vehicle_type_id":"4","last_reported":1702969596,"current_range_meters":24000,"station_id":"ce4bhhp2rcd13ifvqfm0","pricing_plan_id":"free"},{"bike_id":"e77df078-bf59-4245-b059-7c6c21c14f29","system_id":"levelo_inurba_marseille","lat":43.27188,"lon":5.39224,"is_reserved":false,"is_disabled":false,"rental_uris":{"android":"levelo://app?vid=e77df078-bf59-4245-b059-7c6c21c14f29","ios":"levelo://app?vid=e77df078-bf59-4245-b059-7c6c21c14f29"},"vehicle_type_id":"4","last_reported":1702969596,"current_range_meters":11200,"station_id":"ce4bhhp2rcd13ifvqfm0","pricing_plan_id":"free"},{"bike_id":"8eab2a03-eb32-49af-8f5b-8706578e8bf8","system_id":"levelo_inurba_marseille","lat":43.27812,"lon":5.40715,"is_reserved":false,"is_disabled":false,"rental_uris":{"android":"levelo://app?vid=8eab2a03-eb32-49af-8f5b-8706578e8bf8","ios":"levelo://app?vid=8eab2a03-eb32-49af-8f5b-8706578e8bf8"},"vehicle_type_id":"4","last_reported":1702969596,"current_range_meters":30000,"station_id":"ce4bhnh2rcd13ifvqgtg","pricing_plan_id":"free"},{"bike_id":"9516b638-b510-4b7a-900d-e7b8c20d2532","system_id":"levelo_inurba_marseille","lat":43.269467,"lon":5.386439,"is_reserved":false,"is_disabled":false,"rental_uris":{"android":"levelo://app?vid=9516b638-b510-4b7a-900d-e7b8c20d2532","ios":"levelo://app?vid=9516b638-b510-4b7a-900d-e7b8c20d2532"},"vehicle_type_id":"4","last_reported":1702969596,"current_range_meters":26800,"station_id":"ce4bhh92rcd13ifvqfh0","pricing_plan_id":"free"},{"bike_id":"a8246e0b-77ae-4381-b0b4-6f31eced4fb3","system_id":"levelo_inurba_marseille","lat":43.269467,"lon":5.386439,"is_reserved":false,"is_disabled":false,"rental_uris":{"android":"levelo://app?vid=a8246e0b-77ae-4381-b0b4-6f31eced4fb3","ios":"levelo://app?vid=a8246e0b-77ae-4381-b0b4-6f31eced4fb3"},"vehicle_type_id":"4","last_reported":1702969596,"current_range_meters":26400,"station_id":"ce4bhh92rcd13ifvqfh0","pricing_plan_id":"free"},{"bike_id":"0ab9359b-4a84-4f5e-877e-67d4583fcec1","system_id":"levelo_inurba_marseille","lat":43.269467,"lon":5.386439,"is_reserved":false,"is_disabled":false,"rental_uris":{"android":"levelo://app?vid=0ab9359b-4a84-4f5e-877e-67d4583fcec1","ios":"levelo://app?vid=0ab9359b-4a84-4f5e-877e-67d4583fcec1"},"vehicle_type_id":"4","last_reported":1702969596,"current_range_meters":29200,"station_id":"ce4bhh92rcd13ifvqfh0","pricing_plan_id":"free"},{"bike_id":"a7790ff7-cb17-4734-84c1-a05ff45dcbea","system_id":"levelo_inurba_marseille","lat":43.269467,"lon":5.386439,"is_reserved":false,"is_disabled":false,"rental_uris":{"android":"levelo://app?vid=a7790ff7-cb17-4734-84c1-a05ff45dcbea","ios":"levelo://app?vid=a7790ff7-cb17-4734-84c1-a05ff45dcbea"},"vehicle_type_id":"4","last_reported":1702969596,"current_range_meters":16000,"station_id":"ce4bhh92rcd13ifvqfh0","pricing_plan_id":"free"},{"bike_id":"dc8d7f8b-1cd8-4d19-967e-fe0adb12b46b","system_id":"levelo_inurba_marseille","lat":43.269467,"lon":5.386439,"is_reserved":false,"is_disabled":false,"rental_uris":{"android":"levelo://app?vid=dc8d7f8b-1cd8-4d19-967e-fe0adb12b46b","ios":"levelo://app?vid=dc8d7f8b-1cd8-4d19-967e-fe0adb12b46b"},"vehicle_type_id":"4","last_reported":1702969596,"current_range_meters":19200,"station_id":"ce4bhh92rcd13ifvqfh0","pricing_plan_id":"free"},{"bike_id":"b8efd2c6-78cc-4ad7-876f-359e004c593d","system_id":"levelo_inurba_marseille","lat":43.269467,"lon":5.386439,"is_reserved":false,"is_disabled":false,"rental_uris":{"android":"levelo://app?vid=b8efd2c6-78cc-4ad7-876f-359e004c593d","ios":"levelo://app?vid=b8efd2c6-78cc-4ad7-876f-359e004c593d"},"vehicle_type_id":"4","last_reported":1702969596,"current_range_meters":24800,"station_id":"ce4bhh92rcd13ifvqfh0","pricing_plan_id":"free"},{"bike_id":"48ab2dba-a442-4c82-9845-e6ffacf9160a","system_id":"levelo_inurba_marseille","lat":43.269467,"lon":5.386439,"is_reserved":false,"is_disabled":false,"rental_uris":{"android":"levelo://app?vid=48ab2dba-a442-4c82-9845-e6ffacf9160a","ios":"levelo://app?vid=48ab2dba-a442-4c82-9845-e6ffacf9160a"},"vehicle_type_id":"4","last_reported":1702969596,"current_range_meters":28800,"station_id":"ce4bhh92rcd13ifvqfh0","pricing_plan_id":"free"},{"bike_id":"633aacc7-068b-4bd9-9a72-c0992b8660c5","system_id":"levelo_inurba_marseille","lat":43.269467,"lon":5.386439,"is_reserved":false,"is_disabled":false,"rental_uris":{"android":"levelo://app?vid=633aacc7-068b-4bd9-9a72-c0992b8660c5","ios":"levelo://app?vid=633aacc7-068b-4bd9-9a72-c0992b8660c5"},"vehicle_type_id":"4","last_reported":1702969596,"current_range_meters":27600,"station_id":"ce4bhh92rcd13ifvqfh0","pricing_plan_id":"free"},{"bike_id":"7fa76ad8-e1c8-4af1-8ad0-61f38d2b3c79","system_id":"levelo_inurba_marseille","lat":43.269467,"lon":5.386439,"is_reserved":false,"is_disabled":false,"rental_uris":{"android":"levelo://app?vid=7fa76ad8-e1c8-4af1-8ad0-61f38d2b3c79","ios":"levelo://app?vid=7fa76ad8-e1c8-4af1-8ad0-61f38d2b3c79"},"vehicle_type_id":"4","last_reported":1702969596,"current_range_meters":21200,"station_id":"ce4bhh92rcd13ifvqfh0","pricing_plan_id":"free"},{"bike_id":"04bf6c66-6dad-4f89-9fa2-45cc729a40df","system_id":"levelo_inurba_marseille","lat":43.269467,"lon":5.386439,"is_reserved":false,"is_disabled":false,"rental_uris":{"android":"levelo://app?vid=04bf6c66-6dad-4f89-9fa2-45cc729a40df","ios":"levelo://app?vid=04bf6c66-6dad-4f89-9fa2-45cc729a40df"},"vehicle_type_id":"4","last_reported":1702969596,"current_range_meters":24800,"station_id":"ce4bhh92rcd13ifvqfh0","pricing_plan_id":"free"},{"bike_id":"d6da5ed4-47e7-4c51-9f5a-7c2d95e2f1e1","system_id":"levelo_inurba_marseille","lat":43.269319,"lon":5.389397,"is_reserved":false,"is_disabled":false,"rental_uris":{"android":"levelo://app?vid=d6da5ed4-47e7-4c51-9f5a-7c2d95e2f1e1","ios":"levelo://app?vid=d6da5ed4-47e7-4c51-9f5a-7c2d95e2f1e1"},"vehicle_type_id":"4","last_reported":1702969596,"current_range_meters":25600,"station_id":"ce4bhhh2rcd13ifvqfl0","pricing_plan_id":"free"},{"bike_id":"4332ea30-0649-4a88-a8f9-46d7928b6f43","system_id":"levelo_inurba_marseille","lat":43.26681,"lon":5.382694,"is_reserved":false,"is_disabled":false,"rental_uris":{"android":"levelo://app?vid=4332ea30-0649-4a88-a8f9-46d7928b6f43","ios":"levelo://app?vid=4332ea30-0649-4a88-a8f9-46d7928b6f43"},"vehicle_type_id":"4","last_reported":1702969596,"current_range_meters":23200,"station_id":"ce4bhg92rcd13ifvqf90","pricing_plan_id":"free"},{"bike_id":"b2b1f3ac-cb36-4abf-b35b-81035c4fb25d","system_id":"levelo_inurba_marseille","lat":43.265714,"lon":5.372891,"is_reserved":false,"is_disabled":false,"rental_uris":{"android":"levelo://app?vid=b2b1f3ac-cb36-4abf-b35b-81035c4fb25d","ios":"levelo://app?vid=b2b1f3ac-cb36-4abf-b35b-81035c4fb25d"},"vehicle_type_id":"4","last_reported":1702969596,"current_range_meters":22800,"station_id":"ce4bhg12rcd13ifvqf70","pricing_plan_id":"free"},{"bike_id":"8b473111-bd57-4eb6-aa4f-fe60580d48d7","system_id":"levelo_inurba_marseille","lat":43.27996,"lon":5.416624,"is_reserved":false,"is_disabled":false,"rental_uris":{"android":"levelo://app?vid=8b473111-bd57-4eb6-aa4f-fe60580d48d7","ios":"levelo://app?vid=8b473111-bd57-4eb6-aa4f-fe60580d48d7"},"vehicle_type_id":"4","last_reported":1702969596,"current_range_meters":24400,"station_id":"ce4bho12rcd13ifvqh1g","pricing_plan_id":"free"},{"bike_id":"b3dee9eb-87bc-418a-94f3-414b9de8167e","system_id":"levelo_inurba_marseille","lat":43.279943,"lon":5.416636,"is_reserved":false,"is_disabled":false,"rental_uris":{"android":"levelo://app?vid=b3dee9eb-87bc-418a-94f3-414b9de8167e","ios":"levelo://app?vid=b3dee9eb-87bc-418a-94f3-414b9de8167e"},"vehicle_type_id":"4","last_reported":1702969596,"current_range_meters":28000,"station_id":"ce4bho12rcd13ifvqh1g","pricing_plan_id":"free"},{"bike_id":"9b4250bf-f732-46b3-8fa8-1c1dc5bf4a18","system_id":"levelo_inurba_marseille","lat":43.27996,"lon":5.416624,"is_reserved":false,"is_disabled":false,"rental_uris":{"android":"levelo://app?vid=9b4250bf-f732-46b3-8fa8-1c1dc5bf4a18","ios":"levelo://app?vid=9b4250bf-f732-46b3-8fa8-1c1dc5bf4a18"},"vehicle_type_id":"4","last_reported":1702969596,"current_range_meters":29200,"station_id":"ce4bho12rcd13ifvqh1g","pricing_plan_id":"free"},{"bike_id":"01211a36-7873-4e73-a11f-afa5e725dc31","system_id":"levelo_inurba_marseille","lat":43.27987,"lon":5.41659,"is_reserved":false,"is_disabled":false,"rental_uris":{"android":"levelo://app?vid=01211a36-7873-4e73-a11f-afa5e725dc31","ios":"levelo://app?vid=01211a36-7873-4e73-a11f-afa5e725dc31"},"vehicle_type_id":"4","last_reported":1702969596,"current_range_meters":24000,"station_id":"ce4bho12rcd13ifvqh1g","pricing_plan_id":"free"},{"bike_id":"067632a4-e9b6-4530-813b-e4bbdfa8943f","system_id":"levelo_inurba_marseille","lat":43.265569,"lon":5.390047,"is_reserved":false,"is_disabled":false,"rental_uris":{"android":"levelo://app?vid=067632a4-e9b6-4530-813b-e4bbdfa8943f","ios":"levelo://app?vid=067632a4-e9b6-4530-813b-e4bbdfa8943f"},"vehicle_type_id":"4","last_reported":1702969596,"current_range_meters":30800,"station_id":"ce4bhe12rcd13ifvqf30","pricing_plan_id":"free"},{"bike_id":"af4da96e-4f14-4f5e-8e2d-8e907bbd8d79","system_id":"levelo_inurba_marseille","lat":43.30796,"lon":5.43528,"is_reserved":false,"is_disabled":false,"rental_uris":{"android":"levelo://app?vid=af4da96e-4f14-4f5e-8e2d-8e907bbd8d79","ios":"levelo://app?vid=af4da96e-4f14-4f5e-8e2d-8e907bbd8d79"},"vehicle_type_id":"4","last_reported":1702969596,"current_range_meters":0,"station_id":"ce4bhph2rcd13ifvqheg","pricing_plan_id":"free"},{"bike_id":"3b9717a4-e2b0-4028-ac82-a4d9e066dd69","system_id":"levelo_inurba_marseille","lat":43.265569,"lon":5.390047,"is_reserved":false,"is_disabled":false,"rental_uris":{"android":"levelo://app?vid=3b9717a4-e2b0-4028-ac82-a4d9e066dd69","ios":"levelo://app?vid=3b9717a4-e2b0-4028-ac82-a4d9e066dd69"},"vehicle_type_id":"4","last_reported":1702969596,"current_range_meters":13600,"station_id":"ce4bhe12rcd13ifvqf30","pricing_plan_id":"free"},{"bike_id":"0f41d3f0-f862-4474-86e3-f64b37b364dc","system_id":"levelo_inurba_marseille","lat":43.265569,"lon":5.390047,"is_reserved":false,"is_disabled":false,"rental_uris":{"android":"levelo://app?vid=0f41d3f0-f862-4474-86e3-f64b37b364dc","ios":"levelo://app?vid=0f41d3f0-f862-4474-86e3-f64b37b364dc"},"vehicle_type_id":"4","last_reported":1702969596,"current_range_meters":16400,"station_id":"ce4bhe12rcd13ifvqf30","pricing_plan_id":"free"},{"bike_id":"009140b8-4fcb-4b6e-b1eb-d6702d58f8d9","system_id":"levelo_inurba_marseille","lat":43.265569,"lon":5.390047,"is_reserved":false,"is_disabled":false,"rental_uris":{"android":"levelo://app?vid=009140b8-4fcb-4b6e-b1eb-d6702d58f8d9","ios":"levelo://app?vid=009140b8-4fcb-4b6e-b1eb-d6702d58f8d9"},"vehicle_type_id":"4","last_reported":1702969596,"current_range_meters":15200,"station_id":"ce4bhe12rcd13ifvqf30","pricing_plan_id":"free"},{"bike_id":"7374ef88-6f05-482f-89c0-c8bd213ca304","system_id":"levelo_inurba_marseille","lat":43.261931,"lon":5.374402,"is_reserved":false,"is_disabled":false,"rental_uris":{"android":"levelo://app?vid=7374ef88-6f05-482f-89c0-c8bd213ca304","ios":"levelo://app?vid=7374ef88-6f05-482f-89c0-c8bd213ca304"},"vehicle_type_id":"4","last_reported":1702969596,"current_range_meters":30800,"station_id":"ce4bhgp2rcd13ifvqfc0","pricing_plan_id":"free"},{"bike_id":"543888bb-7107-4f69-ba35-b0ea99c6330f","system_id":"levelo_inurba_marseille","lat":43.261909,"lon":5.374363,"is_reserved":false,"is_disabled":false,"rental_uris":{"android":"levelo://app?vid=543888bb-7107-4f69-ba35-b0ea99c6330f","ios":"levelo://app?vid=543888bb-7107-4f69-ba35-b0ea99c6330f"},"vehicle_type_id":"4","last_reported":1702969596,"current_range_meters":30000,"station_id":"ce4bhgp2rcd13ifvqfc0","pricing_plan_id":"free"},{"bike_id":"7ff8ad28-d7f6-45d2-8bef-ef8e4f332996","system_id":"levelo_inurba_marseille","lat":43.261782,"lon":5.374515,"is_reserved":false,"is_disabled":false,"rental_uris":{"android":"levelo://app?vid=7ff8ad28-d7f6-45d2-8bef-ef8e4f332996","ios":"levelo://app?vid=7ff8ad28-d7f6-45d2-8bef-ef8e4f332996"},"vehicle_type_id":"4","last_reported":1702969596,"current_range_meters":15200,"station_id":"ce4bhgp2rcd13ifvqfc0","pricing_plan_id":"free"},{"bike_id":"067df923-1955-42a0-8ba4-79c36454123d","system_id":"levelo_inurba_marseille","lat":43.261782,"lon":5.374515,"is_reserved":false,"is_disabled":false,"rental_uris":{"android":"levelo://app?vid=067df923-1955-42a0-8ba4-79c36454123d","ios":"levelo://app?vid=067df923-1955-42a0-8ba4-79c36454123d"},"vehicle_type_id":"4","last_reported":1702969596,"current_range_meters":23600,"station_id":"ce4bhgp2rcd13ifvqfc0","pricing_plan_id":"free"},{"bike_id":"792075e3-1326-437b-b17e-972850ac1ff5","system_id":"levelo_inurba_marseille","lat":43.261782,"lon":5.374515,"is_reserved":false,"is_disabled":false,"rental_uris":{"android":"levelo://app?vid=792075e3-1326-437b-b17e-972850ac1ff5","ios":"levelo://app?vid=792075e3-1326-437b-b17e-972850ac1ff5"},"vehicle_type_id":"4","last_reported":1702969596,"current_range_meters":30400,"station_id":"ce4bhgp2rcd13ifvqfc0","pricing_plan_id":"free"},{"bike_id":"80910aa8-0b36-46c5-b32e-6fd4fcf175d5","system_id":"levelo_inurba_marseille","lat":43.261782,"lon":5.374515,"is_reserved":false,"is_disabled":false,"rental_uris":{"android":"levelo://app?vid=80910aa8-0b36-46c5-b32e-6fd4fcf175d5","ios":"levelo://app?vid=80910aa8-0b36-46c5-b32e-6fd4fcf175d5"},"vehicle_type_id":"4","last_reported":1702969596,"current_range_meters":31200,"station_id":"ce4bhgp2rcd13ifvqfc0","pricing_plan_id":"free"},{"bike_id":"03005a26-e14a-4f11-96f1-489357628a6a","system_id":"levelo_inurba_marseille","lat":43.261782,"lon":5.374515,"is_reserved":false,"is_disabled":false,"rental_uris":{"android":"levelo://app?vid=03005a26-e14a-4f11-96f1-489357628a6a","ios":"levelo://app?vid=03005a26-e14a-4f11-96f1-489357628a6a"},"vehicle_type_id":"4","last_reported":1702969596,"current_range_meters":20800,"station_id":"ce4bhgp2rcd13ifvqfc0","pricing_plan_id":"free"},{"bike_id":"3522caf7-389a-44ee-bb73-c0dd5896bc20","system_id":"levelo_inurba_marseille","lat":43.261782,"lon":5.374515,"is_reserved":false,"is_disabled":false,"rental_uris":{"android":"levelo://app?vid=3522caf7-389a-44ee-bb73-c0dd5896bc20","ios":"levelo://app?vid=3522caf7-389a-44ee-bb73-c0dd5896bc20"},"vehicle_type_id":"4","last_reported":1702969596,"current_range_meters":29600,"station_id":"ce4bhgp2rcd13ifvqfc0","pricing_plan_id":"free"},{"bike_id":"a2613a6a-1028-4f8b-b65c-218b22ef370f","system_id":"levelo_inurba_marseille","lat":43.261782,"lon":5.374515,"is_reserved":false,"is_disabled":false,"rental_uris":{"android":"levelo://app?vid=a2613a6a-1028-4f8b-b65c-218b22ef370f","ios":"levelo://app?vid=a2613a6a-1028-4f8b-b65c-218b22ef370f"},"vehicle_type_id":"4","last_reported":1702969596,"current_range_meters":12400,"station_id":"ce4bhgp2rcd13ifvqfc0","pricing_plan_id":"free"},{"bike_id":"fe7fbba6-f7b0-46f1-badd-9c6008265dd2","system_id":"levelo_inurba_marseille","lat":43.271388,"lon":5.409269,"is_reserved":false,"is_disabled":false,"rental_uris":{"android":"levelo://app?vid=fe7fbba6-f7b0-46f1-badd-9c6008265dd2","ios":"levelo://app?vid=fe7fbba6-f7b0-46f1-badd-9c6008265dd2"},"vehicle_type_id":"4","last_reported":1702969596,"current_range_meters":28000,"station_id":"ce4bhl12rcd13ifvqgf0","pricing_plan_id":"free"},{"bike_id":"66e6e487-09a3-4bb5-bb6e-6c97ac38a623","system_id":"levelo_inurba_marseille","lat":43.271791,"lon":5.409881,"is_reserved":false,"is_disabled":false,"rental_uris":{"android":"levelo://app?vid=66e6e487-09a3-4bb5-bb6e-6c97ac38a623","ios":"levelo://app?vid=66e6e487-09a3-4bb5-bb6e-6c97ac38a623"},"vehicle_type_id":"4","last_reported":1702969596,"current_range_meters":27200,"station_id":"ce4bhl12rcd13ifvqgf0","pricing_plan_id":"free"},{"bike_id":"d68b4b3d-c9ca-480d-b653-7e4f0562ff31","system_id":"levelo_inurba_marseille","lat":43.271798,"lon":5.409896,"is_reserved":false,"is_disabled":false,"rental_uris":{"android":"levelo://app?vid=d68b4b3d-c9ca-480d-b653-7e4f0562ff31","ios":"levelo://app?vid=d68b4b3d-c9ca-480d-b653-7e4f0562ff31"},"vehicle_type_id":"4","last_reported":1702969596,"current_range_meters":22800,"station_id":"ce4bhl12rcd13ifvqgf0","pricing_plan_id":"free"},{"bike_id":"d9946238-8a56-44ae-a6b0-689cec9fb42b","system_id":"levelo_inurba_marseille","lat":43.271368,"lon":5.40928,"is_reserved":false,"is_disabled":false,"rental_uris":{"android":"levelo://app?vid=d9946238-8a56-44ae-a6b0-689cec9fb42b","ios":"levelo://app?vid=d9946238-8a56-44ae-a6b0-689cec9fb42b"},"vehicle_type_id":"4","last_reported":1702969596,"current_range_meters":31200,"station_id":"ce4bhl12rcd13ifvqgf0","pricing_plan_id":"free"},{"bike_id":"c0b5f27c-d60e-4f0a-8671-c3fbda7460ed","system_id":"levelo_inurba_marseille","lat":43.271737,"lon":5.40991,"is_reserved":false,"is_disabled":false,"rental_uris":{"android":"levelo://app?vid=c0b5f27c-d60e-4f0a-8671-c3fbda7460ed","ios":"levelo://app?vid=c0b5f27c-d60e-4f0a-8671-c3fbda7460ed"},"vehicle_type_id":"4","last_reported":1702969596,"current_range_meters":23200,"station_id":"ce4bhl12rcd13ifvqgf0","pricing_plan_id":"free"},{"bike_id":"af773fba-0514-4085-aaa6-9a24022684ec","system_id":"levelo_inurba_marseille","lat":43.271388,"lon":5.409269,"is_reserved":false,"is_disabled":false,"rental_uris":{"android":"levelo://app?vid=af773fba-0514-4085-aaa6-9a24022684ec","ios":"levelo://app?vid=af773fba-0514-4085-aaa6-9a24022684ec"},"vehicle_type_id":"4","last_reported":1702969596,"current_range_meters":31200,"station_id":"ce4bhl12rcd13ifvqgf0","pricing_plan_id":"free"},{"bike_id":"3f1f1e7d-4ff2-49fd-85bf-4cb4257e3933","system_id":"levelo_inurba_marseille","lat":43.298768,"lon":5.43643,"is_reserved":false,"is_disabled":false,"rental_uris":{"android":"levelo://app?vid=3f1f1e7d-4ff2-49fd-85bf-4cb4257e3933","ios":"levelo://app?vid=3f1f1e7d-4ff2-49fd-85bf-4cb4257e3933"},"vehicle_type_id":"4","last_reported":1702969596,"current_range_meters":31200,"station_id":"ce4bhpp2rcd13ifvqhfg","pricing_plan_id":"free"},{"bike_id":"2177bc73-907b-4508-94ac-ac23516a52e3","system_id":"levelo_inurba_marseille","lat":43.298768,"lon":5.43643,"is_reserved":false,"is_disabled":false,"rental_uris":{"android":"levelo://app?vid=2177bc73-907b-4508-94ac-ac23516a52e3","ios":"levelo://app?vid=2177bc73-907b-4508-94ac-ac23516a52e3"},"vehicle_type_id":"4","last_reported":1702969596,"current_range_meters":23200,"station_id":"ce4bhpp2rcd13ifvqhfg","pricing_plan_id":"free"},{"bike_id":"b328f603-749e-41e5-80d8-8c652f40eb62","system_id":"levelo_inurba_marseille","lat":43.298768,"lon":5.43643,"is_reserved":false,"is_disabled":false,"rental_uris":{"android":"levelo://app?vid=b328f603-749e-41e5-80d8-8c652f40eb62","ios":"levelo://app?vid=b328f603-749e-41e5-80d8-8c652f40eb62"},"vehicle_type_id":"4","last_reported":1702969596,"current_range_meters":29200,"station_id":"ce4bhpp2rcd13ifvqhfg","pricing_plan_id":"free"},{"bike_id":"ae5b6cc0-d3d6-4d9c-84bb-bce2de739bf7","system_id":"levelo_inurba_marseille","lat":43.298953,"lon":5.436676,"is_reserved":false,"is_disabled":false,"rental_uris":{"android":"levelo://app?vid=ae5b6cc0-d3d6-4d9c-84bb-bce2de739bf7","ios":"levelo://app?vid=ae5b6cc0-d3d6-4d9c-84bb-bce2de739bf7"},"vehicle_type_id":"4","last_reported":1702969596,"current_range_meters":24800,"station_id":"ce4bhpp2rcd13ifvqhfg","pricing_plan_id":"free"},{"bike_id":"af809f71-baf7-433c-aa94-c56af5637932","system_id":"levelo_inurba_marseille","lat":43.275028,"lon":5.424534,"is_reserved":false,"is_disabled":false,"rental_uris":{"android":"levelo://app?vid=af809f71-baf7-433c-aa94-c56af5637932","ios":"levelo://app?vid=af809f71-baf7-433c-aa94-c56af5637932"},"vehicle_type_id":"4","last_reported":1702969596,"current_range_meters":16800,"station_id":"ce4bhn92rcd13ifvqgrg","pricing_plan_id":"free"},{"bike_id":"3b3fd0e9-0f77-4a7e-acd9-6384fe9b1708","system_id":"levelo_inurba_marseille","lat":43.281548,"lon":5.42643,"is_reserved":false,"is_disabled":false,"rental_uris":{"android":"levelo://app?vid=3b3fd0e9-0f77-4a7e-acd9-6384fe9b1708","ios":"levelo://app?vid=3b3fd0e9-0f77-4a7e-acd9-6384fe9b1708"},"vehicle_type_id":"4","last_reported":1702969596,"current_range_meters":27200,"station_id":"ce4bhnh2rcd13ifvqgug","pricing_plan_id":"free"},{"bike_id":"d6aec896-bb93-4572-bb32-d830dd3ba797","system_id":"levelo_inurba_marseille","lat":43.281548,"lon":5.42643,"is_reserved":false,"is_disabled":false,"rental_uris":{"android":"levelo://app?vid=d6aec896-bb93-4572-bb32-d830dd3ba797","ios":"levelo://app?vid=d6aec896-bb93-4572-bb32-d830dd3ba797"},"vehicle_type_id":"4","last_reported":1702969596,"current_range_meters":19200,"station_id":"ce4bhnh2rcd13ifvqgug","pricing_plan_id":"free"},{"bike_id":"06a5012a-22af-4930-bb52-d6d574343cd9","system_id":"levelo_inurba_marseille","lat":43.2607,"lon":5.393983,"is_reserved":false,"is_disabled":false,"rental_uris":{"android":"levelo://app?vid=06a5012a-22af-4930-bb52-d6d574343cd9","ios":"levelo://app?vid=06a5012a-22af-4930-bb52-d6d574343cd9"},"vehicle_type_id":"4","last_reported":1702969596,"current_range_meters":28800,"station_id":"ce4bhh92rcd13ifvqfj0","pricing_plan_id":"free"},{"bike_id":"3b3f4c5c-2522-4a5c-a457-891155ce9028","system_id":"levelo_inurba_marseille","lat":43.27497,"lon":5.42446,"is_reserved":false,"is_disabled":false,"rental_uris":{"android":"levelo://app?vid=3b3f4c5c-2522-4a5c-a457-891155ce9028","ios":"levelo://app?vid=3b3f4c5c-2522-4a5c-a457-891155ce9028"},"vehicle_type_id":"4","last_reported":1702969596,"current_range_meters":21600,"station_id":"ce4bhn92rcd13ifvqgrg","pricing_plan_id":"free"},{"bike_id":"e5c0e845-5529-4741-88ec-85be98a6be97","system_id":"levelo_inurba_marseille","lat":43.275028,"lon":5.424534,"is_reserved":false,"is_disabled":false,"rental_uris":{"android":"levelo://app?vid=e5c0e845-5529-4741-88ec-85be98a6be97","ios":"levelo://app?vid=e5c0e845-5529-4741-88ec-85be98a6be97"},"vehicle_type_id":"4","last_reported":1702969596,"current_range_meters":25200,"station_id":"ce4bhn92rcd13ifvqgrg","pricing_plan_id":"free"},{"bike_id":"d6f435ba-4bf8-46a2-8514-9e919c5ff01a","system_id":"levelo_inurba_marseille","lat":43.275028,"lon":5.424534,"is_reserved":false,"is_disabled":false,"rental_uris":{"android":"levelo://app?vid=d6f435ba-4bf8-46a2-8514-9e919c5ff01a","ios":"levelo://app?vid=d6f435ba-4bf8-46a2-8514-9e919c5ff01a"},"vehicle_type_id":"4","last_reported":1702969596,"current_range_meters":30000,"station_id":"ce4bhn92rcd13ifvqgrg","pricing_plan_id":"free"},{"bike_id":"c4473f4c-d6b6-4314-9df6-434f3f1f360e","system_id":"levelo_inurba_marseille","lat":43.275028,"lon":5.424534,"is_reserved":false,"is_disabled":false,"rental_uris":{"android":"levelo://app?vid=c4473f4c-d6b6-4314-9df6-434f3f1f360e","ios":"levelo://app?vid=c4473f4c-d6b6-4314-9df6-434f3f1f360e"},"vehicle_type_id":"4","last_reported":1702969596,"current_range_meters":26000,"station_id":"ce4bhn92rcd13ifvqgrg","pricing_plan_id":"free"},{"bike_id":"ff337f60-e3c1-479e-9850-09ad5e0221a6","system_id":"levelo_inurba_marseille","lat":43.275028,"lon":5.424534,"is_reserved":false,"is_disabled":false,"rental_uris":{"android":"levelo://app?vid=ff337f60-e3c1-479e-9850-09ad5e0221a6","ios":"levelo://app?vid=ff337f60-e3c1-479e-9850-09ad5e0221a6"},"vehicle_type_id":"4","last_reported":1702969596,"current_range_meters":26000,"station_id":"ce4bhn92rcd13ifvqgrg","pricing_plan_id":"free"},{"bike_id":"0ac78daa-80e0-4da7-9421-091ef36057c7","system_id":"levelo_inurba_marseille","lat":43.275028,"lon":5.424534,"is_reserved":false,"is_disabled":false,"rental_uris":{"android":"levelo://app?vid=0ac78daa-80e0-4da7-9421-091ef36057c7","ios":"levelo://app?vid=0ac78daa-80e0-4da7-9421-091ef36057c7"},"vehicle_type_id":"4","last_reported":1702969596,"current_range_meters":20400,"station_id":"ce4bhn92rcd13ifvqgrg","pricing_plan_id":"free"},