{"last_updated":1731960678,"ttl":60,"version":"2.2","data":{"bikes":[{"bike_id":"457bb5e6-741e-4f94-a043-dca2d0f5b93a","system_id":"levelo_inurba_marseille","lat":43.3136,"lon":5.38489,"is_reserved":false,"is_disabled":false,"rental_uris":{"android":"levelo://app?vid=457bb5e6-741e-4f94-a043-dca2d0f5b93a","ios":"levelo://app?vid=457bb5e6-741e-4f94-a043-dca2d0f5b93a"},"vehicle_type_id":"4","last_reported":1731960678,"current_range_meters":12000,"station_id":"ce4bgt92rcd13ifvqcf0","pricing_plan_id":"cebpf4jnsgd1na2vs0mg"},{"bike_id":"3921a9f0-bca5-4438-8c4e-1dddd4afb0ff","system_id":"levelo_inurba_marseille","lat":43.31361,"lon":5.38497,"is_reserved":false,"is_disabled":false,"rental_uris":{"android":"levelo://app?vid=3921a9f0-bca5-4438-8c4e-1dddd4afb0ff","ios":"levelo://app?vid=3921a9f0-bca5-4438-8c4e-1dddd4afb0ff"},"vehicle_type_id":"4","last_reported":1731960678,"current_range_meters":34000,"station_id":"ce4bgt92rcd13ifvqcf0","pricing_plan_id":"cebpf4jnsgd1na2vs0mg"},{"bike_id":"2f5083a8-01ca-4328-baf6-04e4b87dc35e","system_id":"levelo_inurba_marseille","lat":43.27914,"lon":5.39579,"is_reserved":false,"is_disabled":false,"rental_uris":{"android":"levelo://app?vid=2f5083a8-01ca-4328-baf6-04e4b87dc35e","ios":"levelo://app?vid=2f5083a8-01ca-4328-baf6-04e4b87dc35e"},"vehicle_type_id":"4","last_reported":1731960678,"current_range_meters":29600,"station_id":"ce4bhf92rcd13ifvqf40","pricing_plan_id":"cebpf4jnsgd1na2vs0mg"},{"bike_id":"49864ad7-63ea-4a48-a2f4-e532f0c5eb68","system_id":"levelo_inurba_marseille","lat":43.27943,"lon":5.41044,"is_reserved":false,"is_disabled":false,"rental_uris":{"android":"levelo://app?vid=49864ad7-63ea-4a48-a2f4-e532f0c5eb68","ios":"levelo://app?vid=49864ad7-63ea-4a48-a2f4-e532f0c5eb68"},"vehicle_type_id":"4","last_reported":1731960678,"current_range_meters":32800,"station_id":"ce4bhnp2rcd13ifvqh0g","pricing_plan_id":"cebpf4jnsgd1na2vs0mg"},{"bike_id":"25f8dcd6-e93b-448a-bd9f-a4f93452d1ce","system_id":"levelo_inurba_marseille","lat":43.29031,"lon":5.38641,"is_reserved":false,"is_disabled":false,"rental_uris":{"android":"levelo://app?vid=25f8dcd6-e93b-448a-bd9f-a4f93452d1ce","ios":"levelo://app?vid=25f8dcd6-e93b-448a-bd9f-a4f93452d1ce"},"vehicle_type_id":"4","last_reported":1731960678,"current_range_meters":30000,"station_id":"ce4bh4p2rcd13ifvqe0g","pricing_plan_id":"cebpf4jnsgd1na2vs0mg"},{"bike_id":"b34dc67d-52d5-44ae-aae5-f2d3a3b539f1","system_id":"levelo_inurba_marseille","lat":43.29249,"lon":5.40911,"is_reserved":false,"is_disabled":false,"rental_uris":{"android":"levelo://app?vid=b34dc67d-52d5-44ae-aae5-f2d3a3b539f1","ios":"levelo://app?vid=b34dc67d-52d5-44ae-aae5-f2d3a3b539f1"},"vehicle_type_id":"4","last_reported":1731960678,"current_range_meters":28800,"station_id":"ce4bh192rcd13ifvqdc0","pricing_plan_id":"cebpf4jnsgd1na2vs0mg"},{"bike_id":"ce89f770-1af6-42de-ae86-7bde1e2bf738","system_id":"levelo_inurba_marseille","lat":43.30833,"lon":5.39186,"is_reserved":false,"is_disabled":false,"rental_uris":{"android":"levelo://app?vid=ce89f770-1af6-42de-ae86-7bde1e2bf738","ios":"levelo://app?vid=ce89f770-1af6-42de-ae86-7bde1e2bf738"},"vehicle_type_id":"4","last_reported":1731960678,"current_range_meters":10800,"station_id":"","pricing_plan_id":"cebpf4jnsgd1na2vs0mg"},{"bike_id":"ee8b0697-df46-4de8-b7de-734c3a73285b","system_id":"levelo_inurba_marseille","lat":43.27811,"lon":5.40713,"is_reserved":false,"is_disabled":false,"rental_uris":{"android":"levelo://app?vid=ee8b0697-df46-4de8-b7de-734c3a73285b","ios":"levelo://app?vid=ee8b0697-df46-4de8-b7de-734c3a73285b"},"vehicle_type_id":"4","last_reported":1731960678,"current_range_meters":33600,"station_id":"ce4bhnh2rcd13ifvqgtg","pricing_plan_id":"cebpf4jnsgd1na2vs0mg"},{"bike_id":"0bc2b4da-31a7-4cb4-95e9-3aa3825f7da9","system_id":"levelo_inurba_marseille","lat":43.27994,"lon":5.40015,"is_reserved":false,"is_disabled":false,"rental_uris":{"android":"levelo://app?vid=0bc2b4da-31a7-4cb4-95e9-3aa3825f7da9","ios":"levelo://app?vid=0bc2b4da-31a7-4cb4-95e9-3aa3825f7da9"},"vehicle_type_id":"4","last_reported":1731960678,"current_range_meters":14800,"station_id":"ce4bho92rcd13ifvqh4g","pricing_plan_id":"cebpf4jnsgd1na2vs0mg"},{"bike_id":"e6d65266-7a6e-4019-b71a-d22b4f4d32f0","system_id":"levelo_inurba_marseille","lat":43.29572,"lon":5.39975,"is_reserved":false,"is_disabled":false,"rental_uris":{"android":"levelo://app?vid=e6d65266-7a6e-4019-b71a-d22b4f4d32f0","ios":"levelo://app?vid=e6d65266-7a6e-4019-b71a-d22b4f4d32f0"},"vehicle_type_id":"4","last_reported":1731960678,"current_range_meters":25200,"station_id":"ce4bh312rcd13ifvqdj0","pricing_plan_id":"cebpf4jnsgd1na2vs0mg"},{"bike_id":"0ea44848-01bd-4ed5-98b4-d4fbd5a0a025","system_id":"levelo_inurba_marseille","lat":43.29518,"lon":5.3904,"is_reserved":false,"is_disabled":false,"rental_uris":{"android":"levelo://app?vid=0ea44848-01bd-4ed5-98b4-d4fbd5a0a025","ios":"levelo://app?vid=0ea44848-01bd-4ed5-98b4-d4fbd5a0a025"},"vehicle_type_id":"4","last_reported":1731960678,"current_range_meters":38000,"station_id":"ce4bh3p2rcd13ifvqdp0","pricing_plan_id":"cebpf4jnsgd1na2vs0mg"},{"bike_id":"98568737-99bd-4851-a170-5764e02de3a0","system_id":"levelo_inurba_marseille","lat":43.31762,"lon":5.39014,"is_reserved":false,"is_disabled":false,"rental_uris":{"android":"levelo://app?vid=98568737-99bd-4851-a170-5764e02de3a0","ios":"levelo://app?vid=98568737-99bd-4851-a170-5764e02de3a0"},"vehicle_type_id":"4","last_reported":1731960678,"current_range_meters":37600,"station_id":"ce4bhqp2rcd13ifvqhng","pricing_plan_id":"cebpf4jnsgd1na2vs0mg"},{"bike_id":"d838c511-985c-4183-8c24-535a414ed191","system_id":"levelo_inurba_marseille","lat":43.29905,"lon":5.38157,"is_reserved":false,"is_disabled":false,"rental_uris":{"android":"levelo://app?vid=d838c511-985c-4183-8c24-535a414ed191","ios":"levelo://app?vid=d838c511-985c-4183-8c24-535a414ed191"},"vehicle_type_id":"4","last_reported":1731960678,"current_range_meters":38400,"station_id":"ce4bgj12rcd13ifvqbc0","pricing_plan_id":"cebpf4jnsgd1na2vs0mg"},{"bike_id":"69b9fb52-b1e8-402f-9b6f-d88522e081d9","system_id":"levelo_inurba_marseille","lat":43.27994,"lon":5.40019,"is_reserved":false,"is_disabled":false,"rental_uris":{"android":"levelo://app?vid=69b9fb52-b1e8-402f-9b6f-d88522e081d9","ios":"levelo://app?vid=69b9fb52-b1e8-402f-9b6f-d88522e081d9"},"vehicle_type_id":"4","last_reported":1731960678,"current_range_meters":24400,"station_id":"ce4bho92rcd13ifvqh4g","pricing_plan_id":"cebpf4jnsgd1na2vs0mg"},{"bike_id":"6c926eef-89ef-4421-9c04-3c9899f3173b","system_id":"levelo_inurba_marseille","lat":43.29895,"lon":5.43652,"is_reserved":false,"is_disabled":true,"rental_uris":{"android":"levelo://app?vid=6c926eef-89ef-4421-9c04-3c9899f3173b","ios":"levelo://app?vid=6c926eef-89ef-4421-9c04-3c9899f3173b"},"vehicle_type_id":"4","last_reported":1731960678,"current_range_meters":0,"station_id":"ce4bhpp2rcd13ifvqhfg","pricing_plan_id":"cebpf4jnsgd1na2vs0mg"},{"bike_id":"81108a94-b9fd-4847-be3f-917addbb08ef","system_id":"levelo_inurba_marseille","lat":43.265583,"lon":5.372881,"is_reserved":false,"is_disabled":true,"rental_uris":{"android":"levelo://app?vid=81108a94-b9fd-4847-be3f-917addbb08ef","ios":"levelo://app?vid=81108a94-b9fd-4847-be3f-917addbb08ef"},"vehicle_type_id":"4","last_reported":1731960678,"current_range_meters":0,"station_id":"ce4bhg12rcd13ifvqf70","pricing_plan_id":"cebpf4jnsgd1na2vs0mg"},{"bike_id":"e08875d1-5eda-43a9-a5b5-ee3ebd16c83c","system_id":"levelo_inurba_marseille","lat":43.25006,"lon":5.38921,"is_reserved":false,"is_disabled":true,"rental_uris":{"android":"levelo://app?vid=e08875d1-5eda-43a9-a5b5-ee3ebd16c83c","ios":"levelo://app?vid=e08875d1-5eda-43a9-a5b5-ee3ebd16c83c"},"vehicle_type_id":"4","last_reported":1731960678,"current_range_meters":1200,"station_id":"ce4bhgp2rcd13ifvqfd0","pricing_plan_id":"cebpf4jnsgd1na2vs0mg"},{"bike_id":"c3b1ce3a-e702-49a2-a08b-94878bf4d877","system_id":"levelo_inurba_marseille","lat":43.27995,"lon":5.41659,"is_reserved":false,"is_disabled":false,"rental_uris":{"android":"levelo://app?vid=c3b1ce3a-e702-49a2-a08b-94878bf4d877","ios":"levelo://app?vid=c3b1ce3a-e702-49a2-a08b-94878bf4d877"},"vehicle_type_id":"4","last_reported":1731960678,"current_range_meters":29600,"station_id":"ce4bho12rcd13ifvqh1g","pricing_plan_id":"cebpf4jnsgd1na2vs0mg"},{"bike_id":"93af801b-c654-4593-906a-c9783b650e09","system_id":"levelo_inurba_marseille","lat":43.28833,"lon":5.35853,"is_reserved":false,"is_disabled":false,"rental_uris":{"android":"levelo://app?vid=93af801b-c654-4593-906a-c9783b650e09","ios":"levelo://app?vid=93af801b-c654-4593-906a-c9783b650e09"},"vehicle_type_id":"4","last_reported":1731960678,"current_range_meters":39200,"station_id":"ce4bhb12rcd13ifvqem0","pricing_plan_id":"cebpf4jnsgd1na2vs0mg"},{"bike_id":"8c36b5d5-2178-48be-bf28-c25b63f578ce","system_id":"levelo_inurba_marseille","lat":43.29977,"lon":5.38481,"is_reserved":false,"is_disabled":false,"rental_uris":{"android":"levelo://app?vid=8c36b5d5-2178-48be-bf28-c25b63f578ce","ios":"levelo://app?vid=8c36b5d5-2178-48be-bf28-c25b63f578ce"},"vehicle_type_id":"4","last_reported":1731960678,"current_range_meters":20000,"station_id":"ce4bgj92rcd13ifvqbd0","pricing_plan_id":"cebpf4jnsgd1na2vs0mg"},{"bike_id":"d4686528-7199-4ef3-87fb-27c65fe0d3ee","system_id":"levelo_inurba_marseille","lat":43.28851,"lon":5.39319,"is_reserved":false,"is_disabled":false,"rental_uris":{"android":"levelo://app?vid=d4686528-7199-4ef3-87fb-27c65fe0d3ee","ios":"levelo://app?vid=d4686528-7199-4ef3-87fb-27c65fe0d3ee"},"vehicle_type_id":"4","last_reported":1731960678,"current_range_meters":12400,"station_id":"ce4bh2p2rcd13ifvqdi0","pricing_plan_id":"cebpf4jnsgd1na2vs0mg"},{"bike_id":"a3846304-4a92-4287-9b66-9391000a30bf","system_id":"levelo_inurba_marseille","lat":43.31361,"lon":5.38498,"is_reserved":false,"is_disabled":false,"rental_uris":{"android":"levelo://app?vid=a3846304-4a92-4287-9b66-9391000a30bf","ios":"levelo://app?vid=a3846304-4a92-4287-9b66-9391000a30bf"},"vehicle_type_id":"4","last_reported":1731960678,"current_range_meters":39200,"station_id":"ce4bgt92rcd13ifvqcf0","pricing_plan_id":"cebpf4jnsgd1na2vs0mg"},{"bike_id":"226e83bf-1a60-405a-af72-b50b167433a5","system_id":"levelo_inurba_marseille","lat":43.29569,"lon":5.39956,"is_reserved":false,"is_disabled":false,"rental_uris":{"android":"levelo://app?vid=226e83bf-1a60-405a-af72-b50b167433a5","ios":"levelo://app?vid=226e83bf-1a60-405a-af72-b50b167433a5"},"vehicle_type_id":"4","last_reported":1731960678,"current_range_meters":37600,"station_id":"ce4bh312rcd13ifvqdj0","pricing_plan_id":"cebpf4jnsgd1na2vs0mg"},{"bike_id":"4e682c21-86be-4d76-a64b-638a60816da7","system_id":"levelo_inurba_marseille","lat":43.27809,"lon":5.40707,"is_reserved":false,"is_disabled":false,"rental_uris":{"android":"levelo://app?vid=4e682c21-86be-4d76-a64b-638a60816da7","ios":"levelo://app?vid=4e682c21-86be-4d76-a64b-638a60816da7"},"vehicle_type_id":"4","last_reported":1731960678,"current_range_meters":22000,"station_id":"ce4bhnh2rcd13ifvqgtg","pricing_plan_id":"cebpf4jnsgd1na2vs0mg"},{"bike_id":"bae82c72-dd9f-4169-921f-dd85ce960e77","system_id":"levelo_inurba_marseille","lat":43.31344,"lon":5.36714,"is_reserved":false,"is_disabled":false,"rental_uris":{"android":"levelo://app?vid=bae82c72-dd9f-4169-921f-dd85ce960e77","ios":"levelo://app?vid=bae82c72-dd9f-4169-921f-dd85ce960e77"},"vehicle_type_id":"4","last_reported":1731960678,"current_range_meters":8800,"station_id":"ce4bgr92rcd13ifvqc6g","pricing_plan_id":"cebpf4jnsgd1na2vs0mg"},{"bike_id":"8cdcff88-f0a9-48bf-bc2d-1d0e44dc6973","system_id":"levelo_inurba_marseille","lat":43.28667,"lon":5.36348,"is_reserved":false,"is_disabled":false,"rental_uris":{"android":"levelo://app?vid=8cdcff88-f0a9-48bf-bc2d-1d0e44dc6973","ios":"levelo://app?vid=8cdcff88-f0a9-48bf-bc2d-1d0e44dc6973"},"vehicle_type_id":"4","last_reported":1731960678,"current_range_meters":30400,"station_id":"ce4bhah2rcd13ifvqej0","pricing_plan_id":"cebpf4jnsgd1na2vs0mg"},{"bike_id":"d930277f-ae59-4a27-9409-f96eb995b54c","system_id":"levelo_inurba_marseille","lat":43.29514,"lon":5.39035,"is_reserved":false,"is_disabled":false,"rental_uris":{"android":"levelo://app?vid=d930277f-ae59-4a27-9409-f96eb995b54c","ios":"levelo://app?vid=d930277f-ae59-4a27-9409-f96eb995b54c"},"vehicle_type_id":"4","last_reported":1731960678,"current_range_meters":30400,"station_id":"ce4bh3p2rcd13ifvqdp0","pricing_plan_id":"cebpf4jnsgd1na2vs0mg"},{"bike_id":"d6bff71c-6433-44f9-bc58-0b214890c9b0","system_id":"levelo_inurba_marseille","lat":43.27802,"lon":5.40709,"is_reserved":false,"is_disabled":false,"rental_uris":{"android":"levelo://app?vid=d6bff71c-6433-44f9-bc58-0b214890c9b0","ios":"levelo://app?vid=d6bff71c-6433-44f9-bc58-0b214890c9b0"},"vehicle_type_id":"4","last_reported":1731960678,"current_range_meters":32000,"station_id":"ce4bhnh2rcd13ifvqgtg","pricing_plan_id":"cebpf4jnsgd1na2vs0mg"},{"bike_id":"bf87836b-438d-4b6d-b9b3-cf8fd9fd8f8b","system_id":"levelo_inurba_marseille","lat":43.30924,"lon":5.40139,"is_reserved":false,"is_disabled":false,"rental_uris":{"android":"levelo://app?vid=bf87836b-438d-4b6d-b9b3-cf8fd9fd8f8b","ios":"levelo://app?vid=bf87836b-438d-4b6d-b9b3-cf8fd9fd8f8b"},"vehicle_type_id":"4","last_reported":1731960678,"current_range_meters":38800,"station_id":"ce4bgvp2rcd13ifvqct0","pricing_plan_id":"cebpf4jnsgd1na2vs0mg"},{"bike_id":"43fc3a21-f3df-43fc-8276-7a68f99281c3","system_id":"levelo_inurba_marseille","lat":43.25118,"lon":5.40307,"is_reserved":false,"is_disabled":true,"rental_uris":{"android":"levelo://app?vid=43fc3a21-f3df-43fc-8276-7a68f99281c3","ios":"levelo://app?vid=43fc3a21-f3df-43fc-8276-7a68f99281c3"},"vehicle_type_id":"4","last_reported":1731960678,"current_range_meters":800,"station_id":"ce4bhlh2rcd13ifvqgig","pricing_plan_id":"cebpf4jnsgd1na2vs0mg"},{"bike_id":"6ba2d3f3-c655-4e14-8211-bd7d1cb3d06a","system_id":"levelo_inurba_marseille","lat":43.2987,"lon":5.39737,"is_reserved":false,"is_disabled":false,"rental_uris":{"android":"levelo://app?vid=6ba2d3f3-c655-4e14-8211-bd7d1cb3d06a","ios":"levelo://app?vid=6ba2d3f3-c655-4e14-8211-bd7d1cb3d06a"},"vehicle_type_id":"4","last_reported":1731960678,"current_range_meters":38800,"station_id":"ce4bh0h2rcd13ifvqd50","pricing_plan_id":"cebpf4jnsgd1na2vs0mg"},{"bike_id":"38ef1c7d-db66-4004-abf9-f9fc6a67758b","system_id":"levelo_inurba_marseille","lat":43.31361,"lon":5.38493,"is_reserved":false,"is_disabled":false,"rental_uris":{"android":"levelo://app?vid=38ef1c7d-db66-4004-abf9-f9fc6a67758b","ios":"levelo://app?vid=38ef1c7d-db66-4004-abf9-f9fc6a67758b"},"vehicle_type_id":"4","last_reported":1731960678,"current_range_meters":16800,"station_id":"ce4bgt92rcd13ifvqcf0","pricing_plan_id":"cebpf4jnsgd1na2vs0mg"},{"bike_id":"4612e287-ccfe-4af4-be38-92e9c35c2c3a","system_id":"levelo_inurba_marseille","lat":43.24668,"lon":5.38157,"is_reserved":false,"is_disabled":false,"rental_uris":{"android":"levelo://app?vid=4612e287-ccfe-4af4-be38-92e9c35c2c3a","ios":"levelo://app?vid=4612e287-ccfe-4af4-be38-92e9c35c2c3a"},"vehicle_type_id":"4","last_reported":1731960678,"current_range_meters":4000,"station_id":"ce4bhih2rcd13ifvqfr0","pricing_plan_id":"cebpf4jnsgd1na2vs0mg"},{"bike_id":"bc122eef-c627-4c48-898c-81234e04e2bd","system_id":"levelo_inurba_marseille","lat":43.30594,"lon":5.39349,"is_reserved":false,"is_disabled":true,"rental_uris":{"android":"levelo://app?vid=bc122eef-c627-4c48-898c-81234e04e2bd","ios":"levelo://app?vid=bc122eef-c627-4c48-898c-81234e04e2bd"},"vehicle_type_id":"4","last_reported":1731960678,"current_range_meters":23200,"station_id":"ce4bh0p2rcd13ifvqd80","pricing_plan_id":"cebpf4jnsgd1na2vs0mg"},{"bike_id":"56c4e209-27f1-4b9b-916c-ad011ba60920","system_id":"levelo_inurba_marseille","lat":43.33024,"lon":5.39041,"is_reserved":false,"is_disabled":false,"rental_uris":{"android":"levelo://app?vid=56c4e209-27f1-4b9b-916c-ad011ba60920","ios":"levelo://app?vid=56c4e209-27f1-4b9b-916c-ad011ba60920"},"vehicle_type_id":"4","last_reported":1731960678,"current_range_meters":23200,"station_id":"ce4bhr92rcd13ifvqhrg","pricing_plan_id":"cebpf4jnsgd1na2vs0mg"},{"bike_id":"9c003458-5bcb-4587-ba82-142e30067a2f","system_id":"levelo_inurba_marseille","lat":43.33027,"lon":5.39037,"is_reserved":false,"is_disabled":false,"rental_uris":{"android":"levelo://app?vid=9c003458-5bcb-4587-ba82-142e30067a2f","ios":"levelo://app?vid=9c003458-5bcb-4587-ba82-142e30067a2f"},"vehicle_type_id":"4","last_reported":1731960678,"current_range_meters":38800,"station_id":"ce4bhr92rcd13ifvqhrg","pricing_plan_id":"cebpf4jnsgd1na2vs0mg"},{"bike_id":"e138b0e1-0592-4057-bb8b-cf36d0939c91","system_id":"levelo_inurba_marseille","lat":43.27994,"lon":5.40022,"is_reserved":false,"is_disabled":false,"rental_uris":{"android":"levelo://app?vid=e138b0e1-0592-4057-bb8b-cf36d0939c91","ios":"levelo://app?vid=e138b0e1-0592-4057-bb8b-cf36d0939c91"},"vehicle_type_id":"4","last_reported":1731960678,"current_range_meters":38800,"station_id":"ce4bho92rcd13ifvqh4g","pricing_plan_id":"cebpf4jnsgd1na2vs0mg"},{"bike_id":"1341a828-b981-4198-a789-8a5791ca7539","system_id":"levelo_inurba_marseille","lat":43.25003,"lon":5.38908,"is_reserved":false,"is_disabled":true,"rental_uris":{"android":"levelo://app?vid=1341a828-b981-4198-a789-8a5791ca7539","ios":"levelo://app?vid=1341a828-b981-4198-a789-8a5791ca7539"},"vehicle_type_id":"4","last_reported":1731960678,"current_range_meters":0,"station_id":"ce4bhgp2rcd13ifvqfd0","pricing_plan_id":"cebpf4jnsgd1na2vs0mg"},{"bike_id":"423c94ef-b71b-4307-a3dd-5dfeaef4c110","system_id":"levelo_inurba_marseille","lat":43.28408,"lon":5.37523,"is_reserved":false,"is_disabled":false,"rental_uris":{"android":"levelo://app?vid=423c94ef-b71b-4307-a3dd-5dfeaef4c110","ios":"levelo://app?vid=423c94ef-b71b-4307-a3dd-5dfeaef4c110"},"vehicle_type_id":"4","last_reported":1731960678,"current_range_meters":32000,"station_id":"ce4bh412rcd13ifvqds0","pricing_plan_id":"cebpf4jnsgd1na2vs0mg"},{"bike_id":"fd6b7b9d-623f-4fa0-89e1-3ab5ed565518","system_id":"levelo_inurba_marseille","lat":43.29522,"lon":5.39039,"is_reserved":false,"is_disabled":false,"rental_uris":{"android":"levelo://app?vid=fd6b7b9d-623f-4fa0-89e1-3ab5ed565518","ios":"levelo://app?vid=fd6b7b9d-623f-4fa0-89e1-3ab5ed565518"},"vehicle_type_id":"4","last_reported":1731960678,"current_range_meters":7200,"station_id":"ce4bh3p2rcd13ifvqdp0","pricing_plan_id":"cebpf4jnsgd1na2vs0mg"},{"bike_id":"73e893d7-288d-4212-84f4-e9e28b81fc1a","system_id":"levelo_inurba_marseille","lat":43.23966,"lon":5.3663,"is_reserved":false,"is_disabled":false,"rental_uris":{"android":"levelo://app?vid=73e893d7-288d-4212-84f4-e9e28b81fc1a","ios":"levelo://app?vid=73e893d7-288d-4212-84f4-e9e28b81fc1a"},"vehicle_type_id":"4","last_reported":1731960678,"current_range_meters":34000,"station_id":"ce4bhi12rcd13ifvqfp0","pricing_plan_id":"cebpf4jnsgd1na2vs0mg"},{"bike_id":"57b7d061-18f4-4aaa-9bbe-4aed8dac4778","system_id":"levelo_inurba_marseille","lat":43.29807,"lon":5.38094,"is_reserved":false,"is_disabled":false,"rental_uris":{"android":"levelo://app?vid=57b7d061-18f4-4aaa-9bbe-4aed8dac4778","ios":"levelo://app?vid=57b7d061-18f4-4aaa-9bbe-4aed8dac4778"},"vehicle_type_id":"4","last_reported":1731960678,"current_range_meters":37600,"station_id":"ce4bgip2rcd13ifvqbb0","pricing_plan_id":"cebpf4jnsgd1na2vs0mg"},{"bike_id":"ef31495f-6a34-4d74-a72b-91bbac7371df","system_id":"levelo_inurba_marseille","lat":43.25907,"lon":5.40883,"is_reserved":false,"is_disabled":true,"rental_uris":{"android":"levelo://app?vid=ef31495f-6a34-4d74-a72b-91bbac7371df","ios":"levelo://app?vid=ef31495f-6a34-4d74-a72b-91bbac7371df"},"vehicle_type_id":"4","last_reported":1731960678,"current_range_meters":23200,"station_id":"ce4bhm92rcd13ifvqglg","pricing_plan_id":"cebpf4jnsgd1na2vs0mg"},{"bike_id":"d10c90fd-3c70-4bb6-bcaa-6d62b6ce4770","system_id":"levelo_inurba_marseille","lat":43.2606,"lon":5.39384,"is_reserved":false,"is_disabled":true,"rental_uris":{"android":"levelo://app?vid=d10c90fd-3c70-4bb6-bcaa-6d62b6ce4770","ios":"levelo://app?vid=d10c90fd-3c70-4bb6-bcaa-6d62b6ce4770"},"vehicle_type_id":"4","last_reported":1731960678,"current_range_meters":10000,"station_id":"ce4bhh92rcd13ifvqfj0","pricing_plan_id":"cebpf4jnsgd1na2vs0mg"},{"bike_id":"5917a06d-1a89-42ee-9c96-70b3e49f2520","system_id":"levelo_inurba_marseille","lat":43.317,"lon":5.40473,"is_reserved":false,"is_disabled":true,"rental_uris":{"android":"levelo://app?vid=5917a06d-1a89-42ee-9c96-70b3e49f2520","ios":"levelo://app?vid=5917a06d-1a89-42ee-9c96-70b3e49f2520"},"vehicle_type_id":"4","last_reported":1731960678,"current_range_meters":17600,"station_id":"ce4bh012rcd13ifvqd00","pricing_plan_id":"cebpf4jnsgd1na2vs0mg"},{"bike_id":"dbf60536-a536-4a38-8bbd-8d36414f5350","system_id":"levelo_inurba_marseille","lat":43.28849,"lon":5.35858,"is_reserved":false,"is_disabled":false,"rental_uris":{"android":"levelo://app?vid=dbf60536-a536-4a38-8bbd-8d36414f5350","ios":"levelo://app?vid=dbf60536-a536-4a38-8bbd-8d36414f5350"},"vehicle_type_id":"4","last_reported":1731960678,"current_range_meters":38800,"station_id":"ce4bhb12rcd13ifvqem0","pricing_plan_id":"cebpf4jnsgd1na2vs0mg"},{"bike_id":"2c263757-7671-407f-89c7-d1436f782341","system_id":"levelo_inurba_marseille","lat":43.28074,"lon":5.39652,"is_reserved":false,"is_disabled":false,"rental_uris":{"android":"levelo://app?vid=2c263757-7671-407f-89c7-d1436f782341","ios":"levelo://app?vid=2c263757-7671-407f-89c7-d1436f782341"},"vehicle_type_id":"4","last_reported":1731960678,"current_range_meters":33200,"station_id":"ce4bho12rcd13ifvqh2g","pricing_plan_id":"cebpf4jnsgd1na2vs0mg"},{"bike_id":"e095c480-1be3-4d37-84b1-7d30698bce1c","system_id":"levelo_inurba_marseille","lat":43.28699,"lon":5.37402,"is_reserved":false,"is_disabled":false,"rental_uris":{"android":"levelo://app?vid=e095c480-1be3-4d37-84b1-7d30698bce1c","ios":"levelo://app?vid=e095c480-1be3-4d37-84b1-7d30698bce1c"},"vehicle_type_id":"4","last_reported":1731960678,"current_range_meters":8000,"station_id":"ce4bh3p2rcd13ifvqdq0","pricing_plan_id":"cebpf4jnsgd1na2vs0mg"},{"bike_id":"7469e33e-c994-4731-b38b-2241d8efe8e6","system_id":"levelo_inurba_marseille","lat":43.28669,"lon":5.36354,"is_reserved":false,"is_disabled":false,"rental_uris":{"android":"levelo://app?vid=7469e33e-c994-4731-b38b-2241d8efe8e6","ios":"levelo://app?vid=7469e33e-c994-4731-b38b-2241d8efe8e6"},"vehicle_type_id":"4","last_reported":1731960678,"current_range_meters":28000,"station_id":"ce4bhah2rcd13ifvqej0","pricing_plan_id":"cebpf4jnsgd1na2vs0mg"},{"bike_id":"02c7140d-eb0a-4832-a8c4-16edc8f79941","system_id":"levelo_inurba_marseille","lat":43.23965,"lon":5.36645,"is_reserved":false,"is_disabled":false,"rental_uris":{"android":"levelo://app?vid=02c7140d-eb0a-4832-a8c4-16edc8f79941","ios":"levelo://app?vid=02c7140d-eb0a-4832-a8c4-16edc8f79941"},"vehicle_type_id":"4","last_reported":1731960678,"current_range_meters":24400,"station_id":"ce4bhi12rcd13ifvqfp0","pricing_plan_id":"cebpf4jnsgd1na2vs0mg"},{"bike_id":"0534ce24-46b6-4220-851d-cebdfec71164","system_id":"levelo_inurba_marseille","lat":43.23185,"lon":5.39978,"is_reserved":false,"is_disabled":true,"rental_uris":{"android":"levelo://app?vid=0534ce24-46b6-4220-851d-cebdfec71164","ios":"levelo://app?vid=0534ce24-46b6-4220-851d-cebdfec71164"},"vehicle_type_id":"4","last_reported":1731960678,"current_range_meters":0,"station_id":"ce4bhn12rcd13ifvqgqg","pricing_plan_id":"cebpf4jnsgd1na2vs0mg"},{"bike_id":"b41c3259-f02a-480a-9220-6fe6ddaab3fa","system_id":"levelo_inurba_marseille","lat":43.27812,"lon":5.40713,"is_reserved":false,"is_disabled":false,"rental_uris":{"android":"levelo://app?vid=b41c3259-f02a-480a-9220-6fe6ddaab3fa","ios":"levelo://app?vid=b41c3259-f02a-480a-9220-6fe6ddaab3fa"},"vehicle_type_id":"4","last_reported":1731960678,"current_range_meters":18000,"station_id":"ce4bhnh2rcd13ifvqgtg","pricing_plan_id":"cebpf4jnsgd1na2vs0mg"},{"bike_id":"cf66e45a-b3cc-488b-a701-5e75301668c4","system_id":"levelo_inurba_marseille","lat":43.2867,"lon":5.38653,"is_reserved":false,"is_disabled":false,"rental_uris":{"android":"levelo://app?vid=cf66e45a-b3cc-488b-a701-5e75301668c4","ios":"levelo://app?vid=cf66e45a-b3cc-488b-a701-5e75301668c4"},"vehicle_type_id":"4","last_reported":1731960678,"current_range_meters":19600,"station_id":"ce4bh492rcd13ifvqdug","pricing_plan_id":"cebpf4jnsgd1na2vs0mg"},{"bike_id":"80851460-2c7d-4d36-9c6e-80e3087e4e9c","system_id":"levelo_inurba_marseille","lat":43.28615,"lon":5.35104,"is_reserved":false,"is_disabled":false,"rental_uris":{"android":"levelo://app?vid=80851460-2c7d-4d36-9c6e-80e3087e4e9c","ios":"levelo://app?vid=80851460-2c7d-4d36-9c6e-80e3087e4e9c"},"vehicle_type_id":"4","last_reported":1731960678,"current_range_meters":35600,"station_id":"ce4bhch2rcd13ifvqeug","pricing_plan_id":"cebpf4jnsgd1na2vs0mg"},{"bike_id":"3f095bc8-9af8-4b0b-a298-157d8e949f36","system_id":"levelo_inurba_marseille","lat":43.27677,"lon":5.38899,"is_reserved":false,"is_disabled":true,"rental_uris":{"android":"levelo://app?vid=3f095bc8-9af8-4b0b-a298-157d8e949f36","ios":"levelo://app?vid=3f095bc8-9af8-4b0b-a298-157d8e949f36"},"vehicle_type_id":"4","last_reported":1731960678,"current_range_meters":9600,"station_id":"ce4bhi12rcd13ifvqfo0","pricing_plan_id":"cebpf4jnsgd1na2vs0mg"},{"bike_id":"7c407d42-b656-4801-b91f-c3365028215c","system_id":"levelo_inurba_marseille","lat":43.26215,"lon":5.37438,"is_reserved":false,"is_disabled":true,"rental_uris":{"android":"levelo://app?vid=7c407d42-b656-4801-b91f-c3365028215c","ios":"levelo://app?vid=7c407d42-b656-4801-b91f-c3365028215c"},"vehicle_type_id":"4","last_reported":1731960678,"current_range_meters":0,"station_id":"ce4bhgp2rcd13ifvqfc0","pricing_plan_id":"cebpf4jnsgd1na2vs0mg"},{"bike_id":"e4228fe6-6f2e-4213-9032-6735809140d4","system_id":"levelo_inurba_marseille","lat":43.31115,"lon":5.37775,"is_reserved":false,"is_disabled":false,"rental_uris":{"android":"levelo://app?vid=e4228fe6-6f2e-4213-9032-6735809140d4","ios":"levelo://app?vid=e4228fe6-6f2e-4213-9032-6735809140d4"},"vehicle_type_id":"4","last_reported":1731960678,"current_range_meters":9600,"station_id":"ce4bgt92rcd13ifvqcg0","pricing_plan_id":"cebpf4jnsgd1na2vs0mg"},{"bike_id":"42d57fe2-e531-4623-8bbf-8171d93b101e","system_id":"levelo_inurba_marseille","lat":43.29192,"lon":5.39315,"is_reserved":false,"is_disabled":false,"rental_uris":{"android":"levelo://app?vid=42d57fe2-e531-4623-8bbf-8171d93b101e","ios":"levelo://app?vid=42d57fe2-e531-4623-8bbf-8171d93b101e"},"vehicle_type_id":"4","last_reported":1731960678,"current_range_meters":28800,"station_id":"ce4bh192rcd13ifvqdd0","pricing_plan_id":"cebpf4jnsgd1na2vs0mg"},{"bike_id":"bba9182b-9be7-4eb4-83f7-8b4b6d723d4c","system_id":"levelo_inurba_marseille","lat":43.26807,"lon":5.40265,"is_reserved":false,"is_disabled":false,"rental_uris":{"android":"levelo://app?vid=bba9182b-9be7-4eb4-83f7-8b4b6d723d4c","ios":"levelo://app?vid=bba9182b-9be7-4eb4-83f7-8b4b6d723d4c"},"vehicle_type_id":"4","last_reported":1731960678,"current_range_meters":33600,"station_id":"ce501612rcd8frsf0b60","pricing_plan_id":"cebpf4jnsgd1na2vs0mg"},{"bike_id":"d674a550-723f-4e20-a0c2-89aa344c2ade","system_id":"levelo_inurba_marseille","lat":43.28201,"lon":5.44381,"is_reserved":false,"is_disabled":false,"rental_uris":{"android":"levelo://app?vid=d674a550-723f-4e20-a0c2-89aa344c2ade","ios":"levelo://app?vid=d674a550-723f-4e20-a0c2-89aa344c2ade"},"vehicle_type_id":"4","last_reported":1731960678,"current_range_meters":7200,"station_id":"","pricing_plan_id":"cebpf4jnsgd1na2vs0mg"},{"bike_id":"f1cc326e-0a40-4b5a-bef5-eb1d62bf939b","system_id":"levelo_inurba_marseille","lat":43.28719,"lon":5.36086,"is_reserved":false,"is_disabled":false,"rental_uris":{"android":"levelo://app?vid=f1cc326e-0a40-4b5a-bef5-eb1d62bf939b","ios":"levelo://app?vid=f1cc326e-0a40-4b5a-bef5-eb1d62bf939b"},"vehicle_type_id":"4","last_reported":1731960678,"current_range_meters":30400,"station_id":"cki0cbj6b192h4jlfktg","pricing_plan_id":"cebpf4jnsgd1na2vs0mg"},{"bike_id":"f26f9ff4-6d82-459d-bc98-b8addb7fa0b2","system_id":"levelo_inurba_marseille","lat":43.28944,"lon":5.36631,"is_reserved":false,"is_disabled":true,"rental_uris":{"android":"levelo://app?vid=f26f9ff4-6d82-459d-bc98-b8addb7fa0b2","ios":"levelo://app?vid=f26f9ff4-6d82-459d-bc98-b8addb7fa0b2"},"vehicle_type_id":"4","last_reported":1731960678,"current_range_meters":0,"station_id":"ce4bhap2rcd13ifvqek0","pricing_plan_id":"cebpf4jnsgd1na2vs0mg"},{"bike_id":"df09a43c-b697-47ed-8385-f843b36466ad","system_id":"levelo_inurba_marseille","lat":43.29786,"lon":5.38093,"is_reserved":false,"is_disabled":false,"rental_uris":{"android":"levelo://app?vid=df09a43c-b697-47ed-8385-f843b36466ad","ios":"levelo://app?vid=df09a43c-b697-47ed-8385-f843b36466ad"},"vehicle_type_id":"4","last_reported":1731960678,"current_range_meters":33600,"station_id":"ce4bgip2rcd13ifvqbb0","pricing_plan_id":"cebpf4jnsgd1na2vs0mg"},{"bike_id":"5cafd947-fcaf-42d4-90dc-a3f0d34e955d","system_id":"levelo_inurba_marseille","lat":43.28574,"lon":5.39492,"is_reserved":false,"is_disabled":false,"rental_uris":{"android":"levelo://app?vid=5cafd947-fcaf-42d4-90dc-a3f0d34e955d","ios":"levelo://app?vid=5cafd947-fcaf-42d4-90dc-a3f0d34e955d"},"vehicle_type_id":"4","last_reported":1731960678,"current_range_meters":10000,"station_id":"ce4bh292rcd13ifvqdg0","pricing_plan_id":"cebpf4jnsgd1na2vs0mg"},{"bike_id":"8244c892-adb9-43e2-95f5-ad3aa4640dfc","system_id":"levelo_inurba_marseille","lat":43.29572,"lon":5.39956,"is_reserved":false,"is_disabled":false,"rental_uris":{"android":"levelo://app?vid=8244c892-adb9-43e2-95f5-ad3aa4640dfc","ios":"levelo://app?vid=8244c892-adb9-43e2-95f5-ad3aa4640dfc"},"vehicle_type_id":"4","last_reported":1731960678,"current_range_meters":39200,"station_id":"ce4bh312rcd13ifvqdj0","pricing_plan_id":"cebpf4jnsgd1na2vs0mg"},{"bike_id":"33ca3094-a002-40a0-912a-db3818c2b363","system_id":"levelo_inurba_marseille","lat":43.29072,"lon":5.3717,"is_reserved":false,"is_disabled":false,"rental_uris":{"android":"levelo://app?vid=33ca3094-a002-40a0-912a-db3818c2b363","ios":"levelo://app?vid=33ca3094-a002-40a0-912a-db3818c2b363"},"vehicle_type_id":"4","last_reported":1731960678,"current_range_meters":35600,"station_id":"ce4bh5p2rcd13ifvqe4g","pricing_plan_id":"cebpf4jnsgd1na2vs0mg"},{"bike_id":"f5476f0f-4305-4e50-9186-db7e15abb5e2","system_id":"levelo_inurba_marseille","lat":43.29797,"lon":5.40405,"is_reserved":false,"is_disabled":false,"rental_uris":{"android":"levelo://app?vid=f5476f0f-4305-4e50-9186-db7e15abb5e2","ios":"levelo://app?vid=f5476f0f-4305-4e50-9186-db7e15abb5e2"},"vehicle_type_id":"4","last_reported":1731960678,"current_range_meters":12800,"station_id":"ce4bh112rcd13ifvqd90","pricing_plan_id":"cebpf4jnsgd1na2vs0mg"},{"bike_id":"f1f50780-48cb-44fa-9dee-6831b7cf5f41","system_id":"levelo_inurba_marseille","lat":43.29515,"lon":5.39037,"is_reserved":false,"is_disabled":false,"rental_uris":{"android":"levelo://app?vid=f1f50780-48cb-44fa-9dee-6831b7cf5f41","ios":"levelo://app?vid=f1f50780-48cb-44fa-9dee-6831b7cf5f41"},"vehicle_type_id":"4","last_reported":1731960678,"current_range_meters":38800,"station_id":"ce4bh3p2rcd13ifvqdp0","pricing_plan_id":"cebpf4jnsgd1na2vs0mg"},{"bike_id":"5873cbbb-60e4-463a-a62f-14bc6adde5e8","system_id":"levelo_inurba_marseille","lat":43.28038,"lon":5.36948,"is_reserved":false,"is_disabled":false,"rental_uris":{"android":"levelo://app?vid=5873cbbb-60e4-463a-a62f-14bc6adde5e8","ios":"levelo://app?vid=5873cbbb-60e4-463a-a62f-14bc6adde5e8"},"vehicle_type_id":"4","last_reported":1731960678,"current_range_meters":7200,"station_id":"ce4bha12rcd13ifvqef0","pricing_plan_id":"cebpf4jnsgd1na2vs0mg"},{"bike_id":"a74ebd93-bc18-4c3e-aace-af4ac37176f1","system_id":"levelo_inurba_marseille","lat":43.32368,"lon":5.38872,"is_reserved":false,"is_disabled":false,"rental_uris":{"android":"levelo://app?vid=a74ebd93-bc18-4c3e-aace-af4ac37176f1","ios":"levelo://app?vid=a74ebd93-bc18-4c3e-aace-af4ac37176f1"},"vehicle_type_id":"4","last_reported":1731960678,"current_range_meters":31200,"station_id":"ce4bhqp2rcd13ifvqhog","pricing_plan_id":"cebpf4jnsgd1na2vs0mg"},{"bike_id":"abce7aef-009c-4b3d-a0b5-a03faaef0a04","system_id":"levelo_inurba_marseille","lat":43.27974,"lon":5.38755,"is_reserved":false,"is_disabled":true,"rental_uris":{"android":"levelo://app?vid=abce7aef-009c-4b3d-a0b5-a03faaef0a04","ios":"levelo://app?vid=abce7aef-009c-4b3d-a0b5-a03faaef0a04"},"vehicle_type_id":"4","last_reported":1731960678,"current_range_meters":0,"station_id":"ce4bhg12rcd13ifvqf80","pricing_plan_id":"cebpf4jnsgd1na2vs0mg"},{"bike_id":"9c82aec4-b25e-4e2d-90e6-c4e64e936483","system_id":"levelo_inurba_marseille","lat":43.24655,"lon":5.38893,"is_reserved":false,"is_disabled":false,"rental_uris":{"android":"levelo://app?vid=9c82aec4-b25e-4e2d-90e6-c4e64e936483","ios":"levelo://app?vid=9c82aec4-b25e-4e2d-90e6-c4e64e936483"},"vehicle_type_id":"4","last_reported":1731960678,"current_range_meters":22400,"station_id":"ce4bhg12rcd13ifvqf60","pricing_plan_id":"cebpf4jnsgd1na2vs0mg"},{"bike_id":"d7e05079-6614-4622-8b5c-90a52c909d2c","system_id":"levelo_inurba_marseille","lat":43.28699,"lon":5.39982,"is_reserved":false,"is_disabled":false,"rental_uris":{"android":"levelo://app?vid=d7e05079-6614-4622-8b5c-90a52c909d2c","ios":"levelo://app?vid=d7e05079-6614-4622-8b5c-90a52c909d2c"},"vehicle_type_id":"4","last_reported":1731960678,"current_range_meters":38400,"station_id":"ce4bho92rcd13ifvqh3g","pricing_plan_id":"cebpf4jnsgd1na2vs0mg"},{"bike_id":"d07e1f90-f37b-427a-8dc4-c0c0954b1d4d","system_id":"levelo_inurba_marseille","lat":43.2782,"lon":5.40693,"is_reserved":false,"is_disabled":false,"rental_uris":{"android":"levelo://app?vid=d07e1f90-f37b-427a-8dc4-c0c0954b1d4d","ios":"levelo://app?vid=d07e1f90-f37b-427a-8dc4-c0c0954b1d4d"},"vehicle_type_id":"4","last_reported":1731960678,"current_range_meters":38000,"station_id":"ce4bhnh2rcd13ifvqgtg","pricing_plan_id":"cebpf4jnsgd1na2vs0mg"},{"bike_id":"73332224-98f2-414b-87c0-bc1ba4164316","system_id":"levelo_inurba_marseille","lat":43.30936,"lon":5.40142,"is_reserved":false,"is_disabled":false,"rental_uris":{"android":"levelo://app?vid=73332224-98f2-414b-87c0-bc1ba4164316","ios":"levelo://app?vid=73332224-98f2-414b-87c0-bc1ba4164316"},"vehicle_type_id":"4","last_reported":1731960678,"current_range_meters":12800,"station_id":"ce4bgvp2rcd13ifvqct0","pricing_plan_id":"cebpf4jnsgd1na2vs0mg"},{"bike_id":"a50370ea-a8e6-4aed-8107-45b89122aedf","system_id":"levelo_inurba_marseille","lat":43.26678,"lon":5.38266,"is_reserved":false,"is_disabled":false,"rental_uris":{"android":"levelo://app?vid=a50370ea-a8e6-4aed-8107-45b89122aedf","ios":"levelo://app?vid=a50370ea-a8e6-4aed-8107-45b89122aedf"},"vehicle_type_id":"4","last_reported":1731960678,"current_range_meters":36800,"station_id":"ce4bhg92rcd13ifvqf90","pricing_plan_id":"cebpf4jnsgd1na2vs0mg"},{"bike_id":"03e86a75-4872-4548-9575-ac8738d7d8d3","system_id":"levelo_inurba_marseille","lat":43.29448,"lon":5.39745,"is_reserved":false,"is_disabled":false,"rental_uris":{"android":"levelo://app?vid=03e86a75-4872-4548-9575-ac8738d7d8d3","ios":"levelo://app?vid=03e86a75-4872-4548-9575-ac8738d7d8d3"},"vehicle_type_id":"4","last_reported":1731960678,"current_range_meters":28800,"station_id":"ce4bh3h2rcd13ifvqdo0","pricing_plan_id":"cebpf4jnsgd1na2vs0mg"},{"bike_id":"d1041330-15be-4fe1-91a9-2998443ce887","system_id":"levelo_inurba_marseille","lat":43.29922,"lon":5.37537,"is_reserved":false,"is_disabled":false,"rental_uris":{"android":"levelo://app?vid=d1041330-15be-4fe1-91a9-2998443ce887","ios":"levelo://app?vid=d1041330-15be-4fe1-91a9-2998443ce887"},"vehicle_type_id":"4","last_reported":1731960678,"current_range_meters":28000,"station_id":"ce4bgjh2rcd13ifvqbg0","pricing_plan_id":"cebpf4jnsgd1na2vs0mg"},{"bike_id":"d1ae25fa-36f5-444a-84c9-754c7d6b04cd","system_id":"levelo_inurba_marseille","lat":43.28992,"lon":5.37833,"is_reserved":false,"is_disabled":false,"rental_uris":{"android":"levelo://app?vid=d1ae25fa-36f5-444a-84c9-754c7d6b04cd","ios":"levelo://app?vid=d1ae25fa-36f5-444a-84c9-754c7d6b04cd"},"vehicle_type_id":"4","last_reported":1731960678,"current_range_meters":14800,"station_id":"ce4bh9p2rcd13ifvqed0","pricing_plan_id":"cebpf4jnsgd1na2vs0mg"},{"bike_id":"bc249293-6395-4334-b84a-652f70f197fc","system_id":"levelo_inurba_marseille","lat":43.27634,"lon":5.42636,"is_reserved":false,"is_disabled":false,"rental_uris":{"android":"levelo://app?vid=bc249293-6395-4334-b84a-652f70f197fc","ios":"levelo://app?vid=bc249293-6395-4334-b84a-652f70f197fc"},"vehicle_type_id":"4","last_reported":1731960678,"current_range_meters":4400,"station_id":"","pricing_plan_id":"cebpf4jnsgd1na2vs0mg"},{"bike_id":"5203ab47-a9f6-48ae-bdd3-3c5a5ab6ee25","system_id":"levelo_inurba_marseille","lat":43.29978,"lon":5.38492,"is_reserved":false,"is_disabled":true,"rental_uris":{"android":"levelo://app?vid=5203ab47-a9f6-48ae-bdd3-3c5a5ab6ee25","ios":"levelo://app?vid=5203ab47-a9f6-48ae-bdd3-3c5a5ab6ee25"},"vehicle_type_id":"4","last_reported":1731960678,"current_range_meters":38000,"station_id":"ce4bgj92rcd13ifvqbd0","pricing_plan_id":"cebpf4jnsgd1na2vs0mg"},{"bike_id":"be1dd5f8-91fc-4786-8461-76cd869dae13","system_id":"levelo_inurba_marseille","lat":43.32039,"lon":5.41551,"is_reserved":false,"is_disabled":false,"rental_uris":{"android":"levelo://app?vid=be1dd5f8-91fc-4786-8461-76cd869dae13","ios":"levelo://app?vid=be1dd5f8-91fc-4786-8461-76cd869dae13"},"vehicle_type_id":"4","last_reported":1731960678,"current_range_meters":28800,"station_id":"ce4bhq92rcd13ifvqhkg","pricing_plan_id":"cebpf4jnsgd1na2vs0mg"},{"bike_id":"a5e7f50d-fadf-4dd4-ae3f-8a3b7f953742","system_id":"levelo_inurba_marseille","lat":43.24171,"lon":5.39741,"is_reserved":false,"is_disabled":false,"rental_uris":{"android":"levelo://app?vid=a5e7f50d-fadf-4dd4-ae3f-8a3b7f953742","ios":"levelo://app?vid=a5e7f50d-fadf-4dd4-ae3f-8a3b7f953742"},"vehicle_type_id":"4","last_reported":1731960678,"current_range_meters":38800,"station_id":"ce4bhn12rcd13ifvqgpg","pricing_plan_id":"cebpf4jnsgd1na2vs0mg"},{"bike_id":"040df864-1d44-4716-9bba-b89e08f6be00","system_id":"levelo_inurba_marseille","lat":43.28619,"lon":5.35107,"is_reserved":false,"is_disabled":false,"rental_uris":{"android":"levelo://app?vid=040df864-1d44-4716-9bba-b89e08f6be00","ios":"levelo://app?vid=040df864-1d44-4716-9bba-b89e08f6be00"},"vehicle_type_id":"4","last_reported":1731960678,"current_range_meters":14400,"station_id":"ce4bhch2rcd13ifvqeug","pricing_plan_id":"cebpf4jnsgd1na2vs0mg"},{"bike_id":"e5e2248a-03d3-4b07-b4f7-fd61796e9419","system_id":"levelo_inurba_marseille","lat":43.30035,"lon":5.38077,"is_reserved":false,"is_disabled":true,"rental_uris":{"android":"levelo://app?vid=e5e2248a-03d3-4b07-b4f7-fd61796e9419","ios":"levelo://app?vid=e5e2248a-03d3-4b07-b4f7-fd61796e9419"},"vehicle_type_id":"4","last_reported":1731960678,"current_range_meters":0,"station_id":"","pricing_plan_id":"cebpf4jnsgd1na2vs0mg"},{"bike_id":"9d2c2513-0c89-4f02-98b9-a9b8e8f9ff12","system_id":"levelo_inurba_marseille","lat":43.2795,"lon":5.4104,"is_reserved":false,"is_disabled":false,"rental_uris":{"android":"levelo://app?vid=9d2c2513-0c89-4f02-98b9-a9b8e8f9ff12","ios":"levelo://app?vid=9d2c2513-0c89-4f02-98b9-a9b8e8f9ff12"},"vehicle_type_id":"4","last_reported":1731960678,"current_range_meters":8400,"station_id":"ce4bhnp2rcd13ifvqh0g","pricing_plan_id":"cebpf4jnsgd1na2vs0mg"},{"bike_id":"56edd46b-d236-45f1-ba2f-1f7d8acc3af2","system_id":"levelo_inurba_marseille","lat":43.337444,"lon":5.374475,"is_reserved":false,"is_disabled":false,"rental_uris":{"android":"levelo://app?vid=56edd46b-d236-45f1-ba2f-1f7d8acc3af2","ios":"levelo://app?vid=56edd46b-d236-45f1-ba2f-1f7d8acc3af2"},"vehicle_type_id":"4","last_reported":1731960678,"current_range_meters":37600,"station_id":"","pricing_plan_id":"cebpf4jnsgd1na2vs0mg"},{"bike_id":"70f0cfd2-c9a2-490b-8903-70396f224c3e","system_id":"levelo_inurba_marseille","lat":43.29256,"lon":5.40907,"is_reserved":false,"is_disabled":false,"rental_uris":{"android":"levelo://app?vid=70f0cfd2-c9a2-490b-8903-70396f224c3e","ios":"levelo://app?vid=70f0cfd2-c9a2-490b-8903-70396f224c3e"},"vehicle_type_id":"4","last_reported":1731960678,"current_range_meters":12000,"station_id":"ce4bh192rcd13ifvqdc0","pricing_plan_id":"cebpf4jnsgd1na2vs0mg"},{"bike_id":"e50796fb-dacb-48fc-9bce-fef14a9f4c74","system_id":"levelo_inurba_marseille","lat":43.292614,"lon":5.4091,"is_reserved":false,"is_disabled":false,"rental_uris":{"android":"levelo://app?vid=e50796fb-dacb-48fc-9bce-fef14a9f4c74","ios":"levelo://app?vid=e50796fb-dacb-48fc-9bce-fef14a9f4c74"},"vehicle_type_id":"4","last_reported":1731960678,"current_range_meters":38800,"station_id":"ce4bh192rcd13ifvqdc0","pricing_plan_id":"cebpf4jnsgd1na2vs0mg"},{"bike_id":"e4f9cc0f-319a-443a-a84b-8e045f7b918f","system_id":"levelo_inurba_marseille","lat":43.31757,"lon":5.39012,"is_reserved":false,"is_disabled":false,"rental_uris":{"android":"levelo://app?vid=e4f9cc0f-319a-443a-a84b-8e045f7b918f","ios":"levelo://app?vid=e4f9cc0f-319a-443a-a84b-8e045f7b918f"},"vehicle_type_id":"4","last_reported":1731960678,"current_range_meters":24800,"station_id":"ce4bhqp2rcd13ifvqhng","pricing_plan_id":"cebpf4jnsgd1na2vs0mg"},{"bike_id":"c8b4e4f4-188f-4ddb-9934-f4c256f8e1ab","system_id":"levelo_inurba_marseille","lat":43.29443,"lon":5.39745,"is_reserved":false,"is_disabled":false,"rental_uris":{"android":"levelo://app?vid=c8b4e4f4-188f-4ddb-9934-f4c256f8e1ab","ios":"levelo://app?vid=c8b4e4f4-188f-4ddb-9934-f4c256f8e1ab"},"vehicle_type_id":"4","last_reported":1731960678,"current_range_meters":35200,"station_id":"ce4bh3h2rcd13ifvqdo0","pricing_plan_id":"cebpf4jnsgd1na2vs0mg"},{"bike_id":"cd3ead8f-e453-49dc-8a7f-902dde01b246","system_id":"levelo_inurba_marseille","lat":43.2885,"lon":5.35853,"is_reserved":false,"is_disabled":false,"rental_uris":{"android":"levelo://app?vid=cd3ead8f-e453-49dc-8a7f-902dde01b246","ios":"levelo://app?vid=cd3ead8f-e453-49dc-8a7f-902dde01b246"},"vehicle_type_id":"4","last_reported":1731960678,"current_range_meters":27200,"station_id":"ce4bhb12rcd13ifvqem0","pricing_plan_id":"cebpf4jnsgd1na2vs0mg"},{"bike_id":"ebaa35d1-87d3-4726-9ddf-983bd4e28eb7","system_id":"levelo_inurba_marseille","lat":43.29188,"lon":5.35802,"is_reserved":false,"is_disabled":false,"rental_uris":{"android":"levelo://app?vid=ebaa35d1-87d3-4726-9ddf-983bd4e28eb7","ios":"levelo://app?vid=ebaa35d1-87d3-4726-9ddf-983bd4e28eb7"},"vehicle_type_id":"4","last_reported":1731960678,"current_range_meters":16400,"station_id":"ce4bhb12rcd13ifvqel0","pricing_plan_id":"cebpf4jnsgd1na2vs0mg"},{"bike_id":"5bbcd2f3-be5f-45bd-b4a5-6aad5ec279d4","system_id":"levelo_inurba_marseille","lat":43.30805,"lon":5.38155,"is_reserved":false,"is_disabled":false,"rental_uris":{"android":"levelo://app?vid=5bbcd2f3-be5f-45bd-b4a5-6aad5ec279d4","ios":"levelo://app?vid=5bbcd2f3-be5f-45bd-b4a5-6aad5ec279d4"},"vehicle_type_id":"4","last_reported":1731960678,"current_range_meters":38800,"station_id":"ce4bgt12rcd13ifvqce0","pricing_plan_id":"cebpf4jnsgd1na2vs0mg"},{"bike_id":"64e5b8b3-df38-4b85-a28f-2f870459c530","system_id":"levelo_inurba_marseille","lat":43.30785,"lon":5.37647,"is_reserved":false,"is_disabled":false,"rental_uris":{"android":"levelo://app?vid=64e5b8b3-df38-4b85-a28f-2f870459c530","ios":"levelo://app?vid=64e5b8b3-df38-4b85-a28f-2f870459c530"},"vehicle_type_id":"4","last_reported":1731960678,"current_range_meters":11600,"station_id":"ce4bgv92rcd13ifvqcq0","pricing_plan_id":"cebpf4jnsgd1na2vs0mg"},{"bike_id":"1945d931-36a4-4a3a-8f2b-f561d24b00b9","system_id":"levelo_inurba_marseille","lat":43.29257,"lon":5.40906,"is_reserved":false,"is_disabled":false,"rental_uris":{"android":"levelo://app?vid=1945d931-36a4-4a3a-8f2b-f561d24b00b9","ios":"levelo://app?vid=1945d931-36a4-4a3a-8f2b-f561d24b00b9"},"vehicle_type_id":"4","last_reported":1731960678,"current_range_meters":18000,"station_id":"ce4bh192rcd13ifvqdc0","pricing_plan_id":"cebpf4jnsgd1na2vs0mg"},{"bike_id":"466cc262-7358-4083-9e23-47328789012d","system_id":"levelo_inurba_marseille","lat":43.25091,"lon":5.39512,"is_reserved":false,"is_disabled":false,"rental_uris":{"android":"levelo://app?vid=466cc262-7358-4083-9e23-47328789012d","ios":"levelo://app?vid=466cc262-7358-4083-9e23-47328789012d"},"vehicle_type_id":"4","last_reported":1731960678,"current_range_meters":27200,"station_id":"ce4bhm12rcd13ifvqgkg","pricing_plan_id":"cebpf4jnsgd1na2vs0mg"},{"bike_id":"7e294589-ed76-4249-8241-b1c39098e1fd","system_id":"levelo_inurba_marseille","lat":43.29977,"lon":5.37178,"is_reserved":false,"is_disabled":false,"rental_uris":{"android":"levelo://app?vid=7e294589-ed76-4249-8241-b1c39098e1fd","ios":"levelo://app?vid=7e294589-ed76-4249-8241-b1c39098e1fd"},"vehicle_type_id":"4","last_reported":1731960678,"current_range_meters":37600,"station_id":"ce4bgr92rcd13ifvqc7g","pricing_plan_id":"cebpf4jnsgd1na2vs0mg"},{"bike_id":"8be4c68a-7b6f-4207-9d5c-07b1758b0442","system_id":"levelo_inurba_marseille","lat":43.2943,"lon":5.39759,"is_reserved":false,"is_disabled":true,"rental_uris":{"android":"levelo://app?vid=8be4c68a-7b6f-4207-9d5c-07b1758b0442","ios":"levelo://app?vid=8be4c68a-7b6f-4207-9d5c-07b1758b0442"},"vehicle_type_id":"4","last_reported":1731960678,"current_range_meters":0,"station_id":"ce4bh3h2rcd13ifvqdo0","pricing_plan_id":"cebpf4jnsgd1na2vs0mg"},{"bike_id":"082e9fcf-e027-46cb-9584-d83a0d34771a","system_id":"levelo_inurba_marseille","lat":43.29518,"lon":5.39046,"is_reserved":false,"is_disabled":false,"rental_uris":{"android":"levelo://app?vid=082e9fcf-e027-46cb-9584-d83a0d34771a","ios":"levelo://app?vid=082e9fcf-e027-46cb-9584-d83a0d34771a"},"vehicle_type_id":"4","last_reported":1731960678,"current_range_meters":25600,"station_id":"ce4bh3p2rcd13ifvqdp0","pricing_plan_id":"cebpf4jnsgd1na2vs0mg"},{"bike_id":"fe5617eb-8518-43d2-ac90-070659930eec","system_id":"levelo_inurba_marseille","lat":43.29957,"lon":5.41317,"is_reserved":false,"is_disabled":false,"rental_uris":{"android":"levelo://app?vid=fe5617eb-8518-43d2-ac90-070659930eec","ios":"levelo://app?vid=fe5617eb-8518-43d2-ac90-070659930eec"},"vehicle_type_id":"4","last_reported":1731960678,"current_range_meters":38800,"station_id":"ce4bhp12rcd13ifvqh9g","pricing_plan_id":"cebpf4jnsgd1na2vs0mg"},{"bike_id":"8be1aaec-2057-4f3e-bbe9-46e6bb554f17","system_id":"levelo_inurba_marseille","lat":43.27992,"lon":5.40007,"is_reserved":false,"is_disabled":false,"rental_uris":{"android":"levelo://app?vid=8be1aaec-2057-4f3e-bbe9-46e6bb554f17","ios":"levelo://app?vid=8be1aaec-2057-4f3e-bbe9-46e6bb554f17"},"vehicle_type_id":"4","last_reported":1731960678,"current_range_meters":17600,"station_id":"ce4bho92rcd13ifvqh4g","pricing_plan_id":"cebpf4jnsgd1na2vs0mg"},{"bike_id":"0c21866d-64a6-48bd-84ec-2cdb016bb953","system_id":"levelo_inurba_marseille","lat":43.24392,"lon":5.37069,"is_reserved":false,"is_disabled":true,"rental_uris":{"android":"levelo://app?vid=0c21866d-64a6-48bd-84ec-2cdb016bb953","ios":"levelo://app?vid=0c21866d-64a6-48bd-84ec-2cdb016bb953"},"vehicle_type_id":"4","last_reported":1731960678,"current_range_meters":2000,"station_id":"ce4bhhh2rcd13ifvqfk0","pricing_plan_id":"cebpf4jnsgd1na2vs0mg"},{"bike_id":"210dff46-0d93-4102-a4a9-6322f66e2e67","system_id":"levelo_inurba_marseille","lat":43.29949,"lon":5.41318,"is_reserved":false,"is_disabled":false,"rental_uris":{"android":"levelo://app?vid=210dff46-0d93-4102-a4a9-6322f66e2e67","ios":"levelo://app?vid=210dff46-0d93-4102-a4a9-6322f66e2e67"},"vehicle_type_id":"4","last_reported":1731960678,"current_range_meters":14800,"station_id":"ce4bhp12rcd13ifvqh9g","pricing_plan_id":"cebpf4jnsgd1na2vs0mg"},{"bike_id":"66321208-9852-4e45-bf4f-ceb3917d3323","system_id":"levelo_inurba_marseille","lat":43.31272,"lon":5.40169,"is_reserved":false,"is_disabled":false,"rental_uris":{"android":"levelo://app?vid=66321208-9852-4e45-bf4f-ceb3917d3323","ios":"levelo://app?vid=66321208-9852-4e45-bf4f-ceb3917d3323"},"vehicle_type_id":"4","last_reported":1731960678,"current_range_meters":38800,"station_id":"ce4bh092rcd13ifvqd30","pricing_plan_id":"cebpf4jnsgd1na2vs0mg"},{"bike_id":"1f8e31eb-4609-4ceb-8188-fd61d64a2da3","system_id":"levelo_inurba_marseille","lat":43.28452,"lon":5.3589,"is_reserved":false,"is_disabled":false,"rental_uris":{"android":"levelo://app?vid=1f8e31eb-4609-4ceb-8188-fd61d64a2da3","ios":"levelo://app?vid=1f8e31eb-4609-4ceb-8188-fd61d64a2da3"},"vehicle_type_id":"4","last_reported":1731960678,"current_range_meters":36800,"station_id":"ce4bhah2rcd13ifvqei0","pricing_plan_id":"cebpf4jnsgd1na2vs0mg"},{"bike_id":"d6e54eb8-b569-4670-b12b-fc7e345ccec9","system_id":"levelo_inurba_marseille","lat":43.2973,"lon":5.37684,"is_reserved":false,"is_disabled":true,"rental_uris":{"android":"levelo://app?vid=d6e54eb8-b569-4670-b12b-fc7e345ccec9","ios":"levelo://app?vid=d6e54eb8-b569-4670-b12b-fc7e345ccec9"},"vehicle_type_id":"4","last_reported":1731960678,"current_range_meters":38800,"station_id":"ce4bgkh2rcd13ifvqbl0","pricing_plan_id":"cebpf4jnsgd1na2vs0mg"},{"bike_id":"ed49d297-52c1-438f-8530-c430fabd0d5c","system_id":"levelo_inurba_marseille","lat":43.25497,"lon":5.37655,"is_reserved":false,"is_disabled":true,"rental_uris":{"android":"levelo://app?vid=ed49d297-52c1-438f-8530-c430fabd0d5c","ios":"levelo://app?vid=ed49d297-52c1-438f-8530-c430fabd0d5c"},"vehicle_type_id":"4","last_reported":1731960678,"current_range_meters":0,"station_id":"ce4bhh12rcd13ifvqff0","pricing_plan_id":"cebpf4jnsgd1na2vs0mg"},{"bike_id":"70b47109-01d3-4e4e-901c-50b18e0d519c","system_id":"levelo_inurba_marseille","lat":43.3024,"lon":5.4007,"is_reserved":false,"is_disabled":false,"rental_uris":{"android":"levelo://app?vid=70b47109-01d3-4e4e-901c-50b18e0d519c","ios":"levelo://app?vid=70b47109-01d3-4e4e-901c-50b18e0d519c"},"vehicle_type_id":"4","last_reported":1731960678,"current_range_meters":25200,"station_id":"ce4bgvh2rcd13ifvqcs0","pricing_plan_id":"cebpf4jnsgd1na2vs0mg"},{"bike_id":"bb298e02-0a1e-4aa1-8357-25a7199b93f7","system_id":"levelo_inurba_marseille","lat":43.27056,"lon":5.40261,"is_reserved":false,"is_disabled":false,"rental_uris":{"android":"levelo://app?vid=bb298e02-0a1e-4aa1-8357-25a7199b93f7","ios":"levelo://app?vid=bb298e02-0a1e-4aa1-8357-25a7199b93f7"},"vehicle_type_id":"4","last_reported":1731960678,"current_range_meters":18800,"station_id":"ce4bhk92rcd13ifvqgc0","pricing_plan_id":"cebpf4jnsgd1na2vs0mg"},{"bike_id":"259149ad-c421-466a-ad0c-fd16e04ce6fa","system_id":"levelo_inurba_marseille","lat":43.28452,"lon":5.35892,"is_reserved":false,"is_disabled":false,"rental_uris":{"android":"levelo://app?vid=259149ad-c421-466a-ad0c-fd16e04ce6fa","ios":"levelo://app?vid=259149ad-c421-466a-ad0c-fd16e04ce6fa"},"vehicle_type_id":"4","last_reported":1731960678,"current_range_meters":29600,"station_id":"ce4bhah2rcd13ifvqei0","pricing_plan_id":"cebpf4jnsgd1na2vs0mg"},{"bike_id":"6c08020b-d09e-4c1b-8a30-20d1ed285c83","system_id":"levelo_inurba_marseille","lat":43.3009,"lon":5.39075,"is_reserved":false,"is_disabled":false,"rental_uris":{"android":"levelo://app?vid=6c08020b-d09e-4c1b-8a30-20d1ed285c83","ios":"levelo://app?vid=6c08020b-d09e-4c1b-8a30-20d1ed285c83"},"vehicle_type_id":"4","last_reported":1731960678,"current_range_meters":22400,"station_id":"ce4bh192rcd13ifvqdb0","pricing_plan_id":"cebpf4jnsgd1na2vs0mg"},{"bike_id":"cc94800f-8f00-4fa2-8321-7ffb60c60a1c","system_id":"levelo_inurba_marseille","lat":43.28452,"lon":5.35895,"is_reserved":false,"is_disabled":false,"rental_uris":{"android":"levelo://app?vid=cc94800f-8f00-4fa2-8321-7ffb60c60a1c","ios":"levelo://app?vid=cc94800f-8f00-4fa2-8321-7ffb60c60a1c"},"vehicle_type_id":"4","last_reported":1731960678,"current_range_meters":26800,"station_id":"ce4bhah2rcd13ifvqei0","pricing_plan_id":"cebpf4jnsgd1na2vs0mg"},{"bike_id":"801dea25-03bf-4f11-a8a7-9c85139f31aa","system_id":"levelo_inurba_marseille","lat":43.25088,"lon":5.39513,"is_reserved":false,"is_disabled":false,"rental_uris":{"android":"levelo://app?vid=801dea25-03bf-4f11-a8a7-9c85139f31aa","ios":"levelo://app?vid=801dea25-03bf-4f11-a8a7-9c85139f31aa"},"vehicle_type_id":"4","last_reported":1731960678,"current_range_meters":38800,"station_id":"ce4bhm12rcd13ifvqgkg","pricing_plan_id":"cebpf4jnsgd1na2vs0mg"},{"bike_id":"0b733133-03c9-4766-961e-92b775b50bbc","system_id":"levelo_inurba_marseille","lat":43.28192,"lon":5.44265,"is_reserved":false,"is_disabled":true,"rental_uris":{"android":"levelo://app?vid=0b733133-03c9-4766-961e-92b775b50bbc","ios":"levelo://app?vid=0b733133-03c9-4766-961e-92b775b50bbc"},"vehicle_type_id":"4","last_reported":1731960678,"current_range_meters":800,"station_id":"","pricing_plan_id":"cebpf4jnsgd1na2vs0mg"},{"bike_id":"74eb70e9-b94e-49a5-9a48-368b4be133db","system_id":"levelo_inurba_marseille","lat":43.30799,"lon":5.43516,"is_reserved":false,"is_disabled":false,"rental_uris":{"android":"levelo://app?vid=74eb70e9-b94e-49a5-9a48-368b4be133db","ios":"levelo://app?vid=74eb70e9-b94e-49a5-9a48-368b4be133db"},"vehicle_type_id":"4","last_reported":1731960678,"current_range_meters":38800,"station_id":"ce4bhph2rcd13ifvqheg","pricing_plan_id":"cebpf4jnsgd1na2vs0mg"},{"bike_id":"4cba050b-d851-4ee5-8ce0-ea7f25d9c27b","system_id":"levelo_inurba_marseille","lat":43.27499,"lon":5.42444,"is_reserved":false,"is_disabled":true,"rental_uris":{"android":"levelo://app?vid=4cba050b-d851-4ee5-8ce0-ea7f25d9c27b","ios":"levelo://app?vid=4cba050b-d851-4ee5-8ce0-ea7f25d9c27b"},"vehicle_type_id":"4","last_reported":1731960678,"current_range_meters":38000,"station_id":"ce4bhn92rcd13ifvqgrg","pricing_plan_id":"cebpf4jnsgd1na2vs0mg"},{"bike_id":"9db7024c-b22d-4087-a30c-ba8f27a72aca","system_id":"levelo_inurba_marseille","lat":43.28102,"lon":5.37842,"is_reserved":false,"is_disabled":false,"rental_uris":{"android":"levelo://app?vid=9db7024c-b22d-4087-a30c-ba8f27a72aca","ios":"levelo://app?vid=9db7024c-b22d-4087-a30c-ba8f27a72aca"},"vehicle_type_id":"4","last_reported":1731960678,"current_range_meters":24800,"station_id":"ce4bha12rcd13ifvqee0","pricing_plan_id":"cebpf4jnsgd1na2vs0mg"},{"bike_id":"f4a21771-7173-46a6-bc36-9f953141b6ba","system_id":"levelo_inurba_marseille","lat":43.28712,"lon":5.37932,"is_reserved":false,"is_disabled":false,"rental_uris":{"android":"levelo://app?vid=f4a21771-7173-46a6-bc36-9f953141b6ba","ios":"levelo://app?vid=f4a21771-7173-46a6-bc36-9f953141b6ba"},"vehicle_type_id":"4","last_reported":1731960678,"current_range_meters":12400,"station_id":"ce4bh9p2rcd13ifvqec0","pricing_plan_id":"cebpf4jnsgd1na2vs0mg"},{"bike_id":"6c2dd7f5-7f3e-4bb8-81f0-79c964fbb591","system_id":"levelo_inurba_marseille","lat":43.28265,"lon":5.3506,"is_reserved":false,"is_disabled":false,"rental_uris":{"android":"levelo://app?vid=6c2dd7f5-7f3e-4bb8-81f0-79c964fbb591","ios":"levelo://app?vid=6c2dd7f5-7f3e-4bb8-81f0-79c964fbb591"},"vehicle_type_id":"4","last_reported":1731960678,"current_range_meters":38800,"station_id":"ce4bhbp2rcd13ifvqerg","pricing_plan_id":"cebpf4jnsgd1na2vs0mg"},{"bike_id":"3124f766-6549-41ce-b3e8-f25c1f7fecb2","system_id":"levelo_inurba_marseille","lat":43.27374,"lon":5.36258,"is_reserved":false,"is_disabled":false,"rental_uris":{"android":"levelo://app?vid=3124f766-6549-41ce-b3e8-f25c1f7fecb2","ios":"levelo://app?vid=3124f766-6549-41ce-b3e8-f25c1f7fecb2"},"vehicle_type_id":"4","last_reported":1731960678,"current_range_meters":35600,"station_id":"ce4bhbh2rcd13ifvqeo0","pricing_plan_id":"cebpf4jnsgd1na2vs0mg"},{"bike_id":"b1d7f5ad-ff48-400d-b7ef-e34013d555c6","system_id":"levelo_inurba_marseille","lat":43.31335,"lon":5.39693,"is_reserved":false,"is_disabled":false,"rental_uris":{"android":"levelo://app?vid=b1d7f5ad-ff48-400d-b7ef-e34013d555c6","ios":"levelo://app?vid=b1d7f5ad-ff48-400d-b7ef-e34013d555c6"},"vehicle_type_id":"4","last_reported":1731960678,"current_range_meters":8400,"station_id":"ce4bgvp2rcd13ifvqcu0","pricing_plan_id":"cebpf4jnsgd1na2vs0mg"},{"bike_id":"5f00c621-a72b-4c24-8a74-35075ad82af0","system_id":"levelo_inurba_marseille","lat":43.2799,"lon":5.40031,"is_reserved":false,"is_disabled":false,"rental_uris":{"android":"levelo://app?vid=5f00c621-a72b-4c24-8a74-35075ad82af0","ios":"levelo://app?vid=5f00c621-a72b-4c24-8a74-35075ad82af0"},"vehicle_type_id":"4","last_reported":1731960678,"current_range_meters":38800,"station_id":"ce4bho92rcd13ifvqh4g","pricing_plan_id":"cebpf4jnsgd1na2vs0mg"},{"bike_id":"ec6cb356-e15a-42b9-8cc2-86d49b84eef6","system_id":"levelo_inurba_marseille","lat":43.28411,"lon":5.37519,"is_reserved":false,"is_disabled":false,"rental_uris":{"android":"levelo://app?vid=ec6cb356-e15a-42b9-8cc2-86d49b84eef6","ios":"levelo://app?vid=ec6cb356-e15a-42b9-8cc2-86d49b84eef6"},"vehicle_type_id":"4","last_reported":1731960678,"current_range_meters":34000,"station_id":"ce4bh412rcd13ifvqds0","pricing_plan_id":"cebpf4jnsgd1na2vs0mg"},{"bike_id":"71324b49-1f17-4af6-89f7-e3218a4d4e19","system_id":"levelo_inurba_marseille","lat":43.24071,"lon":5.37756,"is_reserved":false,"is_disabled":false,"rental_uris":{"android":"levelo://app?vid=71324b49-1f17-4af6-89f7-e3218a4d4e19","ios":"levelo://app?vid=71324b49-1f17-4af6-89f7-e3218a4d4e19"},"vehicle_type_id":"4","last_reported":1731960678,"current_range_meters":33600,"station_id":"ce4bhnp2rcd13ifvqgvg","pricing_plan_id":"cebpf4jnsgd1na2vs0mg"},{"bike_id":"6799c54c-4cd6-4d25-a1cb-a4067a584a72","system_id":"levelo_inurba_marseille","lat":43.33728,"lon":5.39192,"is_reserved":false,"is_disabled":false,"rental_uris":{"android":"levelo://app?vid=6799c54c-4cd6-4d25-a1cb-a4067a584a72","ios":"levelo://app?vid=6799c54c-4cd6-4d25-a1cb-a4067a584a72"},"vehicle_type_id":"4","last_reported":1731960678,"current_range_meters":17600,"station_id":"ce4bhr92rcd13ifvqhsg","pricing_plan_id":"cebpf4jnsgd1na2vs0mg"},{"bike_id":"9fb0acf0-02ee-43e1-8a36-3f564bbba08b","system_id":"levelo_inurba_marseille","lat":43.32368,"lon":5.38884,"is_reserved":false,"is_disabled":false,"rental_uris":{"android":"levelo://app?vid=9fb0acf0-02ee-43e1-8a36-3f564bbba08b","ios":"levelo://app?vid=9fb0acf0-02ee-43e1-8a36-3f564bbba08b"},"vehicle_type_id":"4","last_reported":1731960678,"current_range_meters":20800,"station_id":"ce4bhqp2rcd13ifvqhog","pricing_plan_id":"cebpf4jnsgd1na2vs0mg"},{"bike_id":"20d43469-0b35-4110-9c40-be0f1a781705","system_id":"levelo_inurba_marseille","lat":43.26208,"lon":5.3744,"is_reserved":false,"is_disabled":false,"rental_uris":{"android":"levelo://app?vid=20d43469-0b35-4110-9c40-be0f1a781705","ios":"levelo://app?vid=20d43469-0b35-4110-9c40-be0f1a781705"},"vehicle_type_id":"4","last_reported":1731960678,"current_range_meters":28400,"station_id":"ce4bhgp2rcd13ifvqfc0","pricing_plan_id":"cebpf4jnsgd1na2vs0mg"},{"bike_id":"5a7a52a4-5444-4308-a2b6-c62fc07e16f3","system_id":"levelo_inurba_marseille","lat":43.29194,"lon":5.39315,"is_reserved":false,"is_disabled":false,"rental_uris":{"android":"levelo://app?vid=5a7a52a4-5444-4308-a2b6-c62fc07e16f3","ios":"levelo://app?vid=5a7a52a4-5444-4308-a2b6-c62fc07e16f3"},"vehicle_type_id":"4","last_reported":1731960678,"current_range_meters":11200,"station_id":"ce4bh192rcd13ifvqdd0","pricing_plan_id":"cebpf4jnsgd1na2vs0mg"},{"bike_id":"a5dcdcde-517c-445c-8c9c-2a345e737d45","system_id":"levelo_inurba_marseille","lat":43.2952,"lon":5.39397,"is_reserved":false,"is_disabled":false,"rental_uris":{"android":"levelo://app?vid=a5dcdcde-517c-445c-8c9c-2a345e737d45","ios":"levelo://app?vid=a5dcdcde-517c-445c-8c9c-2a345e737d45"},"vehicle_type_id":"4","last_reported":1731960678,"current_range_meters":16800,"station_id":"ce4bh292rcd13ifvqdf0","pricing_plan_id":"cebpf4jnsgd1na2vs0mg"},{"bike_id":"9f1dfffb-1213-4f6e-84d3-a2f0789a9ef3","system_id":"levelo_inurba_marseille","lat":43.27618,"lon":5.35877,"is_reserved":false,"is_disabled":true,"rental_uris":{"android":"levelo://app?vid=9f1dfffb-1213-4f6e-84d3-a2f0789a9ef3","ios":"levelo://app?vid=9f1dfffb-1213-4f6e-84d3-a2f0789a9ef3"},"vehicle_type_id":"4","last_reported":1731960678,"current_range_meters":0,"station_id":"","pricing_plan_id":"cebpf4jnsgd1na2vs0mg"},{"bike_id":"8dfe3502-1a44-41d0-93ec-2f8847296f61","system_id":"levelo_inurba_marseille","lat":43.29194,"lon":5.35795,"is_reserved":false,"is_disabled":true,"rental_uris":{"android":"levelo://app?vid=8dfe3502-1a44-41d0-93ec-2f8847296f61","ios":"levelo://app?vid=8dfe3502-1a44-41d0-93ec-2f8847296f61"},"vehicle_type_id":"4","last_reported":1731960678,"current_range_meters":25200,"station_id":"ce4bhb12rcd13ifvqel0","pricing_plan_id":"cebpf4jnsgd1na2vs0mg"},{"bike_id":"954054ad-77ac-46c3-a1b5-c8fc266a522b","system_id":"levelo_inurba_marseille","lat":43.31726,"lon":5.42391,"is_reserved":false,"is_disabled":false,"rental_uris":{"android":"levelo://app?vid=954054ad-77ac-46c3-a1b5-c8fc266a522b","ios":"levelo://app?vid=954054ad-77ac-46c3-a1b5-c8fc266a522b"},"vehicle_type_id":"4","last_reported":1731960678,"current_range_meters":27600,"station_id":"ce4bhp92rcd13ifvqhbg","pricing_plan_id":"cebpf4jnsgd1na2vs0mg"},{"bike_id":"a6ee1dcb-4edc-42e6-9da7-66850f6eb400","system_id":"levelo_inurba_marseille","lat":43.308754,"lon":5.377839,"is_reserved":false,"is_disabled":false,"rental_uris":{"android":"levelo://app?vid=a6ee1dcb-4edc-42e6-9da7-66850f6eb400","ios":"levelo://app?vid=a6ee1dcb-4edc-42e6-9da7-66850f6eb400"},"vehicle_type_id":"4","last_reported":1731960678,"current_range_meters":26000,"station_id":"ce4bgv92rcd13ifvqcq0","pricing_plan_id":"cebpf4jnsgd1na2vs0mg"},{"bike_id":"96a7c93d-f36a-4997-80fb-df7d91730b79","system_id":"levelo_inurba_marseille","lat":43.26565,"lon":5.38993,"is_reserved":false,"is_disabled":true,"rental_uris":{"android":"levelo://app?vid=96a7c93d-f36a-4997-80fb-df7d91730b79","ios":"levelo://app?vid=96a7c93d-f36a-4997-80fb-df7d91730b79"},"vehicle_type_id":"4","last_reported":1731960678,"current_range_meters":0,"station_id":"ce4bhe12rcd13ifvqf30","pricing_plan_id":"cebpf4jnsgd1na2vs0mg"},{"bike_id":"2d983866-913c-4390-ae48-1873d10c9730","system_id":"levelo_inurba_marseille","lat":43.24808,"lon":5.37461,"is_reserved":false,"is_disabled":true,"rental_uris":{"android":"levelo://app?vid=2d983866-913c-4390-ae48-1873d10c9730","ios":"levelo://app?vid=2d983866-913c-4390-ae48-1873d10c9730"},"vehicle_type_id":"4","last_reported":1731960678,"current_range_meters":22400,"station_id":"ce4bhgh2rcd13ifvqfb0","pricing_plan_id":"cebpf4jnsgd1na2vs0mg"},{"bike_id":"6206c203-9987-4880-9ff1-b729e39e03d6","system_id":"levelo_inurba_marseille","lat":43.30891,"lon":5.39654,"is_reserved":false,"is_disabled":false,"rental_uris":{"android":"levelo://app?vid=6206c203-9987-4880-9ff1-b729e39e03d6","ios":"levelo://app?vid=6206c203-9987-4880-9ff1-b729e39e03d6"},"vehicle_type_id":"4","last_reported":1731960678,"current_range_meters":33600,"station_id":"ce4bh012rcd13ifvqcv0","pricing_plan_id":"cebpf4jnsgd1na2vs0mg"},{"bike_id":"37d60d93-8316-4ddc-b2ac-057e596bc0b2","system_id":"levelo_inurba_marseille","lat":43.27991,"lon":5.40023,"is_reserved":false,"is_disabled":false,"rental_uris":{"android":"levelo://app?vid=37d60d93-8316-4ddc-b2ac-057e596bc0b2","ios":"levelo://app?vid=37d60d93-8316-4ddc-b2ac-057e596bc0b2"},"vehicle_type_id":"4","last_reported":1731960678,"current_range_meters":29600,"station_id":"ce4bho92rcd13ifvqh4g","pricing_plan_id":"cebpf4jnsgd1na2vs0mg"},{"bike_id":"63437fd1-6f50-4e77-a820-dcbc60915f76","system_id":"levelo_inurba_marseille","lat":43.2465,"lon":5.3889,"is_reserved":false,"is_disabled":false,"rental_uris":{"android":"levelo://app?vid=63437fd1-6f50-4e77-a820-dcbc60915f76","ios":"levelo://app?vid=63437fd1-6f50-4e77-a820-dcbc60915f76"},"vehicle_type_id":"4","last_reported":1731960678,"current_range_meters":25200,"station_id":"ce4bhg12rcd13ifvqf60","pricing_plan_id":"cebpf4jnsgd1na2vs0mg"},{"bike_id":"d2f04998-0e47-4b82-9dc5-6d7eaf0ea7f1","system_id":"levelo_inurba_marseille","lat":43.29575,"lon":5.39968,"is_reserved":false,"is_disabled":false,"rental_uris":{"android":"levelo://app?vid=d2f04998-0e47-4b82-9dc5-6d7eaf0ea7f1","ios":"levelo://app?vid=d2f04998-0e47-4b82-9dc5-6d7eaf0ea7f1"},"vehicle_type_id":"4","last_reported":1731960678,"current_range_meters":10000,"station_id":"ce4bh312rcd13ifvqdj0","pricing_plan_id":"cebpf4jnsgd1na2vs0mg"},{"bike_id":"a0576b9b-4e9d-4ee7-bb3e-798c436c865a","system_id":"levelo_inurba_marseille","lat":43.30083,"lon":5.3908,"is_reserved":false,"is_disabled":false,"rental_uris":{"android":"levelo://app?vid=a0576b9b-4e9d-4ee7-bb3e-798c436c865a","ios":"levelo://app?vid=a0576b9b-4e9d-4ee7-bb3e-798c436c865a"},"vehicle_type_id":"4","last_reported":1731960678,"current_range_meters":30800,"station_id":"ce4bh192rcd13ifvqdb0","pricing_plan_id":"cebpf4jnsgd1na2vs0mg"},{"bike_id":"e264033a-f915-4b27-a08a-2f42cfcf052a","system_id":"levelo_inurba_marseille","lat":43.337444,"lon":5.374475,"is_reserved":false,"is_disabled":false,"rental_uris":{"android":"levelo://app?vid=e264033a-f915-4b27-a08a-2f42cfcf052a","ios":"levelo://app?vid=e264033a-f915-4b27-a08a-2f42cfcf052a"},"vehicle_type_id":"4","last_reported":1731960678,"current_range_meters":36000,"station_id":"","pricing_plan_id":"cebpf4jnsgd1na2vs0mg"},{"bike_id":"affc6a42-c87f-4640-9297-4a4ea6bc3ad3","system_id":"levelo_inurba_marseille","lat":43.29556,"lon":5.4229,"is_reserved":false,"is_disabled":false,"rental_uris":{"android":"levelo://app?vid=affc6a42-c87f-4640-9297-4a4ea6bc3ad3","ios":"levelo://app?vid=affc6a42-c87f-4640-9297-4a4ea6bc3ad3"},"vehicle_type_id":"4","last_reported":1731960678,"current_range_meters":16800,"station_id":"ce4bhph2rcd13ifvqhdg","pricing_plan_id":"cebpf4jnsgd1na2vs0mg"},{"bike_id":"167bfcb2-34bc-4fde-9708-323115ef71c3","system_id":"levelo_inurba_marseille","lat":43.28023,"lon":5.38682,"is_reserved":false,"is_disabled":false,"rental_uris":{"android":"levelo://app?vid=167bfcb2-34bc-4fde-9708-323115ef71c3","ios":"levelo://app?vid=167bfcb2-34bc-4fde-9708-323115ef71c3"},"vehicle_type_id":"4","last_reported":1731960678,"current_range_meters":27600,"station_id":"ce4bhq92rcd13ifvqhjg","pricing_plan_id":"cebpf4jnsgd1na2vs0mg"},{"bike_id":"df900be8-2c12-453f-bc2b-7090adc12272","system_id":"levelo_inurba_marseille","lat":43.30125,"lon":5.38783,"is_reserved":false,"is_disabled":true,"rental_uris":{"android":"levelo://app?vid=df900be8-2c12-453f-bc2b-7090adc12272","ios":"levelo://app?vid=df900be8-2c12-453f-bc2b-7090adc12272"},"vehicle_type_id":"4","last_reported":1731960678,"current_range_meters":24800,"station_id":"ce4bghh2rcd13ifvqb60","pricing_plan_id":"cebpf4jnsgd1na2vs0mg"},{"bike_id":"123862ba-68e2-48f6-a477-31ab9dae8bd5","system_id":"levelo_inurba_marseille","lat":43.337444,"lon":5.374475,"is_reserved":false,"is_disabled":true,"rental_uris":{"android":"levelo://app?vid=123862ba-68e2-48f6-a477-31ab9dae8bd5","ios":"levelo://app?vid=123862ba-68e2-48f6-a477-31ab9dae8bd5"},"vehicle_type_id":"4","last_reported":1731960678,"current_range_meters":19200,"station_id":"","pricing_plan_id":"cebpf4jnsgd1na2vs0mg"},{"bike_id":"25ddf417-8230-4dbc-b38a-2b2cb1ba9d73","system_id":"levelo_inurba_marseille","lat":43.30277,"lon":5.37681,"is_reserved":false,"is_disabled":true,"rental_uris":{"android":"levelo://app?vid=25ddf417-8230-4dbc-b38a-2b2cb1ba9d73","ios":"levelo://app?vid=25ddf417-8230-4dbc-b38a-2b2cb1ba9d73"},"vehicle_type_id":"4","last_reported":1731960678,"current_range_meters":16000,"station_id":"ce4bguh2rcd13ifvqcj0","pricing_plan_id":"cebpf4jnsgd1na2vs0mg"},{"bike_id":"203aeef1-141c-4fdd-8aad-facad2087071","system_id":"levelo_inurba_marseille","lat":43.33751,"lon":5.37436,"is_reserved":false,"is_disabled":false,"rental_uris":{"android":"levelo://app?vid=203aeef1-141c-4fdd-8aad-facad2087071","ios":"levelo://app?vid=203aeef1-141c-4fdd-8aad-facad2087071"},"vehicle_type_id":"4","last_reported":1731960678,"current_range_meters":24800,"station_id":"","pricing_plan_id":"cebpf4jnsgd1na2vs0mg"},{"bike_id":"54914afd-85be-4538-960e-c76314b722aa","system_id":"levelo_inurba_marseille","lat":43.29778,"lon":5.39346,"is_reserved":false,"is_disabled":false,"rental_uris":{"android":"levelo://app?vid=54914afd-85be-4538-960e-c76314b722aa","ios":"levelo://app?vid=54914afd-85be-4538-960e-c76314b722aa"},"vehicle_type_id":"4","last_reported":1731960678,"current_range_meters":30800,"station_id":"chh1huq6cuj3fo74tm60","pricing_plan_id":"cebpf4jnsgd1na2vs0mg"},{"bike_id":"a18e743f-f904-45c8-9217-5413d7928a28","system_id":"levelo_inurba_marseille","lat":43.304273,"lon":5.388797,"is_reserved":false,"is_disabled":false,"rental_uris":{"android":"levelo://app?vid=a18e743f-f904-45c8-9217-5413d7928a28","ios":"levelo://app?vid=a18e743f-f904-45c8-9217-5413d7928a28"},"vehicle_type_id":"4","last_reported":1731960678,"current_range_meters":28800,"station_id":"ce4bgk12rcd13ifvqbi0","pricing_plan_id":"cebpf4jnsgd1na2vs0mg"},{"bike_id":"015475d9-9369-4060-8bef-8b2a0db4bfee","system_id":"levelo_inurba_marseille","lat":43.29783,"lon":5.39353,"is_reserved":false,"is_disabled":false,"rental_uris":{"android":"levelo://app?vid=015475d9-9369-4060-8bef-8b2a0db4bfee","ios":"levelo://app?vid=015475d9-9369-4060-8bef-8b2a0db4bfee"},"vehicle_type_id":"4","last_reported":1731960678,"current_range_meters":39200,"station_id":"chh1huq6cuj3fo74tm60","pricing_plan_id":"cebpf4jnsgd1na2vs0mg"},{"bike_id":"2930718f-1390-44dc-b699-41910b0634a8","system_id":"levelo_inurba_marseille","lat":43.29812,"lon":5.4041,"is_reserved":false,"is_disabled":false,"rental_uris":{"android":"levelo://app?vid=2930718f-1390-44dc-b699-41910b0634a8","ios":"levelo://app?vid=2930718f-1390-44dc-b699-41910b0634a8"},"vehicle_type_id":"4","last_reported":1731960678,"current_range_meters":38000,"station_id":"ce4bh112rcd13ifvqd90","pricing_plan_id":"cebpf4jnsgd1na2vs0mg"},{"bike_id":"7d29652b-189c-465c-ad5c-0aac5af0c2b2","system_id":"levelo_inurba_marseille","lat":43.28666,"lon":5.38667,"is_reserved":false,"is_disabled":false,"rental_uris":{"android":"levelo://app?vid=7d29652b-189c-465c-ad5c-0aac5af0c2b2","ios":"levelo://app?vid=7d29652b-189c-465c-ad5c-0aac5af0c2b2"},"vehicle_type_id":"4","last_reported":1731960678,"current_range_meters":27600,"station_id":"ce4bh492rcd13ifvqdug","pricing_plan_id":"cebpf4jnsgd1na2vs0mg"},{"bike_id":"844cc995-d4b4-4841-87fb-225c5590a2a6","system_id":"levelo_inurba_marseille","lat":43.28939,"lon":5.36383,"is_reserved":false,"is_disabled":false,"rental_uris":{"android":"levelo://app?vid=844cc995-d4b4-4841-87fb-225c5590a2a6","ios":"levelo://app?vid=844cc995-d4b4-4841-87fb-225c5590a2a6"},"vehicle_type_id":"4","last_reported":1731960678,"current_range_meters":20800,"station_id":"ce4bhc92rcd13ifvqetg","pricing_plan_id":"cebpf4jnsgd1na2vs0mg"},{"bike_id":"0814e5b2-afc4-4274-a5e1-ccb784183380","system_id":"levelo_inurba_marseille","lat":43.29518,"lon":5.39039,"is_reserved":false,"is_disabled":false,"rental_uris":{"android":"levelo://app?vid=0814e5b2-afc4-4274-a5e1-ccb784183380","ios":"levelo://app?vid=0814e5b2-afc4-4274-a5e1-ccb784183380"},"vehicle_type_id":"4","last_reported":1731960678,"current_range_meters":28800,"station_id":"ce4bh3p2rcd13ifvqdp0","pricing_plan_id":"cebpf4jnsgd1na2vs0mg"},{"bike_id":"674671a9-ba1c-4a0d-a2d0-d1670faad228","system_id":"levelo_inurba_marseille","lat":43.31078,"lon":5.42432,"is_reserved":false,"is_disabled":true,"rental_uris":{"android":"levelo://app?vid=674671a9-ba1c-4a0d-a2d0-d1670faad228","ios":"levelo://app?vid=674671a9-ba1c-4a0d-a2d0-d1670faad228"},"vehicle_type_id":"4","last_reported":1731960678,"current_range_meters":0,"station_id":"ce4bhp92rcd13ifvqhag","pricing_plan_id":"cebpf4jnsgd1na2vs0mg"},{"bike_id":"902520de-201d-40c5-b252-e084c9103587","system_id":"levelo_inurba_marseille","lat":43.29694,"lon":5.36618,"is_reserved":false,"is_disabled":false,"rental_uris":{"android":"levelo://app?vid=902520de-201d-40c5-b252-e084c9103587","ios":"levelo://app?vid=902520de-201d-40c5-b252-e084c9103587"},"vehicle_type_id":"4","last_reported":1731960678,"current_range_meters":34800,"station_id":"ce4bgn12rcd13ifvqbt0","pricing_plan_id":"cebpf4jnsgd1na2vs0mg"},{"bike_id":"e4a5532d-23c6-44a1-8a40-ea77917bd499","system_id":"levelo_inurba_marseille","lat":43.30123,"lon":5.39873,"is_reserved":false,"is_disabled":false,"rental_uris":{"android":"levelo://app?vid=e4a5532d-23c6-44a1-8a40-ea77917bd499","ios":"levelo://app?vid=e4a5532d-23c6-44a1-8a40-ea77917bd499"},"vehicle_type_id":"4","last_reported":1731960678,"current_range_meters":32000,"station_id":"ce4bh0h2rcd13ifvqd40","pricing_plan_id":"cebpf4jnsgd1na2vs0mg"},{"bike_id":"754ef339-4206-4391-a29c-4a3441435511","system_id":"levelo_inurba_marseille","lat":43.28456,"lon":5.3588,"is_reserved":false,"is_disabled":false,"rental_uris":{"android":"levelo://app?vid=754ef339-4206-4391-a29c-4a3441435511","ios":"levelo://app?vid=754ef339-4206-4391-a29c-4a3441435511"},"vehicle_type_id":"4","last_reported":1731960678,"current_range_meters":6800,"station_id":"ce4bhah2rcd13ifvqei0","pricing_plan_id":"cebpf4jnsgd1na2vs0mg"},{"bike_id":"fa8d3ad6-14de-466a-9c11-bab95de20fb5","system_id":"levelo_inurba_marseille","lat":43.30148,"lon":5.38084,"is_reserved":false,"is_disabled":false,"rental_uris":{"android":"levelo://app?vid=fa8d3ad6-14de-466a-9c11-bab95de20fb5","ios":"levelo://app?vid=fa8d3ad6-14de-466a-9c11-bab95de20fb5"},"vehicle_type_id":"4","last_reported":1731960678,"current_range_meters":11200,"station_id":"ce4bgjp2rcd13ifvqbh0","pricing_plan_id":"cebpf4jnsgd1na2vs0mg"},{"bike_id":"a0f51239-5e6a-4316-ab9c-da4d980015bc","system_id":"levelo_inurba_marseille","lat":43.32288,"lon":5.3827,"is_reserved":false,"is_disabled":false,"rental_uris":{"android":"levelo://app?vid=a0f51239-5e6a-4316-ab9c-da4d980015bc","ios":"levelo://app?vid=a0f51239-5e6a-4316-ab9c-da4d980015bc"},"vehicle_type_id":"4","last_reported":1731960678,"current_range_meters":8400,"station_id":"ce4bhr12rcd13ifvqhqg","pricing_plan_id":"cebpf4jnsgd1na2vs0mg"},{"bike_id":"746c26b3-b945-4191-b394-93c5195805c3","system_id":"levelo_inurba_marseille","lat":43.27943,"lon":5.41043,"is_reserved":false,"is_disabled":false,"rental_uris":{"android":"levelo://app?vid=746c26b3-b945-4191-b394-93c5195805c3","ios":"levelo://app?vid=746c26b3-b945-4191-b394-93c5195805c3"},"vehicle_type_id":"4","last_reported":1731960678,"current_range_meters":13600,"station_id":"ce4bhnp2rcd13ifvqh0g","pricing_plan_id":"cebpf4jnsgd1na2vs0mg"},{"bike_id":"1a70c7dd-62bc-47a3-bbc1-a51d2652e9c2","system_id":"levelo_inurba_marseille","lat":43.28699,"lon":5.37394,"is_reserved":false,"is_disabled":false,"rental_uris":{"android":"levelo://app?vid=1a70c7dd-62bc-47a3-bbc1-a51d2652e9c2","ios":"levelo://app?vid=1a70c7dd-62bc-47a3-bbc1-a51d2652e9c2"},"vehicle_type_id":"4","last_reported":1731960678,"current_range_meters":14400,"station_id":"ce4bh3p2rcd13ifvqdq0","pricing_plan_id":"cebpf4jnsgd1na2vs0mg"},{"bike_id":"75420037-a1a0-44de-85e1-44ce9ad329ea","system_id":"levelo_inurba_marseille","lat":43.28461,"lon":5.35891,"is_reserved":false,"is_disabled":false,"rental_uris":{"android":"levelo://app?vid=75420037-a1a0-44de-85e1-44ce9ad329ea","ios":"levelo://app?vid=75420037-a1a0-44de-85e1-44ce9ad329ea"},"vehicle_type_id":"4","last_reported":1731960678,"current_range_meters":36800,"station_id":"ce4bhah2rcd13ifvqei0","pricing_plan_id":"cebpf4jnsgd1na2vs0mg"},{"bike_id":"5ed0dcf0-c2ca-47d5-8497-b51c5d83f101","system_id":"levelo_inurba_marseille","lat":43.26686,"lon":5.38276,"is_reserved":false,"is_disabled":true,"rental_uris":{"android":"levelo://app?vid=5ed0dcf0-c2ca-47d5-8497-b51c5d83f101","ios":"levelo://app?vid=5ed0dcf0-c2ca-47d5-8497-b51c5d83f101"},"vehicle_type_id":"4","last_reported":1731960678,"current_range_meters":38400,"station_id":"ce4bhg92rcd13ifvqf90","pricing_plan_id":"cebpf4jnsgd1na2vs0mg"},{"bike_id":"5f75b3a9-a537-4382-9746-bf23fca4dd83","system_id":"levelo_inurba_marseille","lat":43.30428,"lon":5.39757,"is_reserved":false,"is_disabled":false,"rental_uris":{"android":"levelo://app?vid=5f75b3a9-a537-4382-9746-bf23fca4dd83","ios":"levelo://app?vid=5f75b3a9-a537-4382-9746-bf23fca4dd83"},"vehicle_type_id":"4","last_reported":1731960678,"current_range_meters":8000,"station_id":"ce4bh0h2rcd13ifvqd40","pricing_plan_id":"cebpf4jnsgd1na2vs0mg"},{"bike_id":"02715229-b658-4fa1-8848-506ff3ca2609","system_id":"levelo_inurba_marseille","lat":43.24649,"lon":5.38889,"is_reserved":false,"is_disabled":false,"rental_uris":{"android":"levelo://app?vid=02715229-b658-4fa1-8848-506ff3ca2609","ios":"levelo://app?vid=02715229-b658-4fa1-8848-506ff3ca2609"},"vehicle_type_id":"4","last_reported":1731960678,"current_range_meters":19600,"station_id":"ce4bhg12rcd13ifvqf60","pricing_plan_id":"cebpf4jnsgd1na2vs0mg"},{"bike_id":"18fded32-019c-421b-8db7-c4613bc1d599","system_id":"levelo_inurba_marseille","lat":43.25576,"lon":5.38236,"is_reserved":false,"is_disabled":false,"rental_uris":{"android":"levelo://app?vid=18fded32-019c-421b-8db7-c4613bc1d599","ios":"levelo://app?vid=18fded32-019c-421b-8db7-c4613bc1d599"},"vehicle_type_id":"4","last_reported":1731960678,"current_range_meters":23200,"station_id":"ce4bhih2rcd13ifvqfs0","pricing_plan_id":"cebpf4jnsgd1na2vs0mg"},{"bike_id":"d36e7d82-f90b-47a5-9efd-5cc67df5760f","system_id":"levelo_inurba_marseille","lat":43.29183,"lon":5.39328,"is_reserved":false,"is_disabled":false,"rental_uris":{"android":"levelo://app?vid=d36e7d82-f90b-47a5-9efd-5cc67df5760f","ios":"levelo://app?vid=d36e7d82-f90b-47a5-9efd-5cc67df5760f"},"vehicle_type_id":"4","last_reported":1731960678,"current_range_meters":36800,"station_id":"ce4bh192rcd13ifvqdd0","pricing_plan_id":"cebpf4jnsgd1na2vs0mg"},{"bike_id":"424ef52e-cbcc-480c-b4ab-f84f23a63cc0","system_id":"levelo_inurba_marseille","lat":43.30905,"lon":5.3718,"is_reserved":false,"is_disabled":false,"rental_uris":{"android":"levelo://app?vid=424ef52e-cbcc-480c-b4ab-f84f23a63cc0","ios":"levelo://app?vid=424ef52e-cbcc-480c-b4ab-f84f23a63cc0"},"vehicle_type_id":"4","last_reported":1731960678,"current_range_meters":16000,"station_id":"ce4bguh2rcd13ifvqckg","pricing_plan_id":"cebpf4jnsgd1na2vs0mg"},{"bike_id":"129aabad-c987-475e-90f3-2bfaf3bf8a5a","system_id":"levelo_inurba_marseille","lat":43.30882,"lon":5.39629,"is_reserved":false,"is_disabled":false,"rental_uris":{"android":"levelo://app?vid=129aabad-c987-475e-90f3-2bfaf3bf8a5a","ios":"levelo://app?vid=129aabad-c987-475e-90f3-2bfaf3bf8a5a"},"vehicle_type_id":"4","last_reported":1731960678,"current_range_meters":24800,"station_id":"ce4bh012rcd13ifvqcv0","pricing_plan_id":"cebpf4jnsgd1na2vs0mg"},{"bike_id":"0c548a2b-6ad9-4fe9-a1fb-a72bd3c5db43","system_id":"levelo_inurba_marseille","lat":43.29435,"lon":5.39734,"is_reserved":false,"is_disabled":false,"rental_uris":{"android":"levelo://app?vid=0c548a2b-6ad9-4fe9-a1fb-a72bd3c5db43","ios":"levelo://app?vid=0c548a2b-6ad9-4fe9-a1fb-a72bd3c5db43"},"vehicle_type_id":"4","last_reported":1731960678,"current_range_meters":2000,"station_id":"ce4bh3h2rcd13ifvqdo0","pricing_plan_id":"cebpf4jnsgd1na2vs0mg"},{"bike_id":"8d377374-9775-4f46-9ae2-a53fea7dcb6a","system_id":"levelo_inurba_marseille","lat":43.30778,"lon":5.37645,"is_reserved":false,"is_disabled":false,"rental_uris":{"android":"levelo://app?vid=8d377374-9775-4f46-9ae2-a53fea7dcb6a","ios":"levelo://app?vid=8d377374-9775-4f46-9ae2-a53fea7dcb6a"},"vehicle_type_id":"4","last_reported":1731960678,"current_range_meters":24000,"station_id":"ce4bgv92rcd13ifvqcq0","pricing_plan_id":"cebpf4jnsgd1na2vs0mg"},{"bike_id":"f0e2f4e5-f602-4a1c-ba1a-aa1d1150f28c","system_id":"levelo_inurba_marseille","lat":43.29632,"lon":5.40605,"is_reserved":false,"is_disabled":false,"rental_uris":{"android":"levelo://app?vid=f0e2f4e5-f602-4a1c-ba1a-aa1d1150f28c","ios":"levelo://app?vid=f0e2f4e5-f602-4a1c-ba1a-aa1d1150f28c"},"vehicle_type_id":"4","last_reported":1731960678,"current_range_meters":39200,"station_id":"ce4bh0h2rcd13ifvqd60","pricing_plan_id":"cebpf4jnsgd1na2vs0mg"},{"bike_id":"85ea1e6a-e3ed-4c94-8b0a-6d7f6e67794e","system_id":"levelo_inurba_marseille","lat":43.31168,"lon":5.38718,"is_reserved":false,"is_disabled":false,"rental_uris":{"android":"levelo://app?vid=85ea1e6a-e3ed-4c94-8b0a-6d7f6e67794e","ios":"levelo://app?vid=85ea1e6a-e3ed-4c94-8b0a-6d7f6e67794e"},"vehicle_type_id":"4","last_reported":1731960678,"current_range_meters":38400,"station_id":"ce4bgv12rcd13ifvqcp0","pricing_plan_id":"cebpf4jnsgd1na2vs0mg"},{"bike_id":"628384db-a629-44bc-856e-9d5ee504cce9","system_id":"levelo_inurba_marseille","lat":43.25003,"lon":5.38921,"is_reserved":false,"is_disabled":true,"rental_uris":{"android":"levelo://app?vid=628384db-a629-44bc-856e-9d5ee504cce9","ios":"levelo://app?vid=628384db-a629-44bc-856e-9d5ee504cce9"},"vehicle_type_id":"4","last_reported":1731960678,"current_range_meters":38800,"station_id":"ce4bhgp2rcd13ifvqfd0","pricing_plan_id":"cebpf4jnsgd1na2vs0mg"},{"bike_id":"2c98f310-de06-47e1-8a5f-d38938934c83","system_id":"levelo_inurba_marseille","lat":43.23187,"lon":5.39985,"is_reserved":false,"is_disabled":true,"rental_uris":{"android":"levelo://app?vid=2c98f310-de06-47e1-8a5f-d38938934c83","ios":"levelo://app?vid=2c98f310-de06-47e1-8a5f-d38938934c83"},"vehicle_type_id":"4","last_reported":1731960678,"current_range_meters":0,"station_id":"ce4bhn12rcd13ifvqgqg","pricing_plan_id":"cebpf4jnsgd1na2vs0mg"},{"bike_id":"23135125-383a-4861-98de-64bbe8a2d094","system_id":"levelo_inurba_marseille","lat":43.30925,"lon":5.40144,"is_reserved":false,"is_disabled":false,"rental_uris":{"android":"levelo://app?vid=23135125-383a-4861-98de-64bbe8a2d094","ios":"levelo://app?vid=23135125-383a-4861-98de-64bbe8a2d094"},"vehicle_type_id":"4","last_reported":1731960678,"current_range_meters":12800,"station_id":"ce4bgvp2rcd13ifvqct0","pricing_plan_id":"cebpf4jnsgd1na2vs0mg"},{"bike_id":"3f32c9d6-8aed-4b6d-92f4-88b3106e6e04","system_id":"levelo_inurba_marseille","lat":43.25861,"lon":5.39906,"is_reserved":false,"is_disabled":true,"rental_uris":{"android":"levelo://app?vid=3f32c9d6-8aed-4b6d-92f4-88b3106e6e04","ios":"levelo://app?vid=3f32c9d6-8aed-4b6d-92f4-88b3106e6e04"},"vehicle_type_id":"4","last_reported":1731960678,"current_range_meters":12000,"station_id":"ce4bhl92rcd13ifvqghg","pricing_plan_id":"cebpf4jnsgd1na2vs0mg"},{"bike_id":"59282a02-6b4b-4617-b658-ff49c6291b10","system_id":"levelo_inurba_marseille","lat":43.28453,"lon":5.35892,"is_reserved":false,"is_disabled":false,"rental_uris":{"android":"levelo://app?vid=59282a02-6b4b-4617-b658-ff49c6291b10","ios":"levelo://app?vid=59282a02-6b4b-4617-b658-ff49c6291b10"},"vehicle_type_id":"4","last_reported":1731960678,"current_range_meters":14400,"station_id":"ce4bhah2rcd13ifvqei0","pricing_plan_id":"cebpf4jnsgd1na2vs0mg"},{"bike_id":"7bd5b594-ad05-42d5-b851-cc808e837a0f","system_id":"levelo_inurba_marseille","lat":43.28677,"lon":5.38655,"is_reserved":false,"is_disabled":false,"rental_uris":{"android":"levelo://app?vid=7bd5b594-ad05-42d5-b851-cc808e837a0f","ios":"levelo://app?vid=7bd5b594-ad05-42d5-b851-cc808e837a0f"},"vehicle_type_id":"4","last_reported":1731960678,"current_range_meters":36800,"station_id":"ce4bh492rcd13ifvqdug","pricing_plan_id":"cebpf4jnsgd1na2vs0mg"},{"bike_id":"7c5ea3a8-a728-4c0b-a06a-05abd113adfd","system_id":"levelo_inurba_marseille","lat":43.2582,"lon":5.39434,"is_reserved":false,"is_disabled":true,"rental_uris":{"android":"levelo://app?vid=7c5ea3a8-a728-4c0b-a06a-05abd113adfd","ios":"levelo://app?vid=7c5ea3a8-a728-4c0b-a06a-05abd113adfd"},"vehicle_type_id":"4","last_reported":1731960678,"current_range_meters":0,"station_id":"ce4bhip2rcd13ifvqft0","pricing_plan_id":"cebpf4jnsgd1na2vs0mg"},{"bike_id":"89f50497-216a-4e8a-bc30-e170101d8b54","system_id":"levelo_inurba_marseille","lat":43.29523,"lon":5.39038,"is_reserved":false,"is_disabled":false,"rental_uris":{"android":"levelo://app?vid=89f50497-216a-4e8a-bc30-e170101d8b54","ios":"levelo://app?vid=89f50497-216a-4e8a-bc30-e170101d8b54"},"vehicle_type_id":"4","last_reported":1731960678,"current_range_meters":12400,"station_id":"ce4bh3p2rcd13ifvqdp0","pricing_plan_id":"cebpf4jnsgd1na2vs0mg"},{"bike_id":"49e7624e-103a-42f5-a246-ce17656f0975","system_id":"levelo_inurba_marseille","lat":43.2603,"lon":5.3755,"is_reserved":false,"is_disabled":false,"rental_uris":{"android":"levelo://app?vid=49e7624e-103a-42f5-a246-ce17656f0975","ios":"levelo://app?vid=49e7624e-103a-42f5-a246-ce17656f0975"},"vehicle_type_id":"4","last_reported":1731960678,"current_range_meters":36800,"station_id":"ce4bhgh2rcd13ifvqfa0","pricing_plan_id":"cebpf4jnsgd1na2vs0mg"},{"bike_id":"c6e5fc85-9d77-412c-9bc7-fa5460e2d9cc","system_id":"levelo_inurba_marseille","lat":43.29782,"lon":5.37096,"is_reserved":false,"is_disabled":false,"rental_uris":{"android":"levelo://app?vid=c6e5fc85-9d77-412c-9bc7-fa5460e2d9cc","ios":"levelo://app?vid=c6e5fc85-9d77-412c-9bc7-fa5460e2d9cc"},"vehicle_type_id":"4","last_reported":1731960678,"current_range_meters":36400,"station_id":"ce4bgop2rcd13ifvqc1g","pricing_plan_id":"cebpf4jnsgd1na2vs0mg"},{"bike_id":"4de41581-3b4d-48da-b235-99669862c70a","system_id":"levelo_inurba_marseille","lat":43.2961,"lon":5.37711,"is_reserved":false,"is_disabled":true,"rental_uris":{"android":"levelo://app?vid=4de41581-3b4d-48da-b235-99669862c70a","ios":"levelo://app?vid=4de41581-3b4d-48da-b235-99669862c70a"},"vehicle_type_id":"4","last_reported":1731960678,"current_range_meters":35600,"station_id":"ce4bgi92rcd13ifvqb90","pricing_plan_id":"cebpf4jnsgd1na2vs0mg"},{"bike_id":"f601eb27-d188-4854-ba73-090ddc3b0023","system_id":"levelo_inurba_marseille","lat":43.27172,"lon":5.40995,"is_reserved":false,"is_disabled":false,"rental_uris":{"android":"levelo://app?vid=f601eb27-d188-4854-ba73-090ddc3b0023","ios":"levelo://app?vid=f601eb27-d188-4854-ba73-090ddc3b0023"},"vehicle_type_id":"4","last_reported":1731960678,"current_range_meters":22400,"station_id":"ce4bhl12rcd13ifvqgf0","pricing_plan_id":"cebpf4jnsgd1na2vs0mg"},{"bike_id":"b0222684-7565-40dc-91a5-328b5ec85c70","system_id":"levelo_inurba_marseille","lat":43.28073,"lon":5.39646,"is_reserved":false,"is_disabled":false,"rental_uris":{"android":"levelo://app?vid=b0222684-7565-40dc-91a5-328b5ec85c70","ios":"levelo://app?vid=b0222684-7565-40dc-91a5-328b5ec85c70"},"vehicle_type_id":"4","last_reported":1731960678,"current_range_meters":39200,"station_id":"ce4bho12rcd13ifvqh2g","pricing_plan_id":"cebpf4jnsgd1na2vs0mg"},{"bike_id":"fcae7cf1-a7d3-4668-b3bc-06de5e18f103","system_id":"levelo_inurba_marseille","lat":43.2587,"lon":5.39895,"is_reserved":false,"is_disabled":false,"rental_uris":{"android":"levelo://app?vid=fcae7cf1-a7d3-4668-b3bc-06de5e18f103","ios":"levelo://app?vid=fcae7cf1-a7d3-4668-b3bc-06de5e18f103"},"vehicle_type_id":"4","last_reported":1731960678,"current_range_meters":35600,"station_id":"ce4bhl92rcd13ifvqghg","pricing_plan_id":"cebpf4jnsgd1na2vs0mg"},{"bike_id":"f4b89e3e-303f-4caf-bcc8-90e28cd64704","system_id":"levelo_inurba_marseille","lat":43.27665,"lon":5.38393,"is_reserved":false,"is_disabled":false,"rental_uris":{"android":"levelo://app?vid=f4b89e3e-303f-4caf-bcc8-90e28cd64704","ios":"levelo://app?vid=f4b89e3e-303f-4caf-bcc8-90e28cd64704"},"vehicle_type_id":"4","last_reported":1731960678,"current_range_meters":18000,"station_id":"","pricing_plan_id":"cebpf4jnsgd1na2vs0mg"},{"bike_id":"f95b0a45-21d6-4f48-a7e2-607af7282e93","system_id":"levelo_inurba_marseille","lat":43.29787,"lon":5.37094,"is_reserved":false,"is_disabled":false,"rental_uris":{"android":"levelo://app?vid=f95b0a45-21d6-4f48-a7e2-607af7282e93","ios":"levelo://app?vid=f95b0a45-21d6-4f48-a7e2-607af7282e93"},"vehicle_type_id":"4","last_reported":1731960678,"current_range_meters":30400,"station_id":"ce4bgop2rcd13ifvqc1g","pricing_plan_id":"cebpf4jnsgd1na2vs0mg"},{"bike_id":"2b230e21-05b5-46a3-b9c5-f6223e5aaf4f","system_id":"levelo_inurba_marseille","lat":43.31712,"lon":5.43702,"is_reserved":false,"is_disabled":false,"rental_uris":{"android":"levelo://app?vid=2b230e21-05b5-46a3-b9c5-f6223e5aaf4f","ios":"levelo://app?vid=2b230e21-05b5-46a3-b9c5-f6223e5aaf4f"},"vehicle_type_id":"4","last_reported":1731960678,"current_range_meters":32800,"station_id":"ce4bhp92rcd13ifvqhcg","pricing_plan_id":"cebpf4jnsgd1na2vs0mg"},{"bike_id":"e03ee57d-d6f5-4e29-99df-e78e89cfc6cd","system_id":"levelo_inurba_marseille","lat":43.30928,"lon":5.40143,"is_reserved":false,"is_disabled":false,"rental_uris":{"android":"levelo://app?vid=e03ee57d-d6f5-4e29-99df-e78e89cfc6cd","ios":"levelo://app?vid=e03ee57d-d6f5-4e29-99df-e78e89cfc6cd"},"vehicle_type_id":"4","last_reported":1731960678,"current_range_meters":25600,"station_id":"ce4bgvp2rcd13ifvqct0","pricing_plan_id":"cebpf4jnsgd1na2vs0mg"},{"bike_id":"8f406614-5bf3-4989-b59c-a65d57a10f46","system_id":"levelo_inurba_marseille","lat":43.29575,"lon":5.39976,"is_reserved":false,"is_disabled":false,"rental_uris":{"android":"levelo://app?vid=8f406614-5bf3-4989-b59c-a65d57a10f46","ios":"levelo://app?vid=8f406614-5bf3-4989-b59c-a65d57a10f46"},"vehicle_type_id":"4","last_reported":1731960678,"current_range_meters":35600,"station_id":"ce4bh312rcd13ifvqdj0","pricing_plan_id":"cebpf4jnsgd1na2vs0mg"},{"bike_id":"4ff195aa-0e94-4780-a4e9-74e0f4125314","system_id":"levelo_inurba_marseille","lat":43.29779,"lon":5.39354,"is_reserved":false,"is_disabled":true,"rental_uris":{"android":"levelo://app?vid=4ff195aa-0e94-4780-a4e9-74e0f4125314","ios":"levelo://app?vid=4ff195aa-0e94-4780-a4e9-74e0f4125314"},"vehicle_type_id":"4","last_reported":1731960678,"current_range_meters":37600,"station_id":"chh1huq6cuj3fo74tm60","pricing_plan_id":"cebpf4jnsgd1na2vs0mg"},{"bike_id":"c0504cd4-dbe3-40d3-84a6-0a1ffed8d051","system_id":"levelo_inurba_marseille","lat":43.30911,"lon":5.36844,"is_reserved":false,"is_disabled":false,"rental_uris":{"android":"levelo://app?vid=c0504cd4-dbe3-40d3-84a6-0a1ffed8d051","ios":"levelo://app?vid=c0504cd4-dbe3-40d3-84a6-0a1ffed8d051"},"vehicle_type_id":"4","last_reported":1731960678,"current_range_meters":8800,"station_id":"ce4bgn92rcd13ifvqbvg","pricing_plan_id":"cebpf4jnsgd1na2vs0mg"},{"bike_id":"84add0bd-cb10-4dcb-82e1-3da91d21fda0","system_id":"levelo_inurba_marseille","lat":43.29899,"lon":5.43667,"is_reserved":false,"is_disabled":false,"rental_uris":{"android":"levelo://app?vid=84add0bd-cb10-4dcb-82e1-3da91d21fda0","ios":"levelo://app?vid=84add0bd-cb10-4dcb-82e1-3da91d21fda0"},"vehicle_type_id":"4","last_reported":1731960678,"current_range_meters":6400,"station_id":"ce4bhpp2rcd13ifvqhfg","pricing_plan_id":"cebpf4jnsgd1na2vs0mg"},{"bike_id":"026b8c68-bd26-4b3a-92e6-b0fa8d046556","system_id":"levelo_inurba_marseille","lat":43.26577,"lon":5.39028,"is_reserved":false,"is_disabled":true,"rental_uris":{"android":"levelo://app?vid=026b8c68-bd26-4b3a-92e6-b0fa8d046556","ios":"levelo://app?vid=026b8c68-bd26-4b3a-92e6-b0fa8d046556"},"vehicle_type_id":"4","last_reported":1731960678,"current_range_meters":1200,"station_id":"ce4bhe12rcd13ifvqf30","pricing_plan_id":"cebpf4jnsgd1na2vs0mg"},{"bike_id":"6fcf8485-44b2-4e7f-a1ac-a973f48cb9a9","system_id":"levelo_inurba_marseille","lat":43.3228,"lon":5.38267,"is_reserved":false,"is_disabled":false,"rental_uris":{"android":"levelo://app?vid=6fcf8485-44b2-4e7f-a1ac-a973f48cb9a9","ios":"levelo://app?vid=6fcf8485-44b2-4e7f-a1ac-a973f48cb9a9"},"vehicle_type_id":"4","last_reported":1731960678,"current_range_meters":25200,"station_id":"ce4bhr12rcd13ifvqhqg","pricing_plan_id":"cebpf4jnsgd1na2vs0mg"},{"bike_id":"b2959e9d-3296-4d14-a6eb-4abde525bf73","system_id":"levelo_inurba_marseille","lat":43.30088,"lon":5.39095,"is_reserved":false,"is_disabled":false,"rental_uris":{"android":"levelo://app?vid=b2959e9d-3296-4d14-a6eb-4abde525bf73","ios":"levelo://app?vid=b2959e9d-3296-4d14-a6eb-4abde525bf73"},"vehicle_type_id":"4","last_reported":1731960678,"current_range_meters":37600,"station_id":"ce4bh192rcd13ifvqdb0","pricing_plan_id":"cebpf4jnsgd1na2vs0mg"},{"bike_id":"14fae1d1-f037-46c7-a08a-8903d61b6598","system_id":"levelo_inurba_marseille","lat":43.28664,"lon":5.36352,"is_reserved":false,"is_disabled":false,"rental_uris":{"android":"levelo://app?vid=14fae1d1-f037-46c7-a08a-8903d61b6598","ios":"levelo://app?vid=14fae1d1-f037-46c7-a08a-8903d61b6598"},"vehicle_type_id":"4","last_reported":1731960678,"current_range_meters":40000,"station_id":"ce4bhah2rcd13ifvqej0","pricing_plan_id":"cebpf4jnsgd1na2vs0mg"},{"bike_id":"58f1d607-38ef-4f9a-a488-47fad88b9c0f","system_id":"levelo_inurba_marseille","lat":43.2718,"lon":5.40998,"is_reserved":false,"is_disabled":false,"rental_uris":{"android":"levelo://app?vid=58f1d607-38ef-4f9a-a488-47fad88b9c0f","ios":"levelo://app?vid=58f1d607-38ef-4f9a-a488-47fad88b9c0f"},"vehicle_type_id":"4","last_reported":1731960678,"current_range_meters":38800,"station_id":"ce4bhl12rcd13ifvqgf0","pricing_plan_id":"cebpf4jnsgd1na2vs0mg"},{"bike_id":"d482b473-8011-43d1-9203-ef428f8af553","system_id":"levelo_inurba_marseille","lat":43.29553,"lon":5.42283,"is_reserved":false,"is_disabled":false,"rental_uris":{"android":"levelo://app?vid=d482b473-8011-43d1-9203-ef428f8af553","ios":"levelo://app?vid=d482b473-8011-43d1-9203-ef428f8af553"},"vehicle_type_id":"4","last_reported":1731960678,"current_range_meters":17200,"station_id":"ce4bhph2rcd13ifvqhdg","pricing_plan_id":"cebpf4jnsgd1na2vs0mg"},{"bike_id":"94a671e7-b26b-4843-8aae-1b1300cf865b","system_id":"levelo_inurba_marseille","lat":43.31365,"lon":5.38495,"is_reserved":false,"is_disabled":false,"rental_uris":{"android":"levelo://app?vid=94a671e7-b26b-4843-8aae-1b1300cf865b","ios":"levelo://app?vid=94a671e7-b26b-4843-8aae-1b1300cf865b"},"vehicle_type_id":"4","last_reported":1731960678,"current_range_meters":35200,"station_id":"ce4bgt92rcd13ifvqcf0","pricing_plan_id":"cebpf4jnsgd1na2vs0mg"},{"bike_id":"cde5eb04-35f5-4971-aec4-8004f9b2dcd9","system_id":"levelo_inurba_marseille","lat":43.28273,"lon":5.35066,"is_reserved":false,"is_disabled":true,"rental_uris":{"android":"levelo://app?vid=cde5eb04-35f5-4971-aec4-8004f9b2dcd9","ios":"levelo://app?vid=cde5eb04-35f5-4971-aec4-8004f9b2dcd9"},"vehicle_type_id":"4","last_reported":1731960678,"current_range_meters":36400,"station_id":"ce4bhbp2rcd13ifvqerg","pricing_plan_id":"cebpf4jnsgd1na2vs0mg"},{"bike_id":"d9aaa99c-543f-4857-a768-c5d47f66986e","system_id":"levelo_inurba_marseille","lat":43.23178,"lon":5.39982,"is_reserved":false,"is_disabled":false,"rental_uris":{"android":"levelo://app?vid=d9aaa99c-543f-4857-a768-c5d47f66986e","ios":"levelo://app?vid=d9aaa99c-543f-4857-a768-c5d47f66986e"},"vehicle_type_id":"4","last_reported":1731960678,"current_range_meters":29600,"station_id":"ce4bhn12rcd13ifvqgqg","pricing_plan_id":"cebpf4jnsgd1na2vs0mg"},{"bike_id":"9149b744-3ab9-4c51-83ea-c9bdd28789c0","system_id":"levelo_inurba_marseille","lat":43.2955,"lon":5.42286,"is_reserved":false,"is_disabled":true,"rental_uris":{"android":"levelo://app?vid=9149b744-3ab9-4c51-83ea-c9bdd28789c0","ios":"levelo://app?vid=9149b744-3ab9-4c51-83ea-c9bdd28789c0"},"vehicle_type_id":"4","last_reported":1731960678,"current_range_meters":0,"station_id":"ce4bhph2rcd13ifvqhdg","pricing_plan_id":"cebpf4jnsgd1na2vs0mg"},{"bike_id":"91395574-8c51-4c8a-84e9-dae0269e6bbb","system_id":"levelo_inurba_marseille","lat":43.31169,"lon":5.38729,"is_reserved":false,"is_disabled":false,"rental_uris":{"android":"levelo://app?vid=91395574-8c51-4c8a-84e9-dae0269e6bbb","ios":"levelo://app?vid=91395574-8c51-4c8a-84e9-dae0269e6bbb"},"vehicle_type_id":"4","last_reported":1731960678,"current_range_meters":11600,"station_id":"ce4bgv12rcd13ifvqcp0","pricing_plan_id":"cebpf4jnsgd1na2vs0mg"},{"bike_id":"19f2c626-3405-4076-b71b-e6c0e7f61aba","system_id":"levelo_inurba_marseille","lat":43.29262,"lon":5.38434,"is_reserved":false,"is_disabled":true,"rental_uris":{"android":"levelo://app?vid=19f2c626-3405-4076-b71b-e6c0e7f61aba","ios":"levelo://app?vid=19f2c626-3405-4076-b71b-e6c0e7f61aba"},"vehicle_type_id":"4","last_reported":1731960678,"current_range_meters":1200,"station_id":"ce4bh692rcd13ifvqea0","pricing_plan_id":"cebpf4jnsgd1na2vs0mg"},{"bike_id":"5facb990-bb40-4c9f-a4aa-1ed9dcedde66","system_id":"levelo_inurba_marseille","lat":43.33022,"lon":5.39037,"is_reserved":false,"is_disabled":false,"rental_uris":{"android":"levelo://app?vid=5facb990-bb40-4c9f-a4aa-1ed9dcedde66","ios":"levelo://app?vid=5facb990-bb40-4c9f-a4aa-1ed9dcedde66"},"vehicle_type_id":"4","last_reported":1731960678,"current_range_meters":25200,"station_id":"ce4bhr92rcd13ifvqhrg","pricing_plan_id":"cebpf4jnsgd1na2vs0mg"},{"bike_id":"1a9b2b7f-bafc-4bc5-bab2-74e5a12548ab","system_id":"levelo_inurba_marseille","lat":43.31367,"lon":5.38256,"is_reserved":false,"is_disabled":false,"rental_uris":{"android":"levelo://app?vid=1a9b2b7f-bafc-4bc5-bab2-74e5a12548ab","ios":"levelo://app?vid=1a9b2b7f-bafc-4bc5-bab2-74e5a12548ab"},"vehicle_type_id":"4","last_reported":1731960678,"current_range_meters":38400,"station_id":"","pricing_plan_id":"cebpf4jnsgd1na2vs0mg"},{"bike_id":"0e2bbe61-8f31-47ba-b582-6a82d0b052e0","system_id":"levelo_inurba_marseille","lat":43.2903,"lon":5.3836,"is_reserved":false,"is_disabled":false,"rental_uris":{"android":"levelo://app?vid=0e2bbe61-8f31-47ba-b582-6a82d0b052e0","ios":"levelo://app?vid=0e2bbe61-8f31-47ba-b582-6a82d0b052e0"},"vehicle_type_id":"4","last_reported":1731960678,"current_range_meters":32800,"station_id":"ce4bgip2rcd13ifvqbb0","pricing_plan_id":"cebpf4jnsgd1na2vs0mg"},{"bike_id":"bff402ee-970d-46d4-8d25-a5216fd3bac3","system_id":"levelo_inurba_marseille","lat":43.25004,"lon":5.38919,"is_reserved":false,"is_disabled":true,"rental_uris":{"android":"levelo://app?vid=bff402ee-970d-46d4-8d25-a5216fd3bac3","ios":"levelo://app?vid=bff402ee-970d-46d4-8d25-a5216fd3bac3"},"vehicle_type_id":"4","last_reported":1731960678,"current_range_meters":8000,"station_id":"ce4bhgp2rcd13ifvqfd0","pricing_plan_id":"cebpf4jnsgd1na2vs0mg"},{"bike_id":"c3bc0f64-f384-48a7-9517-04f95522a7e3","system_id":"levelo_inurba_marseille","lat":43.318242,"lon":5.37611,"is_reserved":false,"is_disabled":false,"rental_uris":{"android":"levelo://app?vid=c3bc0f64-f384-48a7-9517-04f95522a7e3","ios":"levelo://app?vid=c3bc0f64-f384-48a7-9517-04f95522a7e3"},"vehicle_type_id":"4","last_reported":1731960678,"current_range_meters":18800,"station_id":"","pricing_plan_id":"cebpf4jnsgd1na2vs0mg"},{"bike_id":"652c9e13-46c8-4c74-a9a3-d4ce31b5591f","system_id":"levelo_inurba_marseille","lat":43.31888,"lon":5.40731,"is_reserved":false,"is_disabled":false,"rental_uris":{"android":"levelo://app?vid=652c9e13-46c8-4c74-a9a3-d4ce31b5591f","ios":"levelo://app?vid=652c9e13-46c8-4c74-a9a3-d4ce31b5591f"},"vehicle_type_id":"4","last_reported":1731960678,"current_range_meters":38800,"station_id":"ce4bhq12rcd13ifvqhig","pricing_plan_id":"cebpf4jnsgd1na2vs0mg"},{"bike_id":"c3adda95-8823-44a7-ab6f-ce72306eabe1","system_id":"levelo_inurba_marseille","lat":43.27429,"lon":5.39404,"is_reserved":false,"is_disabled":true,"rental_uris":{"android":"levelo://app?vid=c3adda95-8823-44a7-ab6f-ce72306eabe1","ios":"levelo://app?vid=c3adda95-8823-44a7-ab6f-ce72306eabe1"},"vehicle_type_id":"4","last_reported":1731960678,"current_range_meters":39200,"station_id":"ce4bhdp2rcd13ifvqf20","pricing_plan_id":"cebpf4jnsgd1na2vs0mg"},{"bike_id":"0a2e4fb8-7c8d-4eb2-b6fb-af8c2b7f3d40","system_id":"levelo_inurba_marseille","lat":43.30543,"lon":5.36705,"is_reserved":false,"is_disabled":true,"rental_uris":{"android":"levelo://app?vid=0a2e4fb8-7c8d-4eb2-b6fb-af8c2b7f3d40","ios":"levelo://app?vid=0a2e4fb8-7c8d-4eb2-b6fb-af8c2b7f3d40"},"vehicle_type_id":"4","last_reported":1731960678,"current_range_meters":24800,"station_id":"ce4bgrp2rcd13ifvqc9g","pricing_plan_id":"cebpf4jnsgd1na2vs0mg"},{"bike_id":"516f73ff-0cad-406c-bce7-59fcdfc34992","system_id":"levelo_inurba_marseille","lat":43.23185,"lon":5.39991,"is_reserved":false,"is_disabled":false,"rental_uris":{"android":"levelo://app?vid=516f73ff-0cad-406c-bce7-59fcdfc34992","ios":"levelo://app?vid=516f73ff-0cad-406c-bce7-59fcdfc34992"},"vehicle_type_id":"4","last_reported":1731960678,"current_range_meters":10800,"station_id":"ce4bhn12rcd13ifvqgqg","pricing_plan_id":"cebpf4jnsgd1na2vs0mg"},{"bike_id":"f88880d1-ac78-44c9-9b11-66bc479ffec7","system_id":"levelo_inurba_marseille","lat":43.28461,"lon":5.35884,"is_reserved":false,"is_disabled":false,"rental_uris":{"android":"levelo://app?vid=f88880d1-ac78-44c9-9b11-66bc479ffec7","ios":"levelo://app?vid=f88880d1-ac78-44c9-9b11-66bc479ffec7"},"vehicle_type_id":"4","last_reported":1731960678,"current_range_meters":16000,"station_id":"ce4bhah2rcd13ifvqei0","pricing_plan_id":"cebpf4jnsgd1na2vs0mg"},