{"last_updated":1769728563,"ttl":60,"version":"2.2","data":{"bikes":[{"bike_id":"c00d1abe-f6f3-4677-9b5b-65f2d4348ca7","system_id":"levelo_inurba_marseille","lat":43.23194,"lon":5.355562,"is_reserved":false,"is_disabled":false,"rental_uris":{"android":"levelo://app?vid=c00d1abe-f6f3-4677-9b5b-65f2d4348ca7","ios":"levelo://app?vid=c00d1abe-f6f3-4677-9b5b-65f2d4348ca7"},"vehicle_type_id":"4","last_reported":1769728564,"current_range_meters":400,"station_id":"ce4bhu92rcd13ifvqi70","pricing_plan_id":"cebpf4jnsgd1na2vs0mg"},{"bike_id":"9328d8d0-a319-4fb2-9d4a-db2606a87040","system_id":"levelo_inurba_marseille","lat":43.24168,"lon":5.364,"is_reserved":false,"is_disabled":false,"rental_uris":{"android":"levelo://app?vid=9328d8d0-a319-4fb2-9d4a-db2606a87040","ios":"levelo://app?vid=9328d8d0-a319-4fb2-9d4a-db2606a87040"},"vehicle_type_id":"4","last_reported":1769728564,"current_range_meters":1600,"station_id":"cpo36qri1sfpv3e86is0","pricing_plan_id":"cebpf4jnsgd1na2vs0mg"},{"bike_id":"ad760db1-c08e-4218-880f-506e66682432","system_id":"levelo_inurba_marseille","lat":43.29251,"lon":5.37931,"is_reserved":false,"is_disabled":false,"rental_uris":{"android":"levelo://app?vid=ad760db1-c08e-4218-880f-506e66682432","ios":"levelo://app?vid=ad760db1-c08e-4218-880f-506e66682432"},"vehicle_type_id":"4","last_reported":1769728564,"current_range_meters":2800,"station_id":"","pricing_plan_id":"cebpf4jnsgd1na2vs0mg"},{"bike_id":"35a16982-fb6e-4099-868c-4220829d9d40","system_id":"levelo_inurba_marseille","lat":43.28675,"lon":5.3866,"is_reserved":false,"is_disabled":false,"rental_uris":{"android":"levelo://app?vid=35a16982-fb6e-4099-868c-4220829d9d40","ios":"levelo://app?vid=35a16982-fb6e-4099-868c-4220829d9d40"},"vehicle_type_id":"4","last_reported":1769728564,"current_range_meters":2800,"station_id":"ce4bh492rcd13ifvqdug","pricing_plan_id":"cebpf4jnsgd1na2vs0mg"},{"bike_id":"7c50c849-8c46-432e-a3db-a93ff7567019","system_id":"levelo_inurba_marseille","lat":43.25588,"lon":5.38253,"is_reserved":false,"is_disabled":false,"rental_uris":{"android":"levelo://app?vid=7c50c849-8c46-432e-a3db-a93ff7567019","ios":"levelo://app?vid=7c50c849-8c46-432e-a3db-a93ff7567019"},"vehicle_type_id":"4","last_reported":1769728564,"current_range_meters":2800,"station_id":"ce4bhih2rcd13ifvqfs0","pricing_plan_id":"cebpf4jnsgd1na2vs0mg"},{"bike_id":"a937da7a-d97d-47d9-8bc9-3105cc03dd9b","system_id":"levelo_inurba_marseille","lat":43.302344,"lon":5.369019,"is_reserved":false,"is_disabled":false,"rental_uris":{"android":"levelo://app?vid=a937da7a-d97d-47d9-8bc9-3105cc03dd9b","ios":"levelo://app?vid=a937da7a-d97d-47d9-8bc9-3105cc03dd9b"},"vehicle_type_id":"4","last_reported":1769728564,"current_range_meters":2800,"station_id":"ce4bgqh2rcd13ifvqc5g","pricing_plan_id":"cebpf4jnsgd1na2vs0mg"},{"bike_id":"a8f877fa-2708-4871-b0d5-58c7fafe7f8e","system_id":"levelo_inurba_marseille","lat":43.246284,"lon":5.388124,"is_reserved":false,"is_disabled":false,"rental_uris":{"android":"levelo://app?vid=a8f877fa-2708-4871-b0d5-58c7fafe7f8e","ios":"levelo://app?vid=a8f877fa-2708-4871-b0d5-58c7fafe7f8e"},"vehicle_type_id":"4","last_reported":1769728564,"current_range_meters":2800,"station_id":"","pricing_plan_id":"cebpf4jnsgd1na2vs0mg"},{"bike_id":"c92cacd7-9cee-419c-b22e-c9da6f73d302","system_id":"levelo_inurba_marseille","lat":43.27487,"lon":5.42484,"is_reserved":false,"is_disabled":false,"rental_uris":{"android":"levelo://app?vid=c92cacd7-9cee-419c-b22e-c9da6f73d302","ios":"levelo://app?vid=c92cacd7-9cee-419c-b22e-c9da6f73d302"},"vehicle_type_id":"4","last_reported":1769728564,"current_range_meters":2800,"station_id":"ce4bhn92rcd13ifvqgrg","pricing_plan_id":"cebpf4jnsgd1na2vs0mg"},{"bike_id":"038092a1-47ed-4c70-8f90-736a432e37ad","system_id":"levelo_inurba_marseille","lat":43.31167,"lon":5.38717,"is_reserved":false,"is_disabled":false,"rental_uris":{"android":"levelo://app?vid=038092a1-47ed-4c70-8f90-736a432e37ad","ios":"levelo://app?vid=038092a1-47ed-4c70-8f90-736a432e37ad"},"vehicle_type_id":"4","last_reported":1769728564,"current_range_meters":2800,"station_id":"ce4bgv12rcd13ifvqcp0","pricing_plan_id":"cebpf4jnsgd1na2vs0mg"},{"bike_id":"65c21e4e-f2ab-4312-bf3e-555839769f34","system_id":"levelo_inurba_marseille","lat":43.306396,"lon":5.401016,"is_reserved":false,"is_disabled":false,"rental_uris":{"android":"levelo://app?vid=65c21e4e-f2ab-4312-bf3e-555839769f34","ios":"levelo://app?vid=65c21e4e-f2ab-4312-bf3e-555839769f34"},"vehicle_type_id":"4","last_reported":1769728564,"current_range_meters":2800,"station_id":"ce4bh112rcd13ifvqda0","pricing_plan_id":"cebpf4jnsgd1na2vs0mg"},{"bike_id":"ca8aa705-78fb-4dba-a3eb-862afc625597","system_id":"levelo_inurba_marseille","lat":43.288638,"lon":5.42515,"is_reserved":false,"is_disabled":false,"rental_uris":{"android":"levelo://app?vid=ca8aa705-78fb-4dba-a3eb-862afc625597","ios":"levelo://app?vid=ca8aa705-78fb-4dba-a3eb-862afc625597"},"vehicle_type_id":"4","last_reported":1769728564,"current_range_meters":3200,"station_id":"st_d3b462108ojc7389ooeg","pricing_plan_id":"cebpf4jnsgd1na2vs0mg"},{"bike_id":"8e81367b-bd5d-4577-9ebb-cb72e2437aaf","system_id":"levelo_inurba_marseille","lat":43.27663,"lon":5.38911,"is_reserved":false,"is_disabled":false,"rental_uris":{"android":"levelo://app?vid=8e81367b-bd5d-4577-9ebb-cb72e2437aaf","ios":"levelo://app?vid=8e81367b-bd5d-4577-9ebb-cb72e2437aaf"},"vehicle_type_id":"4","last_reported":1769728564,"current_range_meters":3200,"station_id":"ce4bhi12rcd13ifvqfo0","pricing_plan_id":"cebpf4jnsgd1na2vs0mg"},{"bike_id":"278c2f1e-de05-4d68-accf-0b8015addbcb","system_id":"levelo_inurba_marseille","lat":43.28782,"lon":5.38184,"is_reserved":false,"is_disabled":false,"rental_uris":{"android":"levelo://app?vid=278c2f1e-de05-4d68-accf-0b8015addbcb","ios":"levelo://app?vid=278c2f1e-de05-4d68-accf-0b8015addbcb"},"vehicle_type_id":"4","last_reported":1769728564,"current_range_meters":3200,"station_id":"","pricing_plan_id":"cebpf4jnsgd1na2vs0mg"},{"bike_id":"ec92a3d7-0aaf-40cf-9513-2fb7d35cc0c4","system_id":"levelo_inurba_marseille","lat":43.23044,"lon":5.35518,"is_reserved":false,"is_disabled":false,"rental_uris":{"android":"levelo://app?vid=ec92a3d7-0aaf-40cf-9513-2fb7d35cc0c4","ios":"levelo://app?vid=ec92a3d7-0aaf-40cf-9513-2fb7d35cc0c4"},"vehicle_type_id":"4","last_reported":1769728564,"current_range_meters":3200,"station_id":"cpo3342slgdg3j2ifvpg","pricing_plan_id":"cebpf4jnsgd1na2vs0mg"},{"bike_id":"3eec611c-d8cb-4b54-9748-ae62ab9ddb70","system_id":"levelo_inurba_marseille","lat":43.22932,"lon":5.35376,"is_reserved":false,"is_disabled":false,"rental_uris":{"android":"levelo://app?vid=3eec611c-d8cb-4b54-9748-ae62ab9ddb70","ios":"levelo://app?vid=3eec611c-d8cb-4b54-9748-ae62ab9ddb70"},"vehicle_type_id":"4","last_reported":1769728564,"current_range_meters":3200,"station_id":"cpo3532slgdg3j2ikp40","pricing_plan_id":"cebpf4jnsgd1na2vs0mg"},{"bike_id":"c4594e51-feb8-499c-8c8c-5864687750d8","system_id":"levelo_inurba_marseille","lat":43.23186,"lon":5.39995,"is_reserved":false,"is_disabled":false,"rental_uris":{"android":"levelo://app?vid=c4594e51-feb8-499c-8c8c-5864687750d8","ios":"levelo://app?vid=c4594e51-feb8-499c-8c8c-5864687750d8"},"vehicle_type_id":"4","last_reported":1769728564,"current_range_meters":3200,"station_id":"ce4bhn12rcd13ifvqgqg","pricing_plan_id":"cebpf4jnsgd1na2vs0mg"},{"bike_id":"659c89a6-8d79-4721-8be9-94a911f835cc","system_id":"levelo_inurba_marseille","lat":43.31494,"lon":5.37294,"is_reserved":false,"is_disabled":false,"rental_uris":{"android":"levelo://app?vid=659c89a6-8d79-4721-8be9-94a911f835cc","ios":"levelo://app?vid=659c89a6-8d79-4721-8be9-94a911f835cc"},"vehicle_type_id":"4","last_reported":1769728564,"current_range_meters":3200,"station_id":"ce4bgt12rcd13ifvqcd0","pricing_plan_id":"cebpf4jnsgd1na2vs0mg"},{"bike_id":"9b270e6d-5479-4607-8c40-c322957e231b","system_id":"levelo_inurba_marseille","lat":43.26492,"lon":5.39553,"is_reserved":false,"is_disabled":false,"rental_uris":{"android":"levelo://app?vid=9b270e6d-5479-4607-8c40-c322957e231b","ios":"levelo://app?vid=9b270e6d-5479-4607-8c40-c322957e231b"},"vehicle_type_id":"4","last_reported":1769728564,"current_range_meters":3600,"station_id":"ce4bhi12rcd13ifvqfq0","pricing_plan_id":"cebpf4jnsgd1na2vs0mg"},{"bike_id":"94df669a-07c8-4254-9c98-ce9e5ab2f4e6","system_id":"levelo_inurba_marseille","lat":43.27961,"lon":5.38715,"is_reserved":false,"is_disabled":true,"rental_uris":{"android":"levelo://app?vid=94df669a-07c8-4254-9c98-ce9e5ab2f4e6","ios":"levelo://app?vid=94df669a-07c8-4254-9c98-ce9e5ab2f4e6"},"vehicle_type_id":"4","last_reported":1769728564,"current_range_meters":3600,"station_id":"ce4bhg12rcd13ifvqf80","pricing_plan_id":"cebpf4jnsgd1na2vs0mg"},{"bike_id":"96ddcdc4-3d11-47dc-91b3-e1897ae67898","system_id":"levelo_inurba_marseille","lat":43.29555,"lon":5.42299,"is_reserved":false,"is_disabled":false,"rental_uris":{"android":"levelo://app?vid=96ddcdc4-3d11-47dc-91b3-e1897ae67898","ios":"levelo://app?vid=96ddcdc4-3d11-47dc-91b3-e1897ae67898"},"vehicle_type_id":"4","last_reported":1769728564,"current_range_meters":3600,"station_id":"ce4bhph2rcd13ifvqhdg","pricing_plan_id":"cebpf4jnsgd1na2vs0mg"},{"bike_id":"48ded1ef-76d8-41d5-a490-a59c52b17018","system_id":"levelo_inurba_marseille","lat":43.25343,"lon":5.42174,"is_reserved":false,"is_disabled":false,"rental_uris":{"android":"levelo://app?vid=48ded1ef-76d8-41d5-a490-a59c52b17018","ios":"levelo://app?vid=48ded1ef-76d8-41d5-a490-a59c52b17018"},"vehicle_type_id":"4","last_reported":1769728564,"current_range_meters":3600,"station_id":"st_d2m65c5bi1j21697t3ng","pricing_plan_id":"cebpf4jnsgd1na2vs0mg"},{"bike_id":"9dafed5d-7c6f-4e4f-a110-6882568f1510","system_id":"levelo_inurba_marseille","lat":43.28479,"lon":5.48387,"is_reserved":false,"is_disabled":false,"rental_uris":{"android":"levelo://app?vid=9dafed5d-7c6f-4e4f-a110-6882568f1510","ios":"levelo://app?vid=9dafed5d-7c6f-4e4f-a110-6882568f1510"},"vehicle_type_id":"4","last_reported":1769728564,"current_range_meters":3600,"station_id":"st_d3svhcjqgbts73a3dn0g","pricing_plan_id":"cebpf4jnsgd1na2vs0mg"},{"bike_id":"a2d58316-94c7-4b14-9994-58244e4edb4d","system_id":"levelo_inurba_marseille","lat":43.2623,"lon":5.37438,"is_reserved":false,"is_disabled":false,"rental_uris":{"android":"levelo://app?vid=a2d58316-94c7-4b14-9994-58244e4edb4d","ios":"levelo://app?vid=a2d58316-94c7-4b14-9994-58244e4edb4d"},"vehicle_type_id":"4","last_reported":1769728564,"current_range_meters":3600,"station_id":"","pricing_plan_id":"cebpf4jnsgd1na2vs0mg"},{"bike_id":"3d8a9f34-d66f-4291-8996-39d6c80fd4b5","system_id":"levelo_inurba_marseille","lat":43.2962,"lon":5.40604,"is_reserved":false,"is_disabled":false,"rental_uris":{"android":"levelo://app?vid=3d8a9f34-d66f-4291-8996-39d6c80fd4b5","ios":"levelo://app?vid=3d8a9f34-d66f-4291-8996-39d6c80fd4b5"},"vehicle_type_id":"4","last_reported":1769728564,"current_range_meters":3600,"station_id":"ce4bh0h2rcd13ifvqd60","pricing_plan_id":"cebpf4jnsgd1na2vs0mg"},{"bike_id":"8ac472ee-078c-40fd-b2c8-bcad452ee17b","system_id":"levelo_inurba_marseille","lat":43.31487,"lon":5.37313,"is_reserved":false,"is_disabled":false,"rental_uris":{"android":"levelo://app?vid=8ac472ee-078c-40fd-b2c8-bcad452ee17b","ios":"levelo://app?vid=8ac472ee-078c-40fd-b2c8-bcad452ee17b"},"vehicle_type_id":"4","last_reported":1769728564,"current_range_meters":3600,"station_id":"ce4bgt12rcd13ifvqcd0","pricing_plan_id":"cebpf4jnsgd1na2vs0mg"},{"bike_id":"83d96df5-081e-43ee-952b-92a2b06f6540","system_id":"levelo_inurba_marseille","lat":43.24427,"lon":5.37986,"is_reserved":false,"is_disabled":false,"rental_uris":{"android":"levelo://app?vid=83d96df5-081e-43ee-952b-92a2b06f6540","ios":"levelo://app?vid=83d96df5-081e-43ee-952b-92a2b06f6540"},"vehicle_type_id":"4","last_reported":1769728564,"current_range_meters":3600,"station_id":"","pricing_plan_id":"cebpf4jnsgd1na2vs0mg"},{"bike_id":"60ebce89-9b49-41d8-b1d5-1fdb022bac99","system_id":"levelo_inurba_marseille","lat":43.33729,"lon":5.37472,"is_reserved":false,"is_disabled":false,"rental_uris":{"android":"levelo://app?vid=60ebce89-9b49-41d8-b1d5-1fdb022bac99","ios":"levelo://app?vid=60ebce89-9b49-41d8-b1d5-1fdb022bac99"},"vehicle_type_id":"4","last_reported":1769728564,"current_range_meters":4000,"station_id":"","pricing_plan_id":"cebpf4jnsgd1na2vs0mg"},{"bike_id":"2b8cc8f8-926c-4671-973f-0ea564141d8e","system_id":"levelo_inurba_marseille","lat":43.31493,"lon":5.37292,"is_reserved":false,"is_disabled":true,"rental_uris":{"android":"levelo://app?vid=2b8cc8f8-926c-4671-973f-0ea564141d8e","ios":"levelo://app?vid=2b8cc8f8-926c-4671-973f-0ea564141d8e"},"vehicle_type_id":"4","last_reported":1769728564,"current_range_meters":4000,"station_id":"ce4bgt12rcd13ifvqcd0","pricing_plan_id":"cebpf4jnsgd1na2vs0mg"},{"bike_id":"19eb5982-0044-4d75-aaf7-9fb97c862c7e","system_id":"levelo_inurba_marseille","lat":43.26299,"lon":5.41273,"is_reserved":false,"is_disabled":false,"rental_uris":{"android":"levelo://app?vid=19eb5982-0044-4d75-aaf7-9fb97c862c7e","ios":"levelo://app?vid=19eb5982-0044-4d75-aaf7-9fb97c862c7e"},"vehicle_type_id":"4","last_reported":1769728564,"current_range_meters":4000,"station_id":"","pricing_plan_id":"cebpf4jnsgd1na2vs0mg"},{"bike_id":"dcd2095e-5032-4a30-bded-30bd778faeb9","system_id":"levelo_inurba_marseille","lat":43.25089,"lon":5.3952,"is_reserved":false,"is_disabled":false,"rental_uris":{"android":"levelo://app?vid=dcd2095e-5032-4a30-bded-30bd778faeb9","ios":"levelo://app?vid=dcd2095e-5032-4a30-bded-30bd778faeb9"},"vehicle_type_id":"4","last_reported":1769728564,"current_range_meters":4000,"station_id":"ce4bhm12rcd13ifvqgkg","pricing_plan_id":"cebpf4jnsgd1na2vs0mg"},{"bike_id":"2df2670b-f535-4e70-8cab-f36e740466dc","system_id":"levelo_inurba_marseille","lat":43.28895,"lon":5.42541,"is_reserved":false,"is_disabled":false,"rental_uris":{"android":"levelo://app?vid=2df2670b-f535-4e70-8cab-f36e740466dc","ios":"levelo://app?vid=2df2670b-f535-4e70-8cab-f36e740466dc"},"vehicle_type_id":"4","last_reported":1769728564,"current_range_meters":4000,"station_id":"st_d3b462108ojc7389ooeg","pricing_plan_id":"cebpf4jnsgd1na2vs0mg"},{"bike_id":"5c329496-a302-4a24-b572-2d0f0057ae2e","system_id":"levelo_inurba_marseille","lat":43.33149,"lon":5.37741,"is_reserved":false,"is_disabled":false,"rental_uris":{"android":"levelo://app?vid=5c329496-a302-4a24-b572-2d0f0057ae2e","ios":"levelo://app?vid=5c329496-a302-4a24-b572-2d0f0057ae2e"},"vehicle_type_id":"4","last_reported":1769728564,"current_range_meters":4000,"station_id":"","pricing_plan_id":"cebpf4jnsgd1na2vs0mg"},{"bike_id":"3ccee4a4-a5bc-4ac1-9bdc-3455c28961e8","system_id":"levelo_inurba_marseille","lat":43.24813,"lon":5.37454,"is_reserved":false,"is_disabled":false,"rental_uris":{"android":"levelo://app?vid=3ccee4a4-a5bc-4ac1-9bdc-3455c28961e8","ios":"levelo://app?vid=3ccee4a4-a5bc-4ac1-9bdc-3455c28961e8"},"vehicle_type_id":"4","last_reported":1769728564,"current_range_meters":4000,"station_id":"ce4bhgh2rcd13ifvqfb0","pricing_plan_id":"cebpf4jnsgd1na2vs0mg"},{"bike_id":"802f6e05-7249-407a-aac4-32d2041628b8","system_id":"levelo_inurba_marseille","lat":43.23071,"lon":5.35492,"is_reserved":false,"is_disabled":false,"rental_uris":{"android":"levelo://app?vid=802f6e05-7249-407a-aac4-32d2041628b8","ios":"levelo://app?vid=802f6e05-7249-407a-aac4-32d2041628b8"},"vehicle_type_id":"4","last_reported":1769728564,"current_range_meters":4000,"station_id":"cpo3342slgdg3j2ifvpg","pricing_plan_id":"cebpf4jnsgd1na2vs0mg"},{"bike_id":"7d67b8cf-3508-46b5-b284-ecc5ccff724a","system_id":"levelo_inurba_marseille","lat":43.24388,"lon":5.37065,"is_reserved":false,"is_disabled":false,"rental_uris":{"android":"levelo://app?vid=7d67b8cf-3508-46b5-b284-ecc5ccff724a","ios":"levelo://app?vid=7d67b8cf-3508-46b5-b284-ecc5ccff724a"},"vehicle_type_id":"4","last_reported":1769728564,"current_range_meters":4000,"station_id":"ce4bhhh2rcd13ifvqfk0","pricing_plan_id":"cebpf4jnsgd1na2vs0mg"},{"bike_id":"f5252326-86c6-41fa-9654-a4796ef05ac0","system_id":"levelo_inurba_marseille","lat":43.25083,"lon":5.39518,"is_reserved":false,"is_disabled":false,"rental_uris":{"android":"levelo://app?vid=f5252326-86c6-41fa-9654-a4796ef05ac0","ios":"levelo://app?vid=f5252326-86c6-41fa-9654-a4796ef05ac0"},"vehicle_type_id":"4","last_reported":1769728564,"current_range_meters":4000,"station_id":"ce4bhm12rcd13ifvqgkg","pricing_plan_id":"cebpf4jnsgd1na2vs0mg"},{"bike_id":"6a4ce787-3ab6-4ff8-ace6-1da1d70c1828","system_id":"levelo_inurba_marseille","lat":43.24794,"lon":5.37456,"is_reserved":false,"is_disabled":false,"rental_uris":{"android":"levelo://app?vid=6a4ce787-3ab6-4ff8-ace6-1da1d70c1828","ios":"levelo://app?vid=6a4ce787-3ab6-4ff8-ace6-1da1d70c1828"},"vehicle_type_id":"4","last_reported":1769728564,"current_range_meters":4000,"station_id":"ce4bhgh2rcd13ifvqfb0","pricing_plan_id":"cebpf4jnsgd1na2vs0mg"},{"bike_id":"9b8b99ed-24f1-4e95-8ef5-4da027671e47","system_id":"levelo_inurba_marseille","lat":43.29054,"lon":5.399683,"is_reserved":false,"is_disabled":false,"rental_uris":{"android":"levelo://app?vid=9b8b99ed-24f1-4e95-8ef5-4da027671e47","ios":"levelo://app?vid=9b8b99ed-24f1-4e95-8ef5-4da027671e47"},"vehicle_type_id":"4","last_reported":1769728564,"current_range_meters":4400,"station_id":"ce4bh392rcd13ifvqdm0","pricing_plan_id":"cebpf4jnsgd1na2vs0mg"},{"bike_id":"b3069703-2999-4d6b-a6bf-56785356e416","system_id":"levelo_inurba_marseille","lat":43.24466,"lon":5.42539,"is_reserved":false,"is_disabled":false,"rental_uris":{"android":"levelo://app?vid=b3069703-2999-4d6b-a6bf-56785356e416","ios":"levelo://app?vid=b3069703-2999-4d6b-a6bf-56785356e416"},"vehicle_type_id":"4","last_reported":1769728564,"current_range_meters":4400,"station_id":"st_d4a3vfp97mjs738cd8kg","pricing_plan_id":"cebpf4jnsgd1na2vs0mg"},{"bike_id":"a1adbbcc-56be-41a6-a560-f4a5e4282b51","system_id":"levelo_inurba_marseille","lat":43.28411,"lon":5.34992,"is_reserved":false,"is_disabled":false,"rental_uris":{"android":"levelo://app?vid=a1adbbcc-56be-41a6-a560-f4a5e4282b51","ios":"levelo://app?vid=a1adbbcc-56be-41a6-a560-f4a5e4282b51"},"vehicle_type_id":"4","last_reported":1769728564,"current_range_meters":4400,"station_id":"ce4bhbh2rcd13ifvqepg","pricing_plan_id":"cebpf4jnsgd1na2vs0mg"},{"bike_id":"a82daba2-5b07-4bee-8115-02256fcae89d","system_id":"levelo_inurba_marseille","lat":43.30783,"lon":5.37635,"is_reserved":false,"is_disabled":false,"rental_uris":{"android":"levelo://app?vid=a82daba2-5b07-4bee-8115-02256fcae89d","ios":"levelo://app?vid=a82daba2-5b07-4bee-8115-02256fcae89d"},"vehicle_type_id":"4","last_reported":1769728564,"current_range_meters":4400,"station_id":"ce4bgv92rcd13ifvqcq0","pricing_plan_id":"cebpf4jnsgd1na2vs0mg"},{"bike_id":"18a247f3-bd2c-4db3-9633-5a19a43b9262","system_id":"levelo_inurba_marseille","lat":43.297058,"lon":5.366057,"is_reserved":false,"is_disabled":false,"rental_uris":{"android":"levelo://app?vid=18a247f3-bd2c-4db3-9633-5a19a43b9262","ios":"levelo://app?vid=18a247f3-bd2c-4db3-9633-5a19a43b9262"},"vehicle_type_id":"4","last_reported":1769728564,"current_range_meters":4400,"station_id":"ce4bgn12rcd13ifvqbt0","pricing_plan_id":"cebpf4jnsgd1na2vs0mg"},{"bike_id":"b96775b7-8954-4f94-990f-968813344c58","system_id":"levelo_inurba_marseille","lat":43.31273,"lon":5.37794,"is_reserved":false,"is_disabled":false,"rental_uris":{"android":"levelo://app?vid=b96775b7-8954-4f94-990f-968813344c58","ios":"levelo://app?vid=b96775b7-8954-4f94-990f-968813344c58"},"vehicle_type_id":"4","last_reported":1769728564,"current_range_meters":4400,"station_id":"","pricing_plan_id":"cebpf4jnsgd1na2vs0mg"},{"bike_id":"c93bd70a-a989-4047-9c05-9e78d5bda9d3","system_id":"levelo_inurba_marseille","lat":43.31274,"lon":5.40172,"is_reserved":false,"is_disabled":false,"rental_uris":{"android":"levelo://app?vid=c93bd70a-a989-4047-9c05-9e78d5bda9d3","ios":"levelo://app?vid=c93bd70a-a989-4047-9c05-9e78d5bda9d3"},"vehicle_type_id":"4","last_reported":1769728564,"current_range_meters":4400,"station_id":"ce4bh092rcd13ifvqd30","pricing_plan_id":"cebpf4jnsgd1na2vs0mg"},{"bike_id":"ac605ac9-20fd-41ab-b16b-356ba124b9b7","system_id":"levelo_inurba_marseille","lat":43.27212,"lon":5.42772,"is_reserved":false,"is_disabled":false,"rental_uris":{"android":"levelo://app?vid=ac605ac9-20fd-41ab-b16b-356ba124b9b7","ios":"levelo://app?vid=ac605ac9-20fd-41ab-b16b-356ba124b9b7"},"vehicle_type_id":"4","last_reported":1769728564,"current_range_meters":4400,"station_id":"","pricing_plan_id":"cebpf4jnsgd1na2vs0mg"},{"bike_id":"31da9a8c-e76d-4122-b071-042d4c0b937b","system_id":"levelo_inurba_marseille","lat":43.28031,"lon":5.36937,"is_reserved":false,"is_disabled":false,"rental_uris":{"android":"levelo://app?vid=31da9a8c-e76d-4122-b071-042d4c0b937b","ios":"levelo://app?vid=31da9a8c-e76d-4122-b071-042d4c0b937b"},"vehicle_type_id":"4","last_reported":1769728564,"current_range_meters":4400,"station_id":"ce4bha12rcd13ifvqef0","pricing_plan_id":"cebpf4jnsgd1na2vs0mg"},{"bike_id":"cef89498-fbf9-4ad5-afa6-46a5eea10249","system_id":"levelo_inurba_marseille","lat":43.27332,"lon":5.40987,"is_reserved":false,"is_disabled":false,"rental_uris":{"android":"levelo://app?vid=cef89498-fbf9-4ad5-afa6-46a5eea10249","ios":"levelo://app?vid=cef89498-fbf9-4ad5-afa6-46a5eea10249"},"vehicle_type_id":"4","last_reported":1769728564,"current_range_meters":4400,"station_id":"","pricing_plan_id":"cebpf4jnsgd1na2vs0mg"},{"bike_id":"173ab4de-d4ca-4cdb-a11e-273ba50d301a","system_id":"levelo_inurba_marseille","lat":43.2683,"lon":5.42759,"is_reserved":false,"is_disabled":false,"rental_uris":{"android":"levelo://app?vid=173ab4de-d4ca-4cdb-a11e-273ba50d301a","ios":"levelo://app?vid=173ab4de-d4ca-4cdb-a11e-273ba50d301a"},"vehicle_type_id":"4","last_reported":1769728564,"current_range_meters":4800,"station_id":"","pricing_plan_id":"cebpf4jnsgd1na2vs0mg"},{"bike_id":"e44d6c0d-4cdc-487c-87b1-e5cf7cd1bdd8","system_id":"levelo_inurba_marseille","lat":43.27693,"lon":5.38868,"is_reserved":false,"is_disabled":false,"rental_uris":{"android":"levelo://app?vid=e44d6c0d-4cdc-487c-87b1-e5cf7cd1bdd8","ios":"levelo://app?vid=e44d6c0d-4cdc-487c-87b1-e5cf7cd1bdd8"},"vehicle_type_id":"4","last_reported":1769728564,"current_range_meters":4800,"station_id":"ce4bhi12rcd13ifvqfo0","pricing_plan_id":"cebpf4jnsgd1na2vs0mg"},{"bike_id":"a27d8c50-96b7-43a5-b572-9779b9feeede","system_id":"levelo_inurba_marseille","lat":43.23085,"lon":5.35485,"is_reserved":false,"is_disabled":false,"rental_uris":{"android":"levelo://app?vid=a27d8c50-96b7-43a5-b572-9779b9feeede","ios":"levelo://app?vid=a27d8c50-96b7-43a5-b572-9779b9feeede"},"vehicle_type_id":"4","last_reported":1769728564,"current_range_meters":4800,"station_id":"cpo3342slgdg3j2ifvpg","pricing_plan_id":"cebpf4jnsgd1na2vs0mg"},{"bike_id":"fa6d29a1-8150-4a5d-b442-3b75e88a3945","system_id":"levelo_inurba_marseille","lat":43.29703,"lon":5.36588,"is_reserved":false,"is_disabled":false,"rental_uris":{"android":"levelo://app?vid=fa6d29a1-8150-4a5d-b442-3b75e88a3945","ios":"levelo://app?vid=fa6d29a1-8150-4a5d-b442-3b75e88a3945"},"vehicle_type_id":"4","last_reported":1769728564,"current_range_meters":4800,"station_id":"ce4bgn12rcd13ifvqbt0","pricing_plan_id":"cebpf4jnsgd1na2vs0mg"},{"bike_id":"9cf332f9-41e8-44ae-aa15-1d9d379a94a2","system_id":"levelo_inurba_marseille","lat":43.28615,"lon":5.35112,"is_reserved":false,"is_disabled":false,"rental_uris":{"android":"levelo://app?vid=9cf332f9-41e8-44ae-aa15-1d9d379a94a2","ios":"levelo://app?vid=9cf332f9-41e8-44ae-aa15-1d9d379a94a2"},"vehicle_type_id":"4","last_reported":1769728564,"current_range_meters":4800,"station_id":"ce4bhch2rcd13ifvqeug","pricing_plan_id":"cebpf4jnsgd1na2vs0mg"},{"bike_id":"353ef59e-79fd-4e27-87a5-d37a860789e8","system_id":"levelo_inurba_marseille","lat":43.31101,"lon":5.38456,"is_reserved":false,"is_disabled":false,"rental_uris":{"android":"levelo://app?vid=353ef59e-79fd-4e27-87a5-d37a860789e8","ios":"levelo://app?vid=353ef59e-79fd-4e27-87a5-d37a860789e8"},"vehicle_type_id":"4","last_reported":1769728564,"current_range_meters":4800,"station_id":"","pricing_plan_id":"cebpf4jnsgd1na2vs0mg"},{"bike_id":"562bff5b-94fd-4c0b-96ee-f7bff2efbc1f","system_id":"levelo_inurba_marseille","lat":43.30786,"lon":5.38189,"is_reserved":false,"is_disabled":false,"rental_uris":{"android":"levelo://app?vid=562bff5b-94fd-4c0b-96ee-f7bff2efbc1f","ios":"levelo://app?vid=562bff5b-94fd-4c0b-96ee-f7bff2efbc1f"},"vehicle_type_id":"4","last_reported":1769728564,"current_range_meters":4800,"station_id":"ce4bgt12rcd13ifvqce0","pricing_plan_id":"cebpf4jnsgd1na2vs0mg"},{"bike_id":"f6b18e2c-3108-49dd-a9f9-ba1b75d0cddc","system_id":"levelo_inurba_marseille","lat":43.24656,"lon":5.3889,"is_reserved":false,"is_disabled":false,"rental_uris":{"android":"levelo://app?vid=f6b18e2c-3108-49dd-a9f9-ba1b75d0cddc","ios":"levelo://app?vid=f6b18e2c-3108-49dd-a9f9-ba1b75d0cddc"},"vehicle_type_id":"4","last_reported":1769728564,"current_range_meters":4800,"station_id":"ce4bhg12rcd13ifvqf60","pricing_plan_id":"cebpf4jnsgd1na2vs0mg"},{"bike_id":"556eb261-ab92-489f-80a0-25a0d7b5981a","system_id":"levelo_inurba_marseille","lat":43.30786,"lon":5.38182,"is_reserved":false,"is_disabled":false,"rental_uris":{"android":"levelo://app?vid=556eb261-ab92-489f-80a0-25a0d7b5981a","ios":"levelo://app?vid=556eb261-ab92-489f-80a0-25a0d7b5981a"},"vehicle_type_id":"4","last_reported":1769728564,"current_range_meters":4800,"station_id":"ce4bgt12rcd13ifvqce0","pricing_plan_id":"cebpf4jnsgd1na2vs0mg"},{"bike_id":"84afd68b-137d-4ebe-92f1-bf09e9f522df","system_id":"levelo_inurba_marseille","lat":43.25868,"lon":5.39899,"is_reserved":false,"is_disabled":false,"rental_uris":{"android":"levelo://app?vid=84afd68b-137d-4ebe-92f1-bf09e9f522df","ios":"levelo://app?vid=84afd68b-137d-4ebe-92f1-bf09e9f522df"},"vehicle_type_id":"4","last_reported":1769728564,"current_range_meters":4800,"station_id":"ce4bhl92rcd13ifvqghg","pricing_plan_id":"cebpf4jnsgd1na2vs0mg"},{"bike_id":"11084332-6ba5-4043-b2a2-c3df1377d1fa","system_id":"levelo_inurba_marseille","lat":43.27915,"lon":5.39571,"is_reserved":false,"is_disabled":false,"rental_uris":{"android":"levelo://app?vid=11084332-6ba5-4043-b2a2-c3df1377d1fa","ios":"levelo://app?vid=11084332-6ba5-4043-b2a2-c3df1377d1fa"},"vehicle_type_id":"4","last_reported":1769728564,"current_range_meters":4800,"station_id":"ce4bhf92rcd13ifvqf40","pricing_plan_id":"cebpf4jnsgd1na2vs0mg"},{"bike_id":"20a84a36-cda8-4032-a192-bc5d320ef00d","system_id":"levelo_inurba_marseille","lat":43.2847,"lon":5.35891,"is_reserved":false,"is_disabled":false,"rental_uris":{"android":"levelo://app?vid=20a84a36-cda8-4032-a192-bc5d320ef00d","ios":"levelo://app?vid=20a84a36-cda8-4032-a192-bc5d320ef00d"},"vehicle_type_id":"4","last_reported":1769728564,"current_range_meters":4800,"station_id":"ce4bhah2rcd13ifvqei0","pricing_plan_id":"cebpf4jnsgd1na2vs0mg"},{"bike_id":"65eb5cb0-a6f7-4de3-a9be-a5e0a4386045","system_id":"levelo_inurba_marseille","lat":43.33161,"lon":5.37706,"is_reserved":false,"is_disabled":false,"rental_uris":{"android":"levelo://app?vid=65eb5cb0-a6f7-4de3-a9be-a5e0a4386045","ios":"levelo://app?vid=65eb5cb0-a6f7-4de3-a9be-a5e0a4386045"},"vehicle_type_id":"4","last_reported":1769728564,"current_range_meters":5600,"station_id":"st_d46cu089ee8s73dldbu0","pricing_plan_id":"cebpf4jnsgd1na2vs0mg"},{"bike_id":"8252e483-8cd2-4e1f-8159-245c555c915e","system_id":"levelo_inurba_marseille","lat":43.22929,"lon":5.3538,"is_reserved":false,"is_disabled":false,"rental_uris":{"android":"levelo://app?vid=8252e483-8cd2-4e1f-8159-245c555c915e","ios":"levelo://app?vid=8252e483-8cd2-4e1f-8159-245c555c915e"},"vehicle_type_id":"4","last_reported":1769728564,"current_range_meters":5600,"station_id":"cpo3532slgdg3j2ikp40","pricing_plan_id":"cebpf4jnsgd1na2vs0mg"},{"bike_id":"84293091-55ca-4620-9855-4d491eed5dcb","system_id":"levelo_inurba_marseille","lat":43.29925,"lon":5.36806,"is_reserved":false,"is_disabled":false,"rental_uris":{"android":"levelo://app?vid=84293091-55ca-4620-9855-4d491eed5dcb","ios":"levelo://app?vid=84293091-55ca-4620-9855-4d491eed5dcb"},"vehicle_type_id":"4","last_reported":1769728564,"current_range_meters":5600,"station_id":"","pricing_plan_id":"cebpf4jnsgd1na2vs0mg"},{"bike_id":"ded22f29-5dd0-44d1-8ff7-37a64ce4c31f","system_id":"levelo_inurba_marseille","lat":43.31362,"lon":5.38498,"is_reserved":false,"is_disabled":false,"rental_uris":{"android":"levelo://app?vid=ded22f29-5dd0-44d1-8ff7-37a64ce4c31f","ios":"levelo://app?vid=ded22f29-5dd0-44d1-8ff7-37a64ce4c31f"},"vehicle_type_id":"4","last_reported":1769728564,"current_range_meters":5600,"station_id":"ce4bgt92rcd13ifvqcf0","pricing_plan_id":"cebpf4jnsgd1na2vs0mg"},{"bike_id":"3d405854-a3e9-4cc4-bcac-5ce2eff49e57","system_id":"levelo_inurba_marseille","lat":43.23194,"lon":5.39984,"is_reserved":false,"is_disabled":false,"rental_uris":{"android":"levelo://app?vid=3d405854-a3e9-4cc4-bcac-5ce2eff49e57","ios":"levelo://app?vid=3d405854-a3e9-4cc4-bcac-5ce2eff49e57"},"vehicle_type_id":"4","last_reported":1769728564,"current_range_meters":5600,"station_id":"ce4bhn12rcd13ifvqgqg","pricing_plan_id":"cebpf4jnsgd1na2vs0mg"},{"bike_id":"fed1302d-e6b3-4fff-83f6-59b9da166670","system_id":"levelo_inurba_marseille","lat":43.26678,"lon":5.38263,"is_reserved":false,"is_disabled":false,"rental_uris":{"android":"levelo://app?vid=fed1302d-e6b3-4fff-83f6-59b9da166670","ios":"levelo://app?vid=fed1302d-e6b3-4fff-83f6-59b9da166670"},"vehicle_type_id":"4","last_reported":1769728564,"current_range_meters":5600,"station_id":"ce4bhg92rcd13ifvqf90","pricing_plan_id":"cebpf4jnsgd1na2vs0mg"},{"bike_id":"f2e56fcd-53d1-4906-836f-9a276c836675","system_id":"levelo_inurba_marseille","lat":43.26057,"lon":5.394,"is_reserved":false,"is_disabled":false,"rental_uris":{"android":"levelo://app?vid=f2e56fcd-53d1-4906-836f-9a276c836675","ios":"levelo://app?vid=f2e56fcd-53d1-4906-836f-9a276c836675"},"vehicle_type_id":"4","last_reported":1769728564,"current_range_meters":5600,"station_id":"ce4bhh92rcd13ifvqfj0","pricing_plan_id":"cebpf4jnsgd1na2vs0mg"},{"bike_id":"f7013bc3-1392-449d-8312-c31b9fd9f374","system_id":"levelo_inurba_marseille","lat":43.27057,"lon":5.38308,"is_reserved":false,"is_disabled":false,"rental_uris":{"android":"levelo://app?vid=f7013bc3-1392-449d-8312-c31b9fd9f374","ios":"levelo://app?vid=f7013bc3-1392-449d-8312-c31b9fd9f374"},"vehicle_type_id":"4","last_reported":1769728564,"current_range_meters":5600,"station_id":"st_d3n2fo6cfp8s73cte1j0","pricing_plan_id":"cebpf4jnsgd1na2vs0mg"},{"bike_id":"e236f0a6-2e87-48ed-94ce-e49f696f4842","system_id":"levelo_inurba_marseille","lat":43.26568,"lon":5.37503,"is_reserved":false,"is_disabled":false,"rental_uris":{"android":"levelo://app?vid=e236f0a6-2e87-48ed-94ce-e49f696f4842","ios":"levelo://app?vid=e236f0a6-2e87-48ed-94ce-e49f696f4842"},"vehicle_type_id":"4","last_reported":1769728564,"current_range_meters":5600,"station_id":"","pricing_plan_id":"cebpf4jnsgd1na2vs0mg"},{"bike_id":"3d61244e-0dde-42a1-8efa-05e556593c38","system_id":"levelo_inurba_marseille","lat":43.22554,"lon":5.41638,"is_reserved":false,"is_disabled":false,"rental_uris":{"android":"levelo://app?vid=3d61244e-0dde-42a1-8efa-05e556593c38","ios":"levelo://app?vid=3d61244e-0dde-42a1-8efa-05e556593c38"},"vehicle_type_id":"4","last_reported":1769728564,"current_range_meters":5600,"station_id":"st_d2o4gvlbi1j2169b742g","pricing_plan_id":"cebpf4jnsgd1na2vs0mg"},{"bike_id":"d05f915c-32c1-43f7-af1b-40d8ac0742df","system_id":"levelo_inurba_marseille","lat":43.26599,"lon":5.39042,"is_reserved":false,"is_disabled":false,"rental_uris":{"android":"levelo://app?vid=d05f915c-32c1-43f7-af1b-40d8ac0742df","ios":"levelo://app?vid=d05f915c-32c1-43f7-af1b-40d8ac0742df"},"vehicle_type_id":"4","last_reported":1769728564,"current_range_meters":5600,"station_id":"","pricing_plan_id":"cebpf4jnsgd1na2vs0mg"},{"bike_id":"8c50cc1b-6957-4db2-9b96-76d9d37bac03","system_id":"levelo_inurba_marseille","lat":43.225691,"lon":5.41619,"is_reserved":false,"is_disabled":false,"rental_uris":{"android":"levelo://app?vid=8c50cc1b-6957-4db2-9b96-76d9d37bac03","ios":"levelo://app?vid=8c50cc1b-6957-4db2-9b96-76d9d37bac03"},"vehicle_type_id":"4","last_reported":1769728564,"current_range_meters":5600,"station_id":"st_d2o4gvlbi1j2169b742g","pricing_plan_id":"cebpf4jnsgd1na2vs0mg"},{"bike_id":"d20f23b7-dbe0-465e-aae1-4805cccc851e","system_id":"levelo_inurba_marseille","lat":43.30153,"lon":5.38091,"is_reserved":false,"is_disabled":false,"rental_uris":{"android":"levelo://app?vid=d20f23b7-dbe0-465e-aae1-4805cccc851e","ios":"levelo://app?vid=d20f23b7-dbe0-465e-aae1-4805cccc851e"},"vehicle_type_id":"4","last_reported":1769728564,"current_range_meters":5600,"station_id":"ce4bgjp2rcd13ifvqbh0","pricing_plan_id":"cebpf4jnsgd1na2vs0mg"},{"bike_id":"31c14499-86de-46e6-a67f-a12efc2510dc","system_id":"levelo_inurba_marseille","lat":43.23156,"lon":5.43719,"is_reserved":false,"is_disabled":false,"rental_uris":{"android":"levelo://app?vid=31c14499-86de-46e6-a67f-a12efc2510dc","ios":"levelo://app?vid=31c14499-86de-46e6-a67f-a12efc2510dc"},"vehicle_type_id":"4","last_reported":1769728564,"current_range_meters":5600,"station_id":"ce4bhmp2rcd13ifvqgog","pricing_plan_id":"cebpf4jnsgd1na2vs0mg"},{"bike_id":"706fe81a-bdb2-42d8-b800-5c8160b7054c","system_id":"levelo_inurba_marseille","lat":43.25345,"lon":5.42167,"is_reserved":false,"is_disabled":false,"rental_uris":{"android":"levelo://app?vid=706fe81a-bdb2-42d8-b800-5c8160b7054c","ios":"levelo://app?vid=706fe81a-bdb2-42d8-b800-5c8160b7054c"},"vehicle_type_id":"4","last_reported":1769728564,"current_range_meters":5600,"station_id":"st_d2m65c5bi1j21697t3ng","pricing_plan_id":"cebpf4jnsgd1na2vs0mg"},{"bike_id":"626f2e49-da66-4aca-b419-36ccc5e515c3","system_id":"levelo_inurba_marseille","lat":43.24634,"lon":5.43151,"is_reserved":false,"is_disabled":false,"rental_uris":{"android":"levelo://app?vid=626f2e49-da66-4aca-b419-36ccc5e515c3","ios":"levelo://app?vid=626f2e49-da66-4aca-b419-36ccc5e515c3"},"vehicle_type_id":"4","last_reported":1769728564,"current_range_meters":5600,"station_id":"st_d2m6c4gdas8pm72e190g","pricing_plan_id":"cebpf4jnsgd1na2vs0mg"},{"bike_id":"cb99475d-5524-4322-8229-b95fd57c4dcd","system_id":"levelo_inurba_marseille","lat":43.25007,"lon":5.38937,"is_reserved":false,"is_disabled":false,"rental_uris":{"android":"levelo://app?vid=cb99475d-5524-4322-8229-b95fd57c4dcd","ios":"levelo://app?vid=cb99475d-5524-4322-8229-b95fd57c4dcd"},"vehicle_type_id":"4","last_reported":1769728564,"current_range_meters":5600,"station_id":"ce4bhgp2rcd13ifvqfd0","pricing_plan_id":"cebpf4jnsgd1na2vs0mg"},{"bike_id":"c0f7a03c-8726-4f7e-9366-f28d8e2588b3","system_id":"levelo_inurba_marseille","lat":43.30575,"lon":5.36539,"is_reserved":false,"is_disabled":false,"rental_uris":{"android":"levelo://app?vid=c0f7a03c-8726-4f7e-9366-f28d8e2588b3","ios":"levelo://app?vid=c0f7a03c-8726-4f7e-9366-f28d8e2588b3"},"vehicle_type_id":"4","last_reported":1769728564,"current_range_meters":6000,"station_id":"ce4bgs12rcd13ifvqcag","pricing_plan_id":"cebpf4jnsgd1na2vs0mg"},{"bike_id":"932bb106-3c96-4dbf-947d-0b48571ad9e2","system_id":"levelo_inurba_marseille","lat":43.27372,"lon":5.36259,"is_reserved":false,"is_disabled":false,"rental_uris":{"android":"levelo://app?vid=932bb106-3c96-4dbf-947d-0b48571ad9e2","ios":"levelo://app?vid=932bb106-3c96-4dbf-947d-0b48571ad9e2"},"vehicle_type_id":"4","last_reported":1769728564,"current_range_meters":6000,"station_id":"ce4bhbh2rcd13ifvqeo0","pricing_plan_id":"cebpf4jnsgd1na2vs0mg"},{"bike_id":"9352a26f-52ae-4722-9964-1e4d58412b67","system_id":"levelo_inurba_marseille","lat":43.25566,"lon":5.38254,"is_reserved":false,"is_disabled":false,"rental_uris":{"android":"levelo://app?vid=9352a26f-52ae-4722-9964-1e4d58412b67","ios":"levelo://app?vid=9352a26f-52ae-4722-9964-1e4d58412b67"},"vehicle_type_id":"4","last_reported":1769728564,"current_range_meters":6000,"station_id":"ce4bhih2rcd13ifvqfs0","pricing_plan_id":"cebpf4jnsgd1na2vs0mg"},{"bike_id":"1734350a-7db7-478e-8058-74793f2aa5c0","system_id":"levelo_inurba_marseille","lat":43.32392,"lon":5.38462,"is_reserved":false,"is_disabled":false,"rental_uris":{"android":"levelo://app?vid=1734350a-7db7-478e-8058-74793f2aa5c0","ios":"levelo://app?vid=1734350a-7db7-478e-8058-74793f2aa5c0"},"vehicle_type_id":"4","last_reported":1769728564,"current_range_meters":6000,"station_id":"st_d45171o9ee8s73djdqug","pricing_plan_id":"cebpf4jnsgd1na2vs0mg"},{"bike_id":"cd01b72e-4900-40e6-83b8-affac6e4e1ab","system_id":"levelo_inurba_marseille","lat":43.28677,"lon":5.38671,"is_reserved":false,"is_disabled":false,"rental_uris":{"android":"levelo://app?vid=cd01b72e-4900-40e6-83b8-affac6e4e1ab","ios":"levelo://app?vid=cd01b72e-4900-40e6-83b8-affac6e4e1ab"},"vehicle_type_id":"4","last_reported":1769728564,"current_range_meters":6000,"station_id":"ce4bh492rcd13ifvqdug","pricing_plan_id":"cebpf4jnsgd1na2vs0mg"},{"bike_id":"59d7c568-6724-480d-b1e6-ba1e4cc63559","system_id":"levelo_inurba_marseille","lat":43.29276,"lon":5.37161,"is_reserved":false,"is_disabled":false,"rental_uris":{"android":"levelo://app?vid=59d7c568-6724-480d-b1e6-ba1e4cc63559","ios":"levelo://app?vid=59d7c568-6724-480d-b1e6-ba1e4cc63559"},"vehicle_type_id":"4","last_reported":1769728564,"current_range_meters":6000,"station_id":"ce4bgh92rcd13ifvqb40","pricing_plan_id":"cebpf4jnsgd1na2vs0mg"},{"bike_id":"9971fa6d-8ec3-42b9-abc6-c00f9003188e","system_id":"levelo_inurba_marseille","lat":43.30333,"lon":5.40431,"is_reserved":false,"is_disabled":false,"rental_uris":{"android":"levelo://app?vid=9971fa6d-8ec3-42b9-abc6-c00f9003188e","ios":"levelo://app?vid=9971fa6d-8ec3-42b9-abc6-c00f9003188e"},"vehicle_type_id":"4","last_reported":1769728564,"current_range_meters":6000,"station_id":"ce4bh012rcd13ifvqd10","pricing_plan_id":"cebpf4jnsgd1na2vs0mg"},{"bike_id":"5a5070bd-16de-4246-b119-9edc6b7db571","system_id":"levelo_inurba_marseille","lat":43.31165,"lon":5.38722,"is_reserved":false,"is_disabled":false,"rental_uris":{"android":"levelo://app?vid=5a5070bd-16de-4246-b119-9edc6b7db571","ios":"levelo://app?vid=5a5070bd-16de-4246-b119-9edc6b7db571"},"vehicle_type_id":"4","last_reported":1769728564,"current_range_meters":6000,"station_id":"ce4bgv12rcd13ifvqcp0","pricing_plan_id":"cebpf4jnsgd1na2vs0mg"},{"bike_id":"51e33b43-0b63-43c6-8dbf-365699605da8","system_id":"levelo_inurba_marseille","lat":43.26982,"lon":5.39842,"is_reserved":false,"is_disabled":false,"rental_uris":{"android":"levelo://app?vid=51e33b43-0b63-43c6-8dbf-365699605da8","ios":"levelo://app?vid=51e33b43-0b63-43c6-8dbf-365699605da8"},"vehicle_type_id":"4","last_reported":1769728564,"current_range_meters":6000,"station_id":"","pricing_plan_id":"cebpf4jnsgd1na2vs0mg"},{"bike_id":"3cb7804a-857c-4d32-a947-9e276c77c288","system_id":"levelo_inurba_marseille","lat":43.25484,"lon":5.37648,"is_reserved":false,"is_disabled":false,"rental_uris":{"android":"levelo://app?vid=3cb7804a-857c-4d32-a947-9e276c77c288","ios":"levelo://app?vid=3cb7804a-857c-4d32-a947-9e276c77c288"},"vehicle_type_id":"4","last_reported":1769728564,"current_range_meters":6000,"station_id":"ce4bhh12rcd13ifvqff0","pricing_plan_id":"cebpf4jnsgd1na2vs0mg"},{"bike_id":"517ff927-4e4c-45a3-9e2b-c23d77bb71ea","system_id":"levelo_inurba_marseille","lat":43.30441,"lon":5.38888,"is_reserved":false,"is_disabled":false,"rental_uris":{"android":"levelo://app?vid=517ff927-4e4c-45a3-9e2b-c23d77bb71ea","ios":"levelo://app?vid=517ff927-4e4c-45a3-9e2b-c23d77bb71ea"},"vehicle_type_id":"4","last_reported":1769728564,"current_range_meters":6000,"station_id":"ce4bgk12rcd13ifvqbi0","pricing_plan_id":"cebpf4jnsgd1na2vs0mg"},{"bike_id":"dc9ee814-7f33-4fbb-a1ce-2d30e8c57914","system_id":"levelo_inurba_marseille","lat":43.22544,"lon":5.41628,"is_reserved":false,"is_disabled":false,"rental_uris":{"android":"levelo://app?vid=dc9ee814-7f33-4fbb-a1ce-2d30e8c57914","ios":"levelo://app?vid=dc9ee814-7f33-4fbb-a1ce-2d30e8c57914"},"vehicle_type_id":"4","last_reported":1769728564,"current_range_meters":6000,"station_id":"st_d2o4gvlbi1j2169b742g","pricing_plan_id":"cebpf4jnsgd1na2vs0mg"},{"bike_id":"61050c33-cd05-49a3-8816-4402f222e818","system_id":"levelo_inurba_marseille","lat":43.25489,"lon":5.3765,"is_reserved":false,"is_disabled":false,"rental_uris":{"android":"levelo://app?vid=61050c33-cd05-49a3-8816-4402f222e818","ios":"levelo://app?vid=61050c33-cd05-49a3-8816-4402f222e818"},"vehicle_type_id":"4","last_reported":1769728564,"current_range_meters":6400,"station_id":"ce4bhh12rcd13ifvqff0","pricing_plan_id":"cebpf4jnsgd1na2vs0mg"},{"bike_id":"84c9922a-8ad7-4bd5-ab91-35f57f7c02fb","system_id":"levelo_inurba_marseille","lat":43.26205,"lon":5.37439,"is_reserved":false,"is_disabled":false,"rental_uris":{"android":"levelo://app?vid=84c9922a-8ad7-4bd5-ab91-35f57f7c02fb","ios":"levelo://app?vid=84c9922a-8ad7-4bd5-ab91-35f57f7c02fb"},"vehicle_type_id":"4","last_reported":1769728564,"current_range_meters":6400,"station_id":"ce4bhgp2rcd13ifvqfc0","pricing_plan_id":"cebpf4jnsgd1na2vs0mg"},{"bike_id":"ec911151-785b-471f-816f-85abb26c2bab","system_id":"levelo_inurba_marseille","lat":43.3236,"lon":5.36734,"is_reserved":false,"is_disabled":false,"rental_uris":{"android":"levelo://app?vid=ec911151-785b-471f-816f-85abb26c2bab","ios":"levelo://app?vid=ec911151-785b-471f-816f-85abb26c2bab"},"vehicle_type_id":"4","last_reported":1769728564,"current_range_meters":6400,"station_id":"ce4bhsh2rcd13ifvqi2g","pricing_plan_id":"cebpf4jnsgd1na2vs0mg"},{"bike_id":"947b3f41-400e-4a7b-9150-c4b106fc2b3b","system_id":"levelo_inurba_marseille","lat":43.25581,"lon":5.38224,"is_reserved":false,"is_disabled":false,"rental_uris":{"android":"levelo://app?vid=947b3f41-400e-4a7b-9150-c4b106fc2b3b","ios":"levelo://app?vid=947b3f41-400e-4a7b-9150-c4b106fc2b3b"},"vehicle_type_id":"4","last_reported":1769728564,"current_range_meters":6400,"station_id":"ce4bhih2rcd13ifvqfs0","pricing_plan_id":"cebpf4jnsgd1na2vs0mg"},{"bike_id":"d293ee60-603e-4927-87b9-8e9083743ce8","system_id":"levelo_inurba_marseille","lat":43.324851,"lon":5.365521,"is_reserved":false,"is_disabled":false,"rental_uris":{"android":"levelo://app?vid=d293ee60-603e-4927-87b9-8e9083743ce8","ios":"levelo://app?vid=d293ee60-603e-4927-87b9-8e9083743ce8"},"vehicle_type_id":"4","last_reported":1769728564,"current_range_meters":6400,"station_id":"ce4bhs12rcd13ifvqhvg","pricing_plan_id":"cebpf4jnsgd1na2vs0mg"},{"bike_id":"b3afb300-3fdf-4c16-a3be-4013bcd643ba","system_id":"levelo_inurba_marseille","lat":43.24555,"lon":5.39494,"is_reserved":false,"is_disabled":false,"rental_uris":{"android":"levelo://app?vid=b3afb300-3fdf-4c16-a3be-4013bcd643ba","ios":"levelo://app?vid=b3afb300-3fdf-4c16-a3be-4013bcd643ba"},"vehicle_type_id":"4","last_reported":1769728564,"current_range_meters":6400,"station_id":"ce4bhlp2rcd13ifvqgjg","pricing_plan_id":"cebpf4jnsgd1na2vs0mg"},{"bike_id":"6d463587-3df4-4665-b124-967bacab8bbe","system_id":"levelo_inurba_marseille","lat":43.28611,"lon":5.35101,"is_reserved":false,"is_disabled":false,"rental_uris":{"android":"levelo://app?vid=6d463587-3df4-4665-b124-967bacab8bbe","ios":"levelo://app?vid=6d463587-3df4-4665-b124-967bacab8bbe"},"vehicle_type_id":"4","last_reported":1769728564,"current_range_meters":6400,"station_id":"ce4bhch2rcd13ifvqeug","pricing_plan_id":"cebpf4jnsgd1na2vs0mg"},{"bike_id":"9aa2dd1d-01c2-4ec2-90e8-325aed1a45f8","system_id":"levelo_inurba_marseille","lat":43.31958,"lon":5.38154,"is_reserved":false,"is_disabled":false,"rental_uris":{"android":"levelo://app?vid=9aa2dd1d-01c2-4ec2-90e8-325aed1a45f8","ios":"levelo://app?vid=9aa2dd1d-01c2-4ec2-90e8-325aed1a45f8"},"vehicle_type_id":"4","last_reported":1769728564,"current_range_meters":6400,"station_id":"ce4bhr12rcd13ifvqhpg","pricing_plan_id":"cebpf4jnsgd1na2vs0mg"},{"bike_id":"685fec42-8973-4b39-b9d6-6eb94a0e0c7a","system_id":"levelo_inurba_marseille","lat":43.25578,"lon":5.38247,"is_reserved":false,"is_disabled":false,"rental_uris":{"android":"levelo://app?vid=685fec42-8973-4b39-b9d6-6eb94a0e0c7a","ios":"levelo://app?vid=685fec42-8973-4b39-b9d6-6eb94a0e0c7a"},"vehicle_type_id":"4","last_reported":1769728564,"current_range_meters":6400,"station_id":"ce4bhih2rcd13ifvqfs0","pricing_plan_id":"cebpf4jnsgd1na2vs0mg"},{"bike_id":"130d2376-63fe-4851-b233-142c792d75f2","system_id":"levelo_inurba_marseille","lat":43.24549,"lon":5.3953,"is_reserved":false,"is_disabled":false,"rental_uris":{"android":"levelo://app?vid=130d2376-63fe-4851-b233-142c792d75f2","ios":"levelo://app?vid=130d2376-63fe-4851-b233-142c792d75f2"},"vehicle_type_id":"4","last_reported":1769728564,"current_range_meters":6400,"station_id":"ce4bhlp2rcd13ifvqgjg","pricing_plan_id":"cebpf4jnsgd1na2vs0mg"},{"bike_id":"abe7cc03-c298-497f-8503-33c7408838b9","system_id":"levelo_inurba_marseille","lat":43.27928,"lon":5.41059,"is_reserved":false,"is_disabled":false,"rental_uris":{"android":"levelo://app?vid=abe7cc03-c298-497f-8503-33c7408838b9","ios":"levelo://app?vid=abe7cc03-c298-497f-8503-33c7408838b9"},"vehicle_type_id":"4","last_reported":1769728564,"current_range_meters":6400,"station_id":"ce4bhnp2rcd13ifvqh0g","pricing_plan_id":"cebpf4jnsgd1na2vs0mg"},{"bike_id":"28bcb9d8-af7e-4e97-808c-cc7b21fe1431","system_id":"levelo_inurba_marseille","lat":43.22572,"lon":5.41621,"is_reserved":false,"is_disabled":false,"rental_uris":{"android":"levelo://app?vid=28bcb9d8-af7e-4e97-808c-cc7b21fe1431","ios":"levelo://app?vid=28bcb9d8-af7e-4e97-808c-cc7b21fe1431"},"vehicle_type_id":"4","last_reported":1769728564,"current_range_meters":6400,"station_id":"st_d2o4gvlbi1j2169b742g","pricing_plan_id":"cebpf4jnsgd1na2vs0mg"},{"bike_id":"2d655a97-bd06-49e9-b2b4-efa072ca5fda","system_id":"levelo_inurba_marseille","lat":43.32112,"lon":5.36759,"is_reserved":false,"is_disabled":false,"rental_uris":{"android":"levelo://app?vid=2d655a97-bd06-49e9-b2b4-efa072ca5fda","ios":"levelo://app?vid=2d655a97-bd06-49e9-b2b4-efa072ca5fda"},"vehicle_type_id":"4","last_reported":1769728564,"current_range_meters":6400,"station_id":"ce4bhrh2rcd13ifvqhug","pricing_plan_id":"cebpf4jnsgd1na2vs0mg"},{"bike_id":"ae2bd00b-86f2-42b9-8e4e-3fa74e019d82","system_id":"levelo_inurba_marseille","lat":43.23188,"lon":5.3999,"is_reserved":false,"is_disabled":false,"rental_uris":{"android":"levelo://app?vid=ae2bd00b-86f2-42b9-8e4e-3fa74e019d82","ios":"levelo://app?vid=ae2bd00b-86f2-42b9-8e4e-3fa74e019d82"},"vehicle_type_id":"4","last_reported":1769728564,"current_range_meters":6400,"station_id":"ce4bhn12rcd13ifvqgqg","pricing_plan_id":"cebpf4jnsgd1na2vs0mg"},{"bike_id":"4ad3a127-253b-4106-9655-ceeb51cd9831","system_id":"levelo_inurba_marseille","lat":43.23795,"lon":5.36627,"is_reserved":false,"is_disabled":false,"rental_uris":{"android":"levelo://app?vid=4ad3a127-253b-4106-9655-ceeb51cd9831","ios":"levelo://app?vid=4ad3a127-253b-4106-9655-ceeb51cd9831"},"vehicle_type_id":"4","last_reported":1769728564,"current_range_meters":6400,"station_id":"st_d3nk18o9ro0c73en2l3g","pricing_plan_id":"cebpf4jnsgd1na2vs0mg"},{"bike_id":"d6cf163d-52c4-426a-aaf1-5e501ca5e9ab","system_id":"levelo_inurba_marseille","lat":43.25336,"lon":5.42141,"is_reserved":false,"is_disabled":false,"rental_uris":{"android":"levelo://app?vid=d6cf163d-52c4-426a-aaf1-5e501ca5e9ab","ios":"levelo://app?vid=d6cf163d-52c4-426a-aaf1-5e501ca5e9ab"},"vehicle_type_id":"4","last_reported":1769728564,"current_range_meters":6400,"station_id":"st_d2m65c5bi1j21697t3ng","pricing_plan_id":"cebpf4jnsgd1na2vs0mg"},{"bike_id":"a2920a45-72fb-4a3b-8912-148f25a2a013","system_id":"levelo_inurba_marseille","lat":43.31173,"lon":5.38713,"is_reserved":false,"is_disabled":false,"rental_uris":{"android":"levelo://app?vid=a2920a45-72fb-4a3b-8912-148f25a2a013","ios":"levelo://app?vid=a2920a45-72fb-4a3b-8912-148f25a2a013"},"vehicle_type_id":"4","last_reported":1769728564,"current_range_meters":6400,"station_id":"ce4bgv12rcd13ifvqcp0","pricing_plan_id":"cebpf4jnsgd1na2vs0mg"},{"bike_id":"2dbd219e-d121-42ae-9a81-54d58e6bfb20","system_id":"levelo_inurba_marseille","lat":43.24813,"lon":5.37448,"is_reserved":false,"is_disabled":false,"rental_uris":{"android":"levelo://app?vid=2dbd219e-d121-42ae-9a81-54d58e6bfb20","ios":"levelo://app?vid=2dbd219e-d121-42ae-9a81-54d58e6bfb20"},"vehicle_type_id":"4","last_reported":1769728564,"current_range_meters":6400,"station_id":"ce4bhgh2rcd13ifvqfb0","pricing_plan_id":"cebpf4jnsgd1na2vs0mg"},{"bike_id":"b41b4f1e-5e82-474d-88e0-8a753992949d","system_id":"levelo_inurba_marseille","lat":43.25932,"lon":5.40911,"is_reserved":false,"is_disabled":false,"rental_uris":{"android":"levelo://app?vid=b41b4f1e-5e82-474d-88e0-8a753992949d","ios":"levelo://app?vid=b41b4f1e-5e82-474d-88e0-8a753992949d"},"vehicle_type_id":"4","last_reported":1769728564,"current_range_meters":6400,"station_id":"ce4bhm92rcd13ifvqglg","pricing_plan_id":"cebpf4jnsgd1na2vs0mg"},{"bike_id":"39753960-3c7e-4e4a-acb2-25c74c17dd07","system_id":"levelo_inurba_marseille","lat":43.22931,"lon":5.35376,"is_reserved":false,"is_disabled":false,"rental_uris":{"android":"levelo://app?vid=39753960-3c7e-4e4a-acb2-25c74c17dd07","ios":"levelo://app?vid=39753960-3c7e-4e4a-acb2-25c74c17dd07"},"vehicle_type_id":"4","last_reported":1769728564,"current_range_meters":6400,"station_id":"cpo3532slgdg3j2ikp40","pricing_plan_id":"cebpf4jnsgd1na2vs0mg"},{"bike_id":"4bd6cb39-f26e-431f-9c48-bc9838a79167","system_id":"levelo_inurba_marseille","lat":43.29812,"lon":5.44065,"is_reserved":false,"is_disabled":false,"rental_uris":{"android":"levelo://app?vid=4bd6cb39-f26e-431f-9c48-bc9838a79167","ios":"levelo://app?vid=4bd6cb39-f26e-431f-9c48-bc9838a79167"},"vehicle_type_id":"4","last_reported":1769728564,"current_range_meters":6400,"station_id":"st_d3jp68qikq2c7381ktn0","pricing_plan_id":"cebpf4jnsgd1na2vs0mg"},{"bike_id":"8124257b-86e4-4773-9928-40b9e517b1e7","system_id":"levelo_inurba_marseille","lat":43.24464,"lon":5.42541,"is_reserved":false,"is_disabled":false,"rental_uris":{"android":"levelo://app?vid=8124257b-86e4-4773-9928-40b9e517b1e7","ios":"levelo://app?vid=8124257b-86e4-4773-9928-40b9e517b1e7"},"vehicle_type_id":"4","last_reported":1769728564,"current_range_meters":6800,"station_id":"st_d4a3vfp97mjs738cd8kg","pricing_plan_id":"cebpf4jnsgd1na2vs0mg"},{"bike_id":"f27f3e87-a38b-48fe-999c-b85eb375c397","system_id":"levelo_inurba_marseille","lat":43.241647,"lon":5.363939,"is_reserved":false,"is_disabled":false,"rental_uris":{"android":"levelo://app?vid=f27f3e87-a38b-48fe-999c-b85eb375c397","ios":"levelo://app?vid=f27f3e87-a38b-48fe-999c-b85eb375c397"},"vehicle_type_id":"4","last_reported":1769728564,"current_range_meters":6800,"station_id":"cpo36qri1sfpv3e86is0","pricing_plan_id":"cebpf4jnsgd1na2vs0mg"},{"bike_id":"aa753bb7-bd6b-47c5-ab34-4be181563e55","system_id":"levelo_inurba_marseille","lat":43.31048,"lon":5.37155,"is_reserved":false,"is_disabled":false,"rental_uris":{"android":"levelo://app?vid=aa753bb7-bd6b-47c5-ab34-4be181563e55","ios":"levelo://app?vid=aa753bb7-bd6b-47c5-ab34-4be181563e55"},"vehicle_type_id":"4","last_reported":1769728564,"current_range_meters":6800,"station_id":"st_d4kl2rp97mjs73e7tdfg","pricing_plan_id":"cebpf4jnsgd1na2vs0mg"},{"bike_id":"946d99b7-f7f9-497f-ac2b-82e1fc07c223","system_id":"levelo_inurba_marseille","lat":43.23147,"lon":5.43721,"is_reserved":false,"is_disabled":false,"rental_uris":{"android":"levelo://app?vid=946d99b7-f7f9-497f-ac2b-82e1fc07c223","ios":"levelo://app?vid=946d99b7-f7f9-497f-ac2b-82e1fc07c223"},"vehicle_type_id":"4","last_reported":1769728564,"current_range_meters":6800,"station_id":"ce4bhmp2rcd13ifvqgog","pricing_plan_id":"cebpf4jnsgd1na2vs0mg"},{"bike_id":"23a98d8d-1317-4cd5-a3c3-43670104b107","system_id":"levelo_inurba_marseille","lat":43.2999,"lon":5.38487,"is_reserved":false,"is_disabled":true,"rental_uris":{"android":"levelo://app?vid=23a98d8d-1317-4cd5-a3c3-43670104b107","ios":"levelo://app?vid=23a98d8d-1317-4cd5-a3c3-43670104b107"},"vehicle_type_id":"4","last_reported":1769728564,"current_range_meters":6800,"station_id":"ce4bgj92rcd13ifvqbd0","pricing_plan_id":"cebpf4jnsgd1na2vs0mg"},{"bike_id":"dcf83bcd-967b-45b9-96c7-f86595a7b8a3","system_id":"levelo_inurba_marseille","lat":43.30318,"lon":5.40436,"is_reserved":false,"is_disabled":false,"rental_uris":{"android":"levelo://app?vid=dcf83bcd-967b-45b9-96c7-f86595a7b8a3","ios":"levelo://app?vid=dcf83bcd-967b-45b9-96c7-f86595a7b8a3"},"vehicle_type_id":"4","last_reported":1769728564,"current_range_meters":6800,"station_id":"ce4bh012rcd13ifvqd10","pricing_plan_id":"cebpf4jnsgd1na2vs0mg"},{"bike_id":"6a0e40e4-3258-4516-885d-71d0968e64ad","system_id":"levelo_inurba_marseille","lat":43.23059,"lon":5.35507,"is_reserved":false,"is_disabled":false,"rental_uris":{"android":"levelo://app?vid=6a0e40e4-3258-4516-885d-71d0968e64ad","ios":"levelo://app?vid=6a0e40e4-3258-4516-885d-71d0968e64ad"},"vehicle_type_id":"4","last_reported":1769728564,"current_range_meters":6800,"station_id":"cpo3342slgdg3j2ifvpg","pricing_plan_id":"cebpf4jnsgd1na2vs0mg"},{"bike_id":"a3b12526-9548-4f69-9028-2c2743ebeb44","system_id":"levelo_inurba_marseille","lat":43.28611,"lon":5.39887,"is_reserved":false,"is_disabled":false,"rental_uris":{"android":"levelo://app?vid=a3b12526-9548-4f69-9028-2c2743ebeb44","ios":"levelo://app?vid=a3b12526-9548-4f69-9028-2c2743ebeb44"},"vehicle_type_id":"4","last_reported":1769728564,"current_range_meters":6800,"station_id":"st_d4a7ka997mjs738ck50g","pricing_plan_id":"cebpf4jnsgd1na2vs0mg"},{"bike_id":"52c6363b-7413-4b9d-a19e-fd2102af5421","system_id":"levelo_inurba_marseille","lat":43.26564,"lon":5.40319,"is_reserved":false,"is_disabled":false,"rental_uris":{"android":"levelo://app?vid=52c6363b-7413-4b9d-a19e-fd2102af5421","ios":"levelo://app?vid=52c6363b-7413-4b9d-a19e-fd2102af5421"},"vehicle_type_id":"4","last_reported":1769728564,"current_range_meters":6800,"station_id":"ce4bhmp2rcd13ifvqgng","pricing_plan_id":"cebpf4jnsgd1na2vs0mg"},{"bike_id":"599999c0-44e2-4e20-bbb6-92da8c472c7b","system_id":"levelo_inurba_marseille","lat":43.27912,"lon":5.38012,"is_reserved":false,"is_disabled":false,"rental_uris":{"android":"levelo://app?vid=599999c0-44e2-4e20-bbb6-92da8c472c7b","ios":"levelo://app?vid=599999c0-44e2-4e20-bbb6-92da8c472c7b"},"vehicle_type_id":"4","last_reported":1769728564,"current_range_meters":6800,"station_id":"ce4bhf92rcd13ifvqf50","pricing_plan_id":"cebpf4jnsgd1na2vs0mg"},{"bike_id":"71ea06b7-46c1-4fc9-a594-153d92364656","system_id":"levelo_inurba_marseille","lat":43.30733,"lon":5.40963,"is_reserved":false,"is_disabled":false,"rental_uris":{"android":"levelo://app?vid=71ea06b7-46c1-4fc9-a594-153d92364656","ios":"levelo://app?vid=71ea06b7-46c1-4fc9-a594-153d92364656"},"vehicle_type_id":"4","last_reported":1769728564,"current_range_meters":6800,"station_id":"","pricing_plan_id":"cebpf4jnsgd1na2vs0mg"},{"bike_id":"b64a9fd2-222a-468e-a24c-4d5dcc8b1cdd","system_id":"levelo_inurba_marseille","lat":43.312711,"lon":5.401741,"is_reserved":false,"is_disabled":false,"rental_uris":{"android":"levelo://app?vid=b64a9fd2-222a-468e-a24c-4d5dcc8b1cdd","ios":"levelo://app?vid=b64a9fd2-222a-468e-a24c-4d5dcc8b1cdd"},"vehicle_type_id":"4","last_reported":1769728564,"current_range_meters":6800,"station_id":"ce4bh092rcd13ifvqd30","pricing_plan_id":"cebpf4jnsgd1na2vs0mg"},{"bike_id":"25a9226a-9193-4bb4-8ad1-0a617754bee3","system_id":"levelo_inurba_marseille","lat":43.28528,"lon":5.44063,"is_reserved":false,"is_disabled":true,"rental_uris":{"android":"levelo://app?vid=25a9226a-9193-4bb4-8ad1-0a617754bee3","ios":"levelo://app?vid=25a9226a-9193-4bb4-8ad1-0a617754bee3"},"vehicle_type_id":"4","last_reported":1769728564,"current_range_meters":6800,"station_id":"","pricing_plan_id":"cebpf4jnsgd1na2vs0mg"},{"bike_id":"92cb781a-00de-4844-b5f8-df61aa7114a6","system_id":"levelo_inurba_marseille","lat":43.28089,"lon":5.37891,"is_reserved":false,"is_disabled":true,"rental_uris":{"android":"levelo://app?vid=92cb781a-00de-4844-b5f8-df61aa7114a6","ios":"levelo://app?vid=92cb781a-00de-4844-b5f8-df61aa7114a6"},"vehicle_type_id":"4","last_reported":1769728564,"current_range_meters":6800,"station_id":"","pricing_plan_id":"cebpf4jnsgd1na2vs0mg"},{"bike_id":"9b2f60f8-c065-448f-9629-2d9ef75ff541","system_id":"levelo_inurba_marseille","lat":43.29003,"lon":5.38637,"is_reserved":false,"is_disabled":false,"rental_uris":{"android":"levelo://app?vid=9b2f60f8-c065-448f-9629-2d9ef75ff541","ios":"levelo://app?vid=9b2f60f8-c065-448f-9629-2d9ef75ff541"},"vehicle_type_id":"4","last_reported":1769728564,"current_range_meters":6800,"station_id":"ce4bh4p2rcd13ifvqe0g","pricing_plan_id":"cebpf4jnsgd1na2vs0mg"},{"bike_id":"16eec0d8-2b78-4ef3-ba46-5e377e155cae","system_id":"levelo_inurba_marseille","lat":43.31175,"lon":5.38721,"is_reserved":false,"is_disabled":false,"rental_uris":{"android":"levelo://app?vid=16eec0d8-2b78-4ef3-ba46-5e377e155cae","ios":"levelo://app?vid=16eec0d8-2b78-4ef3-ba46-5e377e155cae"},"vehicle_type_id":"4","last_reported":1769728564,"current_range_meters":7200,"station_id":"ce4bgv12rcd13ifvqcp0","pricing_plan_id":"cebpf4jnsgd1na2vs0mg"},{"bike_id":"83fc5387-9bd8-4dec-804d-abfa877a86a6","system_id":"levelo_inurba_marseille","lat":43.29813,"lon":5.44078,"is_reserved":false,"is_disabled":false,"rental_uris":{"android":"levelo://app?vid=83fc5387-9bd8-4dec-804d-abfa877a86a6","ios":"levelo://app?vid=83fc5387-9bd8-4dec-804d-abfa877a86a6"},"vehicle_type_id":"4","last_reported":1769728564,"current_range_meters":7200,"station_id":"st_d3jp68qikq2c7381ktn0","pricing_plan_id":"cebpf4jnsgd1na2vs0mg"},{"bike_id":"3c0a4f5b-f91e-4c02-ae6d-858f0316e6f4","system_id":"levelo_inurba_marseille","lat":43.27668,"lon":5.38929,"is_reserved":false,"is_disabled":false,"rental_uris":{"android":"levelo://app?vid=3c0a4f5b-f91e-4c02-ae6d-858f0316e6f4","ios":"levelo://app?vid=3c0a4f5b-f91e-4c02-ae6d-858f0316e6f4"},"vehicle_type_id":"4","last_reported":1769728564,"current_range_meters":7200,"station_id":"ce4bhi12rcd13ifvqfo0","pricing_plan_id":"cebpf4jnsgd1na2vs0mg"},{"bike_id":"433c2006-051f-4d4c-bf5b-37c8e55d8b97","system_id":"levelo_inurba_marseille","lat":43.3117,"lon":5.38723,"is_reserved":false,"is_disabled":false,"rental_uris":{"android":"levelo://app?vid=433c2006-051f-4d4c-bf5b-37c8e55d8b97","ios":"levelo://app?vid=433c2006-051f-4d4c-bf5b-37c8e55d8b97"},"vehicle_type_id":"4","last_reported":1769728564,"current_range_meters":7200,"station_id":"ce4bgv12rcd13ifvqcp0","pricing_plan_id":"cebpf4jnsgd1na2vs0mg"},{"bike_id":"7b6d8a8b-d351-4282-bf84-c6e7865bd8af","system_id":"levelo_inurba_marseille","lat":43.2463,"lon":5.3888,"is_reserved":false,"is_disabled":false,"rental_uris":{"android":"levelo://app?vid=7b6d8a8b-d351-4282-bf84-c6e7865bd8af","ios":"levelo://app?vid=7b6d8a8b-d351-4282-bf84-c6e7865bd8af"},"vehicle_type_id":"4","last_reported":1769728564,"current_range_meters":7200,"station_id":"ce4bhg12rcd13ifvqf60","pricing_plan_id":"cebpf4jnsgd1na2vs0mg"},{"bike_id":"82693396-ff61-48ee-9772-fee51d6503d4","system_id":"levelo_inurba_marseille","lat":43.29548,"lon":5.42265,"is_reserved":false,"is_disabled":false,"rental_uris":{"android":"levelo://app?vid=82693396-ff61-48ee-9772-fee51d6503d4","ios":"levelo://app?vid=82693396-ff61-48ee-9772-fee51d6503d4"},"vehicle_type_id":"4","last_reported":1769728564,"current_range_meters":7200,"station_id":"ce4bhph2rcd13ifvqhdg","pricing_plan_id":"cebpf4jnsgd1na2vs0mg"},{"bike_id":"0edb73c2-0d71-41ef-92a0-39c6197600e4","system_id":"levelo_inurba_marseille","lat":43.27061,"lon":5.38305,"is_reserved":false,"is_disabled":false,"rental_uris":{"android":"levelo://app?vid=0edb73c2-0d71-41ef-92a0-39c6197600e4","ios":"levelo://app?vid=0edb73c2-0d71-41ef-92a0-39c6197600e4"},"vehicle_type_id":"4","last_reported":1769728564,"current_range_meters":7200,"station_id":"st_d3n2fo6cfp8s73cte1j0","pricing_plan_id":"cebpf4jnsgd1na2vs0mg"},{"bike_id":"5563c055-af54-43bf-b6ec-7239bf189873","system_id":"levelo_inurba_marseille","lat":43.28699,"lon":5.37388,"is_reserved":false,"is_disabled":false,"rental_uris":{"android":"levelo://app?vid=5563c055-af54-43bf-b6ec-7239bf189873","ios":"levelo://app?vid=5563c055-af54-43bf-b6ec-7239bf189873"},"vehicle_type_id":"4","last_reported":1769728564,"current_range_meters":7200,"station_id":"ce4bh3p2rcd13ifvqdq0","pricing_plan_id":"cebpf4jnsgd1na2vs0mg"},{"bike_id":"d08ad747-e8dd-4a39-990c-56de807eb318","system_id":"levelo_inurba_marseille","lat":43.26557,"lon":5.40317,"is_reserved":false,"is_disabled":false,"rental_uris":{"android":"levelo://app?vid=d08ad747-e8dd-4a39-990c-56de807eb318","ios":"levelo://app?vid=d08ad747-e8dd-4a39-990c-56de807eb318"},"vehicle_type_id":"4","last_reported":1769728564,"current_range_meters":7200,"station_id":"ce4bhmp2rcd13ifvqgng","pricing_plan_id":"cebpf4jnsgd1na2vs0mg"},{"bike_id":"4621b5d8-b670-4894-919f-ef2603f0ee9e","system_id":"levelo_inurba_marseille","lat":43.2495,"lon":5.40482,"is_reserved":false,"is_disabled":false,"rental_uris":{"android":"levelo://app?vid=4621b5d8-b670-4894-919f-ef2603f0ee9e","ios":"levelo://app?vid=4621b5d8-b670-4894-919f-ef2603f0ee9e"},"vehicle_type_id":"4","last_reported":1769728564,"current_range_meters":7200,"station_id":"st_d2ngiaodas8pm72gd1h0","pricing_plan_id":"cebpf4jnsgd1na2vs0mg"},{"bike_id":"5db094de-6a86-436e-8c6e-f8afae445efb","system_id":"levelo_inurba_marseille","lat":43.28535,"lon":5.44095,"is_reserved":false,"is_disabled":false,"rental_uris":{"android":"levelo://app?vid=5db094de-6a86-436e-8c6e-f8afae445efb","ios":"levelo://app?vid=5db094de-6a86-436e-8c6e-f8afae445efb"},"vehicle_type_id":"4","last_reported":1769728564,"current_range_meters":7200,"station_id":"st_d3j3df2ikq2c7380ej80","pricing_plan_id":"cebpf4jnsgd1na2vs0mg"},{"bike_id":"baede7e7-a544-40f3-9925-2b1843c66cd2","system_id":"levelo_inurba_marseille","lat":43.28469,"lon":5.38446,"is_reserved":false,"is_disabled":false,"rental_uris":{"android":"levelo://app?vid=baede7e7-a544-40f3-9925-2b1843c66cd2","ios":"levelo://app?vid=baede7e7-a544-40f3-9925-2b1843c66cd2"},"vehicle_type_id":"4","last_reported":1769728564,"current_range_meters":7200,"station_id":"ce4bh512rcd13ifvqe3g","pricing_plan_id":"cebpf4jnsgd1na2vs0mg"},{"bike_id":"299d191a-d367-49a8-bf6a-88a970253a1c","system_id":"levelo_inurba_marseille","lat":43.24658,"lon":5.38161,"is_reserved":false,"is_disabled":false,"rental_uris":{"android":"levelo://app?vid=299d191a-d367-49a8-bf6a-88a970253a1c","ios":"levelo://app?vid=299d191a-d367-49a8-bf6a-88a970253a1c"},"vehicle_type_id":"4","last_reported":1769728564,"current_range_meters":7200,"station_id":"ce4bhih2rcd13ifvqfr0","pricing_plan_id":"cebpf4jnsgd1na2vs0mg"},{"bike_id":"8562c4a5-d0ea-42f6-9a8c-79a9393316a5","system_id":"levelo_inurba_marseille","lat":43.24645,"lon":5.38169,"is_reserved":false,"is_disabled":false,"rental_uris":{"android":"levelo://app?vid=8562c4a5-d0ea-42f6-9a8c-79a9393316a5","ios":"levelo://app?vid=8562c4a5-d0ea-42f6-9a8c-79a9393316a5"},"vehicle_type_id":"4","last_reported":1769728564,"current_range_meters":7200,"station_id":"ce4bhih2rcd13ifvqfr0","pricing_plan_id":"cebpf4jnsgd1na2vs0mg"},{"bike_id":"4cc0b9dc-1bd7-40c7-9c2d-d0fc941b99dd","system_id":"levelo_inurba_marseille","lat":43.29577,"lon":5.37512,"is_reserved":false,"is_disabled":false,"rental_uris":{"android":"levelo://app?vid=4cc0b9dc-1bd7-40c7-9c2d-d0fc941b99dd","ios":"levelo://app?vid=4cc0b9dc-1bd7-40c7-9c2d-d0fc941b99dd"},"vehicle_type_id":"4","last_reported":1769728564,"current_range_meters":7200,"station_id":"ce4bgh92rcd13ifvqb50","pricing_plan_id":"cebpf4jnsgd1na2vs0mg"},{"bike_id":"cfb3d226-45e5-4e73-97c6-1557047706dc","system_id":"levelo_inurba_marseille","lat":43.30413,"lon":5.39775,"is_reserved":false,"is_disabled":false,"rental_uris":{"android":"levelo://app?vid=cfb3d226-45e5-4e73-97c6-1557047706dc","ios":"levelo://app?vid=cfb3d226-45e5-4e73-97c6-1557047706dc"},"vehicle_type_id":"4","last_reported":1769728564,"current_range_meters":7200,"station_id":"ce4bh092rcd13ifvqd20","pricing_plan_id":"cebpf4jnsgd1na2vs0mg"},{"bike_id":"f479a039-8033-47b9-816f-8d6e23143401","system_id":"levelo_inurba_marseille","lat":43.24801,"lon":5.37462,"is_reserved":false,"is_disabled":false,"rental_uris":{"android":"levelo://app?vid=f479a039-8033-47b9-816f-8d6e23143401","ios":"levelo://app?vid=f479a039-8033-47b9-816f-8d6e23143401"},"vehicle_type_id":"4","last_reported":1769728564,"current_range_meters":7200,"station_id":"ce4bhgh2rcd13ifvqfb0","pricing_plan_id":"cebpf4jnsgd1na2vs0mg"},{"bike_id":"1df32dff-5611-415d-8fae-817c467a81ff","system_id":"levelo_inurba_marseille","lat":43.230518,"lon":5.354883,"is_reserved":false,"is_disabled":false,"rental_uris":{"android":"levelo://app?vid=1df32dff-5611-415d-8fae-817c467a81ff","ios":"levelo://app?vid=1df32dff-5611-415d-8fae-817c467a81ff"},"vehicle_type_id":"4","last_reported":1769728564,"current_range_meters":7200,"station_id":"cpo3342slgdg3j2ifvpg","pricing_plan_id":"cebpf4jnsgd1na2vs0mg"},{"bike_id":"3205988f-0233-437d-854f-d66b3762658c","system_id":"levelo_inurba_marseille","lat":43.28609,"lon":5.35104,"is_reserved":false,"is_disabled":false,"rental_uris":{"android":"levelo://app?vid=3205988f-0233-437d-854f-d66b3762658c","ios":"levelo://app?vid=3205988f-0233-437d-854f-d66b3762658c"},"vehicle_type_id":"4","last_reported":1769728564,"current_range_meters":7200,"station_id":"ce4bhch2rcd13ifvqeug","pricing_plan_id":"cebpf4jnsgd1na2vs0mg"},{"bike_id":"ef68bdf9-fa71-483b-bc99-7f9581830aca","system_id":"levelo_inurba_marseille","lat":43.30594,"lon":5.3674,"is_reserved":false,"is_disabled":false,"rental_uris":{"android":"levelo://app?vid=ef68bdf9-fa71-483b-bc99-7f9581830aca","ios":"levelo://app?vid=ef68bdf9-fa71-483b-bc99-7f9581830aca"},"vehicle_type_id":"4","last_reported":1769728564,"current_range_meters":8000,"station_id":"","pricing_plan_id":"cebpf4jnsgd1na2vs0mg"},{"bike_id":"bd889336-68ff-4f09-8c88-588306cf9fc6","system_id":"levelo_inurba_marseille","lat":43.27061,"lon":5.40299,"is_reserved":false,"is_disabled":false,"rental_uris":{"android":"levelo://app?vid=bd889336-68ff-4f09-8c88-588306cf9fc6","ios":"levelo://app?vid=bd889336-68ff-4f09-8c88-588306cf9fc6"},"vehicle_type_id":"4","last_reported":1769728564,"current_range_meters":8000,"station_id":"ce4bhk92rcd13ifvqgc0","pricing_plan_id":"cebpf4jnsgd1na2vs0mg"},{"bike_id":"d9b6343b-4e87-445f-8063-2fce9657168c","system_id":"levelo_inurba_marseille","lat":43.30388,"lon":5.37596,"is_reserved":false,"is_disabled":false,"rental_uris":{"android":"levelo://app?vid=d9b6343b-4e87-445f-8063-2fce9657168c","ios":"levelo://app?vid=d9b6343b-4e87-445f-8063-2fce9657168c"},"vehicle_type_id":"4","last_reported":1769728564,"current_range_meters":8000,"station_id":"","pricing_plan_id":"cebpf4jnsgd1na2vs0mg"},{"bike_id":"918533f6-45cd-401a-bfa3-1454104243bb","system_id":"levelo_inurba_marseille","lat":43.3065,"lon":5.40094,"is_reserved":false,"is_disabled":false,"rental_uris":{"android":"levelo://app?vid=918533f6-45cd-401a-bfa3-1454104243bb","ios":"levelo://app?vid=918533f6-45cd-401a-bfa3-1454104243bb"},"vehicle_type_id":"4","last_reported":1769728564,"current_range_meters":8000,"station_id":"ce4bh112rcd13ifvqda0","pricing_plan_id":"cebpf4jnsgd1na2vs0mg"},{"bike_id":"1440a1fd-c02e-49b3-95e7-8bbcddadff1d","system_id":"levelo_inurba_marseille","lat":43.24378,"lon":5.37091,"is_reserved":false,"is_disabled":false,"rental_uris":{"android":"levelo://app?vid=1440a1fd-c02e-49b3-95e7-8bbcddadff1d","ios":"levelo://app?vid=1440a1fd-c02e-49b3-95e7-8bbcddadff1d"},"vehicle_type_id":"4","last_reported":1769728564,"current_range_meters":8000,"station_id":"ce4bhhh2rcd13ifvqfk0","pricing_plan_id":"cebpf4jnsgd1na2vs0mg"},{"bike_id":"5417ecf1-5c28-449a-a086-27acd88e9f4e","system_id":"levelo_inurba_marseille","lat":43.21191,"lon":5.35073,"is_reserved":false,"is_disabled":false,"rental_uris":{"android":"levelo://app?vid=5417ecf1-5c28-449a-a086-27acd88e9f4e","ios":"levelo://app?vid=5417ecf1-5c28-449a-a086-27acd88e9f4e"},"vehicle_type_id":"4","last_reported":1769728564,"current_range_meters":8000,"station_id":"st_cvj6sg6p6f1abm77japg","pricing_plan_id":"cebpf4jnsgd1na2vs0mg"},{"bike_id":"7a4412cf-c498-4121-be46-049419c026d4","system_id":"levelo_inurba_marseille","lat":43.27946,"lon":5.41037,"is_reserved":false,"is_disabled":false,"rental_uris":{"android":"levelo://app?vid=7a4412cf-c498-4121-be46-049419c026d4","ios":"levelo://app?vid=7a4412cf-c498-4121-be46-049419c026d4"},"vehicle_type_id":"4","last_reported":1769728564,"current_range_meters":8000,"station_id":"ce4bhnp2rcd13ifvqh0g","pricing_plan_id":"cebpf4jnsgd1na2vs0mg"},{"bike_id":"83bbeac1-b4c2-4835-91cb-013728be84c8","system_id":"levelo_inurba_marseille","lat":43.29921,"lon":5.39083,"is_reserved":false,"is_disabled":true,"rental_uris":{"android":"levelo://app?vid=83bbeac1-b4c2-4835-91cb-013728be84c8","ios":"levelo://app?vid=83bbeac1-b4c2-4835-91cb-013728be84c8"},"vehicle_type_id":"4","last_reported":1769728564,"current_range_meters":8000,"station_id":"","pricing_plan_id":"cebpf4jnsgd1na2vs0mg"},{"bike_id":"b93f36af-6012-4250-a69f-3de373ca3510","system_id":"levelo_inurba_marseille","lat":43.28258,"lon":5.35084,"is_reserved":false,"is_disabled":false,"rental_uris":{"android":"levelo://app?vid=b93f36af-6012-4250-a69f-3de373ca3510","ios":"levelo://app?vid=b93f36af-6012-4250-a69f-3de373ca3510"},"vehicle_type_id":"4","last_reported":1769728564,"current_range_meters":8000,"station_id":"ce4bhbp2rcd13ifvqerg","pricing_plan_id":"cebpf4jnsgd1na2vs0mg"},{"bike_id":"0760064b-5722-42a9-9948-586ac57aa647","system_id":"levelo_inurba_marseille","lat":43.2465,"lon":5.38877,"is_reserved":false,"is_disabled":false,"rental_uris":{"android":"levelo://app?vid=0760064b-5722-42a9-9948-586ac57aa647","ios":"levelo://app?vid=0760064b-5722-42a9-9948-586ac57aa647"},"vehicle_type_id":"4","last_reported":1769728564,"current_range_meters":8000,"station_id":"ce4bhg12rcd13ifvqf60","pricing_plan_id":"cebpf4jnsgd1na2vs0mg"},{"bike_id":"4811c3f3-6abd-45a1-827d-b9d9c6bd1a0c","system_id":"levelo_inurba_marseille","lat":43.29783,"lon":5.37401,"is_reserved":false,"is_disabled":false,"rental_uris":{"android":"levelo://app?vid=4811c3f3-6abd-45a1-827d-b9d9c6bd1a0c","ios":"levelo://app?vid=4811c3f3-6abd-45a1-827d-b9d9c6bd1a0c"},"vehicle_type_id":"4","last_reported":1769728564,"current_range_meters":8000,"station_id":"","pricing_plan_id":"cebpf4jnsgd1na2vs0mg"},{"bike_id":"43108044-4682-404d-830f-a43f6f0d82ce","system_id":"levelo_inurba_marseille","lat":43.23148,"lon":5.43711,"is_reserved":false,"is_disabled":false,"rental_uris":{"android":"levelo://app?vid=43108044-4682-404d-830f-a43f6f0d82ce","ios":"levelo://app?vid=43108044-4682-404d-830f-a43f6f0d82ce"},"vehicle_type_id":"4","last_reported":1769728564,"current_range_meters":8000,"station_id":"ce4bhmp2rcd13ifvqgog","pricing_plan_id":"cebpf4jnsgd1na2vs0mg"},{"bike_id":"5c1bebe8-43bf-476b-a01e-98bad8762f0c","system_id":"levelo_inurba_marseille","lat":43.2463,"lon":5.43135,"is_reserved":false,"is_disabled":false,"rental_uris":{"android":"levelo://app?vid=5c1bebe8-43bf-476b-a01e-98bad8762f0c","ios":"levelo://app?vid=5c1bebe8-43bf-476b-a01e-98bad8762f0c"},"vehicle_type_id":"4","last_reported":1769728564,"current_range_meters":8000,"station_id":"st_d2m6c4gdas8pm72e190g","pricing_plan_id":"cebpf4jnsgd1na2vs0mg"},{"bike_id":"af654c71-a67d-46af-bf40-a020e2f3bf53","system_id":"levelo_inurba_marseille","lat":43.25006,"lon":5.38909,"is_reserved":false,"is_disabled":false,"rental_uris":{"android":"levelo://app?vid=af654c71-a67d-46af-bf40-a020e2f3bf53","ios":"levelo://app?vid=af654c71-a67d-46af-bf40-a020e2f3bf53"},"vehicle_type_id":"4","last_reported":1769728564,"current_range_meters":8000,"station_id":"ce4bhgp2rcd13ifvqfd0","pricing_plan_id":"cebpf4jnsgd1na2vs0mg"},{"bike_id":"022d369a-95f4-48b4-b97e-fa7bf8af08d6","system_id":"levelo_inurba_marseille","lat":43.23964,"lon":5.36629,"is_reserved":false,"is_disabled":false,"rental_uris":{"android":"levelo://app?vid=022d369a-95f4-48b4-b97e-fa7bf8af08d6","ios":"levelo://app?vid=022d369a-95f4-48b4-b97e-fa7bf8af08d6"},"vehicle_type_id":"4","last_reported":1769728564,"current_range_meters":8000,"station_id":"ce4bhi12rcd13ifvqfp0","pricing_plan_id":"cebpf4jnsgd1na2vs0mg"},{"bike_id":"e04521ca-ce5b-4911-93eb-efa07b2cc503","system_id":"levelo_inurba_marseille","lat":43.29491,"lon":5.43307,"is_reserved":false,"is_disabled":false,"rental_uris":{"android":"levelo://app?vid=e04521ca-ce5b-4911-93eb-efa07b2cc503","ios":"levelo://app?vid=e04521ca-ce5b-4911-93eb-efa07b2cc503"},"vehicle_type_id":"4","last_reported":1769728564,"current_range_meters":8000,"station_id":"st_d3j5ugp08ojc73fj9d10","pricing_plan_id":"cebpf4jnsgd1na2vs0mg"},{"bike_id":"3dc504de-340a-4960-9295-e93227b46b5e","system_id":"levelo_inurba_marseille","lat":43.32115,"lon":5.36761,"is_reserved":false,"is_disabled":false,"rental_uris":{"android":"levelo://app?vid=3dc504de-340a-4960-9295-e93227b46b5e","ios":"levelo://app?vid=3dc504de-340a-4960-9295-e93227b46b5e"},"vehicle_type_id":"4","last_reported":1769728564,"current_range_meters":8000,"station_id":"ce4bhrh2rcd13ifvqhug","pricing_plan_id":"cebpf4jnsgd1na2vs0mg"},{"bike_id":"51a381d7-92b7-404a-b0f5-2fffa4e9a87f","system_id":"levelo_inurba_marseille","lat":43.30394,"lon":5.38876,"is_reserved":false,"is_disabled":false,"rental_uris":{"android":"levelo://app?vid=51a381d7-92b7-404a-b0f5-2fffa4e9a87f","ios":"levelo://app?vid=51a381d7-92b7-404a-b0f5-2fffa4e9a87f"},"vehicle_type_id":"4","last_reported":1769728564,"current_range_meters":8000,"station_id":"ce4bgk12rcd13ifvqbi0","pricing_plan_id":"cebpf4jnsgd1na2vs0mg"},{"bike_id":"04559873-83d7-48ee-ada0-d3579397036b","system_id":"levelo_inurba_marseille","lat":43.29629,"lon":5.40594,"is_reserved":false,"is_disabled":false,"rental_uris":{"android":"levelo://app?vid=04559873-83d7-48ee-ada0-d3579397036b","ios":"levelo://app?vid=04559873-83d7-48ee-ada0-d3579397036b"},"vehicle_type_id":"4","last_reported":1769728564,"current_range_meters":8400,"station_id":"ce4bh0h2rcd13ifvqd60","pricing_plan_id":"cebpf4jnsgd1na2vs0mg"},{"bike_id":"456727bd-baa8-41bf-ae9f-158a99ff9411","system_id":"levelo_inurba_marseille","lat":43.22564,"lon":5.4165,"is_reserved":false,"is_disabled":false,"rental_uris":{"android":"levelo://app?vid=456727bd-baa8-41bf-ae9f-158a99ff9411","ios":"levelo://app?vid=456727bd-baa8-41bf-ae9f-158a99ff9411"},"vehicle_type_id":"4","last_reported":1769728564,"current_range_meters":8400,"station_id":"st_d2o4gvlbi1j2169b742g","pricing_plan_id":"cebpf4jnsgd1na2vs0mg"},{"bike_id":"6f2111dd-6b6a-402c-9729-62f7313dcc5e","system_id":"levelo_inurba_marseille","lat":43.323524,"lon":5.367517,"is_reserved":false,"is_disabled":false,"rental_uris":{"android":"levelo://app?vid=6f2111dd-6b6a-402c-9729-62f7313dcc5e","ios":"levelo://app?vid=6f2111dd-6b6a-402c-9729-62f7313dcc5e"},"vehicle_type_id":"4","last_reported":1769728564,"current_range_meters":8400,"station_id":"ce4bhsh2rcd13ifvqi2g","pricing_plan_id":"cebpf4jnsgd1na2vs0mg"},{"bike_id":"82a6b099-0577-4798-9a60-21fb38c2bbb7","system_id":"levelo_inurba_marseille","lat":43.29806,"lon":5.44058,"is_reserved":false,"is_disabled":false,"rental_uris":{"android":"levelo://app?vid=82a6b099-0577-4798-9a60-21fb38c2bbb7","ios":"levelo://app?vid=82a6b099-0577-4798-9a60-21fb38c2bbb7"},"vehicle_type_id":"4","last_reported":1769728564,"current_range_meters":8400,"station_id":"st_d3jp68qikq2c7381ktn0","pricing_plan_id":"cebpf4jnsgd1na2vs0mg"},{"bike_id":"f77f11ea-c57f-4a1e-b998-1859acb2e91b","system_id":"levelo_inurba_marseille","lat":43.286,"lon":5.35106,"is_reserved":false,"is_disabled":false,"rental_uris":{"android":"levelo://app?vid=f77f11ea-c57f-4a1e-b998-1859acb2e91b","ios":"levelo://app?vid=f77f11ea-c57f-4a1e-b998-1859acb2e91b"},"vehicle_type_id":"4","last_reported":1769728564,"current_range_meters":8400,"station_id":"ce4bhch2rcd13ifvqeug","pricing_plan_id":"cebpf4jnsgd1na2vs0mg"},{"bike_id":"10b424c6-99ba-423a-9370-8bef633fb2cb","system_id":"levelo_inurba_marseille","lat":43.25208,"lon":5.38041,"is_reserved":false,"is_disabled":false,"rental_uris":{"android":"levelo://app?vid=10b424c6-99ba-423a-9370-8bef633fb2cb","ios":"levelo://app?vid=10b424c6-99ba-423a-9370-8bef633fb2cb"},"vehicle_type_id":"4","last_reported":1769728564,"current_range_meters":8400,"station_id":"","pricing_plan_id":"cebpf4jnsgd1na2vs0mg"},{"bike_id":"6146a001-9806-4597-8425-884457e3a19b","system_id":"levelo_inurba_marseille","lat":43.2622,"lon":5.40438,"is_reserved":false,"is_disabled":false,"rental_uris":{"android":"levelo://app?vid=6146a001-9806-4597-8425-884457e3a19b","ios":"levelo://app?vid=6146a001-9806-4597-8425-884457e3a19b"},"vehicle_type_id":"4","last_reported":1769728564,"current_range_meters":8400,"station_id":"ce4bhmh2rcd13ifvqgmg","pricing_plan_id":"cebpf4jnsgd1na2vs0mg"},{"bike_id":"7008570a-4030-4a5c-bce0-6e90ab09f5fd","system_id":"levelo_inurba_marseille","lat":43.24659,"lon":5.38156,"is_reserved":false,"is_disabled":false,"rental_uris":{"android":"levelo://app?vid=7008570a-4030-4a5c-bce0-6e90ab09f5fd","ios":"levelo://app?vid=7008570a-4030-4a5c-bce0-6e90ab09f5fd"},"vehicle_type_id":"4","last_reported":1769728564,"current_range_meters":8400,"station_id":"ce4bhih2rcd13ifvqfr0","pricing_plan_id":"cebpf4jnsgd1na2vs0mg"},{"bike_id":"7714d863-1c60-4efa-a925-44984599d482","system_id":"levelo_inurba_marseille","lat":43.297583,"lon":5.427761,"is_reserved":false,"is_disabled":false,"rental_uris":{"android":"levelo://app?vid=7714d863-1c60-4efa-a925-44984599d482","ios":"levelo://app?vid=7714d863-1c60-4efa-a925-44984599d482"},"vehicle_type_id":"4","last_reported":1769728564,"current_range_meters":8400,"station_id":"st_d3md5207bmas73dh9klg","pricing_plan_id":"cebpf4jnsgd1na2vs0mg"},{"bike_id":"73a6585c-b10e-4f79-a29b-c3e206c1ffc8","system_id":"levelo_inurba_marseille","lat":43.269413,"lon":5.402436,"is_reserved":false,"is_disabled":false,"rental_uris":{"android":"levelo://app?vid=73a6585c-b10e-4f79-a29b-c3e206c1ffc8","ios":"levelo://app?vid=73a6585c-b10e-4f79-a29b-c3e206c1ffc8"},"vehicle_type_id":"4","last_reported":1769728564,"current_range_meters":8400,"station_id":"cjm6bp8fraef2m0cb0m0","pricing_plan_id":"cebpf4jnsgd1na2vs0mg"},{"bike_id":"59ae0900-c855-4741-b5cf-c53827ed9733","system_id":"levelo_inurba_marseille","lat":43.24175,"lon":5.36387,"is_reserved":false,"is_disabled":false,"rental_uris":{"android":"levelo://app?vid=59ae0900-c855-4741-b5cf-c53827ed9733","ios":"levelo://app?vid=59ae0900-c855-4741-b5cf-c53827ed9733"},"vehicle_type_id":"4","last_reported":1769728564,"current_range_meters":8400,"station_id":"cpo36qri1sfpv3e86is0","pricing_plan_id":"cebpf4jnsgd1na2vs0mg"},{"bike_id":"f3239b9e-e657-464c-a0ef-641807cec97c","system_id":"levelo_inurba_marseille","lat":43.313682,"lon":5.384873,"is_reserved":false,"is_disabled":false,"rental_uris":{"android":"levelo://app?vid=f3239b9e-e657-464c-a0ef-641807cec97c","ios":"levelo://app?vid=f3239b9e-e657-464c-a0ef-641807cec97c"},"vehicle_type_id":"4","last_reported":1769728564,"current_range_meters":8400,"station_id":"ce4bgt92rcd13ifvqcf0","pricing_plan_id":"cebpf4jnsgd1na2vs0mg"},{"bike_id":"7ccb57b5-d8f1-406a-8962-100233cea2b4","system_id":"levelo_inurba_marseille","lat":43.3133,"lon":5.39692,"is_reserved":false,"is_disabled":false,"rental_uris":{"android":"levelo://app?vid=7ccb57b5-d8f1-406a-8962-100233cea2b4","ios":"levelo://app?vid=7ccb57b5-d8f1-406a-8962-100233cea2b4"},"vehicle_type_id":"4","last_reported":1769728564,"current_range_meters":8400,"station_id":"ce4bgvp2rcd13ifvqcu0","pricing_plan_id":"cebpf4jnsgd1na2vs0mg"},{"bike_id":"1cc62919-e5df-4445-9bb2-bba1318911b3","system_id":"levelo_inurba_marseille","lat":43.30331,"lon":5.40444,"is_reserved":false,"is_disabled":false,"rental_uris":{"android":"levelo://app?vid=1cc62919-e5df-4445-9bb2-bba1318911b3","ios":"levelo://app?vid=1cc62919-e5df-4445-9bb2-bba1318911b3"},"vehicle_type_id":"4","last_reported":1769728564,"current_range_meters":8400,"station_id":"ce4bh012rcd13ifvqd10","pricing_plan_id":"cebpf4jnsgd1na2vs0mg"},{"bike_id":"6b173c98-2a8b-464a-8079-e105081bde9e","system_id":"levelo_inurba_marseille","lat":43.3106,"lon":5.3835,"is_reserved":false,"is_disabled":false,"rental_uris":{"android":"levelo://app?vid=6b173c98-2a8b-464a-8079-e105081bde9e","ios":"levelo://app?vid=6b173c98-2a8b-464a-8079-e105081bde9e"},"vehicle_type_id":"4","last_reported":1769728564,"current_range_meters":8400,"station_id":"ce4bgv92rcd13ifvqcr0","pricing_plan_id":"cebpf4jnsgd1na2vs0mg"},{"bike_id":"521ba661-56b6-481d-8cf1-b60849634dea","system_id":"levelo_inurba_marseille","lat":43.29031,"lon":5.38657,"is_reserved":false,"is_disabled":false,"rental_uris":{"android":"levelo://app?vid=521ba661-56b6-481d-8cf1-b60849634dea","ios":"levelo://app?vid=521ba661-56b6-481d-8cf1-b60849634dea"},"vehicle_type_id":"4","last_reported":1769728564,"current_range_meters":8400,"station_id":"ce4bh4p2rcd13ifvqe0g","pricing_plan_id":"cebpf4jnsgd1na2vs0mg"},{"bike_id":"cdd9264b-4e6b-4b82-a25d-239fd64a0b05","system_id":"levelo_inurba_marseille","lat":43.28669,"lon":5.36344,"is_reserved":false,"is_disabled":false,"rental_uris":{"android":"levelo://app?vid=cdd9264b-4e6b-4b82-a25d-239fd64a0b05","ios":"levelo://app?vid=cdd9264b-4e6b-4b82-a25d-239fd64a0b05"},"vehicle_type_id":"4","last_reported":1769728564,"current_range_meters":8400,"station_id":"ce4bhah2rcd13ifvqej0","pricing_plan_id":"cebpf4jnsgd1na2vs0mg"},{"bike_id":"8bd2dedc-53b6-4a9b-b341-e8ab2dec2237","system_id":"levelo_inurba_marseille","lat":43.24617,"lon":5.43159,"is_reserved":false,"is_disabled":false,"rental_uris":{"android":"levelo://app?vid=8bd2dedc-53b6-4a9b-b341-e8ab2dec2237","ios":"levelo://app?vid=8bd2dedc-53b6-4a9b-b341-e8ab2dec2237"},"vehicle_type_id":"4","last_reported":1769728564,"current_range_meters":8400,"station_id":"st_d2m6c4gdas8pm72e190g","pricing_plan_id":"cebpf4jnsgd1na2vs0mg"},{"bike_id":"b3808154-86af-47d0-966c-f1cc0984587d","system_id":"levelo_inurba_marseille","lat":43.33761,"lon":5.37483,"is_reserved":false,"is_disabled":false,"rental_uris":{"android":"levelo://app?vid=b3808154-86af-47d0-966c-f1cc0984587d","ios":"levelo://app?vid=b3808154-86af-47d0-966c-f1cc0984587d"},"vehicle_type_id":"4","last_reported":1769728564,"current_range_meters":8400,"station_id":"","pricing_plan_id":"cebpf4jnsgd1na2vs0mg"},{"bike_id":"4e83842e-83b9-4133-aa10-c84727ca0337","system_id":"levelo_inurba_marseille","lat":43.24545,"lon":5.39524,"is_reserved":false,"is_disabled":false,"rental_uris":{"android":"levelo://app?vid=4e83842e-83b9-4133-aa10-c84727ca0337","ios":"levelo://app?vid=4e83842e-83b9-4133-aa10-c84727ca0337"},"vehicle_type_id":"4","last_reported":1769728564,"current_range_meters":8800,"station_id":"ce4bhlp2rcd13ifvqgjg","pricing_plan_id":"cebpf4jnsgd1na2vs0mg"},{"bike_id":"a9d5a55c-e6f8-4cac-aa21-2065b21c8b47","system_id":"levelo_inurba_marseille","lat":43.2495,"lon":5.4051,"is_reserved":false,"is_disabled":false,"rental_uris":{"android":"levelo://app?vid=a9d5a55c-e6f8-4cac-aa21-2065b21c8b47","ios":"levelo://app?vid=a9d5a55c-e6f8-4cac-aa21-2065b21c8b47"},"vehicle_type_id":"4","last_reported":1769728564,"current_range_meters":8800,"station_id":"st_d2ngiaodas8pm72gd1h0","pricing_plan_id":"cebpf4jnsgd1na2vs0mg"},{"bike_id":"e858244c-580e-4a5e-a86b-9fc7e954317c","system_id":"levelo_inurba_marseille","lat":43.31289,"lon":5.37845,"is_reserved":false,"is_disabled":true,"rental_uris":{"android":"levelo://app?vid=e858244c-580e-4a5e-a86b-9fc7e954317c","ios":"levelo://app?vid=e858244c-580e-4a5e-a86b-9fc7e954317c"},"vehicle_type_id":"4","last_reported":1769728564,"current_range_meters":8800,"station_id":"","pricing_plan_id":"cebpf4jnsgd1na2vs0mg"},{"bike_id":"14ad4359-d217-40c8-bc15-7989600afabe","system_id":"levelo_inurba_marseille","lat":43.2839,"lon":5.40703,"is_reserved":false,"is_disabled":false,"rental_uris":{"android":"levelo://app?vid=14ad4359-d217-40c8-bc15-7989600afabe","ios":"levelo://app?vid=14ad4359-d217-40c8-bc15-7989600afabe"},"vehicle_type_id":"4","last_reported":1769728564,"current_range_meters":8800,"station_id":"","pricing_plan_id":"cebpf4jnsgd1na2vs0mg"},{"bike_id":"2626a307-09e6-4806-8747-64c64cf9b162","system_id":"levelo_inurba_marseille","lat":43.24463,"lon":5.42543,"is_reserved":false,"is_disabled":false,"rental_uris":{"android":"levelo://app?vid=2626a307-09e6-4806-8747-64c64cf9b162","ios":"levelo://app?vid=2626a307-09e6-4806-8747-64c64cf9b162"},"vehicle_type_id":"4","last_reported":1769728564,"current_range_meters":8800,"station_id":"st_d4a3vfp97mjs738cd8kg","pricing_plan_id":"cebpf4jnsgd1na2vs0mg"},{"bike_id":"7243427c-7e1e-4875-b4d3-b3a9df2c737a","system_id":"levelo_inurba_marseille","lat":43.301608,"lon":5.388095,"is_reserved":false,"is_disabled":true,"rental_uris":{"android":"levelo://app?vid=7243427c-7e1e-4875-b4d3-b3a9df2c737a","ios":"levelo://app?vid=7243427c-7e1e-4875-b4d3-b3a9df2c737a"},"vehicle_type_id":"4","last_reported":1769728564,"current_range_meters":8800,"station_id":"ce4bghh2rcd13ifvqb60","pricing_plan_id":"cebpf4jnsgd1na2vs0mg"},{"bike_id":"a224862a-232e-4eae-9e87-90ad084f94a7","system_id":"levelo_inurba_marseille","lat":43.24178,"lon":5.36405,"is_reserved":false,"is_disabled":false,"rental_uris":{"android":"levelo://app?vid=a224862a-232e-4eae-9e87-90ad084f94a7","ios":"levelo://app?vid=a224862a-232e-4eae-9e87-90ad084f94a7"},"vehicle_type_id":"4","last_reported":1769728564,"current_range_meters":8800,"station_id":"cpo36qri1sfpv3e86is0","pricing_plan_id":"cebpf4jnsgd1na2vs0mg"},{"bike_id":"ceed1653-0aff-4dc0-b159-f8529a6c28c1","system_id":"levelo_inurba_marseille","lat":43.231934,"lon":5.3555,"is_reserved":false,"is_disabled":false,"rental_uris":{"android":"levelo://app?vid=ceed1653-0aff-4dc0-b159-f8529a6c28c1","ios":"levelo://app?vid=ceed1653-0aff-4dc0-b159-f8529a6c28c1"},"vehicle_type_id":"4","last_reported":1769728564,"current_range_meters":8800,"station_id":"ce4bhu92rcd13ifvqi70","pricing_plan_id":"cebpf4jnsgd1na2vs0mg"},{"bike_id":"373cb557-ba27-44b4-ae77-5627bb7dd352","system_id":"levelo_inurba_marseille","lat":43.21197,"lon":5.35088,"is_reserved":false,"is_disabled":true,"rental_uris":{"android":"levelo://app?vid=373cb557-ba27-44b4-ae77-5627bb7dd352","ios":"levelo://app?vid=373cb557-ba27-44b4-ae77-5627bb7dd352"},"vehicle_type_id":"4","last_reported":1769728564,"current_range_meters":8800,"station_id":"st_cvj6sg6p6f1abm77japg","pricing_plan_id":"cebpf4jnsgd1na2vs0mg"},{"bike_id":"ec202791-c601-4e25-a0c3-69c3dbca2c2d","system_id":"levelo_inurba_marseille","lat":43.28745,"lon":5.36028,"is_reserved":false,"is_disabled":false,"rental_uris":{"android":"levelo://app?vid=ec202791-c601-4e25-a0c3-69c3dbca2c2d","ios":"levelo://app?vid=ec202791-c601-4e25-a0c3-69c3dbca2c2d"},"vehicle_type_id":"4","last_reported":1769728564,"current_range_meters":8800,"station_id":"cki0cbj6b192h4jlfktg","pricing_plan_id":"cebpf4jnsgd1na2vs0mg"},{"bike_id":"bfbe6d55-a30d-484d-8a59-70e822a30755","system_id":"levelo_inurba_marseille","lat":43.27538,"lon":5.38461,"is_reserved":false,"is_disabled":true,"rental_uris":{"android":"levelo://app?vid=bfbe6d55-a30d-484d-8a59-70e822a30755","ios":"levelo://app?vid=bfbe6d55-a30d-484d-8a59-70e822a30755"},"vehicle_type_id":"4","last_reported":1769728564,"current_range_meters":8800,"station_id":"ce4bhh92rcd13ifvqfi0","pricing_plan_id":"cebpf4jnsgd1na2vs0mg"},{"bike_id":"2df9030d-6c25-4dc0-bc21-63baca4f120b","system_id":"levelo_inurba_marseille","lat":43.29989,"lon":5.37159,"is_reserved":false,"is_disabled":false,"rental_uris":{"android":"levelo://app?vid=2df9030d-6c25-4dc0-bc21-63baca4f120b","ios":"levelo://app?vid=2df9030d-6c25-4dc0-bc21-63baca4f120b"},"vehicle_type_id":"4","last_reported":1769728564,"current_range_meters":8800,"station_id":"ce4bgr92rcd13ifvqc7g","pricing_plan_id":"cebpf4jnsgd1na2vs0mg"},{"bike_id":"3af55920-8ea4-4dcf-b704-9627bf6a449d","system_id":"levelo_inurba_marseille","lat":43.29639,"lon":5.40597,"is_reserved":false,"is_disabled":false,"rental_uris":{"android":"levelo://app?vid=3af55920-8ea4-4dcf-b704-9627bf6a449d","ios":"levelo://app?vid=3af55920-8ea4-4dcf-b704-9627bf6a449d"},"vehicle_type_id":"4","last_reported":1769728564,"current_range_meters":8800,"station_id":"ce4bh0h2rcd13ifvqd60","pricing_plan_id":"cebpf4jnsgd1na2vs0mg"},{"bike_id":"d6302d68-7b42-4f4b-8cf5-9d327e7d32d4","system_id":"levelo_inurba_marseille","lat":43.29455,"lon":5.39751,"is_reserved":false,"is_disabled":false,"rental_uris":{"android":"levelo://app?vid=d6302d68-7b42-4f4b-8cf5-9d327e7d32d4","ios":"levelo://app?vid=d6302d68-7b42-4f4b-8cf5-9d327e7d32d4"},"vehicle_type_id":"4","last_reported":1769728564,"current_range_meters":8800,"station_id":"ce4bh3h2rcd13ifvqdo0","pricing_plan_id":"cebpf4jnsgd1na2vs0mg"},{"bike_id":"f63d2d15-f1d9-4a97-b06f-c9cfd1206564","system_id":"levelo_inurba_marseille","lat":43.26559,"lon":5.40317,"is_reserved":false,"is_disabled":false,"rental_uris":{"android":"levelo://app?vid=f63d2d15-f1d9-4a97-b06f-c9cfd1206564","ios":"levelo://app?vid=f63d2d15-f1d9-4a97-b06f-c9cfd1206564"},"vehicle_type_id":"4","last_reported":1769728564,"current_range_meters":8800,"station_id":"ce4bhmp2rcd13ifvqgng","pricing_plan_id":"cebpf4jnsgd1na2vs0mg"},{"bike_id":"1092286b-56a5-44dc-bb84-f3ca8bcea9e8","system_id":"levelo_inurba_marseille","lat":43.24683,"lon":5.3816,"is_reserved":false,"is_disabled":false,"rental_uris":{"android":"levelo://app?vid=1092286b-56a5-44dc-bb84-f3ca8bcea9e8","ios":"levelo://app?vid=1092286b-56a5-44dc-bb84-f3ca8bcea9e8"},"vehicle_type_id":"4","last_reported":1769728564,"current_range_meters":8800,"station_id":"ce4bhih2rcd13ifvqfr0","pricing_plan_id":"cebpf4jnsgd1na2vs0mg"},{"bike_id":"90264e01-eab1-4c64-b49c-0b83b4dd4621","system_id":"levelo_inurba_marseille","lat":43.24171,"lon":5.36391,"is_reserved":false,"is_disabled":false,"rental_uris":{"android":"levelo://app?vid=90264e01-eab1-4c64-b49c-0b83b4dd4621","ios":"levelo://app?vid=90264e01-eab1-4c64-b49c-0b83b4dd4621"},"vehicle_type_id":"4","last_reported":1769728564,"current_range_meters":8800,"station_id":"cpo36qri1sfpv3e86is0","pricing_plan_id":"cebpf4jnsgd1na2vs0mg"},{"bike_id":"47f4e8ad-a175-423f-b496-f17d2e26cae3","system_id":"levelo_inurba_marseille","lat":43.31283,"lon":5.40174,"is_reserved":false,"is_disabled":false,"rental_uris":{"android":"levelo://app?vid=47f4e8ad-a175-423f-b496-f17d2e26cae3","ios":"levelo://app?vid=47f4e8ad-a175-423f-b496-f17d2e26cae3"},"vehicle_type_id":"4","last_reported":1769728564,"current_range_meters":8800,"station_id":"ce4bh092rcd13ifvqd30","pricing_plan_id":"cebpf4jnsgd1na2vs0mg"},{"bike_id":"c1c45377-a918-49c8-885c-ad440a5ea89c","system_id":"levelo_inurba_marseille","lat":43.24946,"lon":5.40484,"is_reserved":false,"is_disabled":false,"rental_uris":{"android":"levelo://app?vid=c1c45377-a918-49c8-885c-ad440a5ea89c","ios":"levelo://app?vid=c1c45377-a918-49c8-885c-ad440a5ea89c"},"vehicle_type_id":"4","last_reported":1769728564,"current_range_meters":8800,"station_id":"st_d2ngiaodas8pm72gd1h0","pricing_plan_id":"cebpf4jnsgd1na2vs0mg"},{"bike_id":"d9e74e48-23e6-471a-b00e-c0252f599ae5","system_id":"levelo_inurba_marseille","lat":43.27065,"lon":5.38312,"is_reserved":false,"is_disabled":false,"rental_uris":{"android":"levelo://app?vid=d9e74e48-23e6-471a-b00e-c0252f599ae5","ios":"levelo://app?vid=d9e74e48-23e6-471a-b00e-c0252f599ae5"},"vehicle_type_id":"4","last_reported":1769728564,"current_range_meters":8800,"station_id":"st_d3n2fo6cfp8s73cte1j0","pricing_plan_id":"cebpf4jnsgd1na2vs0mg"},{"bike_id":"97519bfc-e1da-4afb-9c68-d09639f95f5e","system_id":"levelo_inurba_marseille","lat":43.24936,"lon":5.40499,"is_reserved":false,"is_disabled":false,"rental_uris":{"android":"levelo://app?vid=97519bfc-e1da-4afb-9c68-d09639f95f5e","ios":"levelo://app?vid=97519bfc-e1da-4afb-9c68-d09639f95f5e"},"vehicle_type_id":"4","last_reported":1769728564,"current_range_meters":9200,"station_id":"st_d2ngiaodas8pm72gd1h0","pricing_plan_id":"cebpf4jnsgd1na2vs0mg"},{"bike_id":"9a926772-8ba3-485a-b594-ec31acc2f1b6","system_id":"levelo_inurba_marseille","lat":43.29804,"lon":5.37381,"is_reserved":false,"is_disabled":false,"rental_uris":{"android":"levelo://app?vid=9a926772-8ba3-485a-b594-ec31acc2f1b6","ios":"levelo://app?vid=9a926772-8ba3-485a-b594-ec31acc2f1b6"},"vehicle_type_id":"4","last_reported":1769728564,"current_range_meters":9200,"station_id":"","pricing_plan_id":"cebpf4jnsgd1na2vs0mg"},{"bike_id":"29e73137-1305-49e2-9fe3-fccb79b1446c","system_id":"levelo_inurba_marseille","lat":43.29549,"lon":5.3902,"is_reserved":false,"is_disabled":false,"rental_uris":{"android":"levelo://app?vid=29e73137-1305-49e2-9fe3-fccb79b1446c","ios":"levelo://app?vid=29e73137-1305-49e2-9fe3-fccb79b1446c"},"vehicle_type_id":"4","last_reported":1769728564,"current_range_meters":9200,"station_id":"ce4bh3p2rcd13ifvqdp0","pricing_plan_id":"cebpf4jnsgd1na2vs0mg"},{"bike_id":"805015d0-c12d-4724-9c74-0106ed455fd9","system_id":"levelo_inurba_marseille","lat":43.249522,"lon":5.404914,"is_reserved":false,"is_disabled":false,"rental_uris":{"android":"levelo://app?vid=805015d0-c12d-4724-9c74-0106ed455fd9","ios":"levelo://app?vid=805015d0-c12d-4724-9c74-0106ed455fd9"},"vehicle_type_id":"4","last_reported":1769728564,"current_range_meters":9200,"station_id":"st_d2ngiaodas8pm72gd1h0","pricing_plan_id":"cebpf4jnsgd1na2vs0mg"},{"bike_id":"be405149-5ca4-4ebc-92a4-97894aaa4423","system_id":"levelo_inurba_marseille","lat":43.2968,"lon":5.36615,"is_reserved":false,"is_disabled":false,"rental_uris":{"android":"levelo://app?vid=be405149-5ca4-4ebc-92a4-97894aaa4423","ios":"levelo://app?vid=be405149-5ca4-4ebc-92a4-97894aaa4423"},"vehicle_type_id":"4","last_reported":1769728564,"current_range_meters":9200,"station_id":"ce4bgn12rcd13ifvqbt0","pricing_plan_id":"cebpf4jnsgd1na2vs0mg"},{"bike_id":"af9ea201-ff7c-4d2e-b7aa-3d3209fcd437","system_id":"levelo_inurba_marseille","lat":43.28572,"lon":5.39492,"is_reserved":false,"is_disabled":false,"rental_uris":{"android":"levelo://app?vid=af9ea201-ff7c-4d2e-b7aa-3d3209fcd437","ios":"levelo://app?vid=af9ea201-ff7c-4d2e-b7aa-3d3209fcd437"},"vehicle_type_id":"4","last_reported":1769728564,"current_range_meters":9200,"station_id":"ce4bh292rcd13ifvqdg0","pricing_plan_id":"cebpf4jnsgd1na2vs0mg"},{"bike_id":"1615971e-faf9-4aed-ae8f-84cc964730ff","system_id":"levelo_inurba_marseille","lat":43.29431,"lon":5.39801,"is_reserved":false,"is_disabled":false,"rental_uris":{"android":"levelo://app?vid=1615971e-faf9-4aed-ae8f-84cc964730ff","ios":"levelo://app?vid=1615971e-faf9-4aed-ae8f-84cc964730ff"},"vehicle_type_id":"4","last_reported":1769728564,"current_range_meters":9200,"station_id":"ce4bh3h2rcd13ifvqdo0","pricing_plan_id":"cebpf4jnsgd1na2vs0mg"},{"bike_id":"a6eeddfb-d250-4cf9-af8f-13c22bb1c444","system_id":"levelo_inurba_marseille","lat":43.29562,"lon":5.37503,"is_reserved":false,"is_disabled":false,"rental_uris":{"android":"levelo://app?vid=a6eeddfb-d250-4cf9-af8f-13c22bb1c444","ios":"levelo://app?vid=a6eeddfb-d250-4cf9-af8f-13c22bb1c444"},"vehicle_type_id":"4","last_reported":1769728564,"current_range_meters":9200,"station_id":"ce4bgh92rcd13ifvqb50","pricing_plan_id":"cebpf4jnsgd1na2vs0mg"},{"bike_id":"60601e53-e690-41e3-9640-0b5d8353d610","system_id":"levelo_inurba_marseille","lat":43.22926,"lon":5.35385,"is_reserved":false,"is_disabled":false,"rental_uris":{"android":"levelo://app?vid=60601e53-e690-41e3-9640-0b5d8353d610","ios":"levelo://app?vid=60601e53-e690-41e3-9640-0b5d8353d610"},"vehicle_type_id":"4","last_reported":1769728564,"current_range_meters":9200,"station_id":"cpo3532slgdg3j2ikp40","pricing_plan_id":"cebpf4jnsgd1na2vs0mg"},{"bike_id":"5f8af22f-9203-4ec9-816f-1618d1060df6","system_id":"levelo_inurba_marseille","lat":43.32499,"lon":5.38302,"is_reserved":false,"is_disabled":false,"rental_uris":{"android":"levelo://app?vid=5f8af22f-9203-4ec9-816f-1618d1060df6","ios":"levelo://app?vid=5f8af22f-9203-4ec9-816f-1618d1060df6"},"vehicle_type_id":"4","last_reported":1769728564,"current_range_meters":9200,"station_id":"st_d4asgbiv49dc73anf9m0","pricing_plan_id":"cebpf4jnsgd1na2vs0mg"},{"bike_id":"0e79c48d-cdc7-44eb-ad7d-d24757dd50e7","system_id":"levelo_inurba_marseille","lat":43.323508,"lon":5.367418,"is_reserved":false,"is_disabled":false,"rental_uris":{"android":"levelo://app?vid=0e79c48d-cdc7-44eb-ad7d-d24757dd50e7","ios":"levelo://app?vid=0e79c48d-cdc7-44eb-ad7d-d24757dd50e7"},"vehicle_type_id":"4","last_reported":1769728564,"current_range_meters":9200,"station_id":"ce4bhsh2rcd13ifvqi2g","pricing_plan_id":"cebpf4jnsgd1na2vs0mg"},{"bike_id":"3ee7a6de-8f62-4cb8-912d-49d8e3d01f12","system_id":"levelo_inurba_marseille","lat":43.3116,"lon":5.38685,"is_reserved":false,"is_disabled":false,"rental_uris":{"android":"levelo://app?vid=3ee7a6de-8f62-4cb8-912d-49d8e3d01f12","ios":"levelo://app?vid=3ee7a6de-8f62-4cb8-912d-49d8e3d01f12"},"vehicle_type_id":"4","last_reported":1769728564,"current_range_meters":9200,"station_id":"ce4bgv12rcd13ifvqcp0","pricing_plan_id":"cebpf4jnsgd1na2vs0mg"},{"bike_id":"da593093-ad62-477d-ac50-f295ce07feee","system_id":"levelo_inurba_marseille","lat":43.30317,"lon":5.40438,"is_reserved":false,"is_disabled":false,"rental_uris":{"android":"levelo://app?vid=da593093-ad62-477d-ac50-f295ce07feee","ios":"levelo://app?vid=da593093-ad62-477d-ac50-f295ce07feee"},"vehicle_type_id":"4","last_reported":1769728564,"current_range_meters":9200,"station_id":"ce4bh012rcd13ifvqd10","pricing_plan_id":"cebpf4jnsgd1na2vs0mg"},{"bike_id":"9c59ba21-0bbc-41c2-a99b-53e9947bdf47","system_id":"levelo_inurba_marseille","lat":43.30379,"lon":5.42485,"is_reserved":false,"is_disabled":false,"rental_uris":{"android":"levelo://app?vid=9c59ba21-0bbc-41c2-a99b-53e9947bdf47","ios":"levelo://app?vid=9c59ba21-0bbc-41c2-a99b-53e9947bdf47"},"vehicle_type_id":"4","last_reported":1769728564,"current_range_meters":9200,"station_id":"ce4bhoh2rcd13ifvqh6g","pricing_plan_id":"cebpf4jnsgd1na2vs0mg"},{"bike_id":"c1f3659c-a4f7-43fe-99b7-8decc6038ceb","system_id":"levelo_inurba_marseille","lat":43.28924,"lon":5.38735,"is_reserved":false,"is_disabled":false,"rental_uris":{"android":"levelo://app?vid=c1f3659c-a4f7-43fe-99b7-8decc6038ceb","ios":"levelo://app?vid=c1f3659c-a4f7-43fe-99b7-8decc6038ceb"},"vehicle_type_id":"4","last_reported":1769728564,"current_range_meters":9200,"station_id":"","pricing_plan_id":"cebpf4jnsgd1na2vs0mg"},{"bike_id":"dd50cae2-caff-499c-9e2d-5c2af21c5076","system_id":"levelo_inurba_marseille","lat":43.28854,"lon":5.35848,"is_reserved":false,"is_disabled":false,"rental_uris":{"android":"levelo://app?vid=dd50cae2-caff-499c-9e2d-5c2af21c5076","ios":"levelo://app?vid=dd50cae2-caff-499c-9e2d-5c2af21c5076"},"vehicle_type_id":"4","last_reported":1769728564,"current_range_meters":9200,"station_id":"ce4bhb12rcd13ifvqem0","pricing_plan_id":"cebpf4jnsgd1na2vs0mg"},{"bike_id":"76baf766-279c-4d54-8cc8-d388bd84f801","system_id":"levelo_inurba_marseille","lat":43.286283,"lon":5.350699,"is_reserved":false,"is_disabled":false,"rental_uris":{"android":"levelo://app?vid=76baf766-279c-4d54-8cc8-d388bd84f801","ios":"levelo://app?vid=76baf766-279c-4d54-8cc8-d388bd84f801"},"vehicle_type_id":"4","last_reported":1769728564,"current_range_meters":9200,"station_id":"ce4bhch2rcd13ifvqeug","pricing_plan_id":"cebpf4jnsgd1na2vs0mg"},{"bike_id":"c15bf6ee-369d-4dc7-89fc-91442ce5cab3","system_id":"levelo_inurba_marseille","lat":43.29866,"lon":5.43638,"is_reserved":false,"is_disabled":false,"rental_uris":{"android":"levelo://app?vid=c15bf6ee-369d-4dc7-89fc-91442ce5cab3","ios":"levelo://app?vid=c15bf6ee-369d-4dc7-89fc-91442ce5cab3"},"vehicle_type_id":"4","last_reported":1769728564,"current_range_meters":9200,"station_id":"ce4bhpp2rcd13ifvqhfg","pricing_plan_id":"cebpf4jnsgd1na2vs0mg"},{"bike_id":"65b759d9-e66a-4cc0-915d-2e8ad0441e0c","system_id":"levelo_inurba_marseille","lat":43.31216,"lon":5.3865,"is_reserved":false,"is_disabled":false,"rental_uris":{"android":"levelo://app?vid=65b759d9-e66a-4cc0-915d-2e8ad0441e0c","ios":"levelo://app?vid=65b759d9-e66a-4cc0-915d-2e8ad0441e0c"},"vehicle_type_id":"4","last_reported":1769728564,"current_range_meters":9200,"station_id":"","pricing_plan_id":"cebpf4jnsgd1na2vs0mg"},{"bike_id":"0f05e83f-77ca-4504-b9cf-cc69291ac8d4","system_id":"levelo_inurba_marseille","lat":43.27044,"lon":5.38283,"is_reserved":false,"is_disabled":false,"rental_uris":{"android":"levelo://app?vid=0f05e83f-77ca-4504-b9cf-cc69291ac8d4","ios":"levelo://app?vid=0f05e83f-77ca-4504-b9cf-cc69291ac8d4"},"vehicle_type_id":"4","last_reported":1769728564,"current_range_meters":9600,"station_id":"st_d3n2fo6cfp8s73cte1j0","pricing_plan_id":"cebpf4jnsgd1na2vs0mg"},