{"last_updated":1680451653,"ttl":30,"version":"2.2","data":{"bikes":[{"bike_id":"b91c0db9-fef8-47fb-b3c8-20dcdeb1e590","system_id":"levelo_inurba_marseille","lat":43.31227,"lon":5.3686,"is_reserved":false,"is_disabled":false,"rental_uris":{"android":"levelo://app?vid=b91c0db9-fef8-47fb-b3c8-20dcdeb1e590","ios":"levelo://app?vid=b91c0db9-fef8-47fb-b3c8-20dcdeb1e590"},"vehicle_type_id":"4","last_reported":1680451653,"current_range_meters":0,"station_id":"ce4bgl92rcd13ifvqbq0","pricing_plan_id":"free"},{"bike_id":"6f754196-5021-4914-af2a-1ee66793f6fa","system_id":"levelo_inurba_marseille","lat":43.30764,"lon":5.36706,"is_reserved":false,"is_disabled":false,"rental_uris":{"android":"levelo://app?vid=6f754196-5021-4914-af2a-1ee66793f6fa","ios":"levelo://app?vid=6f754196-5021-4914-af2a-1ee66793f6fa"},"vehicle_type_id":"4","last_reported":1680451653,"current_range_meters":2000,"station_id":"","pricing_plan_id":"free"},{"bike_id":"1ad7f0fa-6254-444d-8661-869880332734","system_id":"levelo_inurba_marseille","lat":43.30755,"lon":5.3671,"is_reserved":false,"is_disabled":false,"rental_uris":{"android":"levelo://app?vid=1ad7f0fa-6254-444d-8661-869880332734","ios":"levelo://app?vid=1ad7f0fa-6254-444d-8661-869880332734"},"vehicle_type_id":"4","last_reported":1680451653,"current_range_meters":31200,"station_id":"ce4bgn92rcd13ifvqbvg","pricing_plan_id":"free"},{"bike_id":"e981694c-003e-4e7b-a776-eb6ee307589f","system_id":"levelo_inurba_marseille","lat":43.315457,"lon":5.37307,"is_reserved":false,"is_disabled":false,"rental_uris":{"android":"levelo://app?vid=e981694c-003e-4e7b-a776-eb6ee307589f","ios":"levelo://app?vid=e981694c-003e-4e7b-a776-eb6ee307589f"},"vehicle_type_id":"4","last_reported":1680451653,"current_range_meters":400,"station_id":"ce4bhs92rcd13ifvqi0g","pricing_plan_id":"free"},{"bike_id":"a2f770d2-1247-41b8-9ee6-003dad72e186","system_id":"levelo_inurba_marseille","lat":43.30497,"lon":5.36552,"is_reserved":false,"is_disabled":false,"rental_uris":{"android":"levelo://app?vid=a2f770d2-1247-41b8-9ee6-003dad72e186","ios":"levelo://app?vid=a2f770d2-1247-41b8-9ee6-003dad72e186"},"vehicle_type_id":"4","last_reported":1680451653,"current_range_meters":0,"station_id":"","pricing_plan_id":"free"},{"bike_id":"d1b4a2f9-29d3-48f5-8eb3-727e33a0a88a","system_id":"levelo_inurba_marseille","lat":43.3049,"lon":5.36711,"is_reserved":false,"is_disabled":false,"rental_uris":{"android":"levelo://app?vid=d1b4a2f9-29d3-48f5-8eb3-727e33a0a88a","ios":"levelo://app?vid=d1b4a2f9-29d3-48f5-8eb3-727e33a0a88a"},"vehicle_type_id":"4","last_reported":1680451653,"current_range_meters":0,"station_id":"ce4bgh92rcd13ifvqb50","pricing_plan_id":"free"},{"bike_id":"dd2eba70-61f6-45c3-a937-31eff5c2ae6d","system_id":"levelo_inurba_marseille","lat":43.30494,"lon":5.3693,"is_reserved":false,"is_disabled":false,"rental_uris":{"android":"levelo://app?vid=dd2eba70-61f6-45c3-a937-31eff5c2ae6d","ios":"levelo://app?vid=dd2eba70-61f6-45c3-a937-31eff5c2ae6d"},"vehicle_type_id":"4","last_reported":1680451653,"current_range_meters":2400,"station_id":"ce4bhh12rcd13ifvqff0","pricing_plan_id":"free"},{"bike_id":"cd51c82c-a857-4fd3-9b09-99a1fb0aa78c","system_id":"levelo_inurba_marseille","lat":43.30856,"lon":5.3766,"is_reserved":false,"is_disabled":false,"rental_uris":{"android":"levelo://app?vid=cd51c82c-a857-4fd3-9b09-99a1fb0aa78c","ios":"levelo://app?vid=cd51c82c-a857-4fd3-9b09-99a1fb0aa78c"},"vehicle_type_id":"4","last_reported":1680451653,"current_range_meters":21200,"station_id":"","pricing_plan_id":"free"},{"bike_id":"e2644557-60c7-4a2f-9b50-d5a3e393e271","system_id":"levelo_inurba_marseille","lat":43.31112,"lon":5.37797,"is_reserved":false,"is_disabled":false,"rental_uris":{"android":"levelo://app?vid=e2644557-60c7-4a2f-9b50-d5a3e393e271","ios":"levelo://app?vid=e2644557-60c7-4a2f-9b50-d5a3e393e271"},"vehicle_type_id":"4","last_reported":1680451653,"current_range_meters":0,"station_id":"","pricing_plan_id":"free"},{"bike_id":"b4c19f15-b23d-4524-8fcc-2cb390102d83","system_id":"levelo_inurba_marseille","lat":43.31991,"lon":5.37644,"is_reserved":false,"is_disabled":false,"rental_uris":{"android":"levelo://app?vid=b4c19f15-b23d-4524-8fcc-2cb390102d83","ios":"levelo://app?vid=b4c19f15-b23d-4524-8fcc-2cb390102d83"},"vehicle_type_id":"4","last_reported":1680451653,"current_range_meters":29200,"station_id":"","pricing_plan_id":"free"},{"bike_id":"5d517bd9-7c8a-4ab9-9df4-956dfdb1fc4d","system_id":"levelo_inurba_marseille","lat":43.31996,"lon":5.37641,"is_reserved":false,"is_disabled":false,"rental_uris":{"android":"levelo://app?vid=5d517bd9-7c8a-4ab9-9df4-956dfdb1fc4d","ios":"levelo://app?vid=5d517bd9-7c8a-4ab9-9df4-956dfdb1fc4d"},"vehicle_type_id":"4","last_reported":1680451653,"current_range_meters":25200,"station_id":"","pricing_plan_id":"free"},{"bike_id":"c4e816b0-d656-47d5-a90c-ae0b2e435747","system_id":"levelo_inurba_marseille","lat":43.30062,"lon":5.36665,"is_reserved":false,"is_disabled":false,"rental_uris":{"android":"levelo://app?vid=c4e816b0-d656-47d5-a90c-ae0b2e435747","ios":"levelo://app?vid=c4e816b0-d656-47d5-a90c-ae0b2e435747"},"vehicle_type_id":"4","last_reported":1680451653,"current_range_meters":0,"station_id":"","pricing_plan_id":"free"},{"bike_id":"a59f7657-3ad6-408a-9758-6d5275ab6ef7","system_id":"levelo_inurba_marseille","lat":43.31548,"lon":5.38379,"is_reserved":false,"is_disabled":false,"rental_uris":{"android":"levelo://app?vid=a59f7657-3ad6-408a-9758-6d5275ab6ef7","ios":"levelo://app?vid=a59f7657-3ad6-408a-9758-6d5275ab6ef7"},"vehicle_type_id":"4","last_reported":1680451653,"current_range_meters":0,"station_id":"","pricing_plan_id":"free"},{"bike_id":"68529e2b-f986-4fc4-9300-9d9a114ea1d6","system_id":"levelo_inurba_marseille","lat":43.30057,"lon":5.3774,"is_reserved":false,"is_disabled":false,"rental_uris":{"android":"levelo://app?vid=68529e2b-f986-4fc4-9300-9d9a114ea1d6","ios":"levelo://app?vid=68529e2b-f986-4fc4-9300-9d9a114ea1d6"},"vehicle_type_id":"4","last_reported":1680451653,"current_range_meters":12000,"station_id":"","pricing_plan_id":"free"},{"bike_id":"7e89f55b-0c7c-4de2-8264-75403e9c437f","system_id":"levelo_inurba_marseille","lat":43.297774,"lon":5.370875,"is_reserved":false,"is_disabled":false,"rental_uris":{"android":"levelo://app?vid=7e89f55b-0c7c-4de2-8264-75403e9c437f","ios":"levelo://app?vid=7e89f55b-0c7c-4de2-8264-75403e9c437f"},"vehicle_type_id":"4","last_reported":1680451653,"current_range_meters":1200,"station_id":"ce4bgop2rcd13ifvqc1g","pricing_plan_id":"free"},{"bike_id":"b35a5b72-cd3c-479a-beab-d91774c236d5","system_id":"levelo_inurba_marseille","lat":43.328371,"lon":5.366909,"is_reserved":false,"is_disabled":false,"rental_uris":{"android":"levelo://app?vid=b35a5b72-cd3c-479a-beab-d91774c236d5","ios":"levelo://app?vid=b35a5b72-cd3c-479a-beab-d91774c236d5"},"vehicle_type_id":"4","last_reported":1680451653,"current_range_meters":4000,"station_id":"ce4bhs92rcd13ifvqi0g","pricing_plan_id":"free"},{"bike_id":"4f365e69-4f29-4c49-b6f5-bbafde44129f","system_id":"levelo_inurba_marseille","lat":43.328371,"lon":5.366909,"is_reserved":false,"is_disabled":false,"rental_uris":{"android":"levelo://app?vid=4f365e69-4f29-4c49-b6f5-bbafde44129f","ios":"levelo://app?vid=4f365e69-4f29-4c49-b6f5-bbafde44129f"},"vehicle_type_id":"4","last_reported":1680451653,"current_range_meters":0,"station_id":"ce4bhs92rcd13ifvqi0g","pricing_plan_id":"free"},{"bike_id":"3761f278-b2bf-467d-adfb-2f7c188642ba","system_id":"levelo_inurba_marseille","lat":43.3139,"lon":5.39051,"is_reserved":false,"is_disabled":false,"rental_uris":{"android":"levelo://app?vid=3761f278-b2bf-467d-adfb-2f7c188642ba","ios":"levelo://app?vid=3761f278-b2bf-467d-adfb-2f7c188642ba"},"vehicle_type_id":"4","last_reported":1680451653,"current_range_meters":22400,"station_id":"","pricing_plan_id":"free"},{"bike_id":"757906fc-4940-4a7e-ab93-001e8d54f1d1","system_id":"levelo_inurba_marseille","lat":43.30978,"lon":5.39035,"is_reserved":false,"is_disabled":false,"rental_uris":{"android":"levelo://app?vid=757906fc-4940-4a7e-ab93-001e8d54f1d1","ios":"levelo://app?vid=757906fc-4940-4a7e-ab93-001e8d54f1d1"},"vehicle_type_id":"4","last_reported":1680451653,"current_range_meters":18000,"station_id":"ce4bgup2rcd13ifvqco0","pricing_plan_id":"free"},{"bike_id":"5a20272c-5540-4a1f-8b02-b40d2af74bd7","system_id":"levelo_inurba_marseille","lat":43.29379,"lon":5.37267,"is_reserved":false,"is_disabled":false,"rental_uris":{"android":"levelo://app?vid=5a20272c-5540-4a1f-8b02-b40d2af74bd7","ios":"levelo://app?vid=5a20272c-5540-4a1f-8b02-b40d2af74bd7"},"vehicle_type_id":"4","last_reported":1680451653,"current_range_meters":13200,"station_id":"","pricing_plan_id":"free"},{"bike_id":"0a540b78-df41-4ba0-889d-add89c00e395","system_id":"levelo_inurba_marseille","lat":43.294048,"lon":5.374117,"is_reserved":false,"is_disabled":false,"rental_uris":{"android":"levelo://app?vid=0a540b78-df41-4ba0-889d-add89c00e395","ios":"levelo://app?vid=0a540b78-df41-4ba0-889d-add89c00e395"},"vehicle_type_id":"4","last_reported":1680451653,"current_range_meters":400,"station_id":"ce4bgjh2rcd13ifvqbf0","pricing_plan_id":"free"},{"bike_id":"f76759d3-62da-4dc2-990a-98f97c1a728e","system_id":"levelo_inurba_marseille","lat":43.29228,"lon":5.36177,"is_reserved":false,"is_disabled":false,"rental_uris":{"android":"levelo://app?vid=f76759d3-62da-4dc2-990a-98f97c1a728e","ios":"levelo://app?vid=f76759d3-62da-4dc2-990a-98f97c1a728e"},"vehicle_type_id":"4","last_reported":1680451653,"current_range_meters":0,"station_id":"ce4bhbh2rcd13ifvqeqg","pricing_plan_id":"free"},{"bike_id":"0ccf04af-1384-436d-932d-0a3831a8928f","system_id":"levelo_inurba_marseille","lat":43.309038,"lon":5.396546,"is_reserved":false,"is_disabled":false,"rental_uris":{"android":"levelo://app?vid=0ccf04af-1384-436d-932d-0a3831a8928f","ios":"levelo://app?vid=0ccf04af-1384-436d-932d-0a3831a8928f"},"vehicle_type_id":"4","last_reported":1680451653,"current_range_meters":400,"station_id":"ce4bh012rcd13ifvqcv0","pricing_plan_id":"free"},{"bike_id":"99840c2f-d7fd-4d20-9daa-bc33d56fb422","system_id":"levelo_inurba_marseille","lat":43.30209,"lon":5.39478,"is_reserved":false,"is_disabled":false,"rental_uris":{"android":"levelo://app?vid=99840c2f-d7fd-4d20-9daa-bc33d56fb422","ios":"levelo://app?vid=99840c2f-d7fd-4d20-9daa-bc33d56fb422"},"vehicle_type_id":"4","last_reported":1680451653,"current_range_meters":0,"station_id":"","pricing_plan_id":"free"},{"bike_id":"88d52c10-9d7a-416e-a4de-bb059276a939","system_id":"levelo_inurba_marseille","lat":43.289184,"lon":5.366408,"is_reserved":false,"is_disabled":false,"rental_uris":{"android":"levelo://app?vid=88d52c10-9d7a-416e-a4de-bb059276a939","ios":"levelo://app?vid=88d52c10-9d7a-416e-a4de-bb059276a939"},"vehicle_type_id":"4","last_reported":1680451653,"current_range_meters":26800,"station_id":"ce4bhap2rcd13ifvqek0","pricing_plan_id":"free"},{"bike_id":"53aaf07b-0452-4e57-bd7b-171b807e4bfd","system_id":"levelo_inurba_marseille","lat":43.28942,"lon":5.36392,"is_reserved":false,"is_disabled":false,"rental_uris":{"android":"levelo://app?vid=53aaf07b-0452-4e57-bd7b-171b807e4bfd","ios":"levelo://app?vid=53aaf07b-0452-4e57-bd7b-171b807e4bfd"},"vehicle_type_id":"4","last_reported":1680451653,"current_range_meters":0,"station_id":"ce4bhh12rcd13ifvqff0","pricing_plan_id":"free"},{"bike_id":"4737e481-0b71-4c53-a25b-bbf13e5e7e4c","system_id":"levelo_inurba_marseille","lat":43.292644,"lon":5.384257,"is_reserved":false,"is_disabled":false,"rental_uris":{"android":"levelo://app?vid=4737e481-0b71-4c53-a25b-bbf13e5e7e4c","ios":"levelo://app?vid=4737e481-0b71-4c53-a25b-bbf13e5e7e4c"},"vehicle_type_id":"4","last_reported":1680451653,"current_range_meters":0,"station_id":"ce4bh692rcd13ifvqea0","pricing_plan_id":"free"},{"bike_id":"18224f97-905a-4084-817e-f4e6b1f18d7b","system_id":"levelo_inurba_marseille","lat":43.28877,"lon":5.3608,"is_reserved":false,"is_disabled":false,"rental_uris":{"android":"levelo://app?vid=18224f97-905a-4084-817e-f4e6b1f18d7b","ios":"levelo://app?vid=18224f97-905a-4084-817e-f4e6b1f18d7b"},"vehicle_type_id":"4","last_reported":1680451653,"current_range_meters":0,"station_id":"","pricing_plan_id":"free"},{"bike_id":"a4f864a1-e4e4-4673-b2a9-cc058212d4bd","system_id":"levelo_inurba_marseille","lat":43.2901,"lon":5.381269,"is_reserved":false,"is_disabled":false,"rental_uris":{"android":"levelo://app?vid=a4f864a1-e4e4-4673-b2a9-cc058212d4bd","ios":"levelo://app?vid=a4f864a1-e4e4-4673-b2a9-cc058212d4bd"},"vehicle_type_id":"4","last_reported":1680451653,"current_range_meters":0,"station_id":"ce4bh4p2rcd13ifvqe1g","pricing_plan_id":"free"},{"bike_id":"6274e74e-e4b8-494c-9625-add9298072c0","system_id":"levelo_inurba_marseille","lat":43.30739,"lon":5.40103,"is_reserved":false,"is_disabled":false,"rental_uris":{"android":"levelo://app?vid=6274e74e-e4b8-494c-9625-add9298072c0","ios":"levelo://app?vid=6274e74e-e4b8-494c-9625-add9298072c0"},"vehicle_type_id":"4","last_reported":1680451653,"current_range_meters":3600,"station_id":"","pricing_plan_id":"free"},{"bike_id":"8da554b7-a47d-4580-b62d-82b554803b69","system_id":"levelo_inurba_marseille","lat":43.33766,"lon":5.37468,"is_reserved":false,"is_disabled":false,"rental_uris":{"android":"levelo://app?vid=8da554b7-a47d-4580-b62d-82b554803b69","ios":"levelo://app?vid=8da554b7-a47d-4580-b62d-82b554803b69"},"vehicle_type_id":"4","last_reported":1680451653,"current_range_meters":23200,"station_id":"","pricing_plan_id":"free"},{"bike_id":"3640673e-7d0b-4013-bd35-f53434b66263","system_id":"levelo_inurba_marseille","lat":43.33139,"lon":5.39162,"is_reserved":false,"is_disabled":false,"rental_uris":{"android":"levelo://app?vid=3640673e-7d0b-4013-bd35-f53434b66263","ios":"levelo://app?vid=3640673e-7d0b-4013-bd35-f53434b66263"},"vehicle_type_id":"4","last_reported":1680451653,"current_range_meters":12000,"station_id":"","pricing_plan_id":"free"},{"bike_id":"60fe3f59-6f62-4984-aefb-445542735a8a","system_id":"levelo_inurba_marseille","lat":43.286039,"lon":5.370679,"is_reserved":false,"is_disabled":false,"rental_uris":{"android":"levelo://app?vid=60fe3f59-6f62-4984-aefb-445542735a8a","ios":"levelo://app?vid=60fe3f59-6f62-4984-aefb-445542735a8a"},"vehicle_type_id":"4","last_reported":1680451653,"current_range_meters":3200,"station_id":"ce4bht12rcd13ifvqi60","pricing_plan_id":"free"},{"bike_id":"c0ed812d-95d2-4727-a85b-e34d22b65577","system_id":"levelo_inurba_marseille","lat":43.284534,"lon":5.358662,"is_reserved":false,"is_disabled":false,"rental_uris":{"android":"levelo://app?vid=c0ed812d-95d2-4727-a85b-e34d22b65577","ios":"levelo://app?vid=c0ed812d-95d2-4727-a85b-e34d22b65577"},"vehicle_type_id":"4","last_reported":1680451653,"current_range_meters":13600,"station_id":"ce4bhah2rcd13ifvqei0","pricing_plan_id":"free"},{"bike_id":"58f84538-0c4a-4611-a2d9-0fd8698bd324","system_id":"levelo_inurba_marseille","lat":43.295713,"lon":5.399639,"is_reserved":false,"is_disabled":false,"rental_uris":{"android":"levelo://app?vid=58f84538-0c4a-4611-a2d9-0fd8698bd324","ios":"levelo://app?vid=58f84538-0c4a-4611-a2d9-0fd8698bd324"},"vehicle_type_id":"4","last_reported":1680451653,"current_range_meters":0,"station_id":"ce4bh312rcd13ifvqdj0","pricing_plan_id":"free"},{"bike_id":"7e880ec7-fc89-4738-8c26-c4568d67cf23","system_id":"levelo_inurba_marseille","lat":43.288501,"lon":5.393087,"is_reserved":false,"is_disabled":false,"rental_uris":{"android":"levelo://app?vid=7e880ec7-fc89-4738-8c26-c4568d67cf23","ios":"levelo://app?vid=7e880ec7-fc89-4738-8c26-c4568d67cf23"},"vehicle_type_id":"4","last_reported":1680451653,"current_range_meters":1200,"station_id":"ce4bh2p2rcd13ifvqdi0","pricing_plan_id":"free"},{"bike_id":"799cc239-e045-4014-b96f-a7628064e670","system_id":"levelo_inurba_marseille","lat":43.2835,"lon":5.38105,"is_reserved":false,"is_disabled":false,"rental_uris":{"android":"levelo://app?vid=799cc239-e045-4014-b96f-a7628064e670","ios":"levelo://app?vid=799cc239-e045-4014-b96f-a7628064e670"},"vehicle_type_id":"4","last_reported":1680451653,"current_range_meters":22000,"station_id":"","pricing_plan_id":"free"},{"bike_id":"c168d310-f731-4787-a221-3bcfd578f6db","system_id":"levelo_inurba_marseille","lat":43.284217,"lon":5.349697,"is_reserved":false,"is_disabled":false,"rental_uris":{"android":"levelo://app?vid=c168d310-f731-4787-a221-3bcfd578f6db","ios":"levelo://app?vid=c168d310-f731-4787-a221-3bcfd578f6db"},"vehicle_type_id":"4","last_reported":1680451653,"current_range_meters":800,"station_id":"ce4bhbh2rcd13ifvqepg","pricing_plan_id":"free"},{"bike_id":"922d404e-c1ca-4ff0-8987-a6bc8afdeff5","system_id":"levelo_inurba_marseille","lat":43.284219,"lon":5.3497,"is_reserved":false,"is_disabled":false,"rental_uris":{"android":"levelo://app?vid=922d404e-c1ca-4ff0-8987-a6bc8afdeff5","ios":"levelo://app?vid=922d404e-c1ca-4ff0-8987-a6bc8afdeff5"},"vehicle_type_id":"4","last_reported":1680451653,"current_range_meters":0,"station_id":"ce4bhbh2rcd13ifvqepg","pricing_plan_id":"free"},{"bike_id":"ce74446c-d71b-457b-89d3-97fc203533ce","system_id":"levelo_inurba_marseille","lat":43.284219,"lon":5.3497,"is_reserved":false,"is_disabled":false,"rental_uris":{"android":"levelo://app?vid=ce74446c-d71b-457b-89d3-97fc203533ce","ios":"levelo://app?vid=ce74446c-d71b-457b-89d3-97fc203533ce"},"vehicle_type_id":"4","last_reported":1680451653,"current_range_meters":4400,"station_id":"ce4bhbh2rcd13ifvqepg","pricing_plan_id":"free"},{"bike_id":"a24cf139-89de-45cf-ba1a-6241721cf921","system_id":"levelo_inurba_marseille","lat":43.281044,"lon":5.378308,"is_reserved":false,"is_disabled":false,"rental_uris":{"android":"levelo://app?vid=a24cf139-89de-45cf-ba1a-6241721cf921","ios":"levelo://app?vid=a24cf139-89de-45cf-ba1a-6241721cf921"},"vehicle_type_id":"4","last_reported":1680451653,"current_range_meters":18000,"station_id":"ce4bha12rcd13ifvqee0","pricing_plan_id":"free"},{"bike_id":"2fd33ec5-b715-424c-9272-634f3b8142f2","system_id":"levelo_inurba_marseille","lat":43.281044,"lon":5.378308,"is_reserved":false,"is_disabled":false,"rental_uris":{"android":"levelo://app?vid=2fd33ec5-b715-424c-9272-634f3b8142f2","ios":"levelo://app?vid=2fd33ec5-b715-424c-9272-634f3b8142f2"},"vehicle_type_id":"4","last_reported":1680451653,"current_range_meters":10400,"station_id":"ce4bha12rcd13ifvqee0","pricing_plan_id":"free"},{"bike_id":"eb91adf9-51aa-409b-a8e4-156060f884d2","system_id":"levelo_inurba_marseille","lat":43.284462,"lon":5.392121,"is_reserved":false,"is_disabled":false,"rental_uris":{"android":"levelo://app?vid=eb91adf9-51aa-409b-a8e4-156060f884d2","ios":"levelo://app?vid=eb91adf9-51aa-409b-a8e4-156060f884d2"},"vehicle_type_id":"4","last_reported":1680451653,"current_range_meters":400,"station_id":"ce4bhoh2rcd13ifvqh5g","pricing_plan_id":"free"},{"bike_id":"a91ef38a-9bbc-4be6-9037-47a71b56d745","system_id":"levelo_inurba_marseille","lat":43.304188,"lon":5.412904,"is_reserved":false,"is_disabled":false,"rental_uris":{"android":"levelo://app?vid=a91ef38a-9bbc-4be6-9037-47a71b56d745","ios":"levelo://app?vid=a91ef38a-9bbc-4be6-9037-47a71b56d745"},"vehicle_type_id":"4","last_reported":1680451653,"current_range_meters":2000,"station_id":"ce4bhop2rcd13ifvqh8g","pricing_plan_id":"free"},{"bike_id":"bccbe161-ae10-4327-981a-c374c0460675","system_id":"levelo_inurba_marseille","lat":43.292571,"lon":5.409107,"is_reserved":false,"is_disabled":false,"rental_uris":{"android":"levelo://app?vid=bccbe161-ae10-4327-981a-c374c0460675","ios":"levelo://app?vid=bccbe161-ae10-4327-981a-c374c0460675"},"vehicle_type_id":"4","last_reported":1680451653,"current_range_meters":0,"station_id":"ce4bh192rcd13ifvqdc0","pricing_plan_id":"free"},{"bike_id":"c9c82176-155e-42c9-b542-69852f5cb823","system_id":"levelo_inurba_marseille","lat":43.273613,"lon":5.362705,"is_reserved":false,"is_disabled":false,"rental_uris":{"android":"levelo://app?vid=c9c82176-155e-42c9-b542-69852f5cb823","ios":"levelo://app?vid=c9c82176-155e-42c9-b542-69852f5cb823"},"vehicle_type_id":"4","last_reported":1680451653,"current_range_meters":0,"station_id":"ce4bhbh2rcd13ifvqeo0","pricing_plan_id":"free"},{"bike_id":"84006290-b13c-40b7-9c04-5a7057b9eac5","system_id":"levelo_inurba_marseille","lat":43.295572,"lon":5.422907,"is_reserved":false,"is_disabled":false,"rental_uris":{"android":"levelo://app?vid=84006290-b13c-40b7-9c04-5a7057b9eac5","ios":"levelo://app?vid=84006290-b13c-40b7-9c04-5a7057b9eac5"},"vehicle_type_id":"4","last_reported":1680451653,"current_range_meters":3200,"station_id":"","pricing_plan_id":"free"},{"bike_id":"5f09733f-da0e-4179-8247-762d317ebfef","system_id":"levelo_inurba_marseille","lat":43.272124,"lon":5.391768,"is_reserved":false,"is_disabled":false,"rental_uris":{"android":"levelo://app?vid=5f09733f-da0e-4179-8247-762d317ebfef","ios":"levelo://app?vid=5f09733f-da0e-4179-8247-762d317ebfef"},"vehicle_type_id":"4","last_reported":1680451653,"current_range_meters":0,"station_id":"ce4bhhp2rcd13ifvqfm0","pricing_plan_id":"free"},{"bike_id":"4c4809be-700e-4de0-a1b1-b92da3de255b","system_id":"levelo_inurba_marseille","lat":43.269467,"lon":5.386439,"is_reserved":false,"is_disabled":false,"rental_uris":{"android":"levelo://app?vid=4c4809be-700e-4de0-a1b1-b92da3de255b","ios":"levelo://app?vid=4c4809be-700e-4de0-a1b1-b92da3de255b"},"vehicle_type_id":"4","last_reported":1680451653,"current_range_meters":1200,"station_id":"ce4bhh92rcd13ifvqfh0","pricing_plan_id":"free"},{"bike_id":"1a0c6be5-99a3-4a9f-b407-7df72aa0b6a6","system_id":"levelo_inurba_marseille","lat":43.29184,"lon":5.42259,"is_reserved":false,"is_disabled":false,"rental_uris":{"android":"levelo://app?vid=1a0c6be5-99a3-4a9f-b407-7df72aa0b6a6","ios":"levelo://app?vid=1a0c6be5-99a3-4a9f-b407-7df72aa0b6a6"},"vehicle_type_id":"4","last_reported":1680451653,"current_range_meters":16000,"station_id":"","pricing_plan_id":"free"},{"bike_id":"84227c99-5db0-491e-914b-315dabc38a69","system_id":"levelo_inurba_marseille","lat":43.26681,"lon":5.382694,"is_reserved":false,"is_disabled":false,"rental_uris":{"android":"levelo://app?vid=84227c99-5db0-491e-914b-315dabc38a69","ios":"levelo://app?vid=84227c99-5db0-491e-914b-315dabc38a69"},"vehicle_type_id":"4","last_reported":1680451653,"current_range_meters":29200,"station_id":"ce4bhg92rcd13ifvqf90","pricing_plan_id":"free"},{"bike_id":"0ef46003-2205-40ff-8304-0903afe572b5","system_id":"levelo_inurba_marseille","lat":43.26681,"lon":5.382694,"is_reserved":false,"is_disabled":false,"rental_uris":{"android":"levelo://app?vid=0ef46003-2205-40ff-8304-0903afe572b5","ios":"levelo://app?vid=0ef46003-2205-40ff-8304-0903afe572b5"},"vehicle_type_id":"4","last_reported":1680451653,"current_range_meters":1600,"station_id":"ce4bhg92rcd13ifvqf90","pricing_plan_id":"free"},{"bike_id":"cddf1a07-f629-45b8-ae65-f618ed59d24f","system_id":"levelo_inurba_marseille","lat":43.27996,"lon":5.416624,"is_reserved":false,"is_disabled":false,"rental_uris":{"android":"levelo://app?vid=cddf1a07-f629-45b8-ae65-f618ed59d24f","ios":"levelo://app?vid=cddf1a07-f629-45b8-ae65-f618ed59d24f"},"vehicle_type_id":"4","last_reported":1680451653,"current_range_meters":2800,"station_id":"ce4bho12rcd13ifvqh1g","pricing_plan_id":"free"},{"bike_id":"f13020d4-e915-42cd-aa1b-8bbb6e4feb4a","system_id":"levelo_inurba_marseille","lat":43.27996,"lon":5.416624,"is_reserved":false,"is_disabled":false,"rental_uris":{"android":"levelo://app?vid=f13020d4-e915-42cd-aa1b-8bbb6e4feb4a","ios":"levelo://app?vid=f13020d4-e915-42cd-aa1b-8bbb6e4feb4a"},"vehicle_type_id":"4","last_reported":1680451653,"current_range_meters":20000,"station_id":"ce4bho12rcd13ifvqh1g","pricing_plan_id":"free"},{"bike_id":"34a472b4-4606-4e1f-a351-fbaabb5e3258","system_id":"levelo_inurba_marseille","lat":43.267966,"lon":5.393976,"is_reserved":false,"is_disabled":false,"rental_uris":{"android":"levelo://app?vid=34a472b4-4606-4e1f-a351-fbaabb5e3258","ios":"levelo://app?vid=34a472b4-4606-4e1f-a351-fbaabb5e3258"},"vehicle_type_id":"4","last_reported":1680451653,"current_range_meters":2400,"station_id":"ce4bhh12rcd13ifvqfg0","pricing_plan_id":"free"},{"bike_id":"431628f8-9721-4580-9190-824ec6d35a59","system_id":"levelo_inurba_marseille","lat":43.267966,"lon":5.393976,"is_reserved":false,"is_disabled":false,"rental_uris":{"android":"levelo://app?vid=431628f8-9721-4580-9190-824ec6d35a59","ios":"levelo://app?vid=431628f8-9721-4580-9190-824ec6d35a59"},"vehicle_type_id":"4","last_reported":1680451653,"current_range_meters":21200,"station_id":"ce4bhh12rcd13ifvqfg0","pricing_plan_id":"free"},{"bike_id":"b2c7bce8-5cf6-4032-b9df-c6c284de2f59","system_id":"levelo_inurba_marseille","lat":43.267966,"lon":5.393976,"is_reserved":false,"is_disabled":false,"rental_uris":{"android":"levelo://app?vid=b2c7bce8-5cf6-4032-b9df-c6c284de2f59","ios":"levelo://app?vid=b2c7bce8-5cf6-4032-b9df-c6c284de2f59"},"vehicle_type_id":"4","last_reported":1680451653,"current_range_meters":2800,"station_id":"ce4bhh12rcd13ifvqfg0","pricing_plan_id":"free"},{"bike_id":"8565b192-07c7-422e-9c2c-a3b4d7c6c50d","system_id":"levelo_inurba_marseille","lat":43.2678,"lon":5.39427,"is_reserved":false,"is_disabled":false,"rental_uris":{"android":"levelo://app?vid=8565b192-07c7-422e-9c2c-a3b4d7c6c50d","ios":"levelo://app?vid=8565b192-07c7-422e-9c2c-a3b4d7c6c50d"},"vehicle_type_id":"4","last_reported":1680451653,"current_range_meters":14400,"station_id":"","pricing_plan_id":"free"},{"bike_id":"7ef6e2bb-8c8f-49b8-817a-349075313506","system_id":"levelo_inurba_marseille","lat":43.33446,"lon":5.42788,"is_reserved":false,"is_disabled":false,"rental_uris":{"android":"levelo://app?vid=7ef6e2bb-8c8f-49b8-817a-349075313506","ios":"levelo://app?vid=7ef6e2bb-8c8f-49b8-817a-349075313506"},"vehicle_type_id":"4","last_reported":1680451653,"current_range_meters":3200,"station_id":"","pricing_plan_id":"free"},{"bike_id":"33016e75-d804-4875-9a44-36e7cc5f50a2","system_id":"levelo_inurba_marseille","lat":43.33612,"lon":5.42714,"is_reserved":false,"is_disabled":false,"rental_uris":{"android":"levelo://app?vid=33016e75-d804-4875-9a44-36e7cc5f50a2","ios":"levelo://app?vid=33016e75-d804-4875-9a44-36e7cc5f50a2"},"vehicle_type_id":"4","last_reported":1680451653,"current_range_meters":10800,"station_id":"","pricing_plan_id":"free"},{"bike_id":"97aad796-0e5a-44c2-b00a-712b1f0b847d","system_id":"levelo_inurba_marseille","lat":43.261782,"lon":5.374515,"is_reserved":false,"is_disabled":false,"rental_uris":{"android":"levelo://app?vid=97aad796-0e5a-44c2-b00a-712b1f0b847d","ios":"levelo://app?vid=97aad796-0e5a-44c2-b00a-712b1f0b847d"},"vehicle_type_id":"4","last_reported":1680451653,"current_range_meters":5600,"station_id":"ce4bhgp2rcd13ifvqfc0","pricing_plan_id":"free"},{"bike_id":"6e8c92ff-1587-43d6-a056-5aac48918100","system_id":"levelo_inurba_marseille","lat":43.26185,"lon":5.37448,"is_reserved":false,"is_disabled":false,"rental_uris":{"android":"levelo://app?vid=6e8c92ff-1587-43d6-a056-5aac48918100","ios":"levelo://app?vid=6e8c92ff-1587-43d6-a056-5aac48918100"},"vehicle_type_id":"4","last_reported":1680451653,"current_range_meters":0,"station_id":"ce4bhgp2rcd13ifvqfc0","pricing_plan_id":"free"},{"bike_id":"c9cddbd1-13dc-481e-90d0-6c92ef155d3a","system_id":"levelo_inurba_marseille","lat":43.260219,"lon":5.37546,"is_reserved":false,"is_disabled":false,"rental_uris":{"android":"levelo://app?vid=c9cddbd1-13dc-481e-90d0-6c92ef155d3a","ios":"levelo://app?vid=c9cddbd1-13dc-481e-90d0-6c92ef155d3a"},"vehicle_type_id":"4","last_reported":1680451653,"current_range_meters":1200,"station_id":"ce4bhgh2rcd13ifvqfa0","pricing_plan_id":"free"},{"bike_id":"5070822f-a866-45f4-8be4-22627f66e776","system_id":"levelo_inurba_marseille","lat":43.260909,"lon":5.397591,"is_reserved":false,"is_disabled":false,"rental_uris":{"android":"levelo://app?vid=5070822f-a866-45f4-8be4-22627f66e776","ios":"levelo://app?vid=5070822f-a866-45f4-8be4-22627f66e776"},"vehicle_type_id":"4","last_reported":1680451653,"current_range_meters":1200,"station_id":"ce4bhi12rcd13ifvqfq0","pricing_plan_id":"free"},{"bike_id":"459f1efa-7d08-4e67-98b0-ae86ab650c0f","system_id":"levelo_inurba_marseille","lat":43.26086,"lon":5.39768,"is_reserved":false,"is_disabled":false,"rental_uris":{"android":"levelo://app?vid=459f1efa-7d08-4e67-98b0-ae86ab650c0f","ios":"levelo://app?vid=459f1efa-7d08-4e67-98b0-ae86ab650c0f"},"vehicle_type_id":"4","last_reported":1680451653,"current_range_meters":0,"station_id":"ce4bhi12rcd13ifvqfq0","pricing_plan_id":"free"},{"bike_id":"c63dd46c-d32b-43bf-80f1-c157eb6ced6b","system_id":"levelo_inurba_marseille","lat":43.25578,"lon":5.38223,"is_reserved":false,"is_disabled":false,"rental_uris":{"android":"levelo://app?vid=c63dd46c-d32b-43bf-80f1-c157eb6ced6b","ios":"levelo://app?vid=c63dd46c-d32b-43bf-80f1-c157eb6ced6b"},"vehicle_type_id":"4","last_reported":1680451653,"current_range_meters":0,"station_id":"ce4bhih2rcd13ifvqfs0","pricing_plan_id":"free"},{"bike_id":"f9051079-1710-44b6-9fcb-4974f4fce36c","system_id":"levelo_inurba_marseille","lat":43.2558,"lon":5.38237,"is_reserved":false,"is_disabled":false,"rental_uris":{"android":"levelo://app?vid=f9051079-1710-44b6-9fcb-4974f4fce36c","ios":"levelo://app?vid=f9051079-1710-44b6-9fcb-4974f4fce36c"},"vehicle_type_id":"4","last_reported":1680451653,"current_range_meters":0,"station_id":"ce4bhih2rcd13ifvqfs0","pricing_plan_id":"free"},{"bike_id":"3338fa5b-6a78-46f3-855c-1cb4e2dc8c46","system_id":"levelo_inurba_marseille","lat":43.25578,"lon":5.3823,"is_reserved":false,"is_disabled":false,"rental_uris":{"android":"levelo://app?vid=3338fa5b-6a78-46f3-855c-1cb4e2dc8c46","ios":"levelo://app?vid=3338fa5b-6a78-46f3-855c-1cb4e2dc8c46"},"vehicle_type_id":"4","last_reported":1680451653,"current_range_meters":16000,"station_id":"ce4bhih2rcd13ifvqfs0","pricing_plan_id":"free"},{"bike_id":"35b9810e-5711-4f0b-ba38-2e1f1600c6f6","system_id":"levelo_inurba_marseille","lat":43.25578,"lon":5.38231,"is_reserved":false,"is_disabled":false,"rental_uris":{"android":"levelo://app?vid=35b9810e-5711-4f0b-ba38-2e1f1600c6f6","ios":"levelo://app?vid=35b9810e-5711-4f0b-ba38-2e1f1600c6f6"},"vehicle_type_id":"4","last_reported":1680451653,"current_range_meters":1600,"station_id":"ce4bhih2rcd13ifvqfs0","pricing_plan_id":"free"},{"bike_id":"4b006b38-0979-4b1d-bb8e-edd8e9d89a4b","system_id":"levelo_inurba_marseille","lat":43.254945,"lon":5.376454,"is_reserved":false,"is_disabled":false,"rental_uris":{"android":"levelo://app?vid=4b006b38-0979-4b1d-bb8e-edd8e9d89a4b","ios":"levelo://app?vid=4b006b38-0979-4b1d-bb8e-edd8e9d89a4b"},"vehicle_type_id":"4","last_reported":1680451653,"current_range_meters":16400,"station_id":"ce4bhh12rcd13ifvqff0","pricing_plan_id":"free"},{"bike_id":"376f6cfb-6eb6-41f0-8081-1b325f1a8436","system_id":"levelo_inurba_marseille","lat":43.25496,"lon":5.3765,"is_reserved":false,"is_disabled":false,"rental_uris":{"android":"levelo://app?vid=376f6cfb-6eb6-41f0-8081-1b325f1a8436","ios":"levelo://app?vid=376f6cfb-6eb6-41f0-8081-1b325f1a8436"},"vehicle_type_id":"4","last_reported":1680451653,"current_range_meters":8400,"station_id":"","pricing_plan_id":"free"},{"bike_id":"2a9fbed7-8c36-4551-bc3e-c09a23551b4f","system_id":"levelo_inurba_marseille","lat":43.25424,"lon":5.38149,"is_reserved":false,"is_disabled":false,"rental_uris":{"android":"levelo://app?vid=2a9fbed7-8c36-4551-bc3e-c09a23551b4f","ios":"levelo://app?vid=2a9fbed7-8c36-4551-bc3e-c09a23551b4f"},"vehicle_type_id":"4","last_reported":1680451653,"current_range_meters":16000,"station_id":"","pricing_plan_id":"free"},{"bike_id":"7fe6e462-697e-4a5a-b59f-781bab6ba83e","system_id":"levelo_inurba_marseille","lat":43.27294,"lon":5.43119,"is_reserved":false,"is_disabled":false,"rental_uris":{"android":"levelo://app?vid=7fe6e462-697e-4a5a-b59f-781bab6ba83e","ios":"levelo://app?vid=7fe6e462-697e-4a5a-b59f-781bab6ba83e"},"vehicle_type_id":"4","last_reported":1680451653,"current_range_meters":22400,"station_id":"","pricing_plan_id":"free"},{"bike_id":"d3e4dc97-39ea-4398-ac75-1ee7948ee18d","system_id":"levelo_inurba_marseille","lat":43.25051,"lon":5.38206,"is_reserved":false,"is_disabled":false,"rental_uris":{"android":"levelo://app?vid=d3e4dc97-39ea-4398-ac75-1ee7948ee18d","ios":"levelo://app?vid=d3e4dc97-39ea-4398-ac75-1ee7948ee18d"},"vehicle_type_id":"4","last_reported":1680451653,"current_range_meters":3200,"station_id":"","pricing_plan_id":"free"},{"bike_id":"6fe6d037-9c92-486f-81e0-b50ff1607019","system_id":"levelo_inurba_marseille","lat":43.25005,"lon":5.38916,"is_reserved":false,"is_disabled":false,"rental_uris":{"android":"levelo://app?vid=6fe6d037-9c92-486f-81e0-b50ff1607019","ios":"levelo://app?vid=6fe6d037-9c92-486f-81e0-b50ff1607019"},"vehicle_type_id":"4","last_reported":1680451653,"current_range_meters":31200,"station_id":"ce4bhgp2rcd13ifvqfd0","pricing_plan_id":"free"},{"bike_id":"0e802258-f389-4a52-a0e4-0c9af16256f9","system_id":"levelo_inurba_marseille","lat":43.25092,"lon":5.39519,"is_reserved":false,"is_disabled":false,"rental_uris":{"android":"levelo://app?vid=0e802258-f389-4a52-a0e4-0c9af16256f9","ios":"levelo://app?vid=0e802258-f389-4a52-a0e4-0c9af16256f9"},"vehicle_type_id":"4","last_reported":1680451653,"current_range_meters":0,"station_id":"ce4bhm12rcd13ifvqgkg","pricing_plan_id":"free"},{"bike_id":"790363dd-7b5e-431f-81de-619093ef2728","system_id":"levelo_inurba_marseille","lat":43.250966,"lon":5.395186,"is_reserved":false,"is_disabled":false,"rental_uris":{"android":"levelo://app?vid=790363dd-7b5e-431f-81de-619093ef2728","ios":"levelo://app?vid=790363dd-7b5e-431f-81de-619093ef2728"},"vehicle_type_id":"4","last_reported":1680451653,"current_range_meters":26400,"station_id":"ce4bhm12rcd13ifvqgkg","pricing_plan_id":"free"},{"bike_id":"5a953ba8-23cf-464c-8f14-925558334a64","system_id":"levelo_inurba_marseille","lat":43.25127,"lon":5.40295,"is_reserved":false,"is_disabled":false,"rental_uris":{"android":"levelo://app?vid=5a953ba8-23cf-464c-8f14-925558334a64","ios":"levelo://app?vid=5a953ba8-23cf-464c-8f14-925558334a64"},"vehicle_type_id":"4","last_reported":1680451653,"current_range_meters":0,"station_id":"","pricing_plan_id":"free"},{"bike_id":"9b747d1f-de7c-4f64-ae76-21540fcceaef","system_id":"levelo_inurba_marseille","lat":43.246461,"lon":5.389014,"is_reserved":false,"is_disabled":false,"rental_uris":{"android":"levelo://app?vid=9b747d1f-de7c-4f64-ae76-21540fcceaef","ios":"levelo://app?vid=9b747d1f-de7c-4f64-ae76-21540fcceaef"},"vehicle_type_id":"4","last_reported":1680451653,"current_range_meters":400,"station_id":"ce4bhg12rcd13ifvqf60","pricing_plan_id":"free"},{"bike_id":"9987209c-8d54-4631-98bc-90e9e6bda134","system_id":"levelo_inurba_marseille","lat":43.24069,"lon":5.37767,"is_reserved":false,"is_disabled":false,"rental_uris":{"android":"levelo://app?vid=9987209c-8d54-4631-98bc-90e9e6bda134","ios":"levelo://app?vid=9987209c-8d54-4631-98bc-90e9e6bda134"},"vehicle_type_id":"4","last_reported":1680451653,"current_range_meters":7200,"station_id":"ce4bhnp2rcd13ifvqgvg","pricing_plan_id":"free"},{"bike_id":"34d5ace9-f0a1-4426-b7f3-fdc8e8344077","system_id":"levelo_inurba_marseille","lat":43.2397,"lon":5.36635,"is_reserved":false,"is_disabled":false,"rental_uris":{"android":"levelo://app?vid=34d5ace9-f0a1-4426-b7f3-fdc8e8344077","ios":"levelo://app?vid=34d5ace9-f0a1-4426-b7f3-fdc8e8344077"},"vehicle_type_id":"4","last_reported":1680451653,"current_range_meters":2000,"station_id":"ce4bhi12rcd13ifvqfp0","pricing_plan_id":"free"},{"bike_id":"ee082997-0ed1-4a94-90ff-0fdb45e5d4ed","system_id":"levelo_inurba_marseille","lat":43.239588,"lon":5.366238,"is_reserved":false,"is_disabled":false,"rental_uris":{"android":"levelo://app?vid=ee082997-0ed1-4a94-90ff-0fdb45e5d4ed","ios":"levelo://app?vid=ee082997-0ed1-4a94-90ff-0fdb45e5d4ed"},"vehicle_type_id":"4","last_reported":1680451653,"current_range_meters":22000,"station_id":"ce4bhi12rcd13ifvqfp0","pricing_plan_id":"free"},{"bike_id":"82ae428d-eabb-4918-b43f-44109086c4ee","system_id":"levelo_inurba_marseille","lat":43.239588,"lon":5.366238,"is_reserved":false,"is_disabled":false,"rental_uris":{"android":"levelo://app?vid=82ae428d-eabb-4918-b43f-44109086c4ee","ios":"levelo://app?vid=82ae428d-eabb-4918-b43f-44109086c4ee"},"vehicle_type_id":"4","last_reported":1680451653,"current_range_meters":16000,"station_id":"ce4bhi12rcd13ifvqfp0","pricing_plan_id":"free"},{"bike_id":"fd37b5fa-b13a-413d-b9db-fc94124a1ff5","system_id":"levelo_inurba_marseille","lat":43.239588,"lon":5.366238,"is_reserved":false,"is_disabled":false,"rental_uris":{"android":"levelo://app?vid=fd37b5fa-b13a-413d-b9db-fc94124a1ff5","ios":"levelo://app?vid=fd37b5fa-b13a-413d-b9db-fc94124a1ff5"},"vehicle_type_id":"4","last_reported":1680451653,"current_range_meters":5200,"station_id":"ce4bhi12rcd13ifvqfp0","pricing_plan_id":"free"},{"bike_id":"7d3860e3-7005-4673-8e9e-5846f1b9788a","system_id":"levelo_inurba_marseille","lat":43.239588,"lon":5.366238,"is_reserved":false,"is_disabled":false,"rental_uris":{"android":"levelo://app?vid=7d3860e3-7005-4673-8e9e-5846f1b9788a","ios":"levelo://app?vid=7d3860e3-7005-4673-8e9e-5846f1b9788a"},"vehicle_type_id":"4","last_reported":1680451653,"current_range_meters":17200,"station_id":"ce4bhi12rcd13ifvqfp0","pricing_plan_id":"free"},{"bike_id":"9016b226-6a51-445f-acb9-7bbe89259bee","system_id":"levelo_inurba_marseille","lat":43.239588,"lon":5.366238,"is_reserved":false,"is_disabled":false,"rental_uris":{"android":"levelo://app?vid=9016b226-6a51-445f-acb9-7bbe89259bee","ios":"levelo://app?vid=9016b226-6a51-445f-acb9-7bbe89259bee"},"vehicle_type_id":"4","last_reported":1680451653,"current_range_meters":800,"station_id":"ce4bhi12rcd13ifvqfp0","pricing_plan_id":"free"},{"bike_id":"1b7a694d-affe-4ef7-acb0-0f309f13ef24","system_id":"levelo_inurba_marseille","lat":43.23193,"lon":5.35562,"is_reserved":false,"is_disabled":false,"rental_uris":{"android":"levelo://app?vid=1b7a694d-affe-4ef7-acb0-0f309f13ef24","ios":"levelo://app?vid=1b7a694d-affe-4ef7-acb0-0f309f13ef24"},"vehicle_type_id":"4","last_reported":1680451653,"current_range_meters":11200,"station_id":"ce4bhu92rcd13ifvqi70","pricing_plan_id":"free"},{"bike_id":"34c2c880-3bb2-4bf3-8ff3-c589ad11a6ed","system_id":"levelo_inurba_marseille","lat":43.23193,"lon":5.35553,"is_reserved":false,"is_disabled":false,"rental_uris":{"android":"levelo://app?vid=34c2c880-3bb2-4bf3-8ff3-c589ad11a6ed","ios":"levelo://app?vid=34c2c880-3bb2-4bf3-8ff3-c589ad11a6ed"},"vehicle_type_id":"4","last_reported":1680451653,"current_range_meters":2800,"station_id":"ce4bhu92rcd13ifvqi70","pricing_plan_id":"free"},{"bike_id":"b84ae717-92dc-4abd-83b6-bb5fc440a142","system_id":"levelo_inurba_marseille","lat":43.231919,"lon":5.355532,"is_reserved":false,"is_disabled":false,"rental_uris":{"android":"levelo://app?vid=b84ae717-92dc-4abd-83b6-bb5fc440a142","ios":"levelo://app?vid=b84ae717-92dc-4abd-83b6-bb5fc440a142"},"vehicle_type_id":"4","last_reported":1680451653,"current_range_meters":31200,"station_id":"ce4bhu92rcd13ifvqi70","pricing_plan_id":"free"}]}}