{"last_updated":1746000827,"ttl":60,"version":"2.2","data":{"bikes":[{"bike_id":"775481df-05c4-4f0e-8a67-b66aedbeddcf","system_id":"levelo_inurba_marseille","lat":43.2418,"lon":5.39729,"is_reserved":false,"is_disabled":false,"rental_uris":{"android":"levelo://app?vid=775481df-05c4-4f0e-8a67-b66aedbeddcf","ios":"levelo://app?vid=775481df-05c4-4f0e-8a67-b66aedbeddcf"},"vehicle_type_id":"4","last_reported":1746000827,"current_range_meters":2800,"station_id":"ce4bhn12rcd13ifvqgpg","pricing_plan_id":"cebpf4jnsgd1na2vs0mg"},{"bike_id":"260981a5-60d4-4b38-97de-5fb58feade6c","system_id":"levelo_inurba_marseille","lat":43.24071,"lon":5.37772,"is_reserved":false,"is_disabled":false,"rental_uris":{"android":"levelo://app?vid=260981a5-60d4-4b38-97de-5fb58feade6c","ios":"levelo://app?vid=260981a5-60d4-4b38-97de-5fb58feade6c"},"vehicle_type_id":"4","last_reported":1746000827,"current_range_meters":2800,"station_id":"ce4bhnp2rcd13ifvqgvg","pricing_plan_id":"cebpf4jnsgd1na2vs0mg"},{"bike_id":"c8f9bc6b-988f-49b6-bf88-e4ef71a7ac56","system_id":"levelo_inurba_marseille","lat":43.29227,"lon":5.3606,"is_reserved":false,"is_disabled":false,"rental_uris":{"android":"levelo://app?vid=c8f9bc6b-988f-49b6-bf88-e4ef71a7ac56","ios":"levelo://app?vid=c8f9bc6b-988f-49b6-bf88-e4ef71a7ac56"},"vehicle_type_id":"4","last_reported":1746000827,"current_range_meters":2800,"station_id":"ce4bhbh2rcd13ifvqeqg","pricing_plan_id":"cebpf4jnsgd1na2vs0mg"},{"bike_id":"c847c66a-5d4b-43a0-b8ce-3c816716271e","system_id":"levelo_inurba_marseille","lat":43.2899,"lon":5.35591,"is_reserved":false,"is_disabled":true,"rental_uris":{"android":"levelo://app?vid=c847c66a-5d4b-43a0-b8ce-3c816716271e","ios":"levelo://app?vid=c847c66a-5d4b-43a0-b8ce-3c816716271e"},"vehicle_type_id":"4","last_reported":1746000827,"current_range_meters":2800,"station_id":"ce4bhb92rcd13ifvqen0","pricing_plan_id":"cebpf4jnsgd1na2vs0mg"},{"bike_id":"6844cffe-7877-42e2-9950-1c1eaa749884","system_id":"levelo_inurba_marseille","lat":43.27673,"lon":5.38865,"is_reserved":false,"is_disabled":false,"rental_uris":{"android":"levelo://app?vid=6844cffe-7877-42e2-9950-1c1eaa749884","ios":"levelo://app?vid=6844cffe-7877-42e2-9950-1c1eaa749884"},"vehicle_type_id":"4","last_reported":1746000827,"current_range_meters":2800,"station_id":"ce4bhi12rcd13ifvqfo0","pricing_plan_id":"cebpf4jnsgd1na2vs0mg"},{"bike_id":"3b2335b3-3ad3-48d9-83ff-2c0a6c7db1d0","system_id":"levelo_inurba_marseille","lat":43.28361,"lon":5.38094,"is_reserved":false,"is_disabled":false,"rental_uris":{"android":"levelo://app?vid=3b2335b3-3ad3-48d9-83ff-2c0a6c7db1d0","ios":"levelo://app?vid=3b2335b3-3ad3-48d9-83ff-2c0a6c7db1d0"},"vehicle_type_id":"4","last_reported":1746000827,"current_range_meters":2800,"station_id":"ce4bh412rcd13ifvqdr0","pricing_plan_id":"cebpf4jnsgd1na2vs0mg"},{"bike_id":"f402c5c3-cf63-45df-8735-49511e847c52","system_id":"levelo_inurba_marseille","lat":43.26562,"lon":5.39011,"is_reserved":false,"is_disabled":false,"rental_uris":{"android":"levelo://app?vid=f402c5c3-cf63-45df-8735-49511e847c52","ios":"levelo://app?vid=f402c5c3-cf63-45df-8735-49511e847c52"},"vehicle_type_id":"4","last_reported":1746000827,"current_range_meters":3200,"station_id":"ce4bhe12rcd13ifvqf30","pricing_plan_id":"cebpf4jnsgd1na2vs0mg"},{"bike_id":"e0265468-299b-472b-b647-c07eeb75cf01","system_id":"levelo_inurba_marseille","lat":43.32657,"lon":5.40976,"is_reserved":false,"is_disabled":false,"rental_uris":{"android":"levelo://app?vid=e0265468-299b-472b-b647-c07eeb75cf01","ios":"levelo://app?vid=e0265468-299b-472b-b647-c07eeb75cf01"},"vehicle_type_id":"4","last_reported":1746000827,"current_range_meters":3200,"station_id":"ce4bhpp2rcd13ifvqhgg","pricing_plan_id":"cebpf4jnsgd1na2vs0mg"},{"bike_id":"d6fd7863-7cc4-45aa-bfea-985dd53bc2dc","system_id":"levelo_inurba_marseille","lat":43.24055,"lon":5.37683,"is_reserved":false,"is_disabled":false,"rental_uris":{"android":"levelo://app?vid=d6fd7863-7cc4-45aa-bfea-985dd53bc2dc","ios":"levelo://app?vid=d6fd7863-7cc4-45aa-bfea-985dd53bc2dc"},"vehicle_type_id":"4","last_reported":1746000827,"current_range_meters":3200,"station_id":"ce4bhnp2rcd13ifvqgvg","pricing_plan_id":"cebpf4jnsgd1na2vs0mg"},{"bike_id":"c92049d5-70f6-4e2a-82fd-4b3784e9c565","system_id":"levelo_inurba_marseille","lat":43.2408,"lon":5.37758,"is_reserved":false,"is_disabled":false,"rental_uris":{"android":"levelo://app?vid=c92049d5-70f6-4e2a-82fd-4b3784e9c565","ios":"levelo://app?vid=c92049d5-70f6-4e2a-82fd-4b3784e9c565"},"vehicle_type_id":"4","last_reported":1746000827,"current_range_meters":2800,"station_id":"ce4bhnp2rcd13ifvqgvg","pricing_plan_id":"cebpf4jnsgd1na2vs0mg"},{"bike_id":"0c370d07-9e5f-43dc-b905-211bfd22fff7","system_id":"levelo_inurba_marseille","lat":43.24078,"lon":5.37752,"is_reserved":false,"is_disabled":false,"rental_uris":{"android":"levelo://app?vid=0c370d07-9e5f-43dc-b905-211bfd22fff7","ios":"levelo://app?vid=0c370d07-9e5f-43dc-b905-211bfd22fff7"},"vehicle_type_id":"4","last_reported":1746000827,"current_range_meters":3200,"station_id":"ce4bhnp2rcd13ifvqgvg","pricing_plan_id":"cebpf4jnsgd1na2vs0mg"},{"bike_id":"4e921bd6-7318-4e59-bc63-645afd4ef569","system_id":"levelo_inurba_marseille","lat":43.24165,"lon":5.36421,"is_reserved":false,"is_disabled":false,"rental_uris":{"android":"levelo://app?vid=4e921bd6-7318-4e59-bc63-645afd4ef569","ios":"levelo://app?vid=4e921bd6-7318-4e59-bc63-645afd4ef569"},"vehicle_type_id":"4","last_reported":1746000827,"current_range_meters":3600,"station_id":"cpo36qri1sfpv3e86is0","pricing_plan_id":"cebpf4jnsgd1na2vs0mg"},{"bike_id":"879eedae-2c85-4b07-86c9-8d288626ddae","system_id":"levelo_inurba_marseille","lat":43.28269,"lon":5.35059,"is_reserved":false,"is_disabled":false,"rental_uris":{"android":"levelo://app?vid=879eedae-2c85-4b07-86c9-8d288626ddae","ios":"levelo://app?vid=879eedae-2c85-4b07-86c9-8d288626ddae"},"vehicle_type_id":"4","last_reported":1746000827,"current_range_meters":4000,"station_id":"ce4bhbp2rcd13ifvqerg","pricing_plan_id":"cebpf4jnsgd1na2vs0mg"},{"bike_id":"2df62b6c-88b9-4679-9129-7ae7dbacbd8b","system_id":"levelo_inurba_marseille","lat":43.21749,"lon":5.346,"is_reserved":false,"is_disabled":false,"rental_uris":{"android":"levelo://app?vid=2df62b6c-88b9-4679-9129-7ae7dbacbd8b","ios":"levelo://app?vid=2df62b6c-88b9-4679-9129-7ae7dbacbd8b"},"vehicle_type_id":"4","last_reported":1746000827,"current_range_meters":4000,"station_id":"","pricing_plan_id":"cebpf4jnsgd1na2vs0mg"},{"bike_id":"0990e183-a4c0-4a54-a28d-5ab80b077470","system_id":"levelo_inurba_marseille","lat":43.31231,"lon":5.36861,"is_reserved":false,"is_disabled":false,"rental_uris":{"android":"levelo://app?vid=0990e183-a4c0-4a54-a28d-5ab80b077470","ios":"levelo://app?vid=0990e183-a4c0-4a54-a28d-5ab80b077470"},"vehicle_type_id":"4","last_reported":1746000827,"current_range_meters":4000,"station_id":"ce4bgl92rcd13ifvqbq0","pricing_plan_id":"cebpf4jnsgd1na2vs0mg"},{"bike_id":"e5b4b90d-e268-4de2-98f4-f6d0513f8801","system_id":"levelo_inurba_marseille","lat":43.26548,"lon":5.42201,"is_reserved":false,"is_disabled":false,"rental_uris":{"android":"levelo://app?vid=e5b4b90d-e268-4de2-98f4-f6d0513f8801","ios":"levelo://app?vid=e5b4b90d-e268-4de2-98f4-f6d0513f8801"},"vehicle_type_id":"4","last_reported":1746000827,"current_range_meters":4400,"station_id":"","pricing_plan_id":"cebpf4jnsgd1na2vs0mg"},{"bike_id":"295235bf-2041-4942-b482-dbb235c877c4","system_id":"levelo_inurba_marseille","lat":43.240752,"lon":5.377562,"is_reserved":false,"is_disabled":false,"rental_uris":{"android":"levelo://app?vid=295235bf-2041-4942-b482-dbb235c877c4","ios":"levelo://app?vid=295235bf-2041-4942-b482-dbb235c877c4"},"vehicle_type_id":"4","last_reported":1746000827,"current_range_meters":4400,"station_id":"ce4bhnp2rcd13ifvqgvg","pricing_plan_id":"cebpf4jnsgd1na2vs0mg"},{"bike_id":"189fd14d-608a-4093-b280-5ffeb2e4ac27","system_id":"levelo_inurba_marseille","lat":43.2979,"lon":5.38094,"is_reserved":false,"is_disabled":false,"rental_uris":{"android":"levelo://app?vid=189fd14d-608a-4093-b280-5ffeb2e4ac27","ios":"levelo://app?vid=189fd14d-608a-4093-b280-5ffeb2e4ac27"},"vehicle_type_id":"4","last_reported":1746000827,"current_range_meters":4800,"station_id":"ce4bgip2rcd13ifvqbb0","pricing_plan_id":"cebpf4jnsgd1na2vs0mg"},{"bike_id":"514d2659-5cfe-40c2-af24-29634274e3f6","system_id":"levelo_inurba_marseille","lat":43.24078,"lon":5.37753,"is_reserved":false,"is_disabled":false,"rental_uris":{"android":"levelo://app?vid=514d2659-5cfe-40c2-af24-29634274e3f6","ios":"levelo://app?vid=514d2659-5cfe-40c2-af24-29634274e3f6"},"vehicle_type_id":"4","last_reported":1746000827,"current_range_meters":4800,"station_id":"ce4bhnp2rcd13ifvqgvg","pricing_plan_id":"cebpf4jnsgd1na2vs0mg"},{"bike_id":"646ac322-893c-400d-9763-6847b62d2886","system_id":"levelo_inurba_marseille","lat":43.26689,"lon":5.3826,"is_reserved":false,"is_disabled":false,"rental_uris":{"android":"levelo://app?vid=646ac322-893c-400d-9763-6847b62d2886","ios":"levelo://app?vid=646ac322-893c-400d-9763-6847b62d2886"},"vehicle_type_id":"4","last_reported":1746000827,"current_range_meters":4800,"station_id":"ce4bhg92rcd13ifvqf90","pricing_plan_id":"cebpf4jnsgd1na2vs0mg"},{"bike_id":"4b93cd17-6b28-49d2-90f2-c93e587cf199","system_id":"levelo_inurba_marseille","lat":43.28276,"lon":5.35067,"is_reserved":false,"is_disabled":false,"rental_uris":{"android":"levelo://app?vid=4b93cd17-6b28-49d2-90f2-c93e587cf199","ios":"levelo://app?vid=4b93cd17-6b28-49d2-90f2-c93e587cf199"},"vehicle_type_id":"4","last_reported":1746000827,"current_range_meters":4800,"station_id":"ce4bhbp2rcd13ifvqerg","pricing_plan_id":"cebpf4jnsgd1na2vs0mg"},{"bike_id":"f1e3c12a-02a3-4893-b9e1-1aacd74f3f49","system_id":"levelo_inurba_marseille","lat":43.32107,"lon":5.36762,"is_reserved":false,"is_disabled":false,"rental_uris":{"android":"levelo://app?vid=f1e3c12a-02a3-4893-b9e1-1aacd74f3f49","ios":"levelo://app?vid=f1e3c12a-02a3-4893-b9e1-1aacd74f3f49"},"vehicle_type_id":"4","last_reported":1746000827,"current_range_meters":5600,"station_id":"ce4bhrh2rcd13ifvqhug","pricing_plan_id":"cebpf4jnsgd1na2vs0mg"},{"bike_id":"769241e0-d9b4-4d81-ab46-bc0b53330edd","system_id":"levelo_inurba_marseille","lat":43.2408,"lon":5.37756,"is_reserved":false,"is_disabled":false,"rental_uris":{"android":"levelo://app?vid=769241e0-d9b4-4d81-ab46-bc0b53330edd","ios":"levelo://app?vid=769241e0-d9b4-4d81-ab46-bc0b53330edd"},"vehicle_type_id":"4","last_reported":1746000827,"current_range_meters":5600,"station_id":"ce4bhnp2rcd13ifvqgvg","pricing_plan_id":"cebpf4jnsgd1na2vs0mg"},{"bike_id":"58071c2a-9fa6-41c9-99f4-67131c5c55df","system_id":"levelo_inurba_marseille","lat":43.30141,"lon":5.37427,"is_reserved":false,"is_disabled":false,"rental_uris":{"android":"levelo://app?vid=58071c2a-9fa6-41c9-99f4-67131c5c55df","ios":"levelo://app?vid=58071c2a-9fa6-41c9-99f4-67131c5c55df"},"vehicle_type_id":"4","last_reported":1746000827,"current_range_meters":5600,"station_id":"ce4bgs92rcd13ifvqcc0","pricing_plan_id":"cebpf4jnsgd1na2vs0mg"},{"bike_id":"dbdacbe4-4534-4d90-9d33-96b20d3b7463","system_id":"levelo_inurba_marseille","lat":43.29217,"lon":5.40002,"is_reserved":false,"is_disabled":false,"rental_uris":{"android":"levelo://app?vid=dbdacbe4-4534-4d90-9d33-96b20d3b7463","ios":"levelo://app?vid=dbdacbe4-4534-4d90-9d33-96b20d3b7463"},"vehicle_type_id":"4","last_reported":1746000827,"current_range_meters":5600,"station_id":"","pricing_plan_id":"cebpf4jnsgd1na2vs0mg"},{"bike_id":"27c6efa8-974e-47ae-abb2-94eba62d698d","system_id":"levelo_inurba_marseille","lat":43.29904,"lon":5.3813,"is_reserved":false,"is_disabled":false,"rental_uris":{"android":"levelo://app?vid=27c6efa8-974e-47ae-abb2-94eba62d698d","ios":"levelo://app?vid=27c6efa8-974e-47ae-abb2-94eba62d698d"},"vehicle_type_id":"4","last_reported":1746000827,"current_range_meters":5600,"station_id":"ce4bgj12rcd13ifvqbc0","pricing_plan_id":"cebpf4jnsgd1na2vs0mg"},{"bike_id":"c78abdf1-a26f-4005-90c0-54df6519587b","system_id":"levelo_inurba_marseille","lat":43.31388,"lon":5.36652,"is_reserved":false,"is_disabled":false,"rental_uris":{"android":"levelo://app?vid=c78abdf1-a26f-4005-90c0-54df6519587b","ios":"levelo://app?vid=c78abdf1-a26f-4005-90c0-54df6519587b"},"vehicle_type_id":"4","last_reported":1746000827,"current_range_meters":5600,"station_id":"","pricing_plan_id":"cebpf4jnsgd1na2vs0mg"},{"bike_id":"ff4370d3-5dd8-4b9b-bbf5-04163b2823ce","system_id":"levelo_inurba_marseille","lat":43.25006,"lon":5.38928,"is_reserved":false,"is_disabled":false,"rental_uris":{"android":"levelo://app?vid=ff4370d3-5dd8-4b9b-bbf5-04163b2823ce","ios":"levelo://app?vid=ff4370d3-5dd8-4b9b-bbf5-04163b2823ce"},"vehicle_type_id":"4","last_reported":1746000827,"current_range_meters":5600,"station_id":"ce4bhgp2rcd13ifvqfd0","pricing_plan_id":"cebpf4jnsgd1na2vs0mg"},{"bike_id":"6f38b2ef-8c68-4c77-9fb6-fb95536bec70","system_id":"levelo_inurba_marseille","lat":43.26211,"lon":5.40363,"is_reserved":false,"is_disabled":false,"rental_uris":{"android":"levelo://app?vid=6f38b2ef-8c68-4c77-9fb6-fb95536bec70","ios":"levelo://app?vid=6f38b2ef-8c68-4c77-9fb6-fb95536bec70"},"vehicle_type_id":"4","last_reported":1746000827,"current_range_meters":6000,"station_id":"ce4bhmh2rcd13ifvqgmg","pricing_plan_id":"cebpf4jnsgd1na2vs0mg"},{"bike_id":"bd1dd49d-01c4-49ad-8ddc-144c7b7b4744","system_id":"levelo_inurba_marseille","lat":43.32488,"lon":5.36565,"is_reserved":false,"is_disabled":false,"rental_uris":{"android":"levelo://app?vid=bd1dd49d-01c4-49ad-8ddc-144c7b7b4744","ios":"levelo://app?vid=bd1dd49d-01c4-49ad-8ddc-144c7b7b4744"},"vehicle_type_id":"4","last_reported":1746000827,"current_range_meters":6000,"station_id":"ce4bhs12rcd13ifvqhvg","pricing_plan_id":"cebpf4jnsgd1na2vs0mg"},{"bike_id":"41af5a9a-a490-415f-b141-6be8cc83e530","system_id":"levelo_inurba_marseille","lat":43.2894,"lon":5.3638,"is_reserved":false,"is_disabled":false,"rental_uris":{"android":"levelo://app?vid=41af5a9a-a490-415f-b141-6be8cc83e530","ios":"levelo://app?vid=41af5a9a-a490-415f-b141-6be8cc83e530"},"vehicle_type_id":"4","last_reported":1746000827,"current_range_meters":6000,"station_id":"ce4bhc92rcd13ifvqetg","pricing_plan_id":"cebpf4jnsgd1na2vs0mg"},{"bike_id":"2c1b33dc-6037-49cc-a203-b73517cb14ac","system_id":"levelo_inurba_marseille","lat":43.28654,"lon":5.45479,"is_reserved":false,"is_disabled":false,"rental_uris":{"android":"levelo://app?vid=2c1b33dc-6037-49cc-a203-b73517cb14ac","ios":"levelo://app?vid=2c1b33dc-6037-49cc-a203-b73517cb14ac"},"vehicle_type_id":"4","last_reported":1746000827,"current_range_meters":6400,"station_id":"","pricing_plan_id":"cebpf4jnsgd1na2vs0mg"},{"bike_id":"50b70bc1-44a5-4ea3-8e50-63dd0e04796a","system_id":"levelo_inurba_marseille","lat":43.29575,"lon":5.37529,"is_reserved":false,"is_disabled":false,"rental_uris":{"android":"levelo://app?vid=50b70bc1-44a5-4ea3-8e50-63dd0e04796a","ios":"levelo://app?vid=50b70bc1-44a5-4ea3-8e50-63dd0e04796a"},"vehicle_type_id":"4","last_reported":1746000827,"current_range_meters":5600,"station_id":"ce4bgh92rcd13ifvqb50","pricing_plan_id":"cebpf4jnsgd1na2vs0mg"},{"bike_id":"1b02f6ac-0c86-478b-9e80-c6da74c14e38","system_id":"levelo_inurba_marseille","lat":43.24164,"lon":5.36395,"is_reserved":false,"is_disabled":false,"rental_uris":{"android":"levelo://app?vid=1b02f6ac-0c86-478b-9e80-c6da74c14e38","ios":"levelo://app?vid=1b02f6ac-0c86-478b-9e80-c6da74c14e38"},"vehicle_type_id":"4","last_reported":1746000827,"current_range_meters":6400,"station_id":"cpo36qri1sfpv3e86is0","pricing_plan_id":"cebpf4jnsgd1na2vs0mg"},{"bike_id":"672a6a9b-16c0-4898-8964-08b2766bfb0e","system_id":"levelo_inurba_marseille","lat":43.25067,"lon":5.39511,"is_reserved":false,"is_disabled":false,"rental_uris":{"android":"levelo://app?vid=672a6a9b-16c0-4898-8964-08b2766bfb0e","ios":"levelo://app?vid=672a6a9b-16c0-4898-8964-08b2766bfb0e"},"vehicle_type_id":"4","last_reported":1746000827,"current_range_meters":6400,"station_id":"ce4bhm12rcd13ifvqgkg","pricing_plan_id":"cebpf4jnsgd1na2vs0mg"},{"bike_id":"8d1bbdaa-d699-483b-a28a-8744f208e5f3","system_id":"levelo_inurba_marseille","lat":43.30905,"lon":5.36849,"is_reserved":false,"is_disabled":false,"rental_uris":{"android":"levelo://app?vid=8d1bbdaa-d699-483b-a28a-8744f208e5f3","ios":"levelo://app?vid=8d1bbdaa-d699-483b-a28a-8744f208e5f3"},"vehicle_type_id":"4","last_reported":1746000827,"current_range_meters":6400,"station_id":"ce4bgn92rcd13ifvqbvg","pricing_plan_id":"cebpf4jnsgd1na2vs0mg"},{"bike_id":"74ba1b68-38ca-479f-8b23-8ebc54c68b3e","system_id":"levelo_inurba_marseille","lat":43.29598,"lon":5.38106,"is_reserved":false,"is_disabled":false,"rental_uris":{"android":"levelo://app?vid=74ba1b68-38ca-479f-8b23-8ebc54c68b3e","ios":"levelo://app?vid=74ba1b68-38ca-479f-8b23-8ebc54c68b3e"},"vehicle_type_id":"4","last_reported":1746000827,"current_range_meters":6800,"station_id":"ce4bgl12rcd13ifvqbo0","pricing_plan_id":"cebpf4jnsgd1na2vs0mg"},{"bike_id":"b2894329-a128-4342-b00c-33e416579142","system_id":"levelo_inurba_marseille","lat":43.24079,"lon":5.37761,"is_reserved":false,"is_disabled":false,"rental_uris":{"android":"levelo://app?vid=b2894329-a128-4342-b00c-33e416579142","ios":"levelo://app?vid=b2894329-a128-4342-b00c-33e416579142"},"vehicle_type_id":"4","last_reported":1746000827,"current_range_meters":6800,"station_id":"ce4bhnp2rcd13ifvqgvg","pricing_plan_id":"cebpf4jnsgd1na2vs0mg"},{"bike_id":"58d96813-51d9-4691-82e4-fd7df8625fb2","system_id":"levelo_inurba_marseille","lat":43.30384,"lon":5.42502,"is_reserved":false,"is_disabled":false,"rental_uris":{"android":"levelo://app?vid=58d96813-51d9-4691-82e4-fd7df8625fb2","ios":"levelo://app?vid=58d96813-51d9-4691-82e4-fd7df8625fb2"},"vehicle_type_id":"4","last_reported":1746000827,"current_range_meters":6800,"station_id":"ce4bhoh2rcd13ifvqh6g","pricing_plan_id":"cebpf4jnsgd1na2vs0mg"},{"bike_id":"7da46745-28d4-46e5-83ee-01b696a49635","system_id":"levelo_inurba_marseille","lat":43.30784,"lon":5.37647,"is_reserved":false,"is_disabled":false,"rental_uris":{"android":"levelo://app?vid=7da46745-28d4-46e5-83ee-01b696a49635","ios":"levelo://app?vid=7da46745-28d4-46e5-83ee-01b696a49635"},"vehicle_type_id":"4","last_reported":1746000827,"current_range_meters":6800,"station_id":"ce4bgv92rcd13ifvqcq0","pricing_plan_id":"cebpf4jnsgd1na2vs0mg"},{"bike_id":"7497e739-0c50-4aa1-9f39-dfb008e37b83","system_id":"levelo_inurba_marseille","lat":43.30946,"lon":5.37192,"is_reserved":false,"is_disabled":false,"rental_uris":{"android":"levelo://app?vid=7497e739-0c50-4aa1-9f39-dfb008e37b83","ios":"levelo://app?vid=7497e739-0c50-4aa1-9f39-dfb008e37b83"},"vehicle_type_id":"4","last_reported":1746000827,"current_range_meters":6800,"station_id":"ce4bguh2rcd13ifvqckg","pricing_plan_id":"cebpf4jnsgd1na2vs0mg"},{"bike_id":"17311300-ecc3-42b7-82c9-8ec342ee3a93","system_id":"levelo_inurba_marseille","lat":43.29966,"lon":5.37194,"is_reserved":false,"is_disabled":false,"rental_uris":{"android":"levelo://app?vid=17311300-ecc3-42b7-82c9-8ec342ee3a93","ios":"levelo://app?vid=17311300-ecc3-42b7-82c9-8ec342ee3a93"},"vehicle_type_id":"4","last_reported":1746000827,"current_range_meters":8000,"station_id":"ce4bgr92rcd13ifvqc7g","pricing_plan_id":"cebpf4jnsgd1na2vs0mg"},{"bike_id":"dc0f4ab9-c4b9-4616-bf36-5f4c14e2ea12","system_id":"levelo_inurba_marseille","lat":43.23169,"lon":5.43724,"is_reserved":false,"is_disabled":false,"rental_uris":{"android":"levelo://app?vid=dc0f4ab9-c4b9-4616-bf36-5f4c14e2ea12","ios":"levelo://app?vid=dc0f4ab9-c4b9-4616-bf36-5f4c14e2ea12"},"vehicle_type_id":"4","last_reported":1746000827,"current_range_meters":7200,"station_id":"ce4bhmp2rcd13ifvqgog","pricing_plan_id":"cebpf4jnsgd1na2vs0mg"},{"bike_id":"f7d434d6-c94a-44aa-85df-690d8ef2922e","system_id":"levelo_inurba_marseille","lat":43.325,"lon":5.36549,"is_reserved":false,"is_disabled":false,"rental_uris":{"android":"levelo://app?vid=f7d434d6-c94a-44aa-85df-690d8ef2922e","ios":"levelo://app?vid=f7d434d6-c94a-44aa-85df-690d8ef2922e"},"vehicle_type_id":"4","last_reported":1746000827,"current_range_meters":7200,"station_id":"ce4bhs12rcd13ifvqhvg","pricing_plan_id":"cebpf4jnsgd1na2vs0mg"},{"bike_id":"ac18eeab-57ff-466c-ba25-de830c6d72c0","system_id":"levelo_inurba_marseille","lat":43.31078,"lon":5.42428,"is_reserved":false,"is_disabled":false,"rental_uris":{"android":"levelo://app?vid=ac18eeab-57ff-466c-ba25-de830c6d72c0","ios":"levelo://app?vid=ac18eeab-57ff-466c-ba25-de830c6d72c0"},"vehicle_type_id":"4","last_reported":1746000827,"current_range_meters":6800,"station_id":"ce4bhp92rcd13ifvqhag","pricing_plan_id":"cebpf4jnsgd1na2vs0mg"},{"bike_id":"11420804-8c36-4bb5-bfd5-028012cbbd2e","system_id":"levelo_inurba_marseille","lat":43.24546,"lon":5.3952,"is_reserved":false,"is_disabled":false,"rental_uris":{"android":"levelo://app?vid=11420804-8c36-4bb5-bfd5-028012cbbd2e","ios":"levelo://app?vid=11420804-8c36-4bb5-bfd5-028012cbbd2e"},"vehicle_type_id":"4","last_reported":1746000827,"current_range_meters":7200,"station_id":"ce4bhlp2rcd13ifvqgjg","pricing_plan_id":"cebpf4jnsgd1na2vs0mg"},{"bike_id":"e9a7cd4a-feab-47c6-81c1-5e2ed956b342","system_id":"levelo_inurba_marseille","lat":43.24074,"lon":5.37762,"is_reserved":false,"is_disabled":false,"rental_uris":{"android":"levelo://app?vid=e9a7cd4a-feab-47c6-81c1-5e2ed956b342","ios":"levelo://app?vid=e9a7cd4a-feab-47c6-81c1-5e2ed956b342"},"vehicle_type_id":"4","last_reported":1746000827,"current_range_meters":7200,"station_id":"ce4bhnp2rcd13ifvqgvg","pricing_plan_id":"cebpf4jnsgd1na2vs0mg"},{"bike_id":"cdf9bcc9-a244-4871-a477-69add6fe7201","system_id":"levelo_inurba_marseille","lat":43.2849,"lon":5.38553,"is_reserved":false,"is_disabled":false,"rental_uris":{"android":"levelo://app?vid=cdf9bcc9-a244-4871-a477-69add6fe7201","ios":"levelo://app?vid=cdf9bcc9-a244-4871-a477-69add6fe7201"},"vehicle_type_id":"4","last_reported":1746000827,"current_range_meters":7200,"station_id":"ce4bh8p2rcd13ifvqeb0","pricing_plan_id":"cebpf4jnsgd1na2vs0mg"},{"bike_id":"715f7c9a-ba82-476e-a819-2bdde5a2a04a","system_id":"levelo_inurba_marseille","lat":43.33602,"lon":5.41004,"is_reserved":false,"is_disabled":false,"rental_uris":{"android":"levelo://app?vid=715f7c9a-ba82-476e-a819-2bdde5a2a04a","ios":"levelo://app?vid=715f7c9a-ba82-476e-a819-2bdde5a2a04a"},"vehicle_type_id":"4","last_reported":1746000827,"current_range_meters":8000,"station_id":"ce4bhqh2rcd13ifvqhmg","pricing_plan_id":"cebpf4jnsgd1na2vs0mg"},{"bike_id":"36e70963-796a-4894-b1db-372ce060bbaa","system_id":"levelo_inurba_marseille","lat":43.30171,"lon":5.37383,"is_reserved":false,"is_disabled":false,"rental_uris":{"android":"levelo://app?vid=36e70963-796a-4894-b1db-372ce060bbaa","ios":"levelo://app?vid=36e70963-796a-4894-b1db-372ce060bbaa"},"vehicle_type_id":"4","last_reported":1746000827,"current_range_meters":8000,"station_id":"ce4bgs92rcd13ifvqcc0","pricing_plan_id":"cebpf4jnsgd1na2vs0mg"},{"bike_id":"38b0a9f0-c61d-4c7c-b673-e675344dea51","system_id":"levelo_inurba_marseille","lat":43.33612,"lon":5.41029,"is_reserved":false,"is_disabled":false,"rental_uris":{"android":"levelo://app?vid=38b0a9f0-c61d-4c7c-b673-e675344dea51","ios":"levelo://app?vid=38b0a9f0-c61d-4c7c-b673-e675344dea51"},"vehicle_type_id":"4","last_reported":1746000827,"current_range_meters":8000,"station_id":"ce4bhqh2rcd13ifvqhmg","pricing_plan_id":"cebpf4jnsgd1na2vs0mg"},{"bike_id":"1862fb6f-61c4-4c09-a828-864ab246ea11","system_id":"levelo_inurba_marseille","lat":43.235194,"lon":5.403416,"is_reserved":false,"is_disabled":false,"rental_uris":{"android":"levelo://app?vid=1862fb6f-61c4-4c09-a828-864ab246ea11","ios":"levelo://app?vid=1862fb6f-61c4-4c09-a828-864ab246ea11"},"vehicle_type_id":"4","last_reported":1746000827,"current_range_meters":8000,"station_id":"","pricing_plan_id":"cebpf4jnsgd1na2vs0mg"},{"bike_id":"27e16dac-60a2-451d-9ba0-3e6813023380","system_id":"levelo_inurba_marseille","lat":43.290209,"lon":5.368708,"is_reserved":false,"is_disabled":false,"rental_uris":{"android":"levelo://app?vid=27e16dac-60a2-451d-9ba0-3e6813023380","ios":"levelo://app?vid=27e16dac-60a2-451d-9ba0-3e6813023380"},"vehicle_type_id":"4","last_reported":1746000827,"current_range_meters":8000,"station_id":"ce4bh9p2rcd13ifvqec0","pricing_plan_id":"cebpf4jnsgd1na2vs0mg"},{"bike_id":"ce7209bd-43df-4a80-a0da-01ef844f0421","system_id":"levelo_inurba_marseille","lat":43.29792,"lon":5.38109,"is_reserved":false,"is_disabled":false,"rental_uris":{"android":"levelo://app?vid=ce7209bd-43df-4a80-a0da-01ef844f0421","ios":"levelo://app?vid=ce7209bd-43df-4a80-a0da-01ef844f0421"},"vehicle_type_id":"4","last_reported":1746000827,"current_range_meters":8400,"station_id":"ce4bgip2rcd13ifvqbb0","pricing_plan_id":"cebpf4jnsgd1na2vs0mg"},{"bike_id":"10525ec9-d8df-42ed-a410-0c936915a1d1","system_id":"levelo_inurba_marseille","lat":43.28701,"lon":5.39994,"is_reserved":false,"is_disabled":false,"rental_uris":{"android":"levelo://app?vid=10525ec9-d8df-42ed-a410-0c936915a1d1","ios":"levelo://app?vid=10525ec9-d8df-42ed-a410-0c936915a1d1"},"vehicle_type_id":"4","last_reported":1746000827,"current_range_meters":8400,"station_id":"ce4bho92rcd13ifvqh3g","pricing_plan_id":"cebpf4jnsgd1na2vs0mg"},{"bike_id":"dc82108c-9525-48bf-8a2c-9aab4803c159","system_id":"levelo_inurba_marseille","lat":43.30538,"lon":5.36538,"is_reserved":false,"is_disabled":false,"rental_uris":{"android":"levelo://app?vid=dc82108c-9525-48bf-8a2c-9aab4803c159","ios":"levelo://app?vid=dc82108c-9525-48bf-8a2c-9aab4803c159"},"vehicle_type_id":"4","last_reported":1746000827,"current_range_meters":8400,"station_id":"ce4bgs12rcd13ifvqcag","pricing_plan_id":"cebpf4jnsgd1na2vs0mg"},{"bike_id":"a99c69af-11af-4084-b981-f99dcf2cc5c5","system_id":"levelo_inurba_marseille","lat":43.29511,"lon":5.394,"is_reserved":false,"is_disabled":false,"rental_uris":{"android":"levelo://app?vid=a99c69af-11af-4084-b981-f99dcf2cc5c5","ios":"levelo://app?vid=a99c69af-11af-4084-b981-f99dcf2cc5c5"},"vehicle_type_id":"4","last_reported":1746000827,"current_range_meters":8400,"station_id":"ce4bh292rcd13ifvqdf0","pricing_plan_id":"cebpf4jnsgd1na2vs0mg"},{"bike_id":"c7d4ca92-020f-4c6f-815a-ddc6fdf77b1f","system_id":"levelo_inurba_marseille","lat":43.234665,"lon":5.380503,"is_reserved":false,"is_disabled":false,"rental_uris":{"android":"levelo://app?vid=c7d4ca92-020f-4c6f-815a-ddc6fdf77b1f","ios":"levelo://app?vid=c7d4ca92-020f-4c6f-815a-ddc6fdf77b1f"},"vehicle_type_id":"4","last_reported":1746000827,"current_range_meters":8400,"station_id":"","pricing_plan_id":"cebpf4jnsgd1na2vs0mg"},{"bike_id":"11156d21-dbc6-48d3-9368-a3538ac7f162","system_id":"levelo_inurba_marseille","lat":43.305037,"lon":5.367236,"is_reserved":false,"is_disabled":false,"rental_uris":{"android":"levelo://app?vid=11156d21-dbc6-48d3-9368-a3538ac7f162","ios":"levelo://app?vid=11156d21-dbc6-48d3-9368-a3538ac7f162"},"vehicle_type_id":"4","last_reported":1746000827,"current_range_meters":8400,"station_id":"ce4bgrp2rcd13ifvqc9g","pricing_plan_id":"cebpf4jnsgd1na2vs0mg"},{"bike_id":"eccea161-41ba-4e5c-9bd5-a5e00a977c53","system_id":"levelo_inurba_marseille","lat":43.30937,"lon":5.39039,"is_reserved":false,"is_disabled":false,"rental_uris":{"android":"levelo://app?vid=eccea161-41ba-4e5c-9bd5-a5e00a977c53","ios":"levelo://app?vid=eccea161-41ba-4e5c-9bd5-a5e00a977c53"},"vehicle_type_id":"4","last_reported":1746000827,"current_range_meters":8400,"station_id":"ce4bgup2rcd13ifvqco0","pricing_plan_id":"cebpf4jnsgd1na2vs0mg"},{"bike_id":"35da3075-3137-4b3e-a711-fd3461b33500","system_id":"levelo_inurba_marseille","lat":43.28019,"lon":5.36906,"is_reserved":false,"is_disabled":true,"rental_uris":{"android":"levelo://app?vid=35da3075-3137-4b3e-a711-fd3461b33500","ios":"levelo://app?vid=35da3075-3137-4b3e-a711-fd3461b33500"},"vehicle_type_id":"4","last_reported":1746000827,"current_range_meters":8400,"station_id":"ce4bha12rcd13ifvqef0","pricing_plan_id":"cebpf4jnsgd1na2vs0mg"},{"bike_id":"60376b35-b189-42e7-a5e8-ae33212aca43","system_id":"levelo_inurba_marseille","lat":43.2985,"lon":5.3628,"is_reserved":false,"is_disabled":false,"rental_uris":{"android":"levelo://app?vid=60376b35-b189-42e7-a5e8-ae33212aca43","ios":"levelo://app?vid=60376b35-b189-42e7-a5e8-ae33212aca43"},"vehicle_type_id":"4","last_reported":1746000827,"current_range_meters":8400,"station_id":"ce4bgpp2rcd13ifvqc3g","pricing_plan_id":"cebpf4jnsgd1na2vs0mg"},{"bike_id":"f5c9e254-60b8-4db0-a08d-3560436a0634","system_id":"levelo_inurba_marseille","lat":43.24076,"lon":5.37748,"is_reserved":false,"is_disabled":false,"rental_uris":{"android":"levelo://app?vid=f5c9e254-60b8-4db0-a08d-3560436a0634","ios":"levelo://app?vid=f5c9e254-60b8-4db0-a08d-3560436a0634"},"vehicle_type_id":"4","last_reported":1746000827,"current_range_meters":8400,"station_id":"","pricing_plan_id":"cebpf4jnsgd1na2vs0mg"},{"bike_id":"9fad8d6d-5e03-4624-8951-9daa7a6f2df4","system_id":"levelo_inurba_marseille","lat":43.24075,"lon":5.37754,"is_reserved":false,"is_disabled":false,"rental_uris":{"android":"levelo://app?vid=9fad8d6d-5e03-4624-8951-9daa7a6f2df4","ios":"levelo://app?vid=9fad8d6d-5e03-4624-8951-9daa7a6f2df4"},"vehicle_type_id":"4","last_reported":1746000827,"current_range_meters":8400,"station_id":"ce4bhnp2rcd13ifvqgvg","pricing_plan_id":"cebpf4jnsgd1na2vs0mg"},{"bike_id":"afc420e1-6771-4680-b59b-3d76f727fa8e","system_id":"levelo_inurba_marseille","lat":43.294056,"lon":5.411995,"is_reserved":false,"is_disabled":false,"rental_uris":{"android":"levelo://app?vid=afc420e1-6771-4680-b59b-3d76f727fa8e","ios":"levelo://app?vid=afc420e1-6771-4680-b59b-3d76f727fa8e"},"vehicle_type_id":"4","last_reported":1746000827,"current_range_meters":8800,"station_id":"ce4bhph2rcd13ifvqhdg","pricing_plan_id":"cebpf4jnsgd1na2vs0mg"},{"bike_id":"1be6b8de-5ed4-4d8a-9cd6-aeff3b5c0661","system_id":"levelo_inurba_marseille","lat":43.2898,"lon":5.37829,"is_reserved":false,"is_disabled":true,"rental_uris":{"android":"levelo://app?vid=1be6b8de-5ed4-4d8a-9cd6-aeff3b5c0661","ios":"levelo://app?vid=1be6b8de-5ed4-4d8a-9cd6-aeff3b5c0661"},"vehicle_type_id":"4","last_reported":1746000827,"current_range_meters":8800,"station_id":"ce4bh9p2rcd13ifvqed0","pricing_plan_id":"cebpf4jnsgd1na2vs0mg"},{"bike_id":"0abac346-7db3-46b9-b89b-59ad2d37984e","system_id":"levelo_inurba_marseille","lat":43.24074,"lon":5.37739,"is_reserved":false,"is_disabled":false,"rental_uris":{"android":"levelo://app?vid=0abac346-7db3-46b9-b89b-59ad2d37984e","ios":"levelo://app?vid=0abac346-7db3-46b9-b89b-59ad2d37984e"},"vehicle_type_id":"4","last_reported":1746000827,"current_range_meters":8800,"station_id":"ce4bhnp2rcd13ifvqgvg","pricing_plan_id":"cebpf4jnsgd1na2vs0mg"},{"bike_id":"91c533d0-e52e-4d85-bf53-16e672a56984","system_id":"levelo_inurba_marseille","lat":43.308903,"lon":5.371847,"is_reserved":false,"is_disabled":true,"rental_uris":{"android":"levelo://app?vid=91c533d0-e52e-4d85-bf53-16e672a56984","ios":"levelo://app?vid=91c533d0-e52e-4d85-bf53-16e672a56984"},"vehicle_type_id":"4","last_reported":1746000827,"current_range_meters":8800,"station_id":"ce4bguh2rcd13ifvqckg","pricing_plan_id":"cebpf4jnsgd1na2vs0mg"},{"bike_id":"9ac7577f-732d-41d4-b57a-e09b6f9bcd68","system_id":"levelo_inurba_marseille","lat":43.24078,"lon":5.3776,"is_reserved":false,"is_disabled":false,"rental_uris":{"android":"levelo://app?vid=9ac7577f-732d-41d4-b57a-e09b6f9bcd68","ios":"levelo://app?vid=9ac7577f-732d-41d4-b57a-e09b6f9bcd68"},"vehicle_type_id":"4","last_reported":1746000827,"current_range_meters":8800,"station_id":"ce4bhnp2rcd13ifvqgvg","pricing_plan_id":"cebpf4jnsgd1na2vs0mg"},{"bike_id":"89eab37f-a9ed-45c4-b830-f2255730261a","system_id":"levelo_inurba_marseille","lat":43.26215,"lon":5.3744,"is_reserved":false,"is_disabled":false,"rental_uris":{"android":"levelo://app?vid=89eab37f-a9ed-45c4-b830-f2255730261a","ios":"levelo://app?vid=89eab37f-a9ed-45c4-b830-f2255730261a"},"vehicle_type_id":"4","last_reported":1746000827,"current_range_meters":8800,"station_id":"ce4bhgp2rcd13ifvqfc0","pricing_plan_id":"cebpf4jnsgd1na2vs0mg"},{"bike_id":"f4f3d45c-ca6b-4daa-9e02-299e4301416d","system_id":"levelo_inurba_marseille","lat":43.31367,"lon":5.36723,"is_reserved":false,"is_disabled":false,"rental_uris":{"android":"levelo://app?vid=f4f3d45c-ca6b-4daa-9e02-299e4301416d","ios":"levelo://app?vid=f4f3d45c-ca6b-4daa-9e02-299e4301416d"},"vehicle_type_id":"4","last_reported":1746000827,"current_range_meters":8800,"station_id":"ce4bgr92rcd13ifvqc6g","pricing_plan_id":"cebpf4jnsgd1na2vs0mg"},{"bike_id":"aa633b79-fe17-4442-a8be-a57f766d74e2","system_id":"levelo_inurba_marseille","lat":43.31696,"lon":5.4045,"is_reserved":false,"is_disabled":false,"rental_uris":{"android":"levelo://app?vid=aa633b79-fe17-4442-a8be-a57f766d74e2","ios":"levelo://app?vid=aa633b79-fe17-4442-a8be-a57f766d74e2"},"vehicle_type_id":"4","last_reported":1746000827,"current_range_meters":9200,"station_id":"ce4bh012rcd13ifvqd00","pricing_plan_id":"cebpf4jnsgd1na2vs0mg"},{"bike_id":"6461f39d-bb67-478e-8f03-c75ed0f387e0","system_id":"levelo_inurba_marseille","lat":43.26687,"lon":5.38269,"is_reserved":false,"is_disabled":false,"rental_uris":{"android":"levelo://app?vid=6461f39d-bb67-478e-8f03-c75ed0f387e0","ios":"levelo://app?vid=6461f39d-bb67-478e-8f03-c75ed0f387e0"},"vehicle_type_id":"4","last_reported":1746000827,"current_range_meters":9200,"station_id":"ce4bhg92rcd13ifvqf90","pricing_plan_id":"cebpf4jnsgd1na2vs0mg"},{"bike_id":"8b56f60d-8e72-44d4-b264-a95f9233998c","system_id":"levelo_inurba_marseille","lat":43.24645,"lon":5.38895,"is_reserved":false,"is_disabled":false,"rental_uris":{"android":"levelo://app?vid=8b56f60d-8e72-44d4-b264-a95f9233998c","ios":"levelo://app?vid=8b56f60d-8e72-44d4-b264-a95f9233998c"},"vehicle_type_id":"4","last_reported":1746000827,"current_range_meters":9200,"station_id":"ce4bhg12rcd13ifvqf60","pricing_plan_id":"cebpf4jnsgd1na2vs0mg"},{"bike_id":"63d677dd-43a2-4f8a-86ae-1f86b907f8df","system_id":"levelo_inurba_marseille","lat":43.283685,"lon":5.38641,"is_reserved":false,"is_disabled":true,"rental_uris":{"android":"levelo://app?vid=63d677dd-43a2-4f8a-86ae-1f86b907f8df","ios":"levelo://app?vid=63d677dd-43a2-4f8a-86ae-1f86b907f8df"},"vehicle_type_id":"4","last_reported":1746000827,"current_range_meters":9200,"station_id":"ce4bh492rcd13ifvqdvg","pricing_plan_id":"cebpf4jnsgd1na2vs0mg"},{"bike_id":"1b4cbc1d-a4f3-4f6c-98d1-60c40b27c3d0","system_id":"levelo_inurba_marseille","lat":43.2984,"lon":5.36268,"is_reserved":false,"is_disabled":false,"rental_uris":{"android":"levelo://app?vid=1b4cbc1d-a4f3-4f6c-98d1-60c40b27c3d0","ios":"levelo://app?vid=1b4cbc1d-a4f3-4f6c-98d1-60c40b27c3d0"},"vehicle_type_id":"4","last_reported":1746000827,"current_range_meters":9200,"station_id":"ce4bgpp2rcd13ifvqc3g","pricing_plan_id":"cebpf4jnsgd1na2vs0mg"},{"bike_id":"1203a97e-413d-4fb9-bb60-aab4e896c466","system_id":"levelo_inurba_marseille","lat":43.30263,"lon":5.40072,"is_reserved":false,"is_disabled":false,"rental_uris":{"android":"levelo://app?vid=1203a97e-413d-4fb9-bb60-aab4e896c466","ios":"levelo://app?vid=1203a97e-413d-4fb9-bb60-aab4e896c466"},"vehicle_type_id":"4","last_reported":1746000827,"current_range_meters":9200,"station_id":"ce4bgvh2rcd13ifvqcs0","pricing_plan_id":"cebpf4jnsgd1na2vs0mg"},{"bike_id":"712388ed-a3a4-42de-9660-6adce77d88cd","system_id":"levelo_inurba_marseille","lat":43.284785,"lon":5.384044,"is_reserved":false,"is_disabled":false,"rental_uris":{"android":"levelo://app?vid=712388ed-a3a4-42de-9660-6adce77d88cd","ios":"levelo://app?vid=712388ed-a3a4-42de-9660-6adce77d88cd"},"vehicle_type_id":"4","last_reported":1746000827,"current_range_meters":9200,"station_id":"ce4bh512rcd13ifvqe3g","pricing_plan_id":"cebpf4jnsgd1na2vs0mg"},{"bike_id":"489415b8-9254-45c1-b00c-e7554d56755c","system_id":"levelo_inurba_marseille","lat":43.245186,"lon":5.412198,"is_reserved":false,"is_disabled":false,"rental_uris":{"android":"levelo://app?vid=489415b8-9254-45c1-b00c-e7554d56755c","ios":"levelo://app?vid=489415b8-9254-45c1-b00c-e7554d56755c"},"vehicle_type_id":"4","last_reported":1746000827,"current_range_meters":9600,"station_id":"","pricing_plan_id":"cebpf4jnsgd1na2vs0mg"},{"bike_id":"6e2f07c4-67c0-49c0-a34c-fd94071a9312","system_id":"levelo_inurba_marseille","lat":43.3014,"lon":5.38781,"is_reserved":false,"is_disabled":false,"rental_uris":{"android":"levelo://app?vid=6e2f07c4-67c0-49c0-a34c-fd94071a9312","ios":"levelo://app?vid=6e2f07c4-67c0-49c0-a34c-fd94071a9312"},"vehicle_type_id":"4","last_reported":1746000827,"current_range_meters":9600,"station_id":"ce4bghh2rcd13ifvqb60","pricing_plan_id":"cebpf4jnsgd1na2vs0mg"},{"bike_id":"b40f1f8d-caf8-4930-a4b8-749d8d9c43e8","system_id":"levelo_inurba_marseille","lat":43.30946,"lon":5.39032,"is_reserved":false,"is_disabled":false,"rental_uris":{"android":"levelo://app?vid=b40f1f8d-caf8-4930-a4b8-749d8d9c43e8","ios":"levelo://app?vid=b40f1f8d-caf8-4930-a4b8-749d8d9c43e8"},"vehicle_type_id":"4","last_reported":1746000827,"current_range_meters":9600,"station_id":"ce4bgup2rcd13ifvqco0","pricing_plan_id":"cebpf4jnsgd1na2vs0mg"},{"bike_id":"09943afe-8ee1-471b-bad3-9e20f5f78015","system_id":"levelo_inurba_marseille","lat":43.284404,"lon":5.392004,"is_reserved":false,"is_disabled":false,"rental_uris":{"android":"levelo://app?vid=09943afe-8ee1-471b-bad3-9e20f5f78015","ios":"levelo://app?vid=09943afe-8ee1-471b-bad3-9e20f5f78015"},"vehicle_type_id":"4","last_reported":1746000827,"current_range_meters":9600,"station_id":"ce4bhoh2rcd13ifvqh5g","pricing_plan_id":"cebpf4jnsgd1na2vs0mg"},{"bike_id":"19fc3e83-81e4-48c8-8022-4ced6258448b","system_id":"levelo_inurba_marseille","lat":43.25936,"lon":5.40926,"is_reserved":false,"is_disabled":false,"rental_uris":{"android":"levelo://app?vid=19fc3e83-81e4-48c8-8022-4ced6258448b","ios":"levelo://app?vid=19fc3e83-81e4-48c8-8022-4ced6258448b"},"vehicle_type_id":"4","last_reported":1746000827,"current_range_meters":9600,"station_id":"ce4bhm92rcd13ifvqglg","pricing_plan_id":"cebpf4jnsgd1na2vs0mg"},{"bike_id":"3ae641eb-772b-47f4-9c6f-a55115e8b3d3","system_id":"levelo_inurba_marseille","lat":43.2919,"lon":5.358,"is_reserved":false,"is_disabled":true,"rental_uris":{"android":"levelo://app?vid=3ae641eb-772b-47f4-9c6f-a55115e8b3d3","ios":"levelo://app?vid=3ae641eb-772b-47f4-9c6f-a55115e8b3d3"},"vehicle_type_id":"4","last_reported":1746000827,"current_range_meters":10000,"station_id":"ce4bhb12rcd13ifvqel0","pricing_plan_id":"cebpf4jnsgd1na2vs0mg"},{"bike_id":"312629db-7553-4f57-8655-a25196d01b88","system_id":"levelo_inurba_marseille","lat":43.30365,"lon":5.42429,"is_reserved":false,"is_disabled":false,"rental_uris":{"android":"levelo://app?vid=312629db-7553-4f57-8655-a25196d01b88","ios":"levelo://app?vid=312629db-7553-4f57-8655-a25196d01b88"},"vehicle_type_id":"4","last_reported":1746000827,"current_range_meters":10000,"station_id":"ce4bhoh2rcd13ifvqh6g","pricing_plan_id":"cebpf4jnsgd1na2vs0mg"},{"bike_id":"07edfd45-c3fa-4b57-b865-cf1bf9963264","system_id":"levelo_inurba_marseille","lat":43.234,"lon":5.36416,"is_reserved":false,"is_disabled":false,"rental_uris":{"android":"levelo://app?vid=07edfd45-c3fa-4b57-b865-cf1bf9963264","ios":"levelo://app?vid=07edfd45-c3fa-4b57-b865-cf1bf9963264"},"vehicle_type_id":"4","last_reported":1746000827,"current_range_meters":10000,"station_id":"","pricing_plan_id":"cebpf4jnsgd1na2vs0mg"},{"bike_id":"1c739d15-e4e5-4ccb-8893-081c17757430","system_id":"levelo_inurba_marseille","lat":43.31755,"lon":5.3901,"is_reserved":false,"is_disabled":false,"rental_uris":{"android":"levelo://app?vid=1c739d15-e4e5-4ccb-8893-081c17757430","ios":"levelo://app?vid=1c739d15-e4e5-4ccb-8893-081c17757430"},"vehicle_type_id":"4","last_reported":1746000827,"current_range_meters":10800,"station_id":"ce4bhqp2rcd13ifvqhng","pricing_plan_id":"cebpf4jnsgd1na2vs0mg"},{"bike_id":"ddf42e2f-5ba3-456f-b6b9-71a4fb220f7c","system_id":"levelo_inurba_marseille","lat":43.21757,"lon":5.34606,"is_reserved":false,"is_disabled":false,"rental_uris":{"android":"levelo://app?vid=ddf42e2f-5ba3-456f-b6b9-71a4fb220f7c","ios":"levelo://app?vid=ddf42e2f-5ba3-456f-b6b9-71a4fb220f7c"},"vehicle_type_id":"4","last_reported":1746000827,"current_range_meters":10800,"station_id":"st_cvj6r9ubvosntc0bgbag","pricing_plan_id":"cebpf4jnsgd1na2vs0mg"},{"bike_id":"3a9bd96a-1d84-454e-b55b-a4ef583e3749","system_id":"levelo_inurba_marseille","lat":43.26689,"lon":5.38262,"is_reserved":false,"is_disabled":false,"rental_uris":{"android":"levelo://app?vid=3a9bd96a-1d84-454e-b55b-a4ef583e3749","ios":"levelo://app?vid=3a9bd96a-1d84-454e-b55b-a4ef583e3749"},"vehicle_type_id":"4","last_reported":1746000827,"current_range_meters":10800,"station_id":"ce4bhg92rcd13ifvqf90","pricing_plan_id":"cebpf4jnsgd1na2vs0mg"},{"bike_id":"28a7b18c-6ac4-4d40-9282-ca3debad9cea","system_id":"levelo_inurba_marseille","lat":43.2594,"lon":5.40909,"is_reserved":false,"is_disabled":false,"rental_uris":{"android":"levelo://app?vid=28a7b18c-6ac4-4d40-9282-ca3debad9cea","ios":"levelo://app?vid=28a7b18c-6ac4-4d40-9282-ca3debad9cea"},"vehicle_type_id":"4","last_reported":1746000827,"current_range_meters":10800,"station_id":"ce4bhm92rcd13ifvqglg","pricing_plan_id":"cebpf4jnsgd1na2vs0mg"},{"bike_id":"ac80e985-cfdf-4940-bf6d-bf2ebe2c2fd0","system_id":"levelo_inurba_marseille","lat":43.321014,"lon":5.367673,"is_reserved":false,"is_disabled":false,"rental_uris":{"android":"levelo://app?vid=ac80e985-cfdf-4940-bf6d-bf2ebe2c2fd0","ios":"levelo://app?vid=ac80e985-cfdf-4940-bf6d-bf2ebe2c2fd0"},"vehicle_type_id":"4","last_reported":1746000827,"current_range_meters":11200,"station_id":"ce4bhrh2rcd13ifvqhug","pricing_plan_id":"cebpf4jnsgd1na2vs0mg"},{"bike_id":"9c96fa2b-cf06-42be-bf9d-1ad286722fa3","system_id":"levelo_inurba_marseille","lat":43.31371,"lon":5.38495,"is_reserved":false,"is_disabled":false,"rental_uris":{"android":"levelo://app?vid=9c96fa2b-cf06-42be-bf9d-1ad286722fa3","ios":"levelo://app?vid=9c96fa2b-cf06-42be-bf9d-1ad286722fa3"},"vehicle_type_id":"4","last_reported":1746000827,"current_range_meters":11200,"station_id":"ce4bgt92rcd13ifvqcf0","pricing_plan_id":"cebpf4jnsgd1na2vs0mg"},{"bike_id":"85bf2901-9733-4821-b270-a78ff03b9a3b","system_id":"levelo_inurba_marseille","lat":43.32054,"lon":5.41553,"is_reserved":false,"is_disabled":false,"rental_uris":{"android":"levelo://app?vid=85bf2901-9733-4821-b270-a78ff03b9a3b","ios":"levelo://app?vid=85bf2901-9733-4821-b270-a78ff03b9a3b"},"vehicle_type_id":"4","last_reported":1746000827,"current_range_meters":11600,"station_id":"ce4bhq92rcd13ifvqhkg","pricing_plan_id":"cebpf4jnsgd1na2vs0mg"},{"bike_id":"9f4a623e-f5da-4ce8-8a09-5e7161e7255f","system_id":"levelo_inurba_marseille","lat":43.25077,"lon":5.39511,"is_reserved":false,"is_disabled":false,"rental_uris":{"android":"levelo://app?vid=9f4a623e-f5da-4ce8-8a09-5e7161e7255f","ios":"levelo://app?vid=9f4a623e-f5da-4ce8-8a09-5e7161e7255f"},"vehicle_type_id":"4","last_reported":1746000827,"current_range_meters":11200,"station_id":"ce4bhm12rcd13ifvqgkg","pricing_plan_id":"cebpf4jnsgd1na2vs0mg"},{"bike_id":"6b014de0-1d20-4694-a92f-6ae438be1750","system_id":"levelo_inurba_marseille","lat":43.33599,"lon":5.40985,"is_reserved":false,"is_disabled":false,"rental_uris":{"android":"levelo://app?vid=6b014de0-1d20-4694-a92f-6ae438be1750","ios":"levelo://app?vid=6b014de0-1d20-4694-a92f-6ae438be1750"},"vehicle_type_id":"4","last_reported":1746000827,"current_range_meters":11600,"station_id":"ce4bhqh2rcd13ifvqhmg","pricing_plan_id":"cebpf4jnsgd1na2vs0mg"},{"bike_id":"1f0434db-0ec0-4ac6-a593-74ce77d1d6d2","system_id":"levelo_inurba_marseille","lat":43.23143,"lon":5.4371,"is_reserved":false,"is_disabled":false,"rental_uris":{"android":"levelo://app?vid=1f0434db-0ec0-4ac6-a593-74ce77d1d6d2","ios":"levelo://app?vid=1f0434db-0ec0-4ac6-a593-74ce77d1d6d2"},"vehicle_type_id":"4","last_reported":1746000827,"current_range_meters":11600,"station_id":"ce4bhmp2rcd13ifvqgog","pricing_plan_id":"cebpf4jnsgd1na2vs0mg"},{"bike_id":"ebe5c390-cd92-4b54-bf0a-9dd4939e3df8","system_id":"levelo_inurba_marseille","lat":43.25121,"lon":5.40315,"is_reserved":false,"is_disabled":false,"rental_uris":{"android":"levelo://app?vid=ebe5c390-cd92-4b54-bf0a-9dd4939e3df8","ios":"levelo://app?vid=ebe5c390-cd92-4b54-bf0a-9dd4939e3df8"},"vehicle_type_id":"4","last_reported":1746000827,"current_range_meters":11600,"station_id":"ce4bhlh2rcd13ifvqgig","pricing_plan_id":"cebpf4jnsgd1na2vs0mg"},{"bike_id":"dcb0b990-89f9-495c-a9c1-10b17ae39667","system_id":"levelo_inurba_marseille","lat":43.23481,"lon":5.3804,"is_reserved":false,"is_disabled":false,"rental_uris":{"android":"levelo://app?vid=dcb0b990-89f9-495c-a9c1-10b17ae39667","ios":"levelo://app?vid=dcb0b990-89f9-495c-a9c1-10b17ae39667"},"vehicle_type_id":"4","last_reported":1746000827,"current_range_meters":11600,"station_id":"","pricing_plan_id":"cebpf4jnsgd1na2vs0mg"},{"bike_id":"c312485e-f19e-461e-a699-effefbd19c50","system_id":"levelo_inurba_marseille","lat":43.30311,"lon":5.36903,"is_reserved":false,"is_disabled":false,"rental_uris":{"android":"levelo://app?vid=c312485e-f19e-461e-a699-effefbd19c50","ios":"levelo://app?vid=c312485e-f19e-461e-a699-effefbd19c50"},"vehicle_type_id":"4","last_reported":1746000827,"current_range_meters":11600,"station_id":"ce4bgqh2rcd13ifvqc5g","pricing_plan_id":"cebpf4jnsgd1na2vs0mg"},{"bike_id":"3f2de139-afc2-4523-a3ec-f865268c9637","system_id":"levelo_inurba_marseille","lat":43.30911,"lon":5.36841,"is_reserved":false,"is_disabled":false,"rental_uris":{"android":"levelo://app?vid=3f2de139-afc2-4523-a3ec-f865268c9637","ios":"levelo://app?vid=3f2de139-afc2-4523-a3ec-f865268c9637"},"vehicle_type_id":"4","last_reported":1746000827,"current_range_meters":12000,"station_id":"ce4bgn92rcd13ifvqbvg","pricing_plan_id":"cebpf4jnsgd1na2vs0mg"},{"bike_id":"d6f05b7c-26d3-4df6-9208-816f6c5be022","system_id":"levelo_inurba_marseille","lat":43.31084,"lon":5.42429,"is_reserved":false,"is_disabled":false,"rental_uris":{"android":"levelo://app?vid=d6f05b7c-26d3-4df6-9208-816f6c5be022","ios":"levelo://app?vid=d6f05b7c-26d3-4df6-9208-816f6c5be022"},"vehicle_type_id":"4","last_reported":1746000827,"current_range_meters":12000,"station_id":"ce4bhp92rcd13ifvqhag","pricing_plan_id":"cebpf4jnsgd1na2vs0mg"},{"bike_id":"12272519-edfa-4f4d-9934-35c95b3db974","system_id":"levelo_inurba_marseille","lat":43.31197,"lon":5.36847,"is_reserved":false,"is_disabled":false,"rental_uris":{"android":"levelo://app?vid=12272519-edfa-4f4d-9934-35c95b3db974","ios":"levelo://app?vid=12272519-edfa-4f4d-9934-35c95b3db974"},"vehicle_type_id":"4","last_reported":1746000827,"current_range_meters":12000,"station_id":"ce4bgl92rcd13ifvqbq0","pricing_plan_id":"cebpf4jnsgd1na2vs0mg"},{"bike_id":"0a21ae57-5317-4572-8b4a-6ed5cbd2978d","system_id":"levelo_inurba_marseille","lat":43.30431,"lon":5.39746,"is_reserved":false,"is_disabled":false,"rental_uris":{"android":"levelo://app?vid=0a21ae57-5317-4572-8b4a-6ed5cbd2978d","ios":"levelo://app?vid=0a21ae57-5317-4572-8b4a-6ed5cbd2978d"},"vehicle_type_id":"4","last_reported":1746000827,"current_range_meters":11600,"station_id":"ce4bh092rcd13ifvqd20","pricing_plan_id":"cebpf4jnsgd1na2vs0mg"},{"bike_id":"ea4c512e-891d-48a9-98fd-e9d1f699ac8e","system_id":"levelo_inurba_marseille","lat":43.2943,"lon":5.39752,"is_reserved":false,"is_disabled":false,"rental_uris":{"android":"levelo://app?vid=ea4c512e-891d-48a9-98fd-e9d1f699ac8e","ios":"levelo://app?vid=ea4c512e-891d-48a9-98fd-e9d1f699ac8e"},"vehicle_type_id":"4","last_reported":1746000827,"current_range_meters":12400,"station_id":"ce4bh3h2rcd13ifvqdo0","pricing_plan_id":"cebpf4jnsgd1na2vs0mg"},{"bike_id":"bcb4eab8-79de-4255-9112-4c523371b855","system_id":"levelo_inurba_marseille","lat":43.28843,"lon":5.393,"is_reserved":false,"is_disabled":false,"rental_uris":{"android":"levelo://app?vid=bcb4eab8-79de-4255-9112-4c523371b855","ios":"levelo://app?vid=bcb4eab8-79de-4255-9112-4c523371b855"},"vehicle_type_id":"4","last_reported":1746000827,"current_range_meters":12400,"station_id":"ce4bh2p2rcd13ifvqdi0","pricing_plan_id":"cebpf4jnsgd1na2vs0mg"},{"bike_id":"f27ad1c3-409e-4d3f-9da2-ad28dfd8b351","system_id":"levelo_inurba_marseille","lat":43.26688,"lon":5.38269,"is_reserved":false,"is_disabled":false,"rental_uris":{"android":"levelo://app?vid=f27ad1c3-409e-4d3f-9da2-ad28dfd8b351","ios":"levelo://app?vid=f27ad1c3-409e-4d3f-9da2-ad28dfd8b351"},"vehicle_type_id":"4","last_reported":1746000827,"current_range_meters":12400,"station_id":"ce4bhg92rcd13ifvqf90","pricing_plan_id":"cebpf4jnsgd1na2vs0mg"},{"bike_id":"b9317f6e-2a1a-4d24-aab1-606d1c7aa02d","system_id":"levelo_inurba_marseille","lat":43.25868,"lon":5.39897,"is_reserved":false,"is_disabled":false,"rental_uris":{"android":"levelo://app?vid=b9317f6e-2a1a-4d24-aab1-606d1c7aa02d","ios":"levelo://app?vid=b9317f6e-2a1a-4d24-aab1-606d1c7aa02d"},"vehicle_type_id":"4","last_reported":1746000827,"current_range_meters":12400,"station_id":"ce4bhl92rcd13ifvqghg","pricing_plan_id":"cebpf4jnsgd1na2vs0mg"},{"bike_id":"3b166886-add6-4a8b-9e33-168fddbaaa29","system_id":"levelo_inurba_marseille","lat":43.24181,"lon":5.39722,"is_reserved":false,"is_disabled":false,"rental_uris":{"android":"levelo://app?vid=3b166886-add6-4a8b-9e33-168fddbaaa29","ios":"levelo://app?vid=3b166886-add6-4a8b-9e33-168fddbaaa29"},"vehicle_type_id":"4","last_reported":1746000827,"current_range_meters":12400,"station_id":"ce4bhn12rcd13ifvqgpg","pricing_plan_id":"cebpf4jnsgd1na2vs0mg"},{"bike_id":"9539d15d-ff21-49d1-b3d6-cfed83502aa0","system_id":"levelo_inurba_marseille","lat":43.25921,"lon":5.40884,"is_reserved":false,"is_disabled":false,"rental_uris":{"android":"levelo://app?vid=9539d15d-ff21-49d1-b3d6-cfed83502aa0","ios":"levelo://app?vid=9539d15d-ff21-49d1-b3d6-cfed83502aa0"},"vehicle_type_id":"4","last_reported":1746000827,"current_range_meters":12800,"station_id":"ce4bhm92rcd13ifvqglg","pricing_plan_id":"cebpf4jnsgd1na2vs0mg"},{"bike_id":"8e66df2a-406f-4431-a7b3-e75cded4023f","system_id":"levelo_inurba_marseille","lat":43.24167,"lon":5.36396,"is_reserved":false,"is_disabled":false,"rental_uris":{"android":"levelo://app?vid=8e66df2a-406f-4431-a7b3-e75cded4023f","ios":"levelo://app?vid=8e66df2a-406f-4431-a7b3-e75cded4023f"},"vehicle_type_id":"4","last_reported":1746000827,"current_range_meters":12800,"station_id":"cpo36qri1sfpv3e86is0","pricing_plan_id":"cebpf4jnsgd1na2vs0mg"},{"bike_id":"db0b117a-e335-4082-ad28-2659c44e8f8b","system_id":"levelo_inurba_marseille","lat":43.30541,"lon":5.36551,"is_reserved":false,"is_disabled":false,"rental_uris":{"android":"levelo://app?vid=db0b117a-e335-4082-ad28-2659c44e8f8b","ios":"levelo://app?vid=db0b117a-e335-4082-ad28-2659c44e8f8b"},"vehicle_type_id":"4","last_reported":1746000827,"current_range_meters":12800,"station_id":"ce4bgs12rcd13ifvqcag","pricing_plan_id":"cebpf4jnsgd1na2vs0mg"},{"bike_id":"e4c6c18c-562b-40b1-8371-77078e7b2d6b","system_id":"levelo_inurba_marseille","lat":43.23964,"lon":5.36627,"is_reserved":false,"is_disabled":false,"rental_uris":{"android":"levelo://app?vid=e4c6c18c-562b-40b1-8371-77078e7b2d6b","ios":"levelo://app?vid=e4c6c18c-562b-40b1-8371-77078e7b2d6b"},"vehicle_type_id":"4","last_reported":1746000827,"current_range_meters":12800,"station_id":"ce4bhi12rcd13ifvqfp0","pricing_plan_id":"cebpf4jnsgd1na2vs0mg"},{"bike_id":"1ec295d3-ad10-4906-82af-c2b51c243122","system_id":"levelo_inurba_marseille","lat":43.32498,"lon":5.36551,"is_reserved":false,"is_disabled":false,"rental_uris":{"android":"levelo://app?vid=1ec295d3-ad10-4906-82af-c2b51c243122","ios":"levelo://app?vid=1ec295d3-ad10-4906-82af-c2b51c243122"},"vehicle_type_id":"4","last_reported":1746000827,"current_range_meters":13600,"station_id":"ce4bhs12rcd13ifvqhvg","pricing_plan_id":"cebpf4jnsgd1na2vs0mg"},{"bike_id":"b41ab7e3-7a70-46e9-a8fc-e041c0fdc053","system_id":"levelo_inurba_marseille","lat":43.2593,"lon":5.40908,"is_reserved":false,"is_disabled":false,"rental_uris":{"android":"levelo://app?vid=b41ab7e3-7a70-46e9-a8fc-e041c0fdc053","ios":"levelo://app?vid=b41ab7e3-7a70-46e9-a8fc-e041c0fdc053"},"vehicle_type_id":"4","last_reported":1746000827,"current_range_meters":13600,"station_id":"ce4bhm92rcd13ifvqglg","pricing_plan_id":"cebpf4jnsgd1na2vs0mg"},{"bike_id":"e5e92a64-e709-4b1a-a9b1-cbffe85789ca","system_id":"levelo_inurba_marseille","lat":43.25544,"lon":5.38135,"is_reserved":false,"is_disabled":false,"rental_uris":{"android":"levelo://app?vid=e5e92a64-e709-4b1a-a9b1-cbffe85789ca","ios":"levelo://app?vid=e5e92a64-e709-4b1a-a9b1-cbffe85789ca"},"vehicle_type_id":"4","last_reported":1746000827,"current_range_meters":13600,"station_id":"","pricing_plan_id":"cebpf4jnsgd1na2vs0mg"},{"bike_id":"f42fe9c5-542e-433e-9339-8f23e7c287f7","system_id":"levelo_inurba_marseille","lat":43.2892,"lon":5.38401,"is_reserved":false,"is_disabled":false,"rental_uris":{"android":"levelo://app?vid=f42fe9c5-542e-433e-9339-8f23e7c287f7","ios":"levelo://app?vid=f42fe9c5-542e-433e-9339-8f23e7c287f7"},"vehicle_type_id":"4","last_reported":1746000827,"current_range_meters":14000,"station_id":"ce4bh612rcd13ifvqe6g","pricing_plan_id":"cebpf4jnsgd1na2vs0mg"},{"bike_id":"ad937524-79f2-40eb-a41d-8d257d37a6dc","system_id":"levelo_inurba_marseille","lat":43.29862,"lon":5.39748,"is_reserved":false,"is_disabled":false,"rental_uris":{"android":"levelo://app?vid=ad937524-79f2-40eb-a41d-8d257d37a6dc","ios":"levelo://app?vid=ad937524-79f2-40eb-a41d-8d257d37a6dc"},"vehicle_type_id":"4","last_reported":1746000827,"current_range_meters":13600,"station_id":"ce4bh0h2rcd13ifvqd50","pricing_plan_id":"cebpf4jnsgd1na2vs0mg"},{"bike_id":"2cbe2fab-72a1-4bcd-8c44-98069ca26f60","system_id":"levelo_inurba_marseille","lat":43.30907,"lon":5.36851,"is_reserved":false,"is_disabled":false,"rental_uris":{"android":"levelo://app?vid=2cbe2fab-72a1-4bcd-8c44-98069ca26f60","ios":"levelo://app?vid=2cbe2fab-72a1-4bcd-8c44-98069ca26f60"},"vehicle_type_id":"4","last_reported":1746000827,"current_range_meters":14000,"station_id":"ce4bgn92rcd13ifvqbvg","pricing_plan_id":"cebpf4jnsgd1na2vs0mg"},{"bike_id":"a9d1eec8-9802-409e-9097-25bff9c95096","system_id":"levelo_inurba_marseille","lat":43.24067,"lon":5.37764,"is_reserved":false,"is_disabled":false,"rental_uris":{"android":"levelo://app?vid=a9d1eec8-9802-409e-9097-25bff9c95096","ios":"levelo://app?vid=a9d1eec8-9802-409e-9097-25bff9c95096"},"vehicle_type_id":"4","last_reported":1746000827,"current_range_meters":14000,"station_id":"ce4bhnp2rcd13ifvqgvg","pricing_plan_id":"cebpf4jnsgd1na2vs0mg"},{"bike_id":"f9b2d1ab-d1f3-4562-9789-31f5704b0737","system_id":"levelo_inurba_marseille","lat":43.34146,"lon":5.40911,"is_reserved":false,"is_disabled":false,"rental_uris":{"android":"levelo://app?vid=f9b2d1ab-d1f3-4562-9789-31f5704b0737","ios":"levelo://app?vid=f9b2d1ab-d1f3-4562-9789-31f5704b0737"},"vehicle_type_id":"4","last_reported":1746000827,"current_range_meters":14000,"station_id":"ce4bhqh2rcd13ifvqhlg","pricing_plan_id":"cebpf4jnsgd1na2vs0mg"},{"bike_id":"1f675daf-e2a2-4afe-8393-80cf2c3b8b30","system_id":"levelo_inurba_marseille","lat":43.25932,"lon":5.40906,"is_reserved":false,"is_disabled":false,"rental_uris":{"android":"levelo://app?vid=1f675daf-e2a2-4afe-8393-80cf2c3b8b30","ios":"levelo://app?vid=1f675daf-e2a2-4afe-8393-80cf2c3b8b30"},"vehicle_type_id":"4","last_reported":1746000827,"current_range_meters":14000,"station_id":"ce4bhm92rcd13ifvqglg","pricing_plan_id":"cebpf4jnsgd1na2vs0mg"},{"bike_id":"4804cc20-7071-4050-88b4-d3bf8a36c464","system_id":"levelo_inurba_marseille","lat":43.29816,"lon":5.38122,"is_reserved":false,"is_disabled":false,"rental_uris":{"android":"levelo://app?vid=4804cc20-7071-4050-88b4-d3bf8a36c464","ios":"levelo://app?vid=4804cc20-7071-4050-88b4-d3bf8a36c464"},"vehicle_type_id":"4","last_reported":1746000827,"current_range_meters":14000,"station_id":"ce4bgip2rcd13ifvqbb0","pricing_plan_id":"cebpf4jnsgd1na2vs0mg"},{"bike_id":"2867f576-ffe9-44c4-ae52-1a100a86cb79","system_id":"levelo_inurba_marseille","lat":43.3014,"lon":5.3741,"is_reserved":false,"is_disabled":false,"rental_uris":{"android":"levelo://app?vid=2867f576-ffe9-44c4-ae52-1a100a86cb79","ios":"levelo://app?vid=2867f576-ffe9-44c4-ae52-1a100a86cb79"},"vehicle_type_id":"4","last_reported":1746000827,"current_range_meters":14400,"station_id":"ce4bgs92rcd13ifvqcc0","pricing_plan_id":"cebpf4jnsgd1na2vs0mg"},{"bike_id":"bfa9e620-c77f-4d87-a4c3-5b7e2c9113d2","system_id":"levelo_inurba_marseille","lat":43.292239,"lon":5.360603,"is_reserved":false,"is_disabled":false,"rental_uris":{"android":"levelo://app?vid=bfa9e620-c77f-4d87-a4c3-5b7e2c9113d2","ios":"levelo://app?vid=bfa9e620-c77f-4d87-a4c3-5b7e2c9113d2"},"vehicle_type_id":"4","last_reported":1746000827,"current_range_meters":14400,"station_id":"ce4bhbh2rcd13ifvqeqg","pricing_plan_id":"cebpf4jnsgd1na2vs0mg"},{"bike_id":"a3f2095f-a859-4c20-a8aa-beb539d184ea","system_id":"levelo_inurba_marseille","lat":43.29036,"lon":5.39953,"is_reserved":false,"is_disabled":false,"rental_uris":{"android":"levelo://app?vid=a3f2095f-a859-4c20-a8aa-beb539d184ea","ios":"levelo://app?vid=a3f2095f-a859-4c20-a8aa-beb539d184ea"},"vehicle_type_id":"4","last_reported":1746000827,"current_range_meters":14400,"station_id":"ce4bh392rcd13ifvqdm0","pricing_plan_id":"cebpf4jnsgd1na2vs0mg"},{"bike_id":"1bb456d2-6004-4862-b63e-3522da73d73d","system_id":"levelo_inurba_marseille","lat":43.30544,"lon":5.36533,"is_reserved":false,"is_disabled":false,"rental_uris":{"android":"levelo://app?vid=1bb456d2-6004-4862-b63e-3522da73d73d","ios":"levelo://app?vid=1bb456d2-6004-4862-b63e-3522da73d73d"},"vehicle_type_id":"4","last_reported":1746000827,"current_range_meters":14400,"station_id":"ce4bgs12rcd13ifvqcag","pricing_plan_id":"cebpf4jnsgd1na2vs0mg"},{"bike_id":"c40dfeef-a4cd-48af-9e60-2de71d869ddc","system_id":"levelo_inurba_marseille","lat":43.30952,"lon":5.39034,"is_reserved":false,"is_disabled":false,"rental_uris":{"android":"levelo://app?vid=c40dfeef-a4cd-48af-9e60-2de71d869ddc","ios":"levelo://app?vid=c40dfeef-a4cd-48af-9e60-2de71d869ddc"},"vehicle_type_id":"4","last_reported":1746000827,"current_range_meters":14800,"station_id":"ce4bgup2rcd13ifvqco0","pricing_plan_id":"cebpf4jnsgd1na2vs0mg"},{"bike_id":"fc37ea2f-e7ef-49c4-9fd9-32c1b5af5cc2","system_id":"levelo_inurba_marseille","lat":43.29144,"lon":5.40278,"is_reserved":false,"is_disabled":false,"rental_uris":{"android":"levelo://app?vid=fc37ea2f-e7ef-49c4-9fd9-32c1b5af5cc2","ios":"levelo://app?vid=fc37ea2f-e7ef-49c4-9fd9-32c1b5af5cc2"},"vehicle_type_id":"4","last_reported":1746000827,"current_range_meters":14800,"station_id":"ce4bh392rcd13ifvqdm0","pricing_plan_id":"cebpf4jnsgd1na2vs0mg"},{"bike_id":"4fda502e-8180-4eb2-97e5-6521d9824005","system_id":"levelo_inurba_marseille","lat":43.3052,"lon":5.380703,"is_reserved":false,"is_disabled":false,"rental_uris":{"android":"levelo://app?vid=4fda502e-8180-4eb2-97e5-6521d9824005","ios":"levelo://app?vid=4fda502e-8180-4eb2-97e5-6521d9824005"},"vehicle_type_id":"4","last_reported":1746000827,"current_range_meters":14800,"station_id":"","pricing_plan_id":"cebpf4jnsgd1na2vs0mg"},{"bike_id":"e5c9e410-09a2-4a8b-8618-7674c87d16f0","system_id":"levelo_inurba_marseille","lat":43.29307,"lon":5.37414,"is_reserved":false,"is_disabled":false,"rental_uris":{"android":"levelo://app?vid=e5c9e410-09a2-4a8b-8618-7674c87d16f0","ios":"levelo://app?vid=e5c9e410-09a2-4a8b-8618-7674c87d16f0"},"vehicle_type_id":"4","last_reported":1746000827,"current_range_meters":14800,"station_id":"ce4bgi12rcd13ifvqb70","pricing_plan_id":"cebpf4jnsgd1na2vs0mg"},{"bike_id":"e217c08a-a762-4798-9ed0-20be46e7660d","system_id":"levelo_inurba_marseille","lat":43.2984,"lon":5.36268,"is_reserved":false,"is_disabled":false,"rental_uris":{"android":"levelo://app?vid=e217c08a-a762-4798-9ed0-20be46e7660d","ios":"levelo://app?vid=e217c08a-a762-4798-9ed0-20be46e7660d"},"vehicle_type_id":"4","last_reported":1746000827,"current_range_meters":14800,"station_id":"ce4bgpp2rcd13ifvqc3g","pricing_plan_id":"cebpf4jnsgd1na2vs0mg"},{"bike_id":"13838789-0d99-4ed1-9967-dfe518e240d5","system_id":"levelo_inurba_marseille","lat":43.24078,"lon":5.37766,"is_reserved":false,"is_disabled":false,"rental_uris":{"android":"levelo://app?vid=13838789-0d99-4ed1-9967-dfe518e240d5","ios":"levelo://app?vid=13838789-0d99-4ed1-9967-dfe518e240d5"},"vehicle_type_id":"4","last_reported":1746000827,"current_range_meters":15200,"station_id":"ce4bhnp2rcd13ifvqgvg","pricing_plan_id":"cebpf4jnsgd1na2vs0mg"},{"bike_id":"d88f1c89-45c5-49a2-9923-ca805a5fb6a9","system_id":"levelo_inurba_marseille","lat":43.3054,"lon":5.36559,"is_reserved":false,"is_disabled":false,"rental_uris":{"android":"levelo://app?vid=d88f1c89-45c5-49a2-9923-ca805a5fb6a9","ios":"levelo://app?vid=d88f1c89-45c5-49a2-9923-ca805a5fb6a9"},"vehicle_type_id":"4","last_reported":1746000827,"current_range_meters":15200,"station_id":"ce4bgs12rcd13ifvqcag","pricing_plan_id":"cebpf4jnsgd1na2vs0mg"},{"bike_id":"c89993ce-b675-4c4b-82a8-7a23f48a6d3f","system_id":"levelo_inurba_marseille","lat":43.27423,"lon":5.39405,"is_reserved":false,"is_disabled":false,"rental_uris":{"android":"levelo://app?vid=c89993ce-b675-4c4b-82a8-7a23f48a6d3f","ios":"levelo://app?vid=c89993ce-b675-4c4b-82a8-7a23f48a6d3f"},"vehicle_type_id":"4","last_reported":1746000827,"current_range_meters":15200,"station_id":"ce4bhdp2rcd13ifvqf20","pricing_plan_id":"cebpf4jnsgd1na2vs0mg"},{"bike_id":"da331544-e76b-45b2-b7f1-975177c878a6","system_id":"levelo_inurba_marseille","lat":43.28615,"lon":5.35107,"is_reserved":false,"is_disabled":false,"rental_uris":{"android":"levelo://app?vid=da331544-e76b-45b2-b7f1-975177c878a6","ios":"levelo://app?vid=da331544-e76b-45b2-b7f1-975177c878a6"},"vehicle_type_id":"4","last_reported":1746000827,"current_range_meters":16000,"station_id":"ce4bhch2rcd13ifvqeug","pricing_plan_id":"cebpf4jnsgd1na2vs0mg"},{"bike_id":"782bdff6-cf98-428e-ac6e-d01b577dc917","system_id":"levelo_inurba_marseille","lat":43.33597,"lon":5.41026,"is_reserved":false,"is_disabled":false,"rental_uris":{"android":"levelo://app?vid=782bdff6-cf98-428e-ac6e-d01b577dc917","ios":"levelo://app?vid=782bdff6-cf98-428e-ac6e-d01b577dc917"},"vehicle_type_id":"4","last_reported":1746000827,"current_range_meters":15200,"station_id":"ce4bhqh2rcd13ifvqhmg","pricing_plan_id":"cebpf4jnsgd1na2vs0mg"},{"bike_id":"c8ceb8e9-785b-4de9-9930-3fbc66d30b00","system_id":"levelo_inurba_marseille","lat":43.217496,"lon":5.346178,"is_reserved":false,"is_disabled":true,"rental_uris":{"android":"levelo://app?vid=c8ceb8e9-785b-4de9-9930-3fbc66d30b00","ios":"levelo://app?vid=c8ceb8e9-785b-4de9-9930-3fbc66d30b00"},"vehicle_type_id":"4","last_reported":1746000827,"current_range_meters":16000,"station_id":"st_cvj6r9ubvosntc0bgbag","pricing_plan_id":"cebpf4jnsgd1na2vs0mg"},{"bike_id":"2d6ab891-0542-48d0-9cf4-b65796462054","system_id":"levelo_inurba_marseille","lat":43.284,"lon":5.37515,"is_reserved":false,"is_disabled":false,"rental_uris":{"android":"levelo://app?vid=2d6ab891-0542-48d0-9cf4-b65796462054","ios":"levelo://app?vid=2d6ab891-0542-48d0-9cf4-b65796462054"},"vehicle_type_id":"4","last_reported":1746000827,"current_range_meters":16400,"station_id":"ce4bh412rcd13ifvqds0","pricing_plan_id":"cebpf4jnsgd1na2vs0mg"},{"bike_id":"86c2979e-8cf6-48ed-bdb1-835ff11e3adc","system_id":"levelo_inurba_marseille","lat":43.25377,"lon":5.41835,"is_reserved":false,"is_disabled":false,"rental_uris":{"android":"levelo://app?vid=86c2979e-8cf6-48ed-bdb1-835ff11e3adc","ios":"levelo://app?vid=86c2979e-8cf6-48ed-bdb1-835ff11e3adc"},"vehicle_type_id":"4","last_reported":1746000827,"current_range_meters":16400,"station_id":"","pricing_plan_id":"cebpf4jnsgd1na2vs0mg"},{"bike_id":"bd144d6f-b971-4b9c-ac00-3ff747426117","system_id":"levelo_inurba_marseille","lat":43.325355,"lon":5.414465,"is_reserved":false,"is_disabled":false,"rental_uris":{"android":"levelo://app?vid=bd144d6f-b971-4b9c-ac00-3ff747426117","ios":"levelo://app?vid=bd144d6f-b971-4b9c-ac00-3ff747426117"},"vehicle_type_id":"4","last_reported":1746000827,"current_range_meters":16400,"station_id":"ce4bhq12rcd13ifvqhhg","pricing_plan_id":"cebpf4jnsgd1na2vs0mg"},{"bike_id":"1a9d4144-ae06-4272-8bd4-feb7fac8bbd2","system_id":"levelo_inurba_marseille","lat":43.24064,"lon":5.37753,"is_reserved":false,"is_disabled":false,"rental_uris":{"android":"levelo://app?vid=1a9d4144-ae06-4272-8bd4-feb7fac8bbd2","ios":"levelo://app?vid=1a9d4144-ae06-4272-8bd4-feb7fac8bbd2"},"vehicle_type_id":"4","last_reported":1746000827,"current_range_meters":16400,"station_id":"ce4bhnp2rcd13ifvqgvg","pricing_plan_id":"cebpf4jnsgd1na2vs0mg"},{"bike_id":"bd98dea7-1bf8-403f-af9d-4a32a280a923","system_id":"levelo_inurba_marseille","lat":43.25924,"lon":5.40902,"is_reserved":false,"is_disabled":false,"rental_uris":{"android":"levelo://app?vid=bd98dea7-1bf8-403f-af9d-4a32a280a923","ios":"levelo://app?vid=bd98dea7-1bf8-403f-af9d-4a32a280a923"},"vehicle_type_id":"4","last_reported":1746000827,"current_range_meters":16400,"station_id":"ce4bhm92rcd13ifvqglg","pricing_plan_id":"cebpf4jnsgd1na2vs0mg"},{"bike_id":"35e6842a-a259-4059-924b-81959edb9697","system_id":"levelo_inurba_marseille","lat":43.241743,"lon":5.397313,"is_reserved":false,"is_disabled":false,"rental_uris":{"android":"levelo://app?vid=35e6842a-a259-4059-924b-81959edb9697","ios":"levelo://app?vid=35e6842a-a259-4059-924b-81959edb9697"},"vehicle_type_id":"4","last_reported":1746000827,"current_range_meters":16400,"station_id":"ce4bhn12rcd13ifvqgpg","pricing_plan_id":"cebpf4jnsgd1na2vs0mg"},{"bike_id":"9898009a-c07a-4103-80b0-b49395dd994c","system_id":"levelo_inurba_marseille","lat":43.31326,"lon":5.39686,"is_reserved":false,"is_disabled":false,"rental_uris":{"android":"levelo://app?vid=9898009a-c07a-4103-80b0-b49395dd994c","ios":"levelo://app?vid=9898009a-c07a-4103-80b0-b49395dd994c"},"vehicle_type_id":"4","last_reported":1746000827,"current_range_meters":16800,"station_id":"ce4bgvp2rcd13ifvqcu0","pricing_plan_id":"cebpf4jnsgd1na2vs0mg"},{"bike_id":"794abad0-0367-49fa-87dc-e7d488598495","system_id":"levelo_inurba_marseille","lat":43.28275,"lon":5.35064,"is_reserved":false,"is_disabled":false,"rental_uris":{"android":"levelo://app?vid=794abad0-0367-49fa-87dc-e7d488598495","ios":"levelo://app?vid=794abad0-0367-49fa-87dc-e7d488598495"},"vehicle_type_id":"4","last_reported":1746000827,"current_range_meters":16800,"station_id":"ce4bhbp2rcd13ifvqerg","pricing_plan_id":"cebpf4jnsgd1na2vs0mg"},{"bike_id":"79f39737-7fac-4f77-a728-45fee5bb2bcc","system_id":"levelo_inurba_marseille","lat":43.262082,"lon":5.374418,"is_reserved":false,"is_disabled":false,"rental_uris":{"android":"levelo://app?vid=79f39737-7fac-4f77-a728-45fee5bb2bcc","ios":"levelo://app?vid=79f39737-7fac-4f77-a728-45fee5bb2bcc"},"vehicle_type_id":"4","last_reported":1746000827,"current_range_meters":16800,"station_id":"ce4bhgp2rcd13ifvqfc0","pricing_plan_id":"cebpf4jnsgd1na2vs0mg"},{"bike_id":"c125d997-153d-4eac-8b95-443ec4d61b97","system_id":"levelo_inurba_marseille","lat":43.29959,"lon":5.37182,"is_reserved":false,"is_disabled":false,"rental_uris":{"android":"levelo://app?vid=c125d997-153d-4eac-8b95-443ec4d61b97","ios":"levelo://app?vid=c125d997-153d-4eac-8b95-443ec4d61b97"},"vehicle_type_id":"4","last_reported":1746000827,"current_range_meters":16800,"station_id":"ce4bgr92rcd13ifvqc7g","pricing_plan_id":"cebpf4jnsgd1na2vs0mg"},{"bike_id":"351a10a2-c0d7-448b-acc4-bc96e28dd10d","system_id":"levelo_inurba_marseille","lat":43.30922,"lon":5.36861,"is_reserved":false,"is_disabled":false,"rental_uris":{"android":"levelo://app?vid=351a10a2-c0d7-448b-acc4-bc96e28dd10d","ios":"levelo://app?vid=351a10a2-c0d7-448b-acc4-bc96e28dd10d"},"vehicle_type_id":"4","last_reported":1746000827,"current_range_meters":16800,"station_id":"ce4bgn92rcd13ifvqbvg","pricing_plan_id":"cebpf4jnsgd1na2vs0mg"},{"bike_id":"1563cab1-ed2d-4e07-af39-9eaa81a678d1","system_id":"levelo_inurba_marseille","lat":43.270524,"lon":5.40261,"is_reserved":false,"is_disabled":false,"rental_uris":{"android":"levelo://app?vid=1563cab1-ed2d-4e07-af39-9eaa81a678d1","ios":"levelo://app?vid=1563cab1-ed2d-4e07-af39-9eaa81a678d1"},"vehicle_type_id":"4","last_reported":1746000827,"current_range_meters":16800,"station_id":"ce4bhk92rcd13ifvqgc0","pricing_plan_id":"cebpf4jnsgd1na2vs0mg"},{"bike_id":"365be852-3232-44de-b255-15d0e148c505","system_id":"levelo_inurba_marseille","lat":43.33596,"lon":5.40999,"is_reserved":false,"is_disabled":false,"rental_uris":{"android":"levelo://app?vid=365be852-3232-44de-b255-15d0e148c505","ios":"levelo://app?vid=365be852-3232-44de-b255-15d0e148c505"},"vehicle_type_id":"4","last_reported":1746000827,"current_range_meters":16800,"station_id":"ce4bhqh2rcd13ifvqhmg","pricing_plan_id":"cebpf4jnsgd1na2vs0mg"},{"bike_id":"ddfec363-a5ac-4d4b-8a8e-a173e3bcc161","system_id":"levelo_inurba_marseille","lat":43.28721,"lon":5.37937,"is_reserved":false,"is_disabled":false,"rental_uris":{"android":"levelo://app?vid=ddfec363-a5ac-4d4b-8a8e-a173e3bcc161","ios":"levelo://app?vid=ddfec363-a5ac-4d4b-8a8e-a173e3bcc161"},"vehicle_type_id":"4","last_reported":1746000827,"current_range_meters":17600,"station_id":"ce4bh9p2rcd13ifvqec0","pricing_plan_id":"cebpf4jnsgd1na2vs0mg"},{"bike_id":"e8a2c583-5738-491b-b394-b5f8ff0aa6b9","system_id":"levelo_inurba_marseille","lat":43.23153,"lon":5.43705,"is_reserved":false,"is_disabled":false,"rental_uris":{"android":"levelo://app?vid=e8a2c583-5738-491b-b394-b5f8ff0aa6b9","ios":"levelo://app?vid=e8a2c583-5738-491b-b394-b5f8ff0aa6b9"},"vehicle_type_id":"4","last_reported":1746000827,"current_range_meters":17200,"station_id":"ce4bhmp2rcd13ifvqgog","pricing_plan_id":"cebpf4jnsgd1na2vs0mg"},{"bike_id":"9e8a6e0c-aa72-4b18-84d1-c63154464926","system_id":"levelo_inurba_marseille","lat":43.23148,"lon":5.43722,"is_reserved":false,"is_disabled":false,"rental_uris":{"android":"levelo://app?vid=9e8a6e0c-aa72-4b18-84d1-c63154464926","ios":"levelo://app?vid=9e8a6e0c-aa72-4b18-84d1-c63154464926"},"vehicle_type_id":"4","last_reported":1746000827,"current_range_meters":17600,"station_id":"ce4bhmp2rcd13ifvqgog","pricing_plan_id":"cebpf4jnsgd1na2vs0mg"},{"bike_id":"7940bc1b-eaa7-4f49-a435-46dc9391f6a1","system_id":"levelo_inurba_marseille","lat":43.21192,"lon":5.35055,"is_reserved":false,"is_disabled":false,"rental_uris":{"android":"levelo://app?vid=7940bc1b-eaa7-4f49-a435-46dc9391f6a1","ios":"levelo://app?vid=7940bc1b-eaa7-4f49-a435-46dc9391f6a1"},"vehicle_type_id":"4","last_reported":1746000827,"current_range_meters":17600,"station_id":"st_cvj6sg6p6f1abm77japg","pricing_plan_id":"cebpf4jnsgd1na2vs0mg"},{"bike_id":"1d750c6c-bec1-4b3f-9930-a056073563f4","system_id":"levelo_inurba_marseille","lat":43.27986,"lon":5.41652,"is_reserved":false,"is_disabled":true,"rental_uris":{"android":"levelo://app?vid=1d750c6c-bec1-4b3f-9930-a056073563f4","ios":"levelo://app?vid=1d750c6c-bec1-4b3f-9930-a056073563f4"},"vehicle_type_id":"4","last_reported":1746000827,"current_range_meters":17600,"station_id":"ce4bho12rcd13ifvqh1g","pricing_plan_id":"cebpf4jnsgd1na2vs0mg"},{"bike_id":"9e7fba55-f66c-4102-bbda-3847ec3883ef","system_id":"levelo_inurba_marseille","lat":43.32065,"lon":5.41551,"is_reserved":false,"is_disabled":false,"rental_uris":{"android":"levelo://app?vid=9e7fba55-f66c-4102-bbda-3847ec3883ef","ios":"levelo://app?vid=9e7fba55-f66c-4102-bbda-3847ec3883ef"},"vehicle_type_id":"4","last_reported":1746000827,"current_range_meters":17200,"station_id":"ce4bhq92rcd13ifvqhkg","pricing_plan_id":"cebpf4jnsgd1na2vs0mg"},{"bike_id":"5b8df32b-6bd3-46c5-92f6-95932c59353e","system_id":"levelo_inurba_marseille","lat":43.32555,"lon":5.41424,"is_reserved":false,"is_disabled":false,"rental_uris":{"android":"levelo://app?vid=5b8df32b-6bd3-46c5-92f6-95932c59353e","ios":"levelo://app?vid=5b8df32b-6bd3-46c5-92f6-95932c59353e"},"vehicle_type_id":"4","last_reported":1746000827,"current_range_meters":18000,"station_id":"ce4bhq12rcd13ifvqhhg","pricing_plan_id":"cebpf4jnsgd1na2vs0mg"},{"bike_id":"330ae0d8-2228-407b-80de-905ccac38fed","system_id":"levelo_inurba_marseille","lat":43.31495,"lon":5.37305,"is_reserved":false,"is_disabled":false,"rental_uris":{"android":"levelo://app?vid=330ae0d8-2228-407b-80de-905ccac38fed","ios":"levelo://app?vid=330ae0d8-2228-407b-80de-905ccac38fed"},"vehicle_type_id":"4","last_reported":1746000827,"current_range_meters":18000,"station_id":"ce4bgt12rcd13ifvqcd0","pricing_plan_id":"cebpf4jnsgd1na2vs0mg"},{"bike_id":"796ccabc-8e07-4490-acea-f8fe932a4709","system_id":"levelo_inurba_marseille","lat":43.262136,"lon":5.374375,"is_reserved":false,"is_disabled":false,"rental_uris":{"android":"levelo://app?vid=796ccabc-8e07-4490-acea-f8fe932a4709","ios":"levelo://app?vid=796ccabc-8e07-4490-acea-f8fe932a4709"},"vehicle_type_id":"4","last_reported":1746000827,"current_range_meters":18000,"station_id":"ce4bhgp2rcd13ifvqfc0","pricing_plan_id":"cebpf4jnsgd1na2vs0mg"},{"bike_id":"8bb45098-97f9-4f9b-846c-df90b2dfca46","system_id":"levelo_inurba_marseille","lat":43.31344,"lon":5.36722,"is_reserved":false,"is_disabled":false,"rental_uris":{"android":"levelo://app?vid=8bb45098-97f9-4f9b-846c-df90b2dfca46","ios":"levelo://app?vid=8bb45098-97f9-4f9b-846c-df90b2dfca46"},"vehicle_type_id":"4","last_reported":1746000827,"current_range_meters":18000,"station_id":"ce4bgr92rcd13ifvqc6g","pricing_plan_id":"cebpf4jnsgd1na2vs0mg"},{"bike_id":"34b484ab-c0f1-4e55-b51a-e2bafdafb63e","system_id":"levelo_inurba_marseille","lat":43.24079,"lon":5.37751,"is_reserved":false,"is_disabled":false,"rental_uris":{"android":"levelo://app?vid=34b484ab-c0f1-4e55-b51a-e2bafdafb63e","ios":"levelo://app?vid=34b484ab-c0f1-4e55-b51a-e2bafdafb63e"},"vehicle_type_id":"4","last_reported":1746000827,"current_range_meters":18000,"station_id":"","pricing_plan_id":"cebpf4jnsgd1na2vs0mg"},{"bike_id":"7989adb3-2daf-420e-967c-feafc1d8c238","system_id":"levelo_inurba_marseille","lat":43.28151,"lon":5.42646,"is_reserved":false,"is_disabled":false,"rental_uris":{"android":"levelo://app?vid=7989adb3-2daf-420e-967c-feafc1d8c238","ios":"levelo://app?vid=7989adb3-2daf-420e-967c-feafc1d8c238"},"vehicle_type_id":"4","last_reported":1746000827,"current_range_meters":17600,"station_id":"ce4bhnh2rcd13ifvqgug","pricing_plan_id":"cebpf4jnsgd1na2vs0mg"},{"bike_id":"dc1ed819-5907-4497-8368-8b16a59e64ca","system_id":"levelo_inurba_marseille","lat":43.31484,"lon":5.37285,"is_reserved":false,"is_disabled":false,"rental_uris":{"android":"levelo://app?vid=dc1ed819-5907-4497-8368-8b16a59e64ca","ios":"levelo://app?vid=dc1ed819-5907-4497-8368-8b16a59e64ca"},"vehicle_type_id":"4","last_reported":1746000827,"current_range_meters":18000,"station_id":"ce4bgt12rcd13ifvqcd0","pricing_plan_id":"cebpf4jnsgd1na2vs0mg"},{"bike_id":"9f0b3b3c-2fff-4527-a94f-868a544b485d","system_id":"levelo_inurba_marseille","lat":43.2925,"lon":5.40897,"is_reserved":false,"is_disabled":false,"rental_uris":{"android":"levelo://app?vid=9f0b3b3c-2fff-4527-a94f-868a544b485d","ios":"levelo://app?vid=9f0b3b3c-2fff-4527-a94f-868a544b485d"},"vehicle_type_id":"4","last_reported":1746000827,"current_range_meters":18800,"station_id":"ce4bh192rcd13ifvqdc0","pricing_plan_id":"cebpf4jnsgd1na2vs0mg"},{"bike_id":"6f22906b-94c9-4d7b-9ebc-9fe65ec0611d","system_id":"levelo_inurba_marseille","lat":43.32112,"lon":5.367795,"is_reserved":false,"is_disabled":false,"rental_uris":{"android":"levelo://app?vid=6f22906b-94c9-4d7b-9ebc-9fe65ec0611d","ios":"levelo://app?vid=6f22906b-94c9-4d7b-9ebc-9fe65ec0611d"},"vehicle_type_id":"4","last_reported":1746000827,"current_range_meters":18800,"station_id":"ce4bhrh2rcd13ifvqhug","pricing_plan_id":"cebpf4jnsgd1na2vs0mg"},{"bike_id":"1197ea5e-c1b7-4a74-88b7-06654a658162","system_id":"levelo_inurba_marseille","lat":43.28438,"lon":5.37524,"is_reserved":false,"is_disabled":true,"rental_uris":{"android":"levelo://app?vid=1197ea5e-c1b7-4a74-88b7-06654a658162","ios":"levelo://app?vid=1197ea5e-c1b7-4a74-88b7-06654a658162"},"vehicle_type_id":"4","last_reported":1746000827,"current_range_meters":18800,"station_id":"ce4bh412rcd13ifvqds0","pricing_plan_id":"cebpf4jnsgd1na2vs0mg"},{"bike_id":"6d073f79-559a-4cfb-a73f-86f1c3851a40","system_id":"levelo_inurba_marseille","lat":43.29043,"lon":5.3996,"is_reserved":false,"is_disabled":false,"rental_uris":{"android":"levelo://app?vid=6d073f79-559a-4cfb-a73f-86f1c3851a40","ios":"levelo://app?vid=6d073f79-559a-4cfb-a73f-86f1c3851a40"},"vehicle_type_id":"4","last_reported":1746000827,"current_range_meters":18800,"station_id":"ce4bh392rcd13ifvqdm0","pricing_plan_id":"cebpf4jnsgd1na2vs0mg"},{"bike_id":"6044dd1a-88b2-4997-a9f7-f55faba9dc9e","system_id":"levelo_inurba_marseille","lat":43.25959,"lon":5.40918,"is_reserved":false,"is_disabled":false,"rental_uris":{"android":"levelo://app?vid=6044dd1a-88b2-4997-a9f7-f55faba9dc9e","ios":"levelo://app?vid=6044dd1a-88b2-4997-a9f7-f55faba9dc9e"},"vehicle_type_id":"4","last_reported":1746000827,"current_range_meters":18800,"station_id":"ce4bhm92rcd13ifvqglg","pricing_plan_id":"cebpf4jnsgd1na2vs0mg"},{"bike_id":"bdf4fb20-568b-4392-bff0-0c01a9a3d528","system_id":"levelo_inurba_marseille","lat":43.24181,"lon":5.39729,"is_reserved":false,"is_disabled":false,"rental_uris":{"android":"levelo://app?vid=bdf4fb20-568b-4392-bff0-0c01a9a3d528","ios":"levelo://app?vid=bdf4fb20-568b-4392-bff0-0c01a9a3d528"},"vehicle_type_id":"4","last_reported":1746000827,"current_range_meters":18800,"station_id":"ce4bhn12rcd13ifvqgpg","pricing_plan_id":"cebpf4jnsgd1na2vs0mg"},{"bike_id":"b5c68a5c-e7ab-431f-928e-95fcc43be5c3","system_id":"levelo_inurba_marseille","lat":43.22924,"lon":5.35386,"is_reserved":false,"is_disabled":false,"rental_uris":{"android":"levelo://app?vid=b5c68a5c-e7ab-431f-928e-95fcc43be5c3","ios":"levelo://app?vid=b5c68a5c-e7ab-431f-928e-95fcc43be5c3"},"vehicle_type_id":"4","last_reported":1746000827,"current_range_meters":18800,"station_id":"cpo3532slgdg3j2ikp40","pricing_plan_id":"cebpf4jnsgd1na2vs0mg"},{"bike_id":"9e27a7de-37f7-4020-8f3b-4d331b7e11c5","system_id":"levelo_inurba_marseille","lat":43.26567,"lon":5.39007,"is_reserved":false,"is_disabled":false,"rental_uris":{"android":"levelo://app?vid=9e27a7de-37f7-4020-8f3b-4d331b7e11c5","ios":"levelo://app?vid=9e27a7de-37f7-4020-8f3b-4d331b7e11c5"},"vehicle_type_id":"4","last_reported":1746000827,"current_range_meters":18800,"station_id":"ce4bhe12rcd13ifvqf30","pricing_plan_id":"cebpf4jnsgd1na2vs0mg"},{"bike_id":"c34532d5-141d-48e8-9d8b-58b77076c366","system_id":"levelo_inurba_marseille","lat":43.29273,"lon":5.368413,"is_reserved":false,"is_disabled":true,"rental_uris":{"android":"levelo://app?vid=c34532d5-141d-48e8-9d8b-58b77076c366","ios":"levelo://app?vid=c34532d5-141d-48e8-9d8b-58b77076c366"},"vehicle_type_id":"4","last_reported":1746000827,"current_range_meters":19200,"station_id":"ce4bhbp2rcd13ifvqesg","pricing_plan_id":"cebpf4jnsgd1na2vs0mg"},{"bike_id":"88b0e47a-d43f-44bb-bd7e-80d8fc6d69de","system_id":"levelo_inurba_marseille","lat":43.28116,"lon":5.4015,"is_reserved":false,"is_disabled":false,"rental_uris":{"android":"levelo://app?vid=88b0e47a-d43f-44bb-bd7e-80d8fc6d69de","ios":"levelo://app?vid=88b0e47a-d43f-44bb-bd7e-80d8fc6d69de"},"vehicle_type_id":"4","last_reported":1746000827,"current_range_meters":19200,"station_id":"","pricing_plan_id":"cebpf4jnsgd1na2vs0mg"},{"bike_id":"f4b73246-afac-4a27-884b-4e385d8fcdf4","system_id":"levelo_inurba_marseille","lat":43.25931,"lon":5.40908,"is_reserved":false,"is_disabled":false,"rental_uris":{"android":"levelo://app?vid=f4b73246-afac-4a27-884b-4e385d8fcdf4","ios":"levelo://app?vid=f4b73246-afac-4a27-884b-4e385d8fcdf4"},"vehicle_type_id":"4","last_reported":1746000827,"current_range_meters":19200,"station_id":"ce4bhm92rcd13ifvqglg","pricing_plan_id":"cebpf4jnsgd1na2vs0mg"},{"bike_id":"0a955f0a-ec60-4a3e-b141-7247060c5fb1","system_id":"levelo_inurba_marseille","lat":43.28837,"lon":5.39302,"is_reserved":false,"is_disabled":false,"rental_uris":{"android":"levelo://app?vid=0a955f0a-ec60-4a3e-b141-7247060c5fb1","ios":"levelo://app?vid=0a955f0a-ec60-4a3e-b141-7247060c5fb1"},"vehicle_type_id":"4","last_reported":1746000827,"current_range_meters":19200,"station_id":"ce4bh2p2rcd13ifvqdi0","pricing_plan_id":"cebpf4jnsgd1na2vs0mg"},{"bike_id":"ff1d41c2-9569-421d-aa95-8a6af6b3c63b","system_id":"levelo_inurba_marseille","lat":43.30906,"lon":5.36855,"is_reserved":false,"is_disabled":false,"rental_uris":{"android":"levelo://app?vid=ff1d41c2-9569-421d-aa95-8a6af6b3c63b","ios":"levelo://app?vid=ff1d41c2-9569-421d-aa95-8a6af6b3c63b"},"vehicle_type_id":"4","last_reported":1746000827,"current_range_meters":19200,"station_id":"ce4bgn92rcd13ifvqbvg","pricing_plan_id":"cebpf4jnsgd1na2vs0mg"},{"bike_id":"06d09ae2-e46e-4b8b-be80-1c3835ba37c7","system_id":"levelo_inurba_marseille","lat":43.31752,"lon":5.39009,"is_reserved":false,"is_disabled":false,"rental_uris":{"android":"levelo://app?vid=06d09ae2-e46e-4b8b-be80-1c3835ba37c7","ios":"levelo://app?vid=06d09ae2-e46e-4b8b-be80-1c3835ba37c7"},"vehicle_type_id":"4","last_reported":1746000827,"current_range_meters":19200,"station_id":"ce4bhqp2rcd13ifvqhng","pricing_plan_id":"cebpf4jnsgd1na2vs0mg"},{"bike_id":"3ed5c2c4-e9d1-406a-8758-470ad1a743a6","system_id":"levelo_inurba_marseille","lat":43.309037,"lon":5.368527,"is_reserved":false,"is_disabled":false,"rental_uris":{"android":"levelo://app?vid=3ed5c2c4-e9d1-406a-8758-470ad1a743a6","ios":"levelo://app?vid=3ed5c2c4-e9d1-406a-8758-470ad1a743a6"},"vehicle_type_id":"4","last_reported":1746000827,"current_range_meters":19200,"station_id":"ce4bgn92rcd13ifvqbvg","pricing_plan_id":"cebpf4jnsgd1na2vs0mg"},{"bike_id":"261a9f79-b5ac-4406-a51c-dbe567ce503b","system_id":"levelo_inurba_marseille","lat":43.28617,"lon":5.35102,"is_reserved":false,"is_disabled":false,"rental_uris":{"android":"levelo://app?vid=261a9f79-b5ac-4406-a51c-dbe567ce503b","ios":"levelo://app?vid=261a9f79-b5ac-4406-a51c-dbe567ce503b"},"vehicle_type_id":"4","last_reported":1746000827,"current_range_meters":19200,"station_id":"ce4bhch2rcd13ifvqeug","pricing_plan_id":"cebpf4jnsgd1na2vs0mg"},{"bike_id":"ab41bc0a-1c6d-4e7a-8b62-c1512c389884","system_id":"levelo_inurba_marseille","lat":43.2418,"lon":5.39719,"is_reserved":false,"is_disabled":false,"rental_uris":{"android":"levelo://app?vid=ab41bc0a-1c6d-4e7a-8b62-c1512c389884","ios":"levelo://app?vid=ab41bc0a-1c6d-4e7a-8b62-c1512c389884"},"vehicle_type_id":"4","last_reported":1746000827,"current_range_meters":19600,"station_id":"ce4bhn12rcd13ifvqgpg","pricing_plan_id":"cebpf4jnsgd1na2vs0mg"},{"bike_id":"0a5b25fa-2a04-452e-981a-fe8129fc3ad5","system_id":"levelo_inurba_marseille","lat":43.25004,"lon":5.38929,"is_reserved":false,"is_disabled":false,"rental_uris":{"android":"levelo://app?vid=0a5b25fa-2a04-452e-981a-fe8129fc3ad5","ios":"levelo://app?vid=0a5b25fa-2a04-452e-981a-fe8129fc3ad5"},"vehicle_type_id":"4","last_reported":1746000827,"current_range_meters":19600,"station_id":"ce4bhgp2rcd13ifvqfd0","pricing_plan_id":"cebpf4jnsgd1na2vs0mg"},{"bike_id":"96d6a41f-d7e5-471a-a9f8-d1e6921df1eb","system_id":"levelo_inurba_marseille","lat":43.27371,"lon":5.3626,"is_reserved":false,"is_disabled":false,"rental_uris":{"android":"levelo://app?vid=96d6a41f-d7e5-471a-a9f8-d1e6921df1eb","ios":"levelo://app?vid=96d6a41f-d7e5-471a-a9f8-d1e6921df1eb"},"vehicle_type_id":"4","last_reported":1746000827,"current_range_meters":19600,"station_id":"ce4bhbh2rcd13ifvqeo0","pricing_plan_id":"cebpf4jnsgd1na2vs0mg"},{"bike_id":"dd761f0b-a343-4069-8ed4-8566f51a6c87","system_id":"levelo_inurba_marseille","lat":43.267792,"lon":5.383597,"is_reserved":false,"is_disabled":true,"rental_uris":{"android":"levelo://app?vid=dd761f0b-a343-4069-8ed4-8566f51a6c87","ios":"levelo://app?vid=dd761f0b-a343-4069-8ed4-8566f51a6c87"},"vehicle_type_id":"4","last_reported":1746000827,"current_range_meters":20000,"station_id":"","pricing_plan_id":"cebpf4jnsgd1na2vs0mg"},{"bike_id":"5f50c8da-38b4-40d5-8019-dee5b9949d13","system_id":"levelo_inurba_marseille","lat":43.30137,"lon":5.37419,"is_reserved":false,"is_disabled":false,"rental_uris":{"android":"levelo://app?vid=5f50c8da-38b4-40d5-8019-dee5b9949d13","ios":"levelo://app?vid=5f50c8da-38b4-40d5-8019-dee5b9949d13"},"vehicle_type_id":"4","last_reported":1746000827,"current_range_meters":20000,"station_id":"ce4bgs92rcd13ifvqcc0","pricing_plan_id":"cebpf4jnsgd1na2vs0mg"},{"bike_id":"54815a4c-46f7-4c12-bd28-d0daa828129a","system_id":"levelo_inurba_marseille","lat":43.33603,"lon":5.40988,"is_reserved":false,"is_disabled":false,"rental_uris":{"android":"levelo://app?vid=54815a4c-46f7-4c12-bd28-d0daa828129a","ios":"levelo://app?vid=54815a4c-46f7-4c12-bd28-d0daa828129a"},"vehicle_type_id":"4","last_reported":1746000827,"current_range_meters":20000,"station_id":"ce4bhqh2rcd13ifvqhmg","pricing_plan_id":"cebpf4jnsgd1na2vs0mg"},{"bike_id":"7b2a3d90-1011-44d2-8c2c-1edeb6b00aa7","system_id":"levelo_inurba_marseille","lat":43.25819,"lon":5.3943,"is_reserved":false,"is_disabled":false,"rental_uris":{"android":"levelo://app?vid=7b2a3d90-1011-44d2-8c2c-1edeb6b00aa7","ios":"levelo://app?vid=7b2a3d90-1011-44d2-8c2c-1edeb6b00aa7"},"vehicle_type_id":"4","last_reported":1746000827,"current_range_meters":20000,"station_id":"ce4bhip2rcd13ifvqft0","pricing_plan_id":"cebpf4jnsgd1na2vs0mg"},{"bike_id":"579f5b44-0254-43e1-8d84-2b7449bd76ed","system_id":"levelo_inurba_marseille","lat":43.26193,"lon":5.3793,"is_reserved":false,"is_disabled":false,"rental_uris":{"android":"levelo://app?vid=579f5b44-0254-43e1-8d84-2b7449bd76ed","ios":"levelo://app?vid=579f5b44-0254-43e1-8d84-2b7449bd76ed"},"vehicle_type_id":"4","last_reported":1746000827,"current_range_meters":20000,"station_id":"ce4bhjp2rcd13ifvqg90","pricing_plan_id":"cebpf4jnsgd1na2vs0mg"},{"bike_id":"2596e8b8-10f5-4bf8-8c9f-e80733e6ee5d","system_id":"levelo_inurba_marseille","lat":43.26678,"lon":5.38269,"is_reserved":false,"is_disabled":false,"rental_uris":{"android":"levelo://app?vid=2596e8b8-10f5-4bf8-8c9f-e80733e6ee5d","ios":"levelo://app?vid=2596e8b8-10f5-4bf8-8c9f-e80733e6ee5d"},"vehicle_type_id":"4","last_reported":1746000827,"current_range_meters":20000,"station_id":"ce4bhg92rcd13ifvqf90","pricing_plan_id":"cebpf4jnsgd1na2vs0mg"},{"bike_id":"fb8f5ab3-6254-4648-8532-b536beecb0cc","system_id":"levelo_inurba_marseille","lat":43.30902,"lon":5.36839,"is_reserved":false,"is_disabled":false,"rental_uris":{"android":"levelo://app?vid=fb8f5ab3-6254-4648-8532-b536beecb0cc","ios":"levelo://app?vid=fb8f5ab3-6254-4648-8532-b536beecb0cc"},"vehicle_type_id":"4","last_reported":1746000827,"current_range_meters":20000,"station_id":"ce4bgn92rcd13ifvqbvg","pricing_plan_id":"cebpf4jnsgd1na2vs0mg"},{"bike_id":"7629fa56-9d97-4271-91f4-95f2b448fc9c","system_id":"levelo_inurba_marseille","lat":43.28265,"lon":5.35055,"is_reserved":false,"is_disabled":false,"rental_uris":{"android":"levelo://app?vid=7629fa56-9d97-4271-91f4-95f2b448fc9c","ios":"levelo://app?vid=7629fa56-9d97-4271-91f4-95f2b448fc9c"},"vehicle_type_id":"4","last_reported":1746000827,"current_range_meters":20000,"station_id":"ce4bhbp2rcd13ifvqerg","pricing_plan_id":"cebpf4jnsgd1na2vs0mg"},{"bike_id":"04ed40a1-01c8-4755-a242-2bca475d58e7","system_id":"levelo_inurba_marseille","lat":43.24071,"lon":5.3776,"is_reserved":false,"is_disabled":false,"rental_uris":{"android":"levelo://app?vid=04ed40a1-01c8-4755-a242-2bca475d58e7","ios":"levelo://app?vid=04ed40a1-01c8-4755-a242-2bca475d58e7"},"vehicle_type_id":"4","last_reported":1746000827,"current_range_meters":20000,"station_id":"ce4bhnp2rcd13ifvqgvg","pricing_plan_id":"cebpf4jnsgd1na2vs0mg"},{"bike_id":"a774d14e-b3be-49b5-b08d-00c78f7c65f8","system_id":"levelo_inurba_marseille","lat":43.29518,"lon":5.37502,"is_reserved":false,"is_disabled":false,"rental_uris":{"android":"levelo://app?vid=a774d14e-b3be-49b5-b08d-00c78f7c65f8","ios":"levelo://app?vid=a774d14e-b3be-49b5-b08d-00c78f7c65f8"},"vehicle_type_id":"4","last_reported":1746000827,"current_range_meters":20400,"station_id":"ce4bgkp2rcd13ifvqbmg","pricing_plan_id":"cebpf4jnsgd1na2vs0mg"},{"bike_id":"0bf0f05e-578e-44c3-a5f5-f2a028c6936e","system_id":"levelo_inurba_marseille","lat":43.2885,"lon":5.3585,"is_reserved":false,"is_disabled":false,"rental_uris":{"android":"levelo://app?vid=0bf0f05e-578e-44c3-a5f5-f2a028c6936e","ios":"levelo://app?vid=0bf0f05e-578e-44c3-a5f5-f2a028c6936e"},"vehicle_type_id":"4","last_reported":1746000827,"current_range_meters":20800,"station_id":"ce4bhb12rcd13ifvqem0","pricing_plan_id":"cebpf4jnsgd1na2vs0mg"},{"bike_id":"172794aa-4453-4ebf-8c27-3288da5703a9","system_id":"levelo_inurba_marseille","lat":43.29031,"lon":5.39955,"is_reserved":false,"is_disabled":false,"rental_uris":{"android":"levelo://app?vid=172794aa-4453-4ebf-8c27-3288da5703a9","ios":"levelo://app?vid=172794aa-4453-4ebf-8c27-3288da5703a9"},"vehicle_type_id":"4","last_reported":1746000827,"current_range_meters":20800,"station_id":"ce4bh392rcd13ifvqdm0","pricing_plan_id":"cebpf4jnsgd1na2vs0mg"},{"bike_id":"2d90d92c-e010-4034-9c8a-92ec848e2a6f","system_id":"levelo_inurba_marseille","lat":43.30342,"lon":5.36946,"is_reserved":false,"is_disabled":false,"rental_uris":{"android":"levelo://app?vid=2d90d92c-e010-4034-9c8a-92ec848e2a6f","ios":"levelo://app?vid=2d90d92c-e010-4034-9c8a-92ec848e2a6f"},"vehicle_type_id":"4","last_reported":1746000827,"current_range_meters":20800,"station_id":"ce4bgqh2rcd13ifvqc5g","pricing_plan_id":"cebpf4jnsgd1na2vs0mg"},{"bike_id":"3a1c6b65-5f0e-4cf0-b640-52fefa98b0b8","system_id":"levelo_inurba_marseille","lat":43.32012,"lon":5.41581,"is_reserved":false,"is_disabled":false,"rental_uris":{"android":"levelo://app?vid=3a1c6b65-5f0e-4cf0-b640-52fefa98b0b8","ios":"levelo://app?vid=3a1c6b65-5f0e-4cf0-b640-52fefa98b0b8"},"vehicle_type_id":"4","last_reported":1746000827,"current_range_meters":20800,"station_id":"ce4bhq92rcd13ifvqhkg","pricing_plan_id":"cebpf4jnsgd1na2vs0mg"},{"bike_id":"5bb2830d-910d-4843-a947-2e3a8b2b84e0","system_id":"levelo_inurba_marseille","lat":43.291676,"lon":5.371515,"is_reserved":false,"is_disabled":false,"rental_uris":{"android":"levelo://app?vid=5bb2830d-910d-4843-a947-2e3a8b2b84e0","ios":"levelo://app?vid=5bb2830d-910d-4843-a947-2e3a8b2b84e0"},"vehicle_type_id":"4","last_reported":1746000827,"current_range_meters":20800,"station_id":"ce4bha92rcd13ifvqeh0","pricing_plan_id":"cebpf4jnsgd1na2vs0mg"},{"bike_id":"c7b0bdba-a9c5-4f80-8b43-cf236db597d7","system_id":"levelo_inurba_marseille","lat":43.30952,"lon":5.39041,"is_reserved":false,"is_disabled":false,"rental_uris":{"android":"levelo://app?vid=c7b0bdba-a9c5-4f80-8b43-cf236db597d7","ios":"levelo://app?vid=c7b0bdba-a9c5-4f80-8b43-cf236db597d7"},"vehicle_type_id":"4","last_reported":1746000827,"current_range_meters":20800,"station_id":"ce4bgup2rcd13ifvqco0","pricing_plan_id":"cebpf4jnsgd1na2vs0mg"},{"bike_id":"d5046189-0fb2-40d3-9ca2-25c5936499aa","system_id":"levelo_inurba_marseille","lat":43.284177,"lon":5.349751,"is_reserved":false,"is_disabled":true,"rental_uris":{"android":"levelo://app?vid=d5046189-0fb2-40d3-9ca2-25c5936499aa","ios":"levelo://app?vid=d5046189-0fb2-40d3-9ca2-25c5936499aa"},"vehicle_type_id":"4","last_reported":1746000827,"current_range_meters":20800,"station_id":"","pricing_plan_id":"cebpf4jnsgd1na2vs0mg"},{"bike_id":"7af536c0-aca9-4877-9151-f824eef60a69","system_id":"levelo_inurba_marseille","lat":43.32541,"lon":5.41434,"is_reserved":false,"is_disabled":false,"rental_uris":{"android":"levelo://app?vid=7af536c0-aca9-4877-9151-f824eef60a69","ios":"levelo://app?vid=7af536c0-aca9-4877-9151-f824eef60a69"},"vehicle_type_id":"4","last_reported":1746000827,"current_range_meters":21600,"station_id":"ce4bhq12rcd13ifvqhhg","pricing_plan_id":"cebpf4jnsgd1na2vs0mg"},{"bike_id":"dfda6650-cbd0-452d-aba0-b39189b1cc52","system_id":"levelo_inurba_marseille","lat":43.25915,"lon":5.40891,"is_reserved":false,"is_disabled":false,"rental_uris":{"android":"levelo://app?vid=dfda6650-cbd0-452d-aba0-b39189b1cc52","ios":"levelo://app?vid=dfda6650-cbd0-452d-aba0-b39189b1cc52"},"vehicle_type_id":"4","last_reported":1746000827,"current_range_meters":21600,"station_id":"ce4bhm92rcd13ifvqglg","pricing_plan_id":"cebpf4jnsgd1na2vs0mg"},{"bike_id":"b58385b2-d1b2-4ecc-af75-eb7cf4772905","system_id":"levelo_inurba_marseille","lat":43.22922,"lon":5.35379,"is_reserved":false,"is_disabled":false,"rental_uris":{"android":"levelo://app?vid=b58385b2-d1b2-4ecc-af75-eb7cf4772905","ios":"levelo://app?vid=b58385b2-d1b2-4ecc-af75-eb7cf4772905"},"vehicle_type_id":"4","last_reported":1746000827,"current_range_meters":21600,"station_id":"","pricing_plan_id":"cebpf4jnsgd1na2vs0mg"},{"bike_id":"28643306-483e-41e1-88ee-0cd3cd63d498","system_id":"levelo_inurba_marseille","lat":43.28267,"lon":5.3506,"is_reserved":false,"is_disabled":false,"rental_uris":{"android":"levelo://app?vid=28643306-483e-41e1-88ee-0cd3cd63d498","ios":"levelo://app?vid=28643306-483e-41e1-88ee-0cd3cd63d498"},"vehicle_type_id":"4","last_reported":1746000827,"current_range_meters":21600,"station_id":"ce4bhbp2rcd13ifvqerg","pricing_plan_id":"cebpf4jnsgd1na2vs0mg"},{"bike_id":"b74d4f52-d9f1-4a1e-9034-ca321e66686c","system_id":"levelo_inurba_marseille","lat":43.26558,"lon":5.39012,"is_reserved":false,"is_disabled":false,"rental_uris":{"android":"levelo://app?vid=b74d4f52-d9f1-4a1e-9034-ca321e66686c","ios":"levelo://app?vid=b74d4f52-d9f1-4a1e-9034-ca321e66686c"},"vehicle_type_id":"4","last_reported":1746000827,"current_range_meters":22000,"station_id":"ce4bhe12rcd13ifvqf30","pricing_plan_id":"cebpf4jnsgd1na2vs0mg"},{"bike_id":"9a6d1a0d-0520-4c44-b0a9-74ddbe754418","system_id":"levelo_inurba_marseille","lat":43.25727,"lon":5.41051,"is_reserved":false,"is_disabled":false,"rental_uris":{"android":"levelo://app?vid=9a6d1a0d-0520-4c44-b0a9-74ddbe754418","ios":"levelo://app?vid=9a6d1a0d-0520-4c44-b0a9-74ddbe754418"},"vehicle_type_id":"4","last_reported":1746000827,"current_range_meters":22000,"station_id":"ce4bhkp2rcd13ifvqgd0","pricing_plan_id":"cebpf4jnsgd1na2vs0mg"},{"bike_id":"4e230b3f-9985-4d42-a310-5c69a1ea00ed","system_id":"levelo_inurba_marseille","lat":43.24671,"lon":5.38154,"is_reserved":false,"is_disabled":false,"rental_uris":{"android":"levelo://app?vid=4e230b3f-9985-4d42-a310-5c69a1ea00ed","ios":"levelo://app?vid=4e230b3f-9985-4d42-a310-5c69a1ea00ed"},"vehicle_type_id":"4","last_reported":1746000827,"current_range_meters":22000,"station_id":"ce4bhih2rcd13ifvqfr0","pricing_plan_id":"cebpf4jnsgd1na2vs0mg"},{"bike_id":"031541f0-960f-4da3-a2f9-6645140e8df3","system_id":"levelo_inurba_marseille","lat":43.249751,"lon":5.374817,"is_reserved":false,"is_disabled":false,"rental_uris":{"android":"levelo://app?vid=031541f0-960f-4da3-a2f9-6645140e8df3","ios":"levelo://app?vid=031541f0-960f-4da3-a2f9-6645140e8df3"},"vehicle_type_id":"4","last_reported":1746000827,"current_range_meters":22000,"station_id":"ce4bhgh2rcd13ifvqfb0","pricing_plan_id":"cebpf4jnsgd1na2vs0mg"},{"bike_id":"1d0e2d69-3d36-4477-9db5-4f90530bd490","system_id":"levelo_inurba_marseille","lat":43.30275,"lon":5.37713,"is_reserved":false,"is_disabled":false,"rental_uris":{"android":"levelo://app?vid=1d0e2d69-3d36-4477-9db5-4f90530bd490","ios":"levelo://app?vid=1d0e2d69-3d36-4477-9db5-4f90530bd490"},"vehicle_type_id":"4","last_reported":1746000827,"current_range_meters":22000,"station_id":"ce4bguh2rcd13ifvqcj0","pricing_plan_id":"cebpf4jnsgd1na2vs0mg"},{"bike_id":"906208ab-be50-4d7e-a350-2f40e0e2eeb6","system_id":"levelo_inurba_marseille","lat":43.30144,"lon":5.37424,"is_reserved":false,"is_disabled":false,"rental_uris":{"android":"levelo://app?vid=906208ab-be50-4d7e-a350-2f40e0e2eeb6","ios":"levelo://app?vid=906208ab-be50-4d7e-a350-2f40e0e2eeb6"},"vehicle_type_id":"4","last_reported":1746000827,"current_range_meters":22000,"station_id":"ce4bgs92rcd13ifvqcc0","pricing_plan_id":"cebpf4jnsgd1na2vs0mg"},{"bike_id":"fab4705a-b211-4038-8d65-e8339c08cea1","system_id":"levelo_inurba_marseille","lat":43.29975,"lon":5.37177,"is_reserved":false,"is_disabled":false,"rental_uris":{"android":"levelo://app?vid=fab4705a-b211-4038-8d65-e8339c08cea1","ios":"levelo://app?vid=fab4705a-b211-4038-8d65-e8339c08cea1"},"vehicle_type_id":"4","last_reported":1746000827,"current_range_meters":22400,"station_id":"ce4bgr92rcd13ifvqc7g","pricing_plan_id":"cebpf4jnsgd1na2vs0mg"},{"bike_id":"7d5853ac-8dd1-492c-bebf-65b1c8b91589","system_id":"levelo_inurba_marseille","lat":43.26208,"lon":5.37929,"is_reserved":false,"is_disabled":false,"rental_uris":{"android":"levelo://app?vid=7d5853ac-8dd1-492c-bebf-65b1c8b91589","ios":"levelo://app?vid=7d5853ac-8dd1-492c-bebf-65b1c8b91589"},"vehicle_type_id":"4","last_reported":1746000827,"current_range_meters":22400,"station_id":"ce4bhjp2rcd13ifvqg90","pricing_plan_id":"cebpf4jnsgd1na2vs0mg"},{"bike_id":"cdcb50a2-3beb-4586-94ea-c6962ac3cbe5","system_id":"levelo_inurba_marseille","lat":43.24171,"lon":5.39704,"is_reserved":false,"is_disabled":false,"rental_uris":{"android":"levelo://app?vid=cdcb50a2-3beb-4586-94ea-c6962ac3cbe5","ios":"levelo://app?vid=cdcb50a2-3beb-4586-94ea-c6962ac3cbe5"},"vehicle_type_id":"4","last_reported":1746000827,"current_range_meters":22400,"station_id":"ce4bhn12rcd13ifvqgpg","pricing_plan_id":"cebpf4jnsgd1na2vs0mg"},{"bike_id":"48fe0a61-16d8-4c4d-8014-6583682528ed","system_id":"levelo_inurba_marseille","lat":43.217498,"lon":5.346209,"is_reserved":false,"is_disabled":true,"rental_uris":{"android":"levelo://app?vid=48fe0a61-16d8-4c4d-8014-6583682528ed","ios":"levelo://app?vid=48fe0a61-16d8-4c4d-8014-6583682528ed"},"vehicle_type_id":"4","last_reported":1746000827,"current_range_meters":22400,"station_id":"","pricing_plan_id":"cebpf4jnsgd1na2vs0mg"},{"bike_id":"1beb5353-bc76-4960-a62b-2dd9876df773","system_id":"levelo_inurba_marseille","lat":43.21742,"lon":5.34604,"is_reserved":false,"is_disabled":false,"rental_uris":{"android":"levelo://app?vid=1beb5353-bc76-4960-a62b-2dd9876df773","ios":"levelo://app?vid=1beb5353-bc76-4960-a62b-2dd9876df773"},"vehicle_type_id":"4","last_reported":1746000827,"current_range_meters":22400,"station_id":"st_cvj6r9ubvosntc0bgbag","pricing_plan_id":"cebpf4jnsgd1na2vs0mg"},{"bike_id":"7e5e8450-bdd5-486c-a22b-f74c65eec502","system_id":"levelo_inurba_marseille","lat":43.28487,"lon":5.38418,"is_reserved":false,"is_disabled":false,"rental_uris":{"android":"levelo://app?vid=7e5e8450-bdd5-486c-a22b-f74c65eec502","ios":"levelo://app?vid=7e5e8450-bdd5-486c-a22b-f74c65eec502"},"vehicle_type_id":"4","last_reported":1746000827,"current_range_meters":22400,"station_id":"ce4bh512rcd13ifvqe3g","pricing_plan_id":"cebpf4jnsgd1na2vs0mg"},{"bike_id":"abca8f9f-01a3-4843-936e-ed4dbb984bee","system_id":"levelo_inurba_marseille","lat":43.30327,"lon":5.36897,"is_reserved":false,"is_disabled":false,"rental_uris":{"android":"levelo://app?vid=abca8f9f-01a3-4843-936e-ed4dbb984bee","ios":"levelo://app?vid=abca8f9f-01a3-4843-936e-ed4dbb984bee"},"vehicle_type_id":"4","last_reported":1746000827,"current_range_meters":22800,"station_id":"ce4bgqh2rcd13ifvqc5g","pricing_plan_id":"cebpf4jnsgd1na2vs0mg"},{"bike_id":"204877d8-c7c5-4296-b364-3bf7f457cac7","system_id":"levelo_inurba_marseille","lat":43.32284,"lon":5.38275,"is_reserved":false,"is_disabled":false,"rental_uris":{"android":"levelo://app?vid=204877d8-c7c5-4296-b364-3bf7f457cac7","ios":"levelo://app?vid=204877d8-c7c5-4296-b364-3bf7f457cac7"},"vehicle_type_id":"4","last_reported":1746000827,"current_range_meters":22400,"station_id":"ce4bhr12rcd13ifvqhqg","pricing_plan_id":"cebpf4jnsgd1na2vs0mg"},{"bike_id":"06a8f51c-b305-4c74-b3e3-3b426a37ccee","system_id":"levelo_inurba_marseille","lat":43.29567,"lon":5.39616,"is_reserved":false,"is_disabled":false,"rental_uris":{"android":"levelo://app?vid=06a8f51c-b305-4c74-b3e3-3b426a37ccee","ios":"levelo://app?vid=06a8f51c-b305-4c74-b3e3-3b426a37ccee"},"vehicle_type_id":"4","last_reported":1746000827,"current_range_meters":22800,"station_id":"","pricing_plan_id":"cebpf4jnsgd1na2vs0mg"},{"bike_id":"cde443bb-9a98-4dfc-a82f-cbb08d6f149e","system_id":"levelo_inurba_marseille","lat":43.24171,"lon":5.3972,"is_reserved":false,"is_disabled":false,"rental_uris":{"android":"levelo://app?vid=cde443bb-9a98-4dfc-a82f-cbb08d6f149e","ios":"levelo://app?vid=cde443bb-9a98-4dfc-a82f-cbb08d6f149e"},"vehicle_type_id":"4","last_reported":1746000827,"current_range_meters":22800,"station_id":"ce4bhn12rcd13ifvqgpg","pricing_plan_id":"cebpf4jnsgd1na2vs0mg"},{"bike_id":"b6cfa591-8a56-4d29-88e8-78f80d55ea5d","system_id":"levelo_inurba_marseille","lat":43.29499,"lon":5.3749,"is_reserved":false,"is_disabled":false,"rental_uris":{"android":"levelo://app?vid=b6cfa591-8a56-4d29-88e8-78f80d55ea5d","ios":"levelo://app?vid=b6cfa591-8a56-4d29-88e8-78f80d55ea5d"},