{"last_updated":1749553782,"ttl":60,"version":"2.2","data":{"bikes":[{"bike_id":"0a1f2fa2-6b97-4c81-a13b-2fcd83ee4f66","system_id":"levelo_inurba_marseille","lat":43.28467,"lon":5.38408,"is_reserved":false,"is_disabled":false,"rental_uris":{"android":"levelo://app?vid=0a1f2fa2-6b97-4c81-a13b-2fcd83ee4f66","ios":"levelo://app?vid=0a1f2fa2-6b97-4c81-a13b-2fcd83ee4f66"},"vehicle_type_id":"4","last_reported":1749553782,"current_range_meters":2800,"station_id":"ce4bh512rcd13ifvqe3g","pricing_plan_id":"cebpf4jnsgd1na2vs0mg"},{"bike_id":"8c03ec80-dc19-4c9d-b151-e0210828c13a","system_id":"levelo_inurba_marseille","lat":43.29665,"lon":5.39404,"is_reserved":false,"is_disabled":false,"rental_uris":{"android":"levelo://app?vid=8c03ec80-dc19-4c9d-b151-e0210828c13a","ios":"levelo://app?vid=8c03ec80-dc19-4c9d-b151-e0210828c13a"},"vehicle_type_id":"4","last_reported":1749553782,"current_range_meters":2800,"station_id":"","pricing_plan_id":"cebpf4jnsgd1na2vs0mg"},{"bike_id":"73cc72a8-e584-4a6b-aee9-188416f89554","system_id":"levelo_inurba_marseille","lat":43.31688,"lon":5.40473,"is_reserved":false,"is_disabled":false,"rental_uris":{"android":"levelo://app?vid=73cc72a8-e584-4a6b-aee9-188416f89554","ios":"levelo://app?vid=73cc72a8-e584-4a6b-aee9-188416f89554"},"vehicle_type_id":"4","last_reported":1749553782,"current_range_meters":2800,"station_id":"ce4bh012rcd13ifvqd00","pricing_plan_id":"cebpf4jnsgd1na2vs0mg"},{"bike_id":"372c1ac6-3987-4e7c-b2f7-aa8bf13c299b","system_id":"levelo_inurba_marseille","lat":43.292657,"lon":5.392852,"is_reserved":false,"is_disabled":false,"rental_uris":{"android":"levelo://app?vid=372c1ac6-3987-4e7c-b2f7-aa8bf13c299b","ios":"levelo://app?vid=372c1ac6-3987-4e7c-b2f7-aa8bf13c299b"},"vehicle_type_id":"4","last_reported":1749553782,"current_range_meters":2800,"station_id":"ce4bh292rcd13ifvqdf0","pricing_plan_id":"cebpf4jnsgd1na2vs0mg"},{"bike_id":"0e66646a-b4b3-4d2c-9f57-afdc64769cd8","system_id":"levelo_inurba_marseille","lat":43.26201,"lon":5.3745,"is_reserved":false,"is_disabled":false,"rental_uris":{"android":"levelo://app?vid=0e66646a-b4b3-4d2c-9f57-afdc64769cd8","ios":"levelo://app?vid=0e66646a-b4b3-4d2c-9f57-afdc64769cd8"},"vehicle_type_id":"4","last_reported":1749553782,"current_range_meters":3600,"station_id":"ce4bhgp2rcd13ifvqfc0","pricing_plan_id":"cebpf4jnsgd1na2vs0mg"},{"bike_id":"01b94cfd-f468-4f22-ae47-21d3806e0a59","system_id":"levelo_inurba_marseille","lat":43.28271,"lon":5.35068,"is_reserved":false,"is_disabled":false,"rental_uris":{"android":"levelo://app?vid=01b94cfd-f468-4f22-ae47-21d3806e0a59","ios":"levelo://app?vid=01b94cfd-f468-4f22-ae47-21d3806e0a59"},"vehicle_type_id":"4","last_reported":1749553782,"current_range_meters":4000,"station_id":"ce4bhbp2rcd13ifvqerg","pricing_plan_id":"cebpf4jnsgd1na2vs0mg"},{"bike_id":"eba4f655-e922-4ce2-98ff-f8c2dcb6d634","system_id":"levelo_inurba_marseille","lat":43.27372,"lon":5.36258,"is_reserved":false,"is_disabled":false,"rental_uris":{"android":"levelo://app?vid=eba4f655-e922-4ce2-98ff-f8c2dcb6d634","ios":"levelo://app?vid=eba4f655-e922-4ce2-98ff-f8c2dcb6d634"},"vehicle_type_id":"4","last_reported":1749553782,"current_range_meters":4400,"station_id":"ce4bhbh2rcd13ifvqeo0","pricing_plan_id":"cebpf4jnsgd1na2vs0mg"},{"bike_id":"f8892a4c-ca95-48c4-8578-59fbeee09f15","system_id":"levelo_inurba_marseille","lat":43.30333,"lon":5.40433,"is_reserved":false,"is_disabled":false,"rental_uris":{"android":"levelo://app?vid=f8892a4c-ca95-48c4-8578-59fbeee09f15","ios":"levelo://app?vid=f8892a4c-ca95-48c4-8578-59fbeee09f15"},"vehicle_type_id":"4","last_reported":1749553782,"current_range_meters":4400,"station_id":"ce4bh012rcd13ifvqd10","pricing_plan_id":"cebpf4jnsgd1na2vs0mg"},{"bike_id":"d7d54374-becb-4704-866c-8817fa5c5401","system_id":"levelo_inurba_marseille","lat":43.29778,"lon":5.39327,"is_reserved":false,"is_disabled":false,"rental_uris":{"android":"levelo://app?vid=d7d54374-becb-4704-866c-8817fa5c5401","ios":"levelo://app?vid=d7d54374-becb-4704-866c-8817fa5c5401"},"vehicle_type_id":"4","last_reported":1749553782,"current_range_meters":4800,"station_id":"chh1huq6cuj3fo74tm60","pricing_plan_id":"cebpf4jnsgd1na2vs0mg"},{"bike_id":"11d99533-1239-4522-b0b5-f8a3bff696e7","system_id":"levelo_inurba_marseille","lat":43.30148,"lon":5.42443,"is_reserved":false,"is_disabled":false,"rental_uris":{"android":"levelo://app?vid=11d99533-1239-4522-b0b5-f8a3bff696e7","ios":"levelo://app?vid=11d99533-1239-4522-b0b5-f8a3bff696e7"},"vehicle_type_id":"4","last_reported":1749553782,"current_range_meters":4800,"station_id":"","pricing_plan_id":"cebpf4jnsgd1na2vs0mg"},{"bike_id":"9ab5dcb2-22af-49e2-b2c1-32117ad578dc","system_id":"levelo_inurba_marseille","lat":43.295135,"lon":5.425646,"is_reserved":false,"is_disabled":false,"rental_uris":{"android":"levelo://app?vid=9ab5dcb2-22af-49e2-b2c1-32117ad578dc","ios":"levelo://app?vid=9ab5dcb2-22af-49e2-b2c1-32117ad578dc"},"vehicle_type_id":"4","last_reported":1749553782,"current_range_meters":4800,"station_id":"","pricing_plan_id":"cebpf4jnsgd1na2vs0mg"},{"bike_id":"1ef171a5-95a2-4009-926e-d793e3cd4fe5","system_id":"levelo_inurba_marseille","lat":43.29099,"lon":5.3816,"is_reserved":false,"is_disabled":false,"rental_uris":{"android":"levelo://app?vid=1ef171a5-95a2-4009-926e-d793e3cd4fe5","ios":"levelo://app?vid=1ef171a5-95a2-4009-926e-d793e3cd4fe5"},"vehicle_type_id":"4","last_reported":1749553782,"current_range_meters":4800,"station_id":"ce4bh512rcd13ifvqe2g","pricing_plan_id":"cebpf4jnsgd1na2vs0mg"},{"bike_id":"8b4caff4-6ee7-47a5-a64f-5ccaa83c132f","system_id":"levelo_inurba_marseille","lat":43.295155,"lon":5.425124,"is_reserved":false,"is_disabled":false,"rental_uris":{"android":"levelo://app?vid=8b4caff4-6ee7-47a5-a64f-5ccaa83c132f","ios":"levelo://app?vid=8b4caff4-6ee7-47a5-a64f-5ccaa83c132f"},"vehicle_type_id":"4","last_reported":1749553782,"current_range_meters":4800,"station_id":"","pricing_plan_id":"cebpf4jnsgd1na2vs0mg"},{"bike_id":"9931c039-b3f3-49c9-becf-a563ab84025d","system_id":"levelo_inurba_marseille","lat":43.28468,"lon":5.38407,"is_reserved":false,"is_disabled":false,"rental_uris":{"android":"levelo://app?vid=9931c039-b3f3-49c9-becf-a563ab84025d","ios":"levelo://app?vid=9931c039-b3f3-49c9-becf-a563ab84025d"},"vehicle_type_id":"4","last_reported":1749553782,"current_range_meters":4800,"station_id":"ce4bh512rcd13ifvqe3g","pricing_plan_id":"cebpf4jnsgd1na2vs0mg"},{"bike_id":"c07cf696-532f-4d38-a7a4-ffde80a951dd","system_id":"levelo_inurba_marseille","lat":43.29037,"lon":5.37565,"is_reserved":false,"is_disabled":false,"rental_uris":{"android":"levelo://app?vid=c07cf696-532f-4d38-a7a4-ffde80a951dd","ios":"levelo://app?vid=c07cf696-532f-4d38-a7a4-ffde80a951dd"},"vehicle_type_id":"4","last_reported":1749553782,"current_range_meters":4800,"station_id":"ce4bh692rcd13ifvqe90","pricing_plan_id":"cebpf4jnsgd1na2vs0mg"},{"bike_id":"69ac9317-7893-4567-93e0-ad17027b44f4","system_id":"levelo_inurba_marseille","lat":43.29779,"lon":5.3711,"is_reserved":false,"is_disabled":false,"rental_uris":{"android":"levelo://app?vid=69ac9317-7893-4567-93e0-ad17027b44f4","ios":"levelo://app?vid=69ac9317-7893-4567-93e0-ad17027b44f4"},"vehicle_type_id":"4","last_reported":1749553782,"current_range_meters":5600,"station_id":"ce4bgop2rcd13ifvqc1g","pricing_plan_id":"cebpf4jnsgd1na2vs0mg"},{"bike_id":"a1573c89-3d46-4670-ac05-1f1d4bd78ea7","system_id":"levelo_inurba_marseille","lat":43.2804,"lon":5.36943,"is_reserved":false,"is_disabled":false,"rental_uris":{"android":"levelo://app?vid=a1573c89-3d46-4670-ac05-1f1d4bd78ea7","ios":"levelo://app?vid=a1573c89-3d46-4670-ac05-1f1d4bd78ea7"},"vehicle_type_id":"4","last_reported":1749553782,"current_range_meters":5600,"station_id":"ce4bha12rcd13ifvqef0","pricing_plan_id":"cebpf4jnsgd1na2vs0mg"},{"bike_id":"34eb7cac-12be-42dd-ac2e-b7b72e6ae50a","system_id":"levelo_inurba_marseille","lat":43.29176,"lon":5.35789,"is_reserved":false,"is_disabled":false,"rental_uris":{"android":"levelo://app?vid=34eb7cac-12be-42dd-ac2e-b7b72e6ae50a","ios":"levelo://app?vid=34eb7cac-12be-42dd-ac2e-b7b72e6ae50a"},"vehicle_type_id":"4","last_reported":1749553782,"current_range_meters":5600,"station_id":"ce4bhb12rcd13ifvqel0","pricing_plan_id":"cebpf4jnsgd1na2vs0mg"},{"bike_id":"09706b27-996a-4ac1-bc7f-78c5abeb6b65","system_id":"levelo_inurba_marseille","lat":43.28608,"lon":5.35102,"is_reserved":false,"is_disabled":false,"rental_uris":{"android":"levelo://app?vid=09706b27-996a-4ac1-bc7f-78c5abeb6b65","ios":"levelo://app?vid=09706b27-996a-4ac1-bc7f-78c5abeb6b65"},"vehicle_type_id":"4","last_reported":1749553782,"current_range_meters":6000,"station_id":"ce4bhch2rcd13ifvqeug","pricing_plan_id":"cebpf4jnsgd1na2vs0mg"},{"bike_id":"6ccc9ac2-300b-47d8-bf8b-74ed35ff09d1","system_id":"levelo_inurba_marseille","lat":43.295113,"lon":5.375097,"is_reserved":false,"is_disabled":false,"rental_uris":{"android":"levelo://app?vid=6ccc9ac2-300b-47d8-bf8b-74ed35ff09d1","ios":"levelo://app?vid=6ccc9ac2-300b-47d8-bf8b-74ed35ff09d1"},"vehicle_type_id":"4","last_reported":1749553782,"current_range_meters":6400,"station_id":"ce4bgkp2rcd13ifvqbmg","pricing_plan_id":"cebpf4jnsgd1na2vs0mg"},{"bike_id":"6f64c586-e112-4950-b5c7-4df71cd01f7f","system_id":"levelo_inurba_marseille","lat":43.29969,"lon":5.38494,"is_reserved":false,"is_disabled":false,"rental_uris":{"android":"levelo://app?vid=6f64c586-e112-4950-b5c7-4df71cd01f7f","ios":"levelo://app?vid=6f64c586-e112-4950-b5c7-4df71cd01f7f"},"vehicle_type_id":"4","last_reported":1749553782,"current_range_meters":6400,"station_id":"ce4bgj92rcd13ifvqbd0","pricing_plan_id":"cebpf4jnsgd1na2vs0mg"},{"bike_id":"dd67f108-95bf-4a1e-b619-4bb77e009c5b","system_id":"levelo_inurba_marseille","lat":43.29072,"lon":5.42787,"is_reserved":false,"is_disabled":false,"rental_uris":{"android":"levelo://app?vid=dd67f108-95bf-4a1e-b619-4bb77e009c5b","ios":"levelo://app?vid=dd67f108-95bf-4a1e-b619-4bb77e009c5b"},"vehicle_type_id":"4","last_reported":1749553782,"current_range_meters":6400,"station_id":"","pricing_plan_id":"cebpf4jnsgd1na2vs0mg"},{"bike_id":"112ef101-c5ad-439b-90ab-994bec43d692","system_id":"levelo_inurba_marseille","lat":43.28423,"lon":5.34985,"is_reserved":false,"is_disabled":false,"rental_uris":{"android":"levelo://app?vid=112ef101-c5ad-439b-90ab-994bec43d692","ios":"levelo://app?vid=112ef101-c5ad-439b-90ab-994bec43d692"},"vehicle_type_id":"4","last_reported":1749553782,"current_range_meters":6400,"station_id":"ce4bhbh2rcd13ifvqepg","pricing_plan_id":"cebpf4jnsgd1na2vs0mg"},{"bike_id":"4f4b1cb5-3e59-443d-bf57-2dfd9049d9d6","system_id":"levelo_inurba_marseille","lat":43.25927,"lon":5.409,"is_reserved":false,"is_disabled":false,"rental_uris":{"android":"levelo://app?vid=4f4b1cb5-3e59-443d-bf57-2dfd9049d9d6","ios":"levelo://app?vid=4f4b1cb5-3e59-443d-bf57-2dfd9049d9d6"},"vehicle_type_id":"4","last_reported":1749553782,"current_range_meters":6800,"station_id":"ce4bhm92rcd13ifvqglg","pricing_plan_id":"cebpf4jnsgd1na2vs0mg"},{"bike_id":"7a286b17-17df-491a-a381-1330c2f7a715","system_id":"levelo_inurba_marseille","lat":43.29893,"lon":5.43646,"is_reserved":false,"is_disabled":false,"rental_uris":{"android":"levelo://app?vid=7a286b17-17df-491a-a381-1330c2f7a715","ios":"levelo://app?vid=7a286b17-17df-491a-a381-1330c2f7a715"},"vehicle_type_id":"4","last_reported":1749553782,"current_range_meters":6800,"station_id":"ce4bhpp2rcd13ifvqhfg","pricing_plan_id":"cebpf4jnsgd1na2vs0mg"},{"bike_id":"2dcc9677-dcdb-4564-983b-2ca2a6c1a59d","system_id":"levelo_inurba_marseille","lat":43.27055,"lon":5.40261,"is_reserved":false,"is_disabled":false,"rental_uris":{"android":"levelo://app?vid=2dcc9677-dcdb-4564-983b-2ca2a6c1a59d","ios":"levelo://app?vid=2dcc9677-dcdb-4564-983b-2ca2a6c1a59d"},"vehicle_type_id":"4","last_reported":1749553782,"current_range_meters":6800,"station_id":"ce4bhk92rcd13ifvqgc0","pricing_plan_id":"cebpf4jnsgd1na2vs0mg"},{"bike_id":"f511734b-78f6-466c-a632-23e9869ef2bc","system_id":"levelo_inurba_marseille","lat":43.31265,"lon":5.36922,"is_reserved":false,"is_disabled":false,"rental_uris":{"android":"levelo://app?vid=f511734b-78f6-466c-a632-23e9869ef2bc","ios":"levelo://app?vid=f511734b-78f6-466c-a632-23e9869ef2bc"},"vehicle_type_id":"4","last_reported":1749553782,"current_range_meters":6800,"station_id":"","pricing_plan_id":"cebpf4jnsgd1na2vs0mg"},{"bike_id":"18533929-2f67-40c2-bdb1-988dca9d3a58","system_id":"levelo_inurba_marseille","lat":43.29568,"lon":5.37516,"is_reserved":false,"is_disabled":false,"rental_uris":{"android":"levelo://app?vid=18533929-2f67-40c2-bdb1-988dca9d3a58","ios":"levelo://app?vid=18533929-2f67-40c2-bdb1-988dca9d3a58"},"vehicle_type_id":"4","last_reported":1749553782,"current_range_meters":6800,"station_id":"ce4bgh92rcd13ifvqb50","pricing_plan_id":"cebpf4jnsgd1na2vs0mg"},{"bike_id":"2e5b7a2e-ae80-4b63-807c-0d74d0713d36","system_id":"levelo_inurba_marseille","lat":43.28403,"lon":5.34989,"is_reserved":false,"is_disabled":false,"rental_uris":{"android":"levelo://app?vid=2e5b7a2e-ae80-4b63-807c-0d74d0713d36","ios":"levelo://app?vid=2e5b7a2e-ae80-4b63-807c-0d74d0713d36"},"vehicle_type_id":"4","last_reported":1749553782,"current_range_meters":7200,"station_id":"ce4bhbh2rcd13ifvqepg","pricing_plan_id":"cebpf4jnsgd1na2vs0mg"},{"bike_id":"8aeb3157-3aee-4f64-8d34-df39fe5d3ee9","system_id":"levelo_inurba_marseille","lat":43.295804,"lon":5.367412,"is_reserved":false,"is_disabled":false,"rental_uris":{"android":"levelo://app?vid=8aeb3157-3aee-4f64-8d34-df39fe5d3ee9","ios":"levelo://app?vid=8aeb3157-3aee-4f64-8d34-df39fe5d3ee9"},"vehicle_type_id":"4","last_reported":1749553782,"current_range_meters":7200,"station_id":"","pricing_plan_id":"cebpf4jnsgd1na2vs0mg"},{"bike_id":"37463d28-0801-4fea-b11b-762880a53ab4","system_id":"levelo_inurba_marseille","lat":43.26556,"lon":5.3728,"is_reserved":false,"is_disabled":false,"rental_uris":{"android":"levelo://app?vid=37463d28-0801-4fea-b11b-762880a53ab4","ios":"levelo://app?vid=37463d28-0801-4fea-b11b-762880a53ab4"},"vehicle_type_id":"4","last_reported":1749553782,"current_range_meters":7200,"station_id":"ce4bhg12rcd13ifvqf70","pricing_plan_id":"cebpf4jnsgd1na2vs0mg"},{"bike_id":"7d407bfb-c0e5-47a3-ba08-57594fc482b6","system_id":"levelo_inurba_marseille","lat":43.2857,"lon":5.39501,"is_reserved":false,"is_disabled":false,"rental_uris":{"android":"levelo://app?vid=7d407bfb-c0e5-47a3-ba08-57594fc482b6","ios":"levelo://app?vid=7d407bfb-c0e5-47a3-ba08-57594fc482b6"},"vehicle_type_id":"4","last_reported":1749553782,"current_range_meters":7200,"station_id":"ce4bh292rcd13ifvqdg0","pricing_plan_id":"cebpf4jnsgd1na2vs0mg"},{"bike_id":"f0782932-4f65-40fc-9cee-a635f880f137","system_id":"levelo_inurba_marseille","lat":43.32241,"lon":5.36698,"is_reserved":false,"is_disabled":false,"rental_uris":{"android":"levelo://app?vid=f0782932-4f65-40fc-9cee-a635f880f137","ios":"levelo://app?vid=f0782932-4f65-40fc-9cee-a635f880f137"},"vehicle_type_id":"4","last_reported":1749553782,"current_range_meters":8400,"station_id":"ce4bhsh2rcd13ifvqi2g","pricing_plan_id":"cebpf4jnsgd1na2vs0mg"},{"bike_id":"c60afe07-e4f3-4b72-88b9-7f0102dcb9ec","system_id":"levelo_inurba_marseille","lat":43.27208,"lon":5.39177,"is_reserved":false,"is_disabled":false,"rental_uris":{"android":"levelo://app?vid=c60afe07-e4f3-4b72-88b9-7f0102dcb9ec","ios":"levelo://app?vid=c60afe07-e4f3-4b72-88b9-7f0102dcb9ec"},"vehicle_type_id":"4","last_reported":1749553782,"current_range_meters":8000,"station_id":"ce4bhhp2rcd13ifvqfm0","pricing_plan_id":"cebpf4jnsgd1na2vs0mg"},{"bike_id":"7fa8fe03-e761-44b8-8ced-e506fdbc1a3a","system_id":"levelo_inurba_marseille","lat":43.32114,"lon":5.3677,"is_reserved":false,"is_disabled":false,"rental_uris":{"android":"levelo://app?vid=7fa8fe03-e761-44b8-8ced-e506fdbc1a3a","ios":"levelo://app?vid=7fa8fe03-e761-44b8-8ced-e506fdbc1a3a"},"vehicle_type_id":"4","last_reported":1749553782,"current_range_meters":8400,"station_id":"ce4bhrh2rcd13ifvqhug","pricing_plan_id":"cebpf4jnsgd1na2vs0mg"},{"bike_id":"7df780a9-e7dd-40f3-908d-9b17c15f773e","system_id":"levelo_inurba_marseille","lat":43.29185,"lon":5.35794,"is_reserved":false,"is_disabled":false,"rental_uris":{"android":"levelo://app?vid=7df780a9-e7dd-40f3-908d-9b17c15f773e","ios":"levelo://app?vid=7df780a9-e7dd-40f3-908d-9b17c15f773e"},"vehicle_type_id":"4","last_reported":1749553782,"current_range_meters":6400,"station_id":"ce4bhb12rcd13ifvqel0","pricing_plan_id":"cebpf4jnsgd1na2vs0mg"},{"bike_id":"da14da1f-7442-42b5-98f6-365f4fbd4c56","system_id":"levelo_inurba_marseille","lat":43.32664,"lon":5.41042,"is_reserved":false,"is_disabled":false,"rental_uris":{"android":"levelo://app?vid=da14da1f-7442-42b5-98f6-365f4fbd4c56","ios":"levelo://app?vid=da14da1f-7442-42b5-98f6-365f4fbd4c56"},"vehicle_type_id":"4","last_reported":1749553782,"current_range_meters":8400,"station_id":"ce4bhpp2rcd13ifvqhgg","pricing_plan_id":"cebpf4jnsgd1na2vs0mg"},{"bike_id":"bc61b2e9-7797-4ea9-9dbf-5eec907e2eca","system_id":"levelo_inurba_marseille","lat":43.31364,"lon":5.38489,"is_reserved":false,"is_disabled":false,"rental_uris":{"android":"levelo://app?vid=bc61b2e9-7797-4ea9-9dbf-5eec907e2eca","ios":"levelo://app?vid=bc61b2e9-7797-4ea9-9dbf-5eec907e2eca"},"vehicle_type_id":"4","last_reported":1749553782,"current_range_meters":8400,"station_id":"ce4bgt92rcd13ifvqcf0","pricing_plan_id":"cebpf4jnsgd1na2vs0mg"},{"bike_id":"744fa010-b75f-4fd7-ac23-cc808ecd0bf7","system_id":"levelo_inurba_marseille","lat":43.3149,"lon":5.37304,"is_reserved":false,"is_disabled":false,"rental_uris":{"android":"levelo://app?vid=744fa010-b75f-4fd7-ac23-cc808ecd0bf7","ios":"levelo://app?vid=744fa010-b75f-4fd7-ac23-cc808ecd0bf7"},"vehicle_type_id":"4","last_reported":1749553782,"current_range_meters":8800,"station_id":"ce4bgt12rcd13ifvqcd0","pricing_plan_id":"cebpf4jnsgd1na2vs0mg"},{"bike_id":"98519265-4dd6-4e6c-bf5d-9d8aca96beec","system_id":"levelo_inurba_marseille","lat":43.309328,"lon":5.401426,"is_reserved":false,"is_disabled":false,"rental_uris":{"android":"levelo://app?vid=98519265-4dd6-4e6c-bf5d-9d8aca96beec","ios":"levelo://app?vid=98519265-4dd6-4e6c-bf5d-9d8aca96beec"},"vehicle_type_id":"4","last_reported":1749553782,"current_range_meters":8800,"station_id":"ce4bgvp2rcd13ifvqct0","pricing_plan_id":"cebpf4jnsgd1na2vs0mg"},{"bike_id":"2a8adf3c-86f9-4f2c-b5db-0063008b8e56","system_id":"levelo_inurba_marseille","lat":43.27847,"lon":5.39195,"is_reserved":false,"is_disabled":false,"rental_uris":{"android":"levelo://app?vid=2a8adf3c-86f9-4f2c-b5db-0063008b8e56","ios":"levelo://app?vid=2a8adf3c-86f9-4f2c-b5db-0063008b8e56"},"vehicle_type_id":"4","last_reported":1749553782,"current_range_meters":8800,"station_id":"ce4bhjp2rcd13ifvqga0","pricing_plan_id":"cebpf4jnsgd1na2vs0mg"},{"bike_id":"2f32b755-3ca4-4102-8e33-37fff5e1ff8d","system_id":"levelo_inurba_marseille","lat":43.27159,"lon":5.40177,"is_reserved":false,"is_disabled":false,"rental_uris":{"android":"levelo://app?vid=2f32b755-3ca4-4102-8e33-37fff5e1ff8d","ios":"levelo://app?vid=2f32b755-3ca4-4102-8e33-37fff5e1ff8d"},"vehicle_type_id":"4","last_reported":1749553782,"current_range_meters":9200,"station_id":"","pricing_plan_id":"cebpf4jnsgd1na2vs0mg"},{"bike_id":"88113087-f0bb-4133-ab2a-bbfce1f3d99a","system_id":"levelo_inurba_marseille","lat":43.31719,"lon":5.40466,"is_reserved":false,"is_disabled":true,"rental_uris":{"android":"levelo://app?vid=88113087-f0bb-4133-ab2a-bbfce1f3d99a","ios":"levelo://app?vid=88113087-f0bb-4133-ab2a-bbfce1f3d99a"},"vehicle_type_id":"4","last_reported":1749553782,"current_range_meters":9200,"station_id":"ce4bh012rcd13ifvqd00","pricing_plan_id":"cebpf4jnsgd1na2vs0mg"},{"bike_id":"0511cb9f-7dd3-4672-945b-236e9f0238ac","system_id":"levelo_inurba_marseille","lat":43.29826,"lon":5.37703,"is_reserved":false,"is_disabled":false,"rental_uris":{"android":"levelo://app?vid=0511cb9f-7dd3-4672-945b-236e9f0238ac","ios":"levelo://app?vid=0511cb9f-7dd3-4672-945b-236e9f0238ac"},"vehicle_type_id":"4","last_reported":1749553782,"current_range_meters":9200,"station_id":"","pricing_plan_id":"cebpf4jnsgd1na2vs0mg"},{"bike_id":"05d515d4-f9a4-4d33-9344-77da9a44570b","system_id":"levelo_inurba_marseille","lat":43.27631,"lon":5.36125,"is_reserved":false,"is_disabled":false,"rental_uris":{"android":"levelo://app?vid=05d515d4-f9a4-4d33-9344-77da9a44570b","ios":"levelo://app?vid=05d515d4-f9a4-4d33-9344-77da9a44570b"},"vehicle_type_id":"4","last_reported":1749553782,"current_range_meters":9200,"station_id":"ce4bgj92rcd13ifvqbe0","pricing_plan_id":"cebpf4jnsgd1na2vs0mg"},{"bike_id":"799ef421-b77c-4059-865c-018b9119f617","system_id":"levelo_inurba_marseille","lat":43.29573,"lon":5.39973,"is_reserved":false,"is_disabled":false,"rental_uris":{"android":"levelo://app?vid=799ef421-b77c-4059-865c-018b9119f617","ios":"levelo://app?vid=799ef421-b77c-4059-865c-018b9119f617"},"vehicle_type_id":"4","last_reported":1749553782,"current_range_meters":9200,"station_id":"ce4bh312rcd13ifvqdj0","pricing_plan_id":"cebpf4jnsgd1na2vs0mg"},{"bike_id":"291ab0bc-bb52-4ad0-a840-58f1558e3677","system_id":"levelo_inurba_marseille","lat":43.217512,"lon":5.346033,"is_reserved":false,"is_disabled":false,"rental_uris":{"android":"levelo://app?vid=291ab0bc-bb52-4ad0-a840-58f1558e3677","ios":"levelo://app?vid=291ab0bc-bb52-4ad0-a840-58f1558e3677"},"vehicle_type_id":"4","last_reported":1749553782,"current_range_meters":9200,"station_id":"","pricing_plan_id":"cebpf4jnsgd1na2vs0mg"},{"bike_id":"6881f3c4-cdcf-47c2-bd66-c228f69b8d97","system_id":"levelo_inurba_marseille","lat":43.2952,"lon":5.39021,"is_reserved":false,"is_disabled":false,"rental_uris":{"android":"levelo://app?vid=6881f3c4-cdcf-47c2-bd66-c228f69b8d97","ios":"levelo://app?vid=6881f3c4-cdcf-47c2-bd66-c228f69b8d97"},"vehicle_type_id":"4","last_reported":1749553782,"current_range_meters":9600,"station_id":"ce4bh3p2rcd13ifvqdp0","pricing_plan_id":"cebpf4jnsgd1na2vs0mg"},{"bike_id":"9364ea33-40bd-4a6a-888a-f0bc24b0338b","system_id":"levelo_inurba_marseille","lat":43.32102,"lon":5.36793,"is_reserved":false,"is_disabled":true,"rental_uris":{"android":"levelo://app?vid=9364ea33-40bd-4a6a-888a-f0bc24b0338b","ios":"levelo://app?vid=9364ea33-40bd-4a6a-888a-f0bc24b0338b"},"vehicle_type_id":"4","last_reported":1749553782,"current_range_meters":9600,"station_id":"ce4bhrh2rcd13ifvqhug","pricing_plan_id":"cebpf4jnsgd1na2vs0mg"},{"bike_id":"04ab44bf-e8ae-4757-ab72-d056cf4ff427","system_id":"levelo_inurba_marseille","lat":43.28355,"lon":5.38109,"is_reserved":false,"is_disabled":false,"rental_uris":{"android":"levelo://app?vid=04ab44bf-e8ae-4757-ab72-d056cf4ff427","ios":"levelo://app?vid=04ab44bf-e8ae-4757-ab72-d056cf4ff427"},"vehicle_type_id":"4","last_reported":1749553782,"current_range_meters":9600,"station_id":"ce4bh412rcd13ifvqdr0","pricing_plan_id":"cebpf4jnsgd1na2vs0mg"},{"bike_id":"24e9e948-3262-4072-8dd0-7e254b70aef4","system_id":"levelo_inurba_marseille","lat":43.30944,"lon":5.39037,"is_reserved":false,"is_disabled":false,"rental_uris":{"android":"levelo://app?vid=24e9e948-3262-4072-8dd0-7e254b70aef4","ios":"levelo://app?vid=24e9e948-3262-4072-8dd0-7e254b70aef4"},"vehicle_type_id":"4","last_reported":1749553782,"current_range_meters":9600,"station_id":"ce4bgup2rcd13ifvqco0","pricing_plan_id":"cebpf4jnsgd1na2vs0mg"},{"bike_id":"f156dd16-bfc6-4d9c-8774-e71864afe86d","system_id":"levelo_inurba_marseille","lat":43.27967,"lon":5.41645,"is_reserved":false,"is_disabled":true,"rental_uris":{"android":"levelo://app?vid=f156dd16-bfc6-4d9c-8774-e71864afe86d","ios":"levelo://app?vid=f156dd16-bfc6-4d9c-8774-e71864afe86d"},"vehicle_type_id":"4","last_reported":1749553782,"current_range_meters":9600,"station_id":"ce4bho12rcd13ifvqh1g","pricing_plan_id":"cebpf4jnsgd1na2vs0mg"},{"bike_id":"00ca30c3-b636-4824-8f37-e641de8b6bdb","system_id":"levelo_inurba_marseille","lat":43.30531,"lon":5.36725,"is_reserved":false,"is_disabled":false,"rental_uris":{"android":"levelo://app?vid=00ca30c3-b636-4824-8f37-e641de8b6bdb","ios":"levelo://app?vid=00ca30c3-b636-4824-8f37-e641de8b6bdb"},"vehicle_type_id":"4","last_reported":1749553782,"current_range_meters":10000,"station_id":"ce4bgrp2rcd13ifvqc9g","pricing_plan_id":"cebpf4jnsgd1na2vs0mg"},{"bike_id":"3d30ef86-89a9-43f8-8fe1-9ba3ea0a1581","system_id":"levelo_inurba_marseille","lat":43.28417,"lon":5.34988,"is_reserved":false,"is_disabled":false,"rental_uris":{"android":"levelo://app?vid=3d30ef86-89a9-43f8-8fe1-9ba3ea0a1581","ios":"levelo://app?vid=3d30ef86-89a9-43f8-8fe1-9ba3ea0a1581"},"vehicle_type_id":"4","last_reported":1749553782,"current_range_meters":10000,"station_id":"ce4bhbh2rcd13ifvqepg","pricing_plan_id":"cebpf4jnsgd1na2vs0mg"},{"bike_id":"b6285f6b-e9e7-470d-9b6d-1afe99ab71bf","system_id":"levelo_inurba_marseille","lat":43.261902,"lon":5.420709,"is_reserved":false,"is_disabled":false,"rental_uris":{"android":"levelo://app?vid=b6285f6b-e9e7-470d-9b6d-1afe99ab71bf","ios":"levelo://app?vid=b6285f6b-e9e7-470d-9b6d-1afe99ab71bf"},"vehicle_type_id":"4","last_reported":1749553782,"current_range_meters":10000,"station_id":"","pricing_plan_id":"cebpf4jnsgd1na2vs0mg"},{"bike_id":"8eeefb04-d3e8-472f-b6bd-b60b265d90ce","system_id":"levelo_inurba_marseille","lat":43.29625,"lon":5.37164,"is_reserved":false,"is_disabled":false,"rental_uris":{"android":"levelo://app?vid=8eeefb04-d3e8-472f-b6bd-b60b265d90ce","ios":"levelo://app?vid=8eeefb04-d3e8-472f-b6bd-b60b265d90ce"},"vehicle_type_id":"4","last_reported":1749553782,"current_range_meters":10000,"station_id":"ce4bgnh2rcd13ifvqc0g","pricing_plan_id":"cebpf4jnsgd1na2vs0mg"},{"bike_id":"df4172a0-1c3d-4a3d-8785-a0d8c0da8e0f","system_id":"levelo_inurba_marseille","lat":43.29567,"lon":5.37503,"is_reserved":false,"is_disabled":false,"rental_uris":{"android":"levelo://app?vid=df4172a0-1c3d-4a3d-8785-a0d8c0da8e0f","ios":"levelo://app?vid=df4172a0-1c3d-4a3d-8785-a0d8c0da8e0f"},"vehicle_type_id":"4","last_reported":1749553782,"current_range_meters":10000,"station_id":"ce4bgh92rcd13ifvqb50","pricing_plan_id":"cebpf4jnsgd1na2vs0mg"},{"bike_id":"c07a7351-aaaf-465f-b00c-b9ca4162fcb9","system_id":"levelo_inurba_marseille","lat":43.29278,"lon":5.3761,"is_reserved":false,"is_disabled":false,"rental_uris":{"android":"levelo://app?vid=c07a7351-aaaf-465f-b00c-b9ca4162fcb9","ios":"levelo://app?vid=c07a7351-aaaf-465f-b00c-b9ca4162fcb9"},"vehicle_type_id":"4","last_reported":1749553782,"current_range_meters":10000,"station_id":"ce4bgi12rcd13ifvqb80","pricing_plan_id":"cebpf4jnsgd1na2vs0mg"},{"bike_id":"8f957c09-cb4b-453c-9cb7-b922ce8003f6","system_id":"levelo_inurba_marseille","lat":43.274988,"lon":5.424475,"is_reserved":false,"is_disabled":false,"rental_uris":{"android":"levelo://app?vid=8f957c09-cb4b-453c-9cb7-b922ce8003f6","ios":"levelo://app?vid=8f957c09-cb4b-453c-9cb7-b922ce8003f6"},"vehicle_type_id":"4","last_reported":1749553782,"current_range_meters":10800,"station_id":"ce4bhn92rcd13ifvqgrg","pricing_plan_id":"cebpf4jnsgd1na2vs0mg"},{"bike_id":"1aea7cfc-afca-4737-8f8d-ae60132524de","system_id":"levelo_inurba_marseille","lat":43.28759,"lon":5.39857,"is_reserved":false,"is_disabled":false,"rental_uris":{"android":"levelo://app?vid=1aea7cfc-afca-4737-8f8d-ae60132524de","ios":"levelo://app?vid=1aea7cfc-afca-4737-8f8d-ae60132524de"},"vehicle_type_id":"4","last_reported":1749553782,"current_range_meters":10800,"station_id":"","pricing_plan_id":"cebpf4jnsgd1na2vs0mg"},{"bike_id":"94d68637-b3c9-496a-8ccc-2867b06f2b83","system_id":"levelo_inurba_marseille","lat":43.2956,"lon":5.37511,"is_reserved":false,"is_disabled":false,"rental_uris":{"android":"levelo://app?vid=94d68637-b3c9-496a-8ccc-2867b06f2b83","ios":"levelo://app?vid=94d68637-b3c9-496a-8ccc-2867b06f2b83"},"vehicle_type_id":"4","last_reported":1749553782,"current_range_meters":10800,"station_id":"ce4bgh92rcd13ifvqb50","pricing_plan_id":"cebpf4jnsgd1na2vs0mg"},{"bike_id":"39d32260-51d5-455a-ba53-6471389bd255","system_id":"levelo_inurba_marseille","lat":43.32013,"lon":5.37614,"is_reserved":false,"is_disabled":false,"rental_uris":{"android":"levelo://app?vid=39d32260-51d5-455a-ba53-6471389bd255","ios":"levelo://app?vid=39d32260-51d5-455a-ba53-6471389bd255"},"vehicle_type_id":"4","last_reported":1749553782,"current_range_meters":10800,"station_id":"","pricing_plan_id":"cebpf4jnsgd1na2vs0mg"},{"bike_id":"3c115fbc-a50b-4782-940a-6f404a7662a2","system_id":"levelo_inurba_marseille","lat":43.27376,"lon":5.36256,"is_reserved":false,"is_disabled":false,"rental_uris":{"android":"levelo://app?vid=3c115fbc-a50b-4782-940a-6f404a7662a2","ios":"levelo://app?vid=3c115fbc-a50b-4782-940a-6f404a7662a2"},"vehicle_type_id":"4","last_reported":1749553782,"current_range_meters":10800,"station_id":"ce4bhbh2rcd13ifvqeo0","pricing_plan_id":"cebpf4jnsgd1na2vs0mg"},{"bike_id":"20df14a0-422f-46fe-9ed3-e6c1510c0c52","system_id":"levelo_inurba_marseille","lat":43.26586,"lon":5.39023,"is_reserved":false,"is_disabled":false,"rental_uris":{"android":"levelo://app?vid=20df14a0-422f-46fe-9ed3-e6c1510c0c52","ios":"levelo://app?vid=20df14a0-422f-46fe-9ed3-e6c1510c0c52"},"vehicle_type_id":"4","last_reported":1749553782,"current_range_meters":10800,"station_id":"ce4bhe12rcd13ifvqf30","pricing_plan_id":"cebpf4jnsgd1na2vs0mg"},{"bike_id":"99c557d1-efdd-49a8-8004-640f2a088c62","system_id":"levelo_inurba_marseille","lat":43.32336,"lon":5.40623,"is_reserved":false,"is_disabled":false,"rental_uris":{"android":"levelo://app?vid=99c557d1-efdd-49a8-8004-640f2a088c62","ios":"levelo://app?vid=99c557d1-efdd-49a8-8004-640f2a088c62"},"vehicle_type_id":"4","last_reported":1749553782,"current_range_meters":11200,"station_id":"ce4bhq92rcd13ifvqhjg","pricing_plan_id":"cebpf4jnsgd1na2vs0mg"},{"bike_id":"697c346d-4cc7-442d-8a6e-e9a7997e5a75","system_id":"levelo_inurba_marseille","lat":43.29638,"lon":5.37152,"is_reserved":false,"is_disabled":false,"rental_uris":{"android":"levelo://app?vid=697c346d-4cc7-442d-8a6e-e9a7997e5a75","ios":"levelo://app?vid=697c346d-4cc7-442d-8a6e-e9a7997e5a75"},"vehicle_type_id":"4","last_reported":1749553782,"current_range_meters":11200,"station_id":"ce4bgnh2rcd13ifvqc0g","pricing_plan_id":"cebpf4jnsgd1na2vs0mg"},{"bike_id":"6d678a89-3c62-4937-b5e6-037115d92966","system_id":"levelo_inurba_marseille","lat":43.29964,"lon":5.38492,"is_reserved":false,"is_disabled":false,"rental_uris":{"android":"levelo://app?vid=6d678a89-3c62-4937-b5e6-037115d92966","ios":"levelo://app?vid=6d678a89-3c62-4937-b5e6-037115d92966"},"vehicle_type_id":"4","last_reported":1749553782,"current_range_meters":11200,"station_id":"ce4bgj92rcd13ifvqbd0","pricing_plan_id":"cebpf4jnsgd1na2vs0mg"},{"bike_id":"f4515a28-052e-4ff9-b4b3-3db70fed809e","system_id":"levelo_inurba_marseille","lat":43.26565,"lon":5.37279,"is_reserved":false,"is_disabled":false,"rental_uris":{"android":"levelo://app?vid=f4515a28-052e-4ff9-b4b3-3db70fed809e","ios":"levelo://app?vid=f4515a28-052e-4ff9-b4b3-3db70fed809e"},"vehicle_type_id":"4","last_reported":1749553782,"current_range_meters":11200,"station_id":"ce4bhg12rcd13ifvqf70","pricing_plan_id":"cebpf4jnsgd1na2vs0mg"},{"bike_id":"7ebfc2ca-b98f-4e90-9920-d185eb7759b7","system_id":"levelo_inurba_marseille","lat":43.28424,"lon":5.34994,"is_reserved":false,"is_disabled":false,"rental_uris":{"android":"levelo://app?vid=7ebfc2ca-b98f-4e90-9920-d185eb7759b7","ios":"levelo://app?vid=7ebfc2ca-b98f-4e90-9920-d185eb7759b7"},"vehicle_type_id":"4","last_reported":1749553782,"current_range_meters":11200,"station_id":"ce4bhbh2rcd13ifvqepg","pricing_plan_id":"cebpf4jnsgd1na2vs0mg"},{"bike_id":"854ce545-3e9c-4c67-a5f7-08326d56d6a0","system_id":"levelo_inurba_marseille","lat":43.27816,"lon":5.40745,"is_reserved":false,"is_disabled":false,"rental_uris":{"android":"levelo://app?vid=854ce545-3e9c-4c67-a5f7-08326d56d6a0","ios":"levelo://app?vid=854ce545-3e9c-4c67-a5f7-08326d56d6a0"},"vehicle_type_id":"4","last_reported":1749553782,"current_range_meters":11600,"station_id":"ce4bhnh2rcd13ifvqgtg","pricing_plan_id":"cebpf4jnsgd1na2vs0mg"},{"bike_id":"d157ec7f-a874-46cb-8308-aad07e93098c","system_id":"levelo_inurba_marseille","lat":43.28626,"lon":5.35104,"is_reserved":false,"is_disabled":false,"rental_uris":{"android":"levelo://app?vid=d157ec7f-a874-46cb-8308-aad07e93098c","ios":"levelo://app?vid=d157ec7f-a874-46cb-8308-aad07e93098c"},"vehicle_type_id":"4","last_reported":1749553782,"current_range_meters":11600,"station_id":"ce4bhch2rcd13ifvqeug","pricing_plan_id":"cebpf4jnsgd1na2vs0mg"},{"bike_id":"fbc0ab26-1dcb-4fac-bcb3-9749ddc36b6d","system_id":"levelo_inurba_marseille","lat":43.28479,"lon":5.38418,"is_reserved":false,"is_disabled":false,"rental_uris":{"android":"levelo://app?vid=fbc0ab26-1dcb-4fac-bcb3-9749ddc36b6d","ios":"levelo://app?vid=fbc0ab26-1dcb-4fac-bcb3-9749ddc36b6d"},"vehicle_type_id":"4","last_reported":1749553782,"current_range_meters":11200,"station_id":"ce4bh512rcd13ifvqe3g","pricing_plan_id":"cebpf4jnsgd1na2vs0mg"},{"bike_id":"1dc54f7e-7b0f-4763-b180-826756693fee","system_id":"levelo_inurba_marseille","lat":43.29859,"lon":5.36283,"is_reserved":false,"is_disabled":false,"rental_uris":{"android":"levelo://app?vid=1dc54f7e-7b0f-4763-b180-826756693fee","ios":"levelo://app?vid=1dc54f7e-7b0f-4763-b180-826756693fee"},"vehicle_type_id":"4","last_reported":1749553782,"current_range_meters":11600,"station_id":"ce4bgpp2rcd13ifvqc3g","pricing_plan_id":"cebpf4jnsgd1na2vs0mg"},{"bike_id":"c210ced2-9f42-4c5b-8a3d-2aaa2903298d","system_id":"levelo_inurba_marseille","lat":43.27056,"lon":5.40256,"is_reserved":false,"is_disabled":false,"rental_uris":{"android":"levelo://app?vid=c210ced2-9f42-4c5b-8a3d-2aaa2903298d","ios":"levelo://app?vid=c210ced2-9f42-4c5b-8a3d-2aaa2903298d"},"vehicle_type_id":"4","last_reported":1749553782,"current_range_meters":11600,"station_id":"ce4bhk92rcd13ifvqgc0","pricing_plan_id":"cebpf4jnsgd1na2vs0mg"},{"bike_id":"56cc58c4-23b7-4c77-bb54-7f9784a802fe","system_id":"levelo_inurba_marseille","lat":43.31169,"lon":5.38713,"is_reserved":false,"is_disabled":false,"rental_uris":{"android":"levelo://app?vid=56cc58c4-23b7-4c77-bb54-7f9784a802fe","ios":"levelo://app?vid=56cc58c4-23b7-4c77-bb54-7f9784a802fe"},"vehicle_type_id":"4","last_reported":1749553782,"current_range_meters":11600,"station_id":"ce4bgv12rcd13ifvqcp0","pricing_plan_id":"cebpf4jnsgd1na2vs0mg"},{"bike_id":"5077581b-cebb-46fc-ba69-4fa8272d4810","system_id":"levelo_inurba_marseille","lat":43.213661,"lon":5.355162,"is_reserved":false,"is_disabled":false,"rental_uris":{"android":"levelo://app?vid=5077581b-cebb-46fc-ba69-4fa8272d4810","ios":"levelo://app?vid=5077581b-cebb-46fc-ba69-4fa8272d4810"},"vehicle_type_id":"4","last_reported":1749553782,"current_range_meters":12000,"station_id":"","pricing_plan_id":"cebpf4jnsgd1na2vs0mg"},{"bike_id":"aaed679a-e87b-4500-8f94-c4d194429e53","system_id":"levelo_inurba_marseille","lat":43.26213,"lon":5.37441,"is_reserved":false,"is_disabled":false,"rental_uris":{"android":"levelo://app?vid=aaed679a-e87b-4500-8f94-c4d194429e53","ios":"levelo://app?vid=aaed679a-e87b-4500-8f94-c4d194429e53"},"vehicle_type_id":"4","last_reported":1749553782,"current_range_meters":12000,"station_id":"ce4bhgp2rcd13ifvqfc0","pricing_plan_id":"cebpf4jnsgd1na2vs0mg"},{"bike_id":"28baa595-42fb-4b05-8899-8338253a252a","system_id":"levelo_inurba_marseille","lat":43.29799,"lon":5.38075,"is_reserved":false,"is_disabled":false,"rental_uris":{"android":"levelo://app?vid=28baa595-42fb-4b05-8899-8338253a252a","ios":"levelo://app?vid=28baa595-42fb-4b05-8899-8338253a252a"},"vehicle_type_id":"4","last_reported":1749553782,"current_range_meters":12000,"station_id":"ce4bgip2rcd13ifvqbb0","pricing_plan_id":"cebpf4jnsgd1na2vs0mg"},{"bike_id":"ef555bdb-3115-4b1f-9398-9c76776e1204","system_id":"levelo_inurba_marseille","lat":43.26034,"lon":5.37421,"is_reserved":false,"is_disabled":false,"rental_uris":{"android":"levelo://app?vid=ef555bdb-3115-4b1f-9398-9c76776e1204","ios":"levelo://app?vid=ef555bdb-3115-4b1f-9398-9c76776e1204"},"vehicle_type_id":"4","last_reported":1749553782,"current_range_meters":12000,"station_id":"","pricing_plan_id":"cebpf4jnsgd1na2vs0mg"},{"bike_id":"bb92ba5b-25cf-421d-8e4d-dbd092d0fe43","system_id":"levelo_inurba_marseille","lat":43.23958,"lon":5.36664,"is_reserved":false,"is_disabled":false,"rental_uris":{"android":"levelo://app?vid=bb92ba5b-25cf-421d-8e4d-dbd092d0fe43","ios":"levelo://app?vid=bb92ba5b-25cf-421d-8e4d-dbd092d0fe43"},"vehicle_type_id":"4","last_reported":1749553782,"current_range_meters":12000,"station_id":"ce4bhi12rcd13ifvqfp0","pricing_plan_id":"cebpf4jnsgd1na2vs0mg"},{"bike_id":"367d7be5-644e-4f9c-8cf6-1db83d296175","system_id":"levelo_inurba_marseille","lat":43.24664,"lon":5.38163,"is_reserved":false,"is_disabled":false,"rental_uris":{"android":"levelo://app?vid=367d7be5-644e-4f9c-8cf6-1db83d296175","ios":"levelo://app?vid=367d7be5-644e-4f9c-8cf6-1db83d296175"},"vehicle_type_id":"4","last_reported":1749553782,"current_range_meters":12000,"station_id":"ce4bhih2rcd13ifvqfr0","pricing_plan_id":"cebpf4jnsgd1na2vs0mg"},{"bike_id":"84d7b2bb-3f58-40a8-ad44-35743a9eaf30","system_id":"levelo_inurba_marseille","lat":43.29623,"lon":5.37168,"is_reserved":false,"is_disabled":false,"rental_uris":{"android":"levelo://app?vid=84d7b2bb-3f58-40a8-ad44-35743a9eaf30","ios":"levelo://app?vid=84d7b2bb-3f58-40a8-ad44-35743a9eaf30"},"vehicle_type_id":"4","last_reported":1749553782,"current_range_meters":12000,"station_id":"ce4bgnh2rcd13ifvqc0g","pricing_plan_id":"cebpf4jnsgd1na2vs0mg"},{"bike_id":"402b268f-51d8-4319-85da-3f411d4d5d91","system_id":"levelo_inurba_marseille","lat":43.21217,"lon":5.35067,"is_reserved":false,"is_disabled":false,"rental_uris":{"android":"levelo://app?vid=402b268f-51d8-4319-85da-3f411d4d5d91","ios":"levelo://app?vid=402b268f-51d8-4319-85da-3f411d4d5d91"},"vehicle_type_id":"4","last_reported":1749553782,"current_range_meters":12000,"station_id":"st_cvj6sg6p6f1abm77japg","pricing_plan_id":"cebpf4jnsgd1na2vs0mg"},{"bike_id":"8eea2b2e-25f4-487d-b898-d237838ab860","system_id":"levelo_inurba_marseille","lat":43.30588,"lon":5.39354,"is_reserved":false,"is_disabled":false,"rental_uris":{"android":"levelo://app?vid=8eea2b2e-25f4-487d-b898-d237838ab860","ios":"levelo://app?vid=8eea2b2e-25f4-487d-b898-d237838ab860"},"vehicle_type_id":"4","last_reported":1749553782,"current_range_meters":12400,"station_id":"ce4bh0p2rcd13ifvqd80","pricing_plan_id":"cebpf4jnsgd1na2vs0mg"},{"bike_id":"3dfe3d3e-edef-4544-941e-c7fd3808cf60","system_id":"levelo_inurba_marseille","lat":43.29437,"lon":5.39757,"is_reserved":false,"is_disabled":false,"rental_uris":{"android":"levelo://app?vid=3dfe3d3e-edef-4544-941e-c7fd3808cf60","ios":"levelo://app?vid=3dfe3d3e-edef-4544-941e-c7fd3808cf60"},"vehicle_type_id":"4","last_reported":1749553782,"current_range_meters":12000,"station_id":"ce4bh3h2rcd13ifvqdo0","pricing_plan_id":"cebpf4jnsgd1na2vs0mg"},{"bike_id":"fde471f0-ae87-4303-8d32-8f47c104d103","system_id":"levelo_inurba_marseille","lat":43.270687,"lon":5.422703,"is_reserved":false,"is_disabled":false,"rental_uris":{"android":"levelo://app?vid=fde471f0-ae87-4303-8d32-8f47c104d103","ios":"levelo://app?vid=fde471f0-ae87-4303-8d32-8f47c104d103"},"vehicle_type_id":"4","last_reported":1749553782,"current_range_meters":12400,"station_id":"ce4bhk92rcd13ifvqgb0","pricing_plan_id":"cebpf4jnsgd1na2vs0mg"},{"bike_id":"fc2f1910-a414-4319-bf70-1405d0c2e3d7","system_id":"levelo_inurba_marseille","lat":43.28561,"lon":5.39519,"is_reserved":false,"is_disabled":false,"rental_uris":{"android":"levelo://app?vid=fc2f1910-a414-4319-bf70-1405d0c2e3d7","ios":"levelo://app?vid=fc2f1910-a414-4319-bf70-1405d0c2e3d7"},"vehicle_type_id":"4","last_reported":1749553782,"current_range_meters":12800,"station_id":"ce4bh292rcd13ifvqdg0","pricing_plan_id":"cebpf4jnsgd1na2vs0mg"},{"bike_id":"b7651752-8eb3-4b67-91fc-0a6e006c8d1f","system_id":"levelo_inurba_marseille","lat":43.21205,"lon":5.35066,"is_reserved":false,"is_disabled":false,"rental_uris":{"android":"levelo://app?vid=b7651752-8eb3-4b67-91fc-0a6e006c8d1f","ios":"levelo://app?vid=b7651752-8eb3-4b67-91fc-0a6e006c8d1f"},"vehicle_type_id":"4","last_reported":1749553782,"current_range_meters":12800,"station_id":"st_cvj6sg6p6f1abm77japg","pricing_plan_id":"cebpf4jnsgd1na2vs0mg"},{"bike_id":"2ce230eb-4369-4f03-a892-148f56933b7f","system_id":"levelo_inurba_marseille","lat":43.29558,"lon":5.42292,"is_reserved":false,"is_disabled":false,"rental_uris":{"android":"levelo://app?vid=2ce230eb-4369-4f03-a892-148f56933b7f","ios":"levelo://app?vid=2ce230eb-4369-4f03-a892-148f56933b7f"},"vehicle_type_id":"4","last_reported":1749553782,"current_range_meters":12400,"station_id":"ce4bhph2rcd13ifvqhdg","pricing_plan_id":"cebpf4jnsgd1na2vs0mg"},{"bike_id":"0762674f-1e89-4d4c-aa36-9ccaf8f24fa7","system_id":"levelo_inurba_marseille","lat":43.28415,"lon":5.3498,"is_reserved":false,"is_disabled":false,"rental_uris":{"android":"levelo://app?vid=0762674f-1e89-4d4c-aa36-9ccaf8f24fa7","ios":"levelo://app?vid=0762674f-1e89-4d4c-aa36-9ccaf8f24fa7"},"vehicle_type_id":"4","last_reported":1749553782,"current_range_meters":12800,"station_id":"ce4bhbh2rcd13ifvqepg","pricing_plan_id":"cebpf4jnsgd1na2vs0mg"},{"bike_id":"18f010e7-8389-45fc-ab82-2487de4fceb5","system_id":"levelo_inurba_marseille","lat":43.29911,"lon":5.37468,"is_reserved":false,"is_disabled":false,"rental_uris":{"android":"levelo://app?vid=18f010e7-8389-45fc-ab82-2487de4fceb5","ios":"levelo://app?vid=18f010e7-8389-45fc-ab82-2487de4fceb5"},"vehicle_type_id":"4","last_reported":1749553782,"current_range_meters":12800,"station_id":"ce4bgjh2rcd13ifvqbg0","pricing_plan_id":"cebpf4jnsgd1na2vs0mg"},{"bike_id":"6cb4ce7f-ba79-4b5c-89c6-9471cc4909d9","system_id":"levelo_inurba_marseille","lat":43.304565,"lon":5.379022,"is_reserved":false,"is_disabled":true,"rental_uris":{"android":"levelo://app?vid=6cb4ce7f-ba79-4b5c-89c6-9471cc4909d9","ios":"levelo://app?vid=6cb4ce7f-ba79-4b5c-89c6-9471cc4909d9"},"vehicle_type_id":"4","last_reported":1749553782,"current_range_meters":12800,"station_id":"ce4bgup2rcd13ifvqcn0","pricing_plan_id":"cebpf4jnsgd1na2vs0mg"},{"bike_id":"e2a64c8a-2e9c-4983-8bfe-fc40daf0ec69","system_id":"levelo_inurba_marseille","lat":43.26542,"lon":5.37304,"is_reserved":false,"is_disabled":false,"rental_uris":{"android":"levelo://app?vid=e2a64c8a-2e9c-4983-8bfe-fc40daf0ec69","ios":"levelo://app?vid=e2a64c8a-2e9c-4983-8bfe-fc40daf0ec69"},"vehicle_type_id":"4","last_reported":1749553782,"current_range_meters":12800,"station_id":"ce4bhg12rcd13ifvqf70","pricing_plan_id":"cebpf4jnsgd1na2vs0mg"},{"bike_id":"ca27e12a-1f2d-4cf2-be29-12a2b9ff1547","system_id":"levelo_inurba_marseille","lat":43.31721,"lon":5.423947,"is_reserved":false,"is_disabled":false,"rental_uris":{"android":"levelo://app?vid=ca27e12a-1f2d-4cf2-be29-12a2b9ff1547","ios":"levelo://app?vid=ca27e12a-1f2d-4cf2-be29-12a2b9ff1547"},"vehicle_type_id":"4","last_reported":1749553782,"current_range_meters":13600,"station_id":"ce4bhp92rcd13ifvqhbg","pricing_plan_id":"cebpf4jnsgd1na2vs0mg"},{"bike_id":"e925ed2b-babc-4cf9-b75b-bac898fd5635","system_id":"levelo_inurba_marseille","lat":43.21193,"lon":5.35068,"is_reserved":false,"is_disabled":false,"rental_uris":{"android":"levelo://app?vid=e925ed2b-babc-4cf9-b75b-bac898fd5635","ios":"levelo://app?vid=e925ed2b-babc-4cf9-b75b-bac898fd5635"},"vehicle_type_id":"4","last_reported":1749553782,"current_range_meters":13600,"station_id":"st_cvj6sg6p6f1abm77japg","pricing_plan_id":"cebpf4jnsgd1na2vs0mg"},{"bike_id":"2c58e0c2-ddb0-4085-990f-114be7523baa","system_id":"levelo_inurba_marseille","lat":43.27216,"lon":5.39102,"is_reserved":false,"is_disabled":false,"rental_uris":{"android":"levelo://app?vid=2c58e0c2-ddb0-4085-990f-114be7523baa","ios":"levelo://app?vid=2c58e0c2-ddb0-4085-990f-114be7523baa"},"vehicle_type_id":"4","last_reported":1749553782,"current_range_meters":14000,"station_id":"","pricing_plan_id":"cebpf4jnsgd1na2vs0mg"},{"bike_id":"92acdcd9-f49f-4ae4-bea1-a61fd5a2a465","system_id":"levelo_inurba_marseille","lat":43.30478,"lon":5.379,"is_reserved":false,"is_disabled":false,"rental_uris":{"android":"levelo://app?vid=92acdcd9-f49f-4ae4-bea1-a61fd5a2a465","ios":"levelo://app?vid=92acdcd9-f49f-4ae4-bea1-a61fd5a2a465"},"vehicle_type_id":"4","last_reported":1749553782,"current_range_meters":14000,"station_id":"ce4bgup2rcd13ifvqcn0","pricing_plan_id":"cebpf4jnsgd1na2vs0mg"},{"bike_id":"1dc169f0-e4f0-43dc-8b18-f1ec11d5065b","system_id":"levelo_inurba_marseille","lat":43.272,"lon":5.39188,"is_reserved":false,"is_disabled":false,"rental_uris":{"android":"levelo://app?vid=1dc169f0-e4f0-43dc-8b18-f1ec11d5065b","ios":"levelo://app?vid=1dc169f0-e4f0-43dc-8b18-f1ec11d5065b"},"vehicle_type_id":"4","last_reported":1749553782,"current_range_meters":13600,"station_id":"ce4bhhp2rcd13ifvqfm0","pricing_plan_id":"cebpf4jnsgd1na2vs0mg"},{"bike_id":"b2a55171-9e11-4eba-beeb-f2e7c5d27df2","system_id":"levelo_inurba_marseille","lat":43.211914,"lon":5.35072,"is_reserved":false,"is_disabled":false,"rental_uris":{"android":"levelo://app?vid=b2a55171-9e11-4eba-beeb-f2e7c5d27df2","ios":"levelo://app?vid=b2a55171-9e11-4eba-beeb-f2e7c5d27df2"},"vehicle_type_id":"4","last_reported":1749553782,"current_range_meters":14000,"station_id":"st_cvj6sg6p6f1abm77japg","pricing_plan_id":"cebpf4jnsgd1na2vs0mg"},{"bike_id":"2391d925-e9a7-478b-86ff-41a9a9d31ba8","system_id":"levelo_inurba_marseille","lat":43.27206,"lon":5.39183,"is_reserved":false,"is_disabled":false,"rental_uris":{"android":"levelo://app?vid=2391d925-e9a7-478b-86ff-41a9a9d31ba8","ios":"levelo://app?vid=2391d925-e9a7-478b-86ff-41a9a9d31ba8"},"vehicle_type_id":"4","last_reported":1749553782,"current_range_meters":13600,"station_id":"ce4bhhp2rcd13ifvqfm0","pricing_plan_id":"cebpf4jnsgd1na2vs0mg"},{"bike_id":"e0749e6c-26ca-4d24-8d89-c13aa667b09e","system_id":"levelo_inurba_marseille","lat":43.29845,"lon":5.36274,"is_reserved":false,"is_disabled":false,"rental_uris":{"android":"levelo://app?vid=e0749e6c-26ca-4d24-8d89-c13aa667b09e","ios":"levelo://app?vid=e0749e6c-26ca-4d24-8d89-c13aa667b09e"},"vehicle_type_id":"4","last_reported":1749553782,"current_range_meters":14400,"station_id":"ce4bgpp2rcd13ifvqc3g","pricing_plan_id":"cebpf4jnsgd1na2vs0mg"},{"bike_id":"55c78ebe-818d-42aa-8909-149368b489ee","system_id":"levelo_inurba_marseille","lat":43.28413,"lon":5.34981,"is_reserved":false,"is_disabled":false,"rental_uris":{"android":"levelo://app?vid=55c78ebe-818d-42aa-8909-149368b489ee","ios":"levelo://app?vid=55c78ebe-818d-42aa-8909-149368b489ee"},"vehicle_type_id":"4","last_reported":1749553782,"current_range_meters":14400,"station_id":"ce4bhbh2rcd13ifvqepg","pricing_plan_id":"cebpf4jnsgd1na2vs0mg"},{"bike_id":"972ff4ab-ae33-4b7b-baa7-6bbfd3547080","system_id":"levelo_inurba_marseille","lat":43.31343,"lon":5.36712,"is_reserved":false,"is_disabled":false,"rental_uris":{"android":"levelo://app?vid=972ff4ab-ae33-4b7b-baa7-6bbfd3547080","ios":"levelo://app?vid=972ff4ab-ae33-4b7b-baa7-6bbfd3547080"},"vehicle_type_id":"4","last_reported":1749553782,"current_range_meters":16400,"station_id":"ce4bgr92rcd13ifvqc6g","pricing_plan_id":"cebpf4jnsgd1na2vs0mg"},{"bike_id":"e4c92553-820d-4bab-bd78-8b1843ca23ce","system_id":"levelo_inurba_marseille","lat":43.24189,"lon":5.39726,"is_reserved":false,"is_disabled":false,"rental_uris":{"android":"levelo://app?vid=e4c92553-820d-4bab-bd78-8b1843ca23ce","ios":"levelo://app?vid=e4c92553-820d-4bab-bd78-8b1843ca23ce"},"vehicle_type_id":"4","last_reported":1749553782,"current_range_meters":14400,"station_id":"ce4bhn12rcd13ifvqgpg","pricing_plan_id":"cebpf4jnsgd1na2vs0mg"},{"bike_id":"bfb5a8ee-0763-46f9-b456-d7b4f4f1f0e0","system_id":"levelo_inurba_marseille","lat":43.30882,"lon":5.39664,"is_reserved":false,"is_disabled":false,"rental_uris":{"android":"levelo://app?vid=bfb5a8ee-0763-46f9-b456-d7b4f4f1f0e0","ios":"levelo://app?vid=bfb5a8ee-0763-46f9-b456-d7b4f4f1f0e0"},"vehicle_type_id":"4","last_reported":1749553782,"current_range_meters":14400,"station_id":"ce4bh012rcd13ifvqcv0","pricing_plan_id":"cebpf4jnsgd1na2vs0mg"},{"bike_id":"ce4ae56b-13eb-44ad-9d1f-441abd1301ee","system_id":"levelo_inurba_marseille","lat":43.29849,"lon":5.36273,"is_reserved":false,"is_disabled":false,"rental_uris":{"android":"levelo://app?vid=ce4ae56b-13eb-44ad-9d1f-441abd1301ee","ios":"levelo://app?vid=ce4ae56b-13eb-44ad-9d1f-441abd1301ee"},"vehicle_type_id":"4","last_reported":1749553782,"current_range_meters":14800,"station_id":"ce4bgpp2rcd13ifvqc3g","pricing_plan_id":"cebpf4jnsgd1na2vs0mg"},{"bike_id":"7fbb8cf5-f563-4c4a-90cf-1a5ac10b01c4","system_id":"levelo_inurba_marseille","lat":43.21193,"lon":5.35072,"is_reserved":false,"is_disabled":false,"rental_uris":{"android":"levelo://app?vid=7fbb8cf5-f563-4c4a-90cf-1a5ac10b01c4","ios":"levelo://app?vid=7fbb8cf5-f563-4c4a-90cf-1a5ac10b01c4"},"vehicle_type_id":"4","last_reported":1749553782,"current_range_meters":14800,"station_id":"st_cvj6sg6p6f1abm77japg","pricing_plan_id":"cebpf4jnsgd1na2vs0mg"},{"bike_id":"abcd2dc9-4396-440f-85b3-9d9064401860","system_id":"levelo_inurba_marseille","lat":43.31363,"lon":5.36724,"is_reserved":false,"is_disabled":false,"rental_uris":{"android":"levelo://app?vid=abcd2dc9-4396-440f-85b3-9d9064401860","ios":"levelo://app?vid=abcd2dc9-4396-440f-85b3-9d9064401860"},"vehicle_type_id":"4","last_reported":1749553782,"current_range_meters":14800,"station_id":"ce4bgr92rcd13ifvqc6g","pricing_plan_id":"cebpf4jnsgd1na2vs0mg"},{"bike_id":"9b71bb59-bd4d-444b-a6bd-6d848a1f45f8","system_id":"levelo_inurba_marseille","lat":43.29896,"lon":5.43671,"is_reserved":false,"is_disabled":false,"rental_uris":{"android":"levelo://app?vid=9b71bb59-bd4d-444b-a6bd-6d848a1f45f8","ios":"levelo://app?vid=9b71bb59-bd4d-444b-a6bd-6d848a1f45f8"},"vehicle_type_id":"4","last_reported":1749553782,"current_range_meters":14800,"station_id":"ce4bhpp2rcd13ifvqhfg","pricing_plan_id":"cebpf4jnsgd1na2vs0mg"},{"bike_id":"187b0a7b-e256-4c19-9794-bb250a6c5653","system_id":"levelo_inurba_marseille","lat":43.31869,"lon":5.37777,"is_reserved":false,"is_disabled":false,"rental_uris":{"android":"levelo://app?vid=187b0a7b-e256-4c19-9794-bb250a6c5653","ios":"levelo://app?vid=187b0a7b-e256-4c19-9794-bb250a6c5653"},"vehicle_type_id":"4","last_reported":1749553782,"current_range_meters":14800,"station_id":"","pricing_plan_id":"cebpf4jnsgd1na2vs0mg"},{"bike_id":"3df420b3-6f47-48c7-ab78-426ed2693b17","system_id":"levelo_inurba_marseille","lat":43.29167,"lon":5.37159,"is_reserved":false,"is_disabled":false,"rental_uris":{"android":"levelo://app?vid=3df420b3-6f47-48c7-ab78-426ed2693b17","ios":"levelo://app?vid=3df420b3-6f47-48c7-ab78-426ed2693b17"},"vehicle_type_id":"4","last_reported":1749553782,"current_range_meters":14800,"station_id":"ce4bha92rcd13ifvqeh0","pricing_plan_id":"cebpf4jnsgd1na2vs0mg"},{"bike_id":"5a55eb0f-0567-487e-a6a7-2cfcfc5473aa","system_id":"levelo_inurba_marseille","lat":43.33772,"lon":5.37438,"is_reserved":false,"is_disabled":false,"rental_uris":{"android":"levelo://app?vid=5a55eb0f-0567-487e-a6a7-2cfcfc5473aa","ios":"levelo://app?vid=5a55eb0f-0567-487e-a6a7-2cfcfc5473aa"},"vehicle_type_id":"4","last_reported":1749553782,"current_range_meters":15200,"station_id":"","pricing_plan_id":"cebpf4jnsgd1na2vs0mg"},{"bike_id":"a7e979e5-7afa-4658-b3e7-2502946031d3","system_id":"levelo_inurba_marseille","lat":43.25508,"lon":5.42019,"is_reserved":false,"is_disabled":false,"rental_uris":{"android":"levelo://app?vid=a7e979e5-7afa-4658-b3e7-2502946031d3","ios":"levelo://app?vid=a7e979e5-7afa-4658-b3e7-2502946031d3"},"vehicle_type_id":"4","last_reported":1749553782,"current_range_meters":15200,"station_id":"","pricing_plan_id":"cebpf4jnsgd1na2vs0mg"},{"bike_id":"73b82343-85b7-45cf-ac0a-0d898d663bf3","system_id":"levelo_inurba_marseille","lat":43.26567,"lon":5.39006,"is_reserved":false,"is_disabled":false,"rental_uris":{"android":"levelo://app?vid=73b82343-85b7-45cf-ac0a-0d898d663bf3","ios":"levelo://app?vid=73b82343-85b7-45cf-ac0a-0d898d663bf3"},"vehicle_type_id":"4","last_reported":1749553782,"current_range_meters":15200,"station_id":"ce4bhe12rcd13ifvqf30","pricing_plan_id":"cebpf4jnsgd1na2vs0mg"},{"bike_id":"7e08862c-893b-46e6-ab1d-3840abd47081","system_id":"levelo_inurba_marseille","lat":43.28609,"lon":5.35101,"is_reserved":false,"is_disabled":false,"rental_uris":{"android":"levelo://app?vid=7e08862c-893b-46e6-ab1d-3840abd47081","ios":"levelo://app?vid=7e08862c-893b-46e6-ab1d-3840abd47081"},"vehicle_type_id":"4","last_reported":1749553782,"current_range_meters":15200,"station_id":"ce4bhch2rcd13ifvqeug","pricing_plan_id":"cebpf4jnsgd1na2vs0mg"},{"bike_id":"c30dbedc-c866-492b-a092-32c1ee0c1f22","system_id":"levelo_inurba_marseille","lat":43.29539,"lon":5.38545,"is_reserved":false,"is_disabled":true,"rental_uris":{"android":"levelo://app?vid=c30dbedc-c866-492b-a092-32c1ee0c1f22","ios":"levelo://app?vid=c30dbedc-c866-492b-a092-32c1ee0c1f22"},"vehicle_type_id":"4","last_reported":1749553782,"current_range_meters":16000,"station_id":"ce4bgih2rcd13ifvqba0","pricing_plan_id":"cebpf4jnsgd1na2vs0mg"},{"bike_id":"46054e16-8772-48ec-a7c9-746caa4cbef5","system_id":"levelo_inurba_marseille","lat":43.25943,"lon":5.40902,"is_reserved":false,"is_disabled":false,"rental_uris":{"android":"levelo://app?vid=46054e16-8772-48ec-a7c9-746caa4cbef5","ios":"levelo://app?vid=46054e16-8772-48ec-a7c9-746caa4cbef5"},"vehicle_type_id":"4","last_reported":1749553782,"current_range_meters":16000,"station_id":"ce4bhm92rcd13ifvqglg","pricing_plan_id":"cebpf4jnsgd1na2vs0mg"},{"bike_id":"58bfdf23-14cb-4d5b-8233-8b77b880c147","system_id":"levelo_inurba_marseille","lat":43.3093,"lon":5.40133,"is_reserved":false,"is_disabled":false,"rental_uris":{"android":"levelo://app?vid=58bfdf23-14cb-4d5b-8233-8b77b880c147","ios":"levelo://app?vid=58bfdf23-14cb-4d5b-8233-8b77b880c147"},"vehicle_type_id":"4","last_reported":1749553782,"current_range_meters":16000,"station_id":"ce4bgvp2rcd13ifvqct0","pricing_plan_id":"cebpf4jnsgd1na2vs0mg"},{"bike_id":"1112870b-7d61-4c5e-867e-015df8afa9c0","system_id":"levelo_inurba_marseille","lat":43.28412,"lon":5.34979,"is_reserved":false,"is_disabled":false,"rental_uris":{"android":"levelo://app?vid=1112870b-7d61-4c5e-867e-015df8afa9c0","ios":"levelo://app?vid=1112870b-7d61-4c5e-867e-015df8afa9c0"},"vehicle_type_id":"4","last_reported":1749553782,"current_range_meters":16000,"station_id":"ce4bhbh2rcd13ifvqepg","pricing_plan_id":"cebpf4jnsgd1na2vs0mg"},{"bike_id":"db76848f-2ba9-4173-9d50-d7684d7cfe54","system_id":"levelo_inurba_marseille","lat":43.24541,"lon":5.39535,"is_reserved":false,"is_disabled":false,"rental_uris":{"android":"levelo://app?vid=db76848f-2ba9-4173-9d50-d7684d7cfe54","ios":"levelo://app?vid=db76848f-2ba9-4173-9d50-d7684d7cfe54"},"vehicle_type_id":"4","last_reported":1749553782,"current_range_meters":16000,"station_id":"ce4bhlp2rcd13ifvqgjg","pricing_plan_id":"cebpf4jnsgd1na2vs0mg"},{"bike_id":"1e20f032-0f6a-40b2-ad29-e4d2225496fa","system_id":"levelo_inurba_marseille","lat":43.30283,"lon":5.37061,"is_reserved":false,"is_disabled":false,"rental_uris":{"android":"levelo://app?vid=1e20f032-0f6a-40b2-ad29-e4d2225496fa","ios":"levelo://app?vid=1e20f032-0f6a-40b2-ad29-e4d2225496fa"},"vehicle_type_id":"4","last_reported":1749553782,"current_range_meters":16000,"station_id":"","pricing_plan_id":"cebpf4jnsgd1na2vs0mg"},{"bike_id":"895ea05c-2552-4039-9a7a-503d2bb80f75","system_id":"levelo_inurba_marseille","lat":43.24548,"lon":5.39521,"is_reserved":false,"is_disabled":false,"rental_uris":{"android":"levelo://app?vid=895ea05c-2552-4039-9a7a-503d2bb80f75","ios":"levelo://app?vid=895ea05c-2552-4039-9a7a-503d2bb80f75"},"vehicle_type_id":"4","last_reported":1749553782,"current_range_meters":15200,"station_id":"ce4bhlp2rcd13ifvqgjg","pricing_plan_id":"cebpf4jnsgd1na2vs0mg"},{"bike_id":"8d40b566-02c8-4dfb-ae5f-53cce8dc604c","system_id":"levelo_inurba_marseille","lat":43.28146,"lon":5.426535,"is_reserved":false,"is_disabled":false,"rental_uris":{"android":"levelo://app?vid=8d40b566-02c8-4dfb-ae5f-53cce8dc604c","ios":"levelo://app?vid=8d40b566-02c8-4dfb-ae5f-53cce8dc604c"},"vehicle_type_id":"4","last_reported":1749553782,"current_range_meters":16000,"station_id":"ce4bhnh2rcd13ifvqgug","pricing_plan_id":"cebpf4jnsgd1na2vs0mg"},{"bike_id":"557104e5-12ad-4811-8d87-d8392375329d","system_id":"levelo_inurba_marseille","lat":43.28265,"lon":5.35075,"is_reserved":false,"is_disabled":false,"rental_uris":{"android":"levelo://app?vid=557104e5-12ad-4811-8d87-d8392375329d","ios":"levelo://app?vid=557104e5-12ad-4811-8d87-d8392375329d"},"vehicle_type_id":"4","last_reported":1749553782,"current_range_meters":16400,"station_id":"ce4bhbp2rcd13ifvqerg","pricing_plan_id":"cebpf4jnsgd1na2vs0mg"},{"bike_id":"8ae18848-a614-440b-a5a4-281c4f52cfad","system_id":"levelo_inurba_marseille","lat":43.26215,"lon":5.37442,"is_reserved":false,"is_disabled":false,"rental_uris":{"android":"levelo://app?vid=8ae18848-a614-440b-a5a4-281c4f52cfad","ios":"levelo://app?vid=8ae18848-a614-440b-a5a4-281c4f52cfad"},"vehicle_type_id":"4","last_reported":1749553782,"current_range_meters":16400,"station_id":"ce4bhgp2rcd13ifvqfc0","pricing_plan_id":"cebpf4jnsgd1na2vs0mg"},{"bike_id":"fad9b98f-1bfd-41b0-be76-c725e485d072","system_id":"levelo_inurba_marseille","lat":43.21186,"lon":5.35073,"is_reserved":false,"is_disabled":false,"rental_uris":{"android":"levelo://app?vid=fad9b98f-1bfd-41b0-be76-c725e485d072","ios":"levelo://app?vid=fad9b98f-1bfd-41b0-be76-c725e485d072"},"vehicle_type_id":"4","last_reported":1749553782,"current_range_meters":16400,"station_id":"st_cvj6sg6p6f1abm77japg","pricing_plan_id":"cebpf4jnsgd1na2vs0mg"},{"bike_id":"93fe7527-ff59-49e4-8a28-7b6371205510","system_id":"levelo_inurba_marseille","lat":43.2396,"lon":5.36653,"is_reserved":false,"is_disabled":false,"rental_uris":{"android":"levelo://app?vid=93fe7527-ff59-49e4-8a28-7b6371205510","ios":"levelo://app?vid=93fe7527-ff59-49e4-8a28-7b6371205510"},"vehicle_type_id":"4","last_reported":1749553782,"current_range_meters":16400,"station_id":"ce4bhi12rcd13ifvqfp0","pricing_plan_id":"cebpf4jnsgd1na2vs0mg"},{"bike_id":"3e7631d3-096c-4bdf-b6ed-2126674cd8e4","system_id":"levelo_inurba_marseille","lat":43.30252,"lon":5.40077,"is_reserved":false,"is_disabled":false,"rental_uris":{"android":"levelo://app?vid=3e7631d3-096c-4bdf-b6ed-2126674cd8e4","ios":"levelo://app?vid=3e7631d3-096c-4bdf-b6ed-2126674cd8e4"},"vehicle_type_id":"4","last_reported":1749553782,"current_range_meters":16400,"station_id":"ce4bgvh2rcd13ifvqcs0","pricing_plan_id":"cebpf4jnsgd1na2vs0mg"},{"bike_id":"52b8ff62-6351-4a85-be65-d90a19949b81","system_id":"levelo_inurba_marseille","lat":43.293,"lon":5.37467,"is_reserved":false,"is_disabled":false,"rental_uris":{"android":"levelo://app?vid=52b8ff62-6351-4a85-be65-d90a19949b81","ios":"levelo://app?vid=52b8ff62-6351-4a85-be65-d90a19949b81"},"vehicle_type_id":"4","last_reported":1749553782,"current_range_meters":16400,"station_id":"ce4bgi12rcd13ifvqb70","pricing_plan_id":"cebpf4jnsgd1na2vs0mg"},{"bike_id":"84f5a926-1dd6-4535-b647-2764ce0ca103","system_id":"levelo_inurba_marseille","lat":43.32108,"lon":5.3682,"is_reserved":false,"is_disabled":false,"rental_uris":{"android":"levelo://app?vid=84f5a926-1dd6-4535-b647-2764ce0ca103","ios":"levelo://app?vid=84f5a926-1dd6-4535-b647-2764ce0ca103"},"vehicle_type_id":"4","last_reported":1749553782,"current_range_meters":16400,"station_id":"ce4bhrh2rcd13ifvqhug","pricing_plan_id":"cebpf4jnsgd1na2vs0mg"},{"bike_id":"69e6f855-8d7a-4fac-a72f-2b7e8a9c1a4e","system_id":"levelo_inurba_marseille","lat":43.30544,"lon":5.3843,"is_reserved":false,"is_disabled":false,"rental_uris":{"android":"levelo://app?vid=69e6f855-8d7a-4fac-a72f-2b7e8a9c1a4e","ios":"levelo://app?vid=69e6f855-8d7a-4fac-a72f-2b7e8a9c1a4e"},"vehicle_type_id":"4","last_reported":1749553782,"current_range_meters":16400,"station_id":"ce4bgg92rcd13ifvqb30","pricing_plan_id":"cebpf4jnsgd1na2vs0mg"},{"bike_id":"bf84f13a-3455-4664-97db-447b4b978353","system_id":"levelo_inurba_marseille","lat":43.2732,"lon":5.390546,"is_reserved":false,"is_disabled":true,"rental_uris":{"android":"levelo://app?vid=bf84f13a-3455-4664-97db-447b4b978353","ios":"levelo://app?vid=bf84f13a-3455-4664-97db-447b4b978353"},"vehicle_type_id":"4","last_reported":1749553782,"current_range_meters":16400,"station_id":"","pricing_plan_id":"cebpf4jnsgd1na2vs0mg"},{"bike_id":"66a554b0-1440-4449-9b9a-dcf9e0415ba6","system_id":"levelo_inurba_marseille","lat":43.29978,"lon":5.38476,"is_reserved":false,"is_disabled":true,"rental_uris":{"android":"levelo://app?vid=66a554b0-1440-4449-9b9a-dcf9e0415ba6","ios":"levelo://app?vid=66a554b0-1440-4449-9b9a-dcf9e0415ba6"},"vehicle_type_id":"4","last_reported":1749553782,"current_range_meters":16400,"station_id":"ce4bgj92rcd13ifvqbd0","pricing_plan_id":"cebpf4jnsgd1na2vs0mg"},{"bike_id":"6e1edd78-62f0-4777-b957-98ccca619ad0","system_id":"levelo_inurba_marseille","lat":43.27365,"lon":5.36251,"is_reserved":false,"is_disabled":false,"rental_uris":{"android":"levelo://app?vid=6e1edd78-62f0-4777-b957-98ccca619ad0","ios":"levelo://app?vid=6e1edd78-62f0-4777-b957-98ccca619ad0"},"vehicle_type_id":"4","last_reported":1749553782,"current_range_meters":16400,"station_id":"ce4bhbh2rcd13ifvqeo0","pricing_plan_id":"cebpf4jnsgd1na2vs0mg"},{"bike_id":"262903a9-22b9-4b2d-96c2-2e5dbd155090","system_id":"levelo_inurba_marseille","lat":43.32435,"lon":5.36548,"is_reserved":false,"is_disabled":false,"rental_uris":{"android":"levelo://app?vid=262903a9-22b9-4b2d-96c2-2e5dbd155090","ios":"levelo://app?vid=262903a9-22b9-4b2d-96c2-2e5dbd155090"},"vehicle_type_id":"4","last_reported":1749553782,"current_range_meters":16800,"station_id":"ce4bhs12rcd13ifvqhvg","pricing_plan_id":"cebpf4jnsgd1na2vs0mg"},{"bike_id":"03a06c85-5d1a-4811-a4b5-cfe482b01c41","system_id":"levelo_inurba_marseille","lat":43.29026,"lon":5.38646,"is_reserved":false,"is_disabled":false,"rental_uris":{"android":"levelo://app?vid=03a06c85-5d1a-4811-a4b5-cfe482b01c41","ios":"levelo://app?vid=03a06c85-5d1a-4811-a4b5-cfe482b01c41"},"vehicle_type_id":"4","last_reported":1749553782,"current_range_meters":16800,"station_id":"ce4bh4p2rcd13ifvqe0g","pricing_plan_id":"cebpf4jnsgd1na2vs0mg"},{"bike_id":"1cb49127-83c2-42e5-a0c1-a209212b201e","system_id":"levelo_inurba_marseille","lat":43.28425,"lon":5.3499,"is_reserved":false,"is_disabled":false,"rental_uris":{"android":"levelo://app?vid=1cb49127-83c2-42e5-a0c1-a209212b201e","ios":"levelo://app?vid=1cb49127-83c2-42e5-a0c1-a209212b201e"},"vehicle_type_id":"4","last_reported":1749553782,"current_range_meters":16800,"station_id":"ce4bhbh2rcd13ifvqepg","pricing_plan_id":"cebpf4jnsgd1na2vs0mg"},{"bike_id":"2fba4263-3889-4a12-b2e8-665d585e72c2","system_id":"levelo_inurba_marseille","lat":43.28267,"lon":5.35073,"is_reserved":false,"is_disabled":false,"rental_uris":{"android":"levelo://app?vid=2fba4263-3889-4a12-b2e8-665d585e72c2","ios":"levelo://app?vid=2fba4263-3889-4a12-b2e8-665d585e72c2"},"vehicle_type_id":"4","last_reported":1749553782,"current_range_meters":16800,"station_id":"ce4bhbp2rcd13ifvqerg","pricing_plan_id":"cebpf4jnsgd1na2vs0mg"},{"bike_id":"bd893a1d-efb6-4254-a08f-ea9291620f61","system_id":"levelo_inurba_marseille","lat":43.29708,"lon":5.376929,"is_reserved":false,"is_disabled":false,"rental_uris":{"android":"levelo://app?vid=bd893a1d-efb6-4254-a08f-ea9291620f61","ios":"levelo://app?vid=bd893a1d-efb6-4254-a08f-ea9291620f61"},"vehicle_type_id":"4","last_reported":1749553782,"current_range_meters":16800,"station_id":"ce4bgkh2rcd13ifvqbl0","pricing_plan_id":"cebpf4jnsgd1na2vs0mg"},{"bike_id":"72befdc9-9f00-42fe-9fa3-196160650a86","system_id":"levelo_inurba_marseille","lat":43.28618,"lon":5.35106,"is_reserved":false,"is_disabled":false,"rental_uris":{"android":"levelo://app?vid=72befdc9-9f00-42fe-9fa3-196160650a86","ios":"levelo://app?vid=72befdc9-9f00-42fe-9fa3-196160650a86"},"vehicle_type_id":"4","last_reported":1749553782,"current_range_meters":16800,"station_id":"ce4bhch2rcd13ifvqeug","pricing_plan_id":"cebpf4jnsgd1na2vs0mg"},{"bike_id":"002ad4e8-6140-4bdd-b14b-f38ee707447e","system_id":"levelo_inurba_marseille","lat":43.30987,"lon":5.38578,"is_reserved":false,"is_disabled":false,"rental_uris":{"android":"levelo://app?vid=002ad4e8-6140-4bdd-b14b-f38ee707447e","ios":"levelo://app?vid=002ad4e8-6140-4bdd-b14b-f38ee707447e"},"vehicle_type_id":"4","last_reported":1749553782,"current_range_meters":16800,"station_id":"","pricing_plan_id":"cebpf4jnsgd1na2vs0mg"},{"bike_id":"c34f993f-9f36-4636-80af-66eff16bfb2f","system_id":"levelo_inurba_marseille","lat":43.2175,"lon":5.34599,"is_reserved":false,"is_disabled":false,"rental_uris":{"android":"levelo://app?vid=c34f993f-9f36-4636-80af-66eff16bfb2f","ios":"levelo://app?vid=c34f993f-9f36-4636-80af-66eff16bfb2f"},"vehicle_type_id":"4","last_reported":1749553782,"current_range_meters":16800,"station_id":"st_cvj6r9ubvosntc0bgbag","pricing_plan_id":"cebpf4jnsgd1na2vs0mg"},{"bike_id":"3087df1e-59c7-47fb-905e-b2b83a8c4e43","system_id":"levelo_inurba_marseille","lat":43.29096,"lon":5.38139,"is_reserved":false,"is_disabled":false,"rental_uris":{"android":"levelo://app?vid=3087df1e-59c7-47fb-905e-b2b83a8c4e43","ios":"levelo://app?vid=3087df1e-59c7-47fb-905e-b2b83a8c4e43"},"vehicle_type_id":"4","last_reported":1749553782,"current_range_meters":17200,"station_id":"ce4bh512rcd13ifvqe2g","pricing_plan_id":"cebpf4jnsgd1na2vs0mg"},{"bike_id":"1087cbe1-d3d6-4b86-835b-89dda5119d98","system_id":"levelo_inurba_marseille","lat":43.2707,"lon":5.42274,"is_reserved":false,"is_disabled":false,"rental_uris":{"android":"levelo://app?vid=1087cbe1-d3d6-4b86-835b-89dda5119d98","ios":"levelo://app?vid=1087cbe1-d3d6-4b86-835b-89dda5119d98"},"vehicle_type_id":"4","last_reported":1749553782,"current_range_meters":17200,"station_id":"ce4bhk92rcd13ifvqgb0","pricing_plan_id":"cebpf4jnsgd1na2vs0mg"},{"bike_id":"e61a5abb-c900-4d6e-8217-a46fab06e9f4","system_id":"levelo_inurba_marseille","lat":43.33009,"lon":5.39268,"is_reserved":false,"is_disabled":false,"rental_uris":{"android":"levelo://app?vid=e61a5abb-c900-4d6e-8217-a46fab06e9f4","ios":"levelo://app?vid=e61a5abb-c900-4d6e-8217-a46fab06e9f4"},"vehicle_type_id":"4","last_reported":1749553782,"current_range_meters":17200,"station_id":"","pricing_plan_id":"cebpf4jnsgd1na2vs0mg"},{"bike_id":"2570b8d2-8993-4a8a-bd9c-bb6b693b3851","system_id":"levelo_inurba_marseille","lat":43.28276,"lon":5.35068,"is_reserved":false,"is_disabled":false,"rental_uris":{"android":"levelo://app?vid=2570b8d2-8993-4a8a-bd9c-bb6b693b3851","ios":"levelo://app?vid=2570b8d2-8993-4a8a-bd9c-bb6b693b3851"},"vehicle_type_id":"4","last_reported":1749553782,"current_range_meters":20000,"station_id":"ce4bhbp2rcd13ifvqerg","pricing_plan_id":"cebpf4jnsgd1na2vs0mg"},{"bike_id":"13f373fb-f42a-4659-9945-c327f2f18551","system_id":"levelo_inurba_marseille","lat":43.30462,"lon":5.37904,"is_reserved":false,"is_disabled":false,"rental_uris":{"android":"levelo://app?vid=13f373fb-f42a-4659-9945-c327f2f18551","ios":"levelo://app?vid=13f373fb-f42a-4659-9945-c327f2f18551"},"vehicle_type_id":"4","last_reported":1749553782,"current_range_meters":16800,"station_id":"ce4bgup2rcd13ifvqcn0","pricing_plan_id":"cebpf4jnsgd1na2vs0mg"},{"bike_id":"f86c871e-5691-4061-a487-aa146b09dc41","system_id":"levelo_inurba_marseille","lat":43.28417,"lon":5.34992,"is_reserved":false,"is_disabled":false,"rental_uris":{"android":"levelo://app?vid=f86c871e-5691-4061-a487-aa146b09dc41","ios":"levelo://app?vid=f86c871e-5691-4061-a487-aa146b09dc41"},"vehicle_type_id":"4","last_reported":1749553782,"current_range_meters":17200,"station_id":"ce4bhbh2rcd13ifvqepg","pricing_plan_id":"cebpf4jnsgd1na2vs0mg"},{"bike_id":"84e8c03d-7951-4c0c-a9e3-cb2fb0c00373","system_id":"levelo_inurba_marseille","lat":43.299744,"lon":5.384869,"is_reserved":false,"is_disabled":false,"rental_uris":{"android":"levelo://app?vid=84e8c03d-7951-4c0c-a9e3-cb2fb0c00373","ios":"levelo://app?vid=84e8c03d-7951-4c0c-a9e3-cb2fb0c00373"},"vehicle_type_id":"4","last_reported":1749553782,"current_range_meters":17200,"station_id":"ce4bgj92rcd13ifvqbd0","pricing_plan_id":"cebpf4jnsgd1na2vs0mg"},{"bike_id":"5180081a-d7f7-4151-bb1d-cee1e378190e","system_id":"levelo_inurba_marseille","lat":43.29227,"lon":5.36061,"is_reserved":false,"is_disabled":false,"rental_uris":{"android":"levelo://app?vid=5180081a-d7f7-4151-bb1d-cee1e378190e","ios":"levelo://app?vid=5180081a-d7f7-4151-bb1d-cee1e378190e"},"vehicle_type_id":"4","last_reported":1749553782,"current_range_meters":16000,"station_id":"ce4bhbh2rcd13ifvqeqg","pricing_plan_id":"cebpf4jnsgd1na2vs0mg"},{"bike_id":"787e4fac-022a-42a6-a25c-cb35361bbd97","system_id":"levelo_inurba_marseille","lat":43.29189,"lon":5.35806,"is_reserved":false,"is_disabled":false,"rental_uris":{"android":"levelo://app?vid=787e4fac-022a-42a6-a25c-cb35361bbd97","ios":"levelo://app?vid=787e4fac-022a-42a6-a25c-cb35361bbd97"},"vehicle_type_id":"4","last_reported":1749553782,"current_range_meters":17200,"station_id":"ce4bhb12rcd13ifvqel0","pricing_plan_id":"cebpf4jnsgd1na2vs0mg"},{"bike_id":"ad0e20d7-d88d-4133-88fa-b800f7f84101","system_id":"levelo_inurba_marseille","lat":43.25727,"lon":5.41109,"is_reserved":false,"is_disabled":false,"rental_uris":{"android":"levelo://app?vid=ad0e20d7-d88d-4133-88fa-b800f7f84101","ios":"levelo://app?vid=ad0e20d7-d88d-4133-88fa-b800f7f84101"},"vehicle_type_id":"4","last_reported":1749553782,"current_range_meters":16800,"station_id":"ce4bhkp2rcd13ifvqgd0","pricing_plan_id":"cebpf4jnsgd1na2vs0mg"},{"bike_id":"a5666009-a641-4d20-b0e2-3945ce6adff7","system_id":"levelo_inurba_marseille","lat":43.29538,"lon":5.37507,"is_reserved":false,"is_disabled":false,"rental_uris":{"android":"levelo://app?vid=a5666009-a641-4d20-b0e2-3945ce6adff7","ios":"levelo://app?vid=a5666009-a641-4d20-b0e2-3945ce6adff7"},"vehicle_type_id":"4","last_reported":1749553782,"current_range_meters":17600,"station_id":"ce4bgkp2rcd13ifvqbmg","pricing_plan_id":"cebpf4jnsgd1na2vs0mg"},{"bike_id":"01ee879d-40e1-4204-936c-31ee1e60ac1e","system_id":"levelo_inurba_marseille","lat":43.31752,"lon":5.39018,"is_reserved":false,"is_disabled":false,"rental_uris":{"android":"levelo://app?vid=01ee879d-40e1-4204-936c-31ee1e60ac1e","ios":"levelo://app?vid=01ee879d-40e1-4204-936c-31ee1e60ac1e"},"vehicle_type_id":"4","last_reported":1749553782,"current_range_meters":17200,"station_id":"ce4bhqp2rcd13ifvqhng","pricing_plan_id":"cebpf4jnsgd1na2vs0mg"},{"bike_id":"0abd7fe4-085c-4c8b-a77f-174bd23fa865","system_id":"levelo_inurba_marseille","lat":43.309474,"lon":5.390422,"is_reserved":false,"is_disabled":false,"rental_uris":{"android":"levelo://app?vid=0abd7fe4-085c-4c8b-a77f-174bd23fa865","ios":"levelo://app?vid=0abd7fe4-085c-4c8b-a77f-174bd23fa865"},"vehicle_type_id":"4","last_reported":1749553782,"current_range_meters":17600,"station_id":"ce4bgup2rcd13ifvqco0","pricing_plan_id":"cebpf4jnsgd1na2vs0mg"},{"bike_id":"d2c9eb61-27e0-41ed-b405-bd5364a170c9","system_id":"levelo_inurba_marseille","lat":43.30538,"lon":5.36718,"is_reserved":false,"is_disabled":false,"rental_uris":{"android":"levelo://app?vid=d2c9eb61-27e0-41ed-b405-bd5364a170c9","ios":"levelo://app?vid=d2c9eb61-27e0-41ed-b405-bd5364a170c9"},"vehicle_type_id":"4","last_reported":1749553782,"current_range_meters":17600,"station_id":"ce4bgrp2rcd13ifvqc9g","pricing_plan_id":"cebpf4jnsgd1na2vs0mg"},{"bike_id":"5ef753ec-09fb-4ac8-8c5c-ebeaec310897","system_id":"levelo_inurba_marseille","lat":43.29636,"lon":5.37712,"is_reserved":false,"is_disabled":false,"rental_uris":{"android":"levelo://app?vid=5ef753ec-09fb-4ac8-8c5c-ebeaec310897","ios":"levelo://app?vid=5ef753ec-09fb-4ac8-8c5c-ebeaec310897"},"vehicle_type_id":"4","last_reported":1749553782,"current_range_meters":17200,"station_id":"ce4bgi92rcd13ifvqb90","pricing_plan_id":"cebpf4jnsgd1na2vs0mg"},{"bike_id":"4497bc7b-bd64-47d5-92de-a3021c6fff2f","system_id":"levelo_inurba_marseille","lat":43.32487,"lon":5.36571,"is_reserved":false,"is_disabled":false,"rental_uris":{"android":"levelo://app?vid=4497bc7b-bd64-47d5-92de-a3021c6fff2f","ios":"levelo://app?vid=4497bc7b-bd64-47d5-92de-a3021c6fff2f"},"vehicle_type_id":"4","last_reported":1749553782,"current_range_meters":17600,"station_id":"ce4bhs12rcd13ifvqhvg","pricing_plan_id":"cebpf4jnsgd1na2vs0mg"},{"bike_id":"1acfb620-cad7-48c0-8901-d7a5b74a5b65","system_id":"levelo_inurba_marseille","lat":43.33751,"lon":5.37456,"is_reserved":false,"is_disabled":false,"rental_uris":{"android":"levelo://app?vid=1acfb620-cad7-48c0-8901-d7a5b74a5b65","ios":"levelo://app?vid=1acfb620-cad7-48c0-8901-d7a5b74a5b65"},"vehicle_type_id":"4","last_reported":1749553782,"current_range_meters":17600,"station_id":"","pricing_plan_id":"cebpf4jnsgd1na2vs0mg"},{"bike_id":"f53bc08c-3129-4fc3-9174-862ec7b43c8b","system_id":"levelo_inurba_marseille","lat":43.28309,"lon":5.35073,"is_reserved":false,"is_disabled":false,"rental_uris":{"android":"levelo://app?vid=f53bc08c-3129-4fc3-9174-862ec7b43c8b","ios":"levelo://app?vid=f53bc08c-3129-4fc3-9174-862ec7b43c8b"},"vehicle_type_id":"4","last_reported":1749553782,"current_range_meters":18000,"station_id":"ce4bhbp2rcd13ifvqerg","pricing_plan_id":"cebpf4jnsgd1na2vs0mg"},{"bike_id":"8a218b91-7c0d-481c-9923-2c0bd482638b","system_id":"levelo_inurba_marseille","lat":43.29581,"lon":5.36732,"is_reserved":false,"is_disabled":false,"rental_uris":{"android":"levelo://app?vid=8a218b91-7c0d-481c-9923-2c0bd482638b","ios":"levelo://app?vid=8a218b91-7c0d-481c-9923-2c0bd482638b"},"vehicle_type_id":"4","last_reported":1749553782,"current_range_meters":18000,"station_id":"ce4bgph2rcd13ifvqc2g","pricing_plan_id":"cebpf4jnsgd1na2vs0mg"},{"bike_id":"b1d513e2-b24c-4464-ab78-b362833ef3fd","system_id":"levelo_inurba_marseille","lat":43.30869,"lon":5.39653,"is_reserved":false,"is_disabled":false,"rental_uris":{"android":"levelo://app?vid=b1d513e2-b24c-4464-ab78-b362833ef3fd","ios":"levelo://app?vid=b1d513e2-b24c-4464-ab78-b362833ef3fd"},"vehicle_type_id":"4","last_reported":1749553782,"current_range_meters":18000,"station_id":"ce4bh012rcd13ifvqcv0","pricing_plan_id":"cebpf4jnsgd1na2vs0mg"},{"bike_id":"0382469f-5144-4387-a815-38450f5d0931","system_id":"levelo_inurba_marseille","lat":43.31122,"lon":5.37766,"is_reserved":false,"is_disabled":false,"rental_uris":{"android":"levelo://app?vid=0382469f-5144-4387-a815-38450f5d0931","ios":"levelo://app?vid=0382469f-5144-4387-a815-38450f5d0931"},"vehicle_type_id":"4","last_reported":1749553782,"current_range_meters":18000,"station_id":"ce4bgt92rcd13ifvqcg0","pricing_plan_id":"cebpf4jnsgd1na2vs0mg"},{"bike_id":"7722e534-bd57-43ff-88e0-47a2e003863a","system_id":"levelo_inurba_marseille","lat":43.26205,"lon":5.37444,"is_reserved":false,"is_disabled":false,"rental_uris":{"android":"levelo://app?vid=7722e534-bd57-43ff-88e0-47a2e003863a","ios":"levelo://app?vid=7722e534-bd57-43ff-88e0-47a2e003863a"},"vehicle_type_id":"4","last_reported":1749553782,"current_range_meters":18000,"station_id":"ce4bhgp2rcd13ifvqfc0","pricing_plan_id":"cebpf4jnsgd1na2vs0mg"},{"bike_id":"760f2cd3-d191-4b99-8f3d-0d7454dcacc1","system_id":"levelo_inurba_marseille","lat":43.28707,"lon":5.3738,"is_reserved":false,"is_disabled":false,"rental_uris":{"android":"levelo://app?vid=760f2cd3-d191-4b99-8f3d-0d7454dcacc1","ios":"levelo://app?vid=760f2cd3-d191-4b99-8f3d-0d7454dcacc1"},"vehicle_type_id":"4","last_reported":1749553782,"current_range_meters":18000,"station_id":"ce4bh3p2rcd13ifvqdq0","pricing_plan_id":"cebpf4jnsgd1na2vs0mg"},{"bike_id":"4f277a40-c562-419c-82d0-1686b6d2030f","system_id":"levelo_inurba_marseille","lat":43.28427,"lon":5.34992,"is_reserved":false,"is_disabled":false,"rental_uris":{"android":"levelo://app?vid=4f277a40-c562-419c-82d0-1686b6d2030f","ios":"levelo://app?vid=4f277a40-c562-419c-82d0-1686b6d2030f"},"vehicle_type_id":"4","last_reported":1749553782,"current_range_meters":18000,"station_id":"ce4bhbh2rcd13ifvqepg","pricing_plan_id":"cebpf4jnsgd1na2vs0mg"},{"bike_id":"f6a61804-330d-4f30-8fcc-2bb88b5a7142","system_id":"levelo_inurba_marseille","lat":43.25739,"lon":5.41042,"is_reserved":false,"is_disabled":false,"rental_uris":{"android":"levelo://app?vid=f6a61804-330d-4f30-8fcc-2bb88b5a7142","ios":"levelo://app?vid=f6a61804-330d-4f30-8fcc-2bb88b5a7142"},"vehicle_type_id":"4","last_reported":1749553782,"current_range_meters":18000,"station_id":"","pricing_plan_id":"cebpf4jnsgd1na2vs0mg"},{"bike_id":"cff174c6-6ba3-44b0-a9d2-aee572f9c64a","system_id":"levelo_inurba_marseille","lat":43.29719,"lon":5.3612,"is_reserved":false,"is_disabled":true,"rental_uris":{"android":"levelo://app?vid=cff174c6-6ba3-44b0-a9d2-aee572f9c64a","ios":"levelo://app?vid=cff174c6-6ba3-44b0-a9d2-aee572f9c64a"},"vehicle_type_id":"4","last_reported":1749553782,"current_range_meters":18000,"station_id":"","pricing_plan_id":"cebpf4jnsgd1na2vs0mg"},{"bike_id":"2dfb1439-d102-48c6-8268-1b39c5e28a08","system_id":"levelo_inurba_marseille","lat":43.29278,"lon":5.37435,"is_reserved":false,"is_disabled":false,"rental_uris":{"android":"levelo://app?vid=2dfb1439-d102-48c6-8268-1b39c5e28a08","ios":"levelo://app?vid=2dfb1439-d102-48c6-8268-1b39c5e28a08"},"vehicle_type_id":"4","last_reported":1749553782,"current_range_meters":18000,"station_id":"ce4bgi12rcd13ifvqb70","pricing_plan_id":"cebpf4jnsgd1na2vs0mg"},{"bike_id":"8c51fcb8-1000-450b-8f34-5201983c67d2","system_id":"levelo_inurba_marseille","lat":43.30925,"lon":5.40162,"is_reserved":false,"is_disabled":false,"rental_uris":{"android":"levelo://app?vid=8c51fcb8-1000-450b-8f34-5201983c67d2","ios":"levelo://app?vid=8c51fcb8-1000-450b-8f34-5201983c67d2"},"vehicle_type_id":"4","last_reported":1749553782,"current_range_meters":18800,"station_id":"ce4bgvp2rcd13ifvqct0","pricing_plan_id":"cebpf4jnsgd1na2vs0mg"},{"bike_id":"f3df6a20-6059-447d-814f-35b4fb07569a","system_id":"levelo_inurba_marseille","lat":43.27904,"lon":5.38021,"is_reserved":false,"is_disabled":false,"rental_uris":{"android":"levelo://app?vid=f3df6a20-6059-447d-814f-35b4fb07569a","ios":"levelo://app?vid=f3df6a20-6059-447d-814f-35b4fb07569a"},"vehicle_type_id":"4","last_reported":1749553782,"current_range_meters":18000,"station_id":"ce4bhf92rcd13ifvqf50","pricing_plan_id":"cebpf4jnsgd1na2vs0mg"},{"bike_id":"550a1098-7acf-4b38-b1ab-5a38033e2f9a","system_id":"levelo_inurba_marseille","lat":43.30295,"lon":5.36894,"is_reserved":false,"is_disabled":false,"rental_uris":{"android":"levelo://app?vid=550a1098-7acf-4b38-b1ab-5a38033e2f9a","ios":"levelo://app?vid=550a1098-7acf-4b38-b1ab-5a38033e2f9a"},"vehicle_type_id":"4","last_reported":1749553782,"current_range_meters":18800,"station_id":"ce4bgqh2rcd13ifvqc5g","pricing_plan_id":"cebpf4jnsgd1na2vs0mg"},{"bike_id":"ff3b9979-167e-4d61-b56f-124bda3c83e4","system_id":"levelo_inurba_marseille","lat":43.29534,"lon":5.37502,"is_reserved":false,"is_disabled":false,"rental_uris":{"android":"levelo://app?vid=ff3b9979-167e-4d61-b56f-124bda3c83e4","ios":"levelo://app?vid=ff3b9979-167e-4d61-b56f-124bda3c83e4"},"vehicle_type_id":"4","last_reported":1749553782,"current_range_meters":18000,"station_id":"ce4bgkp2rcd13ifvqbmg","pricing_plan_id":"cebpf4jnsgd1na2vs0mg"},{"bike_id":"9cc96f3e-57ab-44ed-81e1-d6c42ab54032","system_id":"levelo_inurba_marseille","lat":43.229353,"lon":5.353673,"is_reserved":false,"is_disabled":false,"rental_uris":{"android":"levelo://app?vid=9cc96f3e-57ab-44ed-81e1-d6c42ab54032","ios":"levelo://app?vid=9cc96f3e-57ab-44ed-81e1-d6c42ab54032"},"vehicle_type_id":"4","last_reported":1749553782,"current_range_meters":18800,"station_id":"cpo3532slgdg3j2ikp40","pricing_plan_id":"cebpf4jnsgd1na2vs0mg"},{"bike_id":"05b1edb0-e533-460d-9201-2b9dc78d93c1","system_id":"levelo_inurba_marseille","lat":43.30909,"lon":5.36845,"is_reserved":false,"is_disabled":false,"rental_uris":{"android":"levelo://app?vid=05b1edb0-e533-460d-9201-2b9dc78d93c1","ios":"levelo://app?vid=05b1edb0-e533-460d-9201-2b9dc78d93c1"},"vehicle_type_id":"4","last_reported":1749553782,"current_range_meters":18000,"station_id":"ce4bgn92rcd13ifvqbvg","pricing_plan_id":"cebpf4jnsgd1na2vs0mg"},{"bike_id":"b1372661-f196-49e2-8ab9-0d8646aa5597","system_id":"levelo_inurba_marseille","lat":43.26944,"lon":5.4025,"is_reserved":false,"is_disabled":true,"rental_uris":{"android":"levelo://app?vid=b1372661-f196-49e2-8ab9-0d8646aa5597","ios":"levelo://app?vid=b1372661-f196-49e2-8ab9-0d8646aa5597"},"vehicle_type_id":"4","last_reported":1749553782,"current_range_meters":18800,"station_id":"cjm6bp8fraef2m0cb0m0","pricing_plan_id":"cebpf4jnsgd1na2vs0mg"},{"bike_id":"0c2cd831-dce1-4444-b808-d346232c5b6b","system_id":"levelo_inurba_marseille","lat":43.2623,"lon":5.37448,"is_reserved":false,"is_disabled":false,"rental_uris":{"android":"levelo://app?vid=0c2cd831-dce1-4444-b808-d346232c5b6b","ios":"levelo://app?vid=0c2cd831-dce1-4444-b808-d346232c5b6b"},"vehicle_type_id":"4","last_reported":1749553782,"current_range_meters":19200,"station_id":"ce4bhgp2rcd13ifvqfc0","pricing_plan_id":"cebpf4jnsgd1na2vs0mg"},{"bike_id":"52a02bc5-f3db-4631-aa55-50442088f2b9","system_id":"levelo_inurba_marseille","lat":43.28442,"lon":5.39195,"is_reserved":false,"is_disabled":false,"rental_uris":{"android":"levelo://app?vid=52a02bc5-f3db-4631-aa55-50442088f2b9","ios":"levelo://app?vid=52a02bc5-f3db-4631-aa55-50442088f2b9"},"vehicle_type_id":"4","last_reported":1749553782,"current_range_meters":19200,"station_id":"ce4bhoh2rcd13ifvqh5g","pricing_plan_id":"cebpf4jnsgd1na2vs0mg"},{"bike_id":"63e40138-141f-4768-876a-d09ed0ddb6e8","system_id":"levelo_inurba_marseille","lat":43.28614,"lon":5.34973,"is_reserved":false,"is_disabled":false,"rental_uris":{"android":"levelo://app?vid=63e40138-141f-4768-876a-d09ed0ddb6e8","ios":"levelo://app?vid=63e40138-141f-4768-876a-d09ed0ddb6e8"},"vehicle_type_id":"4","last_reported":1749553782,"current_range_meters":19200,"station_id":"ce4bhch2rcd13ifvqeug","pricing_plan_id":"cebpf4jnsgd1na2vs0mg"},{"bike_id":"0a61a83d-30f6-461d-afb3-c145799620b8","system_id":"levelo_inurba_marseille","lat":43.32473,"lon":5.36577,"is_reserved":false,"is_disabled":false,"rental_uris":{"android":"levelo://app?vid=0a61a83d-30f6-461d-afb3-c145799620b8","ios":"levelo://app?vid=0a61a83d-30f6-461d-afb3-c145799620b8"},"vehicle_type_id":"4","last_reported":1749553782,"current_range_meters":19200,"station_id":"ce4bhs12rcd13ifvqhvg","pricing_plan_id":"cebpf4jnsgd1na2vs0mg"},{"bike_id":"9231f021-d06e-4dc9-b555-e59bf1d45ecd","system_id":"levelo_inurba_marseille","lat":43.3211,"lon":5.36765,"is_reserved":false,"is_disabled":false,"rental_uris":{"android":"levelo://app?vid=9231f021-d06e-4dc9-b555-e59bf1d45ecd","ios":"levelo://app?vid=9231f021-d06e-4dc9-b555-e59bf1d45ecd"},"vehicle_type_id":"4","last_reported":1749553782,"current_range_meters":19200,"station_id":"ce4bhrh2rcd13ifvqhug","pricing_plan_id":"cebpf4jnsgd1na2vs0mg"},{"bike_id":"f8742c2a-d52f-4407-96e1-6d4cb5f76a22","system_id":"levelo_inurba_marseille","lat":43.21763,"lon":5.34601,"is_reserved":false,"is_disabled":false,"rental_uris":{"android":"levelo://app?vid=f8742c2a-d52f-4407-96e1-6d4cb5f76a22","ios":"levelo://app?vid=f8742c2a-d52f-4407-96e1-6d4cb5f76a22"},"vehicle_type_id":"4","last_reported":1749553782,"current_range_meters":19200,"station_id":"st_cvj6r9ubvosntc0bgbag","pricing_plan_id":"cebpf4jnsgd1na2vs0mg"},{"bike_id":"4cb78e2c-8e63-4812-81ef-1980f9de8b37","system_id":"levelo_inurba_marseille","lat":43.32391,"lon":5.38934,"is_reserved":false,"is_disabled":false,"rental_uris":{"android":"levelo://app?vid=4cb78e2c-8e63-4812-81ef-1980f9de8b37","ios":"levelo://app?vid=4cb78e2c-8e63-4812-81ef-1980f9de8b37"},"vehicle_type_id":"4","last_reported":1749553782,"current_range_meters":19200,"station_id":"ce4bhqp2rcd13ifvqhog","pricing_plan_id":"cebpf4jnsgd1na2vs0mg"},{"bike_id":"ef82d3bb-77d5-4e5f-a672-159dfe609ed3","system_id":"levelo_inurba_marseille","lat":43.2827,"lon":5.35071,"is_reserved":false,"is_disabled":false,"rental_uris":{"android":"levelo://app?vid=ef82d3bb-77d5-4e5f-a672-159dfe609ed3","ios":"levelo://app?vid=ef82d3bb-77d5-4e5f-a672-159dfe609ed3"},"vehicle_type_id":"4","last_reported":1749553782,"current_range_meters":19200,"station_id":"ce4bhbp2rcd13ifvqerg","pricing_plan_id":"cebpf4jnsgd1na2vs0mg"},{"bike_id":"314bac2c-e47f-46cd-afcd-53cd84a7d142","system_id":"levelo_inurba_marseille","lat":43.27617,"lon":5.36113,"is_reserved":false,"is_disabled":true,"rental_uris":{"android":"levelo://app?vid=314bac2c-e47f-46cd-afcd-53cd84a7d142","ios":"levelo://app?vid=314bac2c-e47f-46cd-afcd-53cd84a7d142"},"vehicle_type_id":"4","last_reported":1749553782,"current_range_meters":19200,"station_id":"ce4bgj92rcd13ifvqbe0","pricing_plan_id":"cebpf4jnsgd1na2vs0mg"},{"bike_id":"e93073ab-c17c-467a-b540-f93334fc1a8a","system_id":"levelo_inurba_marseille","lat":43.21221,"lon":5.35084,"is_reserved":false,"is_disabled":true,"rental_uris":{"android":"levelo://app?vid=e93073ab-c17c-467a-b540-f93334fc1a8a","ios":"levelo://app?vid=e93073ab-c17c-467a-b540-f93334fc1a8a"},"vehicle_type_id":"4","last_reported":1749553782,"current_range_meters":19200,"station_id":"","pricing_plan_id":"cebpf4jnsgd1na2vs0mg"},{"bike_id":"45017a81-6040-4c0e-bf05-bbf962040155","system_id":"levelo_inurba_marseille","lat":43.292119,"lon":5.359134,"is_reserved":false,"is_disabled":false,"rental_uris":{"android":"levelo://app?vid=45017a81-6040-4c0e-bf05-bbf962040155","ios":"levelo://app?vid=45017a81-6040-4c0e-bf05-bbf962040155"},"vehicle_type_id":"4","last_reported":1749553782,"current_range_meters":19600,"station_id":"ce4bgkp2rcd13ifvqbmg","pricing_plan_id":"cebpf4jnsgd1na2vs0mg"},{"bike_id":"86bc70ad-1b1a-4c26-94f3-447d2e2108c8","system_id":"levelo_inurba_marseille","lat":43.3248,"lon":5.36571,"is_reserved":false,"is_disabled":false,"rental_uris":{"android":"levelo://app?vid=86bc70ad-1b1a-4c26-94f3-447d2e2108c8","ios":"levelo://app?vid=86bc70ad-1b1a-4c26-94f3-447d2e2108c8"},"vehicle_type_id":"4","last_reported":1749553782,"current_range_meters":19600,"station_id":"ce4bhs12rcd13ifvqhvg","pricing_plan_id":"cebpf4jnsgd1na2vs0mg"},{"bike_id":"1f483344-5e5d-4e1f-b392-a37c8de674bc","system_id":"levelo_inurba_marseille","lat":43.30792,"lon":5.43523,"is_reserved":false,"is_disabled":false,"rental_uris":{"android":"levelo://app?vid=1f483344-5e5d-4e1f-b392-a37c8de674bc","ios":"levelo://app?vid=1f483344-5e5d-4e1f-b392-a37c8de674bc"},"vehicle_type_id":"4","last_reported":1749553782,"current_range_meters":19600,"station_id":"ce4bhph2rcd13ifvqheg","pricing_plan_id":"cebpf4jnsgd1na2vs0mg"},{"bike_id":"d6005db3-520a-4475-a5f6-8ec57777fe80","system_id":"levelo_inurba_marseille","lat":43.322873,"lon":5.382739,"is_reserved":false,"is_disabled":false,"rental_uris":{"android":"levelo://app?vid=d6005db3-520a-4475-a5f6-8ec57777fe80","ios":"levelo://app?vid=d6005db3-520a-4475-a5f6-8ec57777fe80"},"vehicle_type_id":"4","last_reported":1749553782,"current_range_meters":19600,"station_id":"ce4bhr12rcd13ifvqhqg","pricing_plan_id":"cebpf4jnsgd1na2vs0mg"},{"bike_id":"32b0a7c2-1f42-4346-ae2f-5210dc629ddc","system_id":"levelo_inurba_marseille","lat":43.27062,"lon":5.40262,"is_reserved":false,"is_disabled":false,"rental_uris":{"android":"levelo://app?vid=32b0a7c2-1f42-4346-ae2f-5210dc629ddc","ios":"levelo://app?vid=32b0a7c2-1f42-4346-ae2f-5210dc629ddc"},"vehicle_type_id":"4","last_reported":1749553782,"current_range_meters":19600,"station_id":"ce4bhk92rcd13ifvqgc0","pricing_plan_id":"cebpf4jnsgd1na2vs0mg"},{"bike_id":"0509747e-8e83-44e0-a642-c1bc88d90254","system_id":"levelo_inurba_marseille","lat":43.211895,"lon":5.350665,"is_reserved":false,"is_disabled":false,"rental_uris":{"android":"levelo://app?vid=0509747e-8e83-44e0-a642-c1bc88d90254","ios":"levelo://app?vid=0509747e-8e83-44e0-a642-c1bc88d90254"},"vehicle_type_id":"4","last_reported":1749553782,"current_range_meters":19600,"station_id":"st_cvj6sg6p6f1abm77japg","pricing_plan_id":"cebpf4jnsgd1na2vs0mg"},{"bike_id":"a2421370-e442-436f-a98a-844d44299694","system_id":"levelo_inurba_marseille","lat":43.32368,"lon":5.36758,"is_reserved":false,"is_disabled":false,"rental_uris":{"android":"levelo://app?vid=a2421370-e442-436f-a98a-844d44299694","ios":"levelo://app?vid=a2421370-e442-436f-a98a-844d44299694"},"vehicle_type_id":"4","last_reported":1749553782,"current_range_meters":20000,"station_id":"ce4bhsh2rcd13ifvqi2g","pricing_plan_id":"cebpf4jnsgd1na2vs0mg"},{"bike_id":"09e318a4-b869-4644-9013-4d94b346e7f8","system_id":"levelo_inurba_marseille","lat":43.29805,"lon":5.38096,"is_reserved":false,"is_disabled":false,"rental_uris":{"android":"levelo://app?vid=09e318a4-b869-4644-9013-4d94b346e7f8","ios":"levelo://app?vid=09e318a4-b869-4644-9013-4d94b346e7f8"},"vehicle_type_id":"4","last_reported":1749553782,"current_range_meters":20000,"station_id":"ce4bgip2rcd13ifvqbb0","pricing_plan_id":"cebpf4jnsgd1na2vs0mg"},{"bike_id":"8bdd603f-2e2b-4b21-9b8a-8ccc725d6316","system_id":"levelo_inurba_marseille","lat":43.2828,"lon":5.35078,"is_reserved":false,"is_disabled":false,"rental_uris":{"android":"levelo://app?vid=8bdd603f-2e2b-4b21-9b8a-8ccc725d6316","ios":"levelo://app?vid=8bdd603f-2e2b-4b21-9b8a-8ccc725d6316"},"vehicle_type_id":"4","last_reported":1749553782,"current_range_meters":20000,"station_id":"ce4bhbp2rcd13ifvqerg","pricing_plan_id":"cebpf4jnsgd1na2vs0mg"},{"bike_id":"25a4c875-602e-485b-a883-bfff2f4afc41","system_id":"levelo_inurba_marseille","lat":43.28422,"lon":5.34986,"is_reserved":false,"is_disabled":false,"rental_uris":{"android":"levelo://app?vid=25a4c875-602e-485b-a883-bfff2f4afc41","ios":"levelo://app?vid=25a4c875-602e-485b-a883-bfff2f4afc41"},"vehicle_type_id":"4","last_reported":1749553782,"current_range_meters":20000,"station_id":"ce4bhbh2rcd13ifvqepg","pricing_plan_id":"cebpf4jnsgd1na2vs0mg"},{"bike_id":"0122c75c-7283-45ee-b168-f0efdd15400f","system_id":"levelo_inurba_marseille","lat":43.27815,"lon":5.40708,"is_reserved":false,"is_disabled":false,"rental_uris":{"android":"levelo://app?vid=0122c75c-7283-45ee-b168-f0efdd15400f","ios":"levelo://app?vid=0122c75c-7283-45ee-b168-f0efdd15400f"},"vehicle_type_id":"4","last_reported":1749553782,"current_range_meters":20000,"station_id":"ce4bhnh2rcd13ifvqgtg","pricing_plan_id":"cebpf4jnsgd1na2vs0mg"},{"bike_id":"82643525-1430-45e4-9f11-c8bc122705a4","system_id":"levelo_inurba_marseille","lat":43.304363,"lon":5.397456,"is_reserved":false,"is_disabled":false,"rental_uris":{"android":"levelo://app?vid=82643525-1430-45e4-9f11-c8bc122705a4","ios":"levelo://app?vid=82643525-1430-45e4-9f11-c8bc122705a4"},"vehicle_type_id":"4","last_reported":1749553782,"current_range_meters":20400,"station_id":"ce4bhsp2rcd13ifvqi50","pricing_plan_id":"cebpf4jnsgd1na2vs0mg"},{"bike_id":"f10adc7e-6a3a-4a5d-9515-dc52fefe2058","system_id":"levelo_inurba_marseille","lat":43.32367,"lon":5.36728,"is_reserved":false,"is_disabled":false,"rental_uris":{"android":"levelo://app?vid=f10adc7e-6a3a-4a5d-9515-dc52fefe2058","ios":"levelo://app?vid=f10adc7e-6a3a-4a5d-9515-dc52fefe2058"},"vehicle_type_id":"4","last_reported":1749553782,"current_range_meters":20400,"station_id":"ce4bhsh2rcd13ifvqi2g","pricing_plan_id":"cebpf4jnsgd1na2vs0mg"},{"bike_id":"7b97a4b2-15c6-4f68-bd22-3907aaa8925f","system_id":"levelo_inurba_marseille","lat":43.31995,"lon":5.38161,"is_reserved":false,"is_disabled":false,"rental_uris":{"android":"levelo://app?vid=7b97a4b2-15c6-4f68-bd22-3907aaa8925f","ios":"levelo://app?vid=7b97a4b2-15c6-4f68-bd22-3907aaa8925f"},"vehicle_type_id":"4","last_reported":1749553782,"current_range_meters":20000,"station_id":"ce4bhr12rcd13ifvqhpg","pricing_plan_id":"cebpf4jnsgd1na2vs0mg"},{"bike_id":"d9b31e54-32e1-471c-9f40-55ad9305b724","system_id":"levelo_inurba_marseille","lat":43.27382,"lon":5.36256,"is_reserved":false,"is_disabled":false,"rental_uris":{"android":"levelo://app?vid=d9b31e54-32e1-471c-9f40-55ad9305b724","ios":"levelo://app?vid=d9b31e54-32e1-471c-9f40-55ad9305b724"},"vehicle_type_id":"4","last_reported":1749553782,"current_range_meters":20400,"station_id":"ce4bhbh2rcd13ifvqeo0","pricing_plan_id":"cebpf4jnsgd1na2vs0mg"},{"bike_id":"2c803a9e-1273-4b3a-9782-91bf21762f68","system_id":"levelo_inurba_marseille","lat":43.29989,"lon":5.3718,"is_reserved":false,"is_disabled":false,"rental_uris":{"android":"levelo://app?vid=2c803a9e-1273-4b3a-9782-91bf21762f68","ios":"levelo://app?vid=2c803a9e-1273-4b3a-9782-91bf21762f68"},"vehicle_type_id":"4","last_reported":1749553782,"current_range_meters":20800,"station_id":"ce4bgr92rcd13ifvqc7g","pricing_plan_id":"cebpf4jnsgd1na2vs0mg"},{"bike_id":"0d77e0b9-acd4-48b5-8646-ae85e6318140","system_id":"levelo_inurba_marseille","lat":43.28158,"lon":5.42629,"is_reserved":false,"is_disabled":true,"rental_uris":{"android":"levelo://app?vid=0d77e0b9-acd4-48b5-8646-ae85e6318140","ios":"levelo://app?vid=0d77e0b9-acd4-48b5-8646-ae85e6318140"},"vehicle_type_id":"4","last_reported":1749553782,"current_range_meters":20800,"station_id":"ce4bhnh2rcd13ifvqgug","pricing_plan_id":"cebpf4jnsgd1na2vs0mg"},{"bike_id":"1f6b9c47-b35c-4d40-8c5c-4be5ae78363e","system_id":"levelo_inurba_marseille","lat":43.2738,"lon":5.36263,"is_reserved":false,"is_disabled":false,"rental_uris":{"android":"levelo://app?vid=1f6b9c47-b35c-4d40-8c5c-4be5ae78363e","ios":"levelo://app?vid=1f6b9c47-b35c-4d40-8c5c-4be5ae78363e"},"vehicle_type_id":"4","last_reported":1749553782,"current_range_meters":20800,"station_id":"ce4bhbh2rcd13ifvqeo0","pricing_plan_id":"cebpf4jnsgd1na2vs0mg"},{"bike_id":"abdeadfe-be75-4681-8d90-f60c1f8f959c","system_id":"levelo_inurba_marseille","lat":43.2826,"lon":5.35068,"is_reserved":false,"is_disabled":false,"rental_uris":{"android":"levelo://app?vid=abdeadfe-be75-4681-8d90-f60c1f8f959c","ios":"levelo://app?vid=abdeadfe-be75-4681-8d90-f60c1f8f959c"},"vehicle_type_id":"4","last_reported":1749553782,"current_range_meters":20800,"station_id":"ce4bhbp2rcd13ifvqerg","pricing_plan_id":"cebpf4jnsgd1na2vs0mg"},{"bike_id":"a81b7f12-9f5d-4775-aeaf-81483c500521","system_id":"levelo_inurba_marseille","lat":43.24168,"lon":5.36391,"is_reserved":false,"is_disabled":false,"rental_uris":{"android":"levelo://app?vid=a81b7f12-9f5d-4775-aeaf-81483c500521","ios":"levelo://app?vid=a81b7f12-9f5d-4775-aeaf-81483c500521"},"vehicle_type_id":"4","last_reported":1749553782,"current_range_meters":20800,"station_id":"cpo36qri1sfpv3e86is0","pricing_plan_id":"cebpf4jnsgd1na2vs0mg"},{"bike_id":"e4adc4c4-5aca-42c6-8cbd-1b62e2d8d755","system_id":"levelo_inurba_marseille","lat":43.27048,"lon":5.40264,"is_reserved":false,"is_disabled":false,"rental_uris":{"android":"levelo://app?vid=e4adc4c4-5aca-42c6-8cbd-1b62e2d8d755","ios":"levelo://app?vid=e4adc4c4-5aca-42c6-8cbd-1b62e2d8d755"},"vehicle_type_id":"4","last_reported":1749553782,"current_range_meters":20800,"station_id":"ce4bhk92rcd13ifvqgc0","pricing_plan_id":"cebpf4jnsgd1na2vs0mg"},{"bike_id":"3db8fde5-dc25-47f9-adb5-1429f5338e31","system_id":"levelo_inurba_marseille","lat":43.31751,"lon":5.38483,"is_reserved":false,"is_disabled":false,"rental_uris":{"android":"levelo://app?vid=3db8fde5-dc25-47f9-adb5-1429f5338e31","ios":"levelo://app?vid=3db8fde5-dc25-47f9-adb5-1429f5338e31"},"vehicle_type_id":"4","last_reported":1749553782,"current_range_meters":20800,"station_id":"","pricing_plan_id":"cebpf4jnsgd1na2vs0mg"},{"bike_id":"17d2361d-898f-474a-9b42-40ce9a5b231b","system_id":"levelo_inurba_marseille","lat":43.30601,"lon":5.37219,"is_reserved":false,"is_disabled":false,"rental_uris":{"android":"levelo://app?vid=17d2361d-898f-474a-9b42-40ce9a5b231b","ios":"levelo://app?vid=17d2361d-898f-474a-9b42-40ce9a5b231b"},"vehicle_type_id":"4","last_reported":1749553782,"current_range_meters":20800,"station_id":"ce4bgqh2rcd13ifvqc4g","pricing_plan_id":"cebpf4jnsgd1na2vs0mg"},{"bike_id":"214aff1d-b5ea-45f8-8755-11517c108ff2","system_id":"levelo_inurba_marseille","lat":43.2417,"lon":5.36398,"is_reserved":false,"is_disabled":false,"rental_uris":{"android":"levelo://app?vid=214aff1d-b5ea-45f8-8755-11517c108ff2","ios":"levelo://app?vid=214aff1d-b5ea-45f8-8755-11517c108ff2"},"vehicle_type_id":"4","last_reported":1749553782,"current_range_meters":21600,"station_id":"cpo36qri1sfpv3e86is0","pricing_plan_id":"cebpf4jnsgd1na2vs0mg"},{"bike_id":"fd70e6d0-4016-4dc6-8e28-5ac1238d64cd","system_id":"levelo_inurba_marseille","lat":43.29565,"lon":5.39965,"is_reserved":false,"is_disabled":false,"rental_uris":{"android":"levelo://app?vid=fd70e6d0-4016-4dc6-8e28-5ac1238d64cd","ios":"levelo://app?vid=fd70e6d0-4016-4dc6-8e28-5ac1238d64cd"},"vehicle_type_id":"4","last_reported":1749553782,"current_range_meters":21600,"station_id":"ce4bh312rcd13ifvqdj0","pricing_plan_id":"cebpf4jnsgd1na2vs0mg"},{"bike_id":"b0d9ea84-4e8d-405b-a0ce-825fd347f5c8","system_id":"levelo_inurba_marseille","lat":43.28022,"lon":5.36935,"is_reserved":false,"is_disabled":false,"rental_uris":{"android":"levelo://app?vid=b0d9ea84-4e8d-405b-a0ce-825fd347f5c8","ios":"levelo://app?vid=b0d9ea84-4e8d-405b-a0ce-825fd347f5c8"},"vehicle_type_id":"4","last_reported":1749553782,"current_range_meters":21600,"station_id":"ce4bha12rcd13ifvqef0","pricing_plan_id":"cebpf4jnsgd1na2vs0mg"},{"bike_id":"1af23d28-ee2b-4655-9104-9acdee5ccac1","system_id":"levelo_inurba_marseille","lat":43.26588,"lon":5.39036,"is_reserved":false,"is_disabled":false,"rental_uris":{"android":"levelo://app?vid=1af23d28-ee2b-4655-9104-9acdee5ccac1","ios":"levelo://app?vid=1af23d28-ee2b-4655-9104-9acdee5ccac1"},"vehicle_type_id":"4","last_reported":1749553782,"current_range_meters":22000,"station_id":"ce4bhe12rcd13ifvqf30","pricing_plan_id":"cebpf4jnsgd1na2vs0mg"},{"bike_id":"5d595502-27c6-4368-ab5b-c73e012b28d1","system_id":"levelo_inurba_marseille","lat":43.31529,"lon":5.38031,"is_reserved":false,"is_disabled":false,"rental_uris":{"android":"levelo://app?vid=5d595502-27c6-4368-ab5b-c73e012b28d1","ios":"levelo://app?vid=5d595502-27c6-4368-ab5b-c73e012b28d1"},"vehicle_type_id":"4","last_reported":1749553782,"current_range_meters":22000,"station_id":"ce4bhsp2rcd13ifvqi50","pricing_plan_id":"cebpf4jnsgd1na2vs0mg"},{"bike_id":"b4e0430e-3544-4b19-8a99-ead521d4a15e","system_id":"levelo_inurba_marseille","lat":43.273695,"lon":5.362565,"is_reserved":false,"is_disabled":false,"rental_uris":{"android":"levelo://app?vid=b4e0430e-3544-4b19-8a99-ead521d4a15e","ios":"levelo://app?vid=b4e0430e-3544-4b19-8a99-ead521d4a15e"},"vehicle_type_id":"4","last_reported":1749553782,"current_range_meters":22000,"station_id":"ce4bhbh2rcd13ifvqeo0","pricing_plan_id":"cebpf4jnsgd1na2vs0mg"},{"bike_id":"91738eab-9cac-475c-be3d-e377ea38782b","system_id":"levelo_inurba_marseille","lat":43.28466,"lon":5.35882,"is_reserved":false,"is_disabled":false,"rental_uris":{"android":"levelo://app?vid=91738eab-9cac-475c-be3d-e377ea38782b","ios":"levelo://app?vid=91738eab-9cac-475c-be3d-e377ea38782b"},"vehicle_type_id":"4","last_reported":1749553782,"current_range_meters":21600,"station_id":"ce4bhah2rcd13ifvqei0","pricing_plan_id":"cebpf4jnsgd1na2vs0mg"},{"bike_id":"dc138925-1266-4897-9256-f1d921dc9f4d","system_id":"levelo_inurba_marseille","lat":43.31495,"lon":5.373062,"is_reserved":false,"is_disabled":false,"rental_uris":{"android":"levelo://app?vid=dc138925-1266-4897-9256-f1d921dc9f4d","ios":"levelo://app?vid=dc138925-1266-4897-9256-f1d921dc9f4d"},"vehicle_type_id":"4","last_reported":1749553782,"current_range_meters":22000,"station_id":"ce4bgt12rcd13ifvqcd0","pricing_plan_id":"cebpf4jnsgd1na2vs0mg"},{"bike_id":"84c1b610-f2c0-4c96-acb0-a10a066e8dbd","system_id":"levelo_inurba_marseille","lat":43.28267,"lon":5.35071,"is_reserved":false,"is_disabled":false,"rental_uris":{"android":"levelo://app?vid=84c1b610-f2c0-4c96-acb0-a10a066e8dbd","ios":"levelo://app?vid=84c1b610-f2c0-4c96-acb0-a10a066e8dbd"},"vehicle_type_id":"4","last_reported":1749553782,"current_range_meters":22000,"station_id":"ce4bhbp2rcd13ifvqerg","pricing_plan_id":"cebpf4jnsgd1na2vs0mg"},{"bike_id":"e9ace29f-678e-469a-b37f-fc4b5c7410e7","system_id":"levelo_inurba_marseille","lat":43.27382,"lon":5.36268,"is_reserved":false,"is_disabled":false,"rental_uris":{"android":"levelo://app?vid=e9ace29f-678e-469a-b37f-fc4b5c7410e7","ios":"levelo://app?vid=e9ace29f-678e-469a-b37f-fc4b5c7410e7"},"vehicle_type_id":"4","last_reported":1749553782,"current_range_meters":22000,"station_id":"ce4bhbh2rcd13ifvqeo0","pricing_plan_id":"cebpf4jnsgd1na2vs0mg"},{"bike_id":"ab23c9ca-34fc-460b-8fd5-10d493c8cbdf","system_id":"levelo_inurba_marseille","lat":43.30219,"lon":5.39467,"is_reserved":false,"is_disabled":false,"rental_uris":{"android":"levelo://app?vid=ab23c9ca-34fc-460b-8fd5-10d493c8cbdf","ios":"levelo://app?vid=ab23c9ca-34fc-460b-8fd5-10d493c8cbdf"},