{"last_updated":1680455100,"ttl":30,"version":"2.2","data":{"bikes":[{"bike_id":"4542d4c4-1885-4498-b8c7-19359cfcd751","system_id":"levelo_inurba_marseille","lat":43.312239,"lon":5.368562,"is_reserved":false,"is_disabled":false,"rental_uris":{"android":"levelo://app?vid=4542d4c4-1885-4498-b8c7-19359cfcd751","ios":"levelo://app?vid=4542d4c4-1885-4498-b8c7-19359cfcd751"},"vehicle_type_id":"4","last_reported":1680455100,"current_range_meters":5600,"station_id":"ce4bgl92rcd13ifvqbq0","pricing_plan_id":"free"},{"bike_id":"7a12dd2c-1e16-4401-91c4-9e21dc09956e","system_id":"levelo_inurba_marseille","lat":43.314811,"lon":5.373104,"is_reserved":false,"is_disabled":false,"rental_uris":{"android":"levelo://app?vid=7a12dd2c-1e16-4401-91c4-9e21dc09956e","ios":"levelo://app?vid=7a12dd2c-1e16-4401-91c4-9e21dc09956e"},"vehicle_type_id":"4","last_reported":1680455100,"current_range_meters":0,"station_id":"ce4bgt12rcd13ifvqcd0","pricing_plan_id":"free"},{"bike_id":"d1b4a2f9-29d3-48f5-8eb3-727e33a0a88a","system_id":"levelo_inurba_marseille","lat":43.3049,"lon":5.36711,"is_reserved":false,"is_disabled":false,"rental_uris":{"android":"levelo://app?vid=d1b4a2f9-29d3-48f5-8eb3-727e33a0a88a","ios":"levelo://app?vid=d1b4a2f9-29d3-48f5-8eb3-727e33a0a88a"},"vehicle_type_id":"4","last_reported":1680455100,"current_range_meters":0,"station_id":"ce4bgh92rcd13ifvqb50","pricing_plan_id":"free"},{"bike_id":"cd51c82c-a857-4fd3-9b09-99a1fb0aa78c","system_id":"levelo_inurba_marseille","lat":43.30845,"lon":5.37651,"is_reserved":false,"is_disabled":false,"rental_uris":{"android":"levelo://app?vid=cd51c82c-a857-4fd3-9b09-99a1fb0aa78c","ios":"levelo://app?vid=cd51c82c-a857-4fd3-9b09-99a1fb0aa78c"},"vehicle_type_id":"4","last_reported":1680455100,"current_range_meters":20800,"station_id":"","pricing_plan_id":"free"},{"bike_id":"e2644557-60c7-4a2f-9b50-d5a3e393e271","system_id":"levelo_inurba_marseille","lat":43.31112,"lon":5.37797,"is_reserved":false,"is_disabled":false,"rental_uris":{"android":"levelo://app?vid=e2644557-60c7-4a2f-9b50-d5a3e393e271","ios":"levelo://app?vid=e2644557-60c7-4a2f-9b50-d5a3e393e271"},"vehicle_type_id":"4","last_reported":1680455100,"current_range_meters":0,"station_id":"","pricing_plan_id":"free"},{"bike_id":"f426b641-1d31-4c19-9eff-22597774c7e4","system_id":"levelo_inurba_marseille","lat":43.30416,"lon":5.36992,"is_reserved":false,"is_disabled":false,"rental_uris":{"android":"levelo://app?vid=f426b641-1d31-4c19-9eff-22597774c7e4","ios":"levelo://app?vid=f426b641-1d31-4c19-9eff-22597774c7e4"},"vehicle_type_id":"4","last_reported":1680455100,"current_range_meters":0,"station_id":"","pricing_plan_id":"free"},{"bike_id":"cff3532b-1adb-4225-97a3-7ed99179678f","system_id":"levelo_inurba_marseille","lat":43.31355,"lon":5.3825,"is_reserved":false,"is_disabled":false,"rental_uris":{"android":"levelo://app?vid=cff3532b-1adb-4225-97a3-7ed99179678f","ios":"levelo://app?vid=cff3532b-1adb-4225-97a3-7ed99179678f"},"vehicle_type_id":"4","last_reported":1680455100,"current_range_meters":16000,"station_id":"","pricing_plan_id":"free"},{"bike_id":"99301587-b2fc-44ac-89f1-c698d90de6a3","system_id":"levelo_inurba_marseille","lat":43.30792,"lon":5.38156,"is_reserved":false,"is_disabled":false,"rental_uris":{"android":"levelo://app?vid=99301587-b2fc-44ac-89f1-c698d90de6a3","ios":"levelo://app?vid=99301587-b2fc-44ac-89f1-c698d90de6a3"},"vehicle_type_id":"4","last_reported":1680455100,"current_range_meters":0,"station_id":"ce4bgt12rcd13ifvqce0","pricing_plan_id":"free"},{"bike_id":"279f72c5-e41f-4c6e-9d34-da2ed0657130","system_id":"levelo_inurba_marseille","lat":43.313571,"lon":5.384829,"is_reserved":false,"is_disabled":false,"rental_uris":{"android":"levelo://app?vid=279f72c5-e41f-4c6e-9d34-da2ed0657130","ios":"levelo://app?vid=279f72c5-e41f-4c6e-9d34-da2ed0657130"},"vehicle_type_id":"4","last_reported":1680455100,"current_range_meters":0,"station_id":"ce4bgt92rcd13ifvqcf0","pricing_plan_id":"free"},{"bike_id":"e1592b62-d4ba-4e7d-a603-08feaefc9565","system_id":"levelo_inurba_marseille","lat":43.30132,"lon":5.37684,"is_reserved":false,"is_disabled":false,"rental_uris":{"android":"levelo://app?vid=e1592b62-d4ba-4e7d-a603-08feaefc9565","ios":"levelo://app?vid=e1592b62-d4ba-4e7d-a603-08feaefc9565"},"vehicle_type_id":"4","last_reported":1680455100,"current_range_meters":800,"station_id":"","pricing_plan_id":"free"},{"bike_id":"484d5f1a-c9ad-4277-bcc8-2aa478e31b66","system_id":"levelo_inurba_marseille","lat":43.3005,"lon":5.37746,"is_reserved":false,"is_disabled":false,"rental_uris":{"android":"levelo://app?vid=484d5f1a-c9ad-4277-bcc8-2aa478e31b66","ios":"levelo://app?vid=484d5f1a-c9ad-4277-bcc8-2aa478e31b66"},"vehicle_type_id":"4","last_reported":1680455100,"current_range_meters":4400,"station_id":"","pricing_plan_id":"free"},{"bike_id":"ebec164a-205a-4463-9bae-a8a6ccc72863","system_id":"levelo_inurba_marseille","lat":43.328371,"lon":5.366912,"is_reserved":false,"is_disabled":false,"rental_uris":{"android":"levelo://app?vid=ebec164a-205a-4463-9bae-a8a6ccc72863","ios":"levelo://app?vid=ebec164a-205a-4463-9bae-a8a6ccc72863"},"vehicle_type_id":"4","last_reported":1680455100,"current_range_meters":0,"station_id":"ce4bhs92rcd13ifvqi0g","pricing_plan_id":"free"},{"bike_id":"c4c7609f-490f-4ba8-a6cb-febc2318e704","system_id":"levelo_inurba_marseille","lat":43.328371,"lon":5.366909,"is_reserved":false,"is_disabled":false,"rental_uris":{"android":"levelo://app?vid=c4c7609f-490f-4ba8-a6cb-febc2318e704","ios":"levelo://app?vid=c4c7609f-490f-4ba8-a6cb-febc2318e704"},"vehicle_type_id":"4","last_reported":1680455100,"current_range_meters":0,"station_id":"ce4bhs92rcd13ifvqi0g","pricing_plan_id":"free"},{"bike_id":"abadd5ab-e4dc-4cff-9cd0-48a5602756d9","system_id":"levelo_inurba_marseille","lat":43.32829,"lon":5.37505,"is_reserved":false,"is_disabled":false,"rental_uris":{"android":"levelo://app?vid=abadd5ab-e4dc-4cff-9cd0-48a5602756d9","ios":"levelo://app?vid=abadd5ab-e4dc-4cff-9cd0-48a5602756d9"},"vehicle_type_id":"4","last_reported":1680455100,"current_range_meters":10800,"station_id":"","pricing_plan_id":"free"},{"bike_id":"2360a1bf-8393-4b4c-9cf9-208eb99e1dc1","system_id":"levelo_inurba_marseille","lat":43.29573,"lon":5.367355,"is_reserved":false,"is_disabled":false,"rental_uris":{"android":"levelo://app?vid=2360a1bf-8393-4b4c-9cf9-208eb99e1dc1","ios":"levelo://app?vid=2360a1bf-8393-4b4c-9cf9-208eb99e1dc1"},"vehicle_type_id":"4","last_reported":1680455100,"current_range_meters":2400,"station_id":"ce4bgph2rcd13ifvqc2g","pricing_plan_id":"free"},{"bike_id":"a71fa112-cff5-46b1-9ed0-fc69fd1befea","system_id":"levelo_inurba_marseille","lat":43.298037,"lon":5.381066,"is_reserved":false,"is_disabled":false,"rental_uris":{"android":"levelo://app?vid=a71fa112-cff5-46b1-9ed0-fc69fd1befea","ios":"levelo://app?vid=a71fa112-cff5-46b1-9ed0-fc69fd1befea"},"vehicle_type_id":"4","last_reported":1680455100,"current_range_meters":17200,"station_id":"ce4bgip2rcd13ifvqbb0","pricing_plan_id":"free"},{"bike_id":"64c59dbf-0581-4f1c-a762-091e0da9e5a3","system_id":"levelo_inurba_marseille","lat":43.298037,"lon":5.381066,"is_reserved":false,"is_disabled":false,"rental_uris":{"android":"levelo://app?vid=64c59dbf-0581-4f1c-a762-091e0da9e5a3","ios":"levelo://app?vid=64c59dbf-0581-4f1c-a762-091e0da9e5a3"},"vehicle_type_id":"4","last_reported":1680455100,"current_range_meters":0,"station_id":"ce4bgip2rcd13ifvqbb0","pricing_plan_id":"free"},{"bike_id":"21389a24-cb1b-48de-8282-71ec24d082bd","system_id":"levelo_inurba_marseille","lat":43.295279,"lon":5.375048,"is_reserved":false,"is_disabled":false,"rental_uris":{"android":"levelo://app?vid=21389a24-cb1b-48de-8282-71ec24d082bd","ios":"levelo://app?vid=21389a24-cb1b-48de-8282-71ec24d082bd"},"vehicle_type_id":"4","last_reported":1680455100,"current_range_meters":3200,"station_id":"ce4bgkp2rcd13ifvqbmg","pricing_plan_id":"free"},{"bike_id":"70323caa-cb4e-498f-b35c-f8665caca72b","system_id":"levelo_inurba_marseille","lat":43.300852,"lon":5.390859,"is_reserved":false,"is_disabled":false,"rental_uris":{"android":"levelo://app?vid=70323caa-cb4e-498f-b35c-f8665caca72b","ios":"levelo://app?vid=70323caa-cb4e-498f-b35c-f8665caca72b"},"vehicle_type_id":"4","last_reported":1680455100,"current_range_meters":0,"station_id":"ce4bh192rcd13ifvqdb0","pricing_plan_id":"free"},{"bike_id":"311f9e38-4572-4c1b-87f0-be4c504d5dc3","system_id":"levelo_inurba_marseille","lat":43.32703,"lon":5.38986,"is_reserved":false,"is_disabled":false,"rental_uris":{"android":"levelo://app?vid=311f9e38-4572-4c1b-87f0-be4c504d5dc3","ios":"levelo://app?vid=311f9e38-4572-4c1b-87f0-be4c504d5dc3"},"vehicle_type_id":"4","last_reported":1680455100,"current_range_meters":0,"station_id":"","pricing_plan_id":"free"},{"bike_id":"0515a22c-57a0-4acb-98be-f90b41b1d880","system_id":"levelo_inurba_marseille","lat":43.29529,"lon":5.385581,"is_reserved":false,"is_disabled":false,"rental_uris":{"android":"levelo://app?vid=0515a22c-57a0-4acb-98be-f90b41b1d880","ios":"levelo://app?vid=0515a22c-57a0-4acb-98be-f90b41b1d880"},"vehicle_type_id":"4","last_reported":1680455100,"current_range_meters":0,"station_id":"ce4bgih2rcd13ifvqba0","pricing_plan_id":"free"},{"bike_id":"d8a15f36-ade4-4e14-b5df-e3d851487b07","system_id":"levelo_inurba_marseille","lat":43.302008,"lon":5.394694,"is_reserved":false,"is_disabled":false,"rental_uris":{"android":"levelo://app?vid=d8a15f36-ade4-4e14-b5df-e3d851487b07","ios":"levelo://app?vid=d8a15f36-ade4-4e14-b5df-e3d851487b07"},"vehicle_type_id":"4","last_reported":1680455100,"current_range_meters":800,"station_id":"ce4bh0p2rcd13ifvqd70","pricing_plan_id":"free"},{"bike_id":"9c2d5cca-0056-4c99-9d2b-ad95c74f6275","system_id":"levelo_inurba_marseille","lat":43.32713,"lon":5.39206,"is_reserved":false,"is_disabled":false,"rental_uris":{"android":"levelo://app?vid=9c2d5cca-0056-4c99-9d2b-ad95c74f6275","ios":"levelo://app?vid=9c2d5cca-0056-4c99-9d2b-ad95c74f6275"},"vehicle_type_id":"4","last_reported":1680455100,"current_range_meters":4000,"station_id":"","pricing_plan_id":"free"},{"bike_id":"6f133e2c-e529-43c5-bb7d-e3c2de7838b7","system_id":"levelo_inurba_marseille","lat":43.305994,"lon":5.393687,"is_reserved":false,"is_disabled":false,"rental_uris":{"android":"levelo://app?vid=6f133e2c-e529-43c5-bb7d-e3c2de7838b7","ios":"levelo://app?vid=6f133e2c-e529-43c5-bb7d-e3c2de7838b7"},"vehicle_type_id":"4","last_reported":1680455100,"current_range_meters":13600,"station_id":"ce4bh0p2rcd13ifvqd80","pricing_plan_id":"free"},{"bike_id":"553bfea1-fa21-46a4-834a-2bdaf7d340be","system_id":"levelo_inurba_marseille","lat":43.29005,"lon":5.35615,"is_reserved":false,"is_disabled":false,"rental_uris":{"android":"levelo://app?vid=553bfea1-fa21-46a4-834a-2bdaf7d340be","ios":"levelo://app?vid=553bfea1-fa21-46a4-834a-2bdaf7d340be"},"vehicle_type_id":"4","last_reported":1680455100,"current_range_meters":0,"station_id":"ce4bhb92rcd13ifvqen0","pricing_plan_id":"free"},{"bike_id":"18224f97-905a-4084-817e-f4e6b1f18d7b","system_id":"levelo_inurba_marseille","lat":43.28877,"lon":5.3608,"is_reserved":false,"is_disabled":false,"rental_uris":{"android":"levelo://app?vid=18224f97-905a-4084-817e-f4e6b1f18d7b","ios":"levelo://app?vid=18224f97-905a-4084-817e-f4e6b1f18d7b"},"vehicle_type_id":"4","last_reported":1680455100,"current_range_meters":0,"station_id":"","pricing_plan_id":"free"},{"bike_id":"6274e74e-e4b8-494c-9625-add9298072c0","system_id":"levelo_inurba_marseille","lat":43.30739,"lon":5.40103,"is_reserved":false,"is_disabled":false,"rental_uris":{"android":"levelo://app?vid=6274e74e-e4b8-494c-9625-add9298072c0","ios":"levelo://app?vid=6274e74e-e4b8-494c-9625-add9298072c0"},"vehicle_type_id":"4","last_reported":1680455100,"current_range_meters":3200,"station_id":"","pricing_plan_id":"free"},{"bike_id":"8da554b7-a47d-4580-b62d-82b554803b69","system_id":"levelo_inurba_marseille","lat":43.33757,"lon":5.37462,"is_reserved":false,"is_disabled":false,"rental_uris":{"android":"levelo://app?vid=8da554b7-a47d-4580-b62d-82b554803b69","ios":"levelo://app?vid=8da554b7-a47d-4580-b62d-82b554803b69"},"vehicle_type_id":"4","last_reported":1680455100,"current_range_meters":23200,"station_id":"","pricing_plan_id":"free"},{"bike_id":"fab75fff-55b8-48d5-85e7-4a09e089b745","system_id":"levelo_inurba_marseille","lat":43.29562,"lon":5.39967,"is_reserved":false,"is_disabled":false,"rental_uris":{"android":"levelo://app?vid=fab75fff-55b8-48d5-85e7-4a09e089b745","ios":"levelo://app?vid=fab75fff-55b8-48d5-85e7-4a09e089b745"},"vehicle_type_id":"4","last_reported":1680455100,"current_range_meters":0,"station_id":"","pricing_plan_id":"free"},{"bike_id":"e8bcd77a-0d63-4f37-8fdb-f48bc05cc989","system_id":"levelo_inurba_marseille","lat":43.284793,"lon":5.384113,"is_reserved":false,"is_disabled":false,"rental_uris":{"android":"levelo://app?vid=e8bcd77a-0d63-4f37-8fdb-f48bc05cc989","ios":"levelo://app?vid=e8bcd77a-0d63-4f37-8fdb-f48bc05cc989"},"vehicle_type_id":"4","last_reported":1680455100,"current_range_meters":0,"station_id":"ce4bh512rcd13ifvqe3g","pricing_plan_id":"free"},{"bike_id":"18dabaa1-3d93-413c-ad26-0258c7aaad12","system_id":"levelo_inurba_marseille","lat":43.28036,"lon":5.36951,"is_reserved":false,"is_disabled":false,"rental_uris":{"android":"levelo://app?vid=18dabaa1-3d93-413c-ad26-0258c7aaad12","ios":"levelo://app?vid=18dabaa1-3d93-413c-ad26-0258c7aaad12"},"vehicle_type_id":"4","last_reported":1680455100,"current_range_meters":1200,"station_id":"","pricing_plan_id":"free"},{"bike_id":"a24cf139-89de-45cf-ba1a-6241721cf921","system_id":"levelo_inurba_marseille","lat":43.281044,"lon":5.378308,"is_reserved":false,"is_disabled":false,"rental_uris":{"android":"levelo://app?vid=a24cf139-89de-45cf-ba1a-6241721cf921","ios":"levelo://app?vid=a24cf139-89de-45cf-ba1a-6241721cf921"},"vehicle_type_id":"4","last_reported":1680455100,"current_range_meters":18000,"station_id":"ce4bha12rcd13ifvqee0","pricing_plan_id":"free"},{"bike_id":"a15d9406-cdf0-4539-86dd-9d6f59329a51","system_id":"levelo_inurba_marseille","lat":43.287154,"lon":5.399979,"is_reserved":false,"is_disabled":false,"rental_uris":{"android":"levelo://app?vid=a15d9406-cdf0-4539-86dd-9d6f59329a51","ios":"levelo://app?vid=a15d9406-cdf0-4539-86dd-9d6f59329a51"},"vehicle_type_id":"4","last_reported":1680455100,"current_range_meters":4400,"station_id":"ce4bho92rcd13ifvqh3g","pricing_plan_id":"free"},{"bike_id":"f499f2bd-f483-4ffa-af24-a0548d3761d1","system_id":"levelo_inurba_marseille","lat":43.29259,"lon":5.40907,"is_reserved":false,"is_disabled":false,"rental_uris":{"android":"levelo://app?vid=f499f2bd-f483-4ffa-af24-a0548d3761d1","ios":"levelo://app?vid=f499f2bd-f483-4ffa-af24-a0548d3761d1"},"vehicle_type_id":"4","last_reported":1680455100,"current_range_meters":0,"station_id":"ce4bh192rcd13ifvqdc0","pricing_plan_id":"free"},{"bike_id":"11f31d39-a792-4958-8f3b-1d4bfb35840c","system_id":"levelo_inurba_marseille","lat":43.33612,"lon":5.410321,"is_reserved":false,"is_disabled":false,"rental_uris":{"android":"levelo://app?vid=11f31d39-a792-4958-8f3b-1d4bfb35840c","ios":"levelo://app?vid=11f31d39-a792-4958-8f3b-1d4bfb35840c"},"vehicle_type_id":"4","last_reported":1680455100,"current_range_meters":8400,"station_id":"ce4bhqh2rcd13ifvqhmg","pricing_plan_id":"free"},{"bike_id":"da25626b-580a-4304-9256-96c74cd91fcd","system_id":"levelo_inurba_marseille","lat":43.295572,"lon":5.422907,"is_reserved":false,"is_disabled":false,"rental_uris":{"android":"levelo://app?vid=da25626b-580a-4304-9256-96c74cd91fcd","ios":"levelo://app?vid=da25626b-580a-4304-9256-96c74cd91fcd"},"vehicle_type_id":"4","last_reported":1680455100,"current_range_meters":0,"station_id":"ce4bhph2rcd13ifvqhdg","pricing_plan_id":"free"},{"bike_id":"93b20adf-e27e-44a7-8631-a790c2caacc5","system_id":"levelo_inurba_marseille","lat":43.278128,"lon":5.407195,"is_reserved":false,"is_disabled":false,"rental_uris":{"android":"levelo://app?vid=93b20adf-e27e-44a7-8631-a790c2caacc5","ios":"levelo://app?vid=93b20adf-e27e-44a7-8631-a790c2caacc5"},"vehicle_type_id":"4","last_reported":1680455100,"current_range_meters":1200,"station_id":"ce4bhnh2rcd13ifvqgtg","pricing_plan_id":"free"},{"bike_id":"dd001100-d643-4957-99dd-6bd2e0364828","system_id":"levelo_inurba_marseille","lat":43.278128,"lon":5.407195,"is_reserved":false,"is_disabled":false,"rental_uris":{"android":"levelo://app?vid=dd001100-d643-4957-99dd-6bd2e0364828","ios":"levelo://app?vid=dd001100-d643-4957-99dd-6bd2e0364828"},"vehicle_type_id":"4","last_reported":1680455100,"current_range_meters":14400,"station_id":"ce4bhnh2rcd13ifvqgtg","pricing_plan_id":"free"},{"bike_id":"1a0c6be5-99a3-4a9f-b407-7df72aa0b6a6","system_id":"levelo_inurba_marseille","lat":43.2919,"lon":5.42262,"is_reserved":false,"is_disabled":false,"rental_uris":{"android":"levelo://app?vid=1a0c6be5-99a3-4a9f-b407-7df72aa0b6a6","ios":"levelo://app?vid=1a0c6be5-99a3-4a9f-b407-7df72aa0b6a6"},"vehicle_type_id":"4","last_reported":1680455100,"current_range_meters":16000,"station_id":"","pricing_plan_id":"free"},{"bike_id":"508129d3-5b1f-44b1-a0dd-e5b2ea2b4342","system_id":"levelo_inurba_marseille","lat":43.33088,"lon":5.42748,"is_reserved":false,"is_disabled":false,"rental_uris":{"android":"levelo://app?vid=508129d3-5b1f-44b1-a0dd-e5b2ea2b4342","ios":"levelo://app?vid=508129d3-5b1f-44b1-a0dd-e5b2ea2b4342"},"vehicle_type_id":"4","last_reported":1680455100,"current_range_meters":2400,"station_id":"","pricing_plan_id":"free"},{"bike_id":"cddf1a07-f629-45b8-ae65-f618ed59d24f","system_id":"levelo_inurba_marseille","lat":43.27996,"lon":5.416624,"is_reserved":false,"is_disabled":false,"rental_uris":{"android":"levelo://app?vid=cddf1a07-f629-45b8-ae65-f618ed59d24f","ios":"levelo://app?vid=cddf1a07-f629-45b8-ae65-f618ed59d24f"},"vehicle_type_id":"4","last_reported":1680455100,"current_range_meters":1200,"station_id":"ce4bho12rcd13ifvqh1g","pricing_plan_id":"free"},{"bike_id":"f9c8be85-cfc4-4583-b0d6-26432eef004b","system_id":"levelo_inurba_marseille","lat":43.27996,"lon":5.41666,"is_reserved":false,"is_disabled":false,"rental_uris":{"android":"levelo://app?vid=f9c8be85-cfc4-4583-b0d6-26432eef004b","ios":"levelo://app?vid=f9c8be85-cfc4-4583-b0d6-26432eef004b"},"vehicle_type_id":"4","last_reported":1680455100,"current_range_meters":7600,"station_id":"ce4bho12rcd13ifvqh1g","pricing_plan_id":"free"},{"bike_id":"8948b5fb-d869-4b5f-90b8-c03a943132d7","system_id":"levelo_inurba_marseille","lat":43.267966,"lon":5.393976,"is_reserved":false,"is_disabled":false,"rental_uris":{"android":"levelo://app?vid=8948b5fb-d869-4b5f-90b8-c03a943132d7","ios":"levelo://app?vid=8948b5fb-d869-4b5f-90b8-c03a943132d7"},"vehicle_type_id":"4","last_reported":1680455100,"current_range_meters":7600,"station_id":"ce4bhh12rcd13ifvqfg0","pricing_plan_id":"free"},{"bike_id":"c9ec2b5c-08cb-4086-b2ce-5f286e098c19","system_id":"levelo_inurba_marseille","lat":43.26786,"lon":5.39416,"is_reserved":false,"is_disabled":false,"rental_uris":{"android":"levelo://app?vid=c9ec2b5c-08cb-4086-b2ce-5f286e098c19","ios":"levelo://app?vid=c9ec2b5c-08cb-4086-b2ce-5f286e098c19"},"vehicle_type_id":"4","last_reported":1680455100,"current_range_meters":0,"station_id":"ce4bhh12rcd13ifvqfg0","pricing_plan_id":"free"},{"bike_id":"aa91cb4f-824c-4b16-8417-1a94f618b40f","system_id":"levelo_inurba_marseille","lat":43.33459,"lon":5.42787,"is_reserved":false,"is_disabled":false,"rental_uris":{"android":"levelo://app?vid=aa91cb4f-824c-4b16-8417-1a94f618b40f","ios":"levelo://app?vid=aa91cb4f-824c-4b16-8417-1a94f618b40f"},"vehicle_type_id":"4","last_reported":1680455100,"current_range_meters":0,"station_id":"","pricing_plan_id":"free"},{"bike_id":"686a7ab5-423f-4816-92d6-aaf6ed846ea3","system_id":"levelo_inurba_marseille","lat":43.308051,"lon":5.43527,"is_reserved":false,"is_disabled":false,"rental_uris":{"android":"levelo://app?vid=686a7ab5-423f-4816-92d6-aaf6ed846ea3","ios":"levelo://app?vid=686a7ab5-423f-4816-92d6-aaf6ed846ea3"},"vehicle_type_id":"4","last_reported":1680455100,"current_range_meters":0,"station_id":"ce4bhph2rcd13ifvqheg","pricing_plan_id":"free"},{"bike_id":"6e8c92ff-1587-43d6-a056-5aac48918100","system_id":"levelo_inurba_marseille","lat":43.26185,"lon":5.37448,"is_reserved":false,"is_disabled":false,"rental_uris":{"android":"levelo://app?vid=6e8c92ff-1587-43d6-a056-5aac48918100","ios":"levelo://app?vid=6e8c92ff-1587-43d6-a056-5aac48918100"},"vehicle_type_id":"4","last_reported":1680455100,"current_range_meters":0,"station_id":"ce4bhgp2rcd13ifvqfc0","pricing_plan_id":"free"},{"bike_id":"fe6b02fb-4b4b-44f3-ab93-315275670c33","system_id":"levelo_inurba_marseille","lat":43.26182,"lon":5.37451,"is_reserved":false,"is_disabled":false,"rental_uris":{"android":"levelo://app?vid=fe6b02fb-4b4b-44f3-ab93-315275670c33","ios":"levelo://app?vid=fe6b02fb-4b4b-44f3-ab93-315275670c33"},"vehicle_type_id":"4","last_reported":1680455100,"current_range_meters":0,"station_id":"ce4bhgp2rcd13ifvqfc0","pricing_plan_id":"free"},{"bike_id":"c8cf3e33-7df4-410c-a225-97877c60b980","system_id":"levelo_inurba_marseille","lat":43.317104,"lon":5.436818,"is_reserved":false,"is_disabled":false,"rental_uris":{"android":"levelo://app?vid=c8cf3e33-7df4-410c-a225-97877c60b980","ios":"levelo://app?vid=c8cf3e33-7df4-410c-a225-97877c60b980"},"vehicle_type_id":"4","last_reported":1680455100,"current_range_meters":0,"station_id":"ce4bhp92rcd13ifvqhcg","pricing_plan_id":"free"},{"bike_id":"50d75127-32b8-4dd0-9103-95c406b46d20","system_id":"levelo_inurba_marseille","lat":43.2679,"lon":5.40266,"is_reserved":false,"is_disabled":false,"rental_uris":{"android":"levelo://app?vid=50d75127-32b8-4dd0-9103-95c406b46d20","ios":"levelo://app?vid=50d75127-32b8-4dd0-9103-95c406b46d20"},"vehicle_type_id":"4","last_reported":1680455100,"current_range_meters":23200,"station_id":"ce501612rcd8frsf0b60","pricing_plan_id":"free"},{"bike_id":"80e5553f-7902-4c2e-b1a6-79552682db10","system_id":"levelo_inurba_marseille","lat":43.26026,"lon":5.37552,"is_reserved":false,"is_disabled":false,"rental_uris":{"android":"levelo://app?vid=80e5553f-7902-4c2e-b1a6-79552682db10","ios":"levelo://app?vid=80e5553f-7902-4c2e-b1a6-79552682db10"},"vehicle_type_id":"4","last_reported":1680455100,"current_range_meters":1200,"station_id":"ce4bhgh2rcd13ifvqfa0","pricing_plan_id":"free"},{"bike_id":"736ee96d-d934-46e4-8a36-c38d7c597cd9","system_id":"levelo_inurba_marseille","lat":43.259969,"lon":5.375347,"is_reserved":false,"is_disabled":false,"rental_uris":{"android":"levelo://app?vid=736ee96d-d934-46e4-8a36-c38d7c597cd9","ios":"levelo://app?vid=736ee96d-d934-46e4-8a36-c38d7c597cd9"},"vehicle_type_id":"4","last_reported":1680455100,"current_range_meters":1200,"station_id":"","pricing_plan_id":"free"},{"bike_id":"685d1ee2-19f0-48b6-84a9-674b573df74e","system_id":"levelo_inurba_marseille","lat":43.2607,"lon":5.393983,"is_reserved":false,"is_disabled":false,"rental_uris":{"android":"levelo://app?vid=685d1ee2-19f0-48b6-84a9-674b573df74e","ios":"levelo://app?vid=685d1ee2-19f0-48b6-84a9-674b573df74e"},"vehicle_type_id":"4","last_reported":1680455100,"current_range_meters":2400,"station_id":"ce4bhh92rcd13ifvqfj0","pricing_plan_id":"free"},{"bike_id":"3ad2855c-bfed-4442-aa5e-40c26f345be4","system_id":"levelo_inurba_marseille","lat":43.260909,"lon":5.397591,"is_reserved":false,"is_disabled":false,"rental_uris":{"android":"levelo://app?vid=3ad2855c-bfed-4442-aa5e-40c26f345be4","ios":"levelo://app?vid=3ad2855c-bfed-4442-aa5e-40c26f345be4"},"vehicle_type_id":"4","last_reported":1680455100,"current_range_meters":24800,"station_id":"ce4bhi12rcd13ifvqfq0","pricing_plan_id":"free"},{"bike_id":"a2ccff9e-8edc-45a0-b86d-599d3d750de7","system_id":"levelo_inurba_marseille","lat":43.260909,"lon":5.397591,"is_reserved":false,"is_disabled":false,"rental_uris":{"android":"levelo://app?vid=a2ccff9e-8edc-45a0-b86d-599d3d750de7","ios":"levelo://app?vid=a2ccff9e-8edc-45a0-b86d-599d3d750de7"},"vehicle_type_id":"4","last_reported":1680455100,"current_range_meters":1200,"station_id":"ce4bhi12rcd13ifvqfq0","pricing_plan_id":"free"},{"bike_id":"963dac85-2335-45db-b82d-3dbcba5f31e0","system_id":"levelo_inurba_marseille","lat":43.25582,"lon":5.38225,"is_reserved":false,"is_disabled":false,"rental_uris":{"android":"levelo://app?vid=963dac85-2335-45db-b82d-3dbcba5f31e0","ios":"levelo://app?vid=963dac85-2335-45db-b82d-3dbcba5f31e0"},"vehicle_type_id":"4","last_reported":1680455100,"current_range_meters":0,"station_id":"ce4bhih2rcd13ifvqfs0","pricing_plan_id":"free"},{"bike_id":"0c52c4db-9bfb-4837-84e6-a7aab5cc5d86","system_id":"levelo_inurba_marseille","lat":43.255756,"lon":5.382303,"is_reserved":false,"is_disabled":false,"rental_uris":{"android":"levelo://app?vid=0c52c4db-9bfb-4837-84e6-a7aab5cc5d86","ios":"levelo://app?vid=0c52c4db-9bfb-4837-84e6-a7aab5cc5d86"},"vehicle_type_id":"4","last_reported":1680455100,"current_range_meters":28800,"station_id":"ce4bhih2rcd13ifvqfs0","pricing_plan_id":"free"},{"bike_id":"6b6b0d68-a4ff-4b67-925d-82a3b0096a46","system_id":"levelo_inurba_marseille","lat":43.254947,"lon":5.376454,"is_reserved":false,"is_disabled":false,"rental_uris":{"android":"levelo://app?vid=6b6b0d68-a4ff-4b67-925d-82a3b0096a46","ios":"levelo://app?vid=6b6b0d68-a4ff-4b67-925d-82a3b0096a46"},"vehicle_type_id":"4","last_reported":1680455100,"current_range_meters":16400,"station_id":"ce4bhh12rcd13ifvqff0","pricing_plan_id":"free"},{"bike_id":"475f276d-4af6-40f1-bab7-73f490f38d16","system_id":"levelo_inurba_marseille","lat":43.255,"lon":5.37653,"is_reserved":false,"is_disabled":false,"rental_uris":{"android":"levelo://app?vid=475f276d-4af6-40f1-bab7-73f490f38d16","ios":"levelo://app?vid=475f276d-4af6-40f1-bab7-73f490f38d16"},"vehicle_type_id":"4","last_reported":1680455100,"current_range_meters":26800,"station_id":"ce4bhh12rcd13ifvqff0","pricing_plan_id":"free"},{"bike_id":"2a9fbed7-8c36-4551-bc3e-c09a23551b4f","system_id":"levelo_inurba_marseille","lat":43.25424,"lon":5.38149,"is_reserved":false,"is_disabled":false,"rental_uris":{"android":"levelo://app?vid=2a9fbed7-8c36-4551-bc3e-c09a23551b4f","ios":"levelo://app?vid=2a9fbed7-8c36-4551-bc3e-c09a23551b4f"},"vehicle_type_id":"4","last_reported":1680455100,"current_range_meters":16000,"station_id":"","pricing_plan_id":"free"},{"bike_id":"7fe6e462-697e-4a5a-b59f-781bab6ba83e","system_id":"levelo_inurba_marseille","lat":43.27294,"lon":5.43119,"is_reserved":false,"is_disabled":false,"rental_uris":{"android":"levelo://app?vid=7fe6e462-697e-4a5a-b59f-781bab6ba83e","ios":"levelo://app?vid=7fe6e462-697e-4a5a-b59f-781bab6ba83e"},"vehicle_type_id":"4","last_reported":1680455100,"current_range_meters":22800,"station_id":"","pricing_plan_id":"free"},{"bike_id":"7a912d1b-5cce-4009-abb0-52be3308b7ba","system_id":"levelo_inurba_marseille","lat":43.2479,"lon":5.374457,"is_reserved":false,"is_disabled":false,"rental_uris":{"android":"levelo://app?vid=7a912d1b-5cce-4009-abb0-52be3308b7ba","ios":"levelo://app?vid=7a912d1b-5cce-4009-abb0-52be3308b7ba"},"vehicle_type_id":"4","last_reported":1680455100,"current_range_meters":2800,"station_id":"ce4bhgh2rcd13ifvqfb0","pricing_plan_id":"free"},{"bike_id":"790363dd-7b5e-431f-81de-619093ef2728","system_id":"levelo_inurba_marseille","lat":43.250966,"lon":5.395186,"is_reserved":false,"is_disabled":false,"rental_uris":{"android":"levelo://app?vid=790363dd-7b5e-431f-81de-619093ef2728","ios":"levelo://app?vid=790363dd-7b5e-431f-81de-619093ef2728"},"vehicle_type_id":"4","last_reported":1680455100,"current_range_meters":27200,"station_id":"ce4bhm12rcd13ifvqgkg","pricing_plan_id":"free"},{"bike_id":"5a953ba8-23cf-464c-8f14-925558334a64","system_id":"levelo_inurba_marseille","lat":43.25127,"lon":5.40295,"is_reserved":false,"is_disabled":false,"rental_uris":{"android":"levelo://app?vid=5a953ba8-23cf-464c-8f14-925558334a64","ios":"levelo://app?vid=5a953ba8-23cf-464c-8f14-925558334a64"},"vehicle_type_id":"4","last_reported":1680455100,"current_range_meters":0,"station_id":"","pricing_plan_id":"free"},{"bike_id":"81718e9b-2be6-487f-a68e-3a809029354f","system_id":"levelo_inurba_marseille","lat":43.24693,"lon":5.382096,"is_reserved":false,"is_disabled":false,"rental_uris":{"android":"levelo://app?vid=81718e9b-2be6-487f-a68e-3a809029354f","ios":"levelo://app?vid=81718e9b-2be6-487f-a68e-3a809029354f"},"vehicle_type_id":"4","last_reported":1680455100,"current_range_meters":15600,"station_id":"ce4bhih2rcd13ifvqfr0","pricing_plan_id":"free"},{"bike_id":"1f695042-0947-499f-a66d-26dfed89096e","system_id":"levelo_inurba_marseille","lat":43.246467,"lon":5.388984,"is_reserved":false,"is_disabled":false,"rental_uris":{"android":"levelo://app?vid=1f695042-0947-499f-a66d-26dfed89096e","ios":"levelo://app?vid=1f695042-0947-499f-a66d-26dfed89096e"},"vehicle_type_id":"4","last_reported":1680455100,"current_range_meters":3600,"station_id":"ce4bhg12rcd13ifvqf60","pricing_plan_id":"free"},{"bike_id":"5f6087b9-1431-496d-ba98-7cc8da9fb97b","system_id":"levelo_inurba_marseille","lat":43.243884,"lon":5.370736,"is_reserved":false,"is_disabled":false,"rental_uris":{"android":"levelo://app?vid=5f6087b9-1431-496d-ba98-7cc8da9fb97b","ios":"levelo://app?vid=5f6087b9-1431-496d-ba98-7cc8da9fb97b"},"vehicle_type_id":"4","last_reported":1680455100,"current_range_meters":12800,"station_id":"ce4bhhh2rcd13ifvqfk0","pricing_plan_id":"free"},{"bike_id":"3d215131-40b8-40e9-a242-0f282409f371","system_id":"levelo_inurba_marseille","lat":43.23968,"lon":5.36635,"is_reserved":false,"is_disabled":false,"rental_uris":{"android":"levelo://app?vid=3d215131-40b8-40e9-a242-0f282409f371","ios":"levelo://app?vid=3d215131-40b8-40e9-a242-0f282409f371"},"vehicle_type_id":"4","last_reported":1680455100,"current_range_meters":0,"station_id":"ce4bhi12rcd13ifvqfp0","pricing_plan_id":"free"},{"bike_id":"82ae428d-eabb-4918-b43f-44109086c4ee","system_id":"levelo_inurba_marseille","lat":43.23964,"lon":5.36625,"is_reserved":false,"is_disabled":false,"rental_uris":{"android":"levelo://app?vid=82ae428d-eabb-4918-b43f-44109086c4ee","ios":"levelo://app?vid=82ae428d-eabb-4918-b43f-44109086c4ee"},"vehicle_type_id":"4","last_reported":1680455100,"current_range_meters":16000,"station_id":"ce4bhi12rcd13ifvqfp0","pricing_plan_id":"free"},{"bike_id":"fc18ff2f-6351-4bc7-a112-a40928252ffb","system_id":"levelo_inurba_marseille","lat":43.241782,"lon":5.397261,"is_reserved":false,"is_disabled":false,"rental_uris":{"android":"levelo://app?vid=fc18ff2f-6351-4bc7-a112-a40928252ffb","ios":"levelo://app?vid=fc18ff2f-6351-4bc7-a112-a40928252ffb"},"vehicle_type_id":"4","last_reported":1680455100,"current_range_meters":21200,"station_id":"ce4bhn12rcd13ifvqgpg","pricing_plan_id":"free"},{"bike_id":"cc8a1533-f9f4-425b-9339-e1866024d6d2","system_id":"levelo_inurba_marseille","lat":43.241782,"lon":5.397261,"is_reserved":false,"is_disabled":false,"rental_uris":{"android":"levelo://app?vid=cc8a1533-f9f4-425b-9339-e1866024d6d2","ios":"levelo://app?vid=cc8a1533-f9f4-425b-9339-e1866024d6d2"},"vehicle_type_id":"4","last_reported":1680455100,"current_range_meters":12800,"station_id":"ce4bhn12rcd13ifvqgpg","pricing_plan_id":"free"},{"bike_id":"1693dd50-6a69-4923-bac4-59cd8003e056","system_id":"levelo_inurba_marseille","lat":43.2319,"lon":5.35555,"is_reserved":false,"is_disabled":false,"rental_uris":{"android":"levelo://app?vid=1693dd50-6a69-4923-bac4-59cd8003e056","ios":"levelo://app?vid=1693dd50-6a69-4923-bac4-59cd8003e056"},"vehicle_type_id":"4","last_reported":1680455100,"current_range_meters":0,"station_id":"ce4bhgh2rcd13ifvqfb0","pricing_plan_id":"free"}]}}