{"last_updated":1743671430,"ttl":60,"version":"2.2","data":{"bikes":[{"bike_id":"7bdf0d60-3026-4723-ac07-ebb25b9cf79f","system_id":"levelo_inurba_marseille","lat":43.28818,"lon":5.38666,"is_reserved":false,"is_disabled":false,"rental_uris":{"android":"levelo://app?vid=7bdf0d60-3026-4723-ac07-ebb25b9cf79f","ios":"levelo://app?vid=7bdf0d60-3026-4723-ac07-ebb25b9cf79f"},"vehicle_type_id":"4","last_reported":1743671430,"current_range_meters":2800,"station_id":"","pricing_plan_id":"cebpf4jnsgd1na2vs0mg"},{"bike_id":"6081a567-9133-4ed7-ab59-3ee4737fc5c0","system_id":"levelo_inurba_marseille","lat":43.22935,"lon":5.35374,"is_reserved":false,"is_disabled":false,"rental_uris":{"android":"levelo://app?vid=6081a567-9133-4ed7-ab59-3ee4737fc5c0","ios":"levelo://app?vid=6081a567-9133-4ed7-ab59-3ee4737fc5c0"},"vehicle_type_id":"4","last_reported":1743671430,"current_range_meters":3200,"station_id":"cpo3532slgdg3j2ikp40","pricing_plan_id":"cebpf4jnsgd1na2vs0mg"},{"bike_id":"a550dd21-36d6-4963-bb0b-f32f956553a4","system_id":"levelo_inurba_marseille","lat":43.23148,"lon":5.43717,"is_reserved":false,"is_disabled":false,"rental_uris":{"android":"levelo://app?vid=a550dd21-36d6-4963-bb0b-f32f956553a4","ios":"levelo://app?vid=a550dd21-36d6-4963-bb0b-f32f956553a4"},"vehicle_type_id":"4","last_reported":1743671430,"current_range_meters":3200,"station_id":"ce4bhmp2rcd13ifvqgog","pricing_plan_id":"cebpf4jnsgd1na2vs0mg"},{"bike_id":"f06067fe-c409-49ce-b995-b28658dd37fb","system_id":"levelo_inurba_marseille","lat":43.28716,"lon":5.37364,"is_reserved":false,"is_disabled":true,"rental_uris":{"android":"levelo://app?vid=f06067fe-c409-49ce-b995-b28658dd37fb","ios":"levelo://app?vid=f06067fe-c409-49ce-b995-b28658dd37fb"},"vehicle_type_id":"4","last_reported":1743671430,"current_range_meters":4000,"station_id":"ce4bh3p2rcd13ifvqdq0","pricing_plan_id":"cebpf4jnsgd1na2vs0mg"},{"bike_id":"6a2a1694-7170-4edb-93e9-90248a3074d1","system_id":"levelo_inurba_marseille","lat":43.301367,"lon":5.387949,"is_reserved":false,"is_disabled":false,"rental_uris":{"android":"levelo://app?vid=6a2a1694-7170-4edb-93e9-90248a3074d1","ios":"levelo://app?vid=6a2a1694-7170-4edb-93e9-90248a3074d1"},"vehicle_type_id":"4","last_reported":1743671430,"current_range_meters":3600,"station_id":"ce4bgv12rcd13ifvqcp0","pricing_plan_id":"cebpf4jnsgd1na2vs0mg"},{"bike_id":"9a78f0e9-e849-47f7-8881-75badb2c66e9","system_id":"levelo_inurba_marseille","lat":43.30141,"lon":5.37409,"is_reserved":false,"is_disabled":false,"rental_uris":{"android":"levelo://app?vid=9a78f0e9-e849-47f7-8881-75badb2c66e9","ios":"levelo://app?vid=9a78f0e9-e849-47f7-8881-75badb2c66e9"},"vehicle_type_id":"4","last_reported":1743671430,"current_range_meters":4000,"station_id":"ce4bgs92rcd13ifvqcc0","pricing_plan_id":"cebpf4jnsgd1na2vs0mg"},{"bike_id":"48302313-0890-44fb-97d4-f7f3b5d44fd5","system_id":"levelo_inurba_marseille","lat":43.33107,"lon":5.40019,"is_reserved":false,"is_disabled":false,"rental_uris":{"android":"levelo://app?vid=48302313-0890-44fb-97d4-f7f3b5d44fd5","ios":"levelo://app?vid=48302313-0890-44fb-97d4-f7f3b5d44fd5"},"vehicle_type_id":"4","last_reported":1743671430,"current_range_meters":4400,"station_id":"","pricing_plan_id":"cebpf4jnsgd1na2vs0mg"},{"bike_id":"3e5329f3-c0cd-422c-afb1-2f46242590da","system_id":"levelo_inurba_marseille","lat":43.31918,"lon":5.37559,"is_reserved":false,"is_disabled":false,"rental_uris":{"android":"levelo://app?vid=3e5329f3-c0cd-422c-afb1-2f46242590da","ios":"levelo://app?vid=3e5329f3-c0cd-422c-afb1-2f46242590da"},"vehicle_type_id":"4","last_reported":1743671430,"current_range_meters":4800,"station_id":"","pricing_plan_id":"cebpf4jnsgd1na2vs0mg"},{"bike_id":"1331c791-6775-4642-afd5-40465ecccfa5","system_id":"levelo_inurba_marseille","lat":43.2408,"lon":5.37751,"is_reserved":false,"is_disabled":false,"rental_uris":{"android":"levelo://app?vid=1331c791-6775-4642-afd5-40465ecccfa5","ios":"levelo://app?vid=1331c791-6775-4642-afd5-40465ecccfa5"},"vehicle_type_id":"4","last_reported":1743671430,"current_range_meters":4800,"station_id":"ce4bhnp2rcd13ifvqgvg","pricing_plan_id":"cebpf4jnsgd1na2vs0mg"},{"bike_id":"12b5e061-2678-473f-9ed7-3d823c808278","system_id":"levelo_inurba_marseille","lat":43.24389,"lon":5.37046,"is_reserved":false,"is_disabled":false,"rental_uris":{"android":"levelo://app?vid=12b5e061-2678-473f-9ed7-3d823c808278","ios":"levelo://app?vid=12b5e061-2678-473f-9ed7-3d823c808278"},"vehicle_type_id":"4","last_reported":1743671430,"current_range_meters":5600,"station_id":"ce4bhhh2rcd13ifvqfk0","pricing_plan_id":"cebpf4jnsgd1na2vs0mg"},{"bike_id":"121b2536-df10-4977-ac74-b0979977fe60","system_id":"levelo_inurba_marseille","lat":43.337444,"lon":5.374475,"is_reserved":false,"is_disabled":false,"rental_uris":{"android":"levelo://app?vid=121b2536-df10-4977-ac74-b0979977fe60","ios":"levelo://app?vid=121b2536-df10-4977-ac74-b0979977fe60"},"vehicle_type_id":"4","last_reported":1743671430,"current_range_meters":5600,"station_id":"","pricing_plan_id":"cebpf4jnsgd1na2vs0mg"},{"bike_id":"39c94d58-86dd-4c73-88fa-10ad22a1d6b2","system_id":"levelo_inurba_marseille","lat":43.2309,"lon":5.43761,"is_reserved":false,"is_disabled":false,"rental_uris":{"android":"levelo://app?vid=39c94d58-86dd-4c73-88fa-10ad22a1d6b2","ios":"levelo://app?vid=39c94d58-86dd-4c73-88fa-10ad22a1d6b2"},"vehicle_type_id":"4","last_reported":1743671430,"current_range_meters":5600,"station_id":"ce4bhmp2rcd13ifvqgog","pricing_plan_id":"cebpf4jnsgd1na2vs0mg"},{"bike_id":"e53f9db2-d75c-4594-8157-2926a2062b6f","system_id":"levelo_inurba_marseille","lat":43.28489,"lon":5.39198,"is_reserved":false,"is_disabled":true,"rental_uris":{"android":"levelo://app?vid=e53f9db2-d75c-4594-8157-2926a2062b6f","ios":"levelo://app?vid=e53f9db2-d75c-4594-8157-2926a2062b6f"},"vehicle_type_id":"4","last_reported":1743671430,"current_range_meters":5600,"station_id":"ce4bhoh2rcd13ifvqh5g","pricing_plan_id":"cebpf4jnsgd1na2vs0mg"},{"bike_id":"14350ce3-21c1-4205-94f6-3870d6252324","system_id":"levelo_inurba_marseille","lat":43.24388,"lon":5.37051,"is_reserved":false,"is_disabled":false,"rental_uris":{"android":"levelo://app?vid=14350ce3-21c1-4205-94f6-3870d6252324","ios":"levelo://app?vid=14350ce3-21c1-4205-94f6-3870d6252324"},"vehicle_type_id":"4","last_reported":1743671430,"current_range_meters":5600,"station_id":"ce4bhhh2rcd13ifvqfk0","pricing_plan_id":"cebpf4jnsgd1na2vs0mg"},{"bike_id":"4f1c00e5-a79d-4f0b-ab4e-3bd2b06e7d2e","system_id":"levelo_inurba_marseille","lat":43.230577,"lon":5.355109,"is_reserved":false,"is_disabled":false,"rental_uris":{"android":"levelo://app?vid=4f1c00e5-a79d-4f0b-ab4e-3bd2b06e7d2e","ios":"levelo://app?vid=4f1c00e5-a79d-4f0b-ab4e-3bd2b06e7d2e"},"vehicle_type_id":"4","last_reported":1743671430,"current_range_meters":5600,"station_id":"cpo3342slgdg3j2ifvpg","pricing_plan_id":"cebpf4jnsgd1na2vs0mg"},{"bike_id":"2f0fc940-aee3-4909-b63a-dd631afb5605","system_id":"levelo_inurba_marseille","lat":43.26939,"lon":5.40258,"is_reserved":false,"is_disabled":false,"rental_uris":{"android":"levelo://app?vid=2f0fc940-aee3-4909-b63a-dd631afb5605","ios":"levelo://app?vid=2f0fc940-aee3-4909-b63a-dd631afb5605"},"vehicle_type_id":"4","last_reported":1743671430,"current_range_meters":5600,"station_id":"cjm6bp8fraef2m0cb0m0","pricing_plan_id":"cebpf4jnsgd1na2vs0mg"},{"bike_id":"f55695a6-b65f-4a30-99ab-94b2bfa63268","system_id":"levelo_inurba_marseille","lat":43.23191,"lon":5.35556,"is_reserved":false,"is_disabled":false,"rental_uris":{"android":"levelo://app?vid=f55695a6-b65f-4a30-99ab-94b2bfa63268","ios":"levelo://app?vid=f55695a6-b65f-4a30-99ab-94b2bfa63268"},"vehicle_type_id":"4","last_reported":1743671430,"current_range_meters":6000,"station_id":"ce4bhu92rcd13ifvqi70","pricing_plan_id":"cebpf4jnsgd1na2vs0mg"},{"bike_id":"a7d11798-7eaf-4f99-80ac-c9438018c0f0","system_id":"levelo_inurba_marseille","lat":43.24088,"lon":5.37744,"is_reserved":false,"is_disabled":false,"rental_uris":{"android":"levelo://app?vid=a7d11798-7eaf-4f99-80ac-c9438018c0f0","ios":"levelo://app?vid=a7d11798-7eaf-4f99-80ac-c9438018c0f0"},"vehicle_type_id":"4","last_reported":1743671430,"current_range_meters":6000,"station_id":"ce4bhnp2rcd13ifvqgvg","pricing_plan_id":"cebpf4jnsgd1na2vs0mg"},{"bike_id":"2cf61775-cb21-4b86-a7af-7925ef8f8bd8","system_id":"levelo_inurba_marseille","lat":43.22932,"lon":5.35379,"is_reserved":false,"is_disabled":false,"rental_uris":{"android":"levelo://app?vid=2cf61775-cb21-4b86-a7af-7925ef8f8bd8","ios":"levelo://app?vid=2cf61775-cb21-4b86-a7af-7925ef8f8bd8"},"vehicle_type_id":"4","last_reported":1743671430,"current_range_meters":6000,"station_id":"cpo3532slgdg3j2ikp40","pricing_plan_id":"cebpf4jnsgd1na2vs0mg"},{"bike_id":"0062d7e9-40e5-4dfa-91ac-8d23ba87f555","system_id":"levelo_inurba_marseille","lat":43.29846,"lon":5.36276,"is_reserved":false,"is_disabled":false,"rental_uris":{"android":"levelo://app?vid=0062d7e9-40e5-4dfa-91ac-8d23ba87f555","ios":"levelo://app?vid=0062d7e9-40e5-4dfa-91ac-8d23ba87f555"},"vehicle_type_id":"4","last_reported":1743671430,"current_range_meters":6000,"station_id":"ce4bgpp2rcd13ifvqc3g","pricing_plan_id":"cebpf4jnsgd1na2vs0mg"},{"bike_id":"a6c8e16e-e459-49ce-ae3e-99dcfde51ee9","system_id":"levelo_inurba_marseille","lat":43.26567,"lon":5.38995,"is_reserved":false,"is_disabled":false,"rental_uris":{"android":"levelo://app?vid=a6c8e16e-e459-49ce-ae3e-99dcfde51ee9","ios":"levelo://app?vid=a6c8e16e-e459-49ce-ae3e-99dcfde51ee9"},"vehicle_type_id":"4","last_reported":1743671430,"current_range_meters":6000,"station_id":"ce4bhe12rcd13ifvqf30","pricing_plan_id":"cebpf4jnsgd1na2vs0mg"},{"bike_id":"d157a8ac-f1ea-480a-a1ee-9ac00962bb01","system_id":"levelo_inurba_marseille","lat":43.29539,"lon":5.42263,"is_reserved":false,"is_disabled":false,"rental_uris":{"android":"levelo://app?vid=d157a8ac-f1ea-480a-a1ee-9ac00962bb01","ios":"levelo://app?vid=d157a8ac-f1ea-480a-a1ee-9ac00962bb01"},"vehicle_type_id":"4","last_reported":1743671430,"current_range_meters":6400,"station_id":"ce4bhph2rcd13ifvqhdg","pricing_plan_id":"cebpf4jnsgd1na2vs0mg"},{"bike_id":"cac85c15-3bb7-47ec-b160-55671fed8c53","system_id":"levelo_inurba_marseille","lat":43.31488,"lon":5.373075,"is_reserved":false,"is_disabled":false,"rental_uris":{"android":"levelo://app?vid=cac85c15-3bb7-47ec-b160-55671fed8c53","ios":"levelo://app?vid=cac85c15-3bb7-47ec-b160-55671fed8c53"},"vehicle_type_id":"4","last_reported":1743671430,"current_range_meters":6400,"station_id":"ce4bgt12rcd13ifvqcd0","pricing_plan_id":"cebpf4jnsgd1na2vs0mg"},{"bike_id":"d3345442-2654-4ddc-b869-fce22decea38","system_id":"levelo_inurba_marseille","lat":43.2307,"lon":5.35501,"is_reserved":false,"is_disabled":false,"rental_uris":{"android":"levelo://app?vid=d3345442-2654-4ddc-b869-fce22decea38","ios":"levelo://app?vid=d3345442-2654-4ddc-b869-fce22decea38"},"vehicle_type_id":"4","last_reported":1743671430,"current_range_meters":6400,"station_id":"cpo3342slgdg3j2ifvpg","pricing_plan_id":"cebpf4jnsgd1na2vs0mg"},{"bike_id":"e4fb6703-335f-4c1a-adf3-2ac94e0eea37","system_id":"levelo_inurba_marseille","lat":43.28441,"lon":5.39185,"is_reserved":false,"is_disabled":false,"rental_uris":{"android":"levelo://app?vid=e4fb6703-335f-4c1a-adf3-2ac94e0eea37","ios":"levelo://app?vid=e4fb6703-335f-4c1a-adf3-2ac94e0eea37"},"vehicle_type_id":"4","last_reported":1743671430,"current_range_meters":6400,"station_id":"ce4bhoh2rcd13ifvqh5g","pricing_plan_id":"cebpf4jnsgd1na2vs0mg"},{"bike_id":"eb1723e2-7d01-4cf0-ad22-71299ca2c61c","system_id":"levelo_inurba_marseille","lat":43.29318,"lon":5.37178,"is_reserved":false,"is_disabled":true,"rental_uris":{"android":"levelo://app?vid=eb1723e2-7d01-4cf0-ad22-71299ca2c61c","ios":"levelo://app?vid=eb1723e2-7d01-4cf0-ad22-71299ca2c61c"},"vehicle_type_id":"4","last_reported":1743671430,"current_range_meters":6800,"station_id":"ce4bgh92rcd13ifvqb40","pricing_plan_id":"cebpf4jnsgd1na2vs0mg"},{"bike_id":"b80ee275-2592-4659-b2e9-175feb839700","system_id":"levelo_inurba_marseille","lat":43.23215,"lon":5.3555,"is_reserved":false,"is_disabled":false,"rental_uris":{"android":"levelo://app?vid=b80ee275-2592-4659-b2e9-175feb839700","ios":"levelo://app?vid=b80ee275-2592-4659-b2e9-175feb839700"},"vehicle_type_id":"4","last_reported":1743671430,"current_range_meters":6800,"station_id":"ce4bhu92rcd13ifvqi70","pricing_plan_id":"cebpf4jnsgd1na2vs0mg"},{"bike_id":"d1c0b0aa-686c-46ac-a54e-c913c9582ae4","system_id":"levelo_inurba_marseille","lat":43.273208,"lon":5.39133,"is_reserved":false,"is_disabled":false,"rental_uris":{"android":"levelo://app?vid=d1c0b0aa-686c-46ac-a54e-c913c9582ae4","ios":"levelo://app?vid=d1c0b0aa-686c-46ac-a54e-c913c9582ae4"},"vehicle_type_id":"4","last_reported":1743671430,"current_range_meters":6800,"station_id":"ce4bhgp2rcd13ifvqfe0","pricing_plan_id":"cebpf4jnsgd1na2vs0mg"},{"bike_id":"7bc507c4-187b-4cb2-a5ef-07322f924baf","system_id":"levelo_inurba_marseille","lat":43.2293,"lon":5.35384,"is_reserved":false,"is_disabled":false,"rental_uris":{"android":"levelo://app?vid=7bc507c4-187b-4cb2-a5ef-07322f924baf","ios":"levelo://app?vid=7bc507c4-187b-4cb2-a5ef-07322f924baf"},"vehicle_type_id":"4","last_reported":1743671430,"current_range_meters":6800,"station_id":"cpo3532slgdg3j2ikp40","pricing_plan_id":"cebpf4jnsgd1na2vs0mg"},{"bike_id":"54fe4193-4a71-4120-926d-2460e18bf146","system_id":"levelo_inurba_marseille","lat":43.2748,"lon":5.4243,"is_reserved":false,"is_disabled":false,"rental_uris":{"android":"levelo://app?vid=54fe4193-4a71-4120-926d-2460e18bf146","ios":"levelo://app?vid=54fe4193-4a71-4120-926d-2460e18bf146"},"vehicle_type_id":"4","last_reported":1743671430,"current_range_meters":6800,"station_id":"ce4bhn92rcd13ifvqgrg","pricing_plan_id":"cebpf4jnsgd1na2vs0mg"},{"bike_id":"8d5b971e-28a3-40d2-975a-686cbf6dfadd","system_id":"levelo_inurba_marseille","lat":43.29552,"lon":5.42276,"is_reserved":false,"is_disabled":false,"rental_uris":{"android":"levelo://app?vid=8d5b971e-28a3-40d2-975a-686cbf6dfadd","ios":"levelo://app?vid=8d5b971e-28a3-40d2-975a-686cbf6dfadd"},"vehicle_type_id":"4","last_reported":1743671430,"current_range_meters":6800,"station_id":"ce4bhph2rcd13ifvqhdg","pricing_plan_id":"cebpf4jnsgd1na2vs0mg"},{"bike_id":"fe147b08-794f-4cc8-a62c-e589ca5791a1","system_id":"levelo_inurba_marseille","lat":43.2593,"lon":5.40872,"is_reserved":false,"is_disabled":false,"rental_uris":{"android":"levelo://app?vid=fe147b08-794f-4cc8-a62c-e589ca5791a1","ios":"levelo://app?vid=fe147b08-794f-4cc8-a62c-e589ca5791a1"},"vehicle_type_id":"4","last_reported":1743671430,"current_range_meters":6800,"station_id":"ce4bhm92rcd13ifvqglg","pricing_plan_id":"cebpf4jnsgd1na2vs0mg"},{"bike_id":"9fd868ca-6ca2-4756-bac9-da1743cb8424","system_id":"levelo_inurba_marseille","lat":43.309213,"lon":5.368463,"is_reserved":false,"is_disabled":false,"rental_uris":{"android":"levelo://app?vid=9fd868ca-6ca2-4756-bac9-da1743cb8424","ios":"levelo://app?vid=9fd868ca-6ca2-4756-bac9-da1743cb8424"},"vehicle_type_id":"4","last_reported":1743671430,"current_range_meters":6800,"station_id":"ce4bgn92rcd13ifvqbvg","pricing_plan_id":"cebpf4jnsgd1na2vs0mg"},{"bike_id":"ae26cbf8-6055-47f7-a0dd-13f557b6fb66","system_id":"levelo_inurba_marseille","lat":43.29226,"lon":5.36059,"is_reserved":false,"is_disabled":false,"rental_uris":{"android":"levelo://app?vid=ae26cbf8-6055-47f7-a0dd-13f557b6fb66","ios":"levelo://app?vid=ae26cbf8-6055-47f7-a0dd-13f557b6fb66"},"vehicle_type_id":"4","last_reported":1743671430,"current_range_meters":6800,"station_id":"ce4bhbh2rcd13ifvqeqg","pricing_plan_id":"cebpf4jnsgd1na2vs0mg"},{"bike_id":"8f3e1b2f-5b30-4481-b392-2bb03a617956","system_id":"levelo_inurba_marseille","lat":43.28619,"lon":5.3707,"is_reserved":false,"is_disabled":false,"rental_uris":{"android":"levelo://app?vid=8f3e1b2f-5b30-4481-b392-2bb03a617956","ios":"levelo://app?vid=8f3e1b2f-5b30-4481-b392-2bb03a617956"},"vehicle_type_id":"4","last_reported":1743671430,"current_range_meters":7200,"station_id":"ce4bht12rcd13ifvqi60","pricing_plan_id":"cebpf4jnsgd1na2vs0mg"},{"bike_id":"988a4b2a-1fca-4561-9342-57ad8b6adb1c","system_id":"levelo_inurba_marseille","lat":43.22925,"lon":5.35358,"is_reserved":false,"is_disabled":false,"rental_uris":{"android":"levelo://app?vid=988a4b2a-1fca-4561-9342-57ad8b6adb1c","ios":"levelo://app?vid=988a4b2a-1fca-4561-9342-57ad8b6adb1c"},"vehicle_type_id":"4","last_reported":1743671430,"current_range_meters":7200,"station_id":"cpo3532slgdg3j2ikp40","pricing_plan_id":"cebpf4jnsgd1na2vs0mg"},{"bike_id":"1e56f8b0-0569-43fd-956b-7c3d45c8ba02","system_id":"levelo_inurba_marseille","lat":43.29329,"lon":5.41146,"is_reserved":false,"is_disabled":false,"rental_uris":{"android":"levelo://app?vid=1e56f8b0-0569-43fd-956b-7c3d45c8ba02","ios":"levelo://app?vid=1e56f8b0-0569-43fd-956b-7c3d45c8ba02"},"vehicle_type_id":"4","last_reported":1743671430,"current_range_meters":7200,"station_id":"","pricing_plan_id":"cebpf4jnsgd1na2vs0mg"},{"bike_id":"a112ce08-6f4e-41f2-873e-94895f2e1506","system_id":"levelo_inurba_marseille","lat":43.27646,"lon":5.38863,"is_reserved":false,"is_disabled":true,"rental_uris":{"android":"levelo://app?vid=a112ce08-6f4e-41f2-873e-94895f2e1506","ios":"levelo://app?vid=a112ce08-6f4e-41f2-873e-94895f2e1506"},"vehicle_type_id":"4","last_reported":1743671430,"current_range_meters":7200,"station_id":"ce4bhi12rcd13ifvqfo0","pricing_plan_id":"cebpf4jnsgd1na2vs0mg"},{"bike_id":"d53777c8-71ae-4227-ab5d-b5d248512007","system_id":"levelo_inurba_marseille","lat":43.23143,"lon":5.43719,"is_reserved":false,"is_disabled":false,"rental_uris":{"android":"levelo://app?vid=d53777c8-71ae-4227-ab5d-b5d248512007","ios":"levelo://app?vid=d53777c8-71ae-4227-ab5d-b5d248512007"},"vehicle_type_id":"4","last_reported":1743671430,"current_range_meters":7200,"station_id":"ce4bhmp2rcd13ifvqgog","pricing_plan_id":"cebpf4jnsgd1na2vs0mg"},{"bike_id":"ff42135b-10ff-470e-83ab-bdd8bc43bd8e","system_id":"levelo_inurba_marseille","lat":43.2408,"lon":5.37734,"is_reserved":false,"is_disabled":false,"rental_uris":{"android":"levelo://app?vid=ff42135b-10ff-470e-83ab-bdd8bc43bd8e","ios":"levelo://app?vid=ff42135b-10ff-470e-83ab-bdd8bc43bd8e"},"vehicle_type_id":"4","last_reported":1743671430,"current_range_meters":7200,"station_id":"ce4bhnp2rcd13ifvqgvg","pricing_plan_id":"cebpf4jnsgd1na2vs0mg"},{"bike_id":"f6847e46-c8b3-4c0c-b4dd-f8196810b43d","system_id":"levelo_inurba_marseille","lat":43.23154,"lon":5.437,"is_reserved":false,"is_disabled":false,"rental_uris":{"android":"levelo://app?vid=f6847e46-c8b3-4c0c-b4dd-f8196810b43d","ios":"levelo://app?vid=f6847e46-c8b3-4c0c-b4dd-f8196810b43d"},"vehicle_type_id":"4","last_reported":1743671430,"current_range_meters":6800,"station_id":"ce4bhmp2rcd13ifvqgog","pricing_plan_id":"cebpf4jnsgd1na2vs0mg"},{"bike_id":"634397d6-3e53-45ab-b5ae-102ac30306ca","system_id":"levelo_inurba_marseille","lat":43.25939,"lon":5.40901,"is_reserved":false,"is_disabled":false,"rental_uris":{"android":"levelo://app?vid=634397d6-3e53-45ab-b5ae-102ac30306ca","ios":"levelo://app?vid=634397d6-3e53-45ab-b5ae-102ac30306ca"},"vehicle_type_id":"4","last_reported":1743671430,"current_range_meters":7200,"station_id":"ce4bhm92rcd13ifvqglg","pricing_plan_id":"cebpf4jnsgd1na2vs0mg"},{"bike_id":"9e898bf6-7c3b-46f2-b158-f8c5de38c9db","system_id":"levelo_inurba_marseille","lat":43.24065,"lon":5.37682,"is_reserved":false,"is_disabled":false,"rental_uris":{"android":"levelo://app?vid=9e898bf6-7c3b-46f2-b158-f8c5de38c9db","ios":"levelo://app?vid=9e898bf6-7c3b-46f2-b158-f8c5de38c9db"},"vehicle_type_id":"4","last_reported":1743671430,"current_range_meters":7200,"station_id":"","pricing_plan_id":"cebpf4jnsgd1na2vs0mg"},{"bike_id":"d1b739f8-f045-48ea-ab03-85c23fdd050c","system_id":"levelo_inurba_marseille","lat":43.24086,"lon":5.37739,"is_reserved":false,"is_disabled":false,"rental_uris":{"android":"levelo://app?vid=d1b739f8-f045-48ea-ab03-85c23fdd050c","ios":"levelo://app?vid=d1b739f8-f045-48ea-ab03-85c23fdd050c"},"vehicle_type_id":"4","last_reported":1743671430,"current_range_meters":7200,"station_id":"ce4bhnp2rcd13ifvqgvg","pricing_plan_id":"cebpf4jnsgd1na2vs0mg"},{"bike_id":"282c8a95-c2b2-418d-b472-df38a1525c51","system_id":"levelo_inurba_marseille","lat":43.26598,"lon":5.3904,"is_reserved":false,"is_disabled":false,"rental_uris":{"android":"levelo://app?vid=282c8a95-c2b2-418d-b472-df38a1525c51","ios":"levelo://app?vid=282c8a95-c2b2-418d-b472-df38a1525c51"},"vehicle_type_id":"4","last_reported":1743671430,"current_range_meters":8000,"station_id":"ce4bhe12rcd13ifvqf30","pricing_plan_id":"cebpf4jnsgd1na2vs0mg"},{"bike_id":"04556df8-715f-45d8-b288-9c8fd51282f9","system_id":"levelo_inurba_marseille","lat":43.23194,"lon":5.35551,"is_reserved":false,"is_disabled":false,"rental_uris":{"android":"levelo://app?vid=04556df8-715f-45d8-b288-9c8fd51282f9","ios":"levelo://app?vid=04556df8-715f-45d8-b288-9c8fd51282f9"},"vehicle_type_id":"4","last_reported":1743671430,"current_range_meters":8000,"station_id":"ce4bhu92rcd13ifvqi70","pricing_plan_id":"cebpf4jnsgd1na2vs0mg"},{"bike_id":"3b948fbe-ea54-4e7f-8a80-214f816bc66c","system_id":"levelo_inurba_marseille","lat":43.24161,"lon":5.3972,"is_reserved":false,"is_disabled":false,"rental_uris":{"android":"levelo://app?vid=3b948fbe-ea54-4e7f-8a80-214f816bc66c","ios":"levelo://app?vid=3b948fbe-ea54-4e7f-8a80-214f816bc66c"},"vehicle_type_id":"4","last_reported":1743671430,"current_range_meters":8000,"station_id":"ce4bhn12rcd13ifvqgpg","pricing_plan_id":"cebpf4jnsgd1na2vs0mg"},{"bike_id":"f87e996c-206a-47d9-8697-84a2d463fdc3","system_id":"levelo_inurba_marseille","lat":43.23193,"lon":5.35554,"is_reserved":false,"is_disabled":false,"rental_uris":{"android":"levelo://app?vid=f87e996c-206a-47d9-8697-84a2d463fdc3","ios":"levelo://app?vid=f87e996c-206a-47d9-8697-84a2d463fdc3"},"vehicle_type_id":"4","last_reported":1743671430,"current_range_meters":8000,"station_id":"ce4bhu92rcd13ifvqi70","pricing_plan_id":"cebpf4jnsgd1na2vs0mg"},{"bike_id":"02d5e8b2-387a-403a-bd4b-bd16b7846cf0","system_id":"levelo_inurba_marseille","lat":43.24155,"lon":5.39708,"is_reserved":false,"is_disabled":false,"rental_uris":{"android":"levelo://app?vid=02d5e8b2-387a-403a-bd4b-bd16b7846cf0","ios":"levelo://app?vid=02d5e8b2-387a-403a-bd4b-bd16b7846cf0"},"vehicle_type_id":"4","last_reported":1743671430,"current_range_meters":8000,"station_id":"ce4bhn12rcd13ifvqgpg","pricing_plan_id":"cebpf4jnsgd1na2vs0mg"},{"bike_id":"3945780b-3464-4b52-8543-cf05282ae10d","system_id":"levelo_inurba_marseille","lat":43.312065,"lon":5.368692,"is_reserved":false,"is_disabled":false,"rental_uris":{"android":"levelo://app?vid=3945780b-3464-4b52-8543-cf05282ae10d","ios":"levelo://app?vid=3945780b-3464-4b52-8543-cf05282ae10d"},"vehicle_type_id":"4","last_reported":1743671430,"current_range_meters":8000,"station_id":"ce4bgl92rcd13ifvqbq0","pricing_plan_id":"cebpf4jnsgd1na2vs0mg"},{"bike_id":"05f613f6-c91e-4b85-9f58-7470d57bd4fe","system_id":"levelo_inurba_marseille","lat":43.315,"lon":5.37263,"is_reserved":false,"is_disabled":true,"rental_uris":{"android":"levelo://app?vid=05f613f6-c91e-4b85-9f58-7470d57bd4fe","ios":"levelo://app?vid=05f613f6-c91e-4b85-9f58-7470d57bd4fe"},"vehicle_type_id":"4","last_reported":1743671430,"current_range_meters":8000,"station_id":"ce4bgt12rcd13ifvqcd0","pricing_plan_id":"cebpf4jnsgd1na2vs0mg"},{"bike_id":"c13962cb-474e-4e8e-b6f2-e3bb01716342","system_id":"levelo_inurba_marseille","lat":43.30544,"lon":5.36539,"is_reserved":false,"is_disabled":false,"rental_uris":{"android":"levelo://app?vid=c13962cb-474e-4e8e-b6f2-e3bb01716342","ios":"levelo://app?vid=c13962cb-474e-4e8e-b6f2-e3bb01716342"},"vehicle_type_id":"4","last_reported":1743671430,"current_range_meters":8000,"station_id":"ce4bgs12rcd13ifvqcag","pricing_plan_id":"cebpf4jnsgd1na2vs0mg"},{"bike_id":"c8c097cc-00f2-49a0-9238-138b03cf8284","system_id":"levelo_inurba_marseille","lat":43.2315,"lon":5.43715,"is_reserved":false,"is_disabled":false,"rental_uris":{"android":"levelo://app?vid=c8c097cc-00f2-49a0-9238-138b03cf8284","ios":"levelo://app?vid=c8c097cc-00f2-49a0-9238-138b03cf8284"},"vehicle_type_id":"4","last_reported":1743671430,"current_range_meters":8000,"station_id":"ce4bhmp2rcd13ifvqgog","pricing_plan_id":"cebpf4jnsgd1na2vs0mg"},{"bike_id":"546380d0-0813-4737-817f-a21e056e8d2e","system_id":"levelo_inurba_marseille","lat":43.32354,"lon":5.36745,"is_reserved":false,"is_disabled":false,"rental_uris":{"android":"levelo://app?vid=546380d0-0813-4737-817f-a21e056e8d2e","ios":"levelo://app?vid=546380d0-0813-4737-817f-a21e056e8d2e"},"vehicle_type_id":"4","last_reported":1743671430,"current_range_meters":8000,"station_id":"ce4bhsh2rcd13ifvqi2g","pricing_plan_id":"cebpf4jnsgd1na2vs0mg"},{"bike_id":"2e1d0491-8046-4a1c-910c-6d230f4ca468","system_id":"levelo_inurba_marseille","lat":43.3068,"lon":5.37357,"is_reserved":false,"is_disabled":false,"rental_uris":{"android":"levelo://app?vid=2e1d0491-8046-4a1c-910c-6d230f4ca468","ios":"levelo://app?vid=2e1d0491-8046-4a1c-910c-6d230f4ca468"},"vehicle_type_id":"4","last_reported":1743671430,"current_range_meters":8000,"station_id":"","pricing_plan_id":"cebpf4jnsgd1na2vs0mg"},{"bike_id":"ba1f99d1-7f04-4262-8727-9b2fd914c530","system_id":"levelo_inurba_marseille","lat":43.30564,"lon":5.36683,"is_reserved":false,"is_disabled":false,"rental_uris":{"android":"levelo://app?vid=ba1f99d1-7f04-4262-8727-9b2fd914c530","ios":"levelo://app?vid=ba1f99d1-7f04-4262-8727-9b2fd914c530"},"vehicle_type_id":"4","last_reported":1743671430,"current_range_meters":8400,"station_id":"ce4bgrp2rcd13ifvqc9g","pricing_plan_id":"cebpf4jnsgd1na2vs0mg"},{"bike_id":"ecac53c7-1761-431e-93a5-c1352259aa2f","system_id":"levelo_inurba_marseille","lat":43.28934,"lon":5.46533,"is_reserved":false,"is_disabled":false,"rental_uris":{"android":"levelo://app?vid=ecac53c7-1761-431e-93a5-c1352259aa2f","ios":"levelo://app?vid=ecac53c7-1761-431e-93a5-c1352259aa2f"},"vehicle_type_id":"4","last_reported":1743671430,"current_range_meters":8400,"station_id":"","pricing_plan_id":"cebpf4jnsgd1na2vs0mg"},{"bike_id":"b2930fb6-6860-48e9-ae27-435a49c66121","system_id":"levelo_inurba_marseille","lat":43.26686,"lon":5.38273,"is_reserved":false,"is_disabled":true,"rental_uris":{"android":"levelo://app?vid=b2930fb6-6860-48e9-ae27-435a49c66121","ios":"levelo://app?vid=b2930fb6-6860-48e9-ae27-435a49c66121"},"vehicle_type_id":"4","last_reported":1743671430,"current_range_meters":8400,"station_id":"ce4bhg92rcd13ifvqf90","pricing_plan_id":"cebpf4jnsgd1na2vs0mg"},{"bike_id":"32a978e0-d0c2-43d4-9b03-19a5c41c27de","system_id":"levelo_inurba_marseille","lat":43.3107,"lon":5.38362,"is_reserved":false,"is_disabled":true,"rental_uris":{"android":"levelo://app?vid=32a978e0-d0c2-43d4-9b03-19a5c41c27de","ios":"levelo://app?vid=32a978e0-d0c2-43d4-9b03-19a5c41c27de"},"vehicle_type_id":"4","last_reported":1743671430,"current_range_meters":8400,"station_id":"ce4bgv92rcd13ifvqcr0","pricing_plan_id":"cebpf4jnsgd1na2vs0mg"},{"bike_id":"d97c6895-9a58-42bd-9edc-053f218b5b60","system_id":"levelo_inurba_marseille","lat":43.29575,"lon":5.36378,"is_reserved":false,"is_disabled":false,"rental_uris":{"android":"levelo://app?vid=d97c6895-9a58-42bd-9edc-053f218b5b60","ios":"levelo://app?vid=d97c6895-9a58-42bd-9edc-053f218b5b60"},"vehicle_type_id":"4","last_reported":1743671430,"current_range_meters":8400,"station_id":"","pricing_plan_id":"cebpf4jnsgd1na2vs0mg"},{"bike_id":"8bb976a6-ca6f-4ccb-b947-4cf5788cd68f","system_id":"levelo_inurba_marseille","lat":43.28428,"lon":5.3497,"is_reserved":false,"is_disabled":false,"rental_uris":{"android":"levelo://app?vid=8bb976a6-ca6f-4ccb-b947-4cf5788cd68f","ios":"levelo://app?vid=8bb976a6-ca6f-4ccb-b947-4cf5788cd68f"},"vehicle_type_id":"4","last_reported":1743671430,"current_range_meters":8400,"station_id":"ce4bhbh2rcd13ifvqepg","pricing_plan_id":"cebpf4jnsgd1na2vs0mg"},{"bike_id":"4efe08bc-3ed4-4dd1-ad00-43917e8a6048","system_id":"levelo_inurba_marseille","lat":43.28108,"lon":5.37823,"is_reserved":false,"is_disabled":false,"rental_uris":{"android":"levelo://app?vid=4efe08bc-3ed4-4dd1-ad00-43917e8a6048","ios":"levelo://app?vid=4efe08bc-3ed4-4dd1-ad00-43917e8a6048"},"vehicle_type_id":"4","last_reported":1743671430,"current_range_meters":8400,"station_id":"ce4bha12rcd13ifvqee0","pricing_plan_id":"cebpf4jnsgd1na2vs0mg"},{"bike_id":"077a1457-05ce-40eb-848c-d21a2d99d665","system_id":"levelo_inurba_marseille","lat":43.30542,"lon":5.36708,"is_reserved":false,"is_disabled":false,"rental_uris":{"android":"levelo://app?vid=077a1457-05ce-40eb-848c-d21a2d99d665","ios":"levelo://app?vid=077a1457-05ce-40eb-848c-d21a2d99d665"},"vehicle_type_id":"4","last_reported":1743671430,"current_range_meters":8400,"station_id":"ce4bgrp2rcd13ifvqc9g","pricing_plan_id":"cebpf4jnsgd1na2vs0mg"},{"bike_id":"75dae32f-059a-4b5b-a5e8-963c6eda2f66","system_id":"levelo_inurba_marseille","lat":43.27536,"lon":5.40988,"is_reserved":false,"is_disabled":false,"rental_uris":{"android":"levelo://app?vid=75dae32f-059a-4b5b-a5e8-963c6eda2f66","ios":"levelo://app?vid=75dae32f-059a-4b5b-a5e8-963c6eda2f66"},"vehicle_type_id":"4","last_reported":1743671430,"current_range_meters":8400,"station_id":"","pricing_plan_id":"cebpf4jnsgd1na2vs0mg"},{"bike_id":"c2e6881a-04a3-4a38-9cc0-75cacf165e78","system_id":"levelo_inurba_marseille","lat":43.28832,"lon":5.364645,"is_reserved":false,"is_disabled":false,"rental_uris":{"android":"levelo://app?vid=c2e6881a-04a3-4a38-9cc0-75cacf165e78","ios":"levelo://app?vid=c2e6881a-04a3-4a38-9cc0-75cacf165e78"},"vehicle_type_id":"4","last_reported":1743671430,"current_range_meters":8800,"station_id":"","pricing_plan_id":"cebpf4jnsgd1na2vs0mg"},{"bike_id":"e0318588-875c-469f-92ed-8c122f99d869","system_id":"levelo_inurba_marseille","lat":43.26953,"lon":5.38627,"is_reserved":false,"is_disabled":false,"rental_uris":{"android":"levelo://app?vid=e0318588-875c-469f-92ed-8c122f99d869","ios":"levelo://app?vid=e0318588-875c-469f-92ed-8c122f99d869"},"vehicle_type_id":"4","last_reported":1743671430,"current_range_meters":8800,"station_id":"ce4bhh92rcd13ifvqfh0","pricing_plan_id":"cebpf4jnsgd1na2vs0mg"},{"bike_id":"b5fa61b4-55c0-4d0f-b518-f0583e71aca3","system_id":"levelo_inurba_marseille","lat":43.22932,"lon":5.35383,"is_reserved":false,"is_disabled":false,"rental_uris":{"android":"levelo://app?vid=b5fa61b4-55c0-4d0f-b518-f0583e71aca3","ios":"levelo://app?vid=b5fa61b4-55c0-4d0f-b518-f0583e71aca3"},"vehicle_type_id":"4","last_reported":1743671430,"current_range_meters":8800,"station_id":"cpo3532slgdg3j2ikp40","pricing_plan_id":"cebpf4jnsgd1na2vs0mg"},{"bike_id":"806f15f5-826d-41fe-94bf-7198bfd375b1","system_id":"levelo_inurba_marseille","lat":43.23137,"lon":5.43731,"is_reserved":false,"is_disabled":false,"rental_uris":{"android":"levelo://app?vid=806f15f5-826d-41fe-94bf-7198bfd375b1","ios":"levelo://app?vid=806f15f5-826d-41fe-94bf-7198bfd375b1"},"vehicle_type_id":"4","last_reported":1743671430,"current_range_meters":8800,"station_id":"ce4bhmp2rcd13ifvqgog","pricing_plan_id":"cebpf4jnsgd1na2vs0mg"},{"bike_id":"b6c83da9-b3c4-4843-9a1d-36871e12515b","system_id":"levelo_inurba_marseille","lat":43.26118,"lon":5.41466,"is_reserved":false,"is_disabled":false,"rental_uris":{"android":"levelo://app?vid=b6c83da9-b3c4-4843-9a1d-36871e12515b","ios":"levelo://app?vid=b6c83da9-b3c4-4843-9a1d-36871e12515b"},"vehicle_type_id":"4","last_reported":1743671430,"current_range_meters":8800,"station_id":"","pricing_plan_id":"cebpf4jnsgd1na2vs0mg"},{"bike_id":"e1b03b21-5eb0-483c-b4ac-ea8a29304382","system_id":"levelo_inurba_marseille","lat":43.23074,"lon":5.35498,"is_reserved":false,"is_disabled":false,"rental_uris":{"android":"levelo://app?vid=e1b03b21-5eb0-483c-b4ac-ea8a29304382","ios":"levelo://app?vid=e1b03b21-5eb0-483c-b4ac-ea8a29304382"},"vehicle_type_id":"4","last_reported":1743671430,"current_range_meters":9200,"station_id":"cpo3342slgdg3j2ifvpg","pricing_plan_id":"cebpf4jnsgd1na2vs0mg"},{"bike_id":"915a352d-4bee-44a6-acdd-d714f3d678fb","system_id":"levelo_inurba_marseille","lat":43.27489,"lon":5.42463,"is_reserved":false,"is_disabled":false,"rental_uris":{"android":"levelo://app?vid=915a352d-4bee-44a6-acdd-d714f3d678fb","ios":"levelo://app?vid=915a352d-4bee-44a6-acdd-d714f3d678fb"},"vehicle_type_id":"4","last_reported":1743671430,"current_range_meters":9200,"station_id":"ce4bhn92rcd13ifvqgrg","pricing_plan_id":"cebpf4jnsgd1na2vs0mg"},{"bike_id":"345304ce-8498-4175-98ff-4f4db3e85b01","system_id":"levelo_inurba_marseille","lat":43.29226,"lon":5.36073,"is_reserved":false,"is_disabled":false,"rental_uris":{"android":"levelo://app?vid=345304ce-8498-4175-98ff-4f4db3e85b01","ios":"levelo://app?vid=345304ce-8498-4175-98ff-4f4db3e85b01"},"vehicle_type_id":"4","last_reported":1743671430,"current_range_meters":9200,"station_id":"ce4bhbh2rcd13ifvqeqg","pricing_plan_id":"cebpf4jnsgd1na2vs0mg"},{"bike_id":"dc4f0ef1-7213-4ac4-9b2f-cb477b14e1c8","system_id":"levelo_inurba_marseille","lat":43.29841,"lon":5.36269,"is_reserved":false,"is_disabled":false,"rental_uris":{"android":"levelo://app?vid=dc4f0ef1-7213-4ac4-9b2f-cb477b14e1c8","ios":"levelo://app?vid=dc4f0ef1-7213-4ac4-9b2f-cb477b14e1c8"},"vehicle_type_id":"4","last_reported":1743671430,"current_range_meters":9200,"station_id":"ce4bgpp2rcd13ifvqc3g","pricing_plan_id":"cebpf4jnsgd1na2vs0mg"},{"bike_id":"3374421a-949f-40b6-870f-59a2d8ba0de4","system_id":"levelo_inurba_marseille","lat":43.24171,"lon":5.36397,"is_reserved":false,"is_disabled":false,"rental_uris":{"android":"levelo://app?vid=3374421a-949f-40b6-870f-59a2d8ba0de4","ios":"levelo://app?vid=3374421a-949f-40b6-870f-59a2d8ba0de4"},"vehicle_type_id":"4","last_reported":1743671430,"current_range_meters":9200,"station_id":"cpo36qri1sfpv3e86is0","pricing_plan_id":"cebpf4jnsgd1na2vs0mg"},{"bike_id":"69308f1e-8bda-4393-ae6a-91f89142be75","system_id":"levelo_inurba_marseille","lat":43.29206,"lon":5.36087,"is_reserved":false,"is_disabled":false,"rental_uris":{"android":"levelo://app?vid=69308f1e-8bda-4393-ae6a-91f89142be75","ios":"levelo://app?vid=69308f1e-8bda-4393-ae6a-91f89142be75"},"vehicle_type_id":"4","last_reported":1743671430,"current_range_meters":9200,"station_id":"ce4bhbh2rcd13ifvqeqg","pricing_plan_id":"cebpf4jnsgd1na2vs0mg"},{"bike_id":"1b30370b-7ae8-48ba-a37d-187a7932b814","system_id":"levelo_inurba_marseille","lat":43.31075,"lon":5.38359,"is_reserved":false,"is_disabled":false,"rental_uris":{"android":"levelo://app?vid=1b30370b-7ae8-48ba-a37d-187a7932b814","ios":"levelo://app?vid=1b30370b-7ae8-48ba-a37d-187a7932b814"},"vehicle_type_id":"4","last_reported":1743671430,"current_range_meters":9200,"station_id":"ce4bgv92rcd13ifvqcr0","pricing_plan_id":"cebpf4jnsgd1na2vs0mg"},{"bike_id":"0216e199-355e-495b-9b9b-d8407d802ed7","system_id":"levelo_inurba_marseille","lat":43.25866,"lon":5.39918,"is_reserved":false,"is_disabled":false,"rental_uris":{"android":"levelo://app?vid=0216e199-355e-495b-9b9b-d8407d802ed7","ios":"levelo://app?vid=0216e199-355e-495b-9b9b-d8407d802ed7"},"vehicle_type_id":"4","last_reported":1743671430,"current_range_meters":9200,"station_id":"ce4bhl92rcd13ifvqghg","pricing_plan_id":"cebpf4jnsgd1na2vs0mg"},{"bike_id":"7c9ec62f-9f7e-499c-ad91-369d042af553","system_id":"levelo_inurba_marseille","lat":43.29293,"lon":5.37456,"is_reserved":false,"is_disabled":false,"rental_uris":{"android":"levelo://app?vid=7c9ec62f-9f7e-499c-ad91-369d042af553","ios":"levelo://app?vid=7c9ec62f-9f7e-499c-ad91-369d042af553"},"vehicle_type_id":"4","last_reported":1743671430,"current_range_meters":9200,"station_id":"ce4bgi12rcd13ifvqb70","pricing_plan_id":"cebpf4jnsgd1na2vs0mg"},{"bike_id":"1cb8ecf9-2932-488e-8915-5bc9b246acd6","system_id":"levelo_inurba_marseille","lat":43.31511,"lon":5.37281,"is_reserved":false,"is_disabled":false,"rental_uris":{"android":"levelo://app?vid=1cb8ecf9-2932-488e-8915-5bc9b246acd6","ios":"levelo://app?vid=1cb8ecf9-2932-488e-8915-5bc9b246acd6"},"vehicle_type_id":"4","last_reported":1743671430,"current_range_meters":9200,"station_id":"ce4bgt12rcd13ifvqcd0","pricing_plan_id":"cebpf4jnsgd1na2vs0mg"},{"bike_id":"237ee76e-f105-47d1-893c-f68c41863b4a","system_id":"levelo_inurba_marseille","lat":43.283698,"lon":5.386255,"is_reserved":false,"is_disabled":false,"rental_uris":{"android":"levelo://app?vid=237ee76e-f105-47d1-893c-f68c41863b4a","ios":"levelo://app?vid=237ee76e-f105-47d1-893c-f68c41863b4a"},"vehicle_type_id":"4","last_reported":1743671430,"current_range_meters":8800,"station_id":"ce4bh492rcd13ifvqdvg","pricing_plan_id":"cebpf4jnsgd1na2vs0mg"},{"bike_id":"cd83c8ac-ed09-4369-9279-b6f36f2bbd3c","system_id":"levelo_inurba_marseille","lat":43.30806,"lon":5.38229,"is_reserved":false,"is_disabled":false,"rental_uris":{"android":"levelo://app?vid=cd83c8ac-ed09-4369-9279-b6f36f2bbd3c","ios":"levelo://app?vid=cd83c8ac-ed09-4369-9279-b6f36f2bbd3c"},"vehicle_type_id":"4","last_reported":1743671430,"current_range_meters":9600,"station_id":"","pricing_plan_id":"cebpf4jnsgd1na2vs0mg"},{"bike_id":"b4a3508c-11be-4b6b-87d6-fdd1390e7d88","system_id":"levelo_inurba_marseille","lat":43.31337,"lon":5.36718,"is_reserved":false,"is_disabled":false,"rental_uris":{"android":"levelo://app?vid=b4a3508c-11be-4b6b-87d6-fdd1390e7d88","ios":"levelo://app?vid=b4a3508c-11be-4b6b-87d6-fdd1390e7d88"},"vehicle_type_id":"4","last_reported":1743671430,"current_range_meters":9600,"station_id":"ce4bgr92rcd13ifvqc6g","pricing_plan_id":"cebpf4jnsgd1na2vs0mg"},{"bike_id":"09a8a7dc-25ab-48a6-ac8b-5ee88a884479","system_id":"levelo_inurba_marseille","lat":43.28627,"lon":5.3838,"is_reserved":false,"is_disabled":false,"rental_uris":{"android":"levelo://app?vid=09a8a7dc-25ab-48a6-ac8b-5ee88a884479","ios":"levelo://app?vid=09a8a7dc-25ab-48a6-ac8b-5ee88a884479"},"vehicle_type_id":"4","last_reported":1743671430,"current_range_meters":9600,"station_id":"","pricing_plan_id":"cebpf4jnsgd1na2vs0mg"},{"bike_id":"210a22c2-e1f9-4f56-899d-a81cfc26022e","system_id":"levelo_inurba_marseille","lat":43.27678,"lon":5.38866,"is_reserved":false,"is_disabled":false,"rental_uris":{"android":"levelo://app?vid=210a22c2-e1f9-4f56-899d-a81cfc26022e","ios":"levelo://app?vid=210a22c2-e1f9-4f56-899d-a81cfc26022e"},"vehicle_type_id":"4","last_reported":1743671430,"current_range_meters":9200,"station_id":"ce4bhi12rcd13ifvqfo0","pricing_plan_id":"cebpf4jnsgd1na2vs0mg"},{"bike_id":"f9942b38-4b85-41d1-a828-e68229a2d475","system_id":"levelo_inurba_marseille","lat":43.2668,"lon":5.38264,"is_reserved":false,"is_disabled":false,"rental_uris":{"android":"levelo://app?vid=f9942b38-4b85-41d1-a828-e68229a2d475","ios":"levelo://app?vid=f9942b38-4b85-41d1-a828-e68229a2d475"},"vehicle_type_id":"4","last_reported":1743671430,"current_range_meters":9600,"station_id":"ce4bhg92rcd13ifvqf90","pricing_plan_id":"cebpf4jnsgd1na2vs0mg"},{"bike_id":"7d49898d-4c6e-4131-9fdb-37de62f2c79c","system_id":"levelo_inurba_marseille","lat":43.28897,"lon":5.37127,"is_reserved":false,"is_disabled":false,"rental_uris":{"android":"levelo://app?vid=7d49898d-4c6e-4131-9fdb-37de62f2c79c","ios":"levelo://app?vid=7d49898d-4c6e-4131-9fdb-37de62f2c79c"},"vehicle_type_id":"4","last_reported":1743671430,"current_range_meters":9600,"station_id":"","pricing_plan_id":"cebpf4jnsgd1na2vs0mg"},{"bike_id":"0192c18b-87c6-4ad4-a904-53e3d4872733","system_id":"levelo_inurba_marseille","lat":43.29581,"lon":5.36735,"is_reserved":false,"is_disabled":false,"rental_uris":{"android":"levelo://app?vid=0192c18b-87c6-4ad4-a904-53e3d4872733","ios":"levelo://app?vid=0192c18b-87c6-4ad4-a904-53e3d4872733"},"vehicle_type_id":"4","last_reported":1743671430,"current_range_meters":9200,"station_id":"ce4bgph2rcd13ifvqc2g","pricing_plan_id":"cebpf4jnsgd1na2vs0mg"},{"bike_id":"d9e91dec-31d9-4aaa-83c2-1e7b57c17579","system_id":"levelo_inurba_marseille","lat":43.30475,"lon":5.37908,"is_reserved":false,"is_disabled":false,"rental_uris":{"android":"levelo://app?vid=d9e91dec-31d9-4aaa-83c2-1e7b57c17579","ios":"levelo://app?vid=d9e91dec-31d9-4aaa-83c2-1e7b57c17579"},"vehicle_type_id":"4","last_reported":1743671430,"current_range_meters":9600,"station_id":"ce4bgup2rcd13ifvqcn0","pricing_plan_id":"cebpf4jnsgd1na2vs0mg"},{"bike_id":"0b9665f6-10e1-4423-aded-262bb8614235","system_id":"levelo_inurba_marseille","lat":43.27427,"lon":5.39411,"is_reserved":false,"is_disabled":false,"rental_uris":{"android":"levelo://app?vid=0b9665f6-10e1-4423-aded-262bb8614235","ios":"levelo://app?vid=0b9665f6-10e1-4423-aded-262bb8614235"},"vehicle_type_id":"4","last_reported":1743671430,"current_range_meters":9200,"station_id":"ce4bhdp2rcd13ifvqf20","pricing_plan_id":"cebpf4jnsgd1na2vs0mg"},{"bike_id":"99c862ce-94a5-458e-99b5-9b30c6c5f5bf","system_id":"levelo_inurba_marseille","lat":43.30133,"lon":5.39855,"is_reserved":false,"is_disabled":false,"rental_uris":{"android":"levelo://app?vid=99c862ce-94a5-458e-99b5-9b30c6c5f5bf","ios":"levelo://app?vid=99c862ce-94a5-458e-99b5-9b30c6c5f5bf"},"vehicle_type_id":"4","last_reported":1743671430,"current_range_meters":10000,"station_id":"ce4bh0h2rcd13ifvqd40","pricing_plan_id":"cebpf4jnsgd1na2vs0mg"},{"bike_id":"9ada3385-2eea-446a-95da-f8740519d0e3","system_id":"levelo_inurba_marseille","lat":43.24082,"lon":5.37727,"is_reserved":false,"is_disabled":false,"rental_uris":{"android":"levelo://app?vid=9ada3385-2eea-446a-95da-f8740519d0e3","ios":"levelo://app?vid=9ada3385-2eea-446a-95da-f8740519d0e3"},"vehicle_type_id":"4","last_reported":1743671430,"current_range_meters":10000,"station_id":"ce4bhnp2rcd13ifvqgvg","pricing_plan_id":"cebpf4jnsgd1na2vs0mg"},{"bike_id":"2cc418b0-4af9-4b22-b06e-4817adef989c","system_id":"levelo_inurba_marseille","lat":43.259356,"lon":5.408821,"is_reserved":false,"is_disabled":false,"rental_uris":{"android":"levelo://app?vid=2cc418b0-4af9-4b22-b06e-4817adef989c","ios":"levelo://app?vid=2cc418b0-4af9-4b22-b06e-4817adef989c"},"vehicle_type_id":"4","last_reported":1743671430,"current_range_meters":10000,"station_id":"ce4bhm92rcd13ifvqglg","pricing_plan_id":"cebpf4jnsgd1na2vs0mg"},{"bike_id":"3ae58bbb-27fe-4f66-93aa-3ec0b1b4782c","system_id":"levelo_inurba_marseille","lat":43.24084,"lon":5.37739,"is_reserved":false,"is_disabled":false,"rental_uris":{"android":"levelo://app?vid=3ae58bbb-27fe-4f66-93aa-3ec0b1b4782c","ios":"levelo://app?vid=3ae58bbb-27fe-4f66-93aa-3ec0b1b4782c"},"vehicle_type_id":"4","last_reported":1743671430,"current_range_meters":10000,"station_id":"ce4bhnp2rcd13ifvqgvg","pricing_plan_id":"cebpf4jnsgd1na2vs0mg"},{"bike_id":"87ebaa08-417c-4e4c-9c6c-0870e96c7115","system_id":"levelo_inurba_marseille","lat":43.25018,"lon":5.3892,"is_reserved":false,"is_disabled":false,"rental_uris":{"android":"levelo://app?vid=87ebaa08-417c-4e4c-9c6c-0870e96c7115","ios":"levelo://app?vid=87ebaa08-417c-4e4c-9c6c-0870e96c7115"},"vehicle_type_id":"4","last_reported":1743671430,"current_range_meters":10000,"station_id":"ce4bhgp2rcd13ifvqfd0","pricing_plan_id":"cebpf4jnsgd1na2vs0mg"},{"bike_id":"0b821c23-8c64-4699-97fa-6ab3f8994acf","system_id":"levelo_inurba_marseille","lat":43.30799,"lon":5.38141,"is_reserved":false,"is_disabled":true,"rental_uris":{"android":"levelo://app?vid=0b821c23-8c64-4699-97fa-6ab3f8994acf","ios":"levelo://app?vid=0b821c23-8c64-4699-97fa-6ab3f8994acf"},"vehicle_type_id":"4","last_reported":1743671430,"current_range_meters":10000,"station_id":"ce4bgt12rcd13ifvqce0","pricing_plan_id":"cebpf4jnsgd1na2vs0mg"},{"bike_id":"6c51a2a4-1207-41d6-8962-c4f070bd2bd2","system_id":"levelo_inurba_marseille","lat":43.27074,"lon":5.42276,"is_reserved":false,"is_disabled":false,"rental_uris":{"android":"levelo://app?vid=6c51a2a4-1207-41d6-8962-c4f070bd2bd2","ios":"levelo://app?vid=6c51a2a4-1207-41d6-8962-c4f070bd2bd2"},"vehicle_type_id":"4","last_reported":1743671430,"current_range_meters":10000,"station_id":"ce4bhk92rcd13ifvqgb0","pricing_plan_id":"cebpf4jnsgd1na2vs0mg"},{"bike_id":"413f118e-0839-4d3d-b7ce-faa3822e7bd6","system_id":"levelo_inurba_marseille","lat":43.303,"lon":5.39204,"is_reserved":false,"is_disabled":false,"rental_uris":{"android":"levelo://app?vid=413f118e-0839-4d3d-b7ce-faa3822e7bd6","ios":"levelo://app?vid=413f118e-0839-4d3d-b7ce-faa3822e7bd6"},"vehicle_type_id":"4","last_reported":1743671430,"current_range_meters":10800,"station_id":"ce4bgkh2rcd13ifvqbk0","pricing_plan_id":"cebpf4jnsgd1na2vs0mg"},{"bike_id":"30353176-b308-4f50-bce3-8ec56fedb6ea","system_id":"levelo_inurba_marseille","lat":43.30527,"lon":5.36708,"is_reserved":false,"is_disabled":false,"rental_uris":{"android":"levelo://app?vid=30353176-b308-4f50-bce3-8ec56fedb6ea","ios":"levelo://app?vid=30353176-b308-4f50-bce3-8ec56fedb6ea"},"vehicle_type_id":"4","last_reported":1743671430,"current_range_meters":10800,"station_id":"ce4bgrp2rcd13ifvqc9g","pricing_plan_id":"cebpf4jnsgd1na2vs0mg"},{"bike_id":"99301fc0-a3c3-4395-9adf-b646740cffda","system_id":"levelo_inurba_marseille","lat":43.25944,"lon":5.40897,"is_reserved":false,"is_disabled":false,"rental_uris":{"android":"levelo://app?vid=99301fc0-a3c3-4395-9adf-b646740cffda","ios":"levelo://app?vid=99301fc0-a3c3-4395-9adf-b646740cffda"},"vehicle_type_id":"4","last_reported":1743671430,"current_range_meters":10800,"station_id":"ce4bhm92rcd13ifvqglg","pricing_plan_id":"cebpf4jnsgd1na2vs0mg"},{"bike_id":"333cdc8e-f84d-4cfb-8d90-6267e19daa8c","system_id":"levelo_inurba_marseille","lat":43.290993,"lon":5.381242,"is_reserved":false,"is_disabled":false,"rental_uris":{"android":"levelo://app?vid=333cdc8e-f84d-4cfb-8d90-6267e19daa8c","ios":"levelo://app?vid=333cdc8e-f84d-4cfb-8d90-6267e19daa8c"},"vehicle_type_id":"4","last_reported":1743671430,"current_range_meters":10800,"station_id":"ce4bh512rcd13ifvqe2g","pricing_plan_id":"cebpf4jnsgd1na2vs0mg"},{"bike_id":"2635283e-ffd4-4c1f-b9e8-1b146ac4c8cc","system_id":"levelo_inurba_marseille","lat":43.30201,"lon":5.41924,"is_reserved":false,"is_disabled":false,"rental_uris":{"android":"levelo://app?vid=2635283e-ffd4-4c1f-b9e8-1b146ac4c8cc","ios":"levelo://app?vid=2635283e-ffd4-4c1f-b9e8-1b146ac4c8cc"},"vehicle_type_id":"4","last_reported":1743671430,"current_range_meters":10800,"station_id":"","pricing_plan_id":"cebpf4jnsgd1na2vs0mg"},{"bike_id":"1c89932c-db4d-4345-9571-d5eb72e47a40","system_id":"levelo_inurba_marseille","lat":43.30519,"lon":5.37906,"is_reserved":false,"is_disabled":false,"rental_uris":{"android":"levelo://app?vid=1c89932c-db4d-4345-9571-d5eb72e47a40","ios":"levelo://app?vid=1c89932c-db4d-4345-9571-d5eb72e47a40"},"vehicle_type_id":"4","last_reported":1743671430,"current_range_meters":10800,"station_id":"","pricing_plan_id":"cebpf4jnsgd1na2vs0mg"},{"bike_id":"22bcfedc-fd1a-42ef-b4ce-f8cb0c81bc99","system_id":"levelo_inurba_marseille","lat":43.30145,"lon":5.3878,"is_reserved":false,"is_disabled":true,"rental_uris":{"android":"levelo://app?vid=22bcfedc-fd1a-42ef-b4ce-f8cb0c81bc99","ios":"levelo://app?vid=22bcfedc-fd1a-42ef-b4ce-f8cb0c81bc99"},"vehicle_type_id":"4","last_reported":1743671430,"current_range_meters":10800,"station_id":"ce4bghh2rcd13ifvqb60","pricing_plan_id":"cebpf4jnsgd1na2vs0mg"},{"bike_id":"1503f0aa-ff8c-48af-92f3-b20415e7dc97","system_id":"levelo_inurba_marseille","lat":43.24069,"lon":5.37748,"is_reserved":false,"is_disabled":false,"rental_uris":{"android":"levelo://app?vid=1503f0aa-ff8c-48af-92f3-b20415e7dc97","ios":"levelo://app?vid=1503f0aa-ff8c-48af-92f3-b20415e7dc97"},"vehicle_type_id":"4","last_reported":1743671430,"current_range_meters":10800,"station_id":"ce4bhnp2rcd13ifvqgvg","pricing_plan_id":"cebpf4jnsgd1na2vs0mg"},{"bike_id":"74157fd8-0597-409e-9f68-969f3d916f32","system_id":"levelo_inurba_marseille","lat":43.25575,"lon":5.38242,"is_reserved":false,"is_disabled":false,"rental_uris":{"android":"levelo://app?vid=74157fd8-0597-409e-9f68-969f3d916f32","ios":"levelo://app?vid=74157fd8-0597-409e-9f68-969f3d916f32"},"vehicle_type_id":"4","last_reported":1743671430,"current_range_meters":10800,"station_id":"ce4bhih2rcd13ifvqfs0","pricing_plan_id":"cebpf4jnsgd1na2vs0mg"},{"bike_id":"96358b86-edd6-47bd-8cdc-7d4ebef66ea1","system_id":"levelo_inurba_marseille","lat":43.27091,"lon":5.42271,"is_reserved":false,"is_disabled":false,"rental_uris":{"android":"levelo://app?vid=96358b86-edd6-47bd-8cdc-7d4ebef66ea1","ios":"levelo://app?vid=96358b86-edd6-47bd-8cdc-7d4ebef66ea1"},"vehicle_type_id":"4","last_reported":1743671430,"current_range_meters":10800,"station_id":"ce4bhk92rcd13ifvqgb0","pricing_plan_id":"cebpf4jnsgd1na2vs0mg"},{"bike_id":"c8e4bdbd-3626-4325-8e95-6e72ede7c64b","system_id":"levelo_inurba_marseille","lat":43.33588,"lon":5.41002,"is_reserved":false,"is_disabled":false,"rental_uris":{"android":"levelo://app?vid=c8e4bdbd-3626-4325-8e95-6e72ede7c64b","ios":"levelo://app?vid=c8e4bdbd-3626-4325-8e95-6e72ede7c64b"},"vehicle_type_id":"4","last_reported":1743671430,"current_range_meters":11200,"station_id":"ce4bhqh2rcd13ifvqhmg","pricing_plan_id":"cebpf4jnsgd1na2vs0mg"},{"bike_id":"e6f02e74-383c-4bae-b8c4-037430863270","system_id":"levelo_inurba_marseille","lat":43.23071,"lon":5.35481,"is_reserved":false,"is_disabled":false,"rental_uris":{"android":"levelo://app?vid=e6f02e74-383c-4bae-b8c4-037430863270","ios":"levelo://app?vid=e6f02e74-383c-4bae-b8c4-037430863270"},"vehicle_type_id":"4","last_reported":1743671430,"current_range_meters":11200,"station_id":"cpo3342slgdg3j2ifvpg","pricing_plan_id":"cebpf4jnsgd1na2vs0mg"},{"bike_id":"ecad64ac-858e-4978-89da-6c2eb3287424","system_id":"levelo_inurba_marseille","lat":43.295327,"lon":5.391022,"is_reserved":false,"is_disabled":false,"rental_uris":{"android":"levelo://app?vid=ecad64ac-858e-4978-89da-6c2eb3287424","ios":"levelo://app?vid=ecad64ac-858e-4978-89da-6c2eb3287424"},"vehicle_type_id":"4","last_reported":1743671430,"current_range_meters":11200,"station_id":"ce4bh3p2rcd13ifvqdp0","pricing_plan_id":"cebpf4jnsgd1na2vs0mg"},{"bike_id":"8e4581a0-ac48-45f0-8881-72e126b8df71","system_id":"levelo_inurba_marseille","lat":43.31265,"lon":5.36837,"is_reserved":false,"is_disabled":false,"rental_uris":{"android":"levelo://app?vid=8e4581a0-ac48-45f0-8881-72e126b8df71","ios":"levelo://app?vid=8e4581a0-ac48-45f0-8881-72e126b8df71"},"vehicle_type_id":"4","last_reported":1743671430,"current_range_meters":11200,"station_id":"ce4bgl92rcd13ifvqbq0","pricing_plan_id":"cebpf4jnsgd1na2vs0mg"},{"bike_id":"c1c63035-c83b-4419-8cbf-133778d95125","system_id":"levelo_inurba_marseille","lat":43.29785,"lon":5.39354,"is_reserved":false,"is_disabled":true,"rental_uris":{"android":"levelo://app?vid=c1c63035-c83b-4419-8cbf-133778d95125","ios":"levelo://app?vid=c1c63035-c83b-4419-8cbf-133778d95125"},"vehicle_type_id":"4","last_reported":1743671430,"current_range_meters":11600,"station_id":"chh1huq6cuj3fo74tm60","pricing_plan_id":"cebpf4jnsgd1na2vs0mg"},{"bike_id":"c13336a2-47ce-488c-b5b6-77c01a3ac1d1","system_id":"levelo_inurba_marseille","lat":43.318931,"lon":5.407447,"is_reserved":false,"is_disabled":true,"rental_uris":{"android":"levelo://app?vid=c13336a2-47ce-488c-b5b6-77c01a3ac1d1","ios":"levelo://app?vid=c13336a2-47ce-488c-b5b6-77c01a3ac1d1"},"vehicle_type_id":"4","last_reported":1743671430,"current_range_meters":11600,"station_id":"ce4bhq12rcd13ifvqhig","pricing_plan_id":"cebpf4jnsgd1na2vs0mg"},{"bike_id":"12f4af66-ca3f-44d5-b471-5f9a80e65e95","system_id":"levelo_inurba_marseille","lat":43.26063,"lon":5.39391,"is_reserved":false,"is_disabled":false,"rental_uris":{"android":"levelo://app?vid=12f4af66-ca3f-44d5-b471-5f9a80e65e95","ios":"levelo://app?vid=12f4af66-ca3f-44d5-b471-5f9a80e65e95"},"vehicle_type_id":"4","last_reported":1743671430,"current_range_meters":11600,"station_id":"ce4bhh92rcd13ifvqfj0","pricing_plan_id":"cebpf4jnsgd1na2vs0mg"},{"bike_id":"70e5b39f-29e3-4ea9-aa83-5a60a8eec6f8","system_id":"levelo_inurba_marseille","lat":43.25035,"lon":5.41681,"is_reserved":false,"is_disabled":false,"rental_uris":{"android":"levelo://app?vid=70e5b39f-29e3-4ea9-aa83-5a60a8eec6f8","ios":"levelo://app?vid=70e5b39f-29e3-4ea9-aa83-5a60a8eec6f8"},"vehicle_type_id":"4","last_reported":1743671430,"current_range_meters":11600,"station_id":"","pricing_plan_id":"cebpf4jnsgd1na2vs0mg"},{"bike_id":"089804d4-2d4d-40e1-965b-7340bacee7d1","system_id":"levelo_inurba_marseille","lat":43.29598,"lon":5.3809,"is_reserved":false,"is_disabled":false,"rental_uris":{"android":"levelo://app?vid=089804d4-2d4d-40e1-965b-7340bacee7d1","ios":"levelo://app?vid=089804d4-2d4d-40e1-965b-7340bacee7d1"},"vehicle_type_id":"4","last_reported":1743671430,"current_range_meters":11600,"station_id":"ce4bgl12rcd13ifvqbo0","pricing_plan_id":"cebpf4jnsgd1na2vs0mg"},{"bike_id":"40370857-0c52-47ef-988a-078817274378","system_id":"levelo_inurba_marseille","lat":43.25936,"lon":5.40893,"is_reserved":false,"is_disabled":false,"rental_uris":{"android":"levelo://app?vid=40370857-0c52-47ef-988a-078817274378","ios":"levelo://app?vid=40370857-0c52-47ef-988a-078817274378"},"vehicle_type_id":"4","last_reported":1743671430,"current_range_meters":12000,"station_id":"ce4bhm92rcd13ifvqglg","pricing_plan_id":"cebpf4jnsgd1na2vs0mg"},{"bike_id":"b76c63dc-1098-4740-a211-89d413467d65","system_id":"levelo_inurba_marseille","lat":43.29096,"lon":5.38137,"is_reserved":false,"is_disabled":false,"rental_uris":{"android":"levelo://app?vid=b76c63dc-1098-4740-a211-89d413467d65","ios":"levelo://app?vid=b76c63dc-1098-4740-a211-89d413467d65"},"vehicle_type_id":"4","last_reported":1743671430,"current_range_meters":12000,"station_id":"ce4bh512rcd13ifvqe2g","pricing_plan_id":"cebpf4jnsgd1na2vs0mg"},{"bike_id":"d5be55a1-ab43-4588-ae7b-d796d9eafdd8","system_id":"levelo_inurba_marseille","lat":43.29852,"lon":5.36279,"is_reserved":false,"is_disabled":false,"rental_uris":{"android":"levelo://app?vid=d5be55a1-ab43-4588-ae7b-d796d9eafdd8","ios":"levelo://app?vid=d5be55a1-ab43-4588-ae7b-d796d9eafdd8"},"vehicle_type_id":"4","last_reported":1743671430,"current_range_meters":12000,"station_id":"ce4bgpp2rcd13ifvqc3g","pricing_plan_id":"cebpf4jnsgd1na2vs0mg"},{"bike_id":"d2a9c8d5-6f1a-4cf5-9fa3-a5dbab8b5880","system_id":"levelo_inurba_marseille","lat":43.29587,"lon":5.36733,"is_reserved":false,"is_disabled":false,"rental_uris":{"android":"levelo://app?vid=d2a9c8d5-6f1a-4cf5-9fa3-a5dbab8b5880","ios":"levelo://app?vid=d2a9c8d5-6f1a-4cf5-9fa3-a5dbab8b5880"},"vehicle_type_id":"4","last_reported":1743671430,"current_range_meters":12000,"station_id":"ce4bgph2rcd13ifvqc2g","pricing_plan_id":"cebpf4jnsgd1na2vs0mg"},{"bike_id":"f8c62789-a6b7-4539-b99c-e6c73b69ae5e","system_id":"levelo_inurba_marseille","lat":43.30317,"lon":5.40443,"is_reserved":false,"is_disabled":true,"rental_uris":{"android":"levelo://app?vid=f8c62789-a6b7-4539-b99c-e6c73b69ae5e","ios":"levelo://app?vid=f8c62789-a6b7-4539-b99c-e6c73b69ae5e"},"vehicle_type_id":"4","last_reported":1743671430,"current_range_meters":12000,"station_id":"ce4bh012rcd13ifvqd10","pricing_plan_id":"cebpf4jnsgd1na2vs0mg"},{"bike_id":"e3a29d38-a611-4b12-87ef-2fb8a21c41d5","system_id":"levelo_inurba_marseille","lat":43.22928,"lon":5.35373,"is_reserved":false,"is_disabled":false,"rental_uris":{"android":"levelo://app?vid=e3a29d38-a611-4b12-87ef-2fb8a21c41d5","ios":"levelo://app?vid=e3a29d38-a611-4b12-87ef-2fb8a21c41d5"},"vehicle_type_id":"4","last_reported":1743671430,"current_range_meters":12000,"station_id":"cpo3532slgdg3j2ikp40","pricing_plan_id":"cebpf4jnsgd1na2vs0mg"},{"bike_id":"efddeda7-6eb2-4c14-868d-fa0ce0b35ef3","system_id":"levelo_inurba_marseille","lat":43.3131,"lon":5.38277,"is_reserved":false,"is_disabled":false,"rental_uris":{"android":"levelo://app?vid=efddeda7-6eb2-4c14-868d-fa0ce0b35ef3","ios":"levelo://app?vid=efddeda7-6eb2-4c14-868d-fa0ce0b35ef3"},"vehicle_type_id":"4","last_reported":1743671430,"current_range_meters":12000,"station_id":"","pricing_plan_id":"cebpf4jnsgd1na2vs0mg"},{"bike_id":"6c89c935-a855-49de-94cc-301a02501094","system_id":"levelo_inurba_marseille","lat":43.30122,"lon":5.37422,"is_reserved":false,"is_disabled":false,"rental_uris":{"android":"levelo://app?vid=6c89c935-a855-49de-94cc-301a02501094","ios":"levelo://app?vid=6c89c935-a855-49de-94cc-301a02501094"},"vehicle_type_id":"4","last_reported":1743671430,"current_range_meters":12000,"station_id":"ce4bgs92rcd13ifvqcc0","pricing_plan_id":"cebpf4jnsgd1na2vs0mg"},{"bike_id":"2c0c8de3-aeb6-4b56-8458-835d7a6f0209","system_id":"levelo_inurba_marseille","lat":43.25833,"lon":5.39425,"is_reserved":false,"is_disabled":false,"rental_uris":{"android":"levelo://app?vid=2c0c8de3-aeb6-4b56-8458-835d7a6f0209","ios":"levelo://app?vid=2c0c8de3-aeb6-4b56-8458-835d7a6f0209"},"vehicle_type_id":"4","last_reported":1743671430,"current_range_meters":12400,"station_id":"ce4bhip2rcd13ifvqft0","pricing_plan_id":"cebpf4jnsgd1na2vs0mg"},{"bike_id":"433b5761-4135-42fd-a41d-bd452b283399","system_id":"levelo_inurba_marseille","lat":43.30472,"lon":5.37915,"is_reserved":false,"is_disabled":false,"rental_uris":{"android":"levelo://app?vid=433b5761-4135-42fd-a41d-bd452b283399","ios":"levelo://app?vid=433b5761-4135-42fd-a41d-bd452b283399"},"vehicle_type_id":"4","last_reported":1743671430,"current_range_meters":12400,"station_id":"ce4bgup2rcd13ifvqcn0","pricing_plan_id":"cebpf4jnsgd1na2vs0mg"},{"bike_id":"1bd4c5e9-3479-4a34-bfb9-e556a3bbe8ed","system_id":"levelo_inurba_marseille","lat":43.23066,"lon":5.35487,"is_reserved":false,"is_disabled":false,"rental_uris":{"android":"levelo://app?vid=1bd4c5e9-3479-4a34-bfb9-e556a3bbe8ed","ios":"levelo://app?vid=1bd4c5e9-3479-4a34-bfb9-e556a3bbe8ed"},"vehicle_type_id":"4","last_reported":1743671430,"current_range_meters":12400,"station_id":"cpo3342slgdg3j2ifvpg","pricing_plan_id":"cebpf4jnsgd1na2vs0mg"},{"bike_id":"d1946664-1140-491f-b11d-03c95ed9fdee","system_id":"levelo_inurba_marseille","lat":43.25938,"lon":5.40912,"is_reserved":false,"is_disabled":false,"rental_uris":{"android":"levelo://app?vid=d1946664-1140-491f-b11d-03c95ed9fdee","ios":"levelo://app?vid=d1946664-1140-491f-b11d-03c95ed9fdee"},"vehicle_type_id":"4","last_reported":1743671430,"current_range_meters":12800,"station_id":"ce4bhm92rcd13ifvqglg","pricing_plan_id":"cebpf4jnsgd1na2vs0mg"},{"bike_id":"d551a9a9-b194-45d1-bdf4-78145879377c","system_id":"levelo_inurba_marseille","lat":43.26926,"lon":5.38918,"is_reserved":false,"is_disabled":false,"rental_uris":{"android":"levelo://app?vid=d551a9a9-b194-45d1-bdf4-78145879377c","ios":"levelo://app?vid=d551a9a9-b194-45d1-bdf4-78145879377c"},"vehicle_type_id":"4","last_reported":1743671430,"current_range_meters":12800,"station_id":"ce4bhhh2rcd13ifvqfl0","pricing_plan_id":"cebpf4jnsgd1na2vs0mg"},{"bike_id":"005283db-9aca-49eb-ae41-cbf0dc140b6c","system_id":"levelo_inurba_marseille","lat":43.3015,"lon":5.37294,"is_reserved":false,"is_disabled":false,"rental_uris":{"android":"levelo://app?vid=005283db-9aca-49eb-ae41-cbf0dc140b6c","ios":"levelo://app?vid=005283db-9aca-49eb-ae41-cbf0dc140b6c"},"vehicle_type_id":"4","last_reported":1743671430,"current_range_meters":12800,"station_id":"","pricing_plan_id":"cebpf4jnsgd1na2vs0mg"},{"bike_id":"dae7a77e-5427-4dea-b9dc-49d5dabe88be","system_id":"levelo_inurba_marseille","lat":43.29259,"lon":5.40895,"is_reserved":false,"is_disabled":false,"rental_uris":{"android":"levelo://app?vid=dae7a77e-5427-4dea-b9dc-49d5dabe88be","ios":"levelo://app?vid=dae7a77e-5427-4dea-b9dc-49d5dabe88be"},"vehicle_type_id":"4","last_reported":1743671430,"current_range_meters":12800,"station_id":"ce4bh192rcd13ifvqdc0","pricing_plan_id":"cebpf4jnsgd1na2vs0mg"},{"bike_id":"786b6bd9-7962-41fd-a0fb-25fac672c0ab","system_id":"levelo_inurba_marseille","lat":43.29584,"lon":5.36744,"is_reserved":false,"is_disabled":false,"rental_uris":{"android":"levelo://app?vid=786b6bd9-7962-41fd-a0fb-25fac672c0ab","ios":"levelo://app?vid=786b6bd9-7962-41fd-a0fb-25fac672c0ab"},"vehicle_type_id":"4","last_reported":1743671430,"current_range_meters":13600,"station_id":"ce4bgph2rcd13ifvqc2g","pricing_plan_id":"cebpf4jnsgd1na2vs0mg"},{"bike_id":"13a24fcc-8048-441c-b975-f73376da5d57","system_id":"levelo_inurba_marseille","lat":43.28725,"lon":5.37946,"is_reserved":false,"is_disabled":false,"rental_uris":{"android":"levelo://app?vid=13a24fcc-8048-441c-b975-f73376da5d57","ios":"levelo://app?vid=13a24fcc-8048-441c-b975-f73376da5d57"},"vehicle_type_id":"4","last_reported":1743671430,"current_range_meters":13600,"station_id":"ce4bh9p2rcd13ifvqec0","pricing_plan_id":"cebpf4jnsgd1na2vs0mg"},{"bike_id":"f6bd48ca-490c-403f-ba54-859cabc59f02","system_id":"levelo_inurba_marseille","lat":43.29925,"lon":5.37477,"is_reserved":false,"is_disabled":true,"rental_uris":{"android":"levelo://app?vid=f6bd48ca-490c-403f-ba54-859cabc59f02","ios":"levelo://app?vid=f6bd48ca-490c-403f-ba54-859cabc59f02"},"vehicle_type_id":"4","last_reported":1743671430,"current_range_meters":13600,"station_id":"ce4bgjh2rcd13ifvqbg0","pricing_plan_id":"cebpf4jnsgd1na2vs0mg"},{"bike_id":"3ce031af-7e55-4ba9-822e-b239c8f45373","system_id":"levelo_inurba_marseille","lat":43.2902,"lon":5.38128,"is_reserved":false,"is_disabled":false,"rental_uris":{"android":"levelo://app?vid=3ce031af-7e55-4ba9-822e-b239c8f45373","ios":"levelo://app?vid=3ce031af-7e55-4ba9-822e-b239c8f45373"},"vehicle_type_id":"4","last_reported":1743671430,"current_range_meters":13600,"station_id":"ce4bh4p2rcd13ifvqe1g","pricing_plan_id":"cebpf4jnsgd1na2vs0mg"},{"bike_id":"0aa69f03-0878-4038-837b-a34d05729b70","system_id":"levelo_inurba_marseille","lat":43.305303,"lon":5.367217,"is_reserved":false,"is_disabled":false,"rental_uris":{"android":"levelo://app?vid=0aa69f03-0878-4038-837b-a34d05729b70","ios":"levelo://app?vid=0aa69f03-0878-4038-837b-a34d05729b70"},"vehicle_type_id":"4","last_reported":1743671430,"current_range_meters":13600,"station_id":"ce4bgrp2rcd13ifvqc9g","pricing_plan_id":"cebpf4jnsgd1na2vs0mg"},{"bike_id":"8d93fb45-a80e-436f-af50-daea2f7bcfc1","system_id":"levelo_inurba_marseille","lat":43.29383,"lon":5.37854,"is_reserved":false,"is_disabled":false,"rental_uris":{"android":"levelo://app?vid=8d93fb45-a80e-436f-af50-daea2f7bcfc1","ios":"levelo://app?vid=8d93fb45-a80e-436f-af50-daea2f7bcfc1"},"vehicle_type_id":"4","last_reported":1743671430,"current_range_meters":13600,"station_id":"ce4bgjh2rcd13ifvqbf0","pricing_plan_id":"cebpf4jnsgd1na2vs0mg"},{"bike_id":"8e2424bb-8c50-4583-b41b-a7e00143b6c2","system_id":"levelo_inurba_marseille","lat":43.24076,"lon":5.37758,"is_reserved":false,"is_disabled":false,"rental_uris":{"android":"levelo://app?vid=8e2424bb-8c50-4583-b41b-a7e00143b6c2","ios":"levelo://app?vid=8e2424bb-8c50-4583-b41b-a7e00143b6c2"},"vehicle_type_id":"4","last_reported":1743671430,"current_range_meters":13600,"station_id":"ce4bhnp2rcd13ifvqgvg","pricing_plan_id":"cebpf4jnsgd1na2vs0mg"},{"bike_id":"6cb0884f-aba9-44e8-92f3-61aacc7d15b0","system_id":"levelo_inurba_marseille","lat":43.25838,"lon":5.39431,"is_reserved":false,"is_disabled":false,"rental_uris":{"android":"levelo://app?vid=6cb0884f-aba9-44e8-92f3-61aacc7d15b0","ios":"levelo://app?vid=6cb0884f-aba9-44e8-92f3-61aacc7d15b0"},"vehicle_type_id":"4","last_reported":1743671430,"current_range_meters":13600,"station_id":"ce4bhip2rcd13ifvqft0","pricing_plan_id":"cebpf4jnsgd1na2vs0mg"},{"bike_id":"026cd8d6-432d-4bbe-b9e9-9ede46821b3e","system_id":"levelo_inurba_marseille","lat":43.26953,"lon":5.38631,"is_reserved":false,"is_disabled":false,"rental_uris":{"android":"levelo://app?vid=026cd8d6-432d-4bbe-b9e9-9ede46821b3e","ios":"levelo://app?vid=026cd8d6-432d-4bbe-b9e9-9ede46821b3e"},"vehicle_type_id":"4","last_reported":1743671430,"current_range_meters":14000,"station_id":"ce4bhh92rcd13ifvqfh0","pricing_plan_id":"cebpf4jnsgd1na2vs0mg"},{"bike_id":"22b8702c-0dfe-451a-841a-e968657038a3","system_id":"levelo_inurba_marseille","lat":43.32486,"lon":5.36566,"is_reserved":false,"is_disabled":false,"rental_uris":{"android":"levelo://app?vid=22b8702c-0dfe-451a-841a-e968657038a3","ios":"levelo://app?vid=22b8702c-0dfe-451a-841a-e968657038a3"},"vehicle_type_id":"4","last_reported":1743671430,"current_range_meters":14000,"station_id":"ce4bhs12rcd13ifvqhvg","pricing_plan_id":"cebpf4jnsgd1na2vs0mg"},{"bike_id":"6a460605-a1a5-4a46-a586-c3b768b3064f","system_id":"levelo_inurba_marseille","lat":43.27514,"lon":5.42451,"is_reserved":false,"is_disabled":false,"rental_uris":{"android":"levelo://app?vid=6a460605-a1a5-4a46-a586-c3b768b3064f","ios":"levelo://app?vid=6a460605-a1a5-4a46-a586-c3b768b3064f"},"vehicle_type_id":"4","last_reported":1743671430,"current_range_meters":14000,"station_id":"ce4bhn92rcd13ifvqgrg","pricing_plan_id":"cebpf4jnsgd1na2vs0mg"},{"bike_id":"841946bd-6940-4794-9af4-41cbe287891a","system_id":"levelo_inurba_marseille","lat":43.27369,"lon":5.36244,"is_reserved":false,"is_disabled":false,"rental_uris":{"android":"levelo://app?vid=841946bd-6940-4794-9af4-41cbe287891a","ios":"levelo://app?vid=841946bd-6940-4794-9af4-41cbe287891a"},"vehicle_type_id":"4","last_reported":1743671430,"current_range_meters":14000,"station_id":"ce4bhbh2rcd13ifvqeo0","pricing_plan_id":"cebpf4jnsgd1na2vs0mg"},{"bike_id":"63139285-137c-4e8d-8e95-6c2a275f8333","system_id":"levelo_inurba_marseille","lat":43.32109,"lon":5.36798,"is_reserved":false,"is_disabled":false,"rental_uris":{"android":"levelo://app?vid=63139285-137c-4e8d-8e95-6c2a275f8333","ios":"levelo://app?vid=63139285-137c-4e8d-8e95-6c2a275f8333"},"vehicle_type_id":"4","last_reported":1743671430,"current_range_meters":14000,"station_id":"ce4bhrh2rcd13ifvqhug","pricing_plan_id":"cebpf4jnsgd1na2vs0mg"},{"bike_id":"d5efcd13-9084-4a44-95bc-d0283a96f497","system_id":"levelo_inurba_marseille","lat":43.25744,"lon":5.41101,"is_reserved":false,"is_disabled":false,"rental_uris":{"android":"levelo://app?vid=d5efcd13-9084-4a44-95bc-d0283a96f497","ios":"levelo://app?vid=d5efcd13-9084-4a44-95bc-d0283a96f497"},"vehicle_type_id":"4","last_reported":1743671430,"current_range_meters":14000,"station_id":"ce4bhkp2rcd13ifvqgd0","pricing_plan_id":"cebpf4jnsgd1na2vs0mg"},{"bike_id":"40d3c05f-bedf-494f-b574-dbba9f4f9f3e","system_id":"levelo_inurba_marseille","lat":43.29226,"lon":5.36068,"is_reserved":false,"is_disabled":false,"rental_uris":{"android":"levelo://app?vid=40d3c05f-bedf-494f-b574-dbba9f4f9f3e","ios":"levelo://app?vid=40d3c05f-bedf-494f-b574-dbba9f4f9f3e"},"vehicle_type_id":"4","last_reported":1743671430,"current_range_meters":14400,"station_id":"ce4bhbh2rcd13ifvqeqg","pricing_plan_id":"cebpf4jnsgd1na2vs0mg"},{"bike_id":"ca7f2af0-6e4f-416a-8cdf-d1e6b782dad6","system_id":"levelo_inurba_marseille","lat":43.30154,"lon":5.39867,"is_reserved":false,"is_disabled":false,"rental_uris":{"android":"levelo://app?vid=ca7f2af0-6e4f-416a-8cdf-d1e6b782dad6","ios":"levelo://app?vid=ca7f2af0-6e4f-416a-8cdf-d1e6b782dad6"},"vehicle_type_id":"4","last_reported":1743671430,"current_range_meters":14000,"station_id":"ce4bh0h2rcd13ifvqd40","pricing_plan_id":"cebpf4jnsgd1na2vs0mg"},{"bike_id":"69c0db05-6ded-4dc6-9720-2452c83c1020","system_id":"levelo_inurba_marseille","lat":43.22786,"lon":5.35088,"is_reserved":false,"is_disabled":false,"rental_uris":{"android":"levelo://app?vid=69c0db05-6ded-4dc6-9720-2452c83c1020","ios":"levelo://app?vid=69c0db05-6ded-4dc6-9720-2452c83c1020"},"vehicle_type_id":"4","last_reported":1743671430,"current_range_meters":14400,"station_id":"","pricing_plan_id":"cebpf4jnsgd1na2vs0mg"},{"bike_id":"8f86bb90-b294-4048-b2fb-c228dc101b21","system_id":"levelo_inurba_marseille","lat":43.31372,"lon":5.36713,"is_reserved":false,"is_disabled":false,"rental_uris":{"android":"levelo://app?vid=8f86bb90-b294-4048-b2fb-c228dc101b21","ios":"levelo://app?vid=8f86bb90-b294-4048-b2fb-c228dc101b21"},"vehicle_type_id":"4","last_reported":1743671430,"current_range_meters":14400,"station_id":"ce4bgr92rcd13ifvqc6g","pricing_plan_id":"cebpf4jnsgd1na2vs0mg"},{"bike_id":"5f46717b-05d1-4f34-a220-8087932d755b","system_id":"levelo_inurba_marseille","lat":43.30121,"lon":5.36932,"is_reserved":false,"is_disabled":false,"rental_uris":{"android":"levelo://app?vid=5f46717b-05d1-4f34-a220-8087932d755b","ios":"levelo://app?vid=5f46717b-05d1-4f34-a220-8087932d755b"},"vehicle_type_id":"4","last_reported":1743671430,"current_range_meters":14400,"station_id":"","pricing_plan_id":"cebpf4jnsgd1na2vs0mg"},{"bike_id":"a6303451-5b45-435c-bf0e-748f94cc010d","system_id":"levelo_inurba_marseille","lat":43.231866,"lon":5.355483,"is_reserved":false,"is_disabled":false,"rental_uris":{"android":"levelo://app?vid=a6303451-5b45-435c-bf0e-748f94cc010d","ios":"levelo://app?vid=a6303451-5b45-435c-bf0e-748f94cc010d"},"vehicle_type_id":"4","last_reported":1743671430,"current_range_meters":14800,"station_id":"ce4bhu92rcd13ifvqi70","pricing_plan_id":"cebpf4jnsgd1na2vs0mg"},{"bike_id":"f1e5f20d-e5bb-4349-9a72-f7ab8a004414","system_id":"levelo_inurba_marseille","lat":43.30338,"lon":5.40421,"is_reserved":false,"is_disabled":true,"rental_uris":{"android":"levelo://app?vid=f1e5f20d-e5bb-4349-9a72-f7ab8a004414","ios":"levelo://app?vid=f1e5f20d-e5bb-4349-9a72-f7ab8a004414"},"vehicle_type_id":"4","last_reported":1743671430,"current_range_meters":14800,"station_id":"ce4bh012rcd13ifvqd10","pricing_plan_id":"cebpf4jnsgd1na2vs0mg"},{"bike_id":"1c98b99c-34fc-4e0b-a00c-d64c82ae3564","system_id":"levelo_inurba_marseille","lat":43.30558,"lon":5.3662,"is_reserved":false,"is_disabled":false,"rental_uris":{"android":"levelo://app?vid=1c98b99c-34fc-4e0b-a00c-d64c82ae3564","ios":"levelo://app?vid=1c98b99c-34fc-4e0b-a00c-d64c82ae3564"},"vehicle_type_id":"4","last_reported":1743671430,"current_range_meters":15200,"station_id":"ce4bgs12rcd13ifvqcag","pricing_plan_id":"cebpf4jnsgd1na2vs0mg"},{"bike_id":"b82ef2bd-0499-4626-ae86-4b30a150d18a","system_id":"levelo_inurba_marseille","lat":43.2411,"lon":5.37842,"is_reserved":false,"is_disabled":false,"rental_uris":{"android":"levelo://app?vid=b82ef2bd-0499-4626-ae86-4b30a150d18a","ios":"levelo://app?vid=b82ef2bd-0499-4626-ae86-4b30a150d18a"},"vehicle_type_id":"4","last_reported":1743671430,"current_range_meters":15200,"station_id":"ce4bhnp2rcd13ifvqgvg","pricing_plan_id":"cebpf4jnsgd1na2vs0mg"},{"bike_id":"639a96a3-0003-45fd-b4c6-1a8b9975d9c4","system_id":"levelo_inurba_marseille","lat":43.25932,"lon":5.40874,"is_reserved":false,"is_disabled":false,"rental_uris":{"android":"levelo://app?vid=639a96a3-0003-45fd-b4c6-1a8b9975d9c4","ios":"levelo://app?vid=639a96a3-0003-45fd-b4c6-1a8b9975d9c4"},"vehicle_type_id":"4","last_reported":1743671430,"current_range_meters":15200,"station_id":"ce4bhm92rcd13ifvqglg","pricing_plan_id":"cebpf4jnsgd1na2vs0mg"},{"bike_id":"e526efb1-28e3-4156-9d32-687f6cbc7952","system_id":"levelo_inurba_marseille","lat":43.27997,"lon":5.41653,"is_reserved":false,"is_disabled":false,"rental_uris":{"android":"levelo://app?vid=e526efb1-28e3-4156-9d32-687f6cbc7952","ios":"levelo://app?vid=e526efb1-28e3-4156-9d32-687f6cbc7952"},"vehicle_type_id":"4","last_reported":1743671430,"current_range_meters":14800,"station_id":"ce4bho12rcd13ifvqh1g","pricing_plan_id":"cebpf4jnsgd1na2vs0mg"},{"bike_id":"e9947125-e4b1-4977-bee9-fb031515997e","system_id":"levelo_inurba_marseille","lat":43.2454,"lon":5.39505,"is_reserved":false,"is_disabled":false,"rental_uris":{"android":"levelo://app?vid=e9947125-e4b1-4977-bee9-fb031515997e","ios":"levelo://app?vid=e9947125-e4b1-4977-bee9-fb031515997e"},"vehicle_type_id":"4","last_reported":1743671430,"current_range_meters":15200,"station_id":"ce4bhlp2rcd13ifvqgjg","pricing_plan_id":"cebpf4jnsgd1na2vs0mg"},{"bike_id":"4c6c26e9-c2c0-42ca-bbad-340608c64a5a","system_id":"levelo_inurba_marseille","lat":43.31375,"lon":5.3669,"is_reserved":false,"is_disabled":false,"rental_uris":{"android":"levelo://app?vid=4c6c26e9-c2c0-42ca-bbad-340608c64a5a","ios":"levelo://app?vid=4c6c26e9-c2c0-42ca-bbad-340608c64a5a"},"vehicle_type_id":"4","last_reported":1743671430,"current_range_meters":15200,"station_id":"ce4bgr92rcd13ifvqc6g","pricing_plan_id":"cebpf4jnsgd1na2vs0mg"},{"bike_id":"97b57fb3-80b0-4b94-bd9d-9e5a8077340e","system_id":"levelo_inurba_marseille","lat":43.23975,"lon":5.36617,"is_reserved":false,"is_disabled":false,"rental_uris":{"android":"levelo://app?vid=97b57fb3-80b0-4b94-bd9d-9e5a8077340e","ios":"levelo://app?vid=97b57fb3-80b0-4b94-bd9d-9e5a8077340e"},"vehicle_type_id":"4","last_reported":1743671430,"current_range_meters":15200,"station_id":"ce4bhi12rcd13ifvqfp0","pricing_plan_id":"cebpf4jnsgd1na2vs0mg"},{"bike_id":"0da307f0-a737-4f3f-8786-4dd451d57e79","system_id":"levelo_inurba_marseille","lat":43.30858,"lon":5.36742,"is_reserved":false,"is_disabled":false,"rental_uris":{"android":"levelo://app?vid=0da307f0-a737-4f3f-8786-4dd451d57e79","ios":"levelo://app?vid=0da307f0-a737-4f3f-8786-4dd451d57e79"},"vehicle_type_id":"4","last_reported":1743671430,"current_range_meters":16000,"station_id":"","pricing_plan_id":"cebpf4jnsgd1na2vs0mg"},{"bike_id":"aa653c26-703a-4ef5-b434-00b5e2aae9ce","system_id":"levelo_inurba_marseille","lat":43.25728,"lon":5.41132,"is_reserved":false,"is_disabled":false,"rental_uris":{"android":"levelo://app?vid=aa653c26-703a-4ef5-b434-00b5e2aae9ce","ios":"levelo://app?vid=aa653c26-703a-4ef5-b434-00b5e2aae9ce"},"vehicle_type_id":"4","last_reported":1743671430,"current_range_meters":16000,"station_id":"ce4bhkp2rcd13ifvqgd0","pricing_plan_id":"cebpf4jnsgd1na2vs0mg"},{"bike_id":"e82bc24b-9cdc-495b-a5d4-b8706dc4f90c","system_id":"levelo_inurba_marseille","lat":43.313505,"lon":5.36715,"is_reserved":false,"is_disabled":false,"rental_uris":{"android":"levelo://app?vid=e82bc24b-9cdc-495b-a5d4-b8706dc4f90c","ios":"levelo://app?vid=e82bc24b-9cdc-495b-a5d4-b8706dc4f90c"},"vehicle_type_id":"4","last_reported":1743671430,"current_range_meters":16000,"station_id":"ce4bgr92rcd13ifvqc6g","pricing_plan_id":"cebpf4jnsgd1na2vs0mg"},{"bike_id":"8ab04e8f-c432-41cc-b5c5-8fe666f18f9d","system_id":"levelo_inurba_marseille","lat":43.3052,"lon":5.36701,"is_reserved":false,"is_disabled":false,"rental_uris":{"android":"levelo://app?vid=8ab04e8f-c432-41cc-b5c5-8fe666f18f9d","ios":"levelo://app?vid=8ab04e8f-c432-41cc-b5c5-8fe666f18f9d"},"vehicle_type_id":"4","last_reported":1743671430,"current_range_meters":16000,"station_id":"ce4bgrp2rcd13ifvqc9g","pricing_plan_id":"cebpf4jnsgd1na2vs0mg"},{"bike_id":"67741621-ecbb-4d51-b2bf-5f620a73deb4","system_id":"levelo_inurba_marseille","lat":43.26196,"lon":5.37926,"is_reserved":false,"is_disabled":true,"rental_uris":{"android":"levelo://app?vid=67741621-ecbb-4d51-b2bf-5f620a73deb4","ios":"levelo://app?vid=67741621-ecbb-4d51-b2bf-5f620a73deb4"},"vehicle_type_id":"4","last_reported":1743671430,"current_range_meters":16000,"station_id":"ce4bhjp2rcd13ifvqg90","pricing_plan_id":"cebpf4jnsgd1na2vs0mg"},{"bike_id":"ca617353-a239-4f19-b311-d7abf89c8466","system_id":"levelo_inurba_marseille","lat":43.25001,"lon":5.38923,"is_reserved":false,"is_disabled":false,"rental_uris":{"android":"levelo://app?vid=ca617353-a239-4f19-b311-d7abf89c8466","ios":"levelo://app?vid=ca617353-a239-4f19-b311-d7abf89c8466"},"vehicle_type_id":"4","last_reported":1743671430,"current_range_meters":15200,"station_id":"ce4bhgp2rcd13ifvqfd0","pricing_plan_id":"cebpf4jnsgd1na2vs0mg"},{"bike_id":"fbfb3636-daab-4eea-aee7-65fadffa7961","system_id":"levelo_inurba_marseille","lat":43.25819,"lon":5.39429,"is_reserved":false,"is_disabled":false,"rental_uris":{"android":"levelo://app?vid=fbfb3636-daab-4eea-aee7-65fadffa7961","ios":"levelo://app?vid=fbfb3636-daab-4eea-aee7-65fadffa7961"},"vehicle_type_id":"4","last_reported":1743671430,"current_range_meters":16400,"station_id":"ce4bhip2rcd13ifvqft0","pricing_plan_id":"cebpf4jnsgd1na2vs0mg"},{"bike_id":"11b4cfb3-f050-4609-bf5a-8f0b078f8eb2","system_id":"levelo_inurba_marseille","lat":43.29557,"lon":5.42284,"is_reserved":false,"is_disabled":false,"rental_uris":{"android":"levelo://app?vid=11b4cfb3-f050-4609-bf5a-8f0b078f8eb2","ios":"levelo://app?vid=11b4cfb3-f050-4609-bf5a-8f0b078f8eb2"},"vehicle_type_id":"4","last_reported":1743671430,"current_range_meters":16400,"station_id":"ce4bhph2rcd13ifvqhdg","pricing_plan_id":"cebpf4jnsgd1na2vs0mg"},{"bike_id":"5908285b-b0e5-43e6-bda7-7ad27bf71349","system_id":"levelo_inurba_marseille","lat":43.29273,"lon":5.37619,"is_reserved":false,"is_disabled":false,"rental_uris":{"android":"levelo://app?vid=5908285b-b0e5-43e6-bda7-7ad27bf71349","ios":"levelo://app?vid=5908285b-b0e5-43e6-bda7-7ad27bf71349"},"vehicle_type_id":"4","last_reported":1743671430,"current_range_meters":16400,"station_id":"ce4bgi12rcd13ifvqb80","pricing_plan_id":"cebpf4jnsgd1na2vs0mg"},{"bike_id":"9d7b4579-2f49-4625-9d98-42fe0dd225fc","system_id":"levelo_inurba_marseille","lat":43.30215,"lon":5.41909,"is_reserved":false,"is_disabled":false,"rental_uris":{"android":"levelo://app?vid=9d7b4579-2f49-4625-9d98-42fe0dd225fc","ios":"levelo://app?vid=9d7b4579-2f49-4625-9d98-42fe0dd225fc"},"vehicle_type_id":"4","last_reported":1743671430,"current_range_meters":16400,"station_id":"","pricing_plan_id":"cebpf4jnsgd1na2vs0mg"},{"bike_id":"f56b212f-3702-4226-a7b2-bb6045cd1a6a","system_id":"levelo_inurba_marseille","lat":43.24076,"lon":5.37708,"is_reserved":false,"is_disabled":false,"rental_uris":{"android":"levelo://app?vid=f56b212f-3702-4226-a7b2-bb6045cd1a6a","ios":"levelo://app?vid=f56b212f-3702-4226-a7b2-bb6045cd1a6a"},"vehicle_type_id":"4","last_reported":1743671430,"current_range_meters":16000,"station_id":"ce4bhnp2rcd13ifvqgvg","pricing_plan_id":"cebpf4jnsgd1na2vs0mg"},{"bike_id":"4e98ac95-3ae9-44da-9ba5-1961c7c28d51","system_id":"levelo_inurba_marseille","lat":43.30212,"lon":5.39459,"is_reserved":false,"is_disabled":false,"rental_uris":{"android":"levelo://app?vid=4e98ac95-3ae9-44da-9ba5-1961c7c28d51","ios":"levelo://app?vid=4e98ac95-3ae9-44da-9ba5-1961c7c28d51"},"vehicle_type_id":"4","last_reported":1743671430,"current_range_meters":16400,"station_id":"ce4bh0p2rcd13ifvqd70","pricing_plan_id":"cebpf4jnsgd1na2vs0mg"},{"bike_id":"0ce365e9-190c-4da1-97d4-bbc095d5dcc2","system_id":"levelo_inurba_marseille","lat":43.31384,"lon":5.36688,"is_reserved":false,"is_disabled":false,"rental_uris":{"android":"levelo://app?vid=0ce365e9-190c-4da1-97d4-bbc095d5dcc2","ios":"levelo://app?vid=0ce365e9-190c-4da1-97d4-bbc095d5dcc2"},"vehicle_type_id":"4","last_reported":1743671430,"current_range_meters":16400,"station_id":"ce4bgr92rcd13ifvqc6g","pricing_plan_id":"cebpf4jnsgd1na2vs0mg"},{"bike_id":"416dbf46-c3b6-4144-a79a-c09d4af88311","system_id":"levelo_inurba_marseille","lat":43.30502,"lon":5.36699,"is_reserved":false,"is_disabled":false,"rental_uris":{"android":"levelo://app?vid=416dbf46-c3b6-4144-a79a-c09d4af88311","ios":"levelo://app?vid=416dbf46-c3b6-4144-a79a-c09d4af88311"},"vehicle_type_id":"4","last_reported":1743671430,"current_range_meters":16400,"station_id":"ce4bgrp2rcd13ifvqc9g","pricing_plan_id":"cebpf4jnsgd1na2vs0mg"},{"bike_id":"65c86302-8ef0-46f4-ab6e-bac7149a2865","system_id":"levelo_inurba_marseille","lat":43.32128,"lon":5.36771,"is_reserved":false,"is_disabled":false,"rental_uris":{"android":"levelo://app?vid=65c86302-8ef0-46f4-ab6e-bac7149a2865","ios":"levelo://app?vid=65c86302-8ef0-46f4-ab6e-bac7149a2865"},"vehicle_type_id":"4","last_reported":1743671430,"current_range_meters":16400,"station_id":"ce4bhrh2rcd13ifvqhug","pricing_plan_id":"cebpf4jnsgd1na2vs0mg"},{"bike_id":"10dba690-16cc-4e3a-8cf1-837f9f6eb283","system_id":"levelo_inurba_marseille","lat":43.3011,"lon":5.3743,"is_reserved":false,"is_disabled":false,"rental_uris":{"android":"levelo://app?vid=10dba690-16cc-4e3a-8cf1-837f9f6eb283","ios":"levelo://app?vid=10dba690-16cc-4e3a-8cf1-837f9f6eb283"},"vehicle_type_id":"4","last_reported":1743671430,"current_range_meters":16400,"station_id":"ce4bgs92rcd13ifvqcc0","pricing_plan_id":"cebpf4jnsgd1na2vs0mg"},{"bike_id":"e6b69cd2-f965-4a12-9e02-6f28a269f9f9","system_id":"levelo_inurba_marseille","lat":43.23067,"lon":5.35491,"is_reserved":false,"is_disabled":false,"rental_uris":{"android":"levelo://app?vid=e6b69cd2-f965-4a12-9e02-6f28a269f9f9","ios":"levelo://app?vid=e6b69cd2-f965-4a12-9e02-6f28a269f9f9"},"vehicle_type_id":"4","last_reported":1743671430,"current_range_meters":16800,"station_id":"cpo3342slgdg3j2ifvpg","pricing_plan_id":"cebpf4jnsgd1na2vs0mg"},{"bike_id":"fb348b09-6abb-47a4-a266-91f2eeaee291","system_id":"levelo_inurba_marseille","lat":43.32099,"lon":5.36785,"is_reserved":false,"is_disabled":false,"rental_uris":{"android":"levelo://app?vid=fb348b09-6abb-47a4-a266-91f2eeaee291","ios":"levelo://app?vid=fb348b09-6abb-47a4-a266-91f2eeaee291"},"vehicle_type_id":"4","last_reported":1743671430,"current_range_meters":16800,"station_id":"ce4bhrh2rcd13ifvqhug","pricing_plan_id":"cebpf4jnsgd1na2vs0mg"},{"bike_id":"0df0e7a9-81b2-41f8-8fc9-9278b36af5a7","system_id":"levelo_inurba_marseille","lat":43.2509,"lon":5.39527,"is_reserved":false,"is_disabled":false,"rental_uris":{"android":"levelo://app?vid=0df0e7a9-81b2-41f8-8fc9-9278b36af5a7","ios":"levelo://app?vid=0df0e7a9-81b2-41f8-8fc9-9278b36af5a7"},"vehicle_type_id":"4","last_reported":1743671430,"current_range_meters":16800,"station_id":"ce4bhm12rcd13ifvqgkg","pricing_plan_id":"cebpf4jnsgd1na2vs0mg"},{"bike_id":"085528a4-28ba-478a-a518-fb7fb5738dbf","system_id":"levelo_inurba_marseille","lat":43.33734,"lon":5.39184,"is_reserved":false,"is_disabled":false,"rental_uris":{"android":"levelo://app?vid=085528a4-28ba-478a-a518-fb7fb5738dbf","ios":"levelo://app?vid=085528a4-28ba-478a-a518-fb7fb5738dbf"},"vehicle_type_id":"4","last_reported":1743671430,"current_range_meters":16800,"station_id":"ce4bhr92rcd13ifvqhsg","pricing_plan_id":"cebpf4jnsgd1na2vs0mg"},{"bike_id":"7a2ba730-9820-4b99-bb4a-9605925001af","system_id":"levelo_inurba_marseille","lat":43.30529,"lon":5.36547,"is_reserved":false,"is_disabled":false,"rental_uris":{"android":"levelo://app?vid=7a2ba730-9820-4b99-bb4a-9605925001af","ios":"levelo://app?vid=7a2ba730-9820-4b99-bb4a-9605925001af"},"vehicle_type_id":"4","last_reported":1743671430,"current_range_meters":16800,"station_id":"ce4bgs12rcd13ifvqcag","pricing_plan_id":"cebpf4jnsgd1na2vs0mg"},{"bike_id":"b10474cc-8fcf-446f-a761-c7156c68e701","system_id":"levelo_inurba_marseille","lat":43.2656,"lon":5.39019,"is_reserved":false,"is_disabled":false,"rental_uris":{"android":"levelo://app?vid=b10474cc-8fcf-446f-a761-c7156c68e701","ios":"levelo://app?vid=b10474cc-8fcf-446f-a761-c7156c68e701"},"vehicle_type_id":"4","last_reported":1743671430,"current_range_meters":16800,"station_id":"ce4bhe12rcd13ifvqf30","pricing_plan_id":"cebpf4jnsgd1na2vs0mg"},{"bike_id":"01b0a9ad-3831-4655-b527-575598803827","system_id":"levelo_inurba_marseille","lat":43.26724,"lon":5.38319,"is_reserved":false,"is_disabled":false,"rental_uris":{"android":"levelo://app?vid=01b0a9ad-3831-4655-b527-575598803827","ios":"levelo://app?vid=01b0a9ad-3831-4655-b527-575598803827"},"vehicle_type_id":"4","last_reported":1743671430,"current_range_meters":16800,"station_id":"ce4bhg92rcd13ifvqf90","pricing_plan_id":"cebpf4jnsgd1na2vs0mg"},{"bike_id":"c0e36771-dbe7-477f-9122-f8476f7b7779","system_id":"levelo_inurba_marseille","lat":43.32356,"lon":5.36715,"is_reserved":false,"is_disabled":false,"rental_uris":{"android":"levelo://app?vid=c0e36771-dbe7-477f-9122-f8476f7b7779","ios":"levelo://app?vid=c0e36771-dbe7-477f-9122-f8476f7b7779"},"vehicle_type_id":"4","last_reported":1743671430,"current_range_meters":16800,"station_id":"ce4bhsh2rcd13ifvqi2g","pricing_plan_id":"cebpf4jnsgd1na2vs0mg"},{"bike_id":"229ba492-02d9-4033-b935-7f43b75a8976","system_id":"levelo_inurba_marseille","lat":43.30539,"lon":5.36526,"is_reserved":false,"is_disabled":false,"rental_uris":{"android":"levelo://app?vid=229ba492-02d9-4033-b935-7f43b75a8976","ios":"levelo://app?vid=229ba492-02d9-4033-b935-7f43b75a8976"},"vehicle_type_id":"4","last_reported":1743671430,"current_range_meters":16800,"station_id":"ce4bgs12rcd13ifvqcag","pricing_plan_id":"cebpf4jnsgd1na2vs0mg"},{"bike_id":"16e30be1-6821-4531-b2d3-8709a32f4f02","system_id":"levelo_inurba_marseille","lat":43.30488,"lon":5.37904,"is_reserved":false,"is_disabled":false,"rental_uris":{"android":"levelo://app?vid=16e30be1-6821-4531-b2d3-8709a32f4f02","ios":"levelo://app?vid=16e30be1-6821-4531-b2d3-8709a32f4f02"},"vehicle_type_id":"4","last_reported":1743671430,"current_range_meters":16800,"station_id":"ce4bgup2rcd13ifvqcn0","pricing_plan_id":"cebpf4jnsgd1na2vs0mg"},{"bike_id":"f63f7c55-e868-47e8-b9af-1af720032f01","system_id":"levelo_inurba_marseille","lat":43.30147,"lon":5.39858,"is_reserved":false,"is_disabled":false,"rental_uris":{"android":"levelo://app?vid=f63f7c55-e868-47e8-b9af-1af720032f01","ios":"levelo://app?vid=f63f7c55-e868-47e8-b9af-1af720032f01"},"vehicle_type_id":"4","last_reported":1743671430,"current_range_meters":16800,"station_id":"ce4bh0h2rcd13ifvqd40","pricing_plan_id":"cebpf4jnsgd1na2vs0mg"},{"bike_id":"0ddde6b8-0881-44bb-aa7b-31adc8f1bbaf","system_id":"levelo_inurba_marseille","lat":43.30566,"lon":5.3651,"is_reserved":false,"is_disabled":false,"rental_uris":{"android":"levelo://app?vid=0ddde6b8-0881-44bb-aa7b-31adc8f1bbaf","ios":"levelo://app?vid=0ddde6b8-0881-44bb-aa7b-31adc8f1bbaf"},"vehicle_type_id":"4","last_reported":1743671430,"current_range_meters":17200,"station_id":"ce4bgs12rcd13ifvqcag","pricing_plan_id":"cebpf4jnsgd1na2vs0mg"},{"bike_id":"b01e890e-3e80-4df7-b669-a49952af6860","system_id":"levelo_inurba_marseille","lat":43.30454,"lon":5.37909,"is_reserved":false,"is_disabled":false,"rental_uris":{"android":"levelo://app?vid=b01e890e-3e80-4df7-b669-a49952af6860","ios":"levelo://app?vid=b01e890e-3e80-4df7-b669-a49952af6860"},"vehicle_type_id":"4","last_reported":1743671430,"current_range_meters":17200,"station_id":"ce4bgup2rcd13ifvqcn0","pricing_plan_id":"cebpf4jnsgd1na2vs0mg"},{"bike_id":"415e78bb-9473-4ace-87dd-2f5d3cbda86c","system_id":"levelo_inurba_marseille","lat":43.28711,"lon":5.37939,"is_reserved":false,"is_disabled":false,"rental_uris":{"android":"levelo://app?vid=415e78bb-9473-4ace-87dd-2f5d3cbda86c","ios":"levelo://app?vid=415e78bb-9473-4ace-87dd-2f5d3cbda86c"},"vehicle_type_id":"4","last_reported":1743671430,"current_range_meters":17200,"station_id":"","pricing_plan_id":"cebpf4jnsgd1na2vs0mg"},{"bike_id":"fb4cfac6-d54b-4f49-96fe-f3cb5cad9b95","system_id":"levelo_inurba_marseille","lat":43.30539,"lon":5.36517,"is_reserved":false,"is_disabled":false,"rental_uris":{"android":"levelo://app?vid=fb4cfac6-d54b-4f49-96fe-f3cb5cad9b95","ios":"levelo://app?vid=fb4cfac6-d54b-4f49-96fe-f3cb5cad9b95"},"vehicle_type_id":"4","last_reported":1743671430,"current_range_meters":17200,"station_id":"ce4bgs12rcd13ifvqcag","pricing_plan_id":"cebpf4jnsgd1na2vs0mg"},{"bike_id":"cb00ce53-3f22-4b2b-8bae-dc1ea3cc611c","system_id":"levelo_inurba_marseille","lat":43.30456,"lon":5.37906,"is_reserved":false,"is_disabled":false,"rental_uris":{"android":"levelo://app?vid=cb00ce53-3f22-4b2b-8bae-dc1ea3cc611c","ios":"levelo://app?vid=cb00ce53-3f22-4b2b-8bae-dc1ea3cc611c"},"vehicle_type_id":"4","last_reported":1743671430,"current_range_meters":17200,"station_id":"ce4bgup2rcd13ifvqcn0","pricing_plan_id":"cebpf4jnsgd1na2vs0mg"},{"bike_id":"c6dbfbad-c5e4-4444-9b15-94527aba01a5","system_id":"levelo_inurba_marseille","lat":43.30546,"lon":5.36523,"is_reserved":false,"is_disabled":true,"rental_uris":{"android":"levelo://app?vid=c6dbfbad-c5e4-4444-9b15-94527aba01a5","ios":"levelo://app?vid=c6dbfbad-c5e4-4444-9b15-94527aba01a5"},"vehicle_type_id":"4","last_reported":1743671430,"current_range_meters":17200,"station_id":"ce4bgs12rcd13ifvqcag","pricing_plan_id":"cebpf4jnsgd1na2vs0mg"},{"bike_id":"df8a1bae-dad0-4014-ba11-9263cbdbd8c9","system_id":"levelo_inurba_marseille","lat":43.24093,"lon":5.37745,"is_reserved":false,"is_disabled":false,"rental_uris":{"android":"levelo://app?vid=df8a1bae-dad0-4014-ba11-9263cbdbd8c9","ios":"levelo://app?vid=df8a1bae-dad0-4014-ba11-9263cbdbd8c9"},"vehicle_type_id":"4","last_reported":1743671430,"current_range_meters":17200,"station_id":"ce4bhnp2rcd13ifvqgvg","pricing_plan_id":"cebpf4jnsgd1na2vs0mg"},{"bike_id":"80da2e46-e25f-4e46-96be-d06e9c03365b","system_id":"levelo_inurba_marseille","lat":43.27966,"lon":5.3875,"is_reserved":false,"is_disabled":false,"rental_uris":{"android":"levelo://app?vid=80da2e46-e25f-4e46-96be-d06e9c03365b","ios":"levelo://app?vid=80da2e46-e25f-4e46-96be-d06e9c03365b"},"vehicle_type_id":"4","last_reported":1743671430,"current_range_meters":16800,"station_id":"ce4bhg12rcd13ifvqf80","pricing_plan_id":"cebpf4jnsgd1na2vs0mg"},{"bike_id":"4caff8e0-340c-490f-8a5a-b26f15704f76","system_id":"levelo_inurba_marseille","lat":43.28603,"lon":5.38445,"is_reserved":false,"is_disabled":false,"rental_uris":{"android":"levelo://app?vid=4caff8e0-340c-490f-8a5a-b26f15704f76","ios":"levelo://app?vid=4caff8e0-340c-490f-8a5a-b26f15704f76"},"vehicle_type_id":"4","last_reported":1743671430,"current_range_meters":17600,"station_id":"","pricing_plan_id":"cebpf4jnsgd1na2vs0mg"},{"bike_id":"4bc3510e-a77a-4147-b9e1-23b23b2f7e9f","system_id":"levelo_inurba_marseille","lat":43.30307,"lon":5.36898,"is_reserved":false,"is_disabled":false,"rental_uris":{"android":"levelo://app?vid=4bc3510e-a77a-4147-b9e1-23b23b2f7e9f","ios":"levelo://app?vid=4bc3510e-a77a-4147-b9e1-23b23b2f7e9f"},"vehicle_type_id":"4","last_reported":1743671430,"current_range_meters":17600,"station_id":"ce4bgqh2rcd13ifvqc5g","pricing_plan_id":"cebpf4jnsgd1na2vs0mg"},{"bike_id":"e8eca314-9223-46e2-854b-bc81555c08d4","system_id":"levelo_inurba_marseille","lat":43.305417,"lon":5.36693,"is_reserved":false,"is_disabled":false,"rental_uris":{"android":"levelo://app?vid=e8eca314-9223-46e2-854b-bc81555c08d4","ios":"levelo://app?vid=e8eca314-9223-46e2-854b-bc81555c08d4"},"vehicle_type_id":"4","last_reported":1743671430,"current_range_meters":17600,"station_id":"ce4bgrp2rcd13ifvqc9g","pricing_plan_id":"cebpf4jnsgd1na2vs0mg"},{"bike_id":"5ae1c10f-57be-40cd-bda1-9af5c5b20118","system_id":"levelo_inurba_marseille","lat":43.28488,"lon":5.38533,"is_reserved":false,"is_disabled":false,"rental_uris":{"android":"levelo://app?vid=5ae1c10f-57be-40cd-bda1-9af5c5b20118","ios":"levelo://app?vid=5ae1c10f-57be-40cd-bda1-9af5c5b20118"},"vehicle_type_id":"4","last_reported":1743671430,"current_range_meters":17600,"station_id":"ce4bh8p2rcd13ifvqeb0","pricing_plan_id":"cebpf4jnsgd1na2vs0mg"},{"bike_id":"08f359ba-b561-4a7d-83dd-5490c9924838","system_id":"levelo_inurba_marseille","lat":43.29573,"lon":5.37493,"is_reserved":false,"is_disabled":true,"rental_uris":{"android":"levelo://app?vid=08f359ba-b561-4a7d-83dd-5490c9924838","ios":"levelo://app?vid=08f359ba-b561-4a7d-83dd-5490c9924838"},"vehicle_type_id":"4","last_reported":1743671430,"current_range_meters":17600,"station_id":"ce4bgh92rcd13ifvqb50","pricing_plan_id":"cebpf4jnsgd1na2vs0mg"},{"bike_id":"f5d7baaf-c3b6-4714-ade1-a7553acc3f6e","system_id":"levelo_inurba_marseille","lat":43.30476,"lon":5.4172,"is_reserved":false,"is_disabled":false,"rental_uris":{"android":"levelo://app?vid=f5d7baaf-c3b6-4714-ade1-a7553acc3f6e","ios":"levelo://app?vid=f5d7baaf-c3b6-4714-ade1-a7553acc3f6e"},"vehicle_type_id":"4","last_reported":1743671430,"current_range_meters":17600,"station_id":"","pricing_plan_id":"cebpf4jnsgd1na2vs0mg"},{"bike_id":"f364a8be-2cbe-449a-b6c2-9fff42042228","system_id":"levelo_inurba_marseille","lat":43.2871,"lon":5.37381,"is_reserved":false,"is_disabled":true,"rental_uris":{"android":"levelo://app?vid=f364a8be-2cbe-449a-b6c2-9fff42042228","ios":"levelo://app?vid=f364a8be-2cbe-449a-b6c2-9fff42042228"},"vehicle_type_id":"4","last_reported":1743671430,"current_range_meters":17600,"station_id":"ce4bh3p2rcd13ifvqdq0","pricing_plan_id":"cebpf4jnsgd1na2vs0mg"},{"bike_id":"98a32cbd-1ed8-4ff3-969e-8995f8f8559e","system_id":"levelo_inurba_marseille","lat":43.30911,"lon":5.36857,"is_reserved":false,"is_disabled":false,"rental_uris":{"android":"levelo://app?vid=98a32cbd-1ed8-4ff3-969e-8995f8f8559e","ios":"levelo://app?vid=98a32cbd-1ed8-4ff3-969e-8995f8f8559e"},"vehicle_type_id":"4","last_reported":1743671430,"current_range_meters":17600,"station_id":"ce4bgn92rcd13ifvqbvg","pricing_plan_id":"cebpf4jnsgd1na2vs0mg"},{"bike_id":"13a42ba3-6f3d-445e-9512-30b2b5264871","system_id":"levelo_inurba_marseille","lat":43.296,"lon":5.3774,"is_reserved":false,"is_disabled":false,"rental_uris":{"android":"levelo://app?vid=13a42ba3-6f3d-445e-9512-30b2b5264871","ios":"levelo://app?vid=13a42ba3-6f3d-445e-9512-30b2b5264871"},"vehicle_type_id":"4","last_reported":1743671430,"current_range_meters":17600,"station_id":"ce4bgi92rcd13ifvqb90","pricing_plan_id":"cebpf4jnsgd1na2vs0mg"},{"bike_id":"68c2fe0a-c529-4928-b766-eb1d9f12e871","system_id":"levelo_inurba_marseille","lat":43.2668,"lon":5.38265,"is_reserved":false,"is_disabled":false,"rental_uris":{"android":"levelo://app?vid=68c2fe0a-c529-4928-b766-eb1d9f12e871","ios":"levelo://app?vid=68c2fe0a-c529-4928-b766-eb1d9f12e871"},"vehicle_type_id":"4","last_reported":1743671430,"current_range_meters":18000,"station_id":"ce4bhg92rcd13ifvqf90","pricing_plan_id":"cebpf4jnsgd1na2vs0mg"},{"bike_id":"8ccf70e2-ab78-4cc8-a0a7-9506b44dd07b","system_id":"levelo_inurba_marseille","lat":43.273626,"lon":5.42416,"is_reserved":false,"is_disabled":false,"rental_uris":{"android":"levelo://app?vid=8ccf70e2-ab78-4cc8-a0a7-9506b44dd07b","ios":"levelo://app?vid=8ccf70e2-ab78-4cc8-a0a7-9506b44dd07b"},"vehicle_type_id":"4","last_reported":1743671430,"current_range_meters":18000,"station_id":"","pricing_plan_id":"cebpf4jnsgd1na2vs0mg"},{"bike_id":"414a8a4d-0dbc-43bc-b3de-6b50dfd8f45a","system_id":"levelo_inurba_marseille","lat":43.3094,"lon":5.36829,"is_reserved":false,"is_disabled":false,"rental_uris":{"android":"levelo://app?vid=414a8a4d-0dbc-43bc-b3de-6b50dfd8f45a","ios":"levelo://app?vid=414a8a4d-0dbc-43bc-b3de-6b50dfd8f45a"},"vehicle_type_id":"4","last_reported":1743671430,"current_range_meters":18000,"station_id":"ce4bgn92rcd13ifvqbvg","pricing_plan_id":"cebpf4jnsgd1na2vs0mg"},{"bike_id":"b54c83db-6ab6-495f-a888-0f6eacdb9ec0","system_id":"levelo_inurba_marseille","lat":43.32003,"lon":5.38162,"is_reserved":false,"is_disabled":false,"rental_uris":{"android":"levelo://app?vid=b54c83db-6ab6-495f-a888-0f6eacdb9ec0","ios":"levelo://app?vid=b54c83db-6ab6-495f-a888-0f6eacdb9ec0"},"vehicle_type_id":"4","last_reported":1743671430,"current_range_meters":18000,"station_id":"ce4bhr12rcd13ifvqhpg","pricing_plan_id":"cebpf4jnsgd1na2vs0mg"},{"bike_id":"b2f4490f-edf0-49ca-9d34-1b76be892ddc","system_id":"levelo_inurba_marseille","lat":43.262304,"lon":5.404435,"is_reserved":false,"is_disabled":false,"rental_uris":{"android":"levelo://app?vid=b2f4490f-edf0-49ca-9d34-1b76be892ddc","ios":"levelo://app?vid=b2f4490f-edf0-49ca-9d34-1b76be892ddc"},"vehicle_type_id":"4","last_reported":1743671430,"current_range_meters":18000,"station_id":"ce4bhmh2rcd13ifvqgmg","pricing_plan_id":"cebpf4jnsgd1na2vs0mg"},{"bike_id":"84a7a785-5392-42bc-8088-fb903bcc7f5c","system_id":"levelo_inurba_marseille","lat":43.23075,"lon":5.35476,"is_reserved":false,"is_disabled":false,"rental_uris":{"android":"levelo://app?vid=84a7a785-5392-42bc-8088-fb903bcc7f5c","ios":"levelo://app?vid=84a7a785-5392-42bc-8088-fb903bcc7f5c"},"vehicle_type_id":"4","last_reported":1743671430,"current_range_meters":18000,"station_id":"cpo3342slgdg3j2ifvpg","pricing_plan_id":"cebpf4jnsgd1na2vs0mg"},{"bike_id":"c3bf86d0-2a6c-459f-8156-cf8cd83fa35a","system_id":"levelo_inurba_marseille","lat":43.240836,"lon":5.377491,"is_reserved":false,"is_disabled":false,"rental_uris":{"android":"levelo://app?vid=c3bf86d0-2a6c-459f-8156-cf8cd83fa35a","ios":"levelo://app?vid=c3bf86d0-2a6c-459f-8156-cf8cd83fa35a"},"vehicle_type_id":"4","last_reported":1743671430,"current_range_meters":18000,"station_id":"ce4bhnp2rcd13ifvqgvg","pricing_plan_id":"cebpf4jnsgd1na2vs0mg"},{"bike_id":"d81c816e-5991-473f-a308-770a24deedde","system_id":"levelo_inurba_marseille","lat":43.31375,"lon":5.36719,"is_reserved":false,"is_disabled":true,"rental_uris":{"android":"levelo://app?vid=d81c816e-5991-473f-a308-770a24deedde","ios":"levelo://app?vid=d81c816e-5991-473f-a308-770a24deedde"},"vehicle_type_id":"4","last_reported":1743671430,"current_range_meters":18000,"station_id":"ce4bgr92rcd13ifvqc6g","pricing_plan_id":"cebpf4jnsgd1na2vs0mg"},{"bike_id":"88685b99-e498-45b6-906a-4cd4babdf0ae","system_id":"levelo_inurba_marseille","lat":43.28716,"lon":5.37922,"is_reserved":false,"is_disabled":false,"rental_uris":{"android":"levelo://app?vid=88685b99-e498-45b6-906a-4cd4babdf0ae","ios":"levelo://app?vid=88685b99-e498-45b6-906a-4cd4babdf0ae"},"vehicle_type_id":"4","last_reported":1743671430,"current_range_meters":17600,"station_id":"ce4bh9p2rcd13ifvqec0","pricing_plan_id":"cebpf4jnsgd1na2vs0mg"},{"bike_id":"1410477a-2d04-47dd-9159-62256d33b2cc","system_id":"levelo_inurba_marseille","lat":43.26193,"lon":5.37448,"is_reserved":false,"is_disabled":false,"rental_uris":{"android":"levelo://app?vid=1410477a-2d04-47dd-9159-62256d33b2cc","ios":"levelo://app?vid=1410477a-2d04-47dd-9159-62256d33b2cc"},"vehicle_type_id":"4","last_reported":1743671430,"current_range_meters":18000,"station_id":"ce4bhgp2rcd13ifvqfc0","pricing_plan_id":"cebpf4jnsgd1na2vs0mg"},{"bike_id":"19224d95-e048-4cbb-8884-43e0e6b3db9b","system_id":"levelo_inurba_marseille","lat":43.29881,"lon":5.39765,"is_reserved":false,"is_disabled":true,"rental_uris":{"android":"levelo://app?vid=19224d95-e048-4cbb-8884-43e0e6b3db9b","ios":"levelo://app?vid=19224d95-e048-4cbb-8884-43e0e6b3db9b"},"vehicle_type_id":"4","last_reported":1743671430,"current_range_meters":18000,"station_id":"ce4bh0h2rcd13ifvqd50","pricing_plan_id":"cebpf4jnsgd1na2vs0mg"},{"bike_id":"a8f68bb3-93d5-4e8f-b698-b0cf332cdff9","system_id":"levelo_inurba_marseille","lat":43.23157,"lon":5.43705,"is_reserved":false,"is_disabled":false,"rental_uris":{"android":"levelo://app?vid=a8f68bb3-93d5-4e8f-b698-b0cf332cdff9","ios":"levelo://app?vid=a8f68bb3-93d5-4e8f-b698-b0cf332cdff9"},"vehicle_type_id":"4","last_reported":1743671430,"current_range_meters":18000,"station_id":"ce4bhmp2rcd13ifvqgog","pricing_plan_id":"cebpf4jnsgd1na2vs0mg"},{"bike_id":"aa3df30c-e44e-4e99-b920-4e77325706fc","system_id":"levelo_inurba_marseille","lat":43.29272,"lon":5.38427,"is_reserved":false,"is_disabled":false,"rental_uris":{"android":"levelo://app?vid=aa3df30c-e44e-4e99-b920-4e77325706fc","ios":"levelo://app?vid=aa3df30c-e44e-4e99-b920-4e77325706fc"},"vehicle_type_id":"4","last_reported":1743671430,"current_range_meters":18000,"station_id":"ce4bh692rcd13ifvqea0","pricing_plan_id":"cebpf4jnsgd1na2vs0mg"},{"bike_id":"e961b6b8-c46a-4b11-b8a0-23649ce71d81","system_id":"levelo_inurba_marseille","lat":43.23052,"lon":5.35482,"is_reserved":false,"is_disabled":false,"rental_uris":{"android":"levelo://app?vid=e961b6b8-c46a-4b11-b8a0-23649ce71d81","ios":"levelo://app?vid=e961b6b8-c46a-4b11-b8a0-23649ce71d81"},"vehicle_type_id":"4","last_reported":1743671430,"current_range_meters":18000,"station_id":"cpo3342slgdg3j2ifvpg","pricing_plan_id":"cebpf4jnsgd1na2vs0mg"},{"bike_id":"75487717-ee0e-4001-a55a-0ba1ea733fd1","system_id":"levelo_inurba_marseille","lat":43.31997,"lon":5.3817,"is_reserved":false,"is_disabled":false,"rental_uris":{"android":"levelo://app?vid=75487717-ee0e-4001-a55a-0ba1ea733fd1","ios":"levelo://app?vid=75487717-ee0e-4001-a55a-0ba1ea733fd1"},"vehicle_type_id":"4","last_reported":1743671430,"current_range_meters":18800,"station_id":"ce4bhr12rcd13ifvqhpg","pricing_plan_id":"cebpf4jnsgd1na2vs0mg"},{"bike_id":"1ceed182-a404-40c1-8828-b7cc108222f4","system_id":"levelo_inurba_marseille","lat":43.23188,"lon":5.39944,"is_reserved":false,"is_disabled":false,"rental_uris":{"android":"levelo://app?vid=1ceed182-a404-40c1-8828-b7cc108222f4","ios":"levelo://app?vid=1ceed182-a404-40c1-8828-b7cc108222f4"},"vehicle_type_id":"4","last_reported":1743671430,"current_range_meters":18800,"station_id":"","pricing_plan_id":"cebpf4jnsgd1na2vs0mg"},{"bike_id":"8b7ab987-1a63-45d2-a9ee-e6bc0b756ad5","system_id":"levelo_inurba_marseille","lat":43.24076,"lon":5.37673,"is_reserved":false,"is_disabled":false,"rental_uris":{"android":"levelo://app?vid=8b7ab987-1a63-45d2-a9ee-e6bc0b756ad5","ios":"levelo://app?vid=8b7ab987-1a63-45d2-a9ee-e6bc0b756ad5"},"vehicle_type_id":"4","last_reported":1743671430,"current_range_meters":18800,"station_id":"","pricing_plan_id":"cebpf4jnsgd1na2vs0mg"},{"bike_id":"c380e437-55be-4a18-845a-bdb3f66cb862","system_id":"levelo_inurba_marseille","lat":43.28353,"lon":5.38103,"is_reserved":false,"is_disabled":false,"rental_uris":{"android":"levelo://app?vid=c380e437-55be-4a18-845a-bdb3f66cb862","ios":"levelo://app?vid=c380e437-55be-4a18-845a-bdb3f66cb862"},"vehicle_type_id":"4","last_reported":1743671430,"current_range_meters":18800,"station_id":"ce4bh412rcd13ifvqdr0","pricing_plan_id":"cebpf4jnsgd1na2vs0mg"},