{"last_updated":1768849939,"ttl":60,"version":"2.2","data":{"bikes":[{"bike_id":"dc8b80ba-e910-4625-be48-2fae7bcb6057","system_id":"levelo_inurba_marseille","lat":43.29571,"lon":5.39965,"is_reserved":false,"is_disabled":false,"rental_uris":{"android":"levelo://app?vid=dc8b80ba-e910-4625-be48-2fae7bcb6057","ios":"levelo://app?vid=dc8b80ba-e910-4625-be48-2fae7bcb6057"},"vehicle_type_id":"4","last_reported":1768849940,"current_range_meters":2800,"station_id":"ce4bh312rcd13ifvqdj0","pricing_plan_id":"cebpf4jnsgd1na2vs0mg"},{"bike_id":"5b9229c1-fbe7-4efa-8529-12f17fe0835a","system_id":"levelo_inurba_marseille","lat":43.284868,"lon":5.383996,"is_reserved":false,"is_disabled":false,"rental_uris":{"android":"levelo://app?vid=5b9229c1-fbe7-4efa-8529-12f17fe0835a","ios":"levelo://app?vid=5b9229c1-fbe7-4efa-8529-12f17fe0835a"},"vehicle_type_id":"4","last_reported":1768849940,"current_range_meters":2800,"station_id":"ce4bh512rcd13ifvqe3g","pricing_plan_id":"cebpf4jnsgd1na2vs0mg"},{"bike_id":"4adc3fa4-2077-447e-b0ea-2249d03c6de8","system_id":"levelo_inurba_marseille","lat":43.2415,"lon":5.39722,"is_reserved":false,"is_disabled":false,"rental_uris":{"android":"levelo://app?vid=4adc3fa4-2077-447e-b0ea-2249d03c6de8","ios":"levelo://app?vid=4adc3fa4-2077-447e-b0ea-2249d03c6de8"},"vehicle_type_id":"4","last_reported":1768849940,"current_range_meters":2800,"station_id":"ce4bhn12rcd13ifvqgpg","pricing_plan_id":"cebpf4jnsgd1na2vs0mg"},{"bike_id":"ceac69a1-c70e-483e-8597-2b27851c5fdf","system_id":"levelo_inurba_marseille","lat":43.25582,"lon":5.38208,"is_reserved":false,"is_disabled":false,"rental_uris":{"android":"levelo://app?vid=ceac69a1-c70e-483e-8597-2b27851c5fdf","ios":"levelo://app?vid=ceac69a1-c70e-483e-8597-2b27851c5fdf"},"vehicle_type_id":"4","last_reported":1768849940,"current_range_meters":2800,"station_id":"ce4bhih2rcd13ifvqfs0","pricing_plan_id":"cebpf4jnsgd1na2vs0mg"},{"bike_id":"0217887a-8c5b-44bd-a806-474e51ffaf08","system_id":"levelo_inurba_marseille","lat":43.27994,"lon":5.41648,"is_reserved":false,"is_disabled":false,"rental_uris":{"android":"levelo://app?vid=0217887a-8c5b-44bd-a806-474e51ffaf08","ios":"levelo://app?vid=0217887a-8c5b-44bd-a806-474e51ffaf08"},"vehicle_type_id":"4","last_reported":1768849940,"current_range_meters":2800,"station_id":"ce4bho12rcd13ifvqh1g","pricing_plan_id":"cebpf4jnsgd1na2vs0mg"},{"bike_id":"7a3d6bfa-2a17-45dc-9bc6-21ef2b67d4a5","system_id":"levelo_inurba_marseille","lat":43.31383,"lon":5.37514,"is_reserved":false,"is_disabled":false,"rental_uris":{"android":"levelo://app?vid=7a3d6bfa-2a17-45dc-9bc6-21ef2b67d4a5","ios":"levelo://app?vid=7a3d6bfa-2a17-45dc-9bc6-21ef2b67d4a5"},"vehicle_type_id":"4","last_reported":1768849940,"current_range_meters":2800,"station_id":"ce4bgt12rcd13ifvqcd0","pricing_plan_id":"cebpf4jnsgd1na2vs0mg"},{"bike_id":"986a75c0-9796-4e24-8a70-d6875d9b1e95","system_id":"levelo_inurba_marseille","lat":43.29243,"lon":5.38456,"is_reserved":false,"is_disabled":false,"rental_uris":{"android":"levelo://app?vid=986a75c0-9796-4e24-8a70-d6875d9b1e95","ios":"levelo://app?vid=986a75c0-9796-4e24-8a70-d6875d9b1e95"},"vehicle_type_id":"4","last_reported":1768849940,"current_range_meters":2800,"station_id":"ce4bh692rcd13ifvqea0","pricing_plan_id":"cebpf4jnsgd1na2vs0mg"},{"bike_id":"555919a1-07c3-49d2-8497-769c02d7081b","system_id":"levelo_inurba_marseille","lat":43.31072,"lon":5.37153,"is_reserved":false,"is_disabled":false,"rental_uris":{"android":"levelo://app?vid=555919a1-07c3-49d2-8497-769c02d7081b","ios":"levelo://app?vid=555919a1-07c3-49d2-8497-769c02d7081b"},"vehicle_type_id":"4","last_reported":1768849940,"current_range_meters":2800,"station_id":"st_d4kl2rp97mjs73e7tdfg","pricing_plan_id":"cebpf4jnsgd1na2vs0mg"},{"bike_id":"cb9b796d-e7a3-4a46-b5b0-0ffb7b4e4160","system_id":"levelo_inurba_marseille","lat":43.30307,"lon":5.40437,"is_reserved":false,"is_disabled":false,"rental_uris":{"android":"levelo://app?vid=cb9b796d-e7a3-4a46-b5b0-0ffb7b4e4160","ios":"levelo://app?vid=cb9b796d-e7a3-4a46-b5b0-0ffb7b4e4160"},"vehicle_type_id":"4","last_reported":1768849940,"current_range_meters":2800,"station_id":"ce4bh012rcd13ifvqd10","pricing_plan_id":"cebpf4jnsgd1na2vs0mg"},{"bike_id":"146ebcc4-4910-4c77-a263-20cbd1fee4e4","system_id":"levelo_inurba_marseille","lat":43.31056,"lon":5.37191,"is_reserved":false,"is_disabled":false,"rental_uris":{"android":"levelo://app?vid=146ebcc4-4910-4c77-a263-20cbd1fee4e4","ios":"levelo://app?vid=146ebcc4-4910-4c77-a263-20cbd1fee4e4"},"vehicle_type_id":"4","last_reported":1768849940,"current_range_meters":2800,"station_id":"st_d4kl2rp97mjs73e7tdfg","pricing_plan_id":"cebpf4jnsgd1na2vs0mg"},{"bike_id":"d8ce7dc8-f0e6-425d-9051-b9899d077763","system_id":"levelo_inurba_marseille","lat":43.30927,"lon":5.40132,"is_reserved":false,"is_disabled":false,"rental_uris":{"android":"levelo://app?vid=d8ce7dc8-f0e6-425d-9051-b9899d077763","ios":"levelo://app?vid=d8ce7dc8-f0e6-425d-9051-b9899d077763"},"vehicle_type_id":"4","last_reported":1768849940,"current_range_meters":2800,"station_id":"ce4bgvp2rcd13ifvqct0","pricing_plan_id":"cebpf4jnsgd1na2vs0mg"},{"bike_id":"c5f176b3-6da4-4c31-8616-186392ea0ce3","system_id":"levelo_inurba_marseille","lat":43.28718,"lon":5.37934,"is_reserved":false,"is_disabled":false,"rental_uris":{"android":"levelo://app?vid=c5f176b3-6da4-4c31-8616-186392ea0ce3","ios":"levelo://app?vid=c5f176b3-6da4-4c31-8616-186392ea0ce3"},"vehicle_type_id":"4","last_reported":1768849940,"current_range_meters":2800,"station_id":"ce4bh9p2rcd13ifvqec0","pricing_plan_id":"cebpf4jnsgd1na2vs0mg"},{"bike_id":"36d81f7e-b1c3-4fe6-b5aa-7b5a18031396","system_id":"levelo_inurba_marseille","lat":43.262,"lon":5.3742,"is_reserved":false,"is_disabled":false,"rental_uris":{"android":"levelo://app?vid=36d81f7e-b1c3-4fe6-b5aa-7b5a18031396","ios":"levelo://app?vid=36d81f7e-b1c3-4fe6-b5aa-7b5a18031396"},"vehicle_type_id":"4","last_reported":1768849940,"current_range_meters":3200,"station_id":"ce4bhgp2rcd13ifvqfc0","pricing_plan_id":"cebpf4jnsgd1na2vs0mg"},{"bike_id":"e2922f33-e79f-4c11-af31-29d76aab1d22","system_id":"levelo_inurba_marseille","lat":43.28934,"lon":5.38392,"is_reserved":false,"is_disabled":false,"rental_uris":{"android":"levelo://app?vid=e2922f33-e79f-4c11-af31-29d76aab1d22","ios":"levelo://app?vid=e2922f33-e79f-4c11-af31-29d76aab1d22"},"vehicle_type_id":"4","last_reported":1768849940,"current_range_meters":3200,"station_id":"ce4bh612rcd13ifvqe6g","pricing_plan_id":"cebpf4jnsgd1na2vs0mg"},{"bike_id":"f0d11547-4efc-4a8f-8047-0875d7eb1a83","system_id":"levelo_inurba_marseille","lat":43.29259,"lon":5.38436,"is_reserved":false,"is_disabled":false,"rental_uris":{"android":"levelo://app?vid=f0d11547-4efc-4a8f-8047-0875d7eb1a83","ios":"levelo://app?vid=f0d11547-4efc-4a8f-8047-0875d7eb1a83"},"vehicle_type_id":"4","last_reported":1768849940,"current_range_meters":3200,"station_id":"ce4bh692rcd13ifvqea0","pricing_plan_id":"cebpf4jnsgd1na2vs0mg"},{"bike_id":"9cf066cd-b3a6-4dcf-81e1-3a1cd5ef49ac","system_id":"levelo_inurba_marseille","lat":43.25868,"lon":5.39883,"is_reserved":false,"is_disabled":false,"rental_uris":{"android":"levelo://app?vid=9cf066cd-b3a6-4dcf-81e1-3a1cd5ef49ac","ios":"levelo://app?vid=9cf066cd-b3a6-4dcf-81e1-3a1cd5ef49ac"},"vehicle_type_id":"4","last_reported":1768849940,"current_range_meters":3200,"station_id":"ce4bhl92rcd13ifvqghg","pricing_plan_id":"cebpf4jnsgd1na2vs0mg"},{"bike_id":"850b3a6a-e42d-4a2f-bb05-c865322d6c18","system_id":"levelo_inurba_marseille","lat":43.29266,"lon":5.38428,"is_reserved":false,"is_disabled":false,"rental_uris":{"android":"levelo://app?vid=850b3a6a-e42d-4a2f-bb05-c865322d6c18","ios":"levelo://app?vid=850b3a6a-e42d-4a2f-bb05-c865322d6c18"},"vehicle_type_id":"4","last_reported":1768849940,"current_range_meters":3200,"station_id":"ce4bh692rcd13ifvqea0","pricing_plan_id":"cebpf4jnsgd1na2vs0mg"},{"bike_id":"2a06f277-c8b0-4463-9940-49e29ff66745","system_id":"levelo_inurba_marseille","lat":43.24653,"lon":5.38877,"is_reserved":false,"is_disabled":false,"rental_uris":{"android":"levelo://app?vid=2a06f277-c8b0-4463-9940-49e29ff66745","ios":"levelo://app?vid=2a06f277-c8b0-4463-9940-49e29ff66745"},"vehicle_type_id":"4","last_reported":1768849940,"current_range_meters":3200,"station_id":"ce4bhg12rcd13ifvqf60","pricing_plan_id":"cebpf4jnsgd1na2vs0mg"},{"bike_id":"b8a52be7-8740-45d9-966a-1ddcbac12d10","system_id":"levelo_inurba_marseille","lat":43.28482,"lon":5.48393,"is_reserved":false,"is_disabled":false,"rental_uris":{"android":"levelo://app?vid=b8a52be7-8740-45d9-966a-1ddcbac12d10","ios":"levelo://app?vid=b8a52be7-8740-45d9-966a-1ddcbac12d10"},"vehicle_type_id":"4","last_reported":1768849940,"current_range_meters":3200,"station_id":"","pricing_plan_id":"cebpf4jnsgd1na2vs0mg"},{"bike_id":"ce57df57-2a76-4557-9819-dd7308e47bc4","system_id":"levelo_inurba_marseille","lat":43.24807,"lon":5.37479,"is_reserved":false,"is_disabled":false,"rental_uris":{"android":"levelo://app?vid=ce57df57-2a76-4557-9819-dd7308e47bc4","ios":"levelo://app?vid=ce57df57-2a76-4557-9819-dd7308e47bc4"},"vehicle_type_id":"4","last_reported":1768849940,"current_range_meters":3200,"station_id":"ce4bhgh2rcd13ifvqfb0","pricing_plan_id":"cebpf4jnsgd1na2vs0mg"},{"bike_id":"7f502898-d347-4b39-875a-233e17a6b8b6","system_id":"levelo_inurba_marseille","lat":43.25573,"lon":5.38231,"is_reserved":false,"is_disabled":false,"rental_uris":{"android":"levelo://app?vid=7f502898-d347-4b39-875a-233e17a6b8b6","ios":"levelo://app?vid=7f502898-d347-4b39-875a-233e17a6b8b6"},"vehicle_type_id":"4","last_reported":1768849940,"current_range_meters":3200,"station_id":"ce4bhih2rcd13ifvqfs0","pricing_plan_id":"cebpf4jnsgd1na2vs0mg"},{"bike_id":"21bf4411-e993-41d2-9111-9c724da9dc71","system_id":"levelo_inurba_marseille","lat":43.28341,"lon":5.38109,"is_reserved":false,"is_disabled":false,"rental_uris":{"android":"levelo://app?vid=21bf4411-e993-41d2-9111-9c724da9dc71","ios":"levelo://app?vid=21bf4411-e993-41d2-9111-9c724da9dc71"},"vehicle_type_id":"4","last_reported":1768849940,"current_range_meters":3200,"station_id":"ce4bh412rcd13ifvqdr0","pricing_plan_id":"cebpf4jnsgd1na2vs0mg"},{"bike_id":"951af3c2-e410-4181-856d-ac0bf777f0ea","system_id":"levelo_inurba_marseille","lat":43.30399,"lon":5.40972,"is_reserved":false,"is_disabled":false,"rental_uris":{"android":"levelo://app?vid=951af3c2-e410-4181-856d-ac0bf777f0ea","ios":"levelo://app?vid=951af3c2-e410-4181-856d-ac0bf777f0ea"},"vehicle_type_id":"4","last_reported":1768849940,"current_range_meters":3200,"station_id":"","pricing_plan_id":"cebpf4jnsgd1na2vs0mg"},{"bike_id":"1d761f10-d5bc-4f6d-ad38-af5b82ac83a6","system_id":"levelo_inurba_marseille","lat":43.301276,"lon":5.398384,"is_reserved":false,"is_disabled":false,"rental_uris":{"android":"levelo://app?vid=1d761f10-d5bc-4f6d-ad38-af5b82ac83a6","ios":"levelo://app?vid=1d761f10-d5bc-4f6d-ad38-af5b82ac83a6"},"vehicle_type_id":"4","last_reported":1768849940,"current_range_meters":3200,"station_id":"ce4bh0h2rcd13ifvqd40","pricing_plan_id":"cebpf4jnsgd1na2vs0mg"},{"bike_id":"f7662739-d69c-4274-a8c7-8f29a69d71e7","system_id":"levelo_inurba_marseille","lat":43.21741,"lon":5.34593,"is_reserved":false,"is_disabled":false,"rental_uris":{"android":"levelo://app?vid=f7662739-d69c-4274-a8c7-8f29a69d71e7","ios":"levelo://app?vid=f7662739-d69c-4274-a8c7-8f29a69d71e7"},"vehicle_type_id":"4","last_reported":1768849940,"current_range_meters":3200,"station_id":"st_cvj6r9ubvosntc0bgbag","pricing_plan_id":"cebpf4jnsgd1na2vs0mg"},{"bike_id":"f99dabc1-d177-4f05-96c1-9c9b483790cb","system_id":"levelo_inurba_marseille","lat":43.28849,"lon":5.35876,"is_reserved":false,"is_disabled":false,"rental_uris":{"android":"levelo://app?vid=f99dabc1-d177-4f05-96c1-9c9b483790cb","ios":"levelo://app?vid=f99dabc1-d177-4f05-96c1-9c9b483790cb"},"vehicle_type_id":"4","last_reported":1768849940,"current_range_meters":3200,"station_id":"ce4bhb12rcd13ifvqem0","pricing_plan_id":"cebpf4jnsgd1na2vs0mg"},{"bike_id":"9ae53b78-c214-4b59-bdf7-9a5152c2fa2f","system_id":"levelo_inurba_marseille","lat":43.288586,"lon":5.425164,"is_reserved":false,"is_disabled":false,"rental_uris":{"android":"levelo://app?vid=9ae53b78-c214-4b59-bdf7-9a5152c2fa2f","ios":"levelo://app?vid=9ae53b78-c214-4b59-bdf7-9a5152c2fa2f"},"vehicle_type_id":"4","last_reported":1768849940,"current_range_meters":3600,"station_id":"st_d3b462108ojc7389ooeg","pricing_plan_id":"cebpf4jnsgd1na2vs0mg"},{"bike_id":"a2ee25d3-aa2e-4df8-9c3a-9a6ebd1fa981","system_id":"levelo_inurba_marseille","lat":43.31212,"lon":5.36881,"is_reserved":false,"is_disabled":false,"rental_uris":{"android":"levelo://app?vid=a2ee25d3-aa2e-4df8-9c3a-9a6ebd1fa981","ios":"levelo://app?vid=a2ee25d3-aa2e-4df8-9c3a-9a6ebd1fa981"},"vehicle_type_id":"4","last_reported":1768849940,"current_range_meters":3600,"station_id":"ce4bgl92rcd13ifvqbq0","pricing_plan_id":"cebpf4jnsgd1na2vs0mg"},{"bike_id":"40ecb84e-d2ac-4a6c-ad1d-6416db8fb424","system_id":"levelo_inurba_marseille","lat":43.24177,"lon":5.39724,"is_reserved":false,"is_disabled":false,"rental_uris":{"android":"levelo://app?vid=40ecb84e-d2ac-4a6c-ad1d-6416db8fb424","ios":"levelo://app?vid=40ecb84e-d2ac-4a6c-ad1d-6416db8fb424"},"vehicle_type_id":"4","last_reported":1768849940,"current_range_meters":3600,"station_id":"ce4bhn12rcd13ifvqgpg","pricing_plan_id":"cebpf4jnsgd1na2vs0mg"},{"bike_id":"f5a7fe50-3f88-4424-9093-9d69e6cd583d","system_id":"levelo_inurba_marseille","lat":43.22563,"lon":5.41622,"is_reserved":false,"is_disabled":false,"rental_uris":{"android":"levelo://app?vid=f5a7fe50-3f88-4424-9093-9d69e6cd583d","ios":"levelo://app?vid=f5a7fe50-3f88-4424-9093-9d69e6cd583d"},"vehicle_type_id":"4","last_reported":1768849940,"current_range_meters":3600,"station_id":"st_d2o4gvlbi1j2169b742g","pricing_plan_id":"cebpf4jnsgd1na2vs0mg"},{"bike_id":"98553fec-1451-4e46-8a7f-b9bc174c9b4f","system_id":"levelo_inurba_marseille","lat":43.298,"lon":5.39326,"is_reserved":false,"is_disabled":false,"rental_uris":{"android":"levelo://app?vid=98553fec-1451-4e46-8a7f-b9bc174c9b4f","ios":"levelo://app?vid=98553fec-1451-4e46-8a7f-b9bc174c9b4f"},"vehicle_type_id":"4","last_reported":1768849940,"current_range_meters":3600,"station_id":"chh1huq6cuj3fo74tm60","pricing_plan_id":"cebpf4jnsgd1na2vs0mg"},{"bike_id":"2e17895b-acf6-448a-b3ce-8d2b98150186","system_id":"levelo_inurba_marseille","lat":43.28274,"lon":5.35049,"is_reserved":false,"is_disabled":false,"rental_uris":{"android":"levelo://app?vid=2e17895b-acf6-448a-b3ce-8d2b98150186","ios":"levelo://app?vid=2e17895b-acf6-448a-b3ce-8d2b98150186"},"vehicle_type_id":"4","last_reported":1768849940,"current_range_meters":3600,"station_id":"ce4bhbp2rcd13ifvqerg","pricing_plan_id":"cebpf4jnsgd1na2vs0mg"},{"bike_id":"6473bd0f-8511-4a8a-89c5-9091f9cdad57","system_id":"levelo_inurba_marseille","lat":43.25571,"lon":5.38242,"is_reserved":false,"is_disabled":false,"rental_uris":{"android":"levelo://app?vid=6473bd0f-8511-4a8a-89c5-9091f9cdad57","ios":"levelo://app?vid=6473bd0f-8511-4a8a-89c5-9091f9cdad57"},"vehicle_type_id":"4","last_reported":1768849940,"current_range_meters":3600,"station_id":"ce4bhih2rcd13ifvqfs0","pricing_plan_id":"cebpf4jnsgd1na2vs0mg"},{"bike_id":"8ebb2247-586f-48b1-a963-c98a0d338c56","system_id":"levelo_inurba_marseille","lat":43.23789,"lon":5.36592,"is_reserved":false,"is_disabled":false,"rental_uris":{"android":"levelo://app?vid=8ebb2247-586f-48b1-a963-c98a0d338c56","ios":"levelo://app?vid=8ebb2247-586f-48b1-a963-c98a0d338c56"},"vehicle_type_id":"4","last_reported":1768849940,"current_range_meters":3600,"station_id":"st_d3nk18o9ro0c73en2l3g","pricing_plan_id":"cebpf4jnsgd1na2vs0mg"},{"bike_id":"d9886c1a-279f-43dd-8640-9d720eba9676","system_id":"levelo_inurba_marseille","lat":43.25581,"lon":5.38248,"is_reserved":false,"is_disabled":false,"rental_uris":{"android":"levelo://app?vid=d9886c1a-279f-43dd-8640-9d720eba9676","ios":"levelo://app?vid=d9886c1a-279f-43dd-8640-9d720eba9676"},"vehicle_type_id":"4","last_reported":1768849940,"current_range_meters":3600,"station_id":"ce4bhih2rcd13ifvqfs0","pricing_plan_id":"cebpf4jnsgd1na2vs0mg"},{"bike_id":"7c429d88-caa9-46ca-87e9-a9f1305ab716","system_id":"levelo_inurba_marseille","lat":43.2606,"lon":5.39397,"is_reserved":false,"is_disabled":false,"rental_uris":{"android":"levelo://app?vid=7c429d88-caa9-46ca-87e9-a9f1305ab716","ios":"levelo://app?vid=7c429d88-caa9-46ca-87e9-a9f1305ab716"},"vehicle_type_id":"4","last_reported":1768849940,"current_range_meters":3600,"station_id":"ce4bhh92rcd13ifvqfj0","pricing_plan_id":"cebpf4jnsgd1na2vs0mg"},{"bike_id":"8f427c4b-359c-4b99-bbae-48c55075fd99","system_id":"levelo_inurba_marseille","lat":43.30297,"lon":5.392,"is_reserved":false,"is_disabled":false,"rental_uris":{"android":"levelo://app?vid=8f427c4b-359c-4b99-bbae-48c55075fd99","ios":"levelo://app?vid=8f427c4b-359c-4b99-bbae-48c55075fd99"},"vehicle_type_id":"4","last_reported":1768849940,"current_range_meters":3600,"station_id":"ce4bgkh2rcd13ifvqbk0","pricing_plan_id":"cebpf4jnsgd1na2vs0mg"},{"bike_id":"813bb98d-434d-43cd-8c1a-9bd512b01d13","system_id":"levelo_inurba_marseille","lat":43.28613,"lon":5.35102,"is_reserved":false,"is_disabled":false,"rental_uris":{"android":"levelo://app?vid=813bb98d-434d-43cd-8c1a-9bd512b01d13","ios":"levelo://app?vid=813bb98d-434d-43cd-8c1a-9bd512b01d13"},"vehicle_type_id":"4","last_reported":1768849940,"current_range_meters":4000,"station_id":"ce4bhch2rcd13ifvqeug","pricing_plan_id":"cebpf4jnsgd1na2vs0mg"},{"bike_id":"a771c0ca-44a0-49a4-bdda-9b2852872475","system_id":"levelo_inurba_marseille","lat":43.28347,"lon":5.381,"is_reserved":false,"is_disabled":false,"rental_uris":{"android":"levelo://app?vid=a771c0ca-44a0-49a4-bdda-9b2852872475","ios":"levelo://app?vid=a771c0ca-44a0-49a4-bdda-9b2852872475"},"vehicle_type_id":"4","last_reported":1768849940,"current_range_meters":4000,"station_id":"ce4bh412rcd13ifvqdr0","pricing_plan_id":"cebpf4jnsgd1na2vs0mg"},{"bike_id":"79f3f122-9f89-4f99-9887-dff31882f49b","system_id":"levelo_inurba_marseille","lat":43.31061,"lon":5.38331,"is_reserved":false,"is_disabled":false,"rental_uris":{"android":"levelo://app?vid=79f3f122-9f89-4f99-9887-dff31882f49b","ios":"levelo://app?vid=79f3f122-9f89-4f99-9887-dff31882f49b"},"vehicle_type_id":"4","last_reported":1768849940,"current_range_meters":4000,"station_id":"ce4bgv92rcd13ifvqcr0","pricing_plan_id":"cebpf4jnsgd1na2vs0mg"},{"bike_id":"3c6209fa-7649-4438-9263-0ad1a8c56a01","system_id":"levelo_inurba_marseille","lat":43.27181,"lon":5.40996,"is_reserved":false,"is_disabled":false,"rental_uris":{"android":"levelo://app?vid=3c6209fa-7649-4438-9263-0ad1a8c56a01","ios":"levelo://app?vid=3c6209fa-7649-4438-9263-0ad1a8c56a01"},"vehicle_type_id":"4","last_reported":1768849940,"current_range_meters":4000,"station_id":"ce4bhl12rcd13ifvqgf0","pricing_plan_id":"cebpf4jnsgd1na2vs0mg"},{"bike_id":"a10eca83-916b-44fa-b2b4-c1bfebd8bd35","system_id":"levelo_inurba_marseille","lat":43.22929,"lon":5.3538,"is_reserved":false,"is_disabled":false,"rental_uris":{"android":"levelo://app?vid=a10eca83-916b-44fa-b2b4-c1bfebd8bd35","ios":"levelo://app?vid=a10eca83-916b-44fa-b2b4-c1bfebd8bd35"},"vehicle_type_id":"4","last_reported":1768849940,"current_range_meters":4000,"station_id":"cpo3532slgdg3j2ikp40","pricing_plan_id":"cebpf4jnsgd1na2vs0mg"},{"bike_id":"27c2d1b5-1d97-4e5a-900f-9b7ed09df10d","system_id":"levelo_inurba_marseille","lat":43.27992,"lon":5.40002,"is_reserved":false,"is_disabled":false,"rental_uris":{"android":"levelo://app?vid=27c2d1b5-1d97-4e5a-900f-9b7ed09df10d","ios":"levelo://app?vid=27c2d1b5-1d97-4e5a-900f-9b7ed09df10d"},"vehicle_type_id":"4","last_reported":1768849940,"current_range_meters":4000,"station_id":"ce4bho92rcd13ifvqh4g","pricing_plan_id":"cebpf4jnsgd1na2vs0mg"},{"bike_id":"ed2d0f68-3db3-4ee7-9893-81b0a6836ba0","system_id":"levelo_inurba_marseille","lat":43.24173,"lon":5.39726,"is_reserved":false,"is_disabled":false,"rental_uris":{"android":"levelo://app?vid=ed2d0f68-3db3-4ee7-9893-81b0a6836ba0","ios":"levelo://app?vid=ed2d0f68-3db3-4ee7-9893-81b0a6836ba0"},"vehicle_type_id":"4","last_reported":1768849940,"current_range_meters":4000,"station_id":"ce4bhn12rcd13ifvqgpg","pricing_plan_id":"cebpf4jnsgd1na2vs0mg"},{"bike_id":"b83c301d-6a09-4142-a82b-3802a6a2089f","system_id":"levelo_inurba_marseille","lat":43.28479,"lon":5.48388,"is_reserved":false,"is_disabled":false,"rental_uris":{"android":"levelo://app?vid=b83c301d-6a09-4142-a82b-3802a6a2089f","ios":"levelo://app?vid=b83c301d-6a09-4142-a82b-3802a6a2089f"},"vehicle_type_id":"4","last_reported":1768849940,"current_range_meters":4000,"station_id":"st_d3svhcjqgbts73a3dn0g","pricing_plan_id":"cebpf4jnsgd1na2vs0mg"},{"bike_id":"00aa0849-1d75-4c7c-b958-e4f30118a9c4","system_id":"levelo_inurba_marseille","lat":43.30254,"lon":5.40061,"is_reserved":false,"is_disabled":false,"rental_uris":{"android":"levelo://app?vid=00aa0849-1d75-4c7c-b958-e4f30118a9c4","ios":"levelo://app?vid=00aa0849-1d75-4c7c-b958-e4f30118a9c4"},"vehicle_type_id":"4","last_reported":1768849940,"current_range_meters":4000,"station_id":"ce4bgvh2rcd13ifvqcs0","pricing_plan_id":"cebpf4jnsgd1na2vs0mg"},{"bike_id":"71473849-5a56-4e7f-88cc-77e878587d4d","system_id":"levelo_inurba_marseille","lat":43.29786,"lon":5.39342,"is_reserved":false,"is_disabled":false,"rental_uris":{"android":"levelo://app?vid=71473849-5a56-4e7f-88cc-77e878587d4d","ios":"levelo://app?vid=71473849-5a56-4e7f-88cc-77e878587d4d"},"vehicle_type_id":"4","last_reported":1768849940,"current_range_meters":4000,"station_id":"chh1huq6cuj3fo74tm60","pricing_plan_id":"cebpf4jnsgd1na2vs0mg"},{"bike_id":"962a47bb-c795-4320-b031-c7ec9ada6e5f","system_id":"levelo_inurba_marseille","lat":43.291595,"lon":5.371492,"is_reserved":false,"is_disabled":false,"rental_uris":{"android":"levelo://app?vid=962a47bb-c795-4320-b031-c7ec9ada6e5f","ios":"levelo://app?vid=962a47bb-c795-4320-b031-c7ec9ada6e5f"},"vehicle_type_id":"4","last_reported":1768849940,"current_range_meters":4000,"station_id":"ce4bha92rcd13ifvqeh0","pricing_plan_id":"cebpf4jnsgd1na2vs0mg"},{"bike_id":"117903ef-5bd6-4546-bff1-baffee665714","system_id":"levelo_inurba_marseille","lat":43.28476,"lon":5.48395,"is_reserved":false,"is_disabled":false,"rental_uris":{"android":"levelo://app?vid=117903ef-5bd6-4546-bff1-baffee665714","ios":"levelo://app?vid=117903ef-5bd6-4546-bff1-baffee665714"},"vehicle_type_id":"4","last_reported":1768849940,"current_range_meters":4000,"station_id":"st_d3svhcjqgbts73a3dn0g","pricing_plan_id":"cebpf4jnsgd1na2vs0mg"},{"bike_id":"bcb15e92-bfe3-40d8-b167-65e99ab0c5d0","system_id":"levelo_inurba_marseille","lat":43.29521,"lon":5.394036,"is_reserved":false,"is_disabled":false,"rental_uris":{"android":"levelo://app?vid=bcb15e92-bfe3-40d8-b167-65e99ab0c5d0","ios":"levelo://app?vid=bcb15e92-bfe3-40d8-b167-65e99ab0c5d0"},"vehicle_type_id":"4","last_reported":1768849940,"current_range_meters":4000,"station_id":"ce4bh292rcd13ifvqdf0","pricing_plan_id":"cebpf4jnsgd1na2vs0mg"},{"bike_id":"d2f05f21-4515-48f7-b6a8-93dc7e663d69","system_id":"levelo_inurba_marseille","lat":43.29766,"lon":5.37105,"is_reserved":false,"is_disabled":false,"rental_uris":{"android":"levelo://app?vid=d2f05f21-4515-48f7-b6a8-93dc7e663d69","ios":"levelo://app?vid=d2f05f21-4515-48f7-b6a8-93dc7e663d69"},"vehicle_type_id":"4","last_reported":1768849940,"current_range_meters":4000,"station_id":"ce4bgop2rcd13ifvqc1g","pricing_plan_id":"cebpf4jnsgd1na2vs0mg"},{"bike_id":"80a8ac3b-cc85-4374-b4cf-5bdbb6ba6dbf","system_id":"levelo_inurba_marseille","lat":43.24665,"lon":5.38148,"is_reserved":false,"is_disabled":false,"rental_uris":{"android":"levelo://app?vid=80a8ac3b-cc85-4374-b4cf-5bdbb6ba6dbf","ios":"levelo://app?vid=80a8ac3b-cc85-4374-b4cf-5bdbb6ba6dbf"},"vehicle_type_id":"4","last_reported":1768849940,"current_range_meters":4000,"station_id":"ce4bhih2rcd13ifvqfr0","pricing_plan_id":"cebpf4jnsgd1na2vs0mg"},{"bike_id":"edec1336-f8b9-456f-9008-84801e124214","system_id":"levelo_inurba_marseille","lat":43.31048,"lon":5.37172,"is_reserved":false,"is_disabled":false,"rental_uris":{"android":"levelo://app?vid=edec1336-f8b9-456f-9008-84801e124214","ios":"levelo://app?vid=edec1336-f8b9-456f-9008-84801e124214"},"vehicle_type_id":"4","last_reported":1768849940,"current_range_meters":4000,"station_id":"st_d4kl2rp97mjs73e7tdfg","pricing_plan_id":"cebpf4jnsgd1na2vs0mg"},{"bike_id":"d8d0b4ce-f803-4a65-bfc9-483fcdce2563","system_id":"levelo_inurba_marseille","lat":43.296936,"lon":5.377464,"is_reserved":false,"is_disabled":false,"rental_uris":{"android":"levelo://app?vid=d8d0b4ce-f803-4a65-bfc9-483fcdce2563","ios":"levelo://app?vid=d8d0b4ce-f803-4a65-bfc9-483fcdce2563"},"vehicle_type_id":"4","last_reported":1768849940,"current_range_meters":4000,"station_id":"ce4bh692rcd13ifvqea0","pricing_plan_id":"cebpf4jnsgd1na2vs0mg"},{"bike_id":"bbe76d6d-dca3-4763-bcad-edc1f4802bb6","system_id":"levelo_inurba_marseille","lat":43.27972,"lon":5.38525,"is_reserved":false,"is_disabled":false,"rental_uris":{"android":"levelo://app?vid=bbe76d6d-dca3-4763-bcad-edc1f4802bb6","ios":"levelo://app?vid=bbe76d6d-dca3-4763-bcad-edc1f4802bb6"},"vehicle_type_id":"4","last_reported":1768849940,"current_range_meters":4400,"station_id":"","pricing_plan_id":"cebpf4jnsgd1na2vs0mg"},{"bike_id":"566c16cb-af13-4ec7-91df-08d6c3c5e69d","system_id":"levelo_inurba_marseille","lat":43.27385,"lon":5.362456,"is_reserved":false,"is_disabled":false,"rental_uris":{"android":"levelo://app?vid=566c16cb-af13-4ec7-91df-08d6c3c5e69d","ios":"levelo://app?vid=566c16cb-af13-4ec7-91df-08d6c3c5e69d"},"vehicle_type_id":"4","last_reported":1768849940,"current_range_meters":4400,"station_id":"ce4bhbh2rcd13ifvqeo0","pricing_plan_id":"cebpf4jnsgd1na2vs0mg"},{"bike_id":"18f7ef13-b6cd-4f0d-b776-b4d71a83d34e","system_id":"levelo_inurba_marseille","lat":43.2783,"lon":5.40729,"is_reserved":false,"is_disabled":false,"rental_uris":{"android":"levelo://app?vid=18f7ef13-b6cd-4f0d-b776-b4d71a83d34e","ios":"levelo://app?vid=18f7ef13-b6cd-4f0d-b776-b4d71a83d34e"},"vehicle_type_id":"4","last_reported":1768849940,"current_range_meters":4400,"station_id":"ce4bhnh2rcd13ifvqgtg","pricing_plan_id":"cebpf4jnsgd1na2vs0mg"},{"bike_id":"1e064ac5-997e-4102-a700-a96ce59a5367","system_id":"levelo_inurba_marseille","lat":43.28527,"lon":5.44096,"is_reserved":false,"is_disabled":false,"rental_uris":{"android":"levelo://app?vid=1e064ac5-997e-4102-a700-a96ce59a5367","ios":"levelo://app?vid=1e064ac5-997e-4102-a700-a96ce59a5367"},"vehicle_type_id":"4","last_reported":1768849940,"current_range_meters":4400,"station_id":"st_d3j3df2ikq2c7380ej80","pricing_plan_id":"cebpf4jnsgd1na2vs0mg"},{"bike_id":"ccd74f8a-2d31-4e3e-90cd-d53db1b81c64","system_id":"levelo_inurba_marseille","lat":43.26054,"lon":5.38655,"is_reserved":false,"is_disabled":false,"rental_uris":{"android":"levelo://app?vid=ccd74f8a-2d31-4e3e-90cd-d53db1b81c64","ios":"levelo://app?vid=ccd74f8a-2d31-4e3e-90cd-d53db1b81c64"},"vehicle_type_id":"4","last_reported":1768849940,"current_range_meters":4400,"station_id":"","pricing_plan_id":"cebpf4jnsgd1na2vs0mg"},{"bike_id":"02716a77-f5e1-4458-9825-dd28d9bb4577","system_id":"levelo_inurba_marseille","lat":43.24808,"lon":5.3746,"is_reserved":false,"is_disabled":false,"rental_uris":{"android":"levelo://app?vid=02716a77-f5e1-4458-9825-dd28d9bb4577","ios":"levelo://app?vid=02716a77-f5e1-4458-9825-dd28d9bb4577"},"vehicle_type_id":"4","last_reported":1768849940,"current_range_meters":4400,"station_id":"ce4bhgh2rcd13ifvqfb0","pricing_plan_id":"cebpf4jnsgd1na2vs0mg"},{"bike_id":"cd884fe9-cbb3-4571-9704-a4158116390e","system_id":"levelo_inurba_marseille","lat":43.30515,"lon":5.36524,"is_reserved":false,"is_disabled":false,"rental_uris":{"android":"levelo://app?vid=cd884fe9-cbb3-4571-9704-a4158116390e","ios":"levelo://app?vid=cd884fe9-cbb3-4571-9704-a4158116390e"},"vehicle_type_id":"4","last_reported":1768849940,"current_range_meters":4400,"station_id":"ce4bgs12rcd13ifvqcag","pricing_plan_id":"cebpf4jnsgd1na2vs0mg"},{"bike_id":"ccbc7cc7-8082-4767-b087-b8c8e3e07b84","system_id":"levelo_inurba_marseille","lat":43.23195,"lon":5.35543,"is_reserved":false,"is_disabled":false,"rental_uris":{"android":"levelo://app?vid=ccbc7cc7-8082-4767-b087-b8c8e3e07b84","ios":"levelo://app?vid=ccbc7cc7-8082-4767-b087-b8c8e3e07b84"},"vehicle_type_id":"4","last_reported":1768849940,"current_range_meters":4400,"station_id":"ce4bhu92rcd13ifvqi70","pricing_plan_id":"cebpf4jnsgd1na2vs0mg"},{"bike_id":"cce7be02-80bd-4769-b012-dc06457e18d6","system_id":"levelo_inurba_marseille","lat":43.24172,"lon":5.39719,"is_reserved":false,"is_disabled":false,"rental_uris":{"android":"levelo://app?vid=cce7be02-80bd-4769-b012-dc06457e18d6","ios":"levelo://app?vid=cce7be02-80bd-4769-b012-dc06457e18d6"},"vehicle_type_id":"4","last_reported":1768849940,"current_range_meters":4400,"station_id":"ce4bhn12rcd13ifvqgpg","pricing_plan_id":"cebpf4jnsgd1na2vs0mg"},{"bike_id":"a7b9cdf7-d3ba-444b-a212-5edc361237f4","system_id":"levelo_inurba_marseille","lat":43.28472,"lon":5.48423,"is_reserved":false,"is_disabled":false,"rental_uris":{"android":"levelo://app?vid=a7b9cdf7-d3ba-444b-a212-5edc361237f4","ios":"levelo://app?vid=a7b9cdf7-d3ba-444b-a212-5edc361237f4"},"vehicle_type_id":"4","last_reported":1768849940,"current_range_meters":4400,"station_id":"","pricing_plan_id":"cebpf4jnsgd1na2vs0mg"},{"bike_id":"e04cb3ad-fc7f-4e99-919f-8ba09f925bfb","system_id":"levelo_inurba_marseille","lat":43.26785,"lon":5.39407,"is_reserved":false,"is_disabled":false,"rental_uris":{"android":"levelo://app?vid=e04cb3ad-fc7f-4e99-919f-8ba09f925bfb","ios":"levelo://app?vid=e04cb3ad-fc7f-4e99-919f-8ba09f925bfb"},"vehicle_type_id":"4","last_reported":1768849940,"current_range_meters":4400,"station_id":"ce4bhh12rcd13ifvqfg0","pricing_plan_id":"cebpf4jnsgd1na2vs0mg"},{"bike_id":"0483c482-0237-411d-b5cc-f061fcaa1cbc","system_id":"levelo_inurba_marseille","lat":43.26212,"lon":5.3744,"is_reserved":false,"is_disabled":false,"rental_uris":{"android":"levelo://app?vid=0483c482-0237-411d-b5cc-f061fcaa1cbc","ios":"levelo://app?vid=0483c482-0237-411d-b5cc-f061fcaa1cbc"},"vehicle_type_id":"4","last_reported":1768849940,"current_range_meters":4400,"station_id":"ce4bhgp2rcd13ifvqfc0","pricing_plan_id":"cebpf4jnsgd1na2vs0mg"},{"bike_id":"0f777b40-6201-4785-b5c3-15349ed8a611","system_id":"levelo_inurba_marseille","lat":43.28618,"lon":5.35101,"is_reserved":false,"is_disabled":false,"rental_uris":{"android":"levelo://app?vid=0f777b40-6201-4785-b5c3-15349ed8a611","ios":"levelo://app?vid=0f777b40-6201-4785-b5c3-15349ed8a611"},"vehicle_type_id":"4","last_reported":1768849940,"current_range_meters":4400,"station_id":"ce4bhch2rcd13ifvqeug","pricing_plan_id":"cebpf4jnsgd1na2vs0mg"},{"bike_id":"e81360ad-73b1-4e58-b823-2b5bfef1cb56","system_id":"levelo_inurba_marseille","lat":43.27069,"lon":5.42277,"is_reserved":false,"is_disabled":false,"rental_uris":{"android":"levelo://app?vid=e81360ad-73b1-4e58-b823-2b5bfef1cb56","ios":"levelo://app?vid=e81360ad-73b1-4e58-b823-2b5bfef1cb56"},"vehicle_type_id":"4","last_reported":1768849940,"current_range_meters":4800,"station_id":"ce4bhk92rcd13ifvqgb0","pricing_plan_id":"cebpf4jnsgd1na2vs0mg"},{"bike_id":"910cfe43-a618-4ee9-a7b1-5d5b63afa86d","system_id":"levelo_inurba_marseille","lat":43.25865,"lon":5.39891,"is_reserved":false,"is_disabled":false,"rental_uris":{"android":"levelo://app?vid=910cfe43-a618-4ee9-a7b1-5d5b63afa86d","ios":"levelo://app?vid=910cfe43-a618-4ee9-a7b1-5d5b63afa86d"},"vehicle_type_id":"4","last_reported":1768849940,"current_range_meters":4800,"station_id":"ce4bhl92rcd13ifvqghg","pricing_plan_id":"cebpf4jnsgd1na2vs0mg"},{"bike_id":"519b1b23-ee6a-48f5-b3d6-7b553c904b51","system_id":"levelo_inurba_marseille","lat":43.22949,"lon":5.3542,"is_reserved":false,"is_disabled":false,"rental_uris":{"android":"levelo://app?vid=519b1b23-ee6a-48f5-b3d6-7b553c904b51","ios":"levelo://app?vid=519b1b23-ee6a-48f5-b3d6-7b553c904b51"},"vehicle_type_id":"4","last_reported":1768849940,"current_range_meters":4800,"station_id":"cpo3532slgdg3j2ikp40","pricing_plan_id":"cebpf4jnsgd1na2vs0mg"},{"bike_id":"adfdcb17-e56a-40ea-abeb-5e7a10692630","system_id":"levelo_inurba_marseille","lat":43.27955,"lon":5.41053,"is_reserved":false,"is_disabled":false,"rental_uris":{"android":"levelo://app?vid=adfdcb17-e56a-40ea-abeb-5e7a10692630","ios":"levelo://app?vid=adfdcb17-e56a-40ea-abeb-5e7a10692630"},"vehicle_type_id":"4","last_reported":1768849940,"current_range_meters":4800,"station_id":"ce4bhnp2rcd13ifvqh0g","pricing_plan_id":"cebpf4jnsgd1na2vs0mg"},{"bike_id":"b9b4f431-82fc-4bbf-9af4-1dfdef347107","system_id":"levelo_inurba_marseille","lat":43.28485,"lon":5.38536,"is_reserved":false,"is_disabled":false,"rental_uris":{"android":"levelo://app?vid=b9b4f431-82fc-4bbf-9af4-1dfdef347107","ios":"levelo://app?vid=b9b4f431-82fc-4bbf-9af4-1dfdef347107"},"vehicle_type_id":"4","last_reported":1768849940,"current_range_meters":4800,"station_id":"ce4bh8p2rcd13ifvqeb0","pricing_plan_id":"cebpf4jnsgd1na2vs0mg"},{"bike_id":"b2163139-abab-427e-8e7a-fe339d81b393","system_id":"levelo_inurba_marseille","lat":43.23971,"lon":5.36613,"is_reserved":false,"is_disabled":false,"rental_uris":{"android":"levelo://app?vid=b2163139-abab-427e-8e7a-fe339d81b393","ios":"levelo://app?vid=b2163139-abab-427e-8e7a-fe339d81b393"},"vehicle_type_id":"4","last_reported":1768849940,"current_range_meters":4800,"station_id":"ce4bhi12rcd13ifvqfp0","pricing_plan_id":"cebpf4jnsgd1na2vs0mg"},{"bike_id":"fd3f4173-c82d-46ec-b628-06bc786454ec","system_id":"levelo_inurba_marseille","lat":43.280767,"lon":5.396445,"is_reserved":false,"is_disabled":false,"rental_uris":{"android":"levelo://app?vid=fd3f4173-c82d-46ec-b628-06bc786454ec","ios":"levelo://app?vid=fd3f4173-c82d-46ec-b628-06bc786454ec"},"vehicle_type_id":"4","last_reported":1768849940,"current_range_meters":4800,"station_id":"ce4bho12rcd13ifvqh2g","pricing_plan_id":"cebpf4jnsgd1na2vs0mg"},{"bike_id":"22ce8a79-325d-443d-92dc-ed8adb267fb8","system_id":"levelo_inurba_marseille","lat":43.27558,"lon":5.38423,"is_reserved":false,"is_disabled":false,"rental_uris":{"android":"levelo://app?vid=22ce8a79-325d-443d-92dc-ed8adb267fb8","ios":"levelo://app?vid=22ce8a79-325d-443d-92dc-ed8adb267fb8"},"vehicle_type_id":"4","last_reported":1768849940,"current_range_meters":4800,"station_id":"ce4bhh92rcd13ifvqfi0","pricing_plan_id":"cebpf4jnsgd1na2vs0mg"},{"bike_id":"10e13a60-ba7e-426b-843a-c557785aafcf","system_id":"levelo_inurba_marseille","lat":43.27943,"lon":5.41045,"is_reserved":false,"is_disabled":false,"rental_uris":{"android":"levelo://app?vid=10e13a60-ba7e-426b-843a-c557785aafcf","ios":"levelo://app?vid=10e13a60-ba7e-426b-843a-c557785aafcf"},"vehicle_type_id":"4","last_reported":1768849940,"current_range_meters":4800,"station_id":"ce4bhnp2rcd13ifvqh0g","pricing_plan_id":"cebpf4jnsgd1na2vs0mg"},{"bike_id":"70df7a63-f6dc-4fc7-a745-17cac0c33422","system_id":"levelo_inurba_marseille","lat":43.2834,"lon":5.38106,"is_reserved":false,"is_disabled":false,"rental_uris":{"android":"levelo://app?vid=70df7a63-f6dc-4fc7-a745-17cac0c33422","ios":"levelo://app?vid=70df7a63-f6dc-4fc7-a745-17cac0c33422"},"vehicle_type_id":"4","last_reported":1768849940,"current_range_meters":5600,"station_id":"ce4bh412rcd13ifvqdr0","pricing_plan_id":"cebpf4jnsgd1na2vs0mg"},{"bike_id":"75f997a3-93af-4a2e-b726-b4b900d97c79","system_id":"levelo_inurba_marseille","lat":43.26555,"lon":5.39012,"is_reserved":false,"is_disabled":false,"rental_uris":{"android":"levelo://app?vid=75f997a3-93af-4a2e-b726-b4b900d97c79","ios":"levelo://app?vid=75f997a3-93af-4a2e-b726-b4b900d97c79"},"vehicle_type_id":"4","last_reported":1768849940,"current_range_meters":5600,"station_id":"ce4bhe12rcd13ifvqf30","pricing_plan_id":"cebpf4jnsgd1na2vs0mg"},{"bike_id":"8fc40975-6cc9-4b56-9cfb-b7a269b5783c","system_id":"levelo_inurba_marseille","lat":43.26062,"lon":5.39384,"is_reserved":false,"is_disabled":false,"rental_uris":{"android":"levelo://app?vid=8fc40975-6cc9-4b56-9cfb-b7a269b5783c","ios":"levelo://app?vid=8fc40975-6cc9-4b56-9cfb-b7a269b5783c"},"vehicle_type_id":"4","last_reported":1768849940,"current_range_meters":5600,"station_id":"ce4bhh92rcd13ifvqfj0","pricing_plan_id":"cebpf4jnsgd1na2vs0mg"},{"bike_id":"8c675252-f995-4cab-bc9d-6050b2977bf7","system_id":"levelo_inurba_marseille","lat":43.25346,"lon":5.42181,"is_reserved":false,"is_disabled":false,"rental_uris":{"android":"levelo://app?vid=8c675252-f995-4cab-bc9d-6050b2977bf7","ios":"levelo://app?vid=8c675252-f995-4cab-bc9d-6050b2977bf7"},"vehicle_type_id":"4","last_reported":1768849940,"current_range_meters":5600,"station_id":"st_d2m65c5bi1j21697t3ng","pricing_plan_id":"cebpf4jnsgd1na2vs0mg"},{"bike_id":"13fefcb0-0d8a-4c1d-a4bd-73329160c8d6","system_id":"levelo_inurba_marseille","lat":43.28724,"lon":5.36076,"is_reserved":false,"is_disabled":false,"rental_uris":{"android":"levelo://app?vid=13fefcb0-0d8a-4c1d-a4bd-73329160c8d6","ios":"levelo://app?vid=13fefcb0-0d8a-4c1d-a4bd-73329160c8d6"},"vehicle_type_id":"4","last_reported":1768849940,"current_range_meters":5600,"station_id":"cki0cbj6b192h4jlfktg","pricing_plan_id":"cebpf4jnsgd1na2vs0mg"},{"bike_id":"e9f199d7-160b-4a78-86a7-a5556593b826","system_id":"levelo_inurba_marseille","lat":43.29843,"lon":5.36289,"is_reserved":false,"is_disabled":false,"rental_uris":{"android":"levelo://app?vid=e9f199d7-160b-4a78-86a7-a5556593b826","ios":"levelo://app?vid=e9f199d7-160b-4a78-86a7-a5556593b826"},"vehicle_type_id":"4","last_reported":1768849940,"current_range_meters":5600,"station_id":"","pricing_plan_id":"cebpf4jnsgd1na2vs0mg"},{"bike_id":"06aa1e22-882b-4a8c-bb89-f22e976a2f36","system_id":"levelo_inurba_marseille","lat":43.24177,"lon":5.39697,"is_reserved":false,"is_disabled":false,"rental_uris":{"android":"levelo://app?vid=06aa1e22-882b-4a8c-bb89-f22e976a2f36","ios":"levelo://app?vid=06aa1e22-882b-4a8c-bb89-f22e976a2f36"},"vehicle_type_id":"4","last_reported":1768849940,"current_range_meters":5600,"station_id":"ce4bhn12rcd13ifvqgpg","pricing_plan_id":"cebpf4jnsgd1na2vs0mg"},{"bike_id":"aaa4b6d3-2020-4267-b706-09f520a009c6","system_id":"levelo_inurba_marseille","lat":43.31533,"lon":5.38043,"is_reserved":false,"is_disabled":false,"rental_uris":{"android":"levelo://app?vid=aaa4b6d3-2020-4267-b706-09f520a009c6","ios":"levelo://app?vid=aaa4b6d3-2020-4267-b706-09f520a009c6"},"vehicle_type_id":"4","last_reported":1768849940,"current_range_meters":5600,"station_id":"ce4bhsp2rcd13ifvqi50","pricing_plan_id":"cebpf4jnsgd1na2vs0mg"},{"bike_id":"acadf54d-fcf7-48e4-9052-0dc0de249aaa","system_id":"levelo_inurba_marseille","lat":43.28856,"lon":5.35838,"is_reserved":false,"is_disabled":false,"rental_uris":{"android":"levelo://app?vid=acadf54d-fcf7-48e4-9052-0dc0de249aaa","ios":"levelo://app?vid=acadf54d-fcf7-48e4-9052-0dc0de249aaa"},"vehicle_type_id":"4","last_reported":1768849940,"current_range_meters":5600,"station_id":"ce4bhb12rcd13ifvqem0","pricing_plan_id":"cebpf4jnsgd1na2vs0mg"},{"bike_id":"27839aae-08a4-41df-a134-f64b2371390e","system_id":"levelo_inurba_marseille","lat":43.28927,"lon":5.384,"is_reserved":false,"is_disabled":false,"rental_uris":{"android":"levelo://app?vid=27839aae-08a4-41df-a134-f64b2371390e","ios":"levelo://app?vid=27839aae-08a4-41df-a134-f64b2371390e"},"vehicle_type_id":"4","last_reported":1768849940,"current_range_meters":5600,"station_id":"ce4bh612rcd13ifvqe6g","pricing_plan_id":"cebpf4jnsgd1na2vs0mg"},{"bike_id":"58713724-2b25-4434-ac95-768a9f7f218a","system_id":"levelo_inurba_marseille","lat":43.25221,"lon":5.38037,"is_reserved":false,"is_disabled":false,"rental_uris":{"android":"levelo://app?vid=58713724-2b25-4434-ac95-768a9f7f218a","ios":"levelo://app?vid=58713724-2b25-4434-ac95-768a9f7f218a"},"vehicle_type_id":"4","last_reported":1768849940,"current_range_meters":5600,"station_id":"","pricing_plan_id":"cebpf4jnsgd1na2vs0mg"},{"bike_id":"3cb5df67-081d-455e-9cd0-d3a7f30503bb","system_id":"levelo_inurba_marseille","lat":43.282621,"lon":5.350608,"is_reserved":false,"is_disabled":false,"rental_uris":{"android":"levelo://app?vid=3cb5df67-081d-455e-9cd0-d3a7f30503bb","ios":"levelo://app?vid=3cb5df67-081d-455e-9cd0-d3a7f30503bb"},"vehicle_type_id":"4","last_reported":1768849940,"current_range_meters":5600,"station_id":"ce4bhbp2rcd13ifvqerg","pricing_plan_id":"cebpf4jnsgd1na2vs0mg"},{"bike_id":"e057ae2d-4eea-4583-8acf-116960ce087b","system_id":"levelo_inurba_marseille","lat":43.27808,"lon":5.4072,"is_reserved":false,"is_disabled":false,"rental_uris":{"android":"levelo://app?vid=e057ae2d-4eea-4583-8acf-116960ce087b","ios":"levelo://app?vid=e057ae2d-4eea-4583-8acf-116960ce087b"},"vehicle_type_id":"4","last_reported":1768849940,"current_range_meters":5600,"station_id":"ce4bhnh2rcd13ifvqgtg","pricing_plan_id":"cebpf4jnsgd1na2vs0mg"},{"bike_id":"57d29cba-b269-4d3a-9f6a-9e2e25fad12b","system_id":"levelo_inurba_marseille","lat":43.24804,"lon":5.37444,"is_reserved":false,"is_disabled":false,"rental_uris":{"android":"levelo://app?vid=57d29cba-b269-4d3a-9f6a-9e2e25fad12b","ios":"levelo://app?vid=57d29cba-b269-4d3a-9f6a-9e2e25fad12b"},"vehicle_type_id":"4","last_reported":1768849940,"current_range_meters":6000,"station_id":"ce4bhgh2rcd13ifvqfb0","pricing_plan_id":"cebpf4jnsgd1na2vs0mg"},{"bike_id":"a4a6af33-604e-4b5a-a662-fd199e256423","system_id":"levelo_inurba_marseille","lat":43.31755,"lon":5.39017,"is_reserved":false,"is_disabled":false,"rental_uris":{"android":"levelo://app?vid=a4a6af33-604e-4b5a-a662-fd199e256423","ios":"levelo://app?vid=a4a6af33-604e-4b5a-a662-fd199e256423"},"vehicle_type_id":"4","last_reported":1768849940,"current_range_meters":6000,"station_id":"ce4bhqp2rcd13ifvqhng","pricing_plan_id":"cebpf4jnsgd1na2vs0mg"},{"bike_id":"20ff67e5-d319-4566-8b20-7f51d229e5de","system_id":"levelo_inurba_marseille","lat":43.23791,"lon":5.36624,"is_reserved":false,"is_disabled":false,"rental_uris":{"android":"levelo://app?vid=20ff67e5-d319-4566-8b20-7f51d229e5de","ios":"levelo://app?vid=20ff67e5-d319-4566-8b20-7f51d229e5de"},"vehicle_type_id":"4","last_reported":1768849940,"current_range_meters":6000,"station_id":"st_d3nk18o9ro0c73en2l3g","pricing_plan_id":"cebpf4jnsgd1na2vs0mg"},{"bike_id":"dc9b8f42-6fb6-4a92-81b5-3ba3201183a1","system_id":"levelo_inurba_marseille","lat":43.2996,"lon":5.38481,"is_reserved":false,"is_disabled":true,"rental_uris":{"android":"levelo://app?vid=dc9b8f42-6fb6-4a92-81b5-3ba3201183a1","ios":"levelo://app?vid=dc9b8f42-6fb6-4a92-81b5-3ba3201183a1"},"vehicle_type_id":"4","last_reported":1768849940,"current_range_meters":6000,"station_id":"ce4bgj92rcd13ifvqbd0","pricing_plan_id":"cebpf4jnsgd1na2vs0mg"},{"bike_id":"5704e9bd-5b46-470f-b72c-dc5633415471","system_id":"levelo_inurba_marseille","lat":43.23139,"lon":5.43727,"is_reserved":false,"is_disabled":true,"rental_uris":{"android":"levelo://app?vid=5704e9bd-5b46-470f-b72c-dc5633415471","ios":"levelo://app?vid=5704e9bd-5b46-470f-b72c-dc5633415471"},"vehicle_type_id":"4","last_reported":1768849940,"current_range_meters":6000,"station_id":"ce4bhmp2rcd13ifvqgog","pricing_plan_id":"cebpf4jnsgd1na2vs0mg"},{"bike_id":"be031133-e896-428b-a8eb-2eb924254bab","system_id":"levelo_inurba_marseille","lat":43.24072,"lon":5.37758,"is_reserved":false,"is_disabled":false,"rental_uris":{"android":"levelo://app?vid=be031133-e896-428b-a8eb-2eb924254bab","ios":"levelo://app?vid=be031133-e896-428b-a8eb-2eb924254bab"},"vehicle_type_id":"4","last_reported":1768849940,"current_range_meters":6000,"station_id":"ce4bhnp2rcd13ifvqgvg","pricing_plan_id":"cebpf4jnsgd1na2vs0mg"},{"bike_id":"d3812b38-2182-4903-b326-c4852403c5ce","system_id":"levelo_inurba_marseille","lat":43.28751,"lon":5.37151,"is_reserved":false,"is_disabled":false,"rental_uris":{"android":"levelo://app?vid=d3812b38-2182-4903-b326-c4852403c5ce","ios":"levelo://app?vid=d3812b38-2182-4903-b326-c4852403c5ce"},"vehicle_type_id":"4","last_reported":1768849940,"current_range_meters":6000,"station_id":"","pricing_plan_id":"cebpf4jnsgd1na2vs0mg"},{"bike_id":"0fe63e24-0a1c-4b5c-ad48-e02bd4059201","system_id":"levelo_inurba_marseille","lat":43.31325,"lon":5.39694,"is_reserved":false,"is_disabled":false,"rental_uris":{"android":"levelo://app?vid=0fe63e24-0a1c-4b5c-ad48-e02bd4059201","ios":"levelo://app?vid=0fe63e24-0a1c-4b5c-ad48-e02bd4059201"},"vehicle_type_id":"4","last_reported":1768849940,"current_range_meters":6000,"station_id":"ce4bgvp2rcd13ifvqcu0","pricing_plan_id":"cebpf4jnsgd1na2vs0mg"},{"bike_id":"1737015d-814a-4325-a351-c0387122ae54","system_id":"levelo_inurba_marseille","lat":43.29032,"lon":5.38649,"is_reserved":false,"is_disabled":false,"rental_uris":{"android":"levelo://app?vid=1737015d-814a-4325-a351-c0387122ae54","ios":"levelo://app?vid=1737015d-814a-4325-a351-c0387122ae54"},"vehicle_type_id":"4","last_reported":1768849940,"current_range_meters":6000,"station_id":"ce4bh4p2rcd13ifvqe0g","pricing_plan_id":"cebpf4jnsgd1na2vs0mg"},{"bike_id":"6fad7884-ed1a-40b9-a160-bc0033b5731b","system_id":"levelo_inurba_marseille","lat":43.30229,"lon":5.40064,"is_reserved":false,"is_disabled":false,"rental_uris":{"android":"levelo://app?vid=6fad7884-ed1a-40b9-a160-bc0033b5731b","ios":"levelo://app?vid=6fad7884-ed1a-40b9-a160-bc0033b5731b"},"vehicle_type_id":"4","last_reported":1768849940,"current_range_meters":6000,"station_id":"ce4bgvh2rcd13ifvqcs0","pricing_plan_id":"cebpf4jnsgd1na2vs0mg"},{"bike_id":"5bdbac83-4ca9-4acc-953c-d7ce0bac2fc0","system_id":"levelo_inurba_marseille","lat":43.33753,"lon":5.37462,"is_reserved":false,"is_disabled":false,"rental_uris":{"android":"levelo://app?vid=5bdbac83-4ca9-4acc-953c-d7ce0bac2fc0","ios":"levelo://app?vid=5bdbac83-4ca9-4acc-953c-d7ce0bac2fc0"},"vehicle_type_id":"4","last_reported":1768849940,"current_range_meters":6000,"station_id":"","pricing_plan_id":"cebpf4jnsgd1na2vs0mg"},{"bike_id":"306ae422-344d-4e31-b790-440e968153a0","system_id":"levelo_inurba_marseille","lat":43.25308,"lon":5.38016,"is_reserved":false,"is_disabled":false,"rental_uris":{"android":"levelo://app?vid=306ae422-344d-4e31-b790-440e968153a0","ios":"levelo://app?vid=306ae422-344d-4e31-b790-440e968153a0"},"vehicle_type_id":"4","last_reported":1768849940,"current_range_meters":6000,"station_id":"","pricing_plan_id":"cebpf4jnsgd1na2vs0mg"},{"bike_id":"683b622d-138d-4a2c-a66a-622dbc6b61c1","system_id":"levelo_inurba_marseille","lat":43.29856,"lon":5.36261,"is_reserved":false,"is_disabled":false,"rental_uris":{"android":"levelo://app?vid=683b622d-138d-4a2c-a66a-622dbc6b61c1","ios":"levelo://app?vid=683b622d-138d-4a2c-a66a-622dbc6b61c1"},"vehicle_type_id":"4","last_reported":1768849940,"current_range_meters":6000,"station_id":"ce4bgpp2rcd13ifvqc3g","pricing_plan_id":"cebpf4jnsgd1na2vs0mg"},{"bike_id":"5ae88bbd-8cbd-41bb-a736-0a14706247a2","system_id":"levelo_inurba_marseille","lat":43.26581,"lon":5.40316,"is_reserved":false,"is_disabled":false,"rental_uris":{"android":"levelo://app?vid=5ae88bbd-8cbd-41bb-a736-0a14706247a2","ios":"levelo://app?vid=5ae88bbd-8cbd-41bb-a736-0a14706247a2"},"vehicle_type_id":"4","last_reported":1768849940,"current_range_meters":6000,"station_id":"ce4bhmp2rcd13ifvqgng","pricing_plan_id":"cebpf4jnsgd1na2vs0mg"},{"bike_id":"fc67e3f2-2883-4821-838b-cbd3c636615f","system_id":"levelo_inurba_marseille","lat":43.24155,"lon":5.39698,"is_reserved":false,"is_disabled":false,"rental_uris":{"android":"levelo://app?vid=fc67e3f2-2883-4821-838b-cbd3c636615f","ios":"levelo://app?vid=fc67e3f2-2883-4821-838b-cbd3c636615f"},"vehicle_type_id":"4","last_reported":1768849940,"current_range_meters":6000,"station_id":"ce4bhn12rcd13ifvqgpg","pricing_plan_id":"cebpf4jnsgd1na2vs0mg"},{"bike_id":"74936c71-37c2-4317-ac96-b6773140ff2e","system_id":"levelo_inurba_marseille","lat":43.25876,"lon":5.39893,"is_reserved":false,"is_disabled":false,"rental_uris":{"android":"levelo://app?vid=74936c71-37c2-4317-ac96-b6773140ff2e","ios":"levelo://app?vid=74936c71-37c2-4317-ac96-b6773140ff2e"},"vehicle_type_id":"4","last_reported":1768849940,"current_range_meters":6000,"station_id":"ce4bhl92rcd13ifvqghg","pricing_plan_id":"cebpf4jnsgd1na2vs0mg"},{"bike_id":"b0563152-00ff-4ea3-811e-c19b5e562182","system_id":"levelo_inurba_marseille","lat":43.29188,"lon":5.39302,"is_reserved":false,"is_disabled":false,"rental_uris":{"android":"levelo://app?vid=b0563152-00ff-4ea3-811e-c19b5e562182","ios":"levelo://app?vid=b0563152-00ff-4ea3-811e-c19b5e562182"},"vehicle_type_id":"4","last_reported":1768849940,"current_range_meters":6000,"station_id":"ce4bh192rcd13ifvqdd0","pricing_plan_id":"cebpf4jnsgd1na2vs0mg"},{"bike_id":"09fe2f8f-3598-4dad-b4e1-da67692f94c2","system_id":"levelo_inurba_marseille","lat":43.29282,"lon":5.3684,"is_reserved":false,"is_disabled":false,"rental_uris":{"android":"levelo://app?vid=09fe2f8f-3598-4dad-b4e1-da67692f94c2","ios":"levelo://app?vid=09fe2f8f-3598-4dad-b4e1-da67692f94c2"},"vehicle_type_id":"4","last_reported":1768849940,"current_range_meters":6000,"station_id":"ce4bhbp2rcd13ifvqesg","pricing_plan_id":"cebpf4jnsgd1na2vs0mg"},{"bike_id":"9e9a94e3-7bbd-41a4-b8da-ef406612944c","system_id":"levelo_inurba_marseille","lat":43.290077,"lon":5.356017,"is_reserved":false,"is_disabled":false,"rental_uris":{"android":"levelo://app?vid=9e9a94e3-7bbd-41a4-b8da-ef406612944c","ios":"levelo://app?vid=9e9a94e3-7bbd-41a4-b8da-ef406612944c"},"vehicle_type_id":"4","last_reported":1768849940,"current_range_meters":6400,"station_id":"ce4bhb92rcd13ifvqen0","pricing_plan_id":"cebpf4jnsgd1na2vs0mg"},{"bike_id":"f704cb4a-7f08-4a99-bb61-519c2e2a6cd6","system_id":"levelo_inurba_marseille","lat":43.28691,"lon":5.3866,"is_reserved":false,"is_disabled":false,"rental_uris":{"android":"levelo://app?vid=f704cb4a-7f08-4a99-bb61-519c2e2a6cd6","ios":"levelo://app?vid=f704cb4a-7f08-4a99-bb61-519c2e2a6cd6"},"vehicle_type_id":"4","last_reported":1768849940,"current_range_meters":6400,"station_id":"ce4bh492rcd13ifvqdug","pricing_plan_id":"cebpf4jnsgd1na2vs0mg"},{"bike_id":"51cc78b3-56e5-468f-95db-127ca277f928","system_id":"levelo_inurba_marseille","lat":43.2502,"lon":5.38884,"is_reserved":false,"is_disabled":false,"rental_uris":{"android":"levelo://app?vid=51cc78b3-56e5-468f-95db-127ca277f928","ios":"levelo://app?vid=51cc78b3-56e5-468f-95db-127ca277f928"},"vehicle_type_id":"4","last_reported":1768849940,"current_range_meters":6400,"station_id":"ce4bhgp2rcd13ifvqfd0","pricing_plan_id":"cebpf4jnsgd1na2vs0mg"},{"bike_id":"9f4d3d77-24d2-4792-bc23-447b966ab6a1","system_id":"levelo_inurba_marseille","lat":43.29273,"lon":5.38437,"is_reserved":false,"is_disabled":false,"rental_uris":{"android":"levelo://app?vid=9f4d3d77-24d2-4792-bc23-447b966ab6a1","ios":"levelo://app?vid=9f4d3d77-24d2-4792-bc23-447b966ab6a1"},"vehicle_type_id":"4","last_reported":1768849940,"current_range_meters":6400,"station_id":"ce4bh692rcd13ifvqea0","pricing_plan_id":"cebpf4jnsgd1na2vs0mg"},{"bike_id":"a83679e3-65d3-49c0-aa96-4844e203de21","system_id":"levelo_inurba_marseille","lat":43.33758,"lon":5.37493,"is_reserved":false,"is_disabled":false,"rental_uris":{"android":"levelo://app?vid=a83679e3-65d3-49c0-aa96-4844e203de21","ios":"levelo://app?vid=a83679e3-65d3-49c0-aa96-4844e203de21"},"vehicle_type_id":"4","last_reported":1768849940,"current_range_meters":6400,"station_id":"","pricing_plan_id":"cebpf4jnsgd1na2vs0mg"},{"bike_id":"fad8de42-6f09-46d4-9d16-f1f85d53f510","system_id":"levelo_inurba_marseille","lat":43.298235,"lon":5.362191,"is_reserved":false,"is_disabled":false,"rental_uris":{"android":"levelo://app?vid=fad8de42-6f09-46d4-9d16-f1f85d53f510","ios":"levelo://app?vid=fad8de42-6f09-46d4-9d16-f1f85d53f510"},"vehicle_type_id":"4","last_reported":1768849940,"current_range_meters":6400,"station_id":"ce4bgpp2rcd13ifvqc3g","pricing_plan_id":"cebpf4jnsgd1na2vs0mg"},{"bike_id":"400d9415-7b61-4589-86d1-bb646d402f92","system_id":"levelo_inurba_marseille","lat":43.31202,"lon":5.36845,"is_reserved":false,"is_disabled":false,"rental_uris":{"android":"levelo://app?vid=400d9415-7b61-4589-86d1-bb646d402f92","ios":"levelo://app?vid=400d9415-7b61-4589-86d1-bb646d402f92"},"vehicle_type_id":"4","last_reported":1768849940,"current_range_meters":6400,"station_id":"ce4bgl92rcd13ifvqbq0","pricing_plan_id":"cebpf4jnsgd1na2vs0mg"},{"bike_id":"96124a7c-3af5-466e-bf63-2b71f1f8a0cd","system_id":"levelo_inurba_marseille","lat":43.262136,"lon":5.374314,"is_reserved":false,"is_disabled":false,"rental_uris":{"android":"levelo://app?vid=96124a7c-3af5-466e-bf63-2b71f1f8a0cd","ios":"levelo://app?vid=96124a7c-3af5-466e-bf63-2b71f1f8a0cd"},"vehicle_type_id":"4","last_reported":1768849940,"current_range_meters":6400,"station_id":"ce4bhgp2rcd13ifvqfc0","pricing_plan_id":"cebpf4jnsgd1na2vs0mg"},{"bike_id":"1dd59fdd-775c-4c2f-a5a5-3355fae7a44c","system_id":"levelo_inurba_marseille","lat":43.27824,"lon":5.40702,"is_reserved":false,"is_disabled":false,"rental_uris":{"android":"levelo://app?vid=1dd59fdd-775c-4c2f-a5a5-3355fae7a44c","ios":"levelo://app?vid=1dd59fdd-775c-4c2f-a5a5-3355fae7a44c"},"vehicle_type_id":"4","last_reported":1768849940,"current_range_meters":6400,"station_id":"ce4bhnh2rcd13ifvqgtg","pricing_plan_id":"cebpf4jnsgd1na2vs0mg"},{"bike_id":"f7781d26-6934-477c-ac6b-aeaa695df58b","system_id":"levelo_inurba_marseille","lat":43.25806,"lon":5.394,"is_reserved":false,"is_disabled":false,"rental_uris":{"android":"levelo://app?vid=f7781d26-6934-477c-ac6b-aeaa695df58b","ios":"levelo://app?vid=f7781d26-6934-477c-ac6b-aeaa695df58b"},"vehicle_type_id":"4","last_reported":1768849940,"current_range_meters":6400,"station_id":"ce4bhip2rcd13ifvqft0","pricing_plan_id":"cebpf4jnsgd1na2vs0mg"},{"bike_id":"43565008-54b6-415c-9faf-fa9e6acb1f2c","system_id":"levelo_inurba_marseille","lat":43.27987,"lon":5.39977,"is_reserved":false,"is_disabled":false,"rental_uris":{"android":"levelo://app?vid=43565008-54b6-415c-9faf-fa9e6acb1f2c","ios":"levelo://app?vid=43565008-54b6-415c-9faf-fa9e6acb1f2c"},"vehicle_type_id":"4","last_reported":1768849940,"current_range_meters":6400,"station_id":"ce4bho92rcd13ifvqh4g","pricing_plan_id":"cebpf4jnsgd1na2vs0mg"},{"bike_id":"19397a4a-7d91-4fbb-ba2f-c2cd6ef46178","system_id":"levelo_inurba_marseille","lat":43.26556,"lon":5.38997,"is_reserved":false,"is_disabled":false,"rental_uris":{"android":"levelo://app?vid=19397a4a-7d91-4fbb-ba2f-c2cd6ef46178","ios":"levelo://app?vid=19397a4a-7d91-4fbb-ba2f-c2cd6ef46178"},"vehicle_type_id":"4","last_reported":1768849940,"current_range_meters":6400,"station_id":"ce4bhe12rcd13ifvqf30","pricing_plan_id":"cebpf4jnsgd1na2vs0mg"},{"bike_id":"f2bd54e9-c204-4c08-9feb-e9f90c06b493","system_id":"levelo_inurba_marseille","lat":43.3111,"lon":5.37766,"is_reserved":false,"is_disabled":false,"rental_uris":{"android":"levelo://app?vid=f2bd54e9-c204-4c08-9feb-e9f90c06b493","ios":"levelo://app?vid=f2bd54e9-c204-4c08-9feb-e9f90c06b493"},"vehicle_type_id":"4","last_reported":1768849940,"current_range_meters":6400,"station_id":"ce4bgt92rcd13ifvqcg0","pricing_plan_id":"cebpf4jnsgd1na2vs0mg"},{"bike_id":"b9191914-44a7-40fa-86b6-e12b060320ad","system_id":"levelo_inurba_marseille","lat":43.295227,"lon":5.390226,"is_reserved":false,"is_disabled":false,"rental_uris":{"android":"levelo://app?vid=b9191914-44a7-40fa-86b6-e12b060320ad","ios":"levelo://app?vid=b9191914-44a7-40fa-86b6-e12b060320ad"},"vehicle_type_id":"4","last_reported":1768849940,"current_range_meters":6400,"station_id":"ce4bh0p2rcd13ifvqd70","pricing_plan_id":"cebpf4jnsgd1na2vs0mg"},{"bike_id":"8908fc5b-9433-4749-9240-07369405b203","system_id":"levelo_inurba_marseille","lat":43.24678,"lon":5.38134,"is_reserved":false,"is_disabled":false,"rental_uris":{"android":"levelo://app?vid=8908fc5b-9433-4749-9240-07369405b203","ios":"levelo://app?vid=8908fc5b-9433-4749-9240-07369405b203"},"vehicle_type_id":"4","last_reported":1768849940,"current_range_meters":6400,"station_id":"ce4bhih2rcd13ifvqfr0","pricing_plan_id":"cebpf4jnsgd1na2vs0mg"},{"bike_id":"13da125f-4521-4fe2-a137-a13bd6fc1b34","system_id":"levelo_inurba_marseille","lat":43.25337,"lon":5.42166,"is_reserved":false,"is_disabled":false,"rental_uris":{"android":"levelo://app?vid=13da125f-4521-4fe2-a137-a13bd6fc1b34","ios":"levelo://app?vid=13da125f-4521-4fe2-a137-a13bd6fc1b34"},"vehicle_type_id":"4","last_reported":1768849940,"current_range_meters":6800,"station_id":"st_d2m65c5bi1j21697t3ng","pricing_plan_id":"cebpf4jnsgd1na2vs0mg"},{"bike_id":"79d068f0-adcc-4f0c-b6c1-7f757aac047d","system_id":"levelo_inurba_marseille","lat":43.27836,"lon":5.39209,"is_reserved":false,"is_disabled":false,"rental_uris":{"android":"levelo://app?vid=79d068f0-adcc-4f0c-b6c1-7f757aac047d","ios":"levelo://app?vid=79d068f0-adcc-4f0c-b6c1-7f757aac047d"},"vehicle_type_id":"4","last_reported":1768849940,"current_range_meters":6800,"station_id":"ce4bhjp2rcd13ifvqga0","pricing_plan_id":"cebpf4jnsgd1na2vs0mg"},{"bike_id":"90e06890-b14b-452c-b7b3-874728771397","system_id":"levelo_inurba_marseille","lat":43.29827,"lon":5.44068,"is_reserved":false,"is_disabled":true,"rental_uris":{"android":"levelo://app?vid=90e06890-b14b-452c-b7b3-874728771397","ios":"levelo://app?vid=90e06890-b14b-452c-b7b3-874728771397"},"vehicle_type_id":"4","last_reported":1768849940,"current_range_meters":6800,"station_id":"","pricing_plan_id":"cebpf4jnsgd1na2vs0mg"},{"bike_id":"f336c3d1-92f0-437c-8a24-0fd4f7906c2d","system_id":"levelo_inurba_marseille","lat":43.265,"lon":5.39543,"is_reserved":false,"is_disabled":false,"rental_uris":{"android":"levelo://app?vid=f336c3d1-92f0-437c-8a24-0fd4f7906c2d","ios":"levelo://app?vid=f336c3d1-92f0-437c-8a24-0fd4f7906c2d"},"vehicle_type_id":"4","last_reported":1768849940,"current_range_meters":6800,"station_id":"","pricing_plan_id":"cebpf4jnsgd1na2vs0mg"},{"bike_id":"d6daaaa9-f946-4eab-92b9-574cc16557f1","system_id":"levelo_inurba_marseille","lat":43.27808,"lon":5.40709,"is_reserved":false,"is_disabled":false,"rental_uris":{"android":"levelo://app?vid=d6daaaa9-f946-4eab-92b9-574cc16557f1","ios":"levelo://app?vid=d6daaaa9-f946-4eab-92b9-574cc16557f1"},"vehicle_type_id":"4","last_reported":1768849940,"current_range_meters":6800,"station_id":"ce4bhnh2rcd13ifvqgtg","pricing_plan_id":"cebpf4jnsgd1na2vs0mg"},{"bike_id":"0328d966-1bb8-4104-bc8c-65287b271812","system_id":"levelo_inurba_marseille","lat":43.22919,"lon":5.35373,"is_reserved":false,"is_disabled":false,"rental_uris":{"android":"levelo://app?vid=0328d966-1bb8-4104-bc8c-65287b271812","ios":"levelo://app?vid=0328d966-1bb8-4104-bc8c-65287b271812"},"vehicle_type_id":"4","last_reported":1768849940,"current_range_meters":6800,"station_id":"cpo3532slgdg3j2ikp40","pricing_plan_id":"cebpf4jnsgd1na2vs0mg"},{"bike_id":"acaa8ffd-d6bb-453e-8ba1-c98b6c468cd3","system_id":"levelo_inurba_marseille","lat":43.22937,"lon":5.35363,"is_reserved":false,"is_disabled":false,"rental_uris":{"android":"levelo://app?vid=acaa8ffd-d6bb-453e-8ba1-c98b6c468cd3","ios":"levelo://app?vid=acaa8ffd-d6bb-453e-8ba1-c98b6c468cd3"},"vehicle_type_id":"4","last_reported":1768849940,"current_range_meters":6800,"station_id":"cpo3532slgdg3j2ikp40","pricing_plan_id":"cebpf4jnsgd1na2vs0mg"},{"bike_id":"2f41e160-ae0e-4981-a182-e0ec9c9778a7","system_id":"levelo_inurba_marseille","lat":43.264946,"lon":5.395401,"is_reserved":false,"is_disabled":false,"rental_uris":{"android":"levelo://app?vid=2f41e160-ae0e-4981-a182-e0ec9c9778a7","ios":"levelo://app?vid=2f41e160-ae0e-4981-a182-e0ec9c9778a7"},"vehicle_type_id":"4","last_reported":1768849940,"current_range_meters":6800,"station_id":"ce4bhi12rcd13ifvqfq0","pricing_plan_id":"cebpf4jnsgd1na2vs0mg"},{"bike_id":"ccc4ff47-1441-4ab4-a8dc-dc13c4eaa1c1","system_id":"levelo_inurba_marseille","lat":43.22558,"lon":5.41621,"is_reserved":false,"is_disabled":false,"rental_uris":{"android":"levelo://app?vid=ccc4ff47-1441-4ab4-a8dc-dc13c4eaa1c1","ios":"levelo://app?vid=ccc4ff47-1441-4ab4-a8dc-dc13c4eaa1c1"},"vehicle_type_id":"4","last_reported":1768849940,"current_range_meters":6800,"station_id":"st_d2o4gvlbi1j2169b742g","pricing_plan_id":"cebpf4jnsgd1na2vs0mg"},{"bike_id":"3bff1722-2d94-4fad-b0de-e97e95277ca6","system_id":"levelo_inurba_marseille","lat":43.25204,"lon":5.40072,"is_reserved":false,"is_disabled":false,"rental_uris":{"android":"levelo://app?vid=3bff1722-2d94-4fad-b0de-e97e95277ca6","ios":"levelo://app?vid=3bff1722-2d94-4fad-b0de-e97e95277ca6"},"vehicle_type_id":"4","last_reported":1768849940,"current_range_meters":6800,"station_id":"","pricing_plan_id":"cebpf4jnsgd1na2vs0mg"},{"bike_id":"021245d1-2447-411c-ae8b-dc86f3fa4f87","system_id":"levelo_inurba_marseille","lat":43.26484,"lon":5.3954,"is_reserved":false,"is_disabled":false,"rental_uris":{"android":"levelo://app?vid=021245d1-2447-411c-ae8b-dc86f3fa4f87","ios":"levelo://app?vid=021245d1-2447-411c-ae8b-dc86f3fa4f87"},"vehicle_type_id":"4","last_reported":1768849940,"current_range_meters":6800,"station_id":"ce4bhi12rcd13ifvqfq0","pricing_plan_id":"cebpf4jnsgd1na2vs0mg"},{"bike_id":"a511cb9e-4b77-4bb3-850e-d3e3173cffef","system_id":"levelo_inurba_marseille","lat":43.310758,"lon":5.383473,"is_reserved":false,"is_disabled":false,"rental_uris":{"android":"levelo://app?vid=a511cb9e-4b77-4bb3-850e-d3e3173cffef","ios":"levelo://app?vid=a511cb9e-4b77-4bb3-850e-d3e3173cffef"},"vehicle_type_id":"4","last_reported":1768849940,"current_range_meters":6800,"station_id":"","pricing_plan_id":"cebpf4jnsgd1na2vs0mg"},{"bike_id":"37ccc8a0-48fa-4da4-a410-b724accc87e4","system_id":"levelo_inurba_marseille","lat":43.292658,"lon":5.408995,"is_reserved":false,"is_disabled":false,"rental_uris":{"android":"levelo://app?vid=37ccc8a0-48fa-4da4-a410-b724accc87e4","ios":"levelo://app?vid=37ccc8a0-48fa-4da4-a410-b724accc87e4"},"vehicle_type_id":"4","last_reported":1768849940,"current_range_meters":6800,"station_id":"ce4bh192rcd13ifvqdc0","pricing_plan_id":"cebpf4jnsgd1na2vs0mg"},{"bike_id":"0ff432a7-28b1-4191-8542-2688c5f92a6a","system_id":"levelo_inurba_marseille","lat":43.28602,"lon":5.39854,"is_reserved":false,"is_disabled":false,"rental_uris":{"android":"levelo://app?vid=0ff432a7-28b1-4191-8542-2688c5f92a6a","ios":"levelo://app?vid=0ff432a7-28b1-4191-8542-2688c5f92a6a"},"vehicle_type_id":"4","last_reported":1768849940,"current_range_meters":6800,"station_id":"st_d4a7ka997mjs738ck50g","pricing_plan_id":"cebpf4jnsgd1na2vs0mg"},{"bike_id":"c4c5445e-0361-445e-a9fe-b9e83ea33c5f","system_id":"levelo_inurba_marseille","lat":43.286758,"lon":5.386626,"is_reserved":false,"is_disabled":false,"rental_uris":{"android":"levelo://app?vid=c4c5445e-0361-445e-a9fe-b9e83ea33c5f","ios":"levelo://app?vid=c4c5445e-0361-445e-a9fe-b9e83ea33c5f"},"vehicle_type_id":"4","last_reported":1768849940,"current_range_meters":6800,"station_id":"ce4bh492rcd13ifvqdug","pricing_plan_id":"cebpf4jnsgd1na2vs0mg"},{"bike_id":"1b171b9a-bc18-44eb-924e-0be3e5293ca2","system_id":"levelo_inurba_marseille","lat":43.24653,"lon":5.38891,"is_reserved":false,"is_disabled":false,"rental_uris":{"android":"levelo://app?vid=1b171b9a-bc18-44eb-924e-0be3e5293ca2","ios":"levelo://app?vid=1b171b9a-bc18-44eb-924e-0be3e5293ca2"},"vehicle_type_id":"4","last_reported":1768849940,"current_range_meters":6800,"station_id":"ce4bhg12rcd13ifvqf60","pricing_plan_id":"cebpf4jnsgd1na2vs0mg"},{"bike_id":"57be3e91-b810-4f66-9bd9-c6a2219dc40e","system_id":"levelo_inurba_marseille","lat":43.31144,"lon":5.37972,"is_reserved":false,"is_disabled":false,"rental_uris":{"android":"levelo://app?vid=57be3e91-b810-4f66-9bd9-c6a2219dc40e","ios":"levelo://app?vid=57be3e91-b810-4f66-9bd9-c6a2219dc40e"},"vehicle_type_id":"4","last_reported":1768849940,"current_range_meters":6800,"station_id":"","pricing_plan_id":"cebpf4jnsgd1na2vs0mg"},{"bike_id":"74151704-a410-4186-b899-c4e3be529b21","system_id":"levelo_inurba_marseille","lat":43.25581,"lon":5.3823,"is_reserved":false,"is_disabled":false,"rental_uris":{"android":"levelo://app?vid=74151704-a410-4186-b899-c4e3be529b21","ios":"levelo://app?vid=74151704-a410-4186-b899-c4e3be529b21"},"vehicle_type_id":"4","last_reported":1768849940,"current_range_meters":6800,"station_id":"ce4bhih2rcd13ifvqfs0","pricing_plan_id":"cebpf4jnsgd1na2vs0mg"},{"bike_id":"1c9c535a-0e0c-4d30-b79f-90067fffd249","system_id":"levelo_inurba_marseille","lat":43.25331,"lon":5.42172,"is_reserved":false,"is_disabled":false,"rental_uris":{"android":"levelo://app?vid=1c9c535a-0e0c-4d30-b79f-90067fffd249","ios":"levelo://app?vid=1c9c535a-0e0c-4d30-b79f-90067fffd249"},"vehicle_type_id":"4","last_reported":1768849940,"current_range_meters":6800,"station_id":"st_d2m65c5bi1j21697t3ng","pricing_plan_id":"cebpf4jnsgd1na2vs0mg"},{"bike_id":"cf109d21-f6b6-498d-812b-e31f082dfa0f","system_id":"levelo_inurba_marseille","lat":43.24469,"lon":5.42546,"is_reserved":false,"is_disabled":false,"rental_uris":{"android":"levelo://app?vid=cf109d21-f6b6-498d-812b-e31f082dfa0f","ios":"levelo://app?vid=cf109d21-f6b6-498d-812b-e31f082dfa0f"},"vehicle_type_id":"4","last_reported":1768849940,"current_range_meters":7200,"station_id":"st_d4a3vfp97mjs738cd8kg","pricing_plan_id":"cebpf4jnsgd1na2vs0mg"},{"bike_id":"f4e48943-7c61-4e64-a2bb-8ed9a5946f73","system_id":"levelo_inurba_marseille","lat":43.27999,"lon":5.39991,"is_reserved":false,"is_disabled":false,"rental_uris":{"android":"levelo://app?vid=f4e48943-7c61-4e64-a2bb-8ed9a5946f73","ios":"levelo://app?vid=f4e48943-7c61-4e64-a2bb-8ed9a5946f73"},"vehicle_type_id":"4","last_reported":1768849940,"current_range_meters":7200,"station_id":"ce4bho92rcd13ifvqh4g","pricing_plan_id":"cebpf4jnsgd1na2vs0mg"},{"bike_id":"46d6d074-0010-4db5-a3ab-441825cc65bb","system_id":"levelo_inurba_marseille","lat":43.30172,"lon":5.37964,"is_reserved":false,"is_disabled":false,"rental_uris":{"android":"levelo://app?vid=46d6d074-0010-4db5-a3ab-441825cc65bb","ios":"levelo://app?vid=46d6d074-0010-4db5-a3ab-441825cc65bb"},"vehicle_type_id":"4","last_reported":1768849940,"current_range_meters":7200,"station_id":"","pricing_plan_id":"cebpf4jnsgd1na2vs0mg"},{"bike_id":"8e22e51f-b20a-4bfc-80db-ddb3854cac14","system_id":"levelo_inurba_marseille","lat":43.28339,"lon":5.38107,"is_reserved":false,"is_disabled":false,"rental_uris":{"android":"levelo://app?vid=8e22e51f-b20a-4bfc-80db-ddb3854cac14","ios":"levelo://app?vid=8e22e51f-b20a-4bfc-80db-ddb3854cac14"},"vehicle_type_id":"4","last_reported":1768849940,"current_range_meters":7200,"station_id":"ce4bh412rcd13ifvqdr0","pricing_plan_id":"cebpf4jnsgd1na2vs0mg"},{"bike_id":"ed15b3cb-970f-4021-9913-a3de3266e10c","system_id":"levelo_inurba_marseille","lat":43.25575,"lon":5.38225,"is_reserved":false,"is_disabled":false,"rental_uris":{"android":"levelo://app?vid=ed15b3cb-970f-4021-9913-a3de3266e10c","ios":"levelo://app?vid=ed15b3cb-970f-4021-9913-a3de3266e10c"},"vehicle_type_id":"4","last_reported":1768849940,"current_range_meters":7200,"station_id":"ce4bhih2rcd13ifvqfs0","pricing_plan_id":"cebpf4jnsgd1na2vs0mg"},{"bike_id":"c7942106-c53f-46a1-811b-4ef512c78e6c","system_id":"levelo_inurba_marseille","lat":43.28436,"lon":5.39176,"is_reserved":false,"is_disabled":false,"rental_uris":{"android":"levelo://app?vid=c7942106-c53f-46a1-811b-4ef512c78e6c","ios":"levelo://app?vid=c7942106-c53f-46a1-811b-4ef512c78e6c"},"vehicle_type_id":"4","last_reported":1768849940,"current_range_meters":7200,"station_id":"ce4bhoh2rcd13ifvqh5g","pricing_plan_id":"cebpf4jnsgd1na2vs0mg"},{"bike_id":"87a0bd82-0485-42a9-8ea8-2c44da12ad98","system_id":"levelo_inurba_marseille","lat":43.30201,"lon":5.43019,"is_reserved":false,"is_disabled":false,"rental_uris":{"android":"levelo://app?vid=87a0bd82-0485-42a9-8ea8-2c44da12ad98","ios":"levelo://app?vid=87a0bd82-0485-42a9-8ea8-2c44da12ad98"},"vehicle_type_id":"4","last_reported":1768849940,"current_range_meters":7200,"station_id":"st_d3js3co5814s73ftftug","pricing_plan_id":"cebpf4jnsgd1na2vs0mg"},{"bike_id":"39e2303f-e343-43e5-8d9f-8cf1dfd04495","system_id":"levelo_inurba_marseille","lat":43.25579,"lon":5.38235,"is_reserved":false,"is_disabled":false,"rental_uris":{"android":"levelo://app?vid=39e2303f-e343-43e5-8d9f-8cf1dfd04495","ios":"levelo://app?vid=39e2303f-e343-43e5-8d9f-8cf1dfd04495"},"vehicle_type_id":"4","last_reported":1768849940,"current_range_meters":7200,"station_id":"ce4bhih2rcd13ifvqfs0","pricing_plan_id":"cebpf4jnsgd1na2vs0mg"},{"bike_id":"4754b381-ed0a-4074-a1f1-a72a1d20517f","system_id":"levelo_inurba_marseille","lat":43.24471,"lon":5.42576,"is_reserved":false,"is_disabled":false,"rental_uris":{"android":"levelo://app?vid=4754b381-ed0a-4074-a1f1-a72a1d20517f","ios":"levelo://app?vid=4754b381-ed0a-4074-a1f1-a72a1d20517f"},"vehicle_type_id":"4","last_reported":1768849940,"current_range_meters":7200,"station_id":"st_d4a3vfp97mjs738cd8kg","pricing_plan_id":"cebpf4jnsgd1na2vs0mg"},{"bike_id":"52a54695-2fa8-4dbc-af4e-de36e0c11ef7","system_id":"levelo_inurba_marseille","lat":43.24951,"lon":5.40489,"is_reserved":false,"is_disabled":true,"rental_uris":{"android":"levelo://app?vid=52a54695-2fa8-4dbc-af4e-de36e0c11ef7","ios":"levelo://app?vid=52a54695-2fa8-4dbc-af4e-de36e0c11ef7"},"vehicle_type_id":"4","last_reported":1768849940,"current_range_meters":7200,"station_id":"st_d2ngiaodas8pm72gd1h0","pricing_plan_id":"cebpf4jnsgd1na2vs0mg"},{"bike_id":"d69c03d2-d23e-4cfe-8efc-4e7308a27e66","system_id":"levelo_inurba_marseille","lat":43.24967,"lon":5.40498,"is_reserved":false,"is_disabled":false,"rental_uris":{"android":"levelo://app?vid=d69c03d2-d23e-4cfe-8efc-4e7308a27e66","ios":"levelo://app?vid=d69c03d2-d23e-4cfe-8efc-4e7308a27e66"},"vehicle_type_id":"4","last_reported":1768849940,"current_range_meters":7200,"station_id":"st_d2ngiaodas8pm72gd1h0","pricing_plan_id":"cebpf4jnsgd1na2vs0mg"},{"bike_id":"7a693152-f8ae-43bb-8332-9cfc3d6eb384","system_id":"levelo_inurba_marseille","lat":43.301369,"lon":5.398755,"is_reserved":false,"is_disabled":false,"rental_uris":{"android":"levelo://app?vid=7a693152-f8ae-43bb-8332-9cfc3d6eb384","ios":"levelo://app?vid=7a693152-f8ae-43bb-8332-9cfc3d6eb384"},"vehicle_type_id":"4","last_reported":1768849940,"current_range_meters":7200,"station_id":"ce4bh0h2rcd13ifvqd40","pricing_plan_id":"cebpf4jnsgd1na2vs0mg"},{"bike_id":"6b69fba9-79f1-4149-b974-3eb802cc0fd8","system_id":"levelo_inurba_marseille","lat":43.317124,"lon":5.436972,"is_reserved":false,"is_disabled":false,"rental_uris":{"android":"levelo://app?vid=6b69fba9-79f1-4149-b974-3eb802cc0fd8","ios":"levelo://app?vid=6b69fba9-79f1-4149-b974-3eb802cc0fd8"},"vehicle_type_id":"4","last_reported":1768849940,"current_range_meters":7200,"station_id":"ce4bhp92rcd13ifvqhcg","pricing_plan_id":"cebpf4jnsgd1na2vs0mg"},{"bike_id":"8cf1648e-8383-479c-8dea-5dd5a18e1e96","system_id":"levelo_inurba_marseille","lat":43.29789,"lon":5.39347,"is_reserved":false,"is_disabled":false,"rental_uris":{"android":"levelo://app?vid=8cf1648e-8383-479c-8dea-5dd5a18e1e96","ios":"levelo://app?vid=8cf1648e-8383-479c-8dea-5dd5a18e1e96"},"vehicle_type_id":"4","last_reported":1768849940,"current_range_meters":7200,"station_id":"chh1huq6cuj3fo74tm60","pricing_plan_id":"cebpf4jnsgd1na2vs0mg"},{"bike_id":"1b7f204d-bf18-4931-a951-82a32badca9f","system_id":"levelo_inurba_marseille","lat":43.23199,"lon":5.39978,"is_reserved":false,"is_disabled":false,"rental_uris":{"android":"levelo://app?vid=1b7f204d-bf18-4931-a951-82a32badca9f","ios":"levelo://app?vid=1b7f204d-bf18-4931-a951-82a32badca9f"},"vehicle_type_id":"4","last_reported":1768849940,"current_range_meters":7200,"station_id":"ce4bhn12rcd13ifvqgqg","pricing_plan_id":"cebpf4jnsgd1na2vs0mg"},{"bike_id":"6323d876-7ccd-4c78-a867-219c210b49e9","system_id":"levelo_inurba_marseille","lat":43.30127,"lon":5.43121,"is_reserved":false,"is_disabled":false,"rental_uris":{"android":"levelo://app?vid=6323d876-7ccd-4c78-a867-219c210b49e9","ios":"levelo://app?vid=6323d876-7ccd-4c78-a867-219c210b49e9"},"vehicle_type_id":"4","last_reported":1768849940,"current_range_meters":8000,"station_id":"st_d3js3co5814s73ftftug","pricing_plan_id":"cebpf4jnsgd1na2vs0mg"},{"bike_id":"a1d95840-b3c4-459b-95f7-38ce39b8ceca","system_id":"levelo_inurba_marseille","lat":43.24997,"lon":5.38932,"is_reserved":false,"is_disabled":false,"rental_uris":{"android":"levelo://app?vid=a1d95840-b3c4-459b-95f7-38ce39b8ceca","ios":"levelo://app?vid=a1d95840-b3c4-459b-95f7-38ce39b8ceca"},"vehicle_type_id":"4","last_reported":1768849940,"current_range_meters":8000,"station_id":"ce4bhgp2rcd13ifvqfd0","pricing_plan_id":"cebpf4jnsgd1na2vs0mg"},{"bike_id":"33ea2f90-7290-47bd-b2fc-848e9b27b264","system_id":"levelo_inurba_marseille","lat":43.24398,"lon":5.37062,"is_reserved":false,"is_disabled":false,"rental_uris":{"android":"levelo://app?vid=33ea2f90-7290-47bd-b2fc-848e9b27b264","ios":"levelo://app?vid=33ea2f90-7290-47bd-b2fc-848e9b27b264"},"vehicle_type_id":"4","last_reported":1768849940,"current_range_meters":8000,"station_id":"ce4bhhh2rcd13ifvqfk0","pricing_plan_id":"cebpf4jnsgd1na2vs0mg"},{"bike_id":"41d96e5c-411e-4607-8906-5d00cc89d36b","system_id":"levelo_inurba_marseille","lat":43.2465,"lon":5.3889,"is_reserved":false,"is_disabled":false,"rental_uris":{"android":"levelo://app?vid=41d96e5c-411e-4607-8906-5d00cc89d36b","ios":"levelo://app?vid=41d96e5c-411e-4607-8906-5d00cc89d36b"},"vehicle_type_id":"4","last_reported":1768849940,"current_range_meters":8000,"station_id":"ce4bhg12rcd13ifvqf60","pricing_plan_id":"cebpf4jnsgd1na2vs0mg"},{"bike_id":"2cc52db2-92c1-41f5-9aa5-9791cf5ed79e","system_id":"levelo_inurba_marseille","lat":43.24811,"lon":5.37453,"is_reserved":false,"is_disabled":false,"rental_uris":{"android":"levelo://app?vid=2cc52db2-92c1-41f5-9aa5-9791cf5ed79e","ios":"levelo://app?vid=2cc52db2-92c1-41f5-9aa5-9791cf5ed79e"},"vehicle_type_id":"4","last_reported":1768849940,"current_range_meters":8000,"station_id":"ce4bhgh2rcd13ifvqfb0","pricing_plan_id":"cebpf4jnsgd1na2vs0mg"},{"bike_id":"577bc121-cb16-4831-9d98-1ec1907af138","system_id":"levelo_inurba_marseille","lat":43.24162,"lon":5.36396,"is_reserved":false,"is_disabled":false,"rental_uris":{"android":"levelo://app?vid=577bc121-cb16-4831-9d98-1ec1907af138","ios":"levelo://app?vid=577bc121-cb16-4831-9d98-1ec1907af138"},"vehicle_type_id":"4","last_reported":1768849940,"current_range_meters":8000,"station_id":"cpo36qri1sfpv3e86is0","pricing_plan_id":"cebpf4jnsgd1na2vs0mg"},{"bike_id":"7dd13941-101d-45cd-b1ba-9319f32c063f","system_id":"levelo_inurba_marseille","lat":43.323496,"lon":5.367318,"is_reserved":false,"is_disabled":false,"rental_uris":{"android":"levelo://app?vid=7dd13941-101d-45cd-b1ba-9319f32c063f","ios":"levelo://app?vid=7dd13941-101d-45cd-b1ba-9319f32c063f"},"vehicle_type_id":"4","last_reported":1768849940,"current_range_meters":8000,"station_id":"ce4bhsh2rcd13ifvqi2g","pricing_plan_id":"cebpf4jnsgd1na2vs0mg"},{"bike_id":"4631d1bf-8eaf-4b54-a683-3f2a13af819e","system_id":"levelo_inurba_marseille","lat":43.2984,"lon":5.36272,"is_reserved":false,"is_disabled":false,"rental_uris":{"android":"levelo://app?vid=4631d1bf-8eaf-4b54-a683-3f2a13af819e","ios":"levelo://app?vid=4631d1bf-8eaf-4b54-a683-3f2a13af819e"},"vehicle_type_id":"4","last_reported":1768849940,"current_range_meters":8000,"station_id":"ce4bgpp2rcd13ifvqc3g","pricing_plan_id":"cebpf4jnsgd1na2vs0mg"},{"bike_id":"6dbae915-1538-40dd-a160-e335013c785d","system_id":"levelo_inurba_marseille","lat":43.31073,"lon":5.38335,"is_reserved":false,"is_disabled":false,"rental_uris":{"android":"levelo://app?vid=6dbae915-1538-40dd-a160-e335013c785d","ios":"levelo://app?vid=6dbae915-1538-40dd-a160-e335013c785d"},"vehicle_type_id":"4","last_reported":1768849940,"current_range_meters":8000,"station_id":"ce4bgv92rcd13ifvqcr0","pricing_plan_id":"cebpf4jnsgd1na2vs0mg"},{"bike_id":"ff8745c4-faf1-4826-a408-20955957778b","system_id":"levelo_inurba_marseille","lat":43.29726,"lon":5.42783,"is_reserved":false,"is_disabled":false,"rental_uris":{"android":"levelo://app?vid=ff8745c4-faf1-4826-a408-20955957778b","ios":"levelo://app?vid=ff8745c4-faf1-4826-a408-20955957778b"},"vehicle_type_id":"4","last_reported":1768849940,"current_range_meters":8000,"station_id":"st_d3md5207bmas73dh9klg","pricing_plan_id":"cebpf4jnsgd1na2vs0mg"},{"bike_id":"9f8c9ead-92c8-44dd-b506-fbc3b0df6f61","system_id":"levelo_inurba_marseille","lat":43.25006,"lon":5.38937,"is_reserved":false,"is_disabled":false,"rental_uris":{"android":"levelo://app?vid=9f8c9ead-92c8-44dd-b506-fbc3b0df6f61","ios":"levelo://app?vid=9f8c9ead-92c8-44dd-b506-fbc3b0df6f61"},"vehicle_type_id":"4","last_reported":1768849940,"current_range_meters":8000,"station_id":"ce4bhgp2rcd13ifvqfd0","pricing_plan_id":"cebpf4jnsgd1na2vs0mg"},{"bike_id":"a1042d4f-ae1c-46b8-8eb3-c5309bb3e6b7","system_id":"levelo_inurba_marseille","lat":43.26205,"lon":5.37437,"is_reserved":false,"is_disabled":false,"rental_uris":{"android":"levelo://app?vid=a1042d4f-ae1c-46b8-8eb3-c5309bb3e6b7","ios":"levelo://app?vid=a1042d4f-ae1c-46b8-8eb3-c5309bb3e6b7"},"vehicle_type_id":"4","last_reported":1768849940,"current_range_meters":8000,"station_id":"ce4bhgp2rcd13ifvqfc0","pricing_plan_id":"cebpf4jnsgd1na2vs0mg"},{"bike_id":"05cd7e5a-b4bd-4b6f-b3d6-497cfd8d5643","system_id":"levelo_inurba_marseille","lat":43.258,"lon":5.39376,"is_reserved":false,"is_disabled":false,"rental_uris":{"android":"levelo://app?vid=05cd7e5a-b4bd-4b6f-b3d6-497cfd8d5643","ios":"levelo://app?vid=05cd7e5a-b4bd-4b6f-b3d6-497cfd8d5643"},"vehicle_type_id":"4","last_reported":1768849940,"current_range_meters":8000,"station_id":"","pricing_plan_id":"cebpf4jnsgd1na2vs0mg"},{"bike_id":"da0ad026-b199-4969-84a3-287aa818d529","system_id":"levelo_inurba_marseille","lat":43.28183,"lon":5.42648,"is_reserved":false,"is_disabled":false,"rental_uris":{"android":"levelo://app?vid=da0ad026-b199-4969-84a3-287aa818d529","ios":"levelo://app?vid=da0ad026-b199-4969-84a3-287aa818d529"},"vehicle_type_id":"4","last_reported":1768849940,"current_range_meters":8000,"station_id":"ce4bhnh2rcd13ifvqgug","pricing_plan_id":"cebpf4jnsgd1na2vs0mg"},{"bike_id":"a354e8f1-0376-4a9c-a066-f6ef75bdf134","system_id":"levelo_inurba_marseille","lat":43.26879,"lon":5.39521,"is_reserved":false,"is_disabled":false,"rental_uris":{"android":"levelo://app?vid=a354e8f1-0376-4a9c-a066-f6ef75bdf134","ios":"levelo://app?vid=a354e8f1-0376-4a9c-a066-f6ef75bdf134"},"vehicle_type_id":"4","last_reported":1768849940,"current_range_meters":8000,"station_id":"","pricing_plan_id":"cebpf4jnsgd1na2vs0mg"},{"bike_id":"37e6c9c1-2fb8-4ae7-b28a-c074a7f287d6","system_id":"levelo_inurba_marseille","lat":43.255881,"lon":5.382445,"is_reserved":false,"is_disabled":false,"rental_uris":{"android":"levelo://app?vid=37e6c9c1-2fb8-4ae7-b28a-c074a7f287d6","ios":"levelo://app?vid=37e6c9c1-2fb8-4ae7-b28a-c074a7f287d6"},"vehicle_type_id":"4","last_reported":1768849940,"current_range_meters":8000,"station_id":"ce4bhih2rcd13ifvqfs0","pricing_plan_id":"cebpf4jnsgd1na2vs0mg"},{"bike_id":"7badfb65-df14-4dde-a4a3-f9d3470fb734","system_id":"levelo_inurba_marseille","lat":43.29841,"lon":5.36272,"is_reserved":false,"is_disabled":false,"rental_uris":{"android":"levelo://app?vid=7badfb65-df14-4dde-a4a3-f9d3470fb734","ios":"levelo://app?vid=7badfb65-df14-4dde-a4a3-f9d3470fb734"},"vehicle_type_id":"4","last_reported":1768849940,"current_range_meters":8000,"station_id":"ce4bgpp2rcd13ifvqc3g","pricing_plan_id":"cebpf4jnsgd1na2vs0mg"},{"bike_id":"0d41e436-31e2-4d11-a8ae-77266532c6bf","system_id":"levelo_inurba_marseille","lat":43.289356,"lon":5.366434,"is_reserved":false,"is_disabled":false,"rental_uris":{"android":"levelo://app?vid=0d41e436-31e2-4d11-a8ae-77266532c6bf","ios":"levelo://app?vid=0d41e436-31e2-4d11-a8ae-77266532c6bf"},"vehicle_type_id":"4","last_reported":1768849940,"current_range_meters":8000,"station_id":"","pricing_plan_id":"cebpf4jnsgd1na2vs0mg"},{"bike_id":"b0062de4-06af-4e30-a85d-c4ce443882ce","system_id":"levelo_inurba_marseille","lat":43.29897,"lon":5.39745,"is_reserved":false,"is_disabled":false,"rental_uris":{"android":"levelo://app?vid=b0062de4-06af-4e30-a85d-c4ce443882ce","ios":"levelo://app?vid=b0062de4-06af-4e30-a85d-c4ce443882ce"},"vehicle_type_id":"4","last_reported":1768849940,"current_range_meters":8000,"station_id":"ce4bh0h2rcd13ifvqd50","pricing_plan_id":"cebpf4jnsgd1na2vs0mg"},{"bike_id":"307d0b8c-c0ca-405e-9cdd-5e9ec8105ff2","system_id":"levelo_inurba_marseille","lat":43.279942,"lon":5.416688,"is_reserved":false,"is_disabled":false,"rental_uris":{"android":"levelo://app?vid=307d0b8c-c0ca-405e-9cdd-5e9ec8105ff2","ios":"levelo://app?vid=307d0b8c-c0ca-405e-9cdd-5e9ec8105ff2"},"vehicle_type_id":"4","last_reported":1768849940,"current_range_meters":8000,"station_id":"ce4bho12rcd13ifvqh1g","pricing_plan_id":"cebpf4jnsgd1na2vs0mg"},{"bike_id":"dee3036f-cbf7-4343-81a5-9bf751a7bca9","system_id":"levelo_inurba_marseille","lat":43.24172,"lon":5.3973,"is_reserved":false,"is_disabled":false,"rental_uris":{"android":"levelo://app?vid=dee3036f-cbf7-4343-81a5-9bf751a7bca9","ios":"levelo://app?vid=dee3036f-cbf7-4343-81a5-9bf751a7bca9"},"vehicle_type_id":"4","last_reported":1768849940,"current_range_meters":8000,"station_id":"ce4bhn12rcd13ifvqgpg","pricing_plan_id":"cebpf4jnsgd1na2vs0mg"},{"bike_id":"c03cee17-aa65-48eb-a23d-a23354e902d5","system_id":"levelo_inurba_marseille","lat":43.25824,"lon":5.39427,"is_reserved":false,"is_disabled":false,"rental_uris":{"android":"levelo://app?vid=c03cee17-aa65-48eb-a23d-a23354e902d5","ios":"levelo://app?vid=c03cee17-aa65-48eb-a23d-a23354e902d5"},"vehicle_type_id":"4","last_reported":1768849940,"current_range_meters":8000,"station_id":"ce4bhip2rcd13ifvqft0","pricing_plan_id":"cebpf4jnsgd1na2vs0mg"},{"bike_id":"79b99ff7-7e3c-4966-910f-771c1737ba62","system_id":"levelo_inurba_marseille","lat":43.30324,"lon":5.40427,"is_reserved":false,"is_disabled":false,"rental_uris":{"android":"levelo://app?vid=79b99ff7-7e3c-4966-910f-771c1737ba62","ios":"levelo://app?vid=79b99ff7-7e3c-4966-910f-771c1737ba62"},"vehicle_type_id":"4","last_reported":1768849940,"current_range_meters":8000,"station_id":"ce4bh012rcd13ifvqd10","pricing_plan_id":"cebpf4jnsgd1na2vs0mg"},{"bike_id":"db86fd57-7421-4a73-9eff-ab75288e7857","system_id":"levelo_inurba_marseille","lat":43.25856,"lon":5.39899,"is_reserved":false,"is_disabled":false,"rental_uris":{"android":"levelo://app?vid=db86fd57-7421-4a73-9eff-ab75288e7857","ios":"levelo://app?vid=db86fd57-7421-4a73-9eff-ab75288e7857"},"vehicle_type_id":"4","last_reported":1768849940,"current_range_meters":8000,"station_id":"ce4bhl92rcd13ifvqghg","pricing_plan_id":"cebpf4jnsgd1na2vs0mg"},{"bike_id":"80a87187-973e-4f3f-934a-f6bcb5d3d01d","system_id":"levelo_inurba_marseille","lat":43.31076,"lon":5.38334,"is_reserved":false,"is_disabled":false,"rental_uris":{"android":"levelo://app?vid=80a87187-973e-4f3f-934a-f6bcb5d3d01d","ios":"levelo://app?vid=80a87187-973e-4f3f-934a-f6bcb5d3d01d"},"vehicle_type_id":"4","last_reported":1768849940,"current_range_meters":8000,"station_id":"ce4bgv92rcd13ifvqcr0","pricing_plan_id":"cebpf4jnsgd1na2vs0mg"},{"bike_id":"6cb71a18-53d2-4eb1-ba2f-93b9a8de00a3","system_id":"levelo_inurba_marseille","lat":43.2929,"lon":5.3746,"is_reserved":false,"is_disabled":false,"rental_uris":{"android":"levelo://app?vid=6cb71a18-53d2-4eb1-ba2f-93b9a8de00a3","ios":"levelo://app?vid=6cb71a18-53d2-4eb1-ba2f-93b9a8de00a3"},"vehicle_type_id":"4","last_reported":1768849940,"current_range_meters":8000,"station_id":"ce4bgi12rcd13ifvqb70","pricing_plan_id":"cebpf4jnsgd1na2vs0mg"},{"bike_id":"6656b804-573d-4bd7-beec-255d1319f693","system_id":"levelo_inurba_marseille","lat":43.28001,"lon":5.40004,"is_reserved":false,"is_disabled":false,"rental_uris":{"android":"levelo://app?vid=6656b804-573d-4bd7-beec-255d1319f693","ios":"levelo://app?vid=6656b804-573d-4bd7-beec-255d1319f693"},"vehicle_type_id":"4","last_reported":1768849940,"current_range_meters":8400,"station_id":"ce4bho92rcd13ifvqh4g","pricing_plan_id":"cebpf4jnsgd1na2vs0mg"},{"bike_id":"8ee5ace6-b688-4278-b782-21f802133a0f","system_id":"levelo_inurba_marseille","lat":43.24638,"lon":5.43143,"is_reserved":false,"is_disabled":false,"rental_uris":{"android":"levelo://app?vid=8ee5ace6-b688-4278-b782-21f802133a0f","ios":"levelo://app?vid=8ee5ace6-b688-4278-b782-21f802133a0f"},"vehicle_type_id":"4","last_reported":1768849940,"current_range_meters":8400,"station_id":"st_d2m6c4gdas8pm72e190g","pricing_plan_id":"cebpf4jnsgd1na2vs0mg"},{"bike_id":"593b643a-c803-4d19-a281-cacea4f9d88e","system_id":"levelo_inurba_marseille","lat":43.27946,"lon":5.41031,"is_reserved":false,"is_disabled":false,"rental_uris":{"android":"levelo://app?vid=593b643a-c803-4d19-a281-cacea4f9d88e","ios":"levelo://app?vid=593b643a-c803-4d19-a281-cacea4f9d88e"},"vehicle_type_id":"4","last_reported":1768849940,"current_range_meters":8400,"station_id":"ce4bhnp2rcd13ifvqh0g","pricing_plan_id":"cebpf4jnsgd1na2vs0mg"},{"bike_id":"a6eb309a-af83-4cbb-8a37-5d6d4de190ee","system_id":"levelo_inurba_marseille","lat":43.265141,"lon":5.395321,"is_reserved":false,"is_disabled":false,"rental_uris":{"android":"levelo://app?vid=a6eb309a-af83-4cbb-8a37-5d6d4de190ee","ios":"levelo://app?vid=a6eb309a-af83-4cbb-8a37-5d6d4de190ee"},"vehicle_type_id":"4","last_reported":1768849940,"current_range_meters":8400,"station_id":"ce4bhi12rcd13ifvqfq0","pricing_plan_id":"cebpf4jnsgd1na2vs0mg"},{"bike_id":"4650f407-bc82-4c79-8bf1-e1e423078e7c","system_id":"levelo_inurba_marseille","lat":43.27997,"lon":5.4,"is_reserved":false,"is_disabled":false,"rental_uris":{"android":"levelo://app?vid=4650f407-bc82-4c79-8bf1-e1e423078e7c","ios":"levelo://app?vid=4650f407-bc82-4c79-8bf1-e1e423078e7c"},"vehicle_type_id":"4","last_reported":1768849940,"current_range_meters":8400,"station_id":"ce4bho92rcd13ifvqh4g","pricing_plan_id":"cebpf4jnsgd1na2vs0mg"},{"bike_id":"86265432-a1f8-4465-89b4-518a4facc392","system_id":"levelo_inurba_marseille","lat":43.24185,"lon":5.39709,"is_reserved":false,"is_disabled":false,"rental_uris":{"android":"levelo://app?vid=86265432-a1f8-4465-89b4-518a4facc392","ios":"levelo://app?vid=86265432-a1f8-4465-89b4-518a4facc392"},"vehicle_type_id":"4","last_reported":1768849940,"current_range_meters":8400,"station_id":"ce4bhn12rcd13ifvqgpg","pricing_plan_id":"cebpf4jnsgd1na2vs0mg"},{"bike_id":"0a7882d5-d05c-4abe-8dce-a70faa1aa2be","system_id":"levelo_inurba_marseille","lat":43.28865,"lon":5.35845,"is_reserved":false,"is_disabled":false,"rental_uris":{"android":"levelo://app?vid=0a7882d5-d05c-4abe-8dce-a70faa1aa2be","ios":"levelo://app?vid=0a7882d5-d05c-4abe-8dce-a70faa1aa2be"},"vehicle_type_id":"4","last_reported":1768849940,"current_range_meters":8400,"station_id":"ce4bhb12rcd13ifvqem0","pricing_plan_id":"cebpf4jnsgd1na2vs0mg"},{"bike_id":"6b588870-e0e8-44cd-8d68-8afdb5ca0a93","system_id":"levelo_inurba_marseille","lat":43.30935,"lon":5.40141,"is_reserved":false,"is_disabled":false,"rental_uris":{"android":"levelo://app?vid=6b588870-e0e8-44cd-8d68-8afdb5ca0a93","ios":"levelo://app?vid=6b588870-e0e8-44cd-8d68-8afdb5ca0a93"},"vehicle_type_id":"4","last_reported":1768849940,"current_range_meters":8400,"station_id":"ce4bgvp2rcd13ifvqct0","pricing_plan_id":"cebpf4jnsgd1na2vs0mg"},{"bike_id":"7d5056bc-d995-40a2-b862-14a61c203225","system_id":"levelo_inurba_marseille","lat":43.27796,"lon":5.40697,"is_reserved":false,"is_disabled":false,"rental_uris":{"android":"levelo://app?vid=7d5056bc-d995-40a2-b862-14a61c203225","ios":"levelo://app?vid=7d5056bc-d995-40a2-b862-14a61c203225"},"vehicle_type_id":"4","last_reported":1768849940,"current_range_meters":8400,"station_id":"ce4bhnh2rcd13ifvqgtg","pricing_plan_id":"cebpf4jnsgd1na2vs0mg"},{"bike_id":"031ceb54-6f26-4623-bb87-6fe6a644af73","system_id":"levelo_inurba_marseille","lat":43.24162,"lon":5.36392,"is_reserved":false,"is_disabled":false,"rental_uris":{"android":"levelo://app?vid=031ceb54-6f26-4623-bb87-6fe6a644af73","ios":"levelo://app?vid=031ceb54-6f26-4623-bb87-6fe6a644af73"},"vehicle_type_id":"4","last_reported":1768849940,"current_range_meters":8400,"station_id":"cpo36qri1sfpv3e86is0","pricing_plan_id":"cebpf4jnsgd1na2vs0mg"},{"bike_id":"347065c5-3ed4-4cbb-8bc5-d3288fab7195","system_id":"levelo_inurba_marseille","lat":43.31723,"lon":5.43708,"is_reserved":false,"is_disabled":false,"rental_uris":{"android":"levelo://app?vid=347065c5-3ed4-4cbb-8bc5-d3288fab7195","ios":"levelo://app?vid=347065c5-3ed4-4cbb-8bc5-d3288fab7195"},"vehicle_type_id":"4","last_reported":1768849940,"current_range_meters":8400,"station_id":"ce4bhp92rcd13ifvqhcg","pricing_plan_id":"cebpf4jnsgd1na2vs0mg"},{"bike_id":"c6722e87-d768-4b12-be63-f0f500f862ef","system_id":"levelo_inurba_marseille","lat":43.30126,"lon":5.38795,"is_reserved":false,"is_disabled":true,"rental_uris":{"android":"levelo://app?vid=c6722e87-d768-4b12-be63-f0f500f862ef","ios":"levelo://app?vid=c6722e87-d768-4b12-be63-f0f500f862ef"},"vehicle_type_id":"4","last_reported":1768849940,"current_range_meters":8400,"station_id":"ce4bghh2rcd13ifvqb60","pricing_plan_id":"cebpf4jnsgd1na2vs0mg"},{"bike_id":"60252f81-4612-4f0f-b1f8-33dbf352ebfb","system_id":"levelo_inurba_marseille","lat":43.29742,"lon":5.37319,"is_reserved":false,"is_disabled":false,"rental_uris":{"android":"levelo://app?vid=60252f81-4612-4f0f-b1f8-33dbf352ebfb","ios":"levelo://app?vid=60252f81-4612-4f0f-b1f8-33dbf352ebfb"},"vehicle_type_id":"4","last_reported":1768849940,"current_range_meters":8400,"station_id":"","pricing_plan_id":"cebpf4jnsgd1na2vs0mg"},{"bike_id":"383df557-edea-4ae6-b4a1-100ca905ca40","system_id":"levelo_inurba_marseille","lat":43.30206,"lon":5.37383,"is_reserved":false,"is_disabled":false,"rental_uris":{"android":"levelo://app?vid=383df557-edea-4ae6-b4a1-100ca905ca40","ios":"levelo://app?vid=383df557-edea-4ae6-b4a1-100ca905ca40"},"vehicle_type_id":"4","last_reported":1768849940,"current_range_meters":8400,"station_id":"","pricing_plan_id":"cebpf4jnsgd1na2vs0mg"},{"bike_id":"bf281473-a05e-4494-bd84-4337605a3b4e","system_id":"levelo_inurba_marseille","lat":43.29843,"lon":5.36276,"is_reserved":false,"is_disabled":false,"rental_uris":{"android":"levelo://app?vid=bf281473-a05e-4494-bd84-4337605a3b4e","ios":"levelo://app?vid=bf281473-a05e-4494-bd84-4337605a3b4e"},"vehicle_type_id":"4","last_reported":1768849940,"current_range_meters":8400,"station_id":"ce4bgpp2rcd13ifvqc3g","pricing_plan_id":"cebpf4jnsgd1na2vs0mg"},{"bike_id":"fe691611-82ba-4f61-981f-88c3cc8482ae","system_id":"levelo_inurba_marseille","lat":43.27948,"lon":5.41051,"is_reserved":false,"is_disabled":false,"rental_uris":{"android":"levelo://app?vid=fe691611-82ba-4f61-981f-88c3cc8482ae","ios":"levelo://app?vid=fe691611-82ba-4f61-981f-88c3cc8482ae"},"vehicle_type_id":"4","last_reported":1768849940,"current_range_meters":8400,"station_id":"ce4bhnp2rcd13ifvqh0g","pricing_plan_id":"cebpf4jnsgd1na2vs0mg"},{"bike_id":"b1681ac7-652c-4b76-8045-7d8f2c8bf4ee","system_id":"levelo_inurba_marseille","lat":43.27817,"lon":5.40724,"is_reserved":false,"is_disabled":false,"rental_uris":{"android":"levelo://app?vid=b1681ac7-652c-4b76-8045-7d8f2c8bf4ee","ios":"levelo://app?vid=b1681ac7-652c-4b76-8045-7d8f2c8bf4ee"},"vehicle_type_id":"4","last_reported":1768849940,"current_range_meters":8400,"station_id":"ce4bhnh2rcd13ifvqgtg","pricing_plan_id":"cebpf4jnsgd1na2vs0mg"},{"bike_id":"c6c667dd-1607-4011-a5d0-eb93ce022441","system_id":"levelo_inurba_marseille","lat":43.24657,"lon":5.38892,"is_reserved":false,"is_disabled":false,"rental_uris":{"android":"levelo://app?vid=c6c667dd-1607-4011-a5d0-eb93ce022441","ios":"levelo://app?vid=c6c667dd-1607-4011-a5d0-eb93ce022441"},"vehicle_type_id":"4","last_reported":1768849940,"current_range_meters":8400,"station_id":"ce4bhg12rcd13ifvqf60","pricing_plan_id":"cebpf4jnsgd1na2vs0mg"},{"bike_id":"c51ed99d-dfd4-4f0c-8724-bbb4302e8fe8","system_id":"levelo_inurba_marseille","lat":43.30409,"lon":5.41304,"is_reserved":false,"is_disabled":false,"rental_uris":{"android":"levelo://app?vid=c51ed99d-dfd4-4f0c-8724-bbb4302e8fe8","ios":"levelo://app?vid=c51ed99d-dfd4-4f0c-8724-bbb4302e8fe8"},"vehicle_type_id":"4","last_reported":1768849940,"current_range_meters":8400,"station_id":"ce4bhop2rcd13ifvqh8g","pricing_plan_id":"cebpf4jnsgd1na2vs0mg"},{"bike_id":"eb40b9ae-40f2-450b-a3d3-a215b2c06bfd","system_id":"levelo_inurba_marseille","lat":43.31558,"lon":5.38008,"is_reserved":false,"is_disabled":false,"rental_uris":{"android":"levelo://app?vid=eb40b9ae-40f2-450b-a3d3-a215b2c06bfd","ios":"levelo://app?vid=eb40b9ae-40f2-450b-a3d3-a215b2c06bfd"},"vehicle_type_id":"4","last_reported":1768849940,"current_range_meters":8400,"station_id":"ce4bhsp2rcd13ifvqi50","pricing_plan_id":"cebpf4jnsgd1na2vs0mg"},{"bike_id":"c8df4b98-1cdd-4d91-a5ac-a7f9348f51a6","system_id":"levelo_inurba_marseille","lat":43.26025,"lon":5.41735,"is_reserved":false,"is_disabled":false,"rental_uris":{"android":"levelo://app?vid=c8df4b98-1cdd-4d91-a5ac-a7f9348f51a6","ios":"levelo://app?vid=c8df4b98-1cdd-4d91-a5ac-a7f9348f51a6"},"vehicle_type_id":"4","last_reported":1768849940,"current_range_meters":8400,"station_id":"","pricing_plan_id":"cebpf4jnsgd1na2vs0mg"},{"bike_id":"5fc52565-6f50-4d9d-9a50-78581b9e2c33","system_id":"levelo_inurba_marseille","lat":43.22535,"lon":5.41644,"is_reserved":false,"is_disabled":false,"rental_uris":{"android":"levelo://app?vid=5fc52565-6f50-4d9d-9a50-78581b9e2c33","ios":"levelo://app?vid=5fc52565-6f50-4d9d-9a50-78581b9e2c33"},"vehicle_type_id":"4","last_reported":1768849940,"current_range_meters":8400,"station_id":"st_d2o4gvlbi1j2169b742g","pricing_plan_id":"cebpf4jnsgd1na2vs0mg"},{"bike_id":"94c693bd-6498-4257-a8ed-80b6c0e7621e","system_id":"levelo_inurba_marseille","lat":43.31322,"lon":5.39691,"is_reserved":false,"is_disabled":false,"rental_uris":{"android":"levelo://app?vid=94c693bd-6498-4257-a8ed-80b6c0e7621e","ios":"levelo://app?vid=94c693bd-6498-4257-a8ed-80b6c0e7621e"},"vehicle_type_id":"4","last_reported":1768849940,"current_range_meters":8400,"station_id":"ce4bgvp2rcd13ifvqcu0","pricing_plan_id":"cebpf4jnsgd1na2vs0mg"},{"bike_id":"45f6d4ac-5181-4355-ba56-f8b29b34911e","system_id":"levelo_inurba_marseille","lat":43.23802,"lon":5.36622,"is_reserved":false,"is_disabled":false,"rental_uris":{"android":"levelo://app?vid=45f6d4ac-5181-4355-ba56-f8b29b34911e","ios":"levelo://app?vid=45f6d4ac-5181-4355-ba56-f8b29b34911e"},"vehicle_type_id":"4","last_reported":1768849940,"current_range_meters":8400,"station_id":"st_d3nk18o9ro0c73en2l3g","pricing_plan_id":"cebpf4jnsgd1na2vs0mg"},{"bike_id":"35da1210-0b4f-4b52-a61f-023afe21047f","system_id":"levelo_inurba_marseille","lat":43.29274,"lon":5.40894,"is_reserved":false,"is_disabled":false,"rental_uris":{"android":"levelo://app?vid=35da1210-0b4f-4b52-a61f-023afe21047f","ios":"levelo://app?vid=35da1210-0b4f-4b52-a61f-023afe21047f"},"vehicle_type_id":"4","last_reported":1768849940,"current_range_meters":8400,"station_id":"ce4bh192rcd13ifvqdc0","pricing_plan_id":"cebpf4jnsgd1na2vs0mg"},{"bike_id":"8fa03f6f-7479-4f3b-bc6c-b07f68afc961","system_id":"levelo_inurba_marseille","lat":43.26567,"lon":5.39011,"is_reserved":false,"is_disabled":false,"rental_uris":{"android":"levelo://app?vid=8fa03f6f-7479-4f3b-bc6c-b07f68afc961","ios":"levelo://app?vid=8fa03f6f-7479-4f3b-bc6c-b07f68afc961"},"vehicle_type_id":"4","last_reported":1768849940,"current_range_meters":8400,"station_id":"ce4bhe12rcd13ifvqf30","pricing_plan_id":"cebpf4jnsgd1na2vs0mg"},{"bike_id":"2723bfbb-fe38-4d7f-b03c-9c11f9b02499","system_id":"levelo_inurba_marseille","lat":43.28854,"lon":5.42517,"is_reserved":false,"is_disabled":false,"rental_uris":{"android":"levelo://app?vid=2723bfbb-fe38-4d7f-b03c-9c11f9b02499","ios":"levelo://app?vid=2723bfbb-fe38-4d7f-b03c-9c11f9b02499"},"vehicle_type_id":"4","last_reported":1768849940,"current_range_meters":8400,"station_id":"st_d3b462108ojc7389ooeg","pricing_plan_id":"cebpf4jnsgd1na2vs0mg"},{"bike_id":"c972f7d8-9dba-407f-9d80-91cf481de664","system_id":"levelo_inurba_marseille","lat":43.28637,"lon":5.3984,"is_reserved":false,"is_disabled":false,"rental_uris":{"android":"levelo://app?vid=c972f7d8-9dba-407f-9d80-91cf481de664","ios":"levelo://app?vid=c972f7d8-9dba-407f-9d80-91cf481de664"},"vehicle_type_id":"4","last_reported":1768849940,"current_range_meters":8400,"station_id":"st_d4a7ka997mjs738ck50g","pricing_plan_id":"cebpf4jnsgd1na2vs0mg"},{"bike_id":"eb243468-bdf5-4b02-8303-fec3406f4620","system_id":"levelo_inurba_marseille","lat":43.28936,"lon":5.38362,"is_reserved":false,"is_disabled":true,"rental_uris":{"android":"levelo://app?vid=eb243468-bdf5-4b02-8303-fec3406f4620","ios":"levelo://app?vid=eb243468-bdf5-4b02-8303-fec3406f4620"},"vehicle_type_id":"4","last_reported":1768849940,"current_range_meters":8400,"station_id":"ce4bh612rcd13ifvqe6g","pricing_plan_id":"cebpf4jnsgd1na2vs0mg"},{"bike_id":"7f4186f9-d209-41e6-b322-68b56d6da350","system_id":"levelo_inurba_marseille","lat":43.24654,"lon":5.38866,"is_reserved":false,"is_disabled":false,"rental_uris":{"android":"levelo://app?vid=7f4186f9-d209-41e6-b322-68b56d6da350","ios":"levelo://app?vid=7f4186f9-d209-41e6-b322-68b56d6da350"},"vehicle_type_id":"4","last_reported":1768849940,"current_range_meters":8400,"station_id":"ce4bhg12rcd13ifvqf60","pricing_plan_id":"cebpf4jnsgd1na2vs0mg"},{"bike_id":"3ba0d64d-9f7f-4707-9a7e-d2bb874e31bf","system_id":"levelo_inurba_marseille","lat":43.244626,"lon":5.425371,"is_reserved":false,"is_disabled":false,"rental_uris":{"android":"levelo://app?vid=3ba0d64d-9f7f-4707-9a7e-d2bb874e31bf","ios":"levelo://app?vid=3ba0d64d-9f7f-4707-9a7e-d2bb874e31bf"},"vehicle_type_id":"4","last_reported":1768849940,"current_range_meters":8800,"station_id":"st_d4a3vfp97mjs738cd8kg","pricing_plan_id":"cebpf4jnsgd1na2vs0mg"},{"bike_id":"d439a0cf-43b2-46df-96b0-2127ed6b63a0","system_id":"levelo_inurba_marseille","lat":43.24472,"lon":5.42523,"is_reserved":false,"is_disabled":false,"rental_uris":{"android":"levelo://app?vid=d439a0cf-43b2-46df-96b0-2127ed6b63a0","ios":"levelo://app?vid=d439a0cf-43b2-46df-96b0-2127ed6b63a0"},"vehicle_type_id":"4","last_reported":1768849940,"current_range_meters":8800,"station_id":"st_d4a3vfp97mjs738cd8kg","pricing_plan_id":"cebpf4jnsgd1na2vs0mg"},{"bike_id":"0af6303f-2241-493b-9487-cea5d95d86a0","system_id":"levelo_inurba_marseille","lat":43.29523,"lon":5.39396,"is_reserved":false,"is_disabled":false,"rental_uris":{"android":"levelo://app?vid=0af6303f-2241-493b-9487-cea5d95d86a0","ios":"levelo://app?vid=0af6303f-2241-493b-9487-cea5d95d86a0"},"vehicle_type_id":"4","last_reported":1768849940,"current_range_meters":8800,"station_id":"ce4bh292rcd13ifvqdf0","pricing_plan_id":"cebpf4jnsgd1na2vs0mg"},{"bike_id":"42ab6f53-3cf5-4751-982c-31d1b62c98f1","system_id":"levelo_inurba_marseille","lat":43.29853,"lon":5.36283,"is_reserved":false,"is_disabled":false,"rental_uris":{"android":"levelo://app?vid=42ab6f53-3cf5-4751-982c-31d1b62c98f1","ios":"levelo://app?vid=42ab6f53-3cf5-4751-982c-31d1b62c98f1"},"vehicle_type_id":"4","last_reported":1768849940,"current_range_meters":8800,"station_id":"ce4bgpp2rcd13ifvqc3g","pricing_plan_id":"cebpf4jnsgd1na2vs0mg"},{"bike_id":"3be4114b-7f5d-44c4-aa32-d57ea2baeca2","system_id":"levelo_inurba_marseille","lat":43.29013,"lon":5.38637,"is_reserved":false,"is_disabled":false,"rental_uris":{"android":"levelo://app?vid=3be4114b-7f5d-44c4-aa32-d57ea2baeca2","ios":"levelo://app?vid=3be4114b-7f5d-44c4-aa32-d57ea2baeca2"},"vehicle_type_id":"4","last_reported":1768849940,"current_range_meters":8800,"station_id":"ce4bh4p2rcd13ifvqe0g","pricing_plan_id":"cebpf4jnsgd1na2vs0mg"},{"bike_id":"d938f418-a6a7-4fd7-bdf0-363eac71fa5b","system_id":"levelo_inurba_marseille","lat":43.24171,"lon":5.39729,"is_reserved":false,"is_disabled":false,"rental_uris":{"android":"levelo://app?vid=d938f418-a6a7-4fd7-bdf0-363eac71fa5b","ios":"levelo://app?vid=d938f418-a6a7-4fd7-bdf0-363eac71fa5b"},"vehicle_type_id":"4","last_reported":1768849940,"current_range_meters":8800,"station_id":"ce4bhn12rcd13ifvqgpg","pricing_plan_id":"cebpf4jnsgd1na2vs0mg"},{"bike_id":"6815f4a7-7953-4e46-bea2-3875aa9929a7","system_id":"levelo_inurba_marseille","lat":43.29519,"lon":5.39034,"is_reserved":false,"is_disabled":false,"rental_uris":{"android":"levelo://app?vid=6815f4a7-7953-4e46-bea2-3875aa9929a7","ios":"levelo://app?vid=6815f4a7-7953-4e46-bea2-3875aa9929a7"},"vehicle_type_id":"4","last_reported":1768849940,"current_range_meters":8800,"station_id":"ce4bh3p2rcd13ifvqdp0","pricing_plan_id":"cebpf4jnsgd1na2vs0mg"},{"bike_id":"bcd356d2-e481-40ce-9575-c122d8805aa1","system_id":"levelo_inurba_marseille","lat":43.26053,"lon":5.39391,"is_reserved":false,"is_disabled":false,"rental_uris":{"android":"levelo://app?vid=bcd356d2-e481-40ce-9575-c122d8805aa1","ios":"levelo://app?vid=bcd356d2-e481-40ce-9575-c122d8805aa1"},