{"last_updated":1770925375,"ttl":60,"version":"2.2","data":{"bikes":[{"bike_id":"886f3bfa-9b27-41a8-84b5-2c2c9169ad78","system_id":"levelo_inurba_marseille","lat":43.29293,"lon":5.37424,"is_reserved":false,"is_disabled":false,"rental_uris":{"android":"levelo://app?vid=886f3bfa-9b27-41a8-84b5-2c2c9169ad78","ios":"levelo://app?vid=886f3bfa-9b27-41a8-84b5-2c2c9169ad78"},"vehicle_type_id":"4","last_reported":1770925376,"current_range_meters":2800,"station_id":"ce4bgi12rcd13ifvqb70","pricing_plan_id":"cebpf4jnsgd1na2vs0mg"},{"bike_id":"1a0d99f0-ee74-4956-bad4-992b0789ccc7","system_id":"levelo_inurba_marseille","lat":43.21191,"lon":5.35075,"is_reserved":false,"is_disabled":false,"rental_uris":{"android":"levelo://app?vid=1a0d99f0-ee74-4956-bad4-992b0789ccc7","ios":"levelo://app?vid=1a0d99f0-ee74-4956-bad4-992b0789ccc7"},"vehicle_type_id":"4","last_reported":1770925376,"current_range_meters":2800,"station_id":"st_cvj6sg6p6f1abm77japg","pricing_plan_id":"cebpf4jnsgd1na2vs0mg"},{"bike_id":"6d150b77-ae17-47e1-8d5c-fd574757a1eb","system_id":"levelo_inurba_marseille","lat":43.2706,"lon":5.40262,"is_reserved":false,"is_disabled":false,"rental_uris":{"android":"levelo://app?vid=6d150b77-ae17-47e1-8d5c-fd574757a1eb","ios":"levelo://app?vid=6d150b77-ae17-47e1-8d5c-fd574757a1eb"},"vehicle_type_id":"4","last_reported":1770925376,"current_range_meters":2800,"station_id":"ce4bhk92rcd13ifvqgc0","pricing_plan_id":"cebpf4jnsgd1na2vs0mg"},{"bike_id":"ed5f093d-1aa3-4ff9-ab82-20bb031f1bc6","system_id":"levelo_inurba_marseille","lat":43.28546,"lon":5.44101,"is_reserved":false,"is_disabled":false,"rental_uris":{"android":"levelo://app?vid=ed5f093d-1aa3-4ff9-ab82-20bb031f1bc6","ios":"levelo://app?vid=ed5f093d-1aa3-4ff9-ab82-20bb031f1bc6"},"vehicle_type_id":"4","last_reported":1770925376,"current_range_meters":2800,"station_id":"","pricing_plan_id":"cebpf4jnsgd1na2vs0mg"},{"bike_id":"d16e8676-bb91-42bf-b68a-481193eb39f4","system_id":"levelo_inurba_marseille","lat":43.24678,"lon":5.38163,"is_reserved":false,"is_disabled":false,"rental_uris":{"android":"levelo://app?vid=d16e8676-bb91-42bf-b68a-481193eb39f4","ios":"levelo://app?vid=d16e8676-bb91-42bf-b68a-481193eb39f4"},"vehicle_type_id":"4","last_reported":1770925376,"current_range_meters":2800,"station_id":"ce4bhih2rcd13ifvqfr0","pricing_plan_id":"cebpf4jnsgd1na2vs0mg"},{"bike_id":"17c6caf9-0c41-4ce4-a781-589213fc9015","system_id":"levelo_inurba_marseille","lat":43.29251,"lon":5.37627,"is_reserved":false,"is_disabled":false,"rental_uris":{"android":"levelo://app?vid=17c6caf9-0c41-4ce4-a781-589213fc9015","ios":"levelo://app?vid=17c6caf9-0c41-4ce4-a781-589213fc9015"},"vehicle_type_id":"4","last_reported":1770925376,"current_range_meters":2800,"station_id":"ce4bgi12rcd13ifvqb80","pricing_plan_id":"cebpf4jnsgd1na2vs0mg"},{"bike_id":"44c6aa93-1f46-4cbd-a298-6cd74e811e92","system_id":"levelo_inurba_marseille","lat":43.2175,"lon":5.34607,"is_reserved":false,"is_disabled":false,"rental_uris":{"android":"levelo://app?vid=44c6aa93-1f46-4cbd-a298-6cd74e811e92","ios":"levelo://app?vid=44c6aa93-1f46-4cbd-a298-6cd74e811e92"},"vehicle_type_id":"4","last_reported":1770925376,"current_range_meters":2800,"station_id":"st_cvj6r9ubvosntc0bgbag","pricing_plan_id":"cebpf4jnsgd1na2vs0mg"},{"bike_id":"c4119786-0650-484e-ac5d-9b64a8808e93","system_id":"levelo_inurba_marseille","lat":43.24085,"lon":5.377487,"is_reserved":false,"is_disabled":false,"rental_uris":{"android":"levelo://app?vid=c4119786-0650-484e-ac5d-9b64a8808e93","ios":"levelo://app?vid=c4119786-0650-484e-ac5d-9b64a8808e93"},"vehicle_type_id":"4","last_reported":1770925376,"current_range_meters":2800,"station_id":"ce4bhnp2rcd13ifvqgvg","pricing_plan_id":"cebpf4jnsgd1na2vs0mg"},{"bike_id":"ae861497-9a22-4231-afa9-8238d5c5713c","system_id":"levelo_inurba_marseille","lat":43.24155,"lon":5.36426,"is_reserved":false,"is_disabled":false,"rental_uris":{"android":"levelo://app?vid=ae861497-9a22-4231-afa9-8238d5c5713c","ios":"levelo://app?vid=ae861497-9a22-4231-afa9-8238d5c5713c"},"vehicle_type_id":"4","last_reported":1770925376,"current_range_meters":2800,"station_id":"cpo36qri1sfpv3e86is0","pricing_plan_id":"cebpf4jnsgd1na2vs0mg"},{"bike_id":"5bd37497-56d3-463c-8c1c-ae74e00d9de0","system_id":"levelo_inurba_marseille","lat":43.26933,"lon":5.40247,"is_reserved":false,"is_disabled":false,"rental_uris":{"android":"levelo://app?vid=5bd37497-56d3-463c-8c1c-ae74e00d9de0","ios":"levelo://app?vid=5bd37497-56d3-463c-8c1c-ae74e00d9de0"},"vehicle_type_id":"4","last_reported":1770925376,"current_range_meters":2800,"station_id":"cjm6bp8fraef2m0cb0m0","pricing_plan_id":"cebpf4jnsgd1na2vs0mg"},{"bike_id":"b28c165c-fdca-40d9-8b70-c8062cbb7e3a","system_id":"levelo_inurba_marseille","lat":43.29247,"lon":5.38462,"is_reserved":false,"is_disabled":true,"rental_uris":{"android":"levelo://app?vid=b28c165c-fdca-40d9-8b70-c8062cbb7e3a","ios":"levelo://app?vid=b28c165c-fdca-40d9-8b70-c8062cbb7e3a"},"vehicle_type_id":"4","last_reported":1770925376,"current_range_meters":2800,"station_id":"ce4bh692rcd13ifvqea0","pricing_plan_id":"cebpf4jnsgd1na2vs0mg"},{"bike_id":"e4f5d6b4-5214-4f51-adc4-9a51cc1f0b62","system_id":"levelo_inurba_marseille","lat":43.29258,"lon":5.40904,"is_reserved":false,"is_disabled":true,"rental_uris":{"android":"levelo://app?vid=e4f5d6b4-5214-4f51-adc4-9a51cc1f0b62","ios":"levelo://app?vid=e4f5d6b4-5214-4f51-adc4-9a51cc1f0b62"},"vehicle_type_id":"4","last_reported":1770925376,"current_range_meters":2800,"station_id":"ce4bh192rcd13ifvqdc0","pricing_plan_id":"cebpf4jnsgd1na2vs0mg"},{"bike_id":"b55cacf2-fdf9-4f3b-982f-67eea6b14678","system_id":"levelo_inurba_marseille","lat":43.31193,"lon":5.39031,"is_reserved":false,"is_disabled":false,"rental_uris":{"android":"levelo://app?vid=b55cacf2-fdf9-4f3b-982f-67eea6b14678","ios":"levelo://app?vid=b55cacf2-fdf9-4f3b-982f-67eea6b14678"},"vehicle_type_id":"4","last_reported":1770925376,"current_range_meters":3200,"station_id":"","pricing_plan_id":"cebpf4jnsgd1na2vs0mg"},{"bike_id":"9b7de680-e656-45c2-b846-8bd381e9ca89","system_id":"levelo_inurba_marseille","lat":43.30456,"lon":5.40727,"is_reserved":false,"is_disabled":false,"rental_uris":{"android":"levelo://app?vid=9b7de680-e656-45c2-b846-8bd381e9ca89","ios":"levelo://app?vid=9b7de680-e656-45c2-b846-8bd381e9ca89"},"vehicle_type_id":"4","last_reported":1770925376,"current_range_meters":3200,"station_id":"","pricing_plan_id":"cebpf4jnsgd1na2vs0mg"},{"bike_id":"ba364331-2a0a-4d38-8082-030e4d0ac4a8","system_id":"levelo_inurba_marseille","lat":43.26577,"lon":5.39054,"is_reserved":false,"is_disabled":false,"rental_uris":{"android":"levelo://app?vid=ba364331-2a0a-4d38-8082-030e4d0ac4a8","ios":"levelo://app?vid=ba364331-2a0a-4d38-8082-030e4d0ac4a8"},"vehicle_type_id":"4","last_reported":1770925376,"current_range_meters":3200,"station_id":"ce4bhe12rcd13ifvqf30","pricing_plan_id":"cebpf4jnsgd1na2vs0mg"},{"bike_id":"62b77d94-0461-449f-bb9a-f8bd8dd266ab","system_id":"levelo_inurba_marseille","lat":43.29569,"lon":5.37528,"is_reserved":false,"is_disabled":false,"rental_uris":{"android":"levelo://app?vid=62b77d94-0461-449f-bb9a-f8bd8dd266ab","ios":"levelo://app?vid=62b77d94-0461-449f-bb9a-f8bd8dd266ab"},"vehicle_type_id":"4","last_reported":1770925376,"current_range_meters":3200,"station_id":"ce4bgh92rcd13ifvqb50","pricing_plan_id":"cebpf4jnsgd1na2vs0mg"},{"bike_id":"ff06daa0-f921-452b-a35f-ccc47adc3cc5","system_id":"levelo_inurba_marseille","lat":43.23187,"lon":5.40019,"is_reserved":false,"is_disabled":false,"rental_uris":{"android":"levelo://app?vid=ff06daa0-f921-452b-a35f-ccc47adc3cc5","ios":"levelo://app?vid=ff06daa0-f921-452b-a35f-ccc47adc3cc5"},"vehicle_type_id":"4","last_reported":1770925376,"current_range_meters":3200,"station_id":"ce4bhn12rcd13ifvqgqg","pricing_plan_id":"cebpf4jnsgd1na2vs0mg"},{"bike_id":"c2dae630-7c0f-4a78-ad2d-14a67ac52140","system_id":"levelo_inurba_marseille","lat":43.28446,"lon":5.39195,"is_reserved":false,"is_disabled":false,"rental_uris":{"android":"levelo://app?vid=c2dae630-7c0f-4a78-ad2d-14a67ac52140","ios":"levelo://app?vid=c2dae630-7c0f-4a78-ad2d-14a67ac52140"},"vehicle_type_id":"4","last_reported":1770925376,"current_range_meters":3200,"station_id":"ce4bhoh2rcd13ifvqh5g","pricing_plan_id":"cebpf4jnsgd1na2vs0mg"},{"bike_id":"b775d7ee-8857-46c6-a814-f353cf40bd5c","system_id":"levelo_inurba_marseille","lat":43.24547,"lon":5.39521,"is_reserved":false,"is_disabled":false,"rental_uris":{"android":"levelo://app?vid=b775d7ee-8857-46c6-a814-f353cf40bd5c","ios":"levelo://app?vid=b775d7ee-8857-46c6-a814-f353cf40bd5c"},"vehicle_type_id":"4","last_reported":1770925376,"current_range_meters":3200,"station_id":"ce4bhlp2rcd13ifvqgjg","pricing_plan_id":"cebpf4jnsgd1na2vs0mg"},{"bike_id":"b1173431-ef7f-4297-be7a-388a1b0fc437","system_id":"levelo_inurba_marseille","lat":43.31544,"lon":5.38031,"is_reserved":false,"is_disabled":false,"rental_uris":{"android":"levelo://app?vid=b1173431-ef7f-4297-be7a-388a1b0fc437","ios":"levelo://app?vid=b1173431-ef7f-4297-be7a-388a1b0fc437"},"vehicle_type_id":"4","last_reported":1770925376,"current_range_meters":3200,"station_id":"ce4bhsp2rcd13ifvqi50","pricing_plan_id":"cebpf4jnsgd1na2vs0mg"},{"bike_id":"6efe5f0a-6c4f-403e-907f-5428484845d2","system_id":"levelo_inurba_marseille","lat":43.317,"lon":5.40388,"is_reserved":false,"is_disabled":false,"rental_uris":{"android":"levelo://app?vid=6efe5f0a-6c4f-403e-907f-5428484845d2","ios":"levelo://app?vid=6efe5f0a-6c4f-403e-907f-5428484845d2"},"vehicle_type_id":"4","last_reported":1770925376,"current_range_meters":3200,"station_id":"","pricing_plan_id":"cebpf4jnsgd1na2vs0mg"},{"bike_id":"ff335052-4f54-4f9b-a927-591da0c1a457","system_id":"levelo_inurba_marseille","lat":43.27375,"lon":5.36248,"is_reserved":false,"is_disabled":false,"rental_uris":{"android":"levelo://app?vid=ff335052-4f54-4f9b-a927-591da0c1a457","ios":"levelo://app?vid=ff335052-4f54-4f9b-a927-591da0c1a457"},"vehicle_type_id":"4","last_reported":1770925376,"current_range_meters":3200,"station_id":"ce4bhbh2rcd13ifvqeo0","pricing_plan_id":"cebpf4jnsgd1na2vs0mg"},{"bike_id":"36c53d5a-5c92-4a93-a701-4acedf0bbb26","system_id":"levelo_inurba_marseille","lat":43.26224,"lon":5.37445,"is_reserved":false,"is_disabled":false,"rental_uris":{"android":"levelo://app?vid=36c53d5a-5c92-4a93-a701-4acedf0bbb26","ios":"levelo://app?vid=36c53d5a-5c92-4a93-a701-4acedf0bbb26"},"vehicle_type_id":"4","last_reported":1770925376,"current_range_meters":3200,"station_id":"","pricing_plan_id":"cebpf4jnsgd1na2vs0mg"},{"bike_id":"690a9935-5fa9-4d84-9ce9-1bb5e1276c89","system_id":"levelo_inurba_marseille","lat":43.28571,"lon":5.39496,"is_reserved":false,"is_disabled":false,"rental_uris":{"android":"levelo://app?vid=690a9935-5fa9-4d84-9ce9-1bb5e1276c89","ios":"levelo://app?vid=690a9935-5fa9-4d84-9ce9-1bb5e1276c89"},"vehicle_type_id":"4","last_reported":1770925376,"current_range_meters":3200,"station_id":"ce4bh292rcd13ifvqdg0","pricing_plan_id":"cebpf4jnsgd1na2vs0mg"},{"bike_id":"ff892a04-ae98-4fdf-81ac-3050c7d2c38a","system_id":"levelo_inurba_marseille","lat":43.2656,"lon":5.39069,"is_reserved":false,"is_disabled":false,"rental_uris":{"android":"levelo://app?vid=ff892a04-ae98-4fdf-81ac-3050c7d2c38a","ios":"levelo://app?vid=ff892a04-ae98-4fdf-81ac-3050c7d2c38a"},"vehicle_type_id":"4","last_reported":1770925376,"current_range_meters":3600,"station_id":"","pricing_plan_id":"cebpf4jnsgd1na2vs0mg"},{"bike_id":"0d60f49b-2168-485f-9c8c-8bf326d0ba55","system_id":"levelo_inurba_marseille","lat":43.24509,"lon":5.42449,"is_reserved":false,"is_disabled":false,"rental_uris":{"android":"levelo://app?vid=0d60f49b-2168-485f-9c8c-8bf326d0ba55","ios":"levelo://app?vid=0d60f49b-2168-485f-9c8c-8bf326d0ba55"},"vehicle_type_id":"4","last_reported":1770925376,"current_range_meters":3600,"station_id":"","pricing_plan_id":"cebpf4jnsgd1na2vs0mg"},{"bike_id":"10b7ee14-0987-4002-bb2e-d45d5a99762f","system_id":"levelo_inurba_marseille","lat":43.22543,"lon":5.41671,"is_reserved":false,"is_disabled":false,"rental_uris":{"android":"levelo://app?vid=10b7ee14-0987-4002-bb2e-d45d5a99762f","ios":"levelo://app?vid=10b7ee14-0987-4002-bb2e-d45d5a99762f"},"vehicle_type_id":"4","last_reported":1770925376,"current_range_meters":3600,"station_id":"st_d2o4gvlbi1j2169b742g","pricing_plan_id":"cebpf4jnsgd1na2vs0mg"},{"bike_id":"9e3bc487-b0e5-43b2-98b8-caa6f87f206e","system_id":"levelo_inurba_marseille","lat":43.31722,"lon":5.37767,"is_reserved":false,"is_disabled":false,"rental_uris":{"android":"levelo://app?vid=9e3bc487-b0e5-43b2-98b8-caa6f87f206e","ios":"levelo://app?vid=9e3bc487-b0e5-43b2-98b8-caa6f87f206e"},"vehicle_type_id":"4","last_reported":1770925376,"current_range_meters":3600,"station_id":"ce4bgth2rcd13ifvqch0","pricing_plan_id":"cebpf4jnsgd1na2vs0mg"},{"bike_id":"47423f7a-747c-4b59-ba0a-ecee1764689f","system_id":"levelo_inurba_marseille","lat":43.243914,"lon":5.370576,"is_reserved":false,"is_disabled":false,"rental_uris":{"android":"levelo://app?vid=47423f7a-747c-4b59-ba0a-ecee1764689f","ios":"levelo://app?vid=47423f7a-747c-4b59-ba0a-ecee1764689f"},"vehicle_type_id":"4","last_reported":1770925376,"current_range_meters":3600,"station_id":"ce4bhhh2rcd13ifvqfk0","pricing_plan_id":"cebpf4jnsgd1na2vs0mg"},{"bike_id":"ac9a885a-fe7d-4871-905c-95e91acf3aa8","system_id":"levelo_inurba_marseille","lat":43.22563,"lon":5.41625,"is_reserved":false,"is_disabled":false,"rental_uris":{"android":"levelo://app?vid=ac9a885a-fe7d-4871-905c-95e91acf3aa8","ios":"levelo://app?vid=ac9a885a-fe7d-4871-905c-95e91acf3aa8"},"vehicle_type_id":"4","last_reported":1770925376,"current_range_meters":3600,"station_id":"st_d2o4gvlbi1j2169b742g","pricing_plan_id":"cebpf4jnsgd1na2vs0mg"},{"bike_id":"8b4263f7-2795-486a-b290-22850f34f9ba","system_id":"levelo_inurba_marseille","lat":43.25003,"lon":5.38928,"is_reserved":false,"is_disabled":false,"rental_uris":{"android":"levelo://app?vid=8b4263f7-2795-486a-b290-22850f34f9ba","ios":"levelo://app?vid=8b4263f7-2795-486a-b290-22850f34f9ba"},"vehicle_type_id":"4","last_reported":1770925376,"current_range_meters":3600,"station_id":"ce4bhgp2rcd13ifvqfd0","pricing_plan_id":"cebpf4jnsgd1na2vs0mg"},{"bike_id":"babdcd4a-655b-4e95-88f5-77a8529739da","system_id":"levelo_inurba_marseille","lat":43.22552,"lon":5.41619,"is_reserved":false,"is_disabled":false,"rental_uris":{"android":"levelo://app?vid=babdcd4a-655b-4e95-88f5-77a8529739da","ios":"levelo://app?vid=babdcd4a-655b-4e95-88f5-77a8529739da"},"vehicle_type_id":"4","last_reported":1770925376,"current_range_meters":3600,"station_id":"st_d2o4gvlbi1j2169b742g","pricing_plan_id":"cebpf4jnsgd1na2vs0mg"},{"bike_id":"cc43a2a6-4df1-46ee-89a5-e5908a5338ed","system_id":"levelo_inurba_marseille","lat":43.28471,"lon":5.48401,"is_reserved":false,"is_disabled":false,"rental_uris":{"android":"levelo://app?vid=cc43a2a6-4df1-46ee-89a5-e5908a5338ed","ios":"levelo://app?vid=cc43a2a6-4df1-46ee-89a5-e5908a5338ed"},"vehicle_type_id":"4","last_reported":1770925376,"current_range_meters":3600,"station_id":"st_d3svhcjqgbts73a3dn0g","pricing_plan_id":"cebpf4jnsgd1na2vs0mg"},{"bike_id":"eb770c7f-8b27-451b-956f-b627f28eff7a","system_id":"levelo_inurba_marseille","lat":43.29772,"lon":5.37115,"is_reserved":false,"is_disabled":false,"rental_uris":{"android":"levelo://app?vid=eb770c7f-8b27-451b-956f-b627f28eff7a","ios":"levelo://app?vid=eb770c7f-8b27-451b-956f-b627f28eff7a"},"vehicle_type_id":"4","last_reported":1770925376,"current_range_meters":3600,"station_id":"ce4bgop2rcd13ifvqc1g","pricing_plan_id":"cebpf4jnsgd1na2vs0mg"},{"bike_id":"2cd99722-71d3-445b-b9c2-12dc102becd9","system_id":"levelo_inurba_marseille","lat":43.29263,"lon":5.40905,"is_reserved":false,"is_disabled":false,"rental_uris":{"android":"levelo://app?vid=2cd99722-71d3-445b-b9c2-12dc102becd9","ios":"levelo://app?vid=2cd99722-71d3-445b-b9c2-12dc102becd9"},"vehicle_type_id":"4","last_reported":1770925376,"current_range_meters":4000,"station_id":"ce4bh192rcd13ifvqdc0","pricing_plan_id":"cebpf4jnsgd1na2vs0mg"},{"bike_id":"214f5f33-75b1-40c6-a464-49feccf0086f","system_id":"levelo_inurba_marseille","lat":43.23185,"lon":5.39996,"is_reserved":false,"is_disabled":false,"rental_uris":{"android":"levelo://app?vid=214f5f33-75b1-40c6-a464-49feccf0086f","ios":"levelo://app?vid=214f5f33-75b1-40c6-a464-49feccf0086f"},"vehicle_type_id":"4","last_reported":1770925376,"current_range_meters":4000,"station_id":"ce4bhn12rcd13ifvqgqg","pricing_plan_id":"cebpf4jnsgd1na2vs0mg"},{"bike_id":"34e1cec2-e745-47fd-a5c1-25a263e345a0","system_id":"levelo_inurba_marseille","lat":43.28387,"lon":5.45744,"is_reserved":false,"is_disabled":false,"rental_uris":{"android":"levelo://app?vid=34e1cec2-e745-47fd-a5c1-25a263e345a0","ios":"levelo://app?vid=34e1cec2-e745-47fd-a5c1-25a263e345a0"},"vehicle_type_id":"4","last_reported":1770925376,"current_range_meters":4000,"station_id":"","pricing_plan_id":"cebpf4jnsgd1na2vs0mg"},{"bike_id":"12916185-3da1-4d2e-90a7-adad00734ca6","system_id":"levelo_inurba_marseille","lat":43.29763,"lon":5.42787,"is_reserved":false,"is_disabled":false,"rental_uris":{"android":"levelo://app?vid=12916185-3da1-4d2e-90a7-adad00734ca6","ios":"levelo://app?vid=12916185-3da1-4d2e-90a7-adad00734ca6"},"vehicle_type_id":"4","last_reported":1770925376,"current_range_meters":4000,"station_id":"st_d3md5207bmas73dh9klg","pricing_plan_id":"cebpf4jnsgd1na2vs0mg"},{"bike_id":"11e89557-b7ab-4c78-855c-3f9580806aaa","system_id":"levelo_inurba_marseille","lat":43.30845,"lon":5.38291,"is_reserved":false,"is_disabled":false,"rental_uris":{"android":"levelo://app?vid=11e89557-b7ab-4c78-855c-3f9580806aaa","ios":"levelo://app?vid=11e89557-b7ab-4c78-855c-3f9580806aaa"},"vehicle_type_id":"4","last_reported":1770925376,"current_range_meters":4000,"station_id":"","pricing_plan_id":"cebpf4jnsgd1na2vs0mg"},{"bike_id":"1335d31d-a8b5-47ad-b010-616e5a400a48","system_id":"levelo_inurba_marseille","lat":43.30214,"lon":5.39456,"is_reserved":false,"is_disabled":false,"rental_uris":{"android":"levelo://app?vid=1335d31d-a8b5-47ad-b010-616e5a400a48","ios":"levelo://app?vid=1335d31d-a8b5-47ad-b010-616e5a400a48"},"vehicle_type_id":"4","last_reported":1770925376,"current_range_meters":4000,"station_id":"ce4bh0p2rcd13ifvqd70","pricing_plan_id":"cebpf4jnsgd1na2vs0mg"},{"bike_id":"fdcca747-1f0c-4265-9d25-6a349973ec5d","system_id":"levelo_inurba_marseille","lat":43.3316,"lon":5.37692,"is_reserved":false,"is_disabled":false,"rental_uris":{"android":"levelo://app?vid=fdcca747-1f0c-4265-9d25-6a349973ec5d","ios":"levelo://app?vid=fdcca747-1f0c-4265-9d25-6a349973ec5d"},"vehicle_type_id":"4","last_reported":1770925376,"current_range_meters":4000,"station_id":"st_d46cu089ee8s73dldbu0","pricing_plan_id":"cebpf4jnsgd1na2vs0mg"},{"bike_id":"9aec714d-515d-4e78-9d45-9abe640e8105","system_id":"levelo_inurba_marseille","lat":43.25566,"lon":5.38219,"is_reserved":false,"is_disabled":false,"rental_uris":{"android":"levelo://app?vid=9aec714d-515d-4e78-9d45-9abe640e8105","ios":"levelo://app?vid=9aec714d-515d-4e78-9d45-9abe640e8105"},"vehicle_type_id":"4","last_reported":1770925376,"current_range_meters":4000,"station_id":"ce4bhih2rcd13ifvqfs0","pricing_plan_id":"cebpf4jnsgd1na2vs0mg"},{"bike_id":"3aef8620-296a-4e5a-aa54-267d8039b5b8","system_id":"levelo_inurba_marseille","lat":43.24988,"lon":5.38914,"is_reserved":false,"is_disabled":false,"rental_uris":{"android":"levelo://app?vid=3aef8620-296a-4e5a-aa54-267d8039b5b8","ios":"levelo://app?vid=3aef8620-296a-4e5a-aa54-267d8039b5b8"},"vehicle_type_id":"4","last_reported":1770925376,"current_range_meters":4000,"station_id":"ce4bhgp2rcd13ifvqfd0","pricing_plan_id":"cebpf4jnsgd1na2vs0mg"},{"bike_id":"b6617a61-12dd-4860-a8b7-39ae05487499","system_id":"levelo_inurba_marseille","lat":43.28111,"lon":5.37817,"is_reserved":false,"is_disabled":false,"rental_uris":{"android":"levelo://app?vid=b6617a61-12dd-4860-a8b7-39ae05487499","ios":"levelo://app?vid=b6617a61-12dd-4860-a8b7-39ae05487499"},"vehicle_type_id":"4","last_reported":1770925376,"current_range_meters":4000,"station_id":"ce4bha12rcd13ifvqee0","pricing_plan_id":"cebpf4jnsgd1na2vs0mg"},{"bike_id":"d2420ed2-3e2f-4705-b5ad-e49c0399ffb6","system_id":"levelo_inurba_marseille","lat":43.26057,"lon":5.39366,"is_reserved":false,"is_disabled":false,"rental_uris":{"android":"levelo://app?vid=d2420ed2-3e2f-4705-b5ad-e49c0399ffb6","ios":"levelo://app?vid=d2420ed2-3e2f-4705-b5ad-e49c0399ffb6"},"vehicle_type_id":"4","last_reported":1770925376,"current_range_meters":4000,"station_id":"ce4bhh92rcd13ifvqfj0","pricing_plan_id":"cebpf4jnsgd1na2vs0mg"},{"bike_id":"2c41392c-79a3-4525-9d6c-b8d67a82ef42","system_id":"levelo_inurba_marseille","lat":43.31277,"lon":5.36803,"is_reserved":false,"is_disabled":false,"rental_uris":{"android":"levelo://app?vid=2c41392c-79a3-4525-9d6c-b8d67a82ef42","ios":"levelo://app?vid=2c41392c-79a3-4525-9d6c-b8d67a82ef42"},"vehicle_type_id":"4","last_reported":1770925376,"current_range_meters":4400,"station_id":"ce4bgl92rcd13ifvqbq0","pricing_plan_id":"cebpf4jnsgd1na2vs0mg"},{"bike_id":"59be17c5-d535-4ab2-b237-b3d738055f61","system_id":"levelo_inurba_marseille","lat":43.29704,"lon":5.36613,"is_reserved":false,"is_disabled":false,"rental_uris":{"android":"levelo://app?vid=59be17c5-d535-4ab2-b237-b3d738055f61","ios":"levelo://app?vid=59be17c5-d535-4ab2-b237-b3d738055f61"},"vehicle_type_id":"4","last_reported":1770925376,"current_range_meters":4400,"station_id":"ce4bgn12rcd13ifvqbt0","pricing_plan_id":"cebpf4jnsgd1na2vs0mg"},{"bike_id":"5fda65b6-7f98-4bf6-b2de-a2c95ed917cc","system_id":"levelo_inurba_marseille","lat":43.25459,"lon":5.38441,"is_reserved":false,"is_disabled":false,"rental_uris":{"android":"levelo://app?vid=5fda65b6-7f98-4bf6-b2de-a2c95ed917cc","ios":"levelo://app?vid=5fda65b6-7f98-4bf6-b2de-a2c95ed917cc"},"vehicle_type_id":"4","last_reported":1770925376,"current_range_meters":4400,"station_id":"","pricing_plan_id":"cebpf4jnsgd1na2vs0mg"},{"bike_id":"563ac055-5a01-4ec2-925d-1f0c1e7c532d","system_id":"levelo_inurba_marseille","lat":43.28864,"lon":5.42516,"is_reserved":false,"is_disabled":false,"rental_uris":{"android":"levelo://app?vid=563ac055-5a01-4ec2-925d-1f0c1e7c532d","ios":"levelo://app?vid=563ac055-5a01-4ec2-925d-1f0c1e7c532d"},"vehicle_type_id":"4","last_reported":1770925376,"current_range_meters":4400,"station_id":"st_d3b462108ojc7389ooeg","pricing_plan_id":"cebpf4jnsgd1na2vs0mg"},{"bike_id":"45a2c634-d684-48e7-85ca-615858ba5f8a","system_id":"levelo_inurba_marseille","lat":43.30243,"lon":5.40106,"is_reserved":false,"is_disabled":false,"rental_uris":{"android":"levelo://app?vid=45a2c634-d684-48e7-85ca-615858ba5f8a","ios":"levelo://app?vid=45a2c634-d684-48e7-85ca-615858ba5f8a"},"vehicle_type_id":"4","last_reported":1770925376,"current_range_meters":4400,"station_id":"ce4bgvh2rcd13ifvqcs0","pricing_plan_id":"cebpf4jnsgd1na2vs0mg"},{"bike_id":"d997c6b7-acb1-4efa-ae35-2d8c161e2e69","system_id":"levelo_inurba_marseille","lat":43.2319,"lon":5.3556,"is_reserved":false,"is_disabled":false,"rental_uris":{"android":"levelo://app?vid=d997c6b7-acb1-4efa-ae35-2d8c161e2e69","ios":"levelo://app?vid=d997c6b7-acb1-4efa-ae35-2d8c161e2e69"},"vehicle_type_id":"4","last_reported":1770925376,"current_range_meters":4800,"station_id":"ce4bhu92rcd13ifvqi70","pricing_plan_id":"cebpf4jnsgd1na2vs0mg"},{"bike_id":"a0b9063b-3aef-49fe-ac4b-126a0b5323c5","system_id":"levelo_inurba_marseille","lat":43.29168,"lon":5.37159,"is_reserved":false,"is_disabled":false,"rental_uris":{"android":"levelo://app?vid=a0b9063b-3aef-49fe-ac4b-126a0b5323c5","ios":"levelo://app?vid=a0b9063b-3aef-49fe-ac4b-126a0b5323c5"},"vehicle_type_id":"4","last_reported":1770925376,"current_range_meters":4800,"station_id":"ce4bha92rcd13ifvqeh0","pricing_plan_id":"cebpf4jnsgd1na2vs0mg"},{"bike_id":"65e9c232-153b-4e21-9142-db1dc9fdfabc","system_id":"levelo_inurba_marseille","lat":43.28076,"lon":5.3964,"is_reserved":false,"is_disabled":false,"rental_uris":{"android":"levelo://app?vid=65e9c232-153b-4e21-9142-db1dc9fdfabc","ios":"levelo://app?vid=65e9c232-153b-4e21-9142-db1dc9fdfabc"},"vehicle_type_id":"4","last_reported":1770925376,"current_range_meters":4800,"station_id":"ce4bho12rcd13ifvqh2g","pricing_plan_id":"cebpf4jnsgd1na2vs0mg"},{"bike_id":"ba0b1db6-cf44-4815-9750-a6b5d14e5dd8","system_id":"levelo_inurba_marseille","lat":43.24541,"lon":5.39508,"is_reserved":false,"is_disabled":false,"rental_uris":{"android":"levelo://app?vid=ba0b1db6-cf44-4815-9750-a6b5d14e5dd8","ios":"levelo://app?vid=ba0b1db6-cf44-4815-9750-a6b5d14e5dd8"},"vehicle_type_id":"4","last_reported":1770925376,"current_range_meters":4800,"station_id":"ce4bhlp2rcd13ifvqgjg","pricing_plan_id":"cebpf4jnsgd1na2vs0mg"},{"bike_id":"27e858cb-4e45-4782-bd59-81425724a433","system_id":"levelo_inurba_marseille","lat":43.29275,"lon":5.36863,"is_reserved":false,"is_disabled":false,"rental_uris":{"android":"levelo://app?vid=27e858cb-4e45-4782-bd59-81425724a433","ios":"levelo://app?vid=27e858cb-4e45-4782-bd59-81425724a433"},"vehicle_type_id":"4","last_reported":1770925376,"current_range_meters":4800,"station_id":"ce4bhbp2rcd13ifvqesg","pricing_plan_id":"cebpf4jnsgd1na2vs0mg"},{"bike_id":"a825ef1b-3271-4de4-930d-aa010ddbe64a","system_id":"levelo_inurba_marseille","lat":43.30952,"lon":5.39038,"is_reserved":false,"is_disabled":false,"rental_uris":{"android":"levelo://app?vid=a825ef1b-3271-4de4-930d-aa010ddbe64a","ios":"levelo://app?vid=a825ef1b-3271-4de4-930d-aa010ddbe64a"},"vehicle_type_id":"4","last_reported":1770925376,"current_range_meters":4800,"station_id":"ce4bgup2rcd13ifvqco0","pricing_plan_id":"cebpf4jnsgd1na2vs0mg"},{"bike_id":"4eea8287-5744-4826-aede-ff10343e7484","system_id":"levelo_inurba_marseille","lat":43.29963,"lon":5.36507,"is_reserved":false,"is_disabled":false,"rental_uris":{"android":"levelo://app?vid=4eea8287-5744-4826-aede-ff10343e7484","ios":"levelo://app?vid=4eea8287-5744-4826-aede-ff10343e7484"},"vehicle_type_id":"4","last_reported":1770925376,"current_range_meters":4800,"station_id":"ce4bgm92rcd13ifvqbr0","pricing_plan_id":"cebpf4jnsgd1na2vs0mg"},{"bike_id":"b0a1e80f-7afc-488d-9bcc-dc37674a952f","system_id":"levelo_inurba_marseille","lat":43.26579,"lon":5.39,"is_reserved":false,"is_disabled":false,"rental_uris":{"android":"levelo://app?vid=b0a1e80f-7afc-488d-9bcc-dc37674a952f","ios":"levelo://app?vid=b0a1e80f-7afc-488d-9bcc-dc37674a952f"},"vehicle_type_id":"4","last_reported":1770925376,"current_range_meters":4800,"station_id":"ce4bhe12rcd13ifvqf30","pricing_plan_id":"cebpf4jnsgd1na2vs0mg"},{"bike_id":"eb153995-5d33-4b1d-a5c0-ee8cc4302ea8","system_id":"levelo_inurba_marseille","lat":43.26576,"lon":5.39025,"is_reserved":false,"is_disabled":false,"rental_uris":{"android":"levelo://app?vid=eb153995-5d33-4b1d-a5c0-ee8cc4302ea8","ios":"levelo://app?vid=eb153995-5d33-4b1d-a5c0-ee8cc4302ea8"},"vehicle_type_id":"4","last_reported":1770925376,"current_range_meters":5600,"station_id":"ce4bhe12rcd13ifvqf30","pricing_plan_id":"cebpf4jnsgd1na2vs0mg"},{"bike_id":"e49e5254-7e38-4e49-9aef-5d24c044ff49","system_id":"levelo_inurba_marseille","lat":43.29272,"lon":5.3845,"is_reserved":false,"is_disabled":false,"rental_uris":{"android":"levelo://app?vid=e49e5254-7e38-4e49-9aef-5d24c044ff49","ios":"levelo://app?vid=e49e5254-7e38-4e49-9aef-5d24c044ff49"},"vehicle_type_id":"4","last_reported":1770925376,"current_range_meters":5600,"station_id":"ce4bh692rcd13ifvqea0","pricing_plan_id":"cebpf4jnsgd1na2vs0mg"},{"bike_id":"a95fc94e-2f99-4c26-9123-e06d717b8d43","system_id":"levelo_inurba_marseille","lat":43.29266,"lon":5.38441,"is_reserved":false,"is_disabled":false,"rental_uris":{"android":"levelo://app?vid=a95fc94e-2f99-4c26-9123-e06d717b8d43","ios":"levelo://app?vid=a95fc94e-2f99-4c26-9123-e06d717b8d43"},"vehicle_type_id":"4","last_reported":1770925376,"current_range_meters":5600,"station_id":"ce4bh692rcd13ifvqea0","pricing_plan_id":"cebpf4jnsgd1na2vs0mg"},{"bike_id":"6673ac44-296d-4959-9b90-4bd46007de83","system_id":"levelo_inurba_marseille","lat":43.243908,"lon":5.370435,"is_reserved":false,"is_disabled":false,"rental_uris":{"android":"levelo://app?vid=6673ac44-296d-4959-9b90-4bd46007de83","ios":"levelo://app?vid=6673ac44-296d-4959-9b90-4bd46007de83"},"vehicle_type_id":"4","last_reported":1770925376,"current_range_meters":5600,"station_id":"ce4bhhh2rcd13ifvqfk0","pricing_plan_id":"cebpf4jnsgd1na2vs0mg"},{"bike_id":"406b8143-680c-411e-8da6-8818c609b259","system_id":"levelo_inurba_marseille","lat":43.22934,"lon":5.35374,"is_reserved":false,"is_disabled":false,"rental_uris":{"android":"levelo://app?vid=406b8143-680c-411e-8da6-8818c609b259","ios":"levelo://app?vid=406b8143-680c-411e-8da6-8818c609b259"},"vehicle_type_id":"4","last_reported":1770925376,"current_range_meters":5600,"station_id":"cpo3532slgdg3j2ikp40","pricing_plan_id":"cebpf4jnsgd1na2vs0mg"},{"bike_id":"dddd8dae-2150-40e8-9b96-7bf9dacad978","system_id":"levelo_inurba_marseille","lat":43.29894,"lon":5.4367,"is_reserved":false,"is_disabled":false,"rental_uris":{"android":"levelo://app?vid=dddd8dae-2150-40e8-9b96-7bf9dacad978","ios":"levelo://app?vid=dddd8dae-2150-40e8-9b96-7bf9dacad978"},"vehicle_type_id":"4","last_reported":1770925376,"current_range_meters":5600,"station_id":"ce4bhpp2rcd13ifvqhfg","pricing_plan_id":"cebpf4jnsgd1na2vs0mg"},{"bike_id":"de6c6658-d6e7-41cf-b6e8-395ff567c428","system_id":"levelo_inurba_marseille","lat":43.26202,"lon":5.40466,"is_reserved":false,"is_disabled":false,"rental_uris":{"android":"levelo://app?vid=de6c6658-d6e7-41cf-b6e8-395ff567c428","ios":"levelo://app?vid=de6c6658-d6e7-41cf-b6e8-395ff567c428"},"vehicle_type_id":"4","last_reported":1770925376,"current_range_meters":5600,"station_id":"ce4bhmh2rcd13ifvqgmg","pricing_plan_id":"cebpf4jnsgd1na2vs0mg"},{"bike_id":"af16d5aa-afd7-4600-aa04-43b35fdd8384","system_id":"levelo_inurba_marseille","lat":43.26806,"lon":5.402678,"is_reserved":false,"is_disabled":false,"rental_uris":{"android":"levelo://app?vid=af16d5aa-afd7-4600-aa04-43b35fdd8384","ios":"levelo://app?vid=af16d5aa-afd7-4600-aa04-43b35fdd8384"},"vehicle_type_id":"4","last_reported":1770925376,"current_range_meters":5600,"station_id":"ce501612rcd8frsf0b60","pricing_plan_id":"cebpf4jnsgd1na2vs0mg"},{"bike_id":"40ac4655-88e0-454b-9c19-b2fc5ae26ae7","system_id":"levelo_inurba_marseille","lat":43.24394,"lon":5.37069,"is_reserved":false,"is_disabled":false,"rental_uris":{"android":"levelo://app?vid=40ac4655-88e0-454b-9c19-b2fc5ae26ae7","ios":"levelo://app?vid=40ac4655-88e0-454b-9c19-b2fc5ae26ae7"},"vehicle_type_id":"4","last_reported":1770925376,"current_range_meters":5600,"station_id":"ce4bhhh2rcd13ifvqfk0","pricing_plan_id":"cebpf4jnsgd1na2vs0mg"},{"bike_id":"78288666-4320-47d1-a1d4-5d9b6e0518e9","system_id":"levelo_inurba_marseille","lat":43.29586,"lon":5.36762,"is_reserved":false,"is_disabled":false,"rental_uris":{"android":"levelo://app?vid=78288666-4320-47d1-a1d4-5d9b6e0518e9","ios":"levelo://app?vid=78288666-4320-47d1-a1d4-5d9b6e0518e9"},"vehicle_type_id":"4","last_reported":1770925376,"current_range_meters":5600,"station_id":"ce4bgph2rcd13ifvqc2g","pricing_plan_id":"cebpf4jnsgd1na2vs0mg"},{"bike_id":"83e04a0b-ecbc-4446-a766-78ab40db54b9","system_id":"levelo_inurba_marseille","lat":43.26498,"lon":5.395582,"is_reserved":false,"is_disabled":false,"rental_uris":{"android":"levelo://app?vid=83e04a0b-ecbc-4446-a766-78ab40db54b9","ios":"levelo://app?vid=83e04a0b-ecbc-4446-a766-78ab40db54b9"},"vehicle_type_id":"4","last_reported":1770925376,"current_range_meters":5600,"station_id":"ce4bhi12rcd13ifvqfq0","pricing_plan_id":"cebpf4jnsgd1na2vs0mg"},{"bike_id":"cbb05c8d-a380-4a25-aa6c-24b1e16ff9ec","system_id":"levelo_inurba_marseille","lat":43.25504,"lon":5.37676,"is_reserved":false,"is_disabled":false,"rental_uris":{"android":"levelo://app?vid=cbb05c8d-a380-4a25-aa6c-24b1e16ff9ec","ios":"levelo://app?vid=cbb05c8d-a380-4a25-aa6c-24b1e16ff9ec"},"vehicle_type_id":"4","last_reported":1770925376,"current_range_meters":5600,"station_id":"ce4bhh12rcd13ifvqff0","pricing_plan_id":"cebpf4jnsgd1na2vs0mg"},{"bike_id":"2c24c733-98c6-4b44-b191-2bff13289d48","system_id":"levelo_inurba_marseille","lat":43.30121,"lon":5.4312,"is_reserved":false,"is_disabled":false,"rental_uris":{"android":"levelo://app?vid=2c24c733-98c6-4b44-b191-2bff13289d48","ios":"levelo://app?vid=2c24c733-98c6-4b44-b191-2bff13289d48"},"vehicle_type_id":"4","last_reported":1770925376,"current_range_meters":5600,"station_id":"st_d3js3co5814s73ftftug","pricing_plan_id":"cebpf4jnsgd1na2vs0mg"},{"bike_id":"da6d29e8-9360-4ed3-8562-2408c1cf78c6","system_id":"levelo_inurba_marseille","lat":43.27806,"lon":5.40715,"is_reserved":false,"is_disabled":false,"rental_uris":{"android":"levelo://app?vid=da6d29e8-9360-4ed3-8562-2408c1cf78c6","ios":"levelo://app?vid=da6d29e8-9360-4ed3-8562-2408c1cf78c6"},"vehicle_type_id":"4","last_reported":1770925376,"current_range_meters":6000,"station_id":"ce4bhnh2rcd13ifvqgtg","pricing_plan_id":"cebpf4jnsgd1na2vs0mg"},{"bike_id":"3d1da663-8c2c-4df0-8efa-72eca0e22733","system_id":"levelo_inurba_marseille","lat":43.30139,"lon":5.38794,"is_reserved":false,"is_disabled":false,"rental_uris":{"android":"levelo://app?vid=3d1da663-8c2c-4df0-8efa-72eca0e22733","ios":"levelo://app?vid=3d1da663-8c2c-4df0-8efa-72eca0e22733"},"vehicle_type_id":"4","last_reported":1770925376,"current_range_meters":6000,"station_id":"ce4bghh2rcd13ifvqb60","pricing_plan_id":"cebpf4jnsgd1na2vs0mg"},{"bike_id":"eb9d66ff-a612-4121-8b67-1d84deda7e3a","system_id":"levelo_inurba_marseille","lat":43.33142,"lon":5.37664,"is_reserved":false,"is_disabled":false,"rental_uris":{"android":"levelo://app?vid=eb9d66ff-a612-4121-8b67-1d84deda7e3a","ios":"levelo://app?vid=eb9d66ff-a612-4121-8b67-1d84deda7e3a"},"vehicle_type_id":"4","last_reported":1770925376,"current_range_meters":6000,"station_id":"st_d46cu089ee8s73dldbu0","pricing_plan_id":"cebpf4jnsgd1na2vs0mg"},{"bike_id":"b25b8bc8-32eb-4414-9131-d7794ae56638","system_id":"levelo_inurba_marseille","lat":43.306398,"lon":5.377104,"is_reserved":false,"is_disabled":false,"rental_uris":{"android":"levelo://app?vid=b25b8bc8-32eb-4414-9131-d7794ae56638","ios":"levelo://app?vid=b25b8bc8-32eb-4414-9131-d7794ae56638"},"vehicle_type_id":"4","last_reported":1770925376,"current_range_meters":6000,"station_id":"","pricing_plan_id":"cebpf4jnsgd1na2vs0mg"},{"bike_id":"3acd2e3f-2647-4c97-be7c-a08f5bcb1e60","system_id":"levelo_inurba_marseille","lat":43.27498,"lon":5.41605,"is_reserved":false,"is_disabled":false,"rental_uris":{"android":"levelo://app?vid=3acd2e3f-2647-4c97-be7c-a08f5bcb1e60","ios":"levelo://app?vid=3acd2e3f-2647-4c97-be7c-a08f5bcb1e60"},"vehicle_type_id":"4","last_reported":1770925376,"current_range_meters":6000,"station_id":"","pricing_plan_id":"cebpf4jnsgd1na2vs0mg"},{"bike_id":"6f36e1ce-a732-4813-9d77-efe6e46c862d","system_id":"levelo_inurba_marseille","lat":43.28615,"lon":5.35105,"is_reserved":false,"is_disabled":false,"rental_uris":{"android":"levelo://app?vid=6f36e1ce-a732-4813-9d77-efe6e46c862d","ios":"levelo://app?vid=6f36e1ce-a732-4813-9d77-efe6e46c862d"},"vehicle_type_id":"4","last_reported":1770925376,"current_range_meters":6000,"station_id":"ce4bhch2rcd13ifvqeug","pricing_plan_id":"cebpf4jnsgd1na2vs0mg"},{"bike_id":"6a1cfcbe-e32a-439e-a968-714a4b55e721","system_id":"levelo_inurba_marseille","lat":43.28091,"lon":5.37858,"is_reserved":false,"is_disabled":true,"rental_uris":{"android":"levelo://app?vid=6a1cfcbe-e32a-439e-a968-714a4b55e721","ios":"levelo://app?vid=6a1cfcbe-e32a-439e-a968-714a4b55e721"},"vehicle_type_id":"4","last_reported":1770925376,"current_range_meters":6000,"station_id":"ce4bha12rcd13ifvqee0","pricing_plan_id":"cebpf4jnsgd1na2vs0mg"},{"bike_id":"f282f4cd-64f6-4c06-bdda-2782b868f981","system_id":"levelo_inurba_marseille","lat":43.27834,"lon":5.39213,"is_reserved":false,"is_disabled":false,"rental_uris":{"android":"levelo://app?vid=f282f4cd-64f6-4c06-bdda-2782b868f981","ios":"levelo://app?vid=f282f4cd-64f6-4c06-bdda-2782b868f981"},"vehicle_type_id":"4","last_reported":1770925376,"current_range_meters":6000,"station_id":"ce4bhjp2rcd13ifvqga0","pricing_plan_id":"cebpf4jnsgd1na2vs0mg"},{"bike_id":"79323439-cbd5-4d17-8e65-34664091f0bf","system_id":"levelo_inurba_marseille","lat":43.28841,"lon":5.39314,"is_reserved":false,"is_disabled":false,"rental_uris":{"android":"levelo://app?vid=79323439-cbd5-4d17-8e65-34664091f0bf","ios":"levelo://app?vid=79323439-cbd5-4d17-8e65-34664091f0bf"},"vehicle_type_id":"4","last_reported":1770925376,"current_range_meters":6000,"station_id":"ce4bh2p2rcd13ifvqdi0","pricing_plan_id":"cebpf4jnsgd1na2vs0mg"},{"bike_id":"767386ac-0495-4994-a5ec-69d5d4b901a6","system_id":"levelo_inurba_marseille","lat":43.24468,"lon":5.42541,"is_reserved":false,"is_disabled":false,"rental_uris":{"android":"levelo://app?vid=767386ac-0495-4994-a5ec-69d5d4b901a6","ios":"levelo://app?vid=767386ac-0495-4994-a5ec-69d5d4b901a6"},"vehicle_type_id":"4","last_reported":1770925376,"current_range_meters":6000,"station_id":"st_d4a3vfp97mjs738cd8kg","pricing_plan_id":"cebpf4jnsgd1na2vs0mg"},{"bike_id":"6e2fc0d4-a25b-4469-96ca-042c68399b84","system_id":"levelo_inurba_marseille","lat":43.29067,"lon":5.37122,"is_reserved":false,"is_disabled":false,"rental_uris":{"android":"levelo://app?vid=6e2fc0d4-a25b-4469-96ca-042c68399b84","ios":"levelo://app?vid=6e2fc0d4-a25b-4469-96ca-042c68399b84"},"vehicle_type_id":"4","last_reported":1770925376,"current_range_meters":6400,"station_id":"ce4bh5p2rcd13ifvqe4g","pricing_plan_id":"cebpf4jnsgd1na2vs0mg"},{"bike_id":"c53cb2c8-53f8-4e98-94f4-1a88135c303c","system_id":"levelo_inurba_marseille","lat":43.30633,"lon":5.40076,"is_reserved":false,"is_disabled":false,"rental_uris":{"android":"levelo://app?vid=c53cb2c8-53f8-4e98-94f4-1a88135c303c","ios":"levelo://app?vid=c53cb2c8-53f8-4e98-94f4-1a88135c303c"},"vehicle_type_id":"4","last_reported":1770925376,"current_range_meters":6400,"station_id":"ce4bh112rcd13ifvqda0","pricing_plan_id":"cebpf4jnsgd1na2vs0mg"},{"bike_id":"5f6ae4c8-a7cd-4f3b-9adf-671bbd618c70","system_id":"levelo_inurba_marseille","lat":43.25579,"lon":5.38249,"is_reserved":false,"is_disabled":false,"rental_uris":{"android":"levelo://app?vid=5f6ae4c8-a7cd-4f3b-9adf-671bbd618c70","ios":"levelo://app?vid=5f6ae4c8-a7cd-4f3b-9adf-671bbd618c70"},"vehicle_type_id":"4","last_reported":1770925376,"current_range_meters":6400,"station_id":"ce4bhih2rcd13ifvqfs0","pricing_plan_id":"cebpf4jnsgd1na2vs0mg"},{"bike_id":"adedccca-d77d-4967-91ed-2661b5b510ba","system_id":"levelo_inurba_marseille","lat":43.22561,"lon":5.41632,"is_reserved":false,"is_disabled":false,"rental_uris":{"android":"levelo://app?vid=adedccca-d77d-4967-91ed-2661b5b510ba","ios":"levelo://app?vid=adedccca-d77d-4967-91ed-2661b5b510ba"},"vehicle_type_id":"4","last_reported":1770925376,"current_range_meters":6400,"station_id":"st_d2o4gvlbi1j2169b742g","pricing_plan_id":"cebpf4jnsgd1na2vs0mg"},{"bike_id":"1c07072c-9e67-46ed-bbd6-9c68ec9fb87a","system_id":"levelo_inurba_marseille","lat":43.28847,"lon":5.35861,"is_reserved":false,"is_disabled":false,"rental_uris":{"android":"levelo://app?vid=1c07072c-9e67-46ed-bbd6-9c68ec9fb87a","ios":"levelo://app?vid=1c07072c-9e67-46ed-bbd6-9c68ec9fb87a"},"vehicle_type_id":"4","last_reported":1770925376,"current_range_meters":6400,"station_id":"ce4bhb12rcd13ifvqem0","pricing_plan_id":"cebpf4jnsgd1na2vs0mg"},{"bike_id":"e44df137-3a9f-4865-a2d3-769a6f5bfc14","system_id":"levelo_inurba_marseille","lat":43.30904,"lon":5.36893,"is_reserved":false,"is_disabled":false,"rental_uris":{"android":"levelo://app?vid=e44df137-3a9f-4865-a2d3-769a6f5bfc14","ios":"levelo://app?vid=e44df137-3a9f-4865-a2d3-769a6f5bfc14"},"vehicle_type_id":"4","last_reported":1770925376,"current_range_meters":6400,"station_id":"ce4bgn92rcd13ifvqbvg","pricing_plan_id":"cebpf4jnsgd1na2vs0mg"},{"bike_id":"8c0ab109-a2e0-4c76-a9ec-0ce3a7ff8081","system_id":"levelo_inurba_marseille","lat":43.2657,"lon":5.40326,"is_reserved":false,"is_disabled":false,"rental_uris":{"android":"levelo://app?vid=8c0ab109-a2e0-4c76-a9ec-0ce3a7ff8081","ios":"levelo://app?vid=8c0ab109-a2e0-4c76-a9ec-0ce3a7ff8081"},"vehicle_type_id":"4","last_reported":1770925376,"current_range_meters":6400,"station_id":"ce4bhmp2rcd13ifvqgng","pricing_plan_id":"cebpf4jnsgd1na2vs0mg"},{"bike_id":"0b98a9f2-b4e6-4d72-9367-260f75d9f75b","system_id":"levelo_inurba_marseille","lat":43.25095,"lon":5.39487,"is_reserved":false,"is_disabled":false,"rental_uris":{"android":"levelo://app?vid=0b98a9f2-b4e6-4d72-9367-260f75d9f75b","ios":"levelo://app?vid=0b98a9f2-b4e6-4d72-9367-260f75d9f75b"},"vehicle_type_id":"4","last_reported":1770925376,"current_range_meters":6400,"station_id":"ce4bhm12rcd13ifvqgkg","pricing_plan_id":"cebpf4jnsgd1na2vs0mg"},{"bike_id":"10abcb71-23de-4180-8560-5833e29cc1f1","system_id":"levelo_inurba_marseille","lat":43.276251,"lon":5.361108,"is_reserved":false,"is_disabled":false,"rental_uris":{"android":"levelo://app?vid=10abcb71-23de-4180-8560-5833e29cc1f1","ios":"levelo://app?vid=10abcb71-23de-4180-8560-5833e29cc1f1"},"vehicle_type_id":"4","last_reported":1770925376,"current_range_meters":6400,"station_id":"ce4bgj92rcd13ifvqbe0","pricing_plan_id":"cebpf4jnsgd1na2vs0mg"},{"bike_id":"c51a2340-4b72-41dc-89e3-946beccbf711","system_id":"levelo_inurba_marseille","lat":43.2737,"lon":5.36272,"is_reserved":false,"is_disabled":false,"rental_uris":{"android":"levelo://app?vid=c51a2340-4b72-41dc-89e3-946beccbf711","ios":"levelo://app?vid=c51a2340-4b72-41dc-89e3-946beccbf711"},"vehicle_type_id":"4","last_reported":1770925376,"current_range_meters":6400,"station_id":"ce4bhbh2rcd13ifvqeo0","pricing_plan_id":"cebpf4jnsgd1na2vs0mg"},{"bike_id":"6d94361a-e0ab-44b1-a35e-db2dc15ed265","system_id":"levelo_inurba_marseille","lat":43.22558,"lon":5.41648,"is_reserved":false,"is_disabled":false,"rental_uris":{"android":"levelo://app?vid=6d94361a-e0ab-44b1-a35e-db2dc15ed265","ios":"levelo://app?vid=6d94361a-e0ab-44b1-a35e-db2dc15ed265"},"vehicle_type_id":"4","last_reported":1770925376,"current_range_meters":6400,"station_id":"st_d2o4gvlbi1j2169b742g","pricing_plan_id":"cebpf4jnsgd1na2vs0mg"},{"bike_id":"af695b57-f178-4242-8855-8e87193aabc4","system_id":"levelo_inurba_marseille","lat":43.28682,"lon":5.38683,"is_reserved":false,"is_disabled":false,"rental_uris":{"android":"levelo://app?vid=af695b57-f178-4242-8855-8e87193aabc4","ios":"levelo://app?vid=af695b57-f178-4242-8855-8e87193aabc4"},"vehicle_type_id":"4","last_reported":1770925376,"current_range_meters":6400,"station_id":"ce4bh492rcd13ifvqdug","pricing_plan_id":"cebpf4jnsgd1na2vs0mg"},{"bike_id":"a18aa286-269e-4963-b039-81f99ce774de","system_id":"levelo_inurba_marseille","lat":43.28852,"lon":5.35834,"is_reserved":false,"is_disabled":false,"rental_uris":{"android":"levelo://app?vid=a18aa286-269e-4963-b039-81f99ce774de","ios":"levelo://app?vid=a18aa286-269e-4963-b039-81f99ce774de"},"vehicle_type_id":"4","last_reported":1770925376,"current_range_meters":6800,"station_id":"ce4bhb12rcd13ifvqem0","pricing_plan_id":"cebpf4jnsgd1na2vs0mg"},{"bike_id":"dbd40afb-0d84-4f0f-b160-b60a14900963","system_id":"levelo_inurba_marseille","lat":43.26053,"lon":5.39388,"is_reserved":false,"is_disabled":false,"rental_uris":{"android":"levelo://app?vid=dbd40afb-0d84-4f0f-b160-b60a14900963","ios":"levelo://app?vid=dbd40afb-0d84-4f0f-b160-b60a14900963"},"vehicle_type_id":"4","last_reported":1770925376,"current_range_meters":6800,"station_id":"ce4bhh92rcd13ifvqfj0","pricing_plan_id":"cebpf4jnsgd1na2vs0mg"},{"bike_id":"52c5007b-88c9-4d1c-9fe2-488c4cdcfbef","system_id":"levelo_inurba_marseille","lat":43.25868,"lon":5.39888,"is_reserved":false,"is_disabled":false,"rental_uris":{"android":"levelo://app?vid=52c5007b-88c9-4d1c-9fe2-488c4cdcfbef","ios":"levelo://app?vid=52c5007b-88c9-4d1c-9fe2-488c4cdcfbef"},"vehicle_type_id":"4","last_reported":1770925376,"current_range_meters":6800,"station_id":"ce4bhl92rcd13ifvqghg","pricing_plan_id":"cebpf4jnsgd1na2vs0mg"},{"bike_id":"60d3bd49-631b-4a94-8d3d-cc6c1df6a8f1","system_id":"levelo_inurba_marseille","lat":43.29567,"lon":5.37542,"is_reserved":false,"is_disabled":false,"rental_uris":{"android":"levelo://app?vid=60d3bd49-631b-4a94-8d3d-cc6c1df6a8f1","ios":"levelo://app?vid=60d3bd49-631b-4a94-8d3d-cc6c1df6a8f1"},"vehicle_type_id":"4","last_reported":1770925376,"current_range_meters":6800,"station_id":"ce4bgh92rcd13ifvqb50","pricing_plan_id":"cebpf4jnsgd1na2vs0mg"},{"bike_id":"c79ede62-b18f-43b2-ba8b-0a82a66c7da5","system_id":"levelo_inurba_marseille","lat":43.31531,"lon":5.38029,"is_reserved":false,"is_disabled":false,"rental_uris":{"android":"levelo://app?vid=c79ede62-b18f-43b2-ba8b-0a82a66c7da5","ios":"levelo://app?vid=c79ede62-b18f-43b2-ba8b-0a82a66c7da5"},"vehicle_type_id":"4","last_reported":1770925376,"current_range_meters":6800,"station_id":"ce4bhsp2rcd13ifvqi50","pricing_plan_id":"cebpf4jnsgd1na2vs0mg"},{"bike_id":"b909fa79-5381-4b98-bd67-3119cb88c03c","system_id":"levelo_inurba_marseille","lat":43.299191,"lon":5.363384,"is_reserved":false,"is_disabled":true,"rental_uris":{"android":"levelo://app?vid=b909fa79-5381-4b98-bd67-3119cb88c03c","ios":"levelo://app?vid=b909fa79-5381-4b98-bd67-3119cb88c03c"},"vehicle_type_id":"4","last_reported":1770925376,"current_range_meters":6800,"station_id":"","pricing_plan_id":"cebpf4jnsgd1na2vs0mg"},{"bike_id":"1bf3c557-9b1e-42be-bafe-0a6443919d9f","system_id":"levelo_inurba_marseille","lat":43.33391,"lon":5.41052,"is_reserved":false,"is_disabled":false,"rental_uris":{"android":"levelo://app?vid=1bf3c557-9b1e-42be-bafe-0a6443919d9f","ios":"levelo://app?vid=1bf3c557-9b1e-42be-bafe-0a6443919d9f"},"vehicle_type_id":"4","last_reported":1770925376,"current_range_meters":6800,"station_id":"","pricing_plan_id":"cebpf4jnsgd1na2vs0mg"},{"bike_id":"826fde6f-a57f-4aab-a244-0c8d119f668e","system_id":"levelo_inurba_marseille","lat":43.29021,"lon":5.38133,"is_reserved":false,"is_disabled":false,"rental_uris":{"android":"levelo://app?vid=826fde6f-a57f-4aab-a244-0c8d119f668e","ios":"levelo://app?vid=826fde6f-a57f-4aab-a244-0c8d119f668e"},"vehicle_type_id":"4","last_reported":1770925376,"current_range_meters":6800,"station_id":"ce4bh4p2rcd13ifvqe1g","pricing_plan_id":"cebpf4jnsgd1na2vs0mg"},{"bike_id":"f7696a38-545e-416f-8bb6-65d45bef47d3","system_id":"levelo_inurba_marseille","lat":43.29712,"lon":5.36613,"is_reserved":false,"is_disabled":false,"rental_uris":{"android":"levelo://app?vid=f7696a38-545e-416f-8bb6-65d45bef47d3","ios":"levelo://app?vid=f7696a38-545e-416f-8bb6-65d45bef47d3"},"vehicle_type_id":"4","last_reported":1770925376,"current_range_meters":6800,"station_id":"ce4bgn12rcd13ifvqbt0","pricing_plan_id":"cebpf4jnsgd1na2vs0mg"},{"bike_id":"63616dc6-da91-4b0e-b74a-66f0aa885642","system_id":"levelo_inurba_marseille","lat":43.33027,"lon":5.39008,"is_reserved":false,"is_disabled":false,"rental_uris":{"android":"levelo://app?vid=63616dc6-da91-4b0e-b74a-66f0aa885642","ios":"levelo://app?vid=63616dc6-da91-4b0e-b74a-66f0aa885642"},"vehicle_type_id":"4","last_reported":1770925376,"current_range_meters":6800,"station_id":"ce4bhr92rcd13ifvqhrg","pricing_plan_id":"cebpf4jnsgd1na2vs0mg"},{"bike_id":"9523bcc9-b639-4cad-bf19-ca9ff92ab5a5","system_id":"levelo_inurba_marseille","lat":43.28646,"lon":5.35101,"is_reserved":false,"is_disabled":false,"rental_uris":{"android":"levelo://app?vid=9523bcc9-b639-4cad-bf19-ca9ff92ab5a5","ios":"levelo://app?vid=9523bcc9-b639-4cad-bf19-ca9ff92ab5a5"},"vehicle_type_id":"4","last_reported":1770925376,"current_range_meters":6800,"station_id":"ce4bhch2rcd13ifvqeug","pricing_plan_id":"cebpf4jnsgd1na2vs0mg"},{"bike_id":"c035d78e-ce88-4f77-ba16-9faa9ce19f7f","system_id":"levelo_inurba_marseille","lat":43.31439,"lon":5.37321,"is_reserved":false,"is_disabled":false,"rental_uris":{"android":"levelo://app?vid=c035d78e-ce88-4f77-ba16-9faa9ce19f7f","ios":"levelo://app?vid=c035d78e-ce88-4f77-ba16-9faa9ce19f7f"},"vehicle_type_id":"4","last_reported":1770925376,"current_range_meters":6800,"station_id":"ce4bgt12rcd13ifvqcd0","pricing_plan_id":"cebpf4jnsgd1na2vs0mg"},{"bike_id":"a9a6e7be-8873-4854-882b-10e24bc73d85","system_id":"levelo_inurba_marseille","lat":43.25106,"lon":5.40355,"is_reserved":false,"is_disabled":false,"rental_uris":{"android":"levelo://app?vid=a9a6e7be-8873-4854-882b-10e24bc73d85","ios":"levelo://app?vid=a9a6e7be-8873-4854-882b-10e24bc73d85"},"vehicle_type_id":"4","last_reported":1770925376,"current_range_meters":6800,"station_id":"ce4bhlh2rcd13ifvqgig","pricing_plan_id":"cebpf4jnsgd1na2vs0mg"},{"bike_id":"1dbb69cb-8222-4e8a-9ca2-6df7c935fc4f","system_id":"levelo_inurba_marseille","lat":43.24673,"lon":5.37356,"is_reserved":false,"is_disabled":false,"rental_uris":{"android":"levelo://app?vid=1dbb69cb-8222-4e8a-9ca2-6df7c935fc4f","ios":"levelo://app?vid=1dbb69cb-8222-4e8a-9ca2-6df7c935fc4f"},"vehicle_type_id":"4","last_reported":1770925376,"current_range_meters":6800,"station_id":"ce4bhgh2rcd13ifvqfb0","pricing_plan_id":"cebpf4jnsgd1na2vs0mg"},{"bike_id":"da6348be-8d07-478d-8812-12c29d3eab1a","system_id":"levelo_inurba_marseille","lat":43.295197,"lon":5.387084,"is_reserved":false,"is_disabled":false,"rental_uris":{"android":"levelo://app?vid=da6348be-8d07-478d-8812-12c29d3eab1a","ios":"levelo://app?vid=da6348be-8d07-478d-8812-12c29d3eab1a"},"vehicle_type_id":"4","last_reported":1770925376,"current_range_meters":6800,"station_id":"","pricing_plan_id":"cebpf4jnsgd1na2vs0mg"},{"bike_id":"1611f367-fe1c-4c97-a723-66538ec1b8ac","system_id":"levelo_inurba_marseille","lat":43.29267,"lon":5.38432,"is_reserved":false,"is_disabled":false,"rental_uris":{"android":"levelo://app?vid=1611f367-fe1c-4c97-a723-66538ec1b8ac","ios":"levelo://app?vid=1611f367-fe1c-4c97-a723-66538ec1b8ac"},"vehicle_type_id":"4","last_reported":1770925376,"current_range_meters":6800,"station_id":"ce4bh692rcd13ifvqea0","pricing_plan_id":"cebpf4jnsgd1na2vs0mg"},{"bike_id":"d0cf6c9c-4ce7-403a-80a8-511596bda761","system_id":"levelo_inurba_marseille","lat":43.23967,"lon":5.36631,"is_reserved":false,"is_disabled":false,"rental_uris":{"android":"levelo://app?vid=d0cf6c9c-4ce7-403a-80a8-511596bda761","ios":"levelo://app?vid=d0cf6c9c-4ce7-403a-80a8-511596bda761"},"vehicle_type_id":"4","last_reported":1770925376,"current_range_meters":6800,"station_id":"ce4bhi12rcd13ifvqfp0","pricing_plan_id":"cebpf4jnsgd1na2vs0mg"},{"bike_id":"d6f44693-ddad-4866-8fae-6a82f6279e1c","system_id":"levelo_inurba_marseille","lat":43.29683,"lon":5.36597,"is_reserved":false,"is_disabled":false,"rental_uris":{"android":"levelo://app?vid=d6f44693-ddad-4866-8fae-6a82f6279e1c","ios":"levelo://app?vid=d6f44693-ddad-4866-8fae-6a82f6279e1c"},"vehicle_type_id":"4","last_reported":1770925376,"current_range_meters":6800,"station_id":"ce4bgn12rcd13ifvqbt0","pricing_plan_id":"cebpf4jnsgd1na2vs0mg"},{"bike_id":"989b5b08-d948-4be9-bc29-7318c8ff2142","system_id":"levelo_inurba_marseille","lat":43.24637,"lon":5.43147,"is_reserved":false,"is_disabled":false,"rental_uris":{"android":"levelo://app?vid=989b5b08-d948-4be9-bc29-7318c8ff2142","ios":"levelo://app?vid=989b5b08-d948-4be9-bc29-7318c8ff2142"},"vehicle_type_id":"4","last_reported":1770925376,"current_range_meters":6800,"station_id":"st_d2m6c4gdas8pm72e190g","pricing_plan_id":"cebpf4jnsgd1na2vs0mg"},{"bike_id":"a0b862e4-f7cc-40fa-99a6-26516baf9a81","system_id":"levelo_inurba_marseille","lat":43.28618,"lon":5.35118,"is_reserved":false,"is_disabled":false,"rental_uris":{"android":"levelo://app?vid=a0b862e4-f7cc-40fa-99a6-26516baf9a81","ios":"levelo://app?vid=a0b862e4-f7cc-40fa-99a6-26516baf9a81"},"vehicle_type_id":"4","last_reported":1770925376,"current_range_meters":6800,"station_id":"ce4bhch2rcd13ifvqeug","pricing_plan_id":"cebpf4jnsgd1na2vs0mg"},{"bike_id":"864cec40-0ff3-4697-9da2-81d63157f80b","system_id":"levelo_inurba_marseille","lat":43.297591,"lon":5.427891,"is_reserved":false,"is_disabled":false,"rental_uris":{"android":"levelo://app?vid=864cec40-0ff3-4697-9da2-81d63157f80b","ios":"levelo://app?vid=864cec40-0ff3-4697-9da2-81d63157f80b"},"vehicle_type_id":"4","last_reported":1770925376,"current_range_meters":6800,"station_id":"st_d3md5207bmas73dh9klg","pricing_plan_id":"cebpf4jnsgd1na2vs0mg"},{"bike_id":"272737e0-5c8e-42fc-86d2-7cff69d196d0","system_id":"levelo_inurba_marseille","lat":43.31688,"lon":5.4048,"is_reserved":false,"is_disabled":false,"rental_uris":{"android":"levelo://app?vid=272737e0-5c8e-42fc-86d2-7cff69d196d0","ios":"levelo://app?vid=272737e0-5c8e-42fc-86d2-7cff69d196d0"},"vehicle_type_id":"4","last_reported":1770925376,"current_range_meters":7200,"station_id":"ce4bh012rcd13ifvqd00","pricing_plan_id":"cebpf4jnsgd1na2vs0mg"},{"bike_id":"558b0286-85fc-49cb-b13d-aa40847d1ce9","system_id":"levelo_inurba_marseille","lat":43.25002,"lon":5.3893,"is_reserved":false,"is_disabled":false,"rental_uris":{"android":"levelo://app?vid=558b0286-85fc-49cb-b13d-aa40847d1ce9","ios":"levelo://app?vid=558b0286-85fc-49cb-b13d-aa40847d1ce9"},"vehicle_type_id":"4","last_reported":1770925376,"current_range_meters":7200,"station_id":"ce4bhgp2rcd13ifvqfd0","pricing_plan_id":"cebpf4jnsgd1na2vs0mg"},{"bike_id":"3ad331d6-b4d1-49c7-b940-96959fff84a3","system_id":"levelo_inurba_marseille","lat":43.28626,"lon":5.35105,"is_reserved":false,"is_disabled":false,"rental_uris":{"android":"levelo://app?vid=3ad331d6-b4d1-49c7-b940-96959fff84a3","ios":"levelo://app?vid=3ad331d6-b4d1-49c7-b940-96959fff84a3"},"vehicle_type_id":"4","last_reported":1770925376,"current_range_meters":7200,"station_id":"ce4bhch2rcd13ifvqeug","pricing_plan_id":"cebpf4jnsgd1na2vs0mg"},{"bike_id":"661c1ad9-8e78-490b-aa77-0dd317a910f6","system_id":"levelo_inurba_marseille","lat":43.27213,"lon":5.3921,"is_reserved":false,"is_disabled":true,"rental_uris":{"android":"levelo://app?vid=661c1ad9-8e78-490b-aa77-0dd317a910f6","ios":"levelo://app?vid=661c1ad9-8e78-490b-aa77-0dd317a910f6"},"vehicle_type_id":"4","last_reported":1770925376,"current_range_meters":7200,"station_id":"ce4bhhp2rcd13ifvqfm0","pricing_plan_id":"cebpf4jnsgd1na2vs0mg"},{"bike_id":"6b49fa0a-6226-4e6c-9f94-68ff4fd2f09e","system_id":"levelo_inurba_marseille","lat":43.2952,"lon":5.38571,"is_reserved":false,"is_disabled":false,"rental_uris":{"android":"levelo://app?vid=6b49fa0a-6226-4e6c-9f94-68ff4fd2f09e","ios":"levelo://app?vid=6b49fa0a-6226-4e6c-9f94-68ff4fd2f09e"},"vehicle_type_id":"4","last_reported":1770925376,"current_range_meters":7200,"station_id":"ce4bgih2rcd13ifvqba0","pricing_plan_id":"cebpf4jnsgd1na2vs0mg"},{"bike_id":"8f3a9ea3-3d5f-4beb-8e6c-40222b0c90d4","system_id":"levelo_inurba_marseille","lat":43.28384,"lon":5.3535,"is_reserved":false,"is_disabled":false,"rental_uris":{"android":"levelo://app?vid=8f3a9ea3-3d5f-4beb-8e6c-40222b0c90d4","ios":"levelo://app?vid=8f3a9ea3-3d5f-4beb-8e6c-40222b0c90d4"},"vehicle_type_id":"4","last_reported":1770925376,"current_range_meters":7200,"station_id":"","pricing_plan_id":"cebpf4jnsgd1na2vs0mg"},{"bike_id":"6a7ba975-0a2d-40a5-b6d9-c3e8afe92f2c","system_id":"levelo_inurba_marseille","lat":43.31167,"lon":5.38737,"is_reserved":false,"is_disabled":true,"rental_uris":{"android":"levelo://app?vid=6a7ba975-0a2d-40a5-b6d9-c3e8afe92f2c","ios":"levelo://app?vid=6a7ba975-0a2d-40a5-b6d9-c3e8afe92f2c"},"vehicle_type_id":"4","last_reported":1770925376,"current_range_meters":7200,"station_id":"ce4bgv12rcd13ifvqcp0","pricing_plan_id":"cebpf4jnsgd1na2vs0mg"},{"bike_id":"ed424640-31ab-40c2-adb3-3589d16cd6bc","system_id":"levelo_inurba_marseille","lat":43.3109,"lon":5.38436,"is_reserved":false,"is_disabled":false,"rental_uris":{"android":"levelo://app?vid=ed424640-31ab-40c2-adb3-3589d16cd6bc","ios":"levelo://app?vid=ed424640-31ab-40c2-adb3-3589d16cd6bc"},"vehicle_type_id":"4","last_reported":1770925376,"current_range_meters":7200,"station_id":"","pricing_plan_id":"cebpf4jnsgd1na2vs0mg"},{"bike_id":"cb9be5fc-0f8f-4012-b222-62b158765b42","system_id":"levelo_inurba_marseille","lat":43.22935,"lon":5.35406,"is_reserved":false,"is_disabled":false,"rental_uris":{"android":"levelo://app?vid=cb9be5fc-0f8f-4012-b222-62b158765b42","ios":"levelo://app?vid=cb9be5fc-0f8f-4012-b222-62b158765b42"},"vehicle_type_id":"4","last_reported":1770925376,"current_range_meters":7200,"station_id":"cpo3532slgdg3j2ikp40","pricing_plan_id":"cebpf4jnsgd1na2vs0mg"},{"bike_id":"46795c32-d155-4823-a0f3-872b06d1e11d","system_id":"levelo_inurba_marseille","lat":43.21762,"lon":5.34635,"is_reserved":false,"is_disabled":false,"rental_uris":{"android":"levelo://app?vid=46795c32-d155-4823-a0f3-872b06d1e11d","ios":"levelo://app?vid=46795c32-d155-4823-a0f3-872b06d1e11d"},"vehicle_type_id":"4","last_reported":1770925376,"current_range_meters":7200,"station_id":"","pricing_plan_id":"cebpf4jnsgd1na2vs0mg"},{"bike_id":"fecd2e02-5de0-4040-8549-a55d5fc6a139","system_id":"levelo_inurba_marseille","lat":43.2762,"lon":5.36114,"is_reserved":false,"is_disabled":false,"rental_uris":{"android":"levelo://app?vid=fecd2e02-5de0-4040-8549-a55d5fc6a139","ios":"levelo://app?vid=fecd2e02-5de0-4040-8549-a55d5fc6a139"},"vehicle_type_id":"4","last_reported":1770925376,"current_range_meters":7200,"station_id":"ce4bgj92rcd13ifvqbe0","pricing_plan_id":"cebpf4jnsgd1na2vs0mg"},{"bike_id":"fa786b83-1e75-4580-94d3-75e4b4796f34","system_id":"levelo_inurba_marseille","lat":43.30154,"lon":5.39866,"is_reserved":false,"is_disabled":false,"rental_uris":{"android":"levelo://app?vid=fa786b83-1e75-4580-94d3-75e4b4796f34","ios":"levelo://app?vid=fa786b83-1e75-4580-94d3-75e4b4796f34"},"vehicle_type_id":"4","last_reported":1770925376,"current_range_meters":7200,"station_id":"ce4bh0h2rcd13ifvqd40","pricing_plan_id":"cebpf4jnsgd1na2vs0mg"},{"bike_id":"1666b265-643d-41e7-bcc3-6167a6d49f91","system_id":"levelo_inurba_marseille","lat":43.22539,"lon":5.34825,"is_reserved":false,"is_disabled":false,"rental_uris":{"android":"levelo://app?vid=1666b265-643d-41e7-bcc3-6167a6d49f91","ios":"levelo://app?vid=1666b265-643d-41e7-bcc3-6167a6d49f91"},"vehicle_type_id":"4","last_reported":1770925376,"current_range_meters":8000,"station_id":"","pricing_plan_id":"cebpf4jnsgd1na2vs0mg"},{"bike_id":"52683c27-ad63-43c1-8a50-a75fb84808e6","system_id":"levelo_inurba_marseille","lat":43.25095,"lon":5.39515,"is_reserved":false,"is_disabled":false,"rental_uris":{"android":"levelo://app?vid=52683c27-ad63-43c1-8a50-a75fb84808e6","ios":"levelo://app?vid=52683c27-ad63-43c1-8a50-a75fb84808e6"},"vehicle_type_id":"4","last_reported":1770925376,"current_range_meters":8000,"station_id":"ce4bhm12rcd13ifvqgkg","pricing_plan_id":"cebpf4jnsgd1na2vs0mg"},{"bike_id":"85ca329a-9c55-4be1-b2da-c3d917ed6363","system_id":"levelo_inurba_marseille","lat":43.24553,"lon":5.39531,"is_reserved":false,"is_disabled":false,"rental_uris":{"android":"levelo://app?vid=85ca329a-9c55-4be1-b2da-c3d917ed6363","ios":"levelo://app?vid=85ca329a-9c55-4be1-b2da-c3d917ed6363"},"vehicle_type_id":"4","last_reported":1770925376,"current_range_meters":8000,"station_id":"ce4bhlp2rcd13ifvqgjg","pricing_plan_id":"cebpf4jnsgd1na2vs0mg"},{"bike_id":"4e0f9367-7bac-4416-a504-19f0c84a5aa3","system_id":"levelo_inurba_marseille","lat":43.28154,"lon":5.42655,"is_reserved":false,"is_disabled":false,"rental_uris":{"android":"levelo://app?vid=4e0f9367-7bac-4416-a504-19f0c84a5aa3","ios":"levelo://app?vid=4e0f9367-7bac-4416-a504-19f0c84a5aa3"},"vehicle_type_id":"4","last_reported":1770925376,"current_range_meters":8000,"station_id":"ce4bhnh2rcd13ifvqgug","pricing_plan_id":"cebpf4jnsgd1na2vs0mg"},{"bike_id":"a880ec92-3328-40f4-b0f2-c721ff062b83","system_id":"levelo_inurba_marseille","lat":43.28935,"lon":5.38444,"is_reserved":false,"is_disabled":false,"rental_uris":{"android":"levelo://app?vid=a880ec92-3328-40f4-b0f2-c721ff062b83","ios":"levelo://app?vid=a880ec92-3328-40f4-b0f2-c721ff062b83"},"vehicle_type_id":"4","last_reported":1770925376,"current_range_meters":8000,"station_id":"ce4bh612rcd13ifvqe6g","pricing_plan_id":"cebpf4jnsgd1na2vs0mg"},{"bike_id":"9faee6f2-457c-410c-b197-c5102d1e22ad","system_id":"levelo_inurba_marseille","lat":43.231837,"lon":5.399864,"is_reserved":false,"is_disabled":false,"rental_uris":{"android":"levelo://app?vid=9faee6f2-457c-410c-b197-c5102d1e22ad","ios":"levelo://app?vid=9faee6f2-457c-410c-b197-c5102d1e22ad"},"vehicle_type_id":"4","last_reported":1770925376,"current_range_meters":8000,"station_id":"ce4bhn12rcd13ifvqgqg","pricing_plan_id":"cebpf4jnsgd1na2vs0mg"},{"bike_id":"6d146b90-da11-4bbb-b527-7da7e2561db2","system_id":"levelo_inurba_marseille","lat":43.2847,"lon":5.48395,"is_reserved":false,"is_disabled":false,"rental_uris":{"android":"levelo://app?vid=6d146b90-da11-4bbb-b527-7da7e2561db2","ios":"levelo://app?vid=6d146b90-da11-4bbb-b527-7da7e2561db2"},"vehicle_type_id":"4","last_reported":1770925376,"current_range_meters":8000,"station_id":"st_d3svhcjqgbts73a3dn0g","pricing_plan_id":"cebpf4jnsgd1na2vs0mg"},{"bike_id":"44b82be7-a2b9-42f1-8560-17e8ec787592","system_id":"levelo_inurba_marseille","lat":43.30895,"lon":5.36883,"is_reserved":false,"is_disabled":false,"rental_uris":{"android":"levelo://app?vid=44b82be7-a2b9-42f1-8560-17e8ec787592","ios":"levelo://app?vid=44b82be7-a2b9-42f1-8560-17e8ec787592"},"vehicle_type_id":"4","last_reported":1770925376,"current_range_meters":8000,"station_id":"ce4bgn92rcd13ifvqbvg","pricing_plan_id":"cebpf4jnsgd1na2vs0mg"},{"bike_id":"a311edce-7eaa-44a5-b845-c7ac5f407308","system_id":"levelo_inurba_marseille","lat":43.2815,"lon":5.42644,"is_reserved":false,"is_disabled":false,"rental_uris":{"android":"levelo://app?vid=a311edce-7eaa-44a5-b845-c7ac5f407308","ios":"levelo://app?vid=a311edce-7eaa-44a5-b845-c7ac5f407308"},"vehicle_type_id":"4","last_reported":1770925376,"current_range_meters":8000,"station_id":"ce4bhnh2rcd13ifvqgug","pricing_plan_id":"cebpf4jnsgd1na2vs0mg"},{"bike_id":"e61f8348-ac76-4cea-92f8-334c0273949b","system_id":"levelo_inurba_marseille","lat":43.24637,"lon":5.43147,"is_reserved":false,"is_disabled":false,"rental_uris":{"android":"levelo://app?vid=e61f8348-ac76-4cea-92f8-334c0273949b","ios":"levelo://app?vid=e61f8348-ac76-4cea-92f8-334c0273949b"},"vehicle_type_id":"4","last_reported":1770925376,"current_range_meters":8000,"station_id":"st_d2m6c4gdas8pm72e190g","pricing_plan_id":"cebpf4jnsgd1na2vs0mg"},{"bike_id":"180a3422-c933-4654-96e3-d252b8ae7988","system_id":"levelo_inurba_marseille","lat":43.27617,"lon":5.36124,"is_reserved":false,"is_disabled":false,"rental_uris":{"android":"levelo://app?vid=180a3422-c933-4654-96e3-d252b8ae7988","ios":"levelo://app?vid=180a3422-c933-4654-96e3-d252b8ae7988"},"vehicle_type_id":"4","last_reported":1770925376,"current_range_meters":8000,"station_id":"ce4bgj92rcd13ifvqbe0","pricing_plan_id":"cebpf4jnsgd1na2vs0mg"},{"bike_id":"40452636-8d5c-4483-9aa3-a6ea0d66c3ee","system_id":"levelo_inurba_marseille","lat":43.31059,"lon":5.39332,"is_reserved":false,"is_disabled":false,"rental_uris":{"android":"levelo://app?vid=40452636-8d5c-4483-9aa3-a6ea0d66c3ee","ios":"levelo://app?vid=40452636-8d5c-4483-9aa3-a6ea0d66c3ee"},"vehicle_type_id":"4","last_reported":1770925376,"current_range_meters":8000,"station_id":"","pricing_plan_id":"cebpf4jnsgd1na2vs0mg"},{"bike_id":"c0d21250-70f7-405b-91f7-061919265b15","system_id":"levelo_inurba_marseille","lat":43.337444,"lon":5.374475,"is_reserved":false,"is_disabled":false,"rental_uris":{"android":"levelo://app?vid=c0d21250-70f7-405b-91f7-061919265b15","ios":"levelo://app?vid=c0d21250-70f7-405b-91f7-061919265b15"},"vehicle_type_id":"4","last_reported":1770925376,"current_range_meters":8000,"station_id":"","pricing_plan_id":"cebpf4jnsgd1na2vs0mg"},{"bike_id":"f5dfc69a-605e-4870-9f15-288a758bb79e","system_id":"levelo_inurba_marseille","lat":43.2979,"lon":5.42893,"is_reserved":false,"is_disabled":false,"rental_uris":{"android":"levelo://app?vid=f5dfc69a-605e-4870-9f15-288a758bb79e","ios":"levelo://app?vid=f5dfc69a-605e-4870-9f15-288a758bb79e"},"vehicle_type_id":"4","last_reported":1770925376,"current_range_meters":8000,"station_id":"","pricing_plan_id":"cebpf4jnsgd1na2vs0mg"},{"bike_id":"31ec33af-4b5b-47df-a935-7478bd3c999f","system_id":"levelo_inurba_marseille","lat":43.25343,"lon":5.42174,"is_reserved":false,"is_disabled":false,"rental_uris":{"android":"levelo://app?vid=31ec33af-4b5b-47df-a935-7478bd3c999f","ios":"levelo://app?vid=31ec33af-4b5b-47df-a935-7478bd3c999f"},"vehicle_type_id":"4","last_reported":1770925376,"current_range_meters":8000,"station_id":"st_d2m65c5bi1j21697t3ng","pricing_plan_id":"cebpf4jnsgd1na2vs0mg"},{"bike_id":"8abfbcbf-af37-4b4e-904d-4ce18d5ebc3b","system_id":"levelo_inurba_marseille","lat":43.30885,"lon":5.39659,"is_reserved":false,"is_disabled":false,"rental_uris":{"android":"levelo://app?vid=8abfbcbf-af37-4b4e-904d-4ce18d5ebc3b","ios":"levelo://app?vid=8abfbcbf-af37-4b4e-904d-4ce18d5ebc3b"},"vehicle_type_id":"4","last_reported":1770925376,"current_range_meters":8000,"station_id":"ce4bh012rcd13ifvqcv0","pricing_plan_id":"cebpf4jnsgd1na2vs0mg"},{"bike_id":"41536ba6-5dd4-4add-a646-491b9fa39068","system_id":"levelo_inurba_marseille","lat":43.24496,"lon":5.42563,"is_reserved":false,"is_disabled":false,"rental_uris":{"android":"levelo://app?vid=41536ba6-5dd4-4add-a646-491b9fa39068","ios":"levelo://app?vid=41536ba6-5dd4-4add-a646-491b9fa39068"},"vehicle_type_id":"4","last_reported":1770925376,"current_range_meters":8000,"station_id":"st_d4a3vfp97mjs738cd8kg","pricing_plan_id":"cebpf4jnsgd1na2vs0mg"},{"bike_id":"f45293d6-4615-4b71-8a82-5fb46a80b0f5","system_id":"levelo_inurba_marseille","lat":43.23375,"lon":5.4121,"is_reserved":false,"is_disabled":false,"rental_uris":{"android":"levelo://app?vid=f45293d6-4615-4b71-8a82-5fb46a80b0f5","ios":"levelo://app?vid=f45293d6-4615-4b71-8a82-5fb46a80b0f5"},"vehicle_type_id":"4","last_reported":1770925376,"current_range_meters":8000,"station_id":"","pricing_plan_id":"cebpf4jnsgd1na2vs0mg"},{"bike_id":"2cdaaecc-f3f1-45ea-a338-8e3592ee7872","system_id":"levelo_inurba_marseille","lat":43.319941,"lon":5.381658,"is_reserved":false,"is_disabled":false,"rental_uris":{"android":"levelo://app?vid=2cdaaecc-f3f1-45ea-a338-8e3592ee7872","ios":"levelo://app?vid=2cdaaecc-f3f1-45ea-a338-8e3592ee7872"},"vehicle_type_id":"4","last_reported":1770925376,"current_range_meters":8000,"station_id":"ce4bhbh2rcd13ifvqeqg","pricing_plan_id":"cebpf4jnsgd1na2vs0mg"},{"bike_id":"6e1e72ed-49f6-41a7-99bc-bbe8c9e15eb7","system_id":"levelo_inurba_marseille","lat":43.29529,"lon":5.3855,"is_reserved":false,"is_disabled":false,"rental_uris":{"android":"levelo://app?vid=6e1e72ed-49f6-41a7-99bc-bbe8c9e15eb7","ios":"levelo://app?vid=6e1e72ed-49f6-41a7-99bc-bbe8c9e15eb7"},"vehicle_type_id":"4","last_reported":1770925376,"current_range_meters":8000,"station_id":"ce4bgih2rcd13ifvqba0","pricing_plan_id":"cebpf4jnsgd1na2vs0mg"},{"bike_id":"0a46505a-b32a-4861-a159-80afa407c777","system_id":"levelo_inurba_marseille","lat":43.28228,"lon":5.39061,"is_reserved":false,"is_disabled":false,"rental_uris":{"android":"levelo://app?vid=0a46505a-b32a-4861-a159-80afa407c777","ios":"levelo://app?vid=0a46505a-b32a-4861-a159-80afa407c777"},"vehicle_type_id":"4","last_reported":1770925376,"current_range_meters":8000,"station_id":"ce4bhn92rcd13ifvqgsg","pricing_plan_id":"cebpf4jnsgd1na2vs0mg"},{"bike_id":"ab2b49aa-7574-41ea-aafd-20e44f598b0a","system_id":"levelo_inurba_marseille","lat":43.33139,"lon":5.37716,"is_reserved":false,"is_disabled":false,"rental_uris":{"android":"levelo://app?vid=ab2b49aa-7574-41ea-aafd-20e44f598b0a","ios":"levelo://app?vid=ab2b49aa-7574-41ea-aafd-20e44f598b0a"},"vehicle_type_id":"4","last_reported":1770925376,"current_range_meters":8000,"station_id":"st_d46cu089ee8s73dldbu0","pricing_plan_id":"cebpf4jnsgd1na2vs0mg"},{"bike_id":"e1e5a448-999f-441b-91be-2118b85ee702","system_id":"levelo_inurba_marseille","lat":43.27841,"lon":5.39221,"is_reserved":false,"is_disabled":false,"rental_uris":{"android":"levelo://app?vid=e1e5a448-999f-441b-91be-2118b85ee702","ios":"levelo://app?vid=e1e5a448-999f-441b-91be-2118b85ee702"},"vehicle_type_id":"4","last_reported":1770925376,"current_range_meters":8000,"station_id":"ce4bhjp2rcd13ifvqga0","pricing_plan_id":"cebpf4jnsgd1na2vs0mg"},{"bike_id":"32726a3c-9f83-4689-84aa-08e8377eed60","system_id":"levelo_inurba_marseille","lat":43.23785,"lon":5.36608,"is_reserved":false,"is_disabled":true,"rental_uris":{"android":"levelo://app?vid=32726a3c-9f83-4689-84aa-08e8377eed60","ios":"levelo://app?vid=32726a3c-9f83-4689-84aa-08e8377eed60"},"vehicle_type_id":"4","last_reported":1770925376,"current_range_meters":8000,"station_id":"st_d3nk18o9ro0c73en2l3g","pricing_plan_id":"cebpf4jnsgd1na2vs0mg"},{"bike_id":"b32b0732-e4d0-4f51-ba0c-c2f5e5ffe7be","system_id":"levelo_inurba_marseille","lat":43.33772,"lon":5.37461,"is_reserved":false,"is_disabled":false,"rental_uris":{"android":"levelo://app?vid=b32b0732-e4d0-4f51-ba0c-c2f5e5ffe7be","ios":"levelo://app?vid=b32b0732-e4d0-4f51-ba0c-c2f5e5ffe7be"},"vehicle_type_id":"4","last_reported":1770925376,"current_range_meters":8400,"station_id":"","pricing_plan_id":"cebpf4jnsgd1na2vs0mg"},{"bike_id":"05a0bbb1-a54b-464d-bb78-257d3dc37ebf","system_id":"levelo_inurba_marseille","lat":43.2871,"lon":5.37445,"is_reserved":false,"is_disabled":false,"rental_uris":{"android":"levelo://app?vid=05a0bbb1-a54b-464d-bb78-257d3dc37ebf","ios":"levelo://app?vid=05a0bbb1-a54b-464d-bb78-257d3dc37ebf"},"vehicle_type_id":"4","last_reported":1770925376,"current_range_meters":8400,"station_id":"","pricing_plan_id":"cebpf4jnsgd1na2vs0mg"},{"bike_id":"f8471a2c-87e1-4cbd-bb5b-57438b2e01d6","system_id":"levelo_inurba_marseille","lat":43.29269,"lon":5.3685,"is_reserved":false,"is_disabled":false,"rental_uris":{"android":"levelo://app?vid=f8471a2c-87e1-4cbd-bb5b-57438b2e01d6","ios":"levelo://app?vid=f8471a2c-87e1-4cbd-bb5b-57438b2e01d6"},"vehicle_type_id":"4","last_reported":1770925376,"current_range_meters":8400,"station_id":"ce4bhbp2rcd13ifvqesg","pricing_plan_id":"cebpf4jnsgd1na2vs0mg"},{"bike_id":"9cceaab4-22fd-47ec-83e6-ad35219eea09","system_id":"levelo_inurba_marseille","lat":43.25578,"lon":5.38257,"is_reserved":false,"is_disabled":false,"rental_uris":{"android":"levelo://app?vid=9cceaab4-22fd-47ec-83e6-ad35219eea09","ios":"levelo://app?vid=9cceaab4-22fd-47ec-83e6-ad35219eea09"},"vehicle_type_id":"4","last_reported":1770925376,"current_range_meters":8400,"station_id":"ce4bhih2rcd13ifvqfs0","pricing_plan_id":"cebpf4jnsgd1na2vs0mg"},{"bike_id":"51ad0198-092e-4860-b994-3420575955f1","system_id":"levelo_inurba_marseille","lat":43.22527,"lon":5.34833,"is_reserved":false,"is_disabled":false,"rental_uris":{"android":"levelo://app?vid=51ad0198-092e-4860-b994-3420575955f1","ios":"levelo://app?vid=51ad0198-092e-4860-b994-3420575955f1"},"vehicle_type_id":"4","last_reported":1770925376,"current_range_meters":8400,"station_id":"st_cvj5dfep6f1abm77gieg","pricing_plan_id":"cebpf4jnsgd1na2vs0mg"},{"bike_id":"439d8096-e924-4926-b33d-e1a59bc67f7d","system_id":"levelo_inurba_marseille","lat":43.29216,"lon":5.38414,"is_reserved":false,"is_disabled":false,"rental_uris":{"android":"levelo://app?vid=439d8096-e924-4926-b33d-e1a59bc67f7d","ios":"levelo://app?vid=439d8096-e924-4926-b33d-e1a59bc67f7d"},"vehicle_type_id":"4","last_reported":1770925376,"current_range_meters":8400,"station_id":"","pricing_plan_id":"cebpf4jnsgd1na2vs0mg"},{"bike_id":"9e49c384-30c1-4f45-a8df-9663175b8696","system_id":"levelo_inurba_marseille","lat":43.244703,"lon":5.42533,"is_reserved":false,"is_disabled":false,"rental_uris":{"android":"levelo://app?vid=9e49c384-30c1-4f45-a8df-9663175b8696","ios":"levelo://app?vid=9e49c384-30c1-4f45-a8df-9663175b8696"},"vehicle_type_id":"4","last_reported":1770925376,"current_range_meters":8400,"station_id":"st_d4a3vfp97mjs738cd8kg","pricing_plan_id":"cebpf4jnsgd1na2vs0mg"},{"bike_id":"db9bdb83-96b4-4428-9742-0623009d6ba2","system_id":"levelo_inurba_marseille","lat":43.29798,"lon":5.39339,"is_reserved":false,"is_disabled":false,"rental_uris":{"android":"levelo://app?vid=db9bdb83-96b4-4428-9742-0623009d6ba2","ios":"levelo://app?vid=db9bdb83-96b4-4428-9742-0623009d6ba2"},"vehicle_type_id":"4","last_reported":1770925376,"current_range_meters":8400,"station_id":"chh1huq6cuj3fo74tm60","pricing_plan_id":"cebpf4jnsgd1na2vs0mg"},{"bike_id":"5ff157dc-e3aa-4305-ad39-dfa58cf64b9c","system_id":"levelo_inurba_marseille","lat":43.240824,"lon":5.377413,"is_reserved":false,"is_disabled":false,"rental_uris":{"android":"levelo://app?vid=5ff157dc-e3aa-4305-ad39-dfa58cf64b9c","ios":"levelo://app?vid=5ff157dc-e3aa-4305-ad39-dfa58cf64b9c"},"vehicle_type_id":"4","last_reported":1770925376,"current_range_meters":8400,"station_id":"ce4bhnp2rcd13ifvqgvg","pricing_plan_id":"cebpf4jnsgd1na2vs0mg"},{"bike_id":"addfd7b9-6fc2-4e4f-a262-5360f2bada55","system_id":"levelo_inurba_marseille","lat":43.29275,"lon":5.36842,"is_reserved":false,"is_disabled":false,"rental_uris":{"android":"levelo://app?vid=addfd7b9-6fc2-4e4f-a262-5360f2bada55","ios":"levelo://app?vid=addfd7b9-6fc2-4e4f-a262-5360f2bada55"},"vehicle_type_id":"4","last_reported":1770925376,"current_range_meters":8400,"station_id":"ce4bhbp2rcd13ifvqesg","pricing_plan_id":"cebpf4jnsgd1na2vs0mg"},{"bike_id":"48ef2e5e-395e-487a-9e41-360aad012a1f","system_id":"levelo_inurba_marseille","lat":43.26209,"lon":5.374416,"is_reserved":false,"is_disabled":false,"rental_uris":{"android":"levelo://app?vid=48ef2e5e-395e-487a-9e41-360aad012a1f","ios":"levelo://app?vid=48ef2e5e-395e-487a-9e41-360aad012a1f"},"vehicle_type_id":"4","last_reported":1770925376,"current_range_meters":8400,"station_id":"ce4bhgp2rcd13ifvqfc0","pricing_plan_id":"cebpf4jnsgd1na2vs0mg"},{"bike_id":"b5cfe035-0ac5-4157-91b6-fb5d92305462","system_id":"levelo_inurba_marseille","lat":43.28154,"lon":5.42636,"is_reserved":false,"is_disabled":false,"rental_uris":{"android":"levelo://app?vid=b5cfe035-0ac5-4157-91b6-fb5d92305462","ios":"levelo://app?vid=b5cfe035-0ac5-4157-91b6-fb5d92305462"},"vehicle_type_id":"4","last_reported":1770925376,"current_range_meters":8400,"station_id":"ce4bhnh2rcd13ifvqgug","pricing_plan_id":"cebpf4jnsgd1na2vs0mg"},{"bike_id":"1d2595e7-24ec-4837-ac2e-333261d8dae0","system_id":"levelo_inurba_marseille","lat":43.22534,"lon":5.4167,"is_reserved":false,"is_disabled":false,"rental_uris":{"android":"levelo://app?vid=1d2595e7-24ec-4837-ac2e-333261d8dae0","ios":"levelo://app?vid=1d2595e7-24ec-4837-ac2e-333261d8dae0"},"vehicle_type_id":"4","last_reported":1770925376,"current_range_meters":8400,"station_id":"st_d2o4gvlbi1j2169b742g","pricing_plan_id":"cebpf4jnsgd1na2vs0mg"},{"bike_id":"696bdac2-f3c7-4485-ae21-03b56437e269","system_id":"levelo_inurba_marseille","lat":43.29265,"lon":5.38447,"is_reserved":false,"is_disabled":false,"rental_uris":{"android":"levelo://app?vid=696bdac2-f3c7-4485-ae21-03b56437e269","ios":"levelo://app?vid=696bdac2-f3c7-4485-ae21-03b56437e269"},"vehicle_type_id":"4","last_reported":1770925376,"current_range_meters":8400,"station_id":"ce4bh692rcd13ifvqea0","pricing_plan_id":"cebpf4jnsgd1na2vs0mg"},{"bike_id":"05797971-b1fa-4e10-9a08-cd7f223bbe55","system_id":"levelo_inurba_marseille","lat":43.217505,"lon":5.34613,"is_reserved":false,"is_disabled":false,"rental_uris":{"android":"levelo://app?vid=05797971-b1fa-4e10-9a08-cd7f223bbe55","ios":"levelo://app?vid=05797971-b1fa-4e10-9a08-cd7f223bbe55"},"vehicle_type_id":"4","last_reported":1770925376,"current_range_meters":8400,"station_id":"st_cvj6r9ubvosntc0bgbag","pricing_plan_id":"cebpf4jnsgd1na2vs0mg"},{"bike_id":"c2f5d1a4-742e-46c9-9342-dba529c9dee7","system_id":"levelo_inurba_marseille","lat":43.3151,"lon":5.44542,"is_reserved":false,"is_disabled":false,"rental_uris":{"android":"levelo://app?vid=c2f5d1a4-742e-46c9-9342-dba529c9dee7","ios":"levelo://app?vid=c2f5d1a4-742e-46c9-9342-dba529c9dee7"},"vehicle_type_id":"4","last_reported":1770925376,"current_range_meters":8400,"station_id":"","pricing_plan_id":"cebpf4jnsgd1na2vs0mg"},{"bike_id":"27931943-85db-4ed9-bf22-5714a3482b69","system_id":"levelo_inurba_marseille","lat":43.315416,"lon":5.380406,"is_reserved":false,"is_disabled":true,"rental_uris":{"android":"levelo://app?vid=27931943-85db-4ed9-bf22-5714a3482b69","ios":"levelo://app?vid=27931943-85db-4ed9-bf22-5714a3482b69"},"vehicle_type_id":"4","last_reported":1770925376,"current_range_meters":8400,"station_id":"ce4bhsp2rcd13ifvqi50","pricing_plan_id":"cebpf4jnsgd1na2vs0mg"},{"bike_id":"94ad3fe5-fec2-492f-ab32-e4e1884c1548","system_id":"levelo_inurba_marseille","lat":43.29251,"lon":5.37618,"is_reserved":false,"is_disabled":false,"rental_uris":{"android":"levelo://app?vid=94ad3fe5-fec2-492f-ab32-e4e1884c1548","ios":"levelo://app?vid=94ad3fe5-fec2-492f-ab32-e4e1884c1548"},"vehicle_type_id":"4","last_reported":1770925376,"current_range_meters":8400,"station_id":"ce4bgi12rcd13ifvqb80","pricing_plan_id":"cebpf4jnsgd1na2vs0mg"},{"bike_id":"b1fd2bd1-9d58-44df-88bd-c061d347df54","system_id":"levelo_inurba_marseille","lat":43.302535,"lon":5.400786,"is_reserved":false,"is_disabled":false,"rental_uris":{"android":"levelo://app?vid=b1fd2bd1-9d58-44df-88bd-c061d347df54","ios":"levelo://app?vid=b1fd2bd1-9d58-44df-88bd-c061d347df54"},"vehicle_type_id":"4","last_reported":1770925376,"current_range_meters":8400,"station_id":"ce4bgvh2rcd13ifvqcs0","pricing_plan_id":"cebpf4jnsgd1na2vs0mg"},{"bike_id":"76ea5260-ff82-43e8-a377-4f3ddffee2c7","system_id":"levelo_inurba_marseille","lat":43.297199,"lon":5.427756,"is_reserved":false,"is_disabled":false,"rental_uris":{"android":"levelo://app?vid=76ea5260-ff82-43e8-a377-4f3ddffee2c7","ios":"levelo://app?vid=76ea5260-ff82-43e8-a377-4f3ddffee2c7"},"vehicle_type_id":"4","last_reported":1770925376,"current_range_meters":8400,"station_id":"st_d3md5207bmas73dh9klg","pricing_plan_id":"cebpf4jnsgd1na2vs0mg"},{"bike_id":"a0f00b77-3668-4cb1-9cb3-dbbe136dba2b","system_id":"levelo_inurba_marseille","lat":43.25593,"lon":5.38204,"is_reserved":false,"is_disabled":false,"rental_uris":{"android":"levelo://app?vid=a0f00b77-3668-4cb1-9cb3-dbbe136dba2b","ios":"levelo://app?vid=a0f00b77-3668-4cb1-9cb3-dbbe136dba2b"},"vehicle_type_id":"4","last_reported":1770925376,"current_range_meters":8400,"station_id":"ce4bhih2rcd13ifvqfs0","pricing_plan_id":"cebpf4jnsgd1na2vs0mg"},{"bike_id":"12cd40cb-2fcd-4c1b-95d1-58d07323fb4a","system_id":"levelo_inurba_marseille","lat":43.24475,"lon":5.42522,"is_reserved":false,"is_disabled":false,"rental_uris":{"android":"levelo://app?vid=12cd40cb-2fcd-4c1b-95d1-58d07323fb4a","ios":"levelo://app?vid=12cd40cb-2fcd-4c1b-95d1-58d07323fb4a"},"vehicle_type_id":"4","last_reported":1770925376,"current_range_meters":8400,"station_id":"st_d4a3vfp97mjs738cd8kg","pricing_plan_id":"cebpf4jnsgd1na2vs0mg"},{"bike_id":"c0ee8a29-d430-4ca6-a190-667491258748","system_id":"levelo_inurba_marseille","lat":43.28492,"lon":5.38415,"is_reserved":false,"is_disabled":false,"rental_uris":{"android":"levelo://app?vid=c0ee8a29-d430-4ca6-a190-667491258748","ios":"levelo://app?vid=c0ee8a29-d430-4ca6-a190-667491258748"},"vehicle_type_id":"4","last_reported":1770925376,"current_range_meters":8800,"station_id":"ce4bh512rcd13ifvqe3g","pricing_plan_id":"cebpf4jnsgd1na2vs0mg"},{"bike_id":"b2cbcb77-d124-40b9-94e0-3f6323d9ab6c","system_id":"levelo_inurba_marseille","lat":43.31273,"lon":5.40167,"is_reserved":false,"is_disabled":false,"rental_uris":{"android":"levelo://app?vid=b2cbcb77-d124-40b9-94e0-3f6323d9ab6c","ios":"levelo://app?vid=b2cbcb77-d124-40b9-94e0-3f6323d9ab6c"},"vehicle_type_id":"4","last_reported":1770925376,"current_range_meters":8800,"station_id":"ce4bh092rcd13ifvqd30","pricing_plan_id":"cebpf4jnsgd1na2vs0mg"},{"bike_id":"28aca305-7f7d-4b12-a0ae-cfabbf96c8f2","system_id":"levelo_inurba_marseille","lat":43.24663,"lon":5.38169,"is_reserved":false,"is_disabled":false,"rental_uris":{"android":"levelo://app?vid=28aca305-7f7d-4b12-a0ae-cfabbf96c8f2","ios":"levelo://app?vid=28aca305-7f7d-4b12-a0ae-cfabbf96c8f2"},"vehicle_type_id":"4","last_reported":1770925376,"current_range_meters":8800,"station_id":"ce4bhih2rcd13ifvqfr0","pricing_plan_id":"cebpf4jnsgd1na2vs0mg"},{"bike_id":"eaa7d64d-f9d5-4503-8934-5e99b662ad58","system_id":"levelo_inurba_marseille","lat":43.29299,"lon":5.37453,"is_reserved":false,"is_disabled":false,"rental_uris":{"android":"levelo://app?vid=eaa7d64d-f9d5-4503-8934-5e99b662ad58","ios":"levelo://app?vid=eaa7d64d-f9d5-4503-8934-5e99b662ad58"},"vehicle_type_id":"4","last_reported":1770925376,"current_range_meters":8800,"station_id":"ce4bgi12rcd13ifvqb70","pricing_plan_id":"cebpf4jnsgd1na2vs0mg"},{"bike_id":"abce2bc2-435a-41b2-ad4b-ce66cbf18f5f","system_id":"levelo_inurba_marseille","lat":43.26201,"lon":5.37462,"is_reserved":false,"is_disabled":false,"rental_uris":{"android":"levelo://app?vid=abce2bc2-435a-41b2-ad4b-ce66cbf18f5f","ios":"levelo://app?vid=abce2bc2-435a-41b2-ad4b-ce66cbf18f5f"},"vehicle_type_id":"4","last_reported":1770925376,"current_range_meters":8800,"station_id":"ce4bhgp2rcd13ifvqfc0","pricing_plan_id":"cebpf4jnsgd1na2vs0mg"},{"bike_id":"045d07ca-3a14-4554-9f95-0aba57d1bccf","system_id":"levelo_inurba_marseille","lat":43.25576,"lon":5.38235,"is_reserved":false,"is_disabled":false,"rental_uris":{"android":"levelo://app?vid=045d07ca-3a14-4554-9f95-0aba57d1bccf","ios":"levelo://app?vid=045d07ca-3a14-4554-9f95-0aba57d1bccf"},"vehicle_type_id":"4","last_reported":1770925376,"current_range_meters":8800,"station_id":"ce4bhih2rcd13ifvqfs0","pricing_plan_id":"cebpf4jnsgd1na2vs0mg"},{"bike_id":"4fabe8f2-3686-4595-b208-5b1849f1d59a","system_id":"levelo_inurba_marseille","lat":43.21739,"lon":5.34602,"is_reserved":false,"is_disabled":false,"rental_uris":{"android":"levelo://app?vid=4fabe8f2-3686-4595-b208-5b1849f1d59a","ios":"levelo://app?vid=4fabe8f2-3686-4595-b208-5b1849f1d59a"},"vehicle_type_id":"4","last_reported":1770925376,"current_range_meters":8800,"station_id":"st_cvj6r9ubvosntc0bgbag","pricing_plan_id":"cebpf4jnsgd1na2vs0mg"},{"bike_id":"6f992222-ec7a-488c-a1d3-988179372f4d","system_id":"levelo_inurba_marseille","lat":43.21746,"lon":5.34614,"is_reserved":false,"is_disabled":false,"rental_uris":{"android":"levelo://app?vid=6f992222-ec7a-488c-a1d3-988179372f4d","ios":"levelo://app?vid=6f992222-ec7a-488c-a1d3-988179372f4d"},"vehicle_type_id":"4","last_reported":1770925376,"current_range_meters":8800,"station_id":"st_cvj6r9ubvosntc0bgbag","pricing_plan_id":"cebpf4jnsgd1na2vs0mg"},{"bike_id":"1666a0e7-ccfb-4a46-816c-bd1b996f577e","system_id":"levelo_inurba_marseille","lat":43.28608,"lon":5.38418,"is_reserved":false,"is_disabled":false,"rental_uris":{"android":"levelo://app?vid=1666a0e7-ccfb-4a46-816c-bd1b996f577e","ios":"levelo://app?vid=1666a0e7-ccfb-4a46-816c-bd1b996f577e"},"vehicle_type_id":"4","last_reported":1770925376,"current_range_meters":8800,"station_id":"","pricing_plan_id":"cebpf4jnsgd1na2vs0mg"},{"bike_id":"a094603f-6b66-45dc-8cf7-e15513c5be6b","system_id":"levelo_inurba_marseille","lat":43.29855,"lon":5.36275,"is_reserved":false,"is_disabled":false,"rental_uris":{"android":"levelo://app?vid=a094603f-6b66-45dc-8cf7-e15513c5be6b","ios":"levelo://app?vid=a094603f-6b66-45dc-8cf7-e15513c5be6b"},"vehicle_type_id":"4","last_reported":1770925376,"current_range_meters":8800,"station_id":"ce4bgpp2rcd13ifvqc3g","pricing_plan_id":"cebpf4jnsgd1na2vs0mg"},{"bike_id":"33f1fe40-3dca-4805-a01a-37542c447572","system_id":"levelo_inurba_marseille","lat":43.2892,"lon":5.38404,"is_reserved":false,"is_disabled":false,"rental_uris":{"android":"levelo://app?vid=33f1fe40-3dca-4805-a01a-37542c447572","ios":"levelo://app?vid=33f1fe40-3dca-4805-a01a-37542c447572"},"vehicle_type_id":"4","last_reported":1770925376,"current_range_meters":8800,"station_id":"ce4bh612rcd13ifvqe6g","pricing_plan_id":"cebpf4jnsgd1na2vs0mg"},{"bike_id":"9490a26f-1ee4-42a7-b4d6-589b3dd386d7","system_id":"levelo_inurba_marseille","lat":43.25116,"lon":5.40331,"is_reserved":false,"is_disabled":false,"rental_uris":{"android":"levelo://app?vid=9490a26f-1ee4-42a7-b4d6-589b3dd386d7","ios":"levelo://app?vid=9490a26f-1ee4-42a7-b4d6-589b3dd386d7"},"vehicle_type_id":"4","last_reported":1770925376,"current_range_meters":8800,"station_id":"ce4bhlh2rcd13ifvqgig","pricing_plan_id":"cebpf4jnsgd1na2vs0mg"},{"bike_id":"300bd048-5059-4d92-acd1-4068b19629fb","system_id":"levelo_inurba_marseille","lat":43.26853,"lon":5.40681,"is_reserved":false,"is_disabled":false,"rental_uris":{"android":"levelo://app?vid=300bd048-5059-4d92-acd1-4068b19629fb","ios":"levelo://app?vid=300bd048-5059-4d92-acd1-4068b19629fb"},"vehicle_type_id":"4","last_reported":1770925376,"current_range_meters":8800,"station_id":"","pricing_plan_id":"cebpf4jnsgd1na2vs0mg"},{"bike_id":"49e867dd-1af1-4974-bc21-efb064a7210c","system_id":"levelo_inurba_marseille","lat":43.29538,"lon":5.38567,"is_reserved":false,"is_disabled":false,"rental_uris":{"android":"levelo://app?vid=49e867dd-1af1-4974-bc21-efb064a7210c","ios":"levelo://app?vid=49e867dd-1af1-4974-bc21-efb064a7210c"},"vehicle_type_id":"4","last_reported":1770925376,"current_range_meters":8800,"station_id":"ce4bgih2rcd13ifvqba0","pricing_plan_id":"cebpf4jnsgd1na2vs0mg"},{"bike_id":"eb716989-0baf-49cb-8a14-44956556f7e8","system_id":"levelo_inurba_marseille","lat":43.29262,"lon":5.38425,"is_reserved":false,"is_disabled":true,"rental_uris":{"android":"levelo://app?vid=eb716989-0baf-49cb-8a14-44956556f7e8","ios":"levelo://app?vid=eb716989-0baf-49cb-8a14-44956556f7e8"},"vehicle_type_id":"4","last_reported":1770925376,"current_range_meters":8800,"station_id":"ce4bh692rcd13ifvqea0","pricing_plan_id":"cebpf4jnsgd1na2vs0mg"},{"bike_id":"9602f8b1-025e-48e4-91b6-ad523283f4c3","system_id":"levelo_inurba_marseille","lat":43.30887,"lon":5.39668,"is_reserved":false,"is_disabled":false,"rental_uris":{"android":"levelo://app?vid=9602f8b1-025e-48e4-91b6-ad523283f4c3","ios":"levelo://app?vid=9602f8b1-025e-48e4-91b6-ad523283f4c3"},"vehicle_type_id":"4","last_reported":1770925376,"current_range_meters":8800,"station_id":"ce4bh012rcd13ifvqcv0","pricing_plan_id":"cebpf4jnsgd1na2vs0mg"},{"bike_id":"67a0890d-434c-4883-b3e1-d1ab5c7b984b","system_id":"levelo_inurba_marseille","lat":43.28917,"lon":5.38413,"is_reserved":false,"is_disabled":false,"rental_uris":{"android":"levelo://app?vid=67a0890d-434c-4883-b3e1-d1ab5c7b984b","ios":"levelo://app?vid=67a0890d-434c-4883-b3e1-d1ab5c7b984b"},"vehicle_type_id":"4","last_reported":1770925376,"current_range_meters":8800,"station_id":"ce4bh612rcd13ifvqe6g","pricing_plan_id":"cebpf4jnsgd1na2vs0mg"},{"bike_id":"014613de-69aa-4aca-9291-67750cce2e69","system_id":"levelo_inurba_marseille","lat":43.28467,"lon":5.48393,"is_reserved":false,"is_disabled":false,"rental_uris":{"android":"levelo://app?vid=014613de-69aa-4aca-9291-67750cce2e69","ios":"levelo://app?vid=014613de-69aa-4aca-9291-67750cce2e69"},"vehicle_type_id":"4","last_reported":1770925376,"current_range_meters":9200,"station_id":"","pricing_plan_id":"cebpf4jnsgd1na2vs0mg"},{"bike_id":"d30d7d9e-611d-4920-9b2d-b4a912454982","system_id":"levelo_inurba_marseille","lat":43.3128,"lon":5.37755,"is_reserved":false,"is_disabled":false,"rental_uris":{"android":"levelo://app?vid=d30d7d9e-611d-4920-9b2d-b4a912454982","ios":"levelo://app?vid=d30d7d9e-611d-4920-9b2d-b4a912454982"},"vehicle_type_id":"4","last_reported":1770925376,"current_range_meters":9200,"station_id":"","pricing_plan_id":"cebpf4jnsgd1na2vs0mg"},{"bike_id":"65aac124-f4af-40a9-969f-9b86b76af09b","system_id":"levelo_inurba_marseille","lat":43.29448,"lon":5.395761,"is_reserved":false,"is_disabled":false,"rental_uris":{"android":"levelo://app?vid=65aac124-f4af-40a9-969f-9b86b76af09b","ios":"levelo://app?vid=65aac124-f4af-40a9-969f-9b86b76af09b"},"vehicle_type_id":"4","last_reported":1770925376,"current_range_meters":9200,"station_id":"","pricing_plan_id":"cebpf4jnsgd1na2vs0mg"},{"bike_id":"806dba28-6b5b-471d-afa9-5e9335f17ebb","system_id":"levelo_inurba_marseille","lat":43.29255,"lon":5.40907,"is_reserved":false,"is_disabled":true,"rental_uris":{"android":"levelo://app?vid=806dba28-6b5b-471d-afa9-5e9335f17ebb","ios":"levelo://app?vid=806dba28-6b5b-471d-afa9-5e9335f17ebb"},"vehicle_type_id":"4","last_reported":1770925376,"current_range_meters":9200,"station_id":"ce4bh192rcd13ifvqdc0","pricing_plan_id":"cebpf4jnsgd1na2vs0mg"},{"bike_id":"d4196b46-90a4-4e45-bfc7-5938e4b2d64a","system_id":"levelo_inurba_marseille","lat":43.295372,"lon":5.38534,"is_reserved":false,"is_disabled":false,"rental_uris":{"android":"levelo://app?vid=d4196b46-90a4-4e45-bfc7-5938e4b2d64a","ios":"levelo://app?vid=d4196b46-90a4-4e45-bfc7-5938e4b2d64a"},"vehicle_type_id":"4","last_reported":1770925376,"current_range_meters":9200,"station_id":"ce4bgih2rcd13ifvqba0","pricing_plan_id":"cebpf4jnsgd1na2vs0mg"},{"bike_id":"b39ba1aa-7b31-4368-898e-d2ae177a7edd","system_id":"levelo_inurba_marseille","lat":43.26543,"lon":5.37304,"is_reserved":false,"is_disabled":false,"rental_uris":{"android":"levelo://app?vid=b39ba1aa-7b31-4368-898e-d2ae177a7edd","ios":"levelo://app?vid=b39ba1aa-7b31-4368-898e-d2ae177a7edd"},"vehicle_type_id":"4","last_reported":1770925376,"current_range_meters":9200,"station_id":"ce4bhg12rcd13ifvqf70","pricing_plan_id":"cebpf4jnsgd1na2vs0mg"},{"bike_id":"b531804e-604b-4b03-8b32-4c28a8a3d56f","system_id":"levelo_inurba_marseille","lat":43.30934,"lon":5.40151,"is_reserved":false,"is_disabled":false,"rental_uris":{"android":"levelo://app?vid=b531804e-604b-4b03-8b32-4c28a8a3d56f","ios":"levelo://app?vid=b531804e-604b-4b03-8b32-4c28a8a3d56f"},"vehicle_type_id":"4","last_reported":1770925376,"current_range_meters":9200,"station_id":"ce4bgvp2rcd13ifvqct0","pricing_plan_id":"cebpf4jnsgd1na2vs0mg"},{"bike_id":"71a49fd3-35c5-47b0-9364-fe0fe8285ced","system_id":"levelo_inurba_marseille","lat":43.23191,"lon":5.3998,"is_reserved":false,"is_disabled":false,"rental_uris":{"android":"levelo://app?vid=71a49fd3-35c5-47b0-9364-fe0fe8285ced","ios":"levelo://app?vid=71a49fd3-35c5-47b0-9364-fe0fe8285ced"},"vehicle_type_id":"4","last_reported":1770925376,"current_range_meters":9200,"station_id":"ce4bhn12rcd13ifvqgqg","pricing_plan_id":"cebpf4jnsgd1na2vs0mg"},{"bike_id":"2b50711d-f274-4858-b57c-b0b2d82b3b63","system_id":"levelo_inurba_marseille","lat":43.29979,"lon":5.38513,"is_reserved":false,"is_disabled":true,"rental_uris":{"android":"levelo://app?vid=2b50711d-f274-4858-b57c-b0b2d82b3b63","ios":"levelo://app?vid=2b50711d-f274-4858-b57c-b0b2d82b3b63"},"vehicle_type_id":"4","last_reported":1770925376,"current_range_meters":9200,"station_id":"ce4bgj92rcd13ifvqbd0","pricing_plan_id":"cebpf4jnsgd1na2vs0mg"},{"bike_id":"410684d1-9bfb-4d62-af7a-b3a54dec4491","system_id":"levelo_inurba_marseille","lat":43.29026,"lon":5.3865,"is_reserved":false,"is_disabled":false,"rental_uris":{"android":"levelo://app?vid=410684d1-9bfb-4d62-af7a-b3a54dec4491","ios":"levelo://app?vid=410684d1-9bfb-4d62-af7a-b3a54dec4491"},"vehicle_type_id":"4","last_reported":1770925376,"current_range_meters":9200,"station_id":"ce4bh4p2rcd13ifvqe0g","pricing_plan_id":"cebpf4jnsgd1na2vs0mg"},{"bike_id":"1fda2318-5942-4788-9736-e5a9eab5d456","system_id":"levelo_inurba_marseille","lat":43.26194,"lon":5.37464,"is_reserved":false,"is_disabled":false,"rental_uris":{"android":"levelo://app?vid=1fda2318-5942-4788-9736-e5a9eab5d456","ios":"levelo://app?vid=1fda2318-5942-4788-9736-e5a9eab5d456"},"vehicle_type_id":"4","last_reported":1770925376,"current_range_meters":9200,"station_id":"ce4bhgp2rcd13ifvqfc0","pricing_plan_id":"cebpf4jnsgd1na2vs0mg"},{"bike_id":"dc4a4fff-deae-4a2f-9016-f50d7c403db4","system_id":"levelo_inurba_marseille","lat":43.30802,"lon":5.381172,"is_reserved":false,"is_disabled":false,"rental_uris":{"android":"levelo://app?vid=dc4a4fff-deae-4a2f-9016-f50d7c403db4","ios":"levelo://app?vid=dc4a4fff-deae-4a2f-9016-f50d7c403db4"},"vehicle_type_id":"4","last_reported":1770925376,"current_range_meters":9200,"station_id":"ce4bgt12rcd13ifvqce0","pricing_plan_id":"cebpf4jnsgd1na2vs0mg"},{"bike_id":"0270cee7-d38d-40e7-8096-229f09bfe278","system_id":"levelo_inurba_marseille","lat":43.24992,"lon":5.38931,"is_reserved":false,"is_disabled":false,"rental_uris":{"android":"levelo://app?vid=0270cee7-d38d-40e7-8096-229f09bfe278","ios":"levelo://app?vid=0270cee7-d38d-40e7-8096-229f09bfe278"},"vehicle_type_id":"4","last_reported":1770925376,"current_range_meters":9200,"station_id":"ce4bhgp2rcd13ifvqfd0","pricing_plan_id":"cebpf4jnsgd1na2vs0mg"},{"bike_id":"3632bdf3-7cc0-44dc-8dcc-3c66e930be8d","system_id":"levelo_inurba_marseille","lat":43.27075,"lon":5.42281,"is_reserved":false,"is_disabled":false,"rental_uris":{"android":"levelo://app?vid=3632bdf3-7cc0-44dc-8dcc-3c66e930be8d","ios":"levelo://app?vid=3632bdf3-7cc0-44dc-8dcc-3c66e930be8d"},"vehicle_type_id":"4","last_reported":1770925376,"current_range_meters":9200,"station_id":"ce4bhk92rcd13ifvqgb0","pricing_plan_id":"cebpf4jnsgd1na2vs0mg"},{"bike_id":"5e6b363c-3285-4065-aa55-8f6ad4524674","system_id":"levelo_inurba_marseille","lat":43.211934,"lon":5.350721,"is_reserved":false,"is_disabled":false,"rental_uris":{"android":"levelo://app?vid=5e6b363c-3285-4065-aa55-8f6ad4524674","ios":"levelo://app?vid=5e6b363c-3285-4065-aa55-8f6ad4524674"},"vehicle_type_id":"4","last_reported":1770925376,"current_range_meters":9200,"station_id":"st_cvj6sg6p6f1abm77japg","pricing_plan_id":"cebpf4jnsgd1na2vs0mg"},{"bike_id":"7578ca6a-41b9-4d16-80d9-987a7c1630a9","system_id":"levelo_inurba_marseille","lat":43.24633,"lon":5.3894,"is_reserved":false,"is_disabled":false,"rental_uris":{"android":"levelo://app?vid=7578ca6a-41b9-4d16-80d9-987a7c1630a9","ios":"levelo://app?vid=7578ca6a-41b9-4d16-80d9-987a7c1630a9"},"vehicle_type_id":"4","last_reported":1770925376,"current_range_meters":9200,"station_id":"ce4bhg12rcd13ifvqf60","pricing_plan_id":"cebpf4jnsgd1na2vs0mg"},{"bike_id":"6cfd73c4-953b-49ae-a28c-15f4feed782c","system_id":"levelo_inurba_marseille","lat":43.29535,"lon":5.38545,"is_reserved":false,"is_disabled":false,"rental_uris":{"android":"levelo://app?vid=6cfd73c4-953b-49ae-a28c-15f4feed782c","ios":"levelo://app?vid=6cfd73c4-953b-49ae-a28c-15f4feed782c"},"vehicle_type_id":"4","last_reported":1770925376,"current_range_meters":9200,"station_id":"ce4bgih2rcd13ifvqba0","pricing_plan_id":"cebpf4jnsgd1na2vs0mg"},{"bike_id":"45237fac-2b63-4cb5-9822-d1c3cd2a94c4","system_id":"levelo_inurba_marseille","lat":43.31411,"lon":5.40302,"is_reserved":false,"is_disabled":false,"rental_uris":{"android":"levelo://app?vid=45237fac-2b63-4cb5-9822-d1c3cd2a94c4","ios":"levelo://app?vid=45237fac-2b63-4cb5-9822-d1c3cd2a94c4"},"vehicle_type_id":"4","last_reported":1770925376,"current_range_meters":9200,"station_id":"","pricing_plan_id":"cebpf4jnsgd1na2vs0mg"},{"bike_id":"371eb68e-4d11-45ee-86bc-baece8b857ad","system_id":"levelo_inurba_marseille","lat":43.29308,"lon":5.37145,"is_reserved":false,"is_disabled":false,"rental_uris":{"android":"levelo://app?vid=371eb68e-4d11-45ee-86bc-baece8b857ad","ios":"levelo://app?vid=371eb68e-4d11-45ee-86bc-baece8b857ad"},"vehicle_type_id":"4","last_reported":1770925376,"current_range_meters":9200,"station_id":"ce4bgh92rcd13ifvqb40","pricing_plan_id":"cebpf4jnsgd1na2vs0mg"},{"bike_id":"e3911b0a-0119-47ef-9eea-1b0c46e5dc4e","system_id":"levelo_inurba_marseille","lat":43.29043,"lon":5.37564,"is_reserved":false,"is_disabled":false,"rental_uris":{"android":"levelo://app?vid=e3911b0a-0119-47ef-9eea-1b0c46e5dc4e","ios":"levelo://app?vid=e3911b0a-0119-47ef-9eea-1b0c46e5dc4e"},"vehicle_type_id":"4","last_reported":1770925376,"current_range_meters":9200,"station_id":"ce4bh692rcd13ifvqe90","pricing_plan_id":"cebpf4jnsgd1na2vs0mg"},{"bike_id":"89dc407d-ca98-4662-aa6a-0e3472bfc645","system_id":"levelo_inurba_marseille","lat":43.29937,"lon":5.38546,"is_reserved":false,"is_disabled":false,"rental_uris":{"android":"levelo://app?vid=89dc407d-ca98-4662-aa6a-0e3472bfc645","ios":"levelo://app?vid=89dc407d-ca98-4662-aa6a-0e3472bfc645"},"vehicle_type_id":"4","last_reported":1770925376,"current_range_meters":9200,"station_id":"","pricing_plan_id":"cebpf4jnsgd1na2vs0mg"},{"bike_id":"730d229b-b2a4-4abf-9f66-ea5b8df9b61b","system_id":"levelo_inurba_marseille","lat":43.29003,"lon":5.356035,"is_reserved":false,"is_disabled":false,"rental_uris":{"android":"levelo://app?vid=730d229b-b2a4-4abf-9f66-ea5b8df9b61b","ios":"levelo://app?vid=730d229b-b2a4-4abf-9f66-ea5b8df9b61b"},"vehicle_type_id":"4","last_reported":1770925376,"current_range_meters":9200,"station_id":"ce4bhb92rcd13ifvqen0","pricing_plan_id":"cebpf4jnsgd1na2vs0mg"},{"bike_id":"cae3340b-dabf-42ee-b29f-fab64d3e6b2c","system_id":"levelo_inurba_marseille","lat":43.24082,"lon":5.37759,"is_reserved":false,"is_disabled":false,"rental_uris":{"android":"levelo://app?vid=cae3340b-dabf-42ee-b29f-fab64d3e6b2c","ios":"levelo://app?vid=cae3340b-dabf-42ee-b29f-fab64d3e6b2c"},"vehicle_type_id":"4","last_reported":1770925376,"current_range_meters":9600,"station_id":"ce4bhnp2rcd13ifvqgvg","pricing_plan_id":"cebpf4jnsgd1na2vs0mg"},{"bike_id":"ceafdd97-9709-4666-acdc-c6b8a34aace5","system_id":"levelo_inurba_marseille","lat":43.272,"lon":5.40999,"is_reserved":false,"is_disabled":true,"rental_uris":{"android":"levelo://app?vid=ceafdd97-9709-4666-acdc-c6b8a34aace5","ios":"levelo://app?vid=ceafdd97-9709-4666-acdc-c6b8a34aace5"},"vehicle_type_id":"4","last_reported":1770925376,"current_range_meters":9600,"station_id":"ce4bhl12rcd13ifvqgf0","pricing_plan_id":"cebpf4jnsgd1na2vs0mg"},{"bike_id":"f06d538b-97fe-4530-9d3d-a633bac60e6e","system_id":"levelo_inurba_marseille","lat":43.269408,"lon":5.402552,"is_reserved":false,"is_disabled":false,"rental_uris":{"android":"levelo://app?vid=f06d538b-97fe-4530-9d3d-a633bac60e6e","ios":"levelo://app?vid=f06d538b-97fe-4530-9d3d-a633bac60e6e"},"vehicle_type_id":"4","last_reported":1770925376,"current_range_meters":9600,"station_id":"cjm6bp8fraef2m0cb0m0","pricing_plan_id":"cebpf4jnsgd1na2vs0mg"},{"bike_id":"2371def1-989e-4f10-9583-8a26ad076153","system_id":"levelo_inurba_marseille","lat":43.28404,"lon":5.3753,"is_reserved":false,"is_disabled":false,"rental_uris":{"android":"levelo://app?vid=2371def1-989e-4f10-9583-8a26ad076153","ios":"levelo://app?vid=2371def1-989e-4f10-9583-8a26ad076153"},"vehicle_type_id":"4","last_reported":1770925376,"current_range_meters":9600,"station_id":"ce4bh412rcd13ifvqds0","pricing_plan_id":"cebpf4jnsgd1na2vs0mg"},{"bike_id":"bbf76c20-722d-4091-93ed-579710f24304","system_id":"levelo_inurba_marseille","lat":43.24386,"lon":5.37058,"is_reserved":false,"is_disabled":false,"rental_uris":{"android":"levelo://app?vid=bbf76c20-722d-4091-93ed-579710f24304","ios":"levelo://app?vid=bbf76c20-722d-4091-93ed-579710f24304"},"vehicle_type_id":"4","last_reported":1770925376,"current_range_meters":9600,"station_id":"ce4bhhh2rcd13ifvqfk0","pricing_plan_id":"cebpf4jnsgd1na2vs0mg"},{"bike_id":"acc4afec-e80f-436d-a4cf-d6122baf0d20","system_id":"levelo_inurba_marseille","lat":43.27186,"lon":5.41006,"is_reserved":false,"is_disabled":false,"rental_uris":{"android":"levelo://app?vid=acc4afec-e80f-436d-a4cf-d6122baf0d20","ios":"levelo://app?vid=acc4afec-e80f-436d-a4cf-d6122baf0d20"},"vehicle_type_id":"4","last_reported":1770925376,"current_range_meters":9600,"station_id":"ce4bhl12rcd13ifvqgf0","pricing_plan_id":"cebpf4jnsgd1na2vs0mg"},{"bike_id":"37d71bcf-7d48-4c3a-85f2-58beadf29adf","system_id":"levelo_inurba_marseille","lat":43.31765,"lon":5.39038,"is_reserved":false,"is_disabled":false,"rental_uris":{"android":"levelo://app?vid=37d71bcf-7d48-4c3a-85f2-58beadf29adf","ios":"levelo://app?vid=37d71bcf-7d48-4c3a-85f2-58beadf29adf"},"vehicle_type_id":"4","last_reported":1770925376,"current_range_meters":9600,"station_id":"ce4bhqp2rcd13ifvqhng","pricing_plan_id":"cebpf4jnsgd1na2vs0mg"},{"bike_id":"9130d400-a8bd-4101-bffc-af7fced33817","system_id":"levelo_inurba_marseille","lat":43.22606,"lon":5.41588,"is_reserved":false,"is_disabled":false,"rental_uris":{"android":"levelo://app?vid=9130d400-a8bd-4101-bffc-af7fced33817","ios":"levelo://app?vid=9130d400-a8bd-4101-bffc-af7fced33817"},"vehicle_type_id":"4","last_reported":1770925376,"current_range_meters":9600,"station_id":"","pricing_plan_id":"cebpf4jnsgd1na2vs0mg"},{"bike_id":"2de5dc27-fdb2-44e2-93e3-9837b9b9ac42","system_id":"levelo_inurba_marseille","lat":43.29516,"lon":5.38526,"is_reserved":false,"is_disabled":false,"rental_uris":{"android":"levelo://app?vid=2de5dc27-fdb2-44e2-93e3-9837b9b9ac42","ios":"levelo://app?vid=2de5dc27-fdb2-44e2-93e3-9837b9b9ac42"},"vehicle_type_id":"4","last_reported":1770925376,"current_range_meters":9600,"station_id":"ce4bgih2rcd13ifvqba0","pricing_plan_id":"cebpf4jnsgd1na2vs0mg"},