{"last_updated":1724958461,"ttl":30,"version":"2.2","data":{"bikes":[{"bike_id":"98268658-f891-4fa5-b809-87fff88b489a","system_id":"levelo_inurba_marseille","lat":43.312239,"lon":5.368562,"is_reserved":false,"is_disabled":false,"rental_uris":{"android":"levelo://app?vid=98268658-f891-4fa5-b809-87fff88b489a","ios":"levelo://app?vid=98268658-f891-4fa5-b809-87fff88b489a"},"vehicle_type_id":"4","last_reported":1724958461,"current_range_meters":18000,"station_id":"ce4bgl92rcd13ifvqbq0","pricing_plan_id":"cebpf4jnsgd1na2vs0mg"},{"bike_id":"66163677-344a-42bb-9c06-247c2ca12886","system_id":"levelo_inurba_marseille","lat":43.312239,"lon":5.368562,"is_reserved":false,"is_disabled":false,"rental_uris":{"android":"levelo://app?vid=66163677-344a-42bb-9c06-247c2ca12886","ios":"levelo://app?vid=66163677-344a-42bb-9c06-247c2ca12886"},"vehicle_type_id":"4","last_reported":1724958461,"current_range_meters":8000,"station_id":"ce4bgl92rcd13ifvqbq0","pricing_plan_id":"cebpf4jnsgd1na2vs0mg"},{"bike_id":"dcf4db84-e473-426c-a636-e48c2bd7cd2e","system_id":"levelo_inurba_marseille","lat":43.312239,"lon":5.368562,"is_reserved":false,"is_disabled":false,"rental_uris":{"android":"levelo://app?vid=dcf4db84-e473-426c-a636-e48c2bd7cd2e","ios":"levelo://app?vid=dcf4db84-e473-426c-a636-e48c2bd7cd2e"},"vehicle_type_id":"4","last_reported":1724958461,"current_range_meters":16800,"station_id":"ce4bgl92rcd13ifvqbq0","pricing_plan_id":"cebpf4jnsgd1na2vs0mg"},{"bike_id":"1f88da33-a233-420a-bfc3-549d6bee373d","system_id":"levelo_inurba_marseille","lat":43.312239,"lon":5.368562,"is_reserved":false,"is_disabled":false,"rental_uris":{"android":"levelo://app?vid=1f88da33-a233-420a-bfc3-549d6bee373d","ios":"levelo://app?vid=1f88da33-a233-420a-bfc3-549d6bee373d"},"vehicle_type_id":"4","last_reported":1724958461,"current_range_meters":15600,"station_id":"ce4bgl92rcd13ifvqbq0","pricing_plan_id":"cebpf4jnsgd1na2vs0mg"},{"bike_id":"15879d87-60ab-490b-98aa-a83bbba255d4","system_id":"levelo_inurba_marseille","lat":43.312239,"lon":5.368562,"is_reserved":false,"is_disabled":false,"rental_uris":{"android":"levelo://app?vid=15879d87-60ab-490b-98aa-a83bbba255d4","ios":"levelo://app?vid=15879d87-60ab-490b-98aa-a83bbba255d4"},"vehicle_type_id":"4","last_reported":1724958461,"current_range_meters":15600,"station_id":"ce4bgl92rcd13ifvqbq0","pricing_plan_id":"cebpf4jnsgd1na2vs0mg"},{"bike_id":"1f7fb4ba-4eb5-4669-add6-aca97f0545be","system_id":"levelo_inurba_marseille","lat":43.312239,"lon":5.368562,"is_reserved":false,"is_disabled":false,"rental_uris":{"android":"levelo://app?vid=1f7fb4ba-4eb5-4669-add6-aca97f0545be","ios":"levelo://app?vid=1f7fb4ba-4eb5-4669-add6-aca97f0545be"},"vehicle_type_id":"4","last_reported":1724958461,"current_range_meters":24400,"station_id":"ce4bgl92rcd13ifvqbq0","pricing_plan_id":"cebpf4jnsgd1na2vs0mg"},{"bike_id":"0a323373-9aff-41e3-906d-08523f9b3b39","system_id":"levelo_inurba_marseille","lat":43.312239,"lon":5.368562,"is_reserved":false,"is_disabled":false,"rental_uris":{"android":"levelo://app?vid=0a323373-9aff-41e3-906d-08523f9b3b39","ios":"levelo://app?vid=0a323373-9aff-41e3-906d-08523f9b3b39"},"vehicle_type_id":"4","last_reported":1724958461,"current_range_meters":17600,"station_id":"ce4bgl92rcd13ifvqbq0","pricing_plan_id":"cebpf4jnsgd1na2vs0mg"},{"bike_id":"631ac62d-25e0-4498-9d44-afbbfb9284c6","system_id":"levelo_inurba_marseille","lat":43.312239,"lon":5.368562,"is_reserved":false,"is_disabled":false,"rental_uris":{"android":"levelo://app?vid=631ac62d-25e0-4498-9d44-afbbfb9284c6","ios":"levelo://app?vid=631ac62d-25e0-4498-9d44-afbbfb9284c6"},"vehicle_type_id":"4","last_reported":1724958461,"current_range_meters":5200,"station_id":"ce4bgl92rcd13ifvqbq0","pricing_plan_id":"cebpf4jnsgd1na2vs0mg"},{"bike_id":"aea98222-6277-42f1-8a7e-741981dfee5c","system_id":"levelo_inurba_marseille","lat":43.309076,"lon":5.368465,"is_reserved":false,"is_disabled":false,"rental_uris":{"android":"levelo://app?vid=aea98222-6277-42f1-8a7e-741981dfee5c","ios":"levelo://app?vid=aea98222-6277-42f1-8a7e-741981dfee5c"},"vehicle_type_id":"4","last_reported":1724958461,"current_range_meters":20800,"station_id":"ce4bgn92rcd13ifvqbvg","pricing_plan_id":"cebpf4jnsgd1na2vs0mg"},{"bike_id":"41a204f7-89ec-4c5c-8a5d-2cc081f141e0","system_id":"levelo_inurba_marseille","lat":43.309076,"lon":5.368465,"is_reserved":false,"is_disabled":false,"rental_uris":{"android":"levelo://app?vid=41a204f7-89ec-4c5c-8a5d-2cc081f141e0","ios":"levelo://app?vid=41a204f7-89ec-4c5c-8a5d-2cc081f141e0"},"vehicle_type_id":"4","last_reported":1724958461,"current_range_meters":18400,"station_id":"ce4bgn92rcd13ifvqbvg","pricing_plan_id":"cebpf4jnsgd1na2vs0mg"},{"bike_id":"c89a252e-0ab7-4859-a569-59d253dcc3cb","system_id":"levelo_inurba_marseille","lat":43.314811,"lon":5.373103,"is_reserved":false,"is_disabled":false,"rental_uris":{"android":"levelo://app?vid=c89a252e-0ab7-4859-a569-59d253dcc3cb","ios":"levelo://app?vid=c89a252e-0ab7-4859-a569-59d253dcc3cb"},"vehicle_type_id":"4","last_reported":1724958461,"current_range_meters":7200,"station_id":"ce4bgt12rcd13ifvqcd0","pricing_plan_id":"cebpf4jnsgd1na2vs0mg"},{"bike_id":"371d3739-e1e2-45f9-b687-7801e3750f40","system_id":"levelo_inurba_marseille","lat":43.314811,"lon":5.373103,"is_reserved":false,"is_disabled":false,"rental_uris":{"android":"levelo://app?vid=371d3739-e1e2-45f9-b687-7801e3750f40","ios":"levelo://app?vid=371d3739-e1e2-45f9-b687-7801e3750f40"},"vehicle_type_id":"4","last_reported":1724958461,"current_range_meters":12800,"station_id":"ce4bgt12rcd13ifvqcd0","pricing_plan_id":"cebpf4jnsgd1na2vs0mg"},{"bike_id":"84c326e3-d2e4-45fa-b631-532339e49b8f","system_id":"levelo_inurba_marseille","lat":43.3144,"lon":5.37383,"is_reserved":false,"is_disabled":false,"rental_uris":{"android":"levelo://app?vid=84c326e3-d2e4-45fa-b631-532339e49b8f","ios":"levelo://app?vid=84c326e3-d2e4-45fa-b631-532339e49b8f"},"vehicle_type_id":"4","last_reported":1724958461,"current_range_meters":30000,"station_id":"","pricing_plan_id":"cebpf4jnsgd1na2vs0mg"},{"bike_id":"fc940f95-cb61-4117-9e7c-36d8be81ca1e","system_id":"levelo_inurba_marseille","lat":43.309034,"lon":5.371783,"is_reserved":false,"is_disabled":false,"rental_uris":{"android":"levelo://app?vid=fc940f95-cb61-4117-9e7c-36d8be81ca1e","ios":"levelo://app?vid=fc940f95-cb61-4117-9e7c-36d8be81ca1e"},"vehicle_type_id":"4","last_reported":1724958461,"current_range_meters":17600,"station_id":"ce4bguh2rcd13ifvqckg","pricing_plan_id":"cebpf4jnsgd1na2vs0mg"},{"bike_id":"6c15e696-b91c-4c86-b76c-314d3fedea64","system_id":"levelo_inurba_marseille","lat":43.305637,"lon":5.366767,"is_reserved":false,"is_disabled":false,"rental_uris":{"android":"levelo://app?vid=6c15e696-b91c-4c86-b76c-314d3fedea64","ios":"levelo://app?vid=6c15e696-b91c-4c86-b76c-314d3fedea64"},"vehicle_type_id":"4","last_reported":1724958461,"current_range_meters":400,"station_id":"ce4bgrp2rcd13ifvqc9g","pricing_plan_id":"cebpf4jnsgd1na2vs0mg"},{"bike_id":"7068d35a-195d-49e6-aa77-75cdaf0d510c","system_id":"levelo_inurba_marseille","lat":43.30542,"lon":5.36558,"is_reserved":false,"is_disabled":false,"rental_uris":{"android":"levelo://app?vid=7068d35a-195d-49e6-aa77-75cdaf0d510c","ios":"levelo://app?vid=7068d35a-195d-49e6-aa77-75cdaf0d510c"},"vehicle_type_id":"4","last_reported":1724958461,"current_range_meters":26800,"station_id":"ce4bgs12rcd13ifvqcag","pricing_plan_id":"cebpf4jnsgd1na2vs0mg"},{"bike_id":"deb80c71-5256-4237-affd-21b4e0e012ab","system_id":"levelo_inurba_marseille","lat":43.30538,"lon":5.36559,"is_reserved":false,"is_disabled":false,"rental_uris":{"android":"levelo://app?vid=deb80c71-5256-4237-affd-21b4e0e012ab","ios":"levelo://app?vid=deb80c71-5256-4237-affd-21b4e0e012ab"},"vehicle_type_id":"4","last_reported":1724958461,"current_range_meters":9600,"station_id":"ce4bgs12rcd13ifvqcag","pricing_plan_id":"cebpf4jnsgd1na2vs0mg"},{"bike_id":"1820381d-3f0e-4c15-ac49-2a36d8d2f131","system_id":"levelo_inurba_marseille","lat":43.305368,"lon":5.367343,"is_reserved":false,"is_disabled":false,"rental_uris":{"android":"levelo://app?vid=1820381d-3f0e-4c15-ac49-2a36d8d2f131","ios":"levelo://app?vid=1820381d-3f0e-4c15-ac49-2a36d8d2f131"},"vehicle_type_id":"4","last_reported":1724958461,"current_range_meters":3200,"station_id":"ce4bgrp2rcd13ifvqc9g","pricing_plan_id":"cebpf4jnsgd1na2vs0mg"},{"bike_id":"f8215b6a-f9f5-4af3-99d9-d024fd19f771","system_id":"levelo_inurba_marseille","lat":43.30537,"lon":5.367345,"is_reserved":false,"is_disabled":false,"rental_uris":{"android":"levelo://app?vid=f8215b6a-f9f5-4af3-99d9-d024fd19f771","ios":"levelo://app?vid=f8215b6a-f9f5-4af3-99d9-d024fd19f771"},"vehicle_type_id":"4","last_reported":1724958461,"current_range_meters":3200,"station_id":"ce4bgrp2rcd13ifvqc9g","pricing_plan_id":"cebpf4jnsgd1na2vs0mg"},{"bike_id":"5716ca53-63e2-4deb-aacc-6177c91aff38","system_id":"levelo_inurba_marseille","lat":43.305368,"lon":5.367343,"is_reserved":false,"is_disabled":false,"rental_uris":{"android":"levelo://app?vid=5716ca53-63e2-4deb-aacc-6177c91aff38","ios":"levelo://app?vid=5716ca53-63e2-4deb-aacc-6177c91aff38"},"vehicle_type_id":"4","last_reported":1724958461,"current_range_meters":22800,"station_id":"ce4bgrp2rcd13ifvqc9g","pricing_plan_id":"cebpf4jnsgd1na2vs0mg"},{"bike_id":"50d1a5d6-6507-44ab-acd2-d610c90ea7d7","system_id":"levelo_inurba_marseille","lat":43.30527,"lon":5.366987,"is_reserved":false,"is_disabled":false,"rental_uris":{"android":"levelo://app?vid=50d1a5d6-6507-44ab-acd2-d610c90ea7d7","ios":"levelo://app?vid=50d1a5d6-6507-44ab-acd2-d610c90ea7d7"},"vehicle_type_id":"4","last_reported":1724958461,"current_range_meters":24400,"station_id":"ce4bgrp2rcd13ifvqc9g","pricing_plan_id":"cebpf4jnsgd1na2vs0mg"},{"bike_id":"5bb21f0a-7066-4f62-bb5d-f89c1f2728d3","system_id":"levelo_inurba_marseille","lat":43.30534,"lon":5.36552,"is_reserved":false,"is_disabled":false,"rental_uris":{"android":"levelo://app?vid=5bb21f0a-7066-4f62-bb5d-f89c1f2728d3","ios":"levelo://app?vid=5bb21f0a-7066-4f62-bb5d-f89c1f2728d3"},"vehicle_type_id":"4","last_reported":1724958461,"current_range_meters":15200,"station_id":"ce4bgs12rcd13ifvqcag","pricing_plan_id":"cebpf4jnsgd1na2vs0mg"},{"bike_id":"a10569a3-e937-4a60-b808-aea1a7db09f0","system_id":"levelo_inurba_marseille","lat":43.305706,"lon":5.365654,"is_reserved":false,"is_disabled":false,"rental_uris":{"android":"levelo://app?vid=a10569a3-e937-4a60-b808-aea1a7db09f0","ios":"levelo://app?vid=a10569a3-e937-4a60-b808-aea1a7db09f0"},"vehicle_type_id":"4","last_reported":1724958461,"current_range_meters":28000,"station_id":"ce4bgs12rcd13ifvqcag","pricing_plan_id":"cebpf4jnsgd1na2vs0mg"},{"bike_id":"ef06fcef-202d-4fea-b02e-8dfa981e4cdc","system_id":"levelo_inurba_marseille","lat":43.305368,"lon":5.367343,"is_reserved":false,"is_disabled":false,"rental_uris":{"android":"levelo://app?vid=ef06fcef-202d-4fea-b02e-8dfa981e4cdc","ios":"levelo://app?vid=ef06fcef-202d-4fea-b02e-8dfa981e4cdc"},"vehicle_type_id":"4","last_reported":1724958461,"current_range_meters":0,"station_id":"ce4bgrp2rcd13ifvqc9g","pricing_plan_id":"cebpf4jnsgd1na2vs0mg"},{"bike_id":"fe756167-6889-47ca-bf59-9a4cebfdaab4","system_id":"levelo_inurba_marseille","lat":43.305989,"lon":5.37225,"is_reserved":false,"is_disabled":false,"rental_uris":{"android":"levelo://app?vid=fe756167-6889-47ca-bf59-9a4cebfdaab4","ios":"levelo://app?vid=fe756167-6889-47ca-bf59-9a4cebfdaab4"},"vehicle_type_id":"4","last_reported":1724958461,"current_range_meters":13600,"station_id":"ce4bgqh2rcd13ifvqc4g","pricing_plan_id":"cebpf4jnsgd1na2vs0mg"},{"bike_id":"3220e32f-8379-4017-b16d-f3ee23513b1c","system_id":"levelo_inurba_marseille","lat":43.305989,"lon":5.37225,"is_reserved":false,"is_disabled":false,"rental_uris":{"android":"levelo://app?vid=3220e32f-8379-4017-b16d-f3ee23513b1c","ios":"levelo://app?vid=3220e32f-8379-4017-b16d-f3ee23513b1c"},"vehicle_type_id":"4","last_reported":1724958461,"current_range_meters":19600,"station_id":"ce4bgqh2rcd13ifvqc4g","pricing_plan_id":"cebpf4jnsgd1na2vs0mg"},{"bike_id":"625e56a4-73dc-4943-be98-c7f5d13bd426","system_id":"levelo_inurba_marseille","lat":43.305989,"lon":5.37225,"is_reserved":false,"is_disabled":false,"rental_uris":{"android":"levelo://app?vid=625e56a4-73dc-4943-be98-c7f5d13bd426","ios":"levelo://app?vid=625e56a4-73dc-4943-be98-c7f5d13bd426"},"vehicle_type_id":"4","last_reported":1724958461,"current_range_meters":3600,"station_id":"ce4bgqh2rcd13ifvqc4g","pricing_plan_id":"cebpf4jnsgd1na2vs0mg"},{"bike_id":"8ced3895-1fdc-4a84-a453-707fc92220a1","system_id":"levelo_inurba_marseille","lat":43.311125,"lon":5.377624,"is_reserved":false,"is_disabled":false,"rental_uris":{"android":"levelo://app?vid=8ced3895-1fdc-4a84-a453-707fc92220a1","ios":"levelo://app?vid=8ced3895-1fdc-4a84-a453-707fc92220a1"},"vehicle_type_id":"4","last_reported":1724958461,"current_range_meters":0,"station_id":"ce4bgt92rcd13ifvqcg0","pricing_plan_id":"cebpf4jnsgd1na2vs0mg"},{"bike_id":"ebe6237f-4f8a-42f1-860d-50d5b3fa9240","system_id":"levelo_inurba_marseille","lat":43.311125,"lon":5.377624,"is_reserved":false,"is_disabled":false,"rental_uris":{"android":"levelo://app?vid=ebe6237f-4f8a-42f1-860d-50d5b3fa9240","ios":"levelo://app?vid=ebe6237f-4f8a-42f1-860d-50d5b3fa9240"},"vehicle_type_id":"4","last_reported":1724958461,"current_range_meters":6000,"station_id":"ce4bgt92rcd13ifvqcg0","pricing_plan_id":"cebpf4jnsgd1na2vs0mg"},{"bike_id":"031e23e1-5a85-4904-bd5b-b0822cdb9571","system_id":"levelo_inurba_marseille","lat":43.311125,"lon":5.377624,"is_reserved":false,"is_disabled":false,"rental_uris":{"android":"levelo://app?vid=031e23e1-5a85-4904-bd5b-b0822cdb9571","ios":"levelo://app?vid=031e23e1-5a85-4904-bd5b-b0822cdb9571"},"vehicle_type_id":"4","last_reported":1724958461,"current_range_meters":0,"station_id":"ce4bgt92rcd13ifvqcg0","pricing_plan_id":"cebpf4jnsgd1na2vs0mg"},{"bike_id":"c8502c68-ef99-48c2-bf57-57e690f2122a","system_id":"levelo_inurba_marseille","lat":43.311125,"lon":5.377624,"is_reserved":false,"is_disabled":false,"rental_uris":{"android":"levelo://app?vid=c8502c68-ef99-48c2-bf57-57e690f2122a","ios":"levelo://app?vid=c8502c68-ef99-48c2-bf57-57e690f2122a"},"vehicle_type_id":"4","last_reported":1724958461,"current_range_meters":9600,"station_id":"ce4bgt92rcd13ifvqcg0","pricing_plan_id":"cebpf4jnsgd1na2vs0mg"},{"bike_id":"03bde194-4bf7-4de5-a642-14f3db238938","system_id":"levelo_inurba_marseille","lat":43.311131,"lon":5.377651,"is_reserved":false,"is_disabled":false,"rental_uris":{"android":"levelo://app?vid=03bde194-4bf7-4de5-a642-14f3db238938","ios":"levelo://app?vid=03bde194-4bf7-4de5-a642-14f3db238938"},"vehicle_type_id":"4","last_reported":1724958461,"current_range_meters":22800,"station_id":"ce4bgt92rcd13ifvqcg0","pricing_plan_id":"cebpf4jnsgd1na2vs0mg"},{"bike_id":"e23891b1-d056-4960-ae5d-dd33bd976d3a","system_id":"levelo_inurba_marseille","lat":43.311125,"lon":5.377624,"is_reserved":false,"is_disabled":false,"rental_uris":{"android":"levelo://app?vid=e23891b1-d056-4960-ae5d-dd33bd976d3a","ios":"levelo://app?vid=e23891b1-d056-4960-ae5d-dd33bd976d3a"},"vehicle_type_id":"4","last_reported":1724958461,"current_range_meters":6800,"station_id":"ce4bgt92rcd13ifvqcg0","pricing_plan_id":"cebpf4jnsgd1na2vs0mg"},{"bike_id":"7f35b9e0-ead4-4a40-b012-973b46832133","system_id":"levelo_inurba_marseille","lat":43.311125,"lon":5.377624,"is_reserved":false,"is_disabled":false,"rental_uris":{"android":"levelo://app?vid=7f35b9e0-ead4-4a40-b012-973b46832133","ios":"levelo://app?vid=7f35b9e0-ead4-4a40-b012-973b46832133"},"vehicle_type_id":"4","last_reported":1724958461,"current_range_meters":800,"station_id":"ce4bgt92rcd13ifvqcg0","pricing_plan_id":"cebpf4jnsgd1na2vs0mg"},{"bike_id":"e3b12b13-b52b-4e6f-907c-f12b55808e5c","system_id":"levelo_inurba_marseille","lat":43.307945,"lon":5.376487,"is_reserved":false,"is_disabled":false,"rental_uris":{"android":"levelo://app?vid=e3b12b13-b52b-4e6f-907c-f12b55808e5c","ios":"levelo://app?vid=e3b12b13-b52b-4e6f-907c-f12b55808e5c"},"vehicle_type_id":"4","last_reported":1724958461,"current_range_meters":22000,"station_id":"ce4bgv92rcd13ifvqcq0","pricing_plan_id":"cebpf4jnsgd1na2vs0mg"},{"bike_id":"8844dda0-105c-41d6-8cc3-4eb722d40ada","system_id":"levelo_inurba_marseille","lat":43.307945,"lon":5.376487,"is_reserved":false,"is_disabled":false,"rental_uris":{"android":"levelo://app?vid=8844dda0-105c-41d6-8cc3-4eb722d40ada","ios":"levelo://app?vid=8844dda0-105c-41d6-8cc3-4eb722d40ada"},"vehicle_type_id":"4","last_reported":1724958461,"current_range_meters":26400,"station_id":"ce4bgv92rcd13ifvqcq0","pricing_plan_id":"cebpf4jnsgd1na2vs0mg"},{"bike_id":"448545ed-fc7e-43df-abe6-7d0d6a6e0dc7","system_id":"levelo_inurba_marseille","lat":43.307945,"lon":5.376487,"is_reserved":false,"is_disabled":false,"rental_uris":{"android":"levelo://app?vid=448545ed-fc7e-43df-abe6-7d0d6a6e0dc7","ios":"levelo://app?vid=448545ed-fc7e-43df-abe6-7d0d6a6e0dc7"},"vehicle_type_id":"4","last_reported":1724958461,"current_range_meters":14400,"station_id":"ce4bgv92rcd13ifvqcq0","pricing_plan_id":"cebpf4jnsgd1na2vs0mg"},{"bike_id":"ad9bd916-187a-4249-9ccd-09997fceb7df","system_id":"levelo_inurba_marseille","lat":43.307945,"lon":5.376487,"is_reserved":false,"is_disabled":false,"rental_uris":{"android":"levelo://app?vid=ad9bd916-187a-4249-9ccd-09997fceb7df","ios":"levelo://app?vid=ad9bd916-187a-4249-9ccd-09997fceb7df"},"vehicle_type_id":"4","last_reported":1724958461,"current_range_meters":12800,"station_id":"ce4bgv92rcd13ifvqcq0","pricing_plan_id":"cebpf4jnsgd1na2vs0mg"},{"bike_id":"1e451522-f582-493c-a4f7-f74b96520883","system_id":"levelo_inurba_marseille","lat":43.307945,"lon":5.376487,"is_reserved":false,"is_disabled":false,"rental_uris":{"android":"levelo://app?vid=1e451522-f582-493c-a4f7-f74b96520883","ios":"levelo://app?vid=1e451522-f582-493c-a4f7-f74b96520883"},"vehicle_type_id":"4","last_reported":1724958461,"current_range_meters":16000,"station_id":"ce4bgv92rcd13ifvqcq0","pricing_plan_id":"cebpf4jnsgd1na2vs0mg"},{"bike_id":"f39425f0-faf5-4e39-b9cd-70b85fe00188","system_id":"levelo_inurba_marseille","lat":43.307945,"lon":5.376487,"is_reserved":false,"is_disabled":false,"rental_uris":{"android":"levelo://app?vid=f39425f0-faf5-4e39-b9cd-70b85fe00188","ios":"levelo://app?vid=f39425f0-faf5-4e39-b9cd-70b85fe00188"},"vehicle_type_id":"4","last_reported":1724958461,"current_range_meters":12400,"station_id":"ce4bgv92rcd13ifvqcq0","pricing_plan_id":"cebpf4jnsgd1na2vs0mg"},{"bike_id":"a8d929f4-05a3-4299-ad9d-0eb048206354","system_id":"levelo_inurba_marseille","lat":43.307945,"lon":5.376487,"is_reserved":false,"is_disabled":false,"rental_uris":{"android":"levelo://app?vid=a8d929f4-05a3-4299-ad9d-0eb048206354","ios":"levelo://app?vid=a8d929f4-05a3-4299-ad9d-0eb048206354"},"vehicle_type_id":"4","last_reported":1724958461,"current_range_meters":0,"station_id":"ce4bgv92rcd13ifvqcq0","pricing_plan_id":"cebpf4jnsgd1na2vs0mg"},{"bike_id":"ad25b6ea-d740-45d7-ac8d-051a52b8e1a2","system_id":"levelo_inurba_marseille","lat":43.317075,"lon":5.377367,"is_reserved":false,"is_disabled":false,"rental_uris":{"android":"levelo://app?vid=ad25b6ea-d740-45d7-ac8d-051a52b8e1a2","ios":"levelo://app?vid=ad25b6ea-d740-45d7-ac8d-051a52b8e1a2"},"vehicle_type_id":"4","last_reported":1724958461,"current_range_meters":8000,"station_id":"ce4bgth2rcd13ifvqch0","pricing_plan_id":"cebpf4jnsgd1na2vs0mg"},{"bike_id":"4aa2c883-d259-4497-bbd7-46f4535fdacf","system_id":"levelo_inurba_marseille","lat":43.316385,"lon":5.37937,"is_reserved":false,"is_disabled":false,"rental_uris":{"android":"levelo://app?vid=4aa2c883-d259-4497-bbd7-46f4535fdacf","ios":"levelo://app?vid=4aa2c883-d259-4497-bbd7-46f4535fdacf"},"vehicle_type_id":"4","last_reported":1724958461,"current_range_meters":22400,"station_id":"","pricing_plan_id":"cebpf4jnsgd1na2vs0mg"},{"bike_id":"3a296a28-849d-41f1-a66f-ef15c4ac4811","system_id":"levelo_inurba_marseille","lat":43.303046,"lon":5.368981,"is_reserved":false,"is_disabled":false,"rental_uris":{"android":"levelo://app?vid=3a296a28-849d-41f1-a66f-ef15c4ac4811","ios":"levelo://app?vid=3a296a28-849d-41f1-a66f-ef15c4ac4811"},"vehicle_type_id":"4","last_reported":1724958461,"current_range_meters":21600,"station_id":"ce4bgqh2rcd13ifvqc5g","pricing_plan_id":"cebpf4jnsgd1na2vs0mg"},{"bike_id":"f726f444-8a54-41c5-b914-f04022edf0ea","system_id":"levelo_inurba_marseille","lat":43.315289,"lon":5.380349,"is_reserved":false,"is_disabled":false,"rental_uris":{"android":"levelo://app?vid=f726f444-8a54-41c5-b914-f04022edf0ea","ios":"levelo://app?vid=f726f444-8a54-41c5-b914-f04022edf0ea"},"vehicle_type_id":"4","last_reported":1724958461,"current_range_meters":12000,"station_id":"ce4bhsp2rcd13ifvqi50","pricing_plan_id":"cebpf4jnsgd1na2vs0mg"},{"bike_id":"c805756d-d539-4b14-8ca6-9f11276406a0","system_id":"levelo_inurba_marseille","lat":43.30935,"lon":5.3802,"is_reserved":false,"is_disabled":false,"rental_uris":{"android":"levelo://app?vid=c805756d-d539-4b14-8ca6-9f11276406a0","ios":"levelo://app?vid=c805756d-d539-4b14-8ca6-9f11276406a0"},"vehicle_type_id":"4","last_reported":1724958461,"current_range_meters":8400,"station_id":"","pricing_plan_id":"cebpf4jnsgd1na2vs0mg"},{"bike_id":"bedee329-acff-44f0-a522-80be2a4b17fd","system_id":"levelo_inurba_marseille","lat":43.302121,"lon":5.365849,"is_reserved":false,"is_disabled":false,"rental_uris":{"android":"levelo://app?vid=bedee329-acff-44f0-a522-80be2a4b17fd","ios":"levelo://app?vid=bedee329-acff-44f0-a522-80be2a4b17fd"},"vehicle_type_id":"4","last_reported":1724958461,"current_range_meters":4400,"station_id":"ce4bgrh2rcd13ifvqc8g","pricing_plan_id":"cebpf4jnsgd1na2vs0mg"},{"bike_id":"15b83b8c-6b15-4320-b480-1e82e36bbefe","system_id":"levelo_inurba_marseille","lat":43.30192,"lon":5.36625,"is_reserved":false,"is_disabled":false,"rental_uris":{"android":"levelo://app?vid=15b83b8c-6b15-4320-b480-1e82e36bbefe","ios":"levelo://app?vid=15b83b8c-6b15-4320-b480-1e82e36bbefe"},"vehicle_type_id":"4","last_reported":1724958461,"current_range_meters":5200,"station_id":"ce4bgrh2rcd13ifvqc8g","pricing_plan_id":"cebpf4jnsgd1na2vs0mg"},{"bike_id":"5498609a-a006-4944-b6bc-30f09ce0bb53","system_id":"levelo_inurba_marseille","lat":43.301939,"lon":5.366286,"is_reserved":false,"is_disabled":false,"rental_uris":{"android":"levelo://app?vid=5498609a-a006-4944-b6bc-30f09ce0bb53","ios":"levelo://app?vid=5498609a-a006-4944-b6bc-30f09ce0bb53"},"vehicle_type_id":"4","last_reported":1724958461,"current_range_meters":13200,"station_id":"ce4bgrh2rcd13ifvqc8g","pricing_plan_id":"cebpf4jnsgd1na2vs0mg"},{"bike_id":"0c08f1bd-8fc7-4246-bd48-78adcaac0067","system_id":"levelo_inurba_marseille","lat":43.301939,"lon":5.366286,"is_reserved":false,"is_disabled":false,"rental_uris":{"android":"levelo://app?vid=0c08f1bd-8fc7-4246-bd48-78adcaac0067","ios":"levelo://app?vid=0c08f1bd-8fc7-4246-bd48-78adcaac0067"},"vehicle_type_id":"4","last_reported":1724958461,"current_range_meters":28000,"station_id":"ce4bgrh2rcd13ifvqc8g","pricing_plan_id":"cebpf4jnsgd1na2vs0mg"},{"bike_id":"9cad3da5-84a5-484c-9ec9-1a884881b850","system_id":"levelo_inurba_marseille","lat":43.30183,"lon":5.36613,"is_reserved":false,"is_disabled":false,"rental_uris":{"android":"levelo://app?vid=9cad3da5-84a5-484c-9ec9-1a884881b850","ios":"levelo://app?vid=9cad3da5-84a5-484c-9ec9-1a884881b850"},"vehicle_type_id":"4","last_reported":1724958461,"current_range_meters":3200,"station_id":"ce4bgrh2rcd13ifvqc8g","pricing_plan_id":"cebpf4jnsgd1na2vs0mg"},{"bike_id":"f105f1b6-e158-48c1-8609-6358294b4b09","system_id":"levelo_inurba_marseille","lat":43.30182,"lon":5.36629,"is_reserved":false,"is_disabled":false,"rental_uris":{"android":"levelo://app?vid=f105f1b6-e158-48c1-8609-6358294b4b09","ios":"levelo://app?vid=f105f1b6-e158-48c1-8609-6358294b4b09"},"vehicle_type_id":"4","last_reported":1724958461,"current_range_meters":15600,"station_id":"ce4bgrh2rcd13ifvqc8g","pricing_plan_id":"cebpf4jnsgd1na2vs0mg"},{"bike_id":"8d0b179c-0406-44dc-87fb-c0bdaf04f135","system_id":"levelo_inurba_marseille","lat":43.308012,"lon":5.381511,"is_reserved":false,"is_disabled":false,"rental_uris":{"android":"levelo://app?vid=8d0b179c-0406-44dc-87fb-c0bdaf04f135","ios":"levelo://app?vid=8d0b179c-0406-44dc-87fb-c0bdaf04f135"},"vehicle_type_id":"4","last_reported":1724958461,"current_range_meters":0,"station_id":"ce4bgt12rcd13ifvqce0","pricing_plan_id":"cebpf4jnsgd1na2vs0mg"},{"bike_id":"15fcd5a0-1f75-4e96-b5f0-51ad6b8f688e","system_id":"levelo_inurba_marseille","lat":43.308012,"lon":5.381511,"is_reserved":false,"is_disabled":false,"rental_uris":{"android":"levelo://app?vid=15fcd5a0-1f75-4e96-b5f0-51ad6b8f688e","ios":"levelo://app?vid=15fcd5a0-1f75-4e96-b5f0-51ad6b8f688e"},"vehicle_type_id":"4","last_reported":1724958461,"current_range_meters":14000,"station_id":"ce4bgt12rcd13ifvqce0","pricing_plan_id":"cebpf4jnsgd1na2vs0mg"},{"bike_id":"6f3902f6-a3a8-4843-aaa8-68aa01757ce0","system_id":"levelo_inurba_marseille","lat":43.30461,"lon":5.37902,"is_reserved":false,"is_disabled":false,"rental_uris":{"android":"levelo://app?vid=6f3902f6-a3a8-4843-aaa8-68aa01757ce0","ios":"levelo://app?vid=6f3902f6-a3a8-4843-aaa8-68aa01757ce0"},"vehicle_type_id":"4","last_reported":1724958461,"current_range_meters":0,"station_id":"ce4bgup2rcd13ifvqcn0","pricing_plan_id":"cebpf4jnsgd1na2vs0mg"},{"bike_id":"9957dd22-1c74-4dd3-8655-49f091b9f369","system_id":"levelo_inurba_marseille","lat":43.324771,"lon":5.36557,"is_reserved":false,"is_disabled":false,"rental_uris":{"android":"levelo://app?vid=9957dd22-1c74-4dd3-8655-49f091b9f369","ios":"levelo://app?vid=9957dd22-1c74-4dd3-8655-49f091b9f369"},"vehicle_type_id":"4","last_reported":1724958461,"current_range_meters":14800,"station_id":"ce4bhs12rcd13ifvqhvg","pricing_plan_id":"cebpf4jnsgd1na2vs0mg"},{"bike_id":"18f73bb3-7f25-4253-ba02-d358437e959f","system_id":"levelo_inurba_marseille","lat":43.324771,"lon":5.36557,"is_reserved":false,"is_disabled":false,"rental_uris":{"android":"levelo://app?vid=18f73bb3-7f25-4253-ba02-d358437e959f","ios":"levelo://app?vid=18f73bb3-7f25-4253-ba02-d358437e959f"},"vehicle_type_id":"4","last_reported":1724958461,"current_range_meters":18000,"station_id":"ce4bhs12rcd13ifvqhvg","pricing_plan_id":"cebpf4jnsgd1na2vs0mg"},{"bike_id":"54eebee6-5e2d-4e3f-bacd-16b5fed2b061","system_id":"levelo_inurba_marseille","lat":43.324771,"lon":5.36557,"is_reserved":false,"is_disabled":false,"rental_uris":{"android":"levelo://app?vid=54eebee6-5e2d-4e3f-bacd-16b5fed2b061","ios":"levelo://app?vid=54eebee6-5e2d-4e3f-bacd-16b5fed2b061"},"vehicle_type_id":"4","last_reported":1724958461,"current_range_meters":18400,"station_id":"ce4bhs12rcd13ifvqhvg","pricing_plan_id":"cebpf4jnsgd1na2vs0mg"},{"bike_id":"a18ab256-c330-446a-85d8-a6dfc1e85eb2","system_id":"levelo_inurba_marseille","lat":43.32487,"lon":5.365693,"is_reserved":false,"is_disabled":false,"rental_uris":{"android":"levelo://app?vid=a18ab256-c330-446a-85d8-a6dfc1e85eb2","ios":"levelo://app?vid=a18ab256-c330-446a-85d8-a6dfc1e85eb2"},"vehicle_type_id":"4","last_reported":1724958461,"current_range_meters":6000,"station_id":"ce4bhs12rcd13ifvqhvg","pricing_plan_id":"cebpf4jnsgd1na2vs0mg"},{"bike_id":"37de01f4-256b-40d9-9137-2e0eb0f0687f","system_id":"levelo_inurba_marseille","lat":43.310804,"lon":5.38359,"is_reserved":false,"is_disabled":false,"rental_uris":{"android":"levelo://app?vid=37de01f4-256b-40d9-9137-2e0eb0f0687f","ios":"levelo://app?vid=37de01f4-256b-40d9-9137-2e0eb0f0687f"},"vehicle_type_id":"4","last_reported":1724958461,"current_range_meters":18000,"station_id":"ce4bgv92rcd13ifvqcr0","pricing_plan_id":"cebpf4jnsgd1na2vs0mg"},{"bike_id":"76da00ad-55a4-42d5-8c2a-eae0006821fb","system_id":"levelo_inurba_marseille","lat":43.310804,"lon":5.38359,"is_reserved":false,"is_disabled":false,"rental_uris":{"android":"levelo://app?vid=76da00ad-55a4-42d5-8c2a-eae0006821fb","ios":"levelo://app?vid=76da00ad-55a4-42d5-8c2a-eae0006821fb"},"vehicle_type_id":"4","last_reported":1724958461,"current_range_meters":0,"station_id":"ce4bgv92rcd13ifvqcr0","pricing_plan_id":"cebpf4jnsgd1na2vs0mg"},{"bike_id":"1508caac-cd47-4832-9e16-774354bee9bc","system_id":"levelo_inurba_marseille","lat":43.310804,"lon":5.38359,"is_reserved":false,"is_disabled":false,"rental_uris":{"android":"levelo://app?vid=1508caac-cd47-4832-9e16-774354bee9bc","ios":"levelo://app?vid=1508caac-cd47-4832-9e16-774354bee9bc"},"vehicle_type_id":"4","last_reported":1724958461,"current_range_meters":12400,"station_id":"ce4bgv92rcd13ifvqcr0","pricing_plan_id":"cebpf4jnsgd1na2vs0mg"},{"bike_id":"9348ec38-0365-4eea-80f4-2b1c1a062c42","system_id":"levelo_inurba_marseille","lat":43.310804,"lon":5.38359,"is_reserved":false,"is_disabled":false,"rental_uris":{"android":"levelo://app?vid=9348ec38-0365-4eea-80f4-2b1c1a062c42","ios":"levelo://app?vid=9348ec38-0365-4eea-80f4-2b1c1a062c42"},"vehicle_type_id":"4","last_reported":1724958461,"current_range_meters":13600,"station_id":"ce4bgv92rcd13ifvqcr0","pricing_plan_id":"cebpf4jnsgd1na2vs0mg"},{"bike_id":"a54dd158-2db0-4281-a5a3-bc385115ec13","system_id":"levelo_inurba_marseille","lat":43.310804,"lon":5.38359,"is_reserved":false,"is_disabled":false,"rental_uris":{"android":"levelo://app?vid=a54dd158-2db0-4281-a5a3-bc385115ec13","ios":"levelo://app?vid=a54dd158-2db0-4281-a5a3-bc385115ec13"},"vehicle_type_id":"4","last_reported":1724958461,"current_range_meters":18400,"station_id":"ce4bgv92rcd13ifvqcr0","pricing_plan_id":"cebpf4jnsgd1na2vs0mg"},{"bike_id":"2f1d72f8-2c79-4251-9aff-3d29ea89ad70","system_id":"levelo_inurba_marseille","lat":43.30143,"lon":5.37413,"is_reserved":false,"is_disabled":false,"rental_uris":{"android":"levelo://app?vid=2f1d72f8-2c79-4251-9aff-3d29ea89ad70","ios":"levelo://app?vid=2f1d72f8-2c79-4251-9aff-3d29ea89ad70"},"vehicle_type_id":"4","last_reported":1724958461,"current_range_meters":4800,"station_id":"ce4bgs92rcd13ifvqcc0","pricing_plan_id":"cebpf4jnsgd1na2vs0mg"},{"bike_id":"ee3dbdf8-e114-464f-8deb-f97c9eaa5ea5","system_id":"levelo_inurba_marseille","lat":43.301429,"lon":5.37413,"is_reserved":false,"is_disabled":false,"rental_uris":{"android":"levelo://app?vid=ee3dbdf8-e114-464f-8deb-f97c9eaa5ea5","ios":"levelo://app?vid=ee3dbdf8-e114-464f-8deb-f97c9eaa5ea5"},"vehicle_type_id":"4","last_reported":1724958461,"current_range_meters":28800,"station_id":"ce4bgs92rcd13ifvqcc0","pricing_plan_id":"cebpf4jnsgd1na2vs0mg"},{"bike_id":"6207c27f-7267-4f69-97f7-714a80cfa293","system_id":"levelo_inurba_marseille","lat":43.31984,"lon":5.38146,"is_reserved":false,"is_disabled":false,"rental_uris":{"android":"levelo://app?vid=6207c27f-7267-4f69-97f7-714a80cfa293","ios":"levelo://app?vid=6207c27f-7267-4f69-97f7-714a80cfa293"},"vehicle_type_id":"4","last_reported":1724958461,"current_range_meters":2400,"station_id":"ce4bhr12rcd13ifvqhpg","pricing_plan_id":"cebpf4jnsgd1na2vs0mg"},{"bike_id":"8b0f271d-8a8e-487b-aac7-803ac4cb81f1","system_id":"levelo_inurba_marseille","lat":43.30143,"lon":5.37413,"is_reserved":false,"is_disabled":false,"rental_uris":{"android":"levelo://app?vid=8b0f271d-8a8e-487b-aac7-803ac4cb81f1","ios":"levelo://app?vid=8b0f271d-8a8e-487b-aac7-803ac4cb81f1"},"vehicle_type_id":"4","last_reported":1724958461,"current_range_meters":25600,"station_id":"ce4bgs92rcd13ifvqcc0","pricing_plan_id":"cebpf4jnsgd1na2vs0mg"},{"bike_id":"06177739-3f66-4ecb-b733-12c519afeb0e","system_id":"levelo_inurba_marseille","lat":43.29999,"lon":5.36393,"is_reserved":false,"is_disabled":false,"rental_uris":{"android":"levelo://app?vid=06177739-3f66-4ecb-b733-12c519afeb0e","ios":"levelo://app?vid=06177739-3f66-4ecb-b733-12c519afeb0e"},"vehicle_type_id":"4","last_reported":1724958461,"current_range_meters":0,"station_id":"","pricing_plan_id":"cebpf4jnsgd1na2vs0mg"},{"bike_id":"6e903ee3-04f3-4f7a-9f2d-6c720668323f","system_id":"levelo_inurba_marseille","lat":43.313571,"lon":5.384829,"is_reserved":false,"is_disabled":false,"rental_uris":{"android":"levelo://app?vid=6e903ee3-04f3-4f7a-9f2d-6c720668323f","ios":"levelo://app?vid=6e903ee3-04f3-4f7a-9f2d-6c720668323f"},"vehicle_type_id":"4","last_reported":1724958461,"current_range_meters":19600,"station_id":"ce4bgt92rcd13ifvqcf0","pricing_plan_id":"cebpf4jnsgd1na2vs0mg"},{"bike_id":"c0e43e9a-0444-4e73-af84-6b241727dbe0","system_id":"levelo_inurba_marseille","lat":43.313571,"lon":5.384829,"is_reserved":false,"is_disabled":false,"rental_uris":{"android":"levelo://app?vid=c0e43e9a-0444-4e73-af84-6b241727dbe0","ios":"levelo://app?vid=c0e43e9a-0444-4e73-af84-6b241727dbe0"},"vehicle_type_id":"4","last_reported":1724958461,"current_range_meters":2000,"station_id":"ce4bgt92rcd13ifvqcf0","pricing_plan_id":"cebpf4jnsgd1na2vs0mg"},{"bike_id":"37148bb0-69a4-42db-b1c9-0d49e8a8c1d4","system_id":"levelo_inurba_marseille","lat":43.31364,"lon":5.38495,"is_reserved":false,"is_disabled":false,"rental_uris":{"android":"levelo://app?vid=37148bb0-69a4-42db-b1c9-0d49e8a8c1d4","ios":"levelo://app?vid=37148bb0-69a4-42db-b1c9-0d49e8a8c1d4"},"vehicle_type_id":"4","last_reported":1724958461,"current_range_meters":0,"station_id":"ce4bgt92rcd13ifvqcf0","pricing_plan_id":"cebpf4jnsgd1na2vs0mg"},{"bike_id":"cdc543d2-e1c6-4274-b4ec-6486ed191752","system_id":"levelo_inurba_marseille","lat":43.299222,"lon":5.365554,"is_reserved":false,"is_disabled":false,"rental_uris":{"android":"levelo://app?vid=cdc543d2-e1c6-4274-b4ec-6486ed191752","ios":"levelo://app?vid=cdc543d2-e1c6-4274-b4ec-6486ed191752"},"vehicle_type_id":"4","last_reported":1724958461,"current_range_meters":13600,"station_id":"ce4bgm92rcd13ifvqbr0","pricing_plan_id":"cebpf4jnsgd1na2vs0mg"},{"bike_id":"39703657-15e2-4b5e-8370-ecfdc36c8c86","system_id":"levelo_inurba_marseille","lat":43.299222,"lon":5.365554,"is_reserved":false,"is_disabled":false,"rental_uris":{"android":"levelo://app?vid=39703657-15e2-4b5e-8370-ecfdc36c8c86","ios":"levelo://app?vid=39703657-15e2-4b5e-8370-ecfdc36c8c86"},"vehicle_type_id":"4","last_reported":1724958461,"current_range_meters":31200,"station_id":"ce4bgm92rcd13ifvqbr0","pricing_plan_id":"cebpf4jnsgd1na2vs0mg"},{"bike_id":"46180dab-d793-4aad-ac7d-e3ac9741089b","system_id":"levelo_inurba_marseille","lat":43.299222,"lon":5.365554,"is_reserved":false,"is_disabled":false,"rental_uris":{"android":"levelo://app?vid=46180dab-d793-4aad-ac7d-e3ac9741089b","ios":"levelo://app?vid=46180dab-d793-4aad-ac7d-e3ac9741089b"},"vehicle_type_id":"4","last_reported":1724958461,"current_range_meters":21200,"station_id":"ce4bgm92rcd13ifvqbr0","pricing_plan_id":"cebpf4jnsgd1na2vs0mg"},{"bike_id":"ac1eb233-4440-450c-bb6d-0e056c9dfac4","system_id":"levelo_inurba_marseille","lat":43.299222,"lon":5.365554,"is_reserved":false,"is_disabled":false,"rental_uris":{"android":"levelo://app?vid=ac1eb233-4440-450c-bb6d-0e056c9dfac4","ios":"levelo://app?vid=ac1eb233-4440-450c-bb6d-0e056c9dfac4"},"vehicle_type_id":"4","last_reported":1724958461,"current_range_meters":31200,"station_id":"ce4bgm92rcd13ifvqbr0","pricing_plan_id":"cebpf4jnsgd1na2vs0mg"},{"bike_id":"03154ac0-65a2-4c38-afab-88584c3e45a0","system_id":"levelo_inurba_marseille","lat":43.299222,"lon":5.365554,"is_reserved":false,"is_disabled":false,"rental_uris":{"android":"levelo://app?vid=03154ac0-65a2-4c38-afab-88584c3e45a0","ios":"levelo://app?vid=03154ac0-65a2-4c38-afab-88584c3e45a0"},"vehicle_type_id":"4","last_reported":1724958461,"current_range_meters":19200,"station_id":"ce4bgm92rcd13ifvqbr0","pricing_plan_id":"cebpf4jnsgd1na2vs0mg"},{"bike_id":"f2b3ca8f-0ea9-4c98-8560-77a9aaafc0ed","system_id":"levelo_inurba_marseille","lat":43.299222,"lon":5.365554,"is_reserved":false,"is_disabled":false,"rental_uris":{"android":"levelo://app?vid=f2b3ca8f-0ea9-4c98-8560-77a9aaafc0ed","ios":"levelo://app?vid=f2b3ca8f-0ea9-4c98-8560-77a9aaafc0ed"},"vehicle_type_id":"4","last_reported":1724958461,"current_range_meters":26400,"station_id":"ce4bgm92rcd13ifvqbr0","pricing_plan_id":"cebpf4jnsgd1na2vs0mg"},{"bike_id":"b45b78e6-a1ee-46f4-a3b2-0a899bce5780","system_id":"levelo_inurba_marseille","lat":43.299222,"lon":5.365554,"is_reserved":false,"is_disabled":false,"rental_uris":{"android":"levelo://app?vid=b45b78e6-a1ee-46f4-a3b2-0a899bce5780","ios":"levelo://app?vid=b45b78e6-a1ee-46f4-a3b2-0a899bce5780"},"vehicle_type_id":"4","last_reported":1724958461,"current_range_meters":31200,"station_id":"ce4bgm92rcd13ifvqbr0","pricing_plan_id":"cebpf4jnsgd1na2vs0mg"},{"bike_id":"27aa2997-5869-4775-a095-d8869c4b6362","system_id":"levelo_inurba_marseille","lat":43.299222,"lon":5.365554,"is_reserved":false,"is_disabled":false,"rental_uris":{"android":"levelo://app?vid=27aa2997-5869-4775-a095-d8869c4b6362","ios":"levelo://app?vid=27aa2997-5869-4775-a095-d8869c4b6362"},"vehicle_type_id":"4","last_reported":1724958461,"current_range_meters":11600,"station_id":"ce4bgm92rcd13ifvqbr0","pricing_plan_id":"cebpf4jnsgd1na2vs0mg"},{"bike_id":"c7cea5ec-8d81-48d7-86e0-d7f1b547aaf2","system_id":"levelo_inurba_marseille","lat":43.299222,"lon":5.365554,"is_reserved":false,"is_disabled":false,"rental_uris":{"android":"levelo://app?vid=c7cea5ec-8d81-48d7-86e0-d7f1b547aaf2","ios":"levelo://app?vid=c7cea5ec-8d81-48d7-86e0-d7f1b547aaf2"},"vehicle_type_id":"4","last_reported":1724958461,"current_range_meters":16400,"station_id":"ce4bgm92rcd13ifvqbr0","pricing_plan_id":"cebpf4jnsgd1na2vs0mg"},{"bike_id":"20f3a552-6d59-4450-ac9f-7f46e510acde","system_id":"levelo_inurba_marseille","lat":43.29924,"lon":5.36545,"is_reserved":false,"is_disabled":false,"rental_uris":{"android":"levelo://app?vid=20f3a552-6d59-4450-ac9f-7f46e510acde","ios":"levelo://app?vid=20f3a552-6d59-4450-ac9f-7f46e510acde"},"vehicle_type_id":"4","last_reported":1724958461,"current_range_meters":22800,"station_id":"ce4bgm92rcd13ifvqbr0","pricing_plan_id":"cebpf4jnsgd1na2vs0mg"},{"bike_id":"5c46652e-2c98-4bf5-bfc5-02e7df057605","system_id":"levelo_inurba_marseille","lat":43.299724,"lon":5.371829,"is_reserved":false,"is_disabled":false,"rental_uris":{"android":"levelo://app?vid=5c46652e-2c98-4bf5-bfc5-02e7df057605","ios":"levelo://app?vid=5c46652e-2c98-4bf5-bfc5-02e7df057605"},"vehicle_type_id":"4","last_reported":1724958461,"current_range_meters":12000,"station_id":"ce4bgr92rcd13ifvqc7g","pricing_plan_id":"cebpf4jnsgd1na2vs0mg"},{"bike_id":"7499e938-50e7-46e0-bcaa-6dab4b280732","system_id":"levelo_inurba_marseille","lat":43.3102,"lon":5.38547,"is_reserved":false,"is_disabled":false,"rental_uris":{"android":"levelo://app?vid=7499e938-50e7-46e0-bcaa-6dab4b280732","ios":"levelo://app?vid=7499e938-50e7-46e0-bcaa-6dab4b280732"},"vehicle_type_id":"4","last_reported":1724958461,"current_range_meters":15200,"station_id":"","pricing_plan_id":"cebpf4jnsgd1na2vs0mg"},{"bike_id":"3944502d-6b72-4466-a7ad-ec82d6305ca8","system_id":"levelo_inurba_marseille","lat":43.29868,"lon":5.36529,"is_reserved":false,"is_disabled":false,"rental_uris":{"android":"levelo://app?vid=3944502d-6b72-4466-a7ad-ec82d6305ca8","ios":"levelo://app?vid=3944502d-6b72-4466-a7ad-ec82d6305ca8"},"vehicle_type_id":"4","last_reported":1724958461,"current_range_meters":4800,"station_id":"","pricing_plan_id":"cebpf4jnsgd1na2vs0mg"},{"bike_id":"71ffa6a3-6473-4edb-b059-4424274c2d58","system_id":"levelo_inurba_marseille","lat":43.2985,"lon":5.36817,"is_reserved":false,"is_disabled":false,"rental_uris":{"android":"levelo://app?vid=71ffa6a3-6473-4edb-b059-4424274c2d58","ios":"levelo://app?vid=71ffa6a3-6473-4edb-b059-4424274c2d58"},"vehicle_type_id":"4","last_reported":1724958461,"current_range_meters":4800,"station_id":"","pricing_plan_id":"cebpf4jnsgd1na2vs0mg"},{"bike_id":"d3a035be-16e6-4d58-a42c-ae3880841213","system_id":"levelo_inurba_marseille","lat":43.298433,"lon":5.362774,"is_reserved":false,"is_disabled":false,"rental_uris":{"android":"levelo://app?vid=d3a035be-16e6-4d58-a42c-ae3880841213","ios":"levelo://app?vid=d3a035be-16e6-4d58-a42c-ae3880841213"},"vehicle_type_id":"4","last_reported":1724958461,"current_range_meters":31600,"station_id":"ce4bgpp2rcd13ifvqc3g","pricing_plan_id":"cebpf4jnsgd1na2vs0mg"},{"bike_id":"27d48a5c-2ef6-45d5-9f53-95b763e4c313","system_id":"levelo_inurba_marseille","lat":43.31686,"lon":5.38602,"is_reserved":false,"is_disabled":false,"rental_uris":{"android":"levelo://app?vid=27d48a5c-2ef6-45d5-9f53-95b763e4c313","ios":"levelo://app?vid=27d48a5c-2ef6-45d5-9f53-95b763e4c313"},"vehicle_type_id":"4","last_reported":1724958461,"current_range_meters":10400,"station_id":"","pricing_plan_id":"cebpf4jnsgd1na2vs0mg"},{"bike_id":"26a31c55-d9fe-4860-9ef1-1e33524fab96","system_id":"levelo_inurba_marseille","lat":43.298433,"lon":5.362774,"is_reserved":false,"is_disabled":false,"rental_uris":{"android":"levelo://app?vid=26a31c55-d9fe-4860-9ef1-1e33524fab96","ios":"levelo://app?vid=26a31c55-d9fe-4860-9ef1-1e33524fab96"},"vehicle_type_id":"4","last_reported":1724958461,"current_range_meters":24800,"station_id":"ce4bgpp2rcd13ifvqc3g","pricing_plan_id":"cebpf4jnsgd1na2vs0mg"},{"bike_id":"c22d2737-76cc-4109-bb99-49b54235ee63","system_id":"levelo_inurba_marseille","lat":43.298433,"lon":5.362774,"is_reserved":false,"is_disabled":false,"rental_uris":{"android":"levelo://app?vid=c22d2737-76cc-4109-bb99-49b54235ee63","ios":"levelo://app?vid=c22d2737-76cc-4109-bb99-49b54235ee63"},"vehicle_type_id":"4","last_reported":1724958461,"current_range_meters":31600,"station_id":"ce4bgpp2rcd13ifvqc3g","pricing_plan_id":"cebpf4jnsgd1na2vs0mg"},{"bike_id":"0b39b79e-769f-466e-b5c1-33b070506476","system_id":"levelo_inurba_marseille","lat":43.298433,"lon":5.362774,"is_reserved":false,"is_disabled":false,"rental_uris":{"android":"levelo://app?vid=0b39b79e-769f-466e-b5c1-33b070506476","ios":"levelo://app?vid=0b39b79e-769f-466e-b5c1-33b070506476"},"vehicle_type_id":"4","last_reported":1724958461,"current_range_meters":28800,"station_id":"ce4bgpp2rcd13ifvqc3g","pricing_plan_id":"cebpf4jnsgd1na2vs0mg"},{"bike_id":"1e2491a3-a0a3-4e9c-8fd7-6d3a87ae73e9","system_id":"levelo_inurba_marseille","lat":43.298433,"lon":5.362774,"is_reserved":false,"is_disabled":false,"rental_uris":{"android":"levelo://app?vid=1e2491a3-a0a3-4e9c-8fd7-6d3a87ae73e9","ios":"levelo://app?vid=1e2491a3-a0a3-4e9c-8fd7-6d3a87ae73e9"},"vehicle_type_id":"4","last_reported":1724958461,"current_range_meters":31600,"station_id":"ce4bgpp2rcd13ifvqc3g","pricing_plan_id":"cebpf4jnsgd1na2vs0mg"},{"bike_id":"bfcd91ae-b457-4448-84e1-2384a8cc92c9","system_id":"levelo_inurba_marseille","lat":43.298433,"lon":5.362774,"is_reserved":false,"is_disabled":false,"rental_uris":{"android":"levelo://app?vid=bfcd91ae-b457-4448-84e1-2384a8cc92c9","ios":"levelo://app?vid=bfcd91ae-b457-4448-84e1-2384a8cc92c9"},"vehicle_type_id":"4","last_reported":1724958461,"current_range_meters":30000,"station_id":"ce4bgpp2rcd13ifvqc3g","pricing_plan_id":"cebpf4jnsgd1na2vs0mg"},{"bike_id":"bf79941d-498a-4117-bfd7-833cd84d5809","system_id":"levelo_inurba_marseille","lat":43.298433,"lon":5.362774,"is_reserved":false,"is_disabled":false,"rental_uris":{"android":"levelo://app?vid=bf79941d-498a-4117-bfd7-833cd84d5809","ios":"levelo://app?vid=bf79941d-498a-4117-bfd7-833cd84d5809"},"vehicle_type_id":"4","last_reported":1724958461,"current_range_meters":31200,"station_id":"ce4bgpp2rcd13ifvqc3g","pricing_plan_id":"cebpf4jnsgd1na2vs0mg"},{"bike_id":"4a2ae25a-1cd6-4abe-9cd3-f1e28b967ab2","system_id":"levelo_inurba_marseille","lat":43.326081,"lon":5.375086,"is_reserved":false,"is_disabled":false,"rental_uris":{"android":"levelo://app?vid=4a2ae25a-1cd6-4abe-9cd3-f1e28b967ab2","ios":"levelo://app?vid=4a2ae25a-1cd6-4abe-9cd3-f1e28b967ab2"},"vehicle_type_id":"4","last_reported":1724958461,"current_range_meters":14400,"station_id":"","pricing_plan_id":"cebpf4jnsgd1na2vs0mg"},{"bike_id":"3a1f6266-8c37-43dd-92d5-f2c04b684b46","system_id":"levelo_inurba_marseille","lat":43.305364,"lon":5.384119,"is_reserved":false,"is_disabled":false,"rental_uris":{"android":"levelo://app?vid=3a1f6266-8c37-43dd-92d5-f2c04b684b46","ios":"levelo://app?vid=3a1f6266-8c37-43dd-92d5-f2c04b684b46"},"vehicle_type_id":"4","last_reported":1724958461,"current_range_meters":11200,"station_id":"ce4bgg92rcd13ifvqb30","pricing_plan_id":"cebpf4jnsgd1na2vs0mg"},{"bike_id":"5b7dda4a-97d6-483a-94c2-873b4dcb227b","system_id":"levelo_inurba_marseille","lat":43.298433,"lon":5.362774,"is_reserved":false,"is_disabled":false,"rental_uris":{"android":"levelo://app?vid=5b7dda4a-97d6-483a-94c2-873b4dcb227b","ios":"levelo://app?vid=5b7dda4a-97d6-483a-94c2-873b4dcb227b"},"vehicle_type_id":"4","last_reported":1724958461,"current_range_meters":31600,"station_id":"ce4bgpp2rcd13ifvqc3g","pricing_plan_id":"cebpf4jnsgd1na2vs0mg"},{"bike_id":"20b50f70-212b-4802-9fac-1ea706d31911","system_id":"levelo_inurba_marseille","lat":43.298433,"lon":5.362774,"is_reserved":false,"is_disabled":false,"rental_uris":{"android":"levelo://app?vid=20b50f70-212b-4802-9fac-1ea706d31911","ios":"levelo://app?vid=20b50f70-212b-4802-9fac-1ea706d31911"},"vehicle_type_id":"4","last_reported":1724958461,"current_range_meters":17200,"station_id":"ce4bgpp2rcd13ifvqc3g","pricing_plan_id":"cebpf4jnsgd1na2vs0mg"},{"bike_id":"fc1dd4fb-5aac-484b-b2db-fb8e5f800aec","system_id":"levelo_inurba_marseille","lat":43.298433,"lon":5.362774,"is_reserved":false,"is_disabled":false,"rental_uris":{"android":"levelo://app?vid=fc1dd4fb-5aac-484b-b2db-fb8e5f800aec","ios":"levelo://app?vid=fc1dd4fb-5aac-484b-b2db-fb8e5f800aec"},"vehicle_type_id":"4","last_reported":1724958461,"current_range_meters":6000,"station_id":"ce4bgpp2rcd13ifvqc3g","pricing_plan_id":"cebpf4jnsgd1na2vs0mg"},{"bike_id":"bd4d7665-91fd-46e5-863c-507c274539cc","system_id":"levelo_inurba_marseille","lat":43.311792,"lon":5.387015,"is_reserved":false,"is_disabled":false,"rental_uris":{"android":"levelo://app?vid=bd4d7665-91fd-46e5-863c-507c274539cc","ios":"levelo://app?vid=bd4d7665-91fd-46e5-863c-507c274539cc"},"vehicle_type_id":"4","last_reported":1724958461,"current_range_meters":28000,"station_id":"","pricing_plan_id":"cebpf4jnsgd1na2vs0mg"},{"bike_id":"26ecf8fd-c313-4f06-a301-33843848f5da","system_id":"levelo_inurba_marseille","lat":43.305364,"lon":5.384119,"is_reserved":false,"is_disabled":false,"rental_uris":{"android":"levelo://app?vid=26ecf8fd-c313-4f06-a301-33843848f5da","ios":"levelo://app?vid=26ecf8fd-c313-4f06-a301-33843848f5da"},"vehicle_type_id":"4","last_reported":1724958461,"current_range_meters":31200,"station_id":"ce4bgg92rcd13ifvqb30","pricing_plan_id":"cebpf4jnsgd1na2vs0mg"},{"bike_id":"9cc2f831-3ac9-4158-9fc9-dbe45da55ab5","system_id":"levelo_inurba_marseille","lat":43.298433,"lon":5.362774,"is_reserved":false,"is_disabled":false,"rental_uris":{"android":"levelo://app?vid=9cc2f831-3ac9-4158-9fc9-dbe45da55ab5","ios":"levelo://app?vid=9cc2f831-3ac9-4158-9fc9-dbe45da55ab5"},"vehicle_type_id":"4","last_reported":1724958461,"current_range_meters":22000,"station_id":"ce4bgpp2rcd13ifvqc3g","pricing_plan_id":"cebpf4jnsgd1na2vs0mg"},{"bike_id":"824ca8ba-453f-4f9f-bc0d-3968456baeee","system_id":"levelo_inurba_marseille","lat":43.305364,"lon":5.384119,"is_reserved":false,"is_disabled":false,"rental_uris":{"android":"levelo://app?vid=824ca8ba-453f-4f9f-bc0d-3968456baeee","ios":"levelo://app?vid=824ca8ba-453f-4f9f-bc0d-3968456baeee"},"vehicle_type_id":"4","last_reported":1724958461,"current_range_meters":13200,"station_id":"ce4bgg92rcd13ifvqb30","pricing_plan_id":"cebpf4jnsgd1na2vs0mg"},{"bike_id":"6ad651ab-e573-44c5-ac0d-fa28578604ff","system_id":"levelo_inurba_marseille","lat":43.298433,"lon":5.362774,"is_reserved":false,"is_disabled":false,"rental_uris":{"android":"levelo://app?vid=6ad651ab-e573-44c5-ac0d-fa28578604ff","ios":"levelo://app?vid=6ad651ab-e573-44c5-ac0d-fa28578604ff"},"vehicle_type_id":"4","last_reported":1724958461,"current_range_meters":31600,"station_id":"ce4bgpp2rcd13ifvqc3g","pricing_plan_id":"cebpf4jnsgd1na2vs0mg"},{"bike_id":"7d631771-f877-4041-8e48-029a3b550956","system_id":"levelo_inurba_marseille","lat":43.305364,"lon":5.384119,"is_reserved":false,"is_disabled":false,"rental_uris":{"android":"levelo://app?vid=7d631771-f877-4041-8e48-029a3b550956","ios":"levelo://app?vid=7d631771-f877-4041-8e48-029a3b550956"},"vehicle_type_id":"4","last_reported":1724958461,"current_range_meters":30800,"station_id":"ce4bgg92rcd13ifvqb30","pricing_plan_id":"cebpf4jnsgd1na2vs0mg"},{"bike_id":"7cf1af6c-0823-46e4-b51c-2d1cf6823600","system_id":"levelo_inurba_marseille","lat":43.29924,"lon":5.37484,"is_reserved":false,"is_disabled":false,"rental_uris":{"android":"levelo://app?vid=7cf1af6c-0823-46e4-b51c-2d1cf6823600","ios":"levelo://app?vid=7cf1af6c-0823-46e4-b51c-2d1cf6823600"},"vehicle_type_id":"4","last_reported":1724958461,"current_range_meters":28800,"station_id":"ce4bgjh2rcd13ifvqbg0","pricing_plan_id":"cebpf4jnsgd1na2vs0mg"},{"bike_id":"3d5edb6c-de12-4a70-be3c-5bd68e871f7b","system_id":"levelo_inurba_marseille","lat":43.298433,"lon":5.362774,"is_reserved":false,"is_disabled":false,"rental_uris":{"android":"levelo://app?vid=3d5edb6c-de12-4a70-be3c-5bd68e871f7b","ios":"levelo://app?vid=3d5edb6c-de12-4a70-be3c-5bd68e871f7b"},"vehicle_type_id":"4","last_reported":1724958461,"current_range_meters":22000,"station_id":"ce4bgpp2rcd13ifvqc3g","pricing_plan_id":"cebpf4jnsgd1na2vs0mg"},{"bike_id":"c6b9cd11-6c9f-4da8-85d5-9c886bb85cc5","system_id":"levelo_inurba_marseille","lat":43.305364,"lon":5.384119,"is_reserved":false,"is_disabled":false,"rental_uris":{"android":"levelo://app?vid=c6b9cd11-6c9f-4da8-85d5-9c886bb85cc5","ios":"levelo://app?vid=c6b9cd11-6c9f-4da8-85d5-9c886bb85cc5"},"vehicle_type_id":"4","last_reported":1724958461,"current_range_meters":8400,"station_id":"ce4bgg92rcd13ifvqb30","pricing_plan_id":"cebpf4jnsgd1na2vs0mg"},{"bike_id":"b492e710-e8cc-46de-9488-43bfcae2a53b","system_id":"levelo_inurba_marseille","lat":43.305364,"lon":5.384119,"is_reserved":false,"is_disabled":false,"rental_uris":{"android":"levelo://app?vid=b492e710-e8cc-46de-9488-43bfcae2a53b","ios":"levelo://app?vid=b492e710-e8cc-46de-9488-43bfcae2a53b"},"vehicle_type_id":"4","last_reported":1724958461,"current_range_meters":24800,"station_id":"ce4bgg92rcd13ifvqb30","pricing_plan_id":"cebpf4jnsgd1na2vs0mg"},{"bike_id":"68a9a4b3-3e92-49c1-8bf4-049885783540","system_id":"levelo_inurba_marseille","lat":43.29915,"lon":5.37477,"is_reserved":false,"is_disabled":false,"rental_uris":{"android":"levelo://app?vid=68a9a4b3-3e92-49c1-8bf4-049885783540","ios":"levelo://app?vid=68a9a4b3-3e92-49c1-8bf4-049885783540"},"vehicle_type_id":"4","last_reported":1724958461,"current_range_meters":0,"station_id":"ce4bgjh2rcd13ifvqbg0","pricing_plan_id":"cebpf4jnsgd1na2vs0mg"},{"bike_id":"267a46d3-7e16-4be1-850b-d1ed4acd5ba3","system_id":"levelo_inurba_marseille","lat":43.29919,"lon":5.3749,"is_reserved":false,"is_disabled":false,"rental_uris":{"android":"levelo://app?vid=267a46d3-7e16-4be1-850b-d1ed4acd5ba3","ios":"levelo://app?vid=267a46d3-7e16-4be1-850b-d1ed4acd5ba3"},"vehicle_type_id":"4","last_reported":1724958461,"current_range_meters":2000,"station_id":"ce4bgjh2rcd13ifvqbg0","pricing_plan_id":"cebpf4jnsgd1na2vs0mg"},{"bike_id":"dec942e5-6288-484b-ad3b-b16fd83c7821","system_id":"levelo_inurba_marseille","lat":43.311722,"lon":5.387247,"is_reserved":false,"is_disabled":false,"rental_uris":{"android":"levelo://app?vid=dec942e5-6288-484b-ad3b-b16fd83c7821","ios":"levelo://app?vid=dec942e5-6288-484b-ad3b-b16fd83c7821"},"vehicle_type_id":"4","last_reported":1724958461,"current_range_meters":2800,"station_id":"ce4bgv12rcd13ifvqcp0","pricing_plan_id":"cebpf4jnsgd1na2vs0mg"},{"bike_id":"6861877a-858d-4c6b-a06a-ada1ea3d9077","system_id":"levelo_inurba_marseille","lat":43.311722,"lon":5.387247,"is_reserved":false,"is_disabled":false,"rental_uris":{"android":"levelo://app?vid=6861877a-858d-4c6b-a06a-ada1ea3d9077","ios":"levelo://app?vid=6861877a-858d-4c6b-a06a-ada1ea3d9077"},"vehicle_type_id":"4","last_reported":1724958461,"current_range_meters":12400,"station_id":"ce4bgv12rcd13ifvqcp0","pricing_plan_id":"cebpf4jnsgd1na2vs0mg"},{"bike_id":"0798235c-432d-4c68-a034-3d9116e04d24","system_id":"levelo_inurba_marseille","lat":43.311722,"lon":5.387247,"is_reserved":false,"is_disabled":false,"rental_uris":{"android":"levelo://app?vid=0798235c-432d-4c68-a034-3d9116e04d24","ios":"levelo://app?vid=0798235c-432d-4c68-a034-3d9116e04d24"},"vehicle_type_id":"4","last_reported":1724958461,"current_range_meters":400,"station_id":"ce4bgv12rcd13ifvqcp0","pricing_plan_id":"cebpf4jnsgd1na2vs0mg"},{"bike_id":"16587edf-52f2-4095-8c7d-188fb3e70422","system_id":"levelo_inurba_marseille","lat":43.299163,"lon":5.375867,"is_reserved":false,"is_disabled":false,"rental_uris":{"android":"levelo://app?vid=16587edf-52f2-4095-8c7d-188fb3e70422","ios":"levelo://app?vid=16587edf-52f2-4095-8c7d-188fb3e70422"},"vehicle_type_id":"4","last_reported":1724958461,"current_range_meters":22000,"station_id":"","pricing_plan_id":"cebpf4jnsgd1na2vs0mg"},{"bike_id":"44b694c3-cb61-44bd-8ac7-572678037941","system_id":"levelo_inurba_marseille","lat":43.32286,"lon":5.38248,"is_reserved":false,"is_disabled":false,"rental_uris":{"android":"levelo://app?vid=44b694c3-cb61-44bd-8ac7-572678037941","ios":"levelo://app?vid=44b694c3-cb61-44bd-8ac7-572678037941"},"vehicle_type_id":"4","last_reported":1724958461,"current_range_meters":6400,"station_id":"ce4bhr12rcd13ifvqhqg","pricing_plan_id":"cebpf4jnsgd1na2vs0mg"},{"bike_id":"c327071c-18bc-4357-ae1f-e0251e56dc9d","system_id":"levelo_inurba_marseille","lat":43.29784,"lon":5.37107,"is_reserved":false,"is_disabled":false,"rental_uris":{"android":"levelo://app?vid=c327071c-18bc-4357-ae1f-e0251e56dc9d","ios":"levelo://app?vid=c327071c-18bc-4357-ae1f-e0251e56dc9d"},"vehicle_type_id":"4","last_reported":1724958461,"current_range_meters":29200,"station_id":"ce4bgop2rcd13ifvqc1g","pricing_plan_id":"cebpf4jnsgd1na2vs0mg"},{"bike_id":"e3861a0f-7b5c-494f-aa06-e1641b6a0942","system_id":"levelo_inurba_marseille","lat":43.297794,"lon":5.370888,"is_reserved":false,"is_disabled":false,"rental_uris":{"android":"levelo://app?vid=e3861a0f-7b5c-494f-aa06-e1641b6a0942","ios":"levelo://app?vid=e3861a0f-7b5c-494f-aa06-e1641b6a0942"},"vehicle_type_id":"4","last_reported":1724958461,"current_range_meters":19600,"station_id":"ce4bgop2rcd13ifvqc1g","pricing_plan_id":"cebpf4jnsgd1na2vs0mg"},{"bike_id":"997378f7-f9f3-4a2e-a69b-f7f6f3ca655b","system_id":"levelo_inurba_marseille","lat":43.29781,"lon":5.371,"is_reserved":false,"is_disabled":false,"rental_uris":{"android":"levelo://app?vid=997378f7-f9f3-4a2e-a69b-f7f6f3ca655b","ios":"levelo://app?vid=997378f7-f9f3-4a2e-a69b-f7f6f3ca655b"},"vehicle_type_id":"4","last_reported":1724958461,"current_range_meters":21200,"station_id":"ce4bgop2rcd13ifvqc1g","pricing_plan_id":"cebpf4jnsgd1na2vs0mg"},{"bike_id":"9815f21e-302b-414d-b8ce-3e9c491fdb3e","system_id":"levelo_inurba_marseille","lat":43.2978,"lon":5.37094,"is_reserved":false,"is_disabled":false,"rental_uris":{"android":"levelo://app?vid=9815f21e-302b-414d-b8ce-3e9c491fdb3e","ios":"levelo://app?vid=9815f21e-302b-414d-b8ce-3e9c491fdb3e"},"vehicle_type_id":"4","last_reported":1724958461,"current_range_meters":26800,"station_id":"ce4bgop2rcd13ifvqc1g","pricing_plan_id":"cebpf4jnsgd1na2vs0mg"},{"bike_id":"cb73b66e-dfa6-4f93-80b9-a70c2f549e78","system_id":"levelo_inurba_marseille","lat":43.32286,"lon":5.3826,"is_reserved":false,"is_disabled":false,"rental_uris":{"android":"levelo://app?vid=cb73b66e-dfa6-4f93-80b9-a70c2f549e78","ios":"levelo://app?vid=cb73b66e-dfa6-4f93-80b9-a70c2f549e78"},"vehicle_type_id":"4","last_reported":1724958461,"current_range_meters":27600,"station_id":"ce4bhr12rcd13ifvqhqg","pricing_plan_id":"cebpf4jnsgd1na2vs0mg"},{"bike_id":"7a5d13fa-ca3c-4702-92b4-08e0480acab3","system_id":"levelo_inurba_marseille","lat":43.297774,"lon":5.370875,"is_reserved":false,"is_disabled":false,"rental_uris":{"android":"levelo://app?vid=7a5d13fa-ca3c-4702-92b4-08e0480acab3","ios":"levelo://app?vid=7a5d13fa-ca3c-4702-92b4-08e0480acab3"},"vehicle_type_id":"4","last_reported":1724958461,"current_range_meters":17200,"station_id":"ce4bgop2rcd13ifvqc1g","pricing_plan_id":"cebpf4jnsgd1na2vs0mg"},{"bike_id":"78adb6e2-a74e-45b0-8807-c691a3fbddc2","system_id":"levelo_inurba_marseille","lat":43.32287,"lon":5.38262,"is_reserved":false,"is_disabled":false,"rental_uris":{"android":"levelo://app?vid=78adb6e2-a74e-45b0-8807-c691a3fbddc2","ios":"levelo://app?vid=78adb6e2-a74e-45b0-8807-c691a3fbddc2"},"vehicle_type_id":"4","last_reported":1724958461,"current_range_meters":0,"station_id":"ce4bhr12rcd13ifvqhqg","pricing_plan_id":"cebpf4jnsgd1na2vs0mg"},{"bike_id":"f7646bf5-ea4c-41fc-8f8e-04a1bb839f9a","system_id":"levelo_inurba_marseille","lat":43.29776,"lon":5.371,"is_reserved":false,"is_disabled":false,"rental_uris":{"android":"levelo://app?vid=f7646bf5-ea4c-41fc-8f8e-04a1bb839f9a","ios":"levelo://app?vid=f7646bf5-ea4c-41fc-8f8e-04a1bb839f9a"},"vehicle_type_id":"4","last_reported":1724958461,"current_range_meters":27600,"station_id":"ce4bgop2rcd13ifvqc1g","pricing_plan_id":"cebpf4jnsgd1na2vs0mg"},{"bike_id":"10337f8a-f900-4a4e-8339-03a8b7dd50fd","system_id":"levelo_inurba_marseille","lat":43.297163,"lon":5.365866,"is_reserved":false,"is_disabled":false,"rental_uris":{"android":"levelo://app?vid=10337f8a-f900-4a4e-8339-03a8b7dd50fd","ios":"levelo://app?vid=10337f8a-f900-4a4e-8339-03a8b7dd50fd"},"vehicle_type_id":"4","last_reported":1724958461,"current_range_meters":2400,"station_id":"ce4bgn12rcd13ifvqbt0","pricing_plan_id":"cebpf4jnsgd1na2vs0mg"},{"bike_id":"308e44c0-0592-423d-adf8-6c8991790fb9","system_id":"levelo_inurba_marseille","lat":43.297163,"lon":5.365866,"is_reserved":false,"is_disabled":false,"rental_uris":{"android":"levelo://app?vid=308e44c0-0592-423d-adf8-6c8991790fb9","ios":"levelo://app?vid=308e44c0-0592-423d-adf8-6c8991790fb9"},"vehicle_type_id":"4","last_reported":1724958461,"current_range_meters":18400,"station_id":"ce4bgn12rcd13ifvqbt0","pricing_plan_id":"cebpf4jnsgd1na2vs0mg"},{"bike_id":"102662f7-ad70-4737-aa22-fb3b494d7450","system_id":"levelo_inurba_marseille","lat":43.297163,"lon":5.365866,"is_reserved":false,"is_disabled":false,"rental_uris":{"android":"levelo://app?vid=102662f7-ad70-4737-aa22-fb3b494d7450","ios":"levelo://app?vid=102662f7-ad70-4737-aa22-fb3b494d7450"},"vehicle_type_id":"4","last_reported":1724958461,"current_range_meters":0,"station_id":"ce4bgn12rcd13ifvqbt0","pricing_plan_id":"cebpf4jnsgd1na2vs0mg"},{"bike_id":"10e7da99-f0a0-46d7-b84b-6ba669930915","system_id":"levelo_inurba_marseille","lat":43.297163,"lon":5.365866,"is_reserved":false,"is_disabled":false,"rental_uris":{"android":"levelo://app?vid=10e7da99-f0a0-46d7-b84b-6ba669930915","ios":"levelo://app?vid=10e7da99-f0a0-46d7-b84b-6ba669930915"},"vehicle_type_id":"4","last_reported":1724958461,"current_range_meters":26400,"station_id":"ce4bgn12rcd13ifvqbt0","pricing_plan_id":"cebpf4jnsgd1na2vs0mg"},{"bike_id":"12dd8de3-c9ed-4305-93ab-39675d616277","system_id":"levelo_inurba_marseille","lat":43.29867,"lon":5.37648,"is_reserved":false,"is_disabled":false,"rental_uris":{"android":"levelo://app?vid=12dd8de3-c9ed-4305-93ab-39675d616277","ios":"levelo://app?vid=12dd8de3-c9ed-4305-93ab-39675d616277"},"vehicle_type_id":"4","last_reported":1724958461,"current_range_meters":9200,"station_id":"","pricing_plan_id":"cebpf4jnsgd1na2vs0mg"},{"bike_id":"1803f7a9-fe92-432b-b1a6-8790b4177a53","system_id":"levelo_inurba_marseille","lat":43.297163,"lon":5.365866,"is_reserved":false,"is_disabled":false,"rental_uris":{"android":"levelo://app?vid=1803f7a9-fe92-432b-b1a6-8790b4177a53","ios":"levelo://app?vid=1803f7a9-fe92-432b-b1a6-8790b4177a53"},"vehicle_type_id":"4","last_reported":1724958461,"current_range_meters":6000,"station_id":"ce4bgn12rcd13ifvqbt0","pricing_plan_id":"cebpf4jnsgd1na2vs0mg"},{"bike_id":"b8978e39-2077-4f81-82e5-f64aa158edd0","system_id":"levelo_inurba_marseille","lat":43.297163,"lon":5.365866,"is_reserved":false,"is_disabled":false,"rental_uris":{"android":"levelo://app?vid=b8978e39-2077-4f81-82e5-f64aa158edd0","ios":"levelo://app?vid=b8978e39-2077-4f81-82e5-f64aa158edd0"},"vehicle_type_id":"4","last_reported":1724958461,"current_range_meters":13200,"station_id":"ce4bgn12rcd13ifvqbt0","pricing_plan_id":"cebpf4jnsgd1na2vs0mg"},{"bike_id":"6a177318-24c9-4964-b027-8921b9d659e5","system_id":"levelo_inurba_marseille","lat":43.29621,"lon":5.37166,"is_reserved":false,"is_disabled":false,"rental_uris":{"android":"levelo://app?vid=6a177318-24c9-4964-b027-8921b9d659e5","ios":"levelo://app?vid=6a177318-24c9-4964-b027-8921b9d659e5"},"vehicle_type_id":"4","last_reported":1724958461,"current_range_meters":0,"station_id":"ce4bgnh2rcd13ifvqc0g","pricing_plan_id":"cebpf4jnsgd1na2vs0mg"},{"bike_id":"1ef03994-17aa-4733-8383-51107a845ce1","system_id":"levelo_inurba_marseille","lat":43.29573,"lon":5.367355,"is_reserved":false,"is_disabled":false,"rental_uris":{"android":"levelo://app?vid=1ef03994-17aa-4733-8383-51107a845ce1","ios":"levelo://app?vid=1ef03994-17aa-4733-8383-51107a845ce1"},"vehicle_type_id":"4","last_reported":1724958461,"current_range_meters":9200,"station_id":"ce4bgph2rcd13ifvqc2g","pricing_plan_id":"cebpf4jnsgd1na2vs0mg"},{"bike_id":"26b0473f-2121-4b1e-8c82-4d0b609a8282","system_id":"levelo_inurba_marseille","lat":43.29573,"lon":5.367355,"is_reserved":false,"is_disabled":false,"rental_uris":{"android":"levelo://app?vid=26b0473f-2121-4b1e-8c82-4d0b609a8282","ios":"levelo://app?vid=26b0473f-2121-4b1e-8c82-4d0b609a8282"},"vehicle_type_id":"4","last_reported":1724958461,"current_range_meters":0,"station_id":"ce4bgph2rcd13ifvqc2g","pricing_plan_id":"cebpf4jnsgd1na2vs0mg"},{"bike_id":"8f074e6e-9a66-420b-b43a-6336fbd7b1b0","system_id":"levelo_inurba_marseille","lat":43.29573,"lon":5.367355,"is_reserved":false,"is_disabled":false,"rental_uris":{"android":"levelo://app?vid=8f074e6e-9a66-420b-b43a-6336fbd7b1b0","ios":"levelo://app?vid=8f074e6e-9a66-420b-b43a-6336fbd7b1b0"},"vehicle_type_id":"4","last_reported":1724958461,"current_range_meters":14800,"station_id":"ce4bgph2rcd13ifvqc2g","pricing_plan_id":"cebpf4jnsgd1na2vs0mg"},{"bike_id":"92825f21-ea3a-4827-8d84-1c5f2608cea1","system_id":"levelo_inurba_marseille","lat":43.29573,"lon":5.367355,"is_reserved":false,"is_disabled":false,"rental_uris":{"android":"levelo://app?vid=92825f21-ea3a-4827-8d84-1c5f2608cea1","ios":"levelo://app?vid=92825f21-ea3a-4827-8d84-1c5f2608cea1"},"vehicle_type_id":"4","last_reported":1724958461,"current_range_meters":27600,"station_id":"ce4bgph2rcd13ifvqc2g","pricing_plan_id":"cebpf4jnsgd1na2vs0mg"},{"bike_id":"f581e1f5-33dc-437c-bfcd-705a202d39d3","system_id":"levelo_inurba_marseille","lat":43.295808,"lon":5.367408,"is_reserved":false,"is_disabled":false,"rental_uris":{"android":"levelo://app?vid=f581e1f5-33dc-437c-bfcd-705a202d39d3","ios":"levelo://app?vid=f581e1f5-33dc-437c-bfcd-705a202d39d3"},"vehicle_type_id":"4","last_reported":1724958461,"current_range_meters":0,"station_id":"ce4bgph2rcd13ifvqc2g","pricing_plan_id":"cebpf4jnsgd1na2vs0mg"},{"bike_id":"00a8a254-bbac-408d-8cae-9723326b1b1c","system_id":"levelo_inurba_marseille","lat":43.29573,"lon":5.367355,"is_reserved":false,"is_disabled":false,"rental_uris":{"android":"levelo://app?vid=00a8a254-bbac-408d-8cae-9723326b1b1c","ios":"levelo://app?vid=00a8a254-bbac-408d-8cae-9723326b1b1c"},"vehicle_type_id":"4","last_reported":1724958461,"current_range_meters":17600,"station_id":"ce4bgph2rcd13ifvqc2g","pricing_plan_id":"cebpf4jnsgd1na2vs0mg"},{"bike_id":"053a13bc-050f-4ca3-a315-34bcad79c273","system_id":"levelo_inurba_marseille","lat":43.29573,"lon":5.367355,"is_reserved":false,"is_disabled":false,"rental_uris":{"android":"levelo://app?vid=053a13bc-050f-4ca3-a315-34bcad79c273","ios":"levelo://app?vid=053a13bc-050f-4ca3-a315-34bcad79c273"},"vehicle_type_id":"4","last_reported":1724958461,"current_range_meters":3600,"station_id":"ce4bgph2rcd13ifvqc2g","pricing_plan_id":"cebpf4jnsgd1na2vs0mg"},{"bike_id":"34e2b1af-88a9-4783-928e-9cb7b2279b5d","system_id":"levelo_inurba_marseille","lat":43.29573,"lon":5.367355,"is_reserved":false,"is_disabled":false,"rental_uris":{"android":"levelo://app?vid=34e2b1af-88a9-4783-928e-9cb7b2279b5d","ios":"levelo://app?vid=34e2b1af-88a9-4783-928e-9cb7b2279b5d"},"vehicle_type_id":"4","last_reported":1724958461,"current_range_meters":6400,"station_id":"ce4bgph2rcd13ifvqc2g","pricing_plan_id":"cebpf4jnsgd1na2vs0mg"},{"bike_id":"61177920-3371-4acd-b8a9-29a76c323784","system_id":"levelo_inurba_marseille","lat":43.299028,"lon":5.381509,"is_reserved":false,"is_disabled":false,"rental_uris":{"android":"levelo://app?vid=61177920-3371-4acd-b8a9-29a76c323784","ios":"levelo://app?vid=61177920-3371-4acd-b8a9-29a76c323784"},"vehicle_type_id":"4","last_reported":1724958461,"current_range_meters":28000,"station_id":"ce4bgj12rcd13ifvqbc0","pricing_plan_id":"cebpf4jnsgd1na2vs0mg"},{"bike_id":"e80d1023-b3b9-4375-9257-46e51cb1d9bb","system_id":"levelo_inurba_marseille","lat":43.30952,"lon":5.39026,"is_reserved":false,"is_disabled":false,"rental_uris":{"android":"levelo://app?vid=e80d1023-b3b9-4375-9257-46e51cb1d9bb","ios":"levelo://app?vid=e80d1023-b3b9-4375-9257-46e51cb1d9bb"},"vehicle_type_id":"4","last_reported":1724958461,"current_range_meters":0,"station_id":"ce4bgup2rcd13ifvqco0","pricing_plan_id":"cebpf4jnsgd1na2vs0mg"},{"bike_id":"7499e111-aabc-4ab8-b6e9-ea4dadb526cf","system_id":"levelo_inurba_marseille","lat":43.317557,"lon":5.390173,"is_reserved":false,"is_disabled":false,"rental_uris":{"android":"levelo://app?vid=7499e111-aabc-4ab8-b6e9-ea4dadb526cf","ios":"levelo://app?vid=7499e111-aabc-4ab8-b6e9-ea4dadb526cf"},"vehicle_type_id":"4","last_reported":1724958461,"current_range_meters":14400,"station_id":"ce4bhqp2rcd13ifvqhng","pricing_plan_id":"cebpf4jnsgd1na2vs0mg"},{"bike_id":"5365a783-7811-46be-8201-f6f3e54ff72c","system_id":"levelo_inurba_marseille","lat":43.29801,"lon":5.380947,"is_reserved":false,"is_disabled":false,"rental_uris":{"android":"levelo://app?vid=5365a783-7811-46be-8201-f6f3e54ff72c","ios":"levelo://app?vid=5365a783-7811-46be-8201-f6f3e54ff72c"},"vehicle_type_id":"4","last_reported":1724958461,"current_range_meters":0,"station_id":"ce4bgip2rcd13ifvqbb0","pricing_plan_id":"cebpf4jnsgd1na2vs0mg"},{"bike_id":"afeaf785-10c3-4b6a-ba9b-ec22e504f42f","system_id":"levelo_inurba_marseille","lat":43.295748,"lon":5.37522,"is_reserved":false,"is_disabled":false,"rental_uris":{"android":"levelo://app?vid=afeaf785-10c3-4b6a-ba9b-ec22e504f42f","ios":"levelo://app?vid=afeaf785-10c3-4b6a-ba9b-ec22e504f42f"},"vehicle_type_id":"4","last_reported":1724958461,"current_range_meters":0,"station_id":"ce4bgh92rcd13ifvqb50","pricing_plan_id":"cebpf4jnsgd1na2vs0mg"},{"bike_id":"6cc8c668-05aa-4f93-a84d-95d4a8ce1499","system_id":"levelo_inurba_marseille","lat":43.29572,"lon":5.375068,"is_reserved":false,"is_disabled":false,"rental_uris":{"android":"levelo://app?vid=6cc8c668-05aa-4f93-a84d-95d4a8ce1499","ios":"levelo://app?vid=6cc8c668-05aa-4f93-a84d-95d4a8ce1499"},"vehicle_type_id":"4","last_reported":1724958461,"current_range_meters":20800,"station_id":"ce4bgh92rcd13ifvqb50","pricing_plan_id":"cebpf4jnsgd1na2vs0mg"},{"bike_id":"a073adef-b936-4924-89f9-3294c6631855","system_id":"levelo_inurba_marseille","lat":43.29513,"lon":5.36141,"is_reserved":false,"is_disabled":false,"rental_uris":{"android":"levelo://app?vid=a073adef-b936-4924-89f9-3294c6631855","ios":"levelo://app?vid=a073adef-b936-4924-89f9-3294c6631855"},"vehicle_type_id":"4","last_reported":1724958461,"current_range_meters":6000,"station_id":"","pricing_plan_id":"cebpf4jnsgd1na2vs0mg"},{"bike_id":"1996d05c-406a-4858-ae83-0ddf75d2375d","system_id":"levelo_inurba_marseille","lat":43.30437,"lon":5.38893,"is_reserved":false,"is_disabled":false,"rental_uris":{"android":"levelo://app?vid=1996d05c-406a-4858-ae83-0ddf75d2375d","ios":"levelo://app?vid=1996d05c-406a-4858-ae83-0ddf75d2375d"},"vehicle_type_id":"4","last_reported":1724958461,"current_range_meters":22800,"station_id":"ce4bgk12rcd13ifvqbi0","pricing_plan_id":"cebpf4jnsgd1na2vs0mg"},{"bike_id":"f395bb46-157b-41f9-872b-6b2f8993d9f7","system_id":"levelo_inurba_marseille","lat":43.298037,"lon":5.381066,"is_reserved":false,"is_disabled":false,"rental_uris":{"android":"levelo://app?vid=f395bb46-157b-41f9-872b-6b2f8993d9f7","ios":"levelo://app?vid=f395bb46-157b-41f9-872b-6b2f8993d9f7"},"vehicle_type_id":"4","last_reported":1724958461,"current_range_meters":0,"station_id":"ce4bgip2rcd13ifvqbb0","pricing_plan_id":"cebpf4jnsgd1na2vs0mg"},{"bike_id":"da4817ac-40cc-4747-a1a6-02c205a3187a","system_id":"levelo_inurba_marseille","lat":43.296277,"lon":5.377108,"is_reserved":false,"is_disabled":false,"rental_uris":{"android":"levelo://app?vid=da4817ac-40cc-4747-a1a6-02c205a3187a","ios":"levelo://app?vid=da4817ac-40cc-4747-a1a6-02c205a3187a"},"vehicle_type_id":"4","last_reported":1724958461,"current_range_meters":2400,"station_id":"ce4bgi92rcd13ifvqb90","pricing_plan_id":"cebpf4jnsgd1na2vs0mg"},{"bike_id":"aef3aff3-0006-4a4e-9bea-29e681a219ad","system_id":"levelo_inurba_marseille","lat":43.295748,"lon":5.37522,"is_reserved":false,"is_disabled":false,"rental_uris":{"android":"levelo://app?vid=aef3aff3-0006-4a4e-9bea-29e681a219ad","ios":"levelo://app?vid=aef3aff3-0006-4a4e-9bea-29e681a219ad"},"vehicle_type_id":"4","last_reported":1724958461,"current_range_meters":4800,"station_id":"ce4bgh92rcd13ifvqb50","pricing_plan_id":"cebpf4jnsgd1na2vs0mg"},{"bike_id":"8b55e5c1-1636-47f6-8be0-4c5cd8f99298","system_id":"levelo_inurba_marseille","lat":43.304274,"lon":5.388873,"is_reserved":false,"is_disabled":false,"rental_uris":{"android":"levelo://app?vid=8b55e5c1-1636-47f6-8be0-4c5cd8f99298","ios":"levelo://app?vid=8b55e5c1-1636-47f6-8be0-4c5cd8f99298"},"vehicle_type_id":"4","last_reported":1724958461,"current_range_meters":800,"station_id":"ce4bgk12rcd13ifvqbi0","pricing_plan_id":"cebpf4jnsgd1na2vs0mg"},{"bike_id":"6bc539e4-ae42-4e13-9f06-1e6770ee0cb1","system_id":"levelo_inurba_marseille","lat":43.29541,"lon":5.37503,"is_reserved":false,"is_disabled":false,"rental_uris":{"android":"levelo://app?vid=6bc539e4-ae42-4e13-9f06-1e6770ee0cb1","ios":"levelo://app?vid=6bc539e4-ae42-4e13-9f06-1e6770ee0cb1"},"vehicle_type_id":"4","last_reported":1724958461,"current_range_meters":18400,"station_id":"ce4bgkp2rcd13ifvqbmg","pricing_plan_id":"cebpf4jnsgd1na2vs0mg"},{"bike_id":"c094b84c-4127-4078-ac34-c2767fa4ee5b","system_id":"levelo_inurba_marseille","lat":43.295967,"lon":5.37711,"is_reserved":false,"is_disabled":false,"rental_uris":{"android":"levelo://app?vid=c094b84c-4127-4078-ac34-c2767fa4ee5b","ios":"levelo://app?vid=c094b84c-4127-4078-ac34-c2767fa4ee5b"},"vehicle_type_id":"4","last_reported":1724958461,"current_range_meters":29200,"station_id":"ce4bgi92rcd13ifvqb90","pricing_plan_id":"cebpf4jnsgd1na2vs0mg"},{"bike_id":"6cd14fd1-e68e-419c-9835-be512a0bdfad","system_id":"levelo_inurba_marseille","lat":43.294153,"lon":5.386305,"is_reserved":false,"is_disabled":false,"rental_uris":{"android":"levelo://app?vid=6cd14fd1-e68e-419c-9835-be512a0bdfad","ios":"levelo://app?vid=6cd14fd1-e68e-419c-9835-be512a0bdfad"},"vehicle_type_id":"4","last_reported":1724958461,"current_range_meters":28800,"station_id":"ce4bh2h2rcd13ifvqdh0","pricing_plan_id":"cebpf4jnsgd1na2vs0mg"},{"bike_id":"510dec6c-002a-4a9d-bcb0-1c290d237529","system_id":"levelo_inurba_marseille","lat":43.299717,"lon":5.384845,"is_reserved":false,"is_disabled":false,"rental_uris":{"android":"levelo://app?vid=510dec6c-002a-4a9d-bcb0-1c290d237529","ios":"levelo://app?vid=510dec6c-002a-4a9d-bcb0-1c290d237529"},"vehicle_type_id":"4","last_reported":1724958461,"current_range_meters":12000,"station_id":"ce4bgj92rcd13ifvqbd0","pricing_plan_id":"cebpf4jnsgd1na2vs0mg"},{"bike_id":"3e3beb15-3004-4e82-a410-9d71ff75d560","system_id":"levelo_inurba_marseille","lat":43.299724,"lon":5.384848,"is_reserved":false,"is_disabled":false,"rental_uris":{"android":"levelo://app?vid=3e3beb15-3004-4e82-a410-9d71ff75d560","ios":"levelo://app?vid=3e3beb15-3004-4e82-a410-9d71ff75d560"},"vehicle_type_id":"4","last_reported":1724958461,"current_range_meters":0,"station_id":"ce4bgj92rcd13ifvqbd0","pricing_plan_id":"cebpf4jnsgd1na2vs0mg"},{"bike_id":"eff1e11b-12e4-42b8-9fcd-0f359d44ad62","system_id":"levelo_inurba_marseille","lat":43.299724,"lon":5.384848,"is_reserved":false,"is_disabled":false,"rental_uris":{"android":"levelo://app?vid=eff1e11b-12e4-42b8-9fcd-0f359d44ad62","ios":"levelo://app?vid=eff1e11b-12e4-42b8-9fcd-0f359d44ad62"},"vehicle_type_id":"4","last_reported":1724958461,"current_range_meters":8800,"station_id":"ce4bgj92rcd13ifvqbd0","pricing_plan_id":"cebpf4jnsgd1na2vs0mg"},{"bike_id":"f3345228-4323-45da-b942-1dbc68823f22","system_id":"levelo_inurba_marseille","lat":43.295748,"lon":5.37522,"is_reserved":false,"is_disabled":false,"rental_uris":{"android":"levelo://app?vid=f3345228-4323-45da-b942-1dbc68823f22","ios":"levelo://app?vid=f3345228-4323-45da-b942-1dbc68823f22"},"vehicle_type_id":"4","last_reported":1724958461,"current_range_meters":12800,"station_id":"ce4bgh92rcd13ifvqb50","pricing_plan_id":"cebpf4jnsgd1na2vs0mg"},{"bike_id":"752959e0-073f-49d9-af14-2c1819f03d21","system_id":"levelo_inurba_marseille","lat":43.301396,"lon":5.387812,"is_reserved":false,"is_disabled":false,"rental_uris":{"android":"levelo://app?vid=752959e0-073f-49d9-af14-2c1819f03d21","ios":"levelo://app?vid=752959e0-073f-49d9-af14-2c1819f03d21"},"vehicle_type_id":"4","last_reported":1724958461,"current_range_meters":0,"station_id":"ce4bghh2rcd13ifvqb60","pricing_plan_id":"cebpf4jnsgd1na2vs0mg"},{"bike_id":"bbcfce4f-f115-4cb0-b16c-aa8105a470a3","system_id":"levelo_inurba_marseille","lat":43.30133,"lon":5.3878,"is_reserved":false,"is_disabled":false,"rental_uris":{"android":"levelo://app?vid=bbcfce4f-f115-4cb0-b16c-aa8105a470a3","ios":"levelo://app?vid=bbcfce4f-f115-4cb0-b16c-aa8105a470a3"},"vehicle_type_id":"4","last_reported":1724958461,"current_range_meters":0,"station_id":"ce4bghh2rcd13ifvqb60","pricing_plan_id":"cebpf4jnsgd1na2vs0mg"},{"bike_id":"f62f2f02-f094-4c40-9a3b-f37d013fcb98","system_id":"levelo_inurba_marseille","lat":43.30134,"lon":5.38783,"is_reserved":false,"is_disabled":false,"rental_uris":{"android":"levelo://app?vid=f62f2f02-f094-4c40-9a3b-f37d013fcb98","ios":"levelo://app?vid=f62f2f02-f094-4c40-9a3b-f37d013fcb98"},"vehicle_type_id":"4","last_reported":1724958461,"current_range_meters":15200,"station_id":"ce4bghh2rcd13ifvqb60","pricing_plan_id":"cebpf4jnsgd1na2vs0mg"},{"bike_id":"7247490e-55e3-4e84-ad52-a2d5fdaa53ac","system_id":"levelo_inurba_marseille","lat":43.309589,"lon":5.390258,"is_reserved":false,"is_disabled":false,"rental_uris":{"android":"levelo://app?vid=7247490e-55e3-4e84-ad52-a2d5fdaa53ac","ios":"levelo://app?vid=7247490e-55e3-4e84-ad52-a2d5fdaa53ac"},"vehicle_type_id":"4","last_reported":1724958461,"current_range_meters":28400,"station_id":"ce4bgup2rcd13ifvqco0","pricing_plan_id":"cebpf4jnsgd1na2vs0mg"},{"bike_id":"0f9c0dce-f13e-47b8-b66e-4e35e777087c","system_id":"levelo_inurba_marseille","lat":43.29931,"lon":5.386,"is_reserved":false,"is_disabled":false,"rental_uris":{"android":"levelo://app?vid=0f9c0dce-f13e-47b8-b66e-4e35e777087c","ios":"levelo://app?vid=0f9c0dce-f13e-47b8-b66e-4e35e777087c"},"vehicle_type_id":"4","last_reported":1724958461,"current_range_meters":0,"station_id":"","pricing_plan_id":"cebpf4jnsgd1na2vs0mg"},{"bike_id":"4ab5e112-d452-41b2-a66a-9b989fe8c7e5","system_id":"levelo_inurba_marseille","lat":43.314243,"lon":5.39371,"is_reserved":false,"is_disabled":false,"rental_uris":{"android":"levelo://app?vid=4ab5e112-d452-41b2-a66a-9b989fe8c7e5","ios":"levelo://app?vid=4ab5e112-d452-41b2-a66a-9b989fe8c7e5"},"vehicle_type_id":"4","last_reported":1724958461,"current_range_meters":28000,"station_id":"","pricing_plan_id":"cebpf4jnsgd1na2vs0mg"},{"bike_id":"56b484cd-13a5-4b6e-8713-0a09a0f76b03","system_id":"levelo_inurba_marseille","lat":43.29597,"lon":5.38091,"is_reserved":false,"is_disabled":false,"rental_uris":{"android":"levelo://app?vid=56b484cd-13a5-4b6e-8713-0a09a0f76b03","ios":"levelo://app?vid=56b484cd-13a5-4b6e-8713-0a09a0f76b03"},"vehicle_type_id":"4","last_reported":1724958461,"current_range_meters":1600,"station_id":"ce4bgl12rcd13ifvqbo0","pricing_plan_id":"cebpf4jnsgd1na2vs0mg"},{"bike_id":"67de4269-f5c6-4a23-8bf3-a95bf8ff44a0","system_id":"levelo_inurba_marseille","lat":43.29597,"lon":5.38096,"is_reserved":false,"is_disabled":false,"rental_uris":{"android":"levelo://app?vid=67de4269-f5c6-4a23-8bf3-a95bf8ff44a0","ios":"levelo://app?vid=67de4269-f5c6-4a23-8bf3-a95bf8ff44a0"},"vehicle_type_id":"4","last_reported":1724958461,"current_range_meters":4800,"station_id":"ce4bgl12rcd13ifvqbo0","pricing_plan_id":"cebpf4jnsgd1na2vs0mg"},{"bike_id":"6932a62f-651b-41c4-8b8a-bcf1b43fdc75","system_id":"levelo_inurba_marseille","lat":43.29602,"lon":5.381084,"is_reserved":false,"is_disabled":false,"rental_uris":{"android":"levelo://app?vid=6932a62f-651b-41c4-8b8a-bcf1b43fdc75","ios":"levelo://app?vid=6932a62f-651b-41c4-8b8a-bcf1b43fdc75"},"vehicle_type_id":"4","last_reported":1724958461,"current_range_meters":2000,"station_id":"ce4bgl12rcd13ifvqbo0","pricing_plan_id":"cebpf4jnsgd1na2vs0mg"},{"bike_id":"800d3795-9774-4259-a737-d18e0b7b3519","system_id":"levelo_inurba_marseille","lat":43.292749,"lon":5.368402,"is_reserved":false,"is_disabled":false,"rental_uris":{"android":"levelo://app?vid=800d3795-9774-4259-a737-d18e0b7b3519","ios":"levelo://app?vid=800d3795-9774-4259-a737-d18e0b7b3519"},"vehicle_type_id":"4","last_reported":1724958461,"current_range_meters":28800,"station_id":"ce4bhbp2rcd13ifvqesg","pricing_plan_id":"cebpf4jnsgd1na2vs0mg"},{"bike_id":"bb8b54a6-0f3b-469a-8570-11ce68ab8d13","system_id":"levelo_inurba_marseille","lat":43.29308,"lon":5.37175,"is_reserved":false,"is_disabled":false,"rental_uris":{"android":"levelo://app?vid=bb8b54a6-0f3b-469a-8570-11ce68ab8d13","ios":"levelo://app?vid=bb8b54a6-0f3b-469a-8570-11ce68ab8d13"},"vehicle_type_id":"4","last_reported":1724958461,"current_range_meters":31200,"station_id":"ce4bgh92rcd13ifvqb40","pricing_plan_id":"cebpf4jnsgd1na2vs0mg"},{"bike_id":"0d5bcff7-1e14-4b29-bbc4-3d61ea6ce20f","system_id":"levelo_inurba_marseille","lat":43.29306,"lon":5.37182,"is_reserved":false,"is_disabled":false,"rental_uris":{"android":"levelo://app?vid=0d5bcff7-1e14-4b29-bbc4-3d61ea6ce20f","ios":"levelo://app?vid=0d5bcff7-1e14-4b29-bbc4-3d61ea6ce20f"},"vehicle_type_id":"4","last_reported":1724958461,"current_range_meters":24400,"station_id":"ce4bgh92rcd13ifvqb40","pricing_plan_id":"cebpf4jnsgd1na2vs0mg"},{"bike_id":"775f683a-2bf6-4c7a-8374-bf14458fd320","system_id":"levelo_inurba_marseille","lat":43.292749,"lon":5.368402,"is_reserved":false,"is_disabled":false,"rental_uris":{"android":"levelo://app?vid=775f683a-2bf6-4c7a-8374-bf14458fd320","ios":"levelo://app?vid=775f683a-2bf6-4c7a-8374-bf14458fd320"},"vehicle_type_id":"4","last_reported":1724958461,"current_range_meters":21200,"station_id":"ce4bhbp2rcd13ifvqesg","pricing_plan_id":"cebpf4jnsgd1na2vs0mg"},{"bike_id":"8057dac2-ce18-4fab-b0bf-9463309b395f","system_id":"levelo_inurba_marseille","lat":43.29274,"lon":5.3684,"is_reserved":false,"is_disabled":false,"rental_uris":{"android":"levelo://app?vid=8057dac2-ce18-4fab-b0bf-9463309b395f","ios":"levelo://app?vid=8057dac2-ce18-4fab-b0bf-9463309b395f"},"vehicle_type_id":"4","last_reported":1724958461,"current_range_meters":31200,"station_id":"ce4bhbp2rcd13ifvqesg","pricing_plan_id":"cebpf4jnsgd1na2vs0mg"},{"bike_id":"cb92738e-2066-4e71-bfbe-fa11bc95dbf1","system_id":"levelo_inurba_marseille","lat":43.293259,"lon":5.371586,"is_reserved":false,"is_disabled":false,"rental_uris":{"android":"levelo://app?vid=cb92738e-2066-4e71-bfbe-fa11bc95dbf1","ios":"levelo://app?vid=cb92738e-2066-4e71-bfbe-fa11bc95dbf1"},"vehicle_type_id":"4","last_reported":1724958461,"current_range_meters":2000,"station_id":"ce4bgh92rcd13ifvqb40","pricing_plan_id":"cebpf4jnsgd1na2vs0mg"},{"bike_id":"895b93bb-2290-4c4b-82f6-3ebbadc9f0f6","system_id":"levelo_inurba_marseille","lat":43.292749,"lon":5.368402,"is_reserved":false,"is_disabled":false,"rental_uris":{"android":"levelo://app?vid=895b93bb-2290-4c4b-82f6-3ebbadc9f0f6","ios":"levelo://app?vid=895b93bb-2290-4c4b-82f6-3ebbadc9f0f6"},"vehicle_type_id":"4","last_reported":1724958461,"current_range_meters":2000,"station_id":"ce4bhbp2rcd13ifvqesg","pricing_plan_id":"cebpf4jnsgd1na2vs0mg"},{"bike_id":"40d863eb-f0fc-4400-b59a-4a8f8c5b1354","system_id":"levelo_inurba_marseille","lat":43.292749,"lon":5.368402,"is_reserved":false,"is_disabled":false,"rental_uris":{"android":"levelo://app?vid=40d863eb-f0fc-4400-b59a-4a8f8c5b1354","ios":"levelo://app?vid=40d863eb-f0fc-4400-b59a-4a8f8c5b1354"},"vehicle_type_id":"4","last_reported":1724958461,"current_range_meters":0,"station_id":"ce4bhbp2rcd13ifvqesg","pricing_plan_id":"cebpf4jnsgd1na2vs0mg"},{"bike_id":"f96ebb4a-4d31-41a0-b6fe-20fd7fb3edc5","system_id":"levelo_inurba_marseille","lat":43.29271,"lon":5.36846,"is_reserved":false,"is_disabled":false,"rental_uris":{"android":"levelo://app?vid=f96ebb4a-4d31-41a0-b6fe-20fd7fb3edc5","ios":"levelo://app?vid=f96ebb4a-4d31-41a0-b6fe-20fd7fb3edc5"},"vehicle_type_id":"4","last_reported":1724958461,"current_range_meters":31200,"station_id":"ce4bhbp2rcd13ifvqesg","pricing_plan_id":"cebpf4jnsgd1na2vs0mg"},{"bike_id":"47c474e1-ed2d-44df-9016-7401d3dbf82f","system_id":"levelo_inurba_marseille","lat":43.29262,"lon":5.36862,"is_reserved":false,"is_disabled":false,"rental_uris":{"android":"levelo://app?vid=47c474e1-ed2d-44df-9016-7401d3dbf82f","ios":"levelo://app?vid=47c474e1-ed2d-44df-9016-7401d3dbf82f"},"vehicle_type_id":"4","last_reported":1724958461,"current_range_meters":30800,"station_id":"ce4bhbp2rcd13ifvqesg","pricing_plan_id":"cebpf4jnsgd1na2vs0mg"},{"bike_id":"16ebd82a-49ea-450d-bbc1-e338dfc1a5ac","system_id":"levelo_inurba_marseille","lat":43.29241,"lon":5.36709,"is_reserved":false,"is_disabled":false,"rental_uris":{"android":"levelo://app?vid=16ebd82a-49ea-450d-bbc1-e338dfc1a5ac","ios":"levelo://app?vid=16ebd82a-49ea-450d-bbc1-e338dfc1a5ac"},"vehicle_type_id":"4","last_reported":1724958461,"current_range_meters":0,"station_id":"","pricing_plan_id":"cebpf4jnsgd1na2vs0mg"},{"bike_id":"2d7786a5-1f58-43fb-868a-46df12c96127","system_id":"levelo_inurba_marseille","lat":43.293061,"lon":5.374489,"is_reserved":false,"is_disabled":false,"rental_uris":{"android":"levelo://app?vid=2d7786a5-1f58-43fb-868a-46df12c96127","ios":"levelo://app?vid=2d7786a5-1f58-43fb-868a-46df12c96127"},"vehicle_type_id":"4","last_reported":1724958461,"current_range_meters":31200,"station_id":"ce4bgi12rcd13ifvqb70","pricing_plan_id":"cebpf4jnsgd1na2vs0mg"},{"bike_id":"cc96417a-0b2a-4433-8f44-1b399b756dcc","system_id":"levelo_inurba_marseille","lat":43.293009,"lon":5.374584,"is_reserved":false,"is_disabled":false,"rental_uris":{"android":"levelo://app?vid=cc96417a-0b2a-4433-8f44-1b399b756dcc","ios":"levelo://app?vid=cc96417a-0b2a-4433-8f44-1b399b756dcc"},"vehicle_type_id":"4","last_reported":1724958461,"current_range_meters":0,"station_id":"ce4bgi12rcd13ifvqb70","pricing_plan_id":"cebpf4jnsgd1na2vs0mg"},{"bike_id":"cf2ff20c-04c3-48b1-8eb9-dee667f27918","system_id":"levelo_inurba_marseille","lat":43.305994,"lon":5.393687,"is_reserved":false,"is_disabled":false,"rental_uris":{"android":"levelo://app?vid=cf2ff20c-04c3-48b1-8eb9-dee667f27918","ios":"levelo://app?vid=cf2ff20c-04c3-48b1-8eb9-dee667f27918"},"vehicle_type_id":"4","last_reported":1724958461,"current_range_meters":31200,"station_id":"ce4bh0p2rcd13ifvqd80","pricing_plan_id":"cebpf4jnsgd1na2vs0mg"},{"bike_id":"daec53eb-ee08-4bff-8701-12585d6889c3","system_id":"levelo_inurba_marseille","lat":43.305994,"lon":5.393687,"is_reserved":false,"is_disabled":false,"rental_uris":{"android":"levelo://app?vid=daec53eb-ee08-4bff-8701-12585d6889c3","ios":"levelo://app?vid=daec53eb-ee08-4bff-8701-12585d6889c3"},"vehicle_type_id":"4","last_reported":1724958461,"current_range_meters":31200,"station_id":"ce4bh0p2rcd13ifvqd80","pricing_plan_id":"cebpf4jnsgd1na2vs0mg"},{"bike_id":"35c6e1c0-765a-4c91-a3b3-4b4976a45760","system_id":"levelo_inurba_marseille","lat":43.2929,"lon":5.3745,"is_reserved":false,"is_disabled":false,"rental_uris":{"android":"levelo://app?vid=35c6e1c0-765a-4c91-a3b3-4b4976a45760","ios":"levelo://app?vid=35c6e1c0-765a-4c91-a3b3-4b4976a45760"},"vehicle_type_id":"4","last_reported":1724958461,"current_range_meters":14800,"station_id":"ce4bgi12rcd13ifvqb70","pricing_plan_id":"cebpf4jnsgd1na2vs0mg"},{"bike_id":"2ece1375-6389-4855-a69e-bd701ea572f2","system_id":"levelo_inurba_marseille","lat":43.293009,"lon":5.374584,"is_reserved":false,"is_disabled":false,"rental_uris":{"android":"levelo://app?vid=2ece1375-6389-4855-a69e-bd701ea572f2","ios":"levelo://app?vid=2ece1375-6389-4855-a69e-bd701ea572f2"},"vehicle_type_id":"4","last_reported":1724958461,"current_range_meters":0,"station_id":"ce4bgi12rcd13ifvqb70","pricing_plan_id":"cebpf4jnsgd1na2vs0mg"},{"bike_id":"9c6887de-ef7d-4c25-a492-ffe1dca557e7","system_id":"levelo_inurba_marseille","lat":43.302992,"lon":5.392136,"is_reserved":false,"is_disabled":false,"rental_uris":{"android":"levelo://app?vid=9c6887de-ef7d-4c25-a492-ffe1dca557e7","ios":"levelo://app?vid=9c6887de-ef7d-4c25-a492-ffe1dca557e7"},"vehicle_type_id":"4","last_reported":1724958461,"current_range_meters":24400,"station_id":"ce4bgkh2rcd13ifvqbk0","pricing_plan_id":"cebpf4jnsgd1na2vs0mg"},{"bike_id":"7186fe8a-8336-4ef0-ba78-92b0730fb2e2","system_id":"levelo_inurba_marseille","lat":43.303002,"lon":5.392142,"is_reserved":false,"is_disabled":false,"rental_uris":{"android":"levelo://app?vid=7186fe8a-8336-4ef0-ba78-92b0730fb2e2","ios":"levelo://app?vid=7186fe8a-8336-4ef0-ba78-92b0730fb2e2"},"vehicle_type_id":"4","last_reported":1724958461,"current_range_meters":14800,"station_id":"ce4bgkh2rcd13ifvqbk0","pricing_plan_id":"cebpf4jnsgd1na2vs0mg"},{"bike_id":"010f7c73-d4bc-4e35-af74-1060ad5003f1","system_id":"levelo_inurba_marseille","lat":43.2936,"lon":5.37835,"is_reserved":false,"is_disabled":false,"rental_uris":{"android":"levelo://app?vid=010f7c73-d4bc-4e35-af74-1060ad5003f1","ios":"levelo://app?vid=010f7c73-d4bc-4e35-af74-1060ad5003f1"},"vehicle_type_id":"4","last_reported":1724958461,"current_range_meters":0,"station_id":"ce4bgjh2rcd13ifvqbf0","pricing_plan_id":"cebpf4jnsgd1na2vs0mg"},{"bike_id":"f584a0a8-f669-4773-9729-9c1b26e18bf4","system_id":"levelo_inurba_marseille","lat":43.2936,"lon":5.37835,"is_reserved":false,"is_disabled":false,"rental_uris":{"android":"levelo://app?vid=f584a0a8-f669-4773-9729-9c1b26e18bf4","ios":"levelo://app?vid=f584a0a8-f669-4773-9729-9c1b26e18bf4"},"vehicle_type_id":"4","last_reported":1724958461,"current_range_meters":20000,"station_id":"ce4bgjh2rcd13ifvqbf0","pricing_plan_id":"cebpf4jnsgd1na2vs0mg"},{"bike_id":"db9d8209-3a5a-4fa2-a08c-146806b1a0ef","system_id":"levelo_inurba_marseille","lat":43.30085,"lon":5.390856,"is_reserved":false,"is_disabled":false,"rental_uris":{"android":"levelo://app?vid=db9d8209-3a5a-4fa2-a08c-146806b1a0ef","ios":"levelo://app?vid=db9d8209-3a5a-4fa2-a08c-146806b1a0ef"},"vehicle_type_id":"4","last_reported":1724958461,"current_range_meters":20000,"station_id":"ce4bh192rcd13ifvqdb0","pricing_plan_id":"cebpf4jnsgd1na2vs0mg"},{"bike_id":"4508f175-1b93-4c63-8cb7-97045511a395","system_id":"levelo_inurba_marseille","lat":43.30085,"lon":5.390856,"is_reserved":false,"is_disabled":false,"rental_uris":{"android":"levelo://app?vid=4508f175-1b93-4c63-8cb7-97045511a395","ios":"levelo://app?vid=4508f175-1b93-4c63-8cb7-97045511a395"},"vehicle_type_id":"4","last_reported":1724958461,"current_range_meters":22800,"station_id":"ce4bh192rcd13ifvqdb0","pricing_plan_id":"cebpf4jnsgd1na2vs0mg"},{"bike_id":"cfd1b6df-8565-4e0c-8398-e48533379694","system_id":"levelo_inurba_marseille","lat":43.29887,"lon":5.38892,"is_reserved":false,"is_disabled":false,"rental_uris":{"android":"levelo://app?vid=cfd1b6df-8565-4e0c-8398-e48533379694","ios":"levelo://app?vid=cfd1b6df-8565-4e0c-8398-e48533379694"},"vehicle_type_id":"4","last_reported":1724958461,"current_range_meters":0,"station_id":"ce4bh392rcd13ifvqdl0","pricing_plan_id":"cebpf4jnsgd1na2vs0mg"},{"bike_id":"09071b57-31bb-4ce0-88be-d497029fbb0b","system_id":"levelo_inurba_marseille","lat":43.298764,"lon":5.388973,"is_reserved":false,"is_disabled":false,"rental_uris":{"android":"levelo://app?vid=09071b57-31bb-4ce0-88be-d497029fbb0b","ios":"levelo://app?vid=09071b57-31bb-4ce0-88be-d497029fbb0b"},"vehicle_type_id":"4","last_reported":1724958461,"current_range_meters":22000,"station_id":"ce4bh392rcd13ifvqdl0","pricing_plan_id":"cebpf4jnsgd1na2vs0mg"},{"bike_id":"9bf258a8-7a2f-4c7a-b41c-34d6c60c67a8","system_id":"levelo_inurba_marseille","lat":43.291675,"lon":5.371583,"is_reserved":false,"is_disabled":false,"rental_uris":{"android":"levelo://app?vid=9bf258a8-7a2f-4c7a-b41c-34d6c60c67a8","ios":"levelo://app?vid=9bf258a8-7a2f-4c7a-b41c-34d6c60c67a8"},"vehicle_type_id":"4","last_reported":1724958461,"current_range_meters":24800,"station_id":"ce4bha92rcd13ifvqeh0","pricing_plan_id":"cebpf4jnsgd1na2vs0mg"},{"bike_id":"1f738ec2-7bc8-41a3-b4b7-e3b22ce6fc2d","system_id":"levelo_inurba_marseille","lat":43.29199,"lon":5.35802,"is_reserved":false,"is_disabled":false,"rental_uris":{"android":"levelo://app?vid=1f738ec2-7bc8-41a3-b4b7-e3b22ce6fc2d","ios":"levelo://app?vid=1f738ec2-7bc8-41a3-b4b7-e3b22ce6fc2d"},"vehicle_type_id":"4","last_reported":1724958461,"current_range_meters":0,"station_id":"ce4bhb12rcd13ifvqel0","pricing_plan_id":"cebpf4jnsgd1na2vs0mg"},{"bike_id":"4fb4d440-f0ef-4410-bdce-fb8e17bc3063","system_id":"levelo_inurba_marseille","lat":43.313291,"lon":5.396838,"is_reserved":false,"is_disabled":false,"rental_uris":{"android":"levelo://app?vid=4fb4d440-f0ef-4410-bdce-fb8e17bc3063","ios":"levelo://app?vid=4fb4d440-f0ef-4410-bdce-fb8e17bc3063"},"vehicle_type_id":"4","last_reported":1724958461,"current_range_meters":3600,"station_id":"ce4bgvp2rcd13ifvqcu0","pricing_plan_id":"cebpf4jnsgd1na2vs0mg"},{"bike_id":"a973517f-2b79-4dd8-a78a-b88442a7c1ab","system_id":"levelo_inurba_marseille","lat":43.309038,"lon":5.396546,"is_reserved":false,"is_disabled":false,"rental_uris":{"android":"levelo://app?vid=a973517f-2b79-4dd8-a78a-b88442a7c1ab","ios":"levelo://app?vid=a973517f-2b79-4dd8-a78a-b88442a7c1ab"},"vehicle_type_id":"4","last_reported":1724958461,"current_range_meters":400,"station_id":"ce4bh012rcd13ifvqcv0","pricing_plan_id":"cebpf4jnsgd1na2vs0mg"},{"bike_id":"c1a47045-abe2-4cb5-9116-cc9ed0ed45b3","system_id":"levelo_inurba_marseille","lat":43.313291,"lon":5.396838,"is_reserved":false,"is_disabled":false,"rental_uris":{"android":"levelo://app?vid=c1a47045-abe2-4cb5-9116-cc9ed0ed45b3","ios":"levelo://app?vid=c1a47045-abe2-4cb5-9116-cc9ed0ed45b3"},"vehicle_type_id":"4","last_reported":1724958461,"current_range_meters":22000,"station_id":"ce4bgvp2rcd13ifvqcu0","pricing_plan_id":"cebpf4jnsgd1na2vs0mg"},{"bike_id":"796365c6-df32-44e4-bd04-9f0dd18f6ae3","system_id":"levelo_inurba_marseille","lat":43.31333,"lon":5.39693,"is_reserved":false,"is_disabled":false,"rental_uris":{"android":"levelo://app?vid=796365c6-df32-44e4-bd04-9f0dd18f6ae3","ios":"levelo://app?vid=796365c6-df32-44e4-bd04-9f0dd18f6ae3"},"vehicle_type_id":"4","last_reported":1724958461,"current_range_meters":0,"station_id":"ce4bgvp2rcd13ifvqcu0","pricing_plan_id":"cebpf4jnsgd1na2vs0mg"},{"bike_id":"20f68684-f4c0-4b91-beec-1055a6aa40df","system_id":"levelo_inurba_marseille","lat":43.291739,"lon":5.375211,"is_reserved":false,"is_disabled":false,"rental_uris":{"android":"levelo://app?vid=20f68684-f4c0-4b91-beec-1055a6aa40df","ios":"levelo://app?vid=20f68684-f4c0-4b91-beec-1055a6aa40df"},"vehicle_type_id":"4","last_reported":1724958461,"current_range_meters":0,"station_id":"","pricing_plan_id":"cebpf4jnsgd1na2vs0mg"},{"bike_id":"b4164c6c-f34d-4b45-ad2a-8f05b06f1c4b","system_id":"levelo_inurba_marseille","lat":43.313291,"lon":5.396838,"is_reserved":false,"is_disabled":false,"rental_uris":{"android":"levelo://app?vid=b4164c6c-f34d-4b45-ad2a-8f05b06f1c4b","ios":"levelo://app?vid=b4164c6c-f34d-4b45-ad2a-8f05b06f1c4b"},"vehicle_type_id":"4","last_reported":1724958461,"current_range_meters":16000,"station_id":"ce4bgvp2rcd13ifvqcu0","pricing_plan_id":"cebpf4jnsgd1na2vs0mg"},{"bike_id":"572a5e7f-aa94-444b-ba52-ab3851697ac0","system_id":"levelo_inurba_marseille","lat":43.313291,"lon":5.396838,"is_reserved":false,"is_disabled":false,"rental_uris":{"android":"levelo://app?vid=572a5e7f-aa94-444b-ba52-ab3851697ac0","ios":"levelo://app?vid=572a5e7f-aa94-444b-ba52-ab3851697ac0"},"vehicle_type_id":"4","last_reported":1724958461,"current_range_meters":16400,"station_id":"ce4bgvp2rcd13ifvqcu0","pricing_plan_id":"cebpf4jnsgd1na2vs0mg"},{"bike_id":"7889adf1-e96b-4869-9d0d-59e4d64d4624","system_id":"levelo_inurba_marseille","lat":43.309038,"lon":5.396546,"is_reserved":false,"is_disabled":false,"rental_uris":{"android":"levelo://app?vid=7889adf1-e96b-4869-9d0d-59e4d64d4624","ios":"levelo://app?vid=7889adf1-e96b-4869-9d0d-59e4d64d4624"},"vehicle_type_id":"4","last_reported":1724958461,"current_range_meters":0,"station_id":"ce4bh012rcd13ifvqcv0","pricing_plan_id":"cebpf4jnsgd1na2vs0mg"},{"bike_id":"a5481722-044e-4ef3-8238-f51c6d137c6b","system_id":"levelo_inurba_marseille","lat":43.29529,"lon":5.385581,"is_reserved":false,"is_disabled":false,"rental_uris":{"android":"levelo://app?vid=a5481722-044e-4ef3-8238-f51c6d137c6b","ios":"levelo://app?vid=a5481722-044e-4ef3-8238-f51c6d137c6b"},"vehicle_type_id":"4","last_reported":1724958461,"current_range_meters":32000,"station_id":"ce4bgih2rcd13ifvqba0","pricing_plan_id":"cebpf4jnsgd1na2vs0mg"},{"bike_id":"b73d8cae-04c4-4adf-aba2-451edbd953d8","system_id":"levelo_inurba_marseille","lat":43.29529,"lon":5.385581,"is_reserved":false,"is_disabled":false,"rental_uris":{"android":"levelo://app?vid=b73d8cae-04c4-4adf-aba2-451edbd953d8","ios":"levelo://app?vid=b73d8cae-04c4-4adf-aba2-451edbd953d8"},"vehicle_type_id":"4","last_reported":1724958461,"current_range_meters":30000,"station_id":"ce4bgih2rcd13ifvqba0","pricing_plan_id":"cebpf4jnsgd1na2vs0mg"},{"bike_id":"994d4b8d-5cd1-4388-9271-d2af02b70dc7","system_id":"levelo_inurba_marseille","lat":43.29529,"lon":5.385581,"is_reserved":false,"is_disabled":false,"rental_uris":{"android":"levelo://app?vid=994d4b8d-5cd1-4388-9271-d2af02b70dc7","ios":"levelo://app?vid=994d4b8d-5cd1-4388-9271-d2af02b70dc7"},"vehicle_type_id":"4","last_reported":1724958461,"current_range_meters":30400,"station_id":"ce4bgih2rcd13ifvqba0","pricing_plan_id":"cebpf4jnsgd1na2vs0mg"},{"bike_id":"855ced57-e86f-40a7-a906-a8412c1ea1cf","system_id":"levelo_inurba_marseille","lat":43.29529,"lon":5.385581,"is_reserved":false,"is_disabled":false,"rental_uris":{"android":"levelo://app?vid=855ced57-e86f-40a7-a906-a8412c1ea1cf","ios":"levelo://app?vid=855ced57-e86f-40a7-a906-a8412c1ea1cf"},"vehicle_type_id":"4","last_reported":1724958461,"current_range_meters":14800,"station_id":"ce4bgih2rcd13ifvqba0","pricing_plan_id":"cebpf4jnsgd1na2vs0mg"},{"bike_id":"717db744-408c-4bcf-9428-68fdbcd07730","system_id":"levelo_inurba_marseille","lat":43.29535,"lon":5.38547,"is_reserved":false,"is_disabled":false,"rental_uris":{"android":"levelo://app?vid=717db744-408c-4bcf-9428-68fdbcd07730","ios":"levelo://app?vid=717db744-408c-4bcf-9428-68fdbcd07730"},"vehicle_type_id":"4","last_reported":1724958461,"current_range_meters":16000,"station_id":"ce4bgih2rcd13ifvqba0","pricing_plan_id":"cebpf4jnsgd1na2vs0mg"},{"bike_id":"8a0a7e93-eaee-4bb6-aee6-3cf884a8d36b","system_id":"levelo_inurba_marseille","lat":43.29529,"lon":5.385581,"is_reserved":false,"is_disabled":false,"rental_uris":{"android":"levelo://app?vid=8a0a7e93-eaee-4bb6-aee6-3cf884a8d36b","ios":"levelo://app?vid=8a0a7e93-eaee-4bb6-aee6-3cf884a8d36b"},"vehicle_type_id":"4","last_reported":1724958461,"current_range_meters":16800,"station_id":"ce4bgih2rcd13ifvqba0","pricing_plan_id":"cebpf4jnsgd1na2vs0mg"},{"bike_id":"d9d22235-a3a8-4c0b-81f5-30e2099f8094","system_id":"levelo_inurba_marseille","lat":43.29529,"lon":5.385581,"is_reserved":false,"is_disabled":false,"rental_uris":{"android":"levelo://app?vid=d9d22235-a3a8-4c0b-81f5-30e2099f8094","ios":"levelo://app?vid=d9d22235-a3a8-4c0b-81f5-30e2099f8094"},"vehicle_type_id":"4","last_reported":1724958461,"current_range_meters":22400,"station_id":"ce4bgih2rcd13ifvqba0","pricing_plan_id":"cebpf4jnsgd1na2vs0mg"},{"bike_id":"6a51ba0d-1e43-4a63-94dd-703dd06b65ca","system_id":"levelo_inurba_marseille","lat":43.29529,"lon":5.385581,"is_reserved":false,"is_disabled":false,"rental_uris":{"android":"levelo://app?vid=6a51ba0d-1e43-4a63-94dd-703dd06b65ca","ios":"levelo://app?vid=6a51ba0d-1e43-4a63-94dd-703dd06b65ca"},"vehicle_type_id":"4","last_reported":1724958461,"current_range_meters":18800,"station_id":"ce4bgih2rcd13ifvqba0","pricing_plan_id":"cebpf4jnsgd1na2vs0mg"},{"bike_id":"24056170-ef96-434e-9e63-4976147bd828","system_id":"levelo_inurba_marseille","lat":43.29529,"lon":5.385581,"is_reserved":false,"is_disabled":false,"rental_uris":{"android":"levelo://app?vid=24056170-ef96-434e-9e63-4976147bd828","ios":"levelo://app?vid=24056170-ef96-434e-9e63-4976147bd828"},"vehicle_type_id":"4","last_reported":1724958461,"current_range_meters":0,"station_id":"ce4bgih2rcd13ifvqba0","pricing_plan_id":"cebpf4jnsgd1na2vs0mg"},{"bike_id":"3b461280-da4a-4720-8a90-01cd6bab6b2d","system_id":"levelo_inurba_marseille","lat":43.29529,"lon":5.385581,"is_reserved":false,"is_disabled":false,"rental_uris":{"android":"levelo://app?vid=3b461280-da4a-4720-8a90-01cd6bab6b2d","ios":"levelo://app?vid=3b461280-da4a-4720-8a90-01cd6bab6b2d"},"vehicle_type_id":"4","last_reported":1724958461,"current_range_meters":800,"station_id":"ce4bgih2rcd13ifvqba0","pricing_plan_id":"cebpf4jnsgd1na2vs0mg"},{"bike_id":"2d102a72-9a02-4ef7-beeb-d58e4e640ff7","system_id":"levelo_inurba_marseille","lat":43.29529,"lon":5.385581,"is_reserved":false,"is_disabled":false,"rental_uris":{"android":"levelo://app?vid=2d102a72-9a02-4ef7-beeb-d58e4e640ff7","ios":"levelo://app?vid=2d102a72-9a02-4ef7-beeb-d58e4e640ff7"},"vehicle_type_id":"4","last_reported":1724958461,"current_range_meters":4400,"station_id":"ce4bgih2rcd13ifvqba0","pricing_plan_id":"cebpf4jnsgd1na2vs0mg"},{"bike_id":"8e50facd-c27d-459d-aa51-167a291271cc","system_id":"levelo_inurba_marseille","lat":43.29529,"lon":5.385581,"is_reserved":false,"is_disabled":false,"rental_uris":{"android":"levelo://app?vid=8e50facd-c27d-459d-aa51-167a291271cc","ios":"levelo://app?vid=8e50facd-c27d-459d-aa51-167a291271cc"},"vehicle_type_id":"4","last_reported":1724958461,"current_range_meters":22800,"station_id":"ce4bgih2rcd13ifvqba0","pricing_plan_id":"cebpf4jnsgd1na2vs0mg"},{"bike_id":"c3a9f50d-45c0-4f44-9d99-349a7f2d5346","system_id":"levelo_inurba_marseille","lat":43.29529,"lon":5.385581,"is_reserved":false,"is_disabled":false,"rental_uris":{"android":"levelo://app?vid=c3a9f50d-45c0-4f44-9d99-349a7f2d5346","ios":"levelo://app?vid=c3a9f50d-45c0-4f44-9d99-349a7f2d5346"},"vehicle_type_id":"4","last_reported":1724958461,"current_range_meters":26800,"station_id":"ce4bgih2rcd13ifvqba0","pricing_plan_id":"cebpf4jnsgd1na2vs0mg"},{"bike_id":"77bfe8db-4846-437a-a027-d896034e39b5","system_id":"levelo_inurba_marseille","lat":43.29529,"lon":5.385581,"is_reserved":false,"is_disabled":false,"rental_uris":{"android":"levelo://app?vid=77bfe8db-4846-437a-a027-d896034e39b5","ios":"levelo://app?vid=77bfe8db-4846-437a-a027-d896034e39b5"},"vehicle_type_id":"4","last_reported":1724958461,"current_range_meters":20000,"station_id":"ce4bgih2rcd13ifvqba0","pricing_plan_id":"cebpf4jnsgd1na2vs0mg"},{"bike_id":"4a64bce1-a213-492b-8e7c-3b971267d00f","system_id":"levelo_inurba_marseille","lat":43.29529,"lon":5.385581,"is_reserved":false,"is_disabled":false,"rental_uris":{"android":"levelo://app?vid=4a64bce1-a213-492b-8e7c-3b971267d00f","ios":"levelo://app?vid=4a64bce1-a213-492b-8e7c-3b971267d00f"},"vehicle_type_id":"4","last_reported":1724958461,"current_range_meters":20400,"station_id":"ce4bgih2rcd13ifvqba0","pricing_plan_id":"cebpf4jnsgd1na2vs0mg"},{"bike_id":"38b36c75-0862-49f5-b08a-38207ccf0c54","system_id":"levelo_inurba_marseille","lat":43.29529,"lon":5.385581,"is_reserved":false,"is_disabled":false,"rental_uris":{"android":"levelo://app?vid=38b36c75-0862-49f5-b08a-38207ccf0c54","ios":"levelo://app?vid=38b36c75-0862-49f5-b08a-38207ccf0c54"},"vehicle_type_id":"4","last_reported":1724958461,"current_range_meters":12400,"station_id":"ce4bgih2rcd13ifvqba0","pricing_plan_id":"cebpf4jnsgd1na2vs0mg"},