{"last_updated":1740949707,"ttl":60,"version":"2.2","data":{"bikes":[{"bike_id":"819fc6fd-4768-4c11-82f9-0b5fd0b62d4a","system_id":"levelo_inurba_marseille","lat":43.34248,"lon":5.37796,"is_reserved":false,"is_disabled":true,"rental_uris":{"android":"levelo://app?vid=819fc6fd-4768-4c11-82f9-0b5fd0b62d4a","ios":"levelo://app?vid=819fc6fd-4768-4c11-82f9-0b5fd0b62d4a"},"vehicle_type_id":"4","last_reported":1740949707,"current_range_meters":0,"station_id":"","pricing_plan_id":"cebpf4jnsgd1na2vs0mg"},{"bike_id":"303c2b96-5131-48b9-8dd0-e5a82865f4bc","system_id":"levelo_inurba_marseille","lat":43.35351,"lon":5.36554,"is_reserved":false,"is_disabled":true,"rental_uris":{"android":"levelo://app?vid=303c2b96-5131-48b9-8dd0-e5a82865f4bc","ios":"levelo://app?vid=303c2b96-5131-48b9-8dd0-e5a82865f4bc"},"vehicle_type_id":"4","last_reported":1740949707,"current_range_meters":0,"station_id":"","pricing_plan_id":"cebpf4jnsgd1na2vs0mg"},{"bike_id":"d5458f89-73a3-43f1-9894-000389f52995","system_id":"levelo_inurba_marseille","lat":43.27607,"lon":5.41505,"is_reserved":false,"is_disabled":true,"rental_uris":{"android":"levelo://app?vid=d5458f89-73a3-43f1-9894-000389f52995","ios":"levelo://app?vid=d5458f89-73a3-43f1-9894-000389f52995"},"vehicle_type_id":"4","last_reported":1740949707,"current_range_meters":0,"station_id":"","pricing_plan_id":"cebpf4jnsgd1na2vs0mg"},{"bike_id":"ea6a02cb-3810-403c-ab47-423df20fff9f","system_id":"levelo_inurba_marseille","lat":43.28847,"lon":5.44873,"is_reserved":false,"is_disabled":true,"rental_uris":{"android":"levelo://app?vid=ea6a02cb-3810-403c-ab47-423df20fff9f","ios":"levelo://app?vid=ea6a02cb-3810-403c-ab47-423df20fff9f"},"vehicle_type_id":"4","last_reported":1740949707,"current_range_meters":0,"station_id":"","pricing_plan_id":"cebpf4jnsgd1na2vs0mg"},{"bike_id":"bbfd2121-d605-4774-ba32-5ad06351b622","system_id":"levelo_inurba_marseille","lat":43.31401,"lon":5.3855,"is_reserved":false,"is_disabled":true,"rental_uris":{"android":"levelo://app?vid=bbfd2121-d605-4774-ba32-5ad06351b622","ios":"levelo://app?vid=bbfd2121-d605-4774-ba32-5ad06351b622"},"vehicle_type_id":"4","last_reported":1740949707,"current_range_meters":0,"station_id":"","pricing_plan_id":"cebpf4jnsgd1na2vs0mg"},{"bike_id":"afcec8eb-28d8-4889-8879-0897cb5957e3","system_id":"levelo_inurba_marseille","lat":43.27989,"lon":5.40601,"is_reserved":false,"is_disabled":true,"rental_uris":{"android":"levelo://app?vid=afcec8eb-28d8-4889-8879-0897cb5957e3","ios":"levelo://app?vid=afcec8eb-28d8-4889-8879-0897cb5957e3"},"vehicle_type_id":"4","last_reported":1740949707,"current_range_meters":0,"station_id":"","pricing_plan_id":"cebpf4jnsgd1na2vs0mg"},{"bike_id":"7299c7f5-b19a-415a-98fb-92e8f867f54e","system_id":"levelo_inurba_marseille","lat":43.31684,"lon":5.39713,"is_reserved":false,"is_disabled":true,"rental_uris":{"android":"levelo://app?vid=7299c7f5-b19a-415a-98fb-92e8f867f54e","ios":"levelo://app?vid=7299c7f5-b19a-415a-98fb-92e8f867f54e"},"vehicle_type_id":"4","last_reported":1740949707,"current_range_meters":0,"station_id":"","pricing_plan_id":"cebpf4jnsgd1na2vs0mg"},{"bike_id":"aa37c472-82c2-4d53-879a-25881fca771e","system_id":"levelo_inurba_marseille","lat":43.31227,"lon":5.36831,"is_reserved":false,"is_disabled":true,"rental_uris":{"android":"levelo://app?vid=aa37c472-82c2-4d53-879a-25881fca771e","ios":"levelo://app?vid=aa37c472-82c2-4d53-879a-25881fca771e"},"vehicle_type_id":"4","last_reported":1740949707,"current_range_meters":0,"station_id":"ce4bgl92rcd13ifvqbq0","pricing_plan_id":"cebpf4jnsgd1na2vs0mg"},{"bike_id":"ec5839fe-f775-4eb6-8517-1e3cbc51f490","system_id":"levelo_inurba_marseille","lat":43.31248,"lon":5.36899,"is_reserved":false,"is_disabled":true,"rental_uris":{"android":"levelo://app?vid=ec5839fe-f775-4eb6-8517-1e3cbc51f490","ios":"levelo://app?vid=ec5839fe-f775-4eb6-8517-1e3cbc51f490"},"vehicle_type_id":"4","last_reported":1740949707,"current_range_meters":0,"station_id":"ce4bgl92rcd13ifvqbq0","pricing_plan_id":"cebpf4jnsgd1na2vs0mg"},{"bike_id":"f196a785-9f77-41c7-872a-663d71337354","system_id":"levelo_inurba_marseille","lat":43.27213,"lon":5.39193,"is_reserved":false,"is_disabled":true,"rental_uris":{"android":"levelo://app?vid=f196a785-9f77-41c7-872a-663d71337354","ios":"levelo://app?vid=f196a785-9f77-41c7-872a-663d71337354"},"vehicle_type_id":"4","last_reported":1740949707,"current_range_meters":0,"station_id":"ce4bhhp2rcd13ifvqfm0","pricing_plan_id":"cebpf4jnsgd1na2vs0mg"},{"bike_id":"0a8d7b22-b944-424e-9c15-dca5e109b2fc","system_id":"levelo_inurba_marseille","lat":43.23963,"lon":5.36629,"is_reserved":false,"is_disabled":true,"rental_uris":{"android":"levelo://app?vid=0a8d7b22-b944-424e-9c15-dca5e109b2fc","ios":"levelo://app?vid=0a8d7b22-b944-424e-9c15-dca5e109b2fc"},"vehicle_type_id":"4","last_reported":1740949707,"current_range_meters":0,"station_id":"ce4bhi12rcd13ifvqfp0","pricing_plan_id":"cebpf4jnsgd1na2vs0mg"},{"bike_id":"07b77577-e8a4-4f1c-8356-a31af5db79f7","system_id":"levelo_inurba_marseille","lat":43.25723,"lon":5.4112,"is_reserved":false,"is_disabled":true,"rental_uris":{"android":"levelo://app?vid=07b77577-e8a4-4f1c-8356-a31af5db79f7","ios":"levelo://app?vid=07b77577-e8a4-4f1c-8356-a31af5db79f7"},"vehicle_type_id":"4","last_reported":1740949707,"current_range_meters":0,"station_id":"ce4bhkp2rcd13ifvqgd0","pricing_plan_id":"cebpf4jnsgd1na2vs0mg"},{"bike_id":"5470a9d6-cc14-47be-aa41-6413d29a0781","system_id":"levelo_inurba_marseille","lat":43.23149,"lon":5.43694,"is_reserved":false,"is_disabled":true,"rental_uris":{"android":"levelo://app?vid=5470a9d6-cc14-47be-aa41-6413d29a0781","ios":"levelo://app?vid=5470a9d6-cc14-47be-aa41-6413d29a0781"},"vehicle_type_id":"4","last_reported":1740949707,"current_range_meters":0,"station_id":"ce4bhmp2rcd13ifvqgog","pricing_plan_id":"cebpf4jnsgd1na2vs0mg"},{"bike_id":"5609c11d-c924-48d2-ad68-1c5fbdf05b0f","system_id":"levelo_inurba_marseille","lat":43.28457,"lon":5.39194,"is_reserved":false,"is_disabled":true,"rental_uris":{"android":"levelo://app?vid=5609c11d-c924-48d2-ad68-1c5fbdf05b0f","ios":"levelo://app?vid=5609c11d-c924-48d2-ad68-1c5fbdf05b0f"},"vehicle_type_id":"4","last_reported":1740949707,"current_range_meters":0,"station_id":"ce4bhoh2rcd13ifvqh5g","pricing_plan_id":"cebpf4jnsgd1na2vs0mg"},{"bike_id":"7bc7214f-a3c9-4502-bee5-eed4c6aa5a68","system_id":"levelo_inurba_marseille","lat":43.32678,"lon":5.41022,"is_reserved":false,"is_disabled":true,"rental_uris":{"android":"levelo://app?vid=7bc7214f-a3c9-4502-bee5-eed4c6aa5a68","ios":"levelo://app?vid=7bc7214f-a3c9-4502-bee5-eed4c6aa5a68"},"vehicle_type_id":"4","last_reported":1740949707,"current_range_meters":0,"station_id":"ce4bhpp2rcd13ifvqhgg","pricing_plan_id":"cebpf4jnsgd1na2vs0mg"},{"bike_id":"2fc1305b-d3cb-40c8-8b32-1f0ec8747b95","system_id":"levelo_inurba_marseille","lat":43.26806,"lon":5.40252,"is_reserved":false,"is_disabled":true,"rental_uris":{"android":"levelo://app?vid=2fc1305b-d3cb-40c8-8b32-1f0ec8747b95","ios":"levelo://app?vid=2fc1305b-d3cb-40c8-8b32-1f0ec8747b95"},"vehicle_type_id":"4","last_reported":1740949707,"current_range_meters":0,"station_id":"ce501612rcd8frsf0b60","pricing_plan_id":"cebpf4jnsgd1na2vs0mg"},{"bike_id":"5e41ebac-b19a-42ea-ac5e-08806c6478bf","system_id":"levelo_inurba_marseille","lat":43.31188,"lon":5.38717,"is_reserved":false,"is_disabled":true,"rental_uris":{"android":"levelo://app?vid=5e41ebac-b19a-42ea-ac5e-08806c6478bf","ios":"levelo://app?vid=5e41ebac-b19a-42ea-ac5e-08806c6478bf"},"vehicle_type_id":"4","last_reported":1740949707,"current_range_meters":400,"station_id":"ce4bgv12rcd13ifvqcp0","pricing_plan_id":"cebpf4jnsgd1na2vs0mg"},{"bike_id":"f5cdbd46-c5c8-4cb6-902b-a441c586f8bf","system_id":"levelo_inurba_marseille","lat":43.30885,"lon":5.39648,"is_reserved":false,"is_disabled":true,"rental_uris":{"android":"levelo://app?vid=f5cdbd46-c5c8-4cb6-902b-a441c586f8bf","ios":"levelo://app?vid=f5cdbd46-c5c8-4cb6-902b-a441c586f8bf"},"vehicle_type_id":"4","last_reported":1740949707,"current_range_meters":400,"station_id":"ce4bh012rcd13ifvqcv0","pricing_plan_id":"cebpf4jnsgd1na2vs0mg"},{"bike_id":"d000173b-3e6e-46b8-9984-18e230b90d15","system_id":"levelo_inurba_marseille","lat":43.23185,"lon":5.35568,"is_reserved":false,"is_disabled":true,"rental_uris":{"android":"levelo://app?vid=d000173b-3e6e-46b8-9984-18e230b90d15","ios":"levelo://app?vid=d000173b-3e6e-46b8-9984-18e230b90d15"},"vehicle_type_id":"4","last_reported":1740949707,"current_range_meters":400,"station_id":"ce4bhu92rcd13ifvqi70","pricing_plan_id":"cebpf4jnsgd1na2vs0mg"},{"bike_id":"a65cb524-c756-42a0-9639-a6505770c05b","system_id":"levelo_inurba_marseille","lat":43.3504,"lon":5.36724,"is_reserved":false,"is_disabled":true,"rental_uris":{"android":"levelo://app?vid=a65cb524-c756-42a0-9639-a6505770c05b","ios":"levelo://app?vid=a65cb524-c756-42a0-9639-a6505770c05b"},"vehicle_type_id":"4","last_reported":1740949707,"current_range_meters":800,"station_id":"","pricing_plan_id":"cebpf4jnsgd1na2vs0mg"},{"bike_id":"6bead628-b45f-47a3-8763-22c7c035af2e","system_id":"levelo_inurba_marseille","lat":43.33213,"lon":5.39749,"is_reserved":false,"is_disabled":true,"rental_uris":{"android":"levelo://app?vid=6bead628-b45f-47a3-8763-22c7c035af2e","ios":"levelo://app?vid=6bead628-b45f-47a3-8763-22c7c035af2e"},"vehicle_type_id":"4","last_reported":1740949707,"current_range_meters":800,"station_id":"","pricing_plan_id":"cebpf4jnsgd1na2vs0mg"},{"bike_id":"04b3114d-71e2-4665-b060-3924ff591f86","system_id":"levelo_inurba_marseille","lat":43.28618,"lon":5.35105,"is_reserved":false,"is_disabled":true,"rental_uris":{"android":"levelo://app?vid=04b3114d-71e2-4665-b060-3924ff591f86","ios":"levelo://app?vid=04b3114d-71e2-4665-b060-3924ff591f86"},"vehicle_type_id":"4","last_reported":1740949707,"current_range_meters":800,"station_id":"ce4bhch2rcd13ifvqeug","pricing_plan_id":"cebpf4jnsgd1na2vs0mg"},{"bike_id":"37027680-60c8-47ac-a054-ecb5f9410b1d","system_id":"levelo_inurba_marseille","lat":43.28002,"lon":5.41711,"is_reserved":false,"is_disabled":true,"rental_uris":{"android":"levelo://app?vid=37027680-60c8-47ac-a054-ecb5f9410b1d","ios":"levelo://app?vid=37027680-60c8-47ac-a054-ecb5f9410b1d"},"vehicle_type_id":"4","last_reported":1740949707,"current_range_meters":800,"station_id":"ce4bho12rcd13ifvqh1g","pricing_plan_id":"cebpf4jnsgd1na2vs0mg"},{"bike_id":"297c0bb7-18e9-46f6-bbeb-ab0bf743200a","system_id":"levelo_inurba_marseille","lat":43.29557,"lon":5.42267,"is_reserved":false,"is_disabled":true,"rental_uris":{"android":"levelo://app?vid=297c0bb7-18e9-46f6-bbeb-ab0bf743200a","ios":"levelo://app?vid=297c0bb7-18e9-46f6-bbeb-ab0bf743200a"},"vehicle_type_id":"4","last_reported":1740949707,"current_range_meters":800,"station_id":"ce4bhph2rcd13ifvqhdg","pricing_plan_id":"cebpf4jnsgd1na2vs0mg"},{"bike_id":"10027b27-08ca-4a44-afad-6af8c728fc79","system_id":"levelo_inurba_marseille","lat":43.27543,"lon":5.38403,"is_reserved":false,"is_disabled":true,"rental_uris":{"android":"levelo://app?vid=10027b27-08ca-4a44-afad-6af8c728fc79","ios":"levelo://app?vid=10027b27-08ca-4a44-afad-6af8c728fc79"},"vehicle_type_id":"4","last_reported":1740949707,"current_range_meters":1200,"station_id":"ce4bhh92rcd13ifvqfi0","pricing_plan_id":"cebpf4jnsgd1na2vs0mg"},{"bike_id":"52690674-5b0e-402d-a883-3d692a7aaf0e","system_id":"levelo_inurba_marseille","lat":43.27849,"lon":5.3922,"is_reserved":false,"is_disabled":true,"rental_uris":{"android":"levelo://app?vid=52690674-5b0e-402d-a883-3d692a7aaf0e","ios":"levelo://app?vid=52690674-5b0e-402d-a883-3d692a7aaf0e"},"vehicle_type_id":"4","last_reported":1740949707,"current_range_meters":1200,"station_id":"ce4bhjp2rcd13ifvqga0","pricing_plan_id":"cebpf4jnsgd1na2vs0mg"},{"bike_id":"cafc6b7c-e658-40c8-abd3-ef3ab7526eb9","system_id":"levelo_inurba_marseille","lat":43.27492,"lon":5.42472,"is_reserved":false,"is_disabled":true,"rental_uris":{"android":"levelo://app?vid=cafc6b7c-e658-40c8-abd3-ef3ab7526eb9","ios":"levelo://app?vid=cafc6b7c-e658-40c8-abd3-ef3ab7526eb9"},"vehicle_type_id":"4","last_reported":1740949707,"current_range_meters":1200,"station_id":"ce4bhn92rcd13ifvqgrg","pricing_plan_id":"cebpf4jnsgd1na2vs0mg"},{"bike_id":"c9c6f74c-af47-4e7f-90fc-7a80a710863b","system_id":"levelo_inurba_marseille","lat":43.32373,"lon":5.38886,"is_reserved":false,"is_disabled":true,"rental_uris":{"android":"levelo://app?vid=c9c6f74c-af47-4e7f-90fc-7a80a710863b","ios":"levelo://app?vid=c9c6f74c-af47-4e7f-90fc-7a80a710863b"},"vehicle_type_id":"4","last_reported":1740949707,"current_range_meters":1200,"station_id":"ce4bhqp2rcd13ifvqhog","pricing_plan_id":"cebpf4jnsgd1na2vs0mg"},{"bike_id":"3b0617cd-034a-4e00-a26c-30bb9cda1e8f","system_id":"levelo_inurba_marseille","lat":43.31066,"lon":5.38347,"is_reserved":false,"is_disabled":true,"rental_uris":{"android":"levelo://app?vid=3b0617cd-034a-4e00-a26c-30bb9cda1e8f","ios":"levelo://app?vid=3b0617cd-034a-4e00-a26c-30bb9cda1e8f"},"vehicle_type_id":"4","last_reported":1740949707,"current_range_meters":1600,"station_id":"ce4bgv92rcd13ifvqcr0","pricing_plan_id":"cebpf4jnsgd1na2vs0mg"},{"bike_id":"421237ce-7755-41ec-8cfd-af76fccc96b5","system_id":"levelo_inurba_marseille","lat":43.27427,"lon":5.39412,"is_reserved":false,"is_disabled":true,"rental_uris":{"android":"levelo://app?vid=421237ce-7755-41ec-8cfd-af76fccc96b5","ios":"levelo://app?vid=421237ce-7755-41ec-8cfd-af76fccc96b5"},"vehicle_type_id":"4","last_reported":1740949707,"current_range_meters":1600,"station_id":"ce4bhdp2rcd13ifvqf20","pricing_plan_id":"cebpf4jnsgd1na2vs0mg"},{"bike_id":"e151f398-bc42-4dd9-9bc3-ea73757a0d45","system_id":"levelo_inurba_marseille","lat":43.3133,"lon":5.39694,"is_reserved":false,"is_disabled":true,"rental_uris":{"android":"levelo://app?vid=e151f398-bc42-4dd9-9bc3-ea73757a0d45","ios":"levelo://app?vid=e151f398-bc42-4dd9-9bc3-ea73757a0d45"},"vehicle_type_id":"4","last_reported":1740949707,"current_range_meters":2000,"station_id":"ce4bgvp2rcd13ifvqcu0","pricing_plan_id":"cebpf4jnsgd1na2vs0mg"},{"bike_id":"8f6ccb25-eead-40b2-a3a0-e6130c68a4ab","system_id":"levelo_inurba_marseille","lat":43.28574,"lon":5.39505,"is_reserved":false,"is_disabled":false,"rental_uris":{"android":"levelo://app?vid=8f6ccb25-eead-40b2-a3a0-e6130c68a4ab","ios":"levelo://app?vid=8f6ccb25-eead-40b2-a3a0-e6130c68a4ab"},"vehicle_type_id":"4","last_reported":1740949707,"current_range_meters":2000,"station_id":"ce4bh292rcd13ifvqdg0","pricing_plan_id":"cebpf4jnsgd1na2vs0mg"},{"bike_id":"09dd3675-3481-4067-a8c0-48ac686f0f03","system_id":"levelo_inurba_marseille","lat":43.27924,"lon":5.42652,"is_reserved":false,"is_disabled":false,"rental_uris":{"android":"levelo://app?vid=09dd3675-3481-4067-a8c0-48ac686f0f03","ios":"levelo://app?vid=09dd3675-3481-4067-a8c0-48ac686f0f03"},"vehicle_type_id":"4","last_reported":1740949707,"current_range_meters":2800,"station_id":"","pricing_plan_id":"cebpf4jnsgd1na2vs0mg"},{"bike_id":"78fe23d3-44a1-4b20-8edc-570083bb03c0","system_id":"levelo_inurba_marseille","lat":43.24997,"lon":5.38924,"is_reserved":false,"is_disabled":false,"rental_uris":{"android":"levelo://app?vid=78fe23d3-44a1-4b20-8edc-570083bb03c0","ios":"levelo://app?vid=78fe23d3-44a1-4b20-8edc-570083bb03c0"},"vehicle_type_id":"4","last_reported":1740949707,"current_range_meters":2800,"station_id":"ce4bhgp2rcd13ifvqfd0","pricing_plan_id":"cebpf4jnsgd1na2vs0mg"},{"bike_id":"452dcb55-19e7-4210-9210-4b976b4f3382","system_id":"levelo_inurba_marseille","lat":43.30354,"lon":5.4187,"is_reserved":false,"is_disabled":false,"rental_uris":{"android":"levelo://app?vid=452dcb55-19e7-4210-9210-4b976b4f3382","ios":"levelo://app?vid=452dcb55-19e7-4210-9210-4b976b4f3382"},"vehicle_type_id":"4","last_reported":1740949707,"current_range_meters":2800,"station_id":"ce4bhop2rcd13ifvqh7g","pricing_plan_id":"cebpf4jnsgd1na2vs0mg"},{"bike_id":"d5de36dd-5d22-4765-8f01-09ddd8b02c2e","system_id":"levelo_inurba_marseille","lat":43.32967,"lon":5.40883,"is_reserved":false,"is_disabled":false,"rental_uris":{"android":"levelo://app?vid=d5de36dd-5d22-4765-8f01-09ddd8b02c2e","ios":"levelo://app?vid=d5de36dd-5d22-4765-8f01-09ddd8b02c2e"},"vehicle_type_id":"4","last_reported":1740949707,"current_range_meters":3600,"station_id":"","pricing_plan_id":"cebpf4jnsgd1na2vs0mg"},{"bike_id":"9a0610f9-f7a3-40f7-9495-ec8ef5485728","system_id":"levelo_inurba_marseille","lat":43.29263,"lon":5.38442,"is_reserved":false,"is_disabled":false,"rental_uris":{"android":"levelo://app?vid=9a0610f9-f7a3-40f7-9495-ec8ef5485728","ios":"levelo://app?vid=9a0610f9-f7a3-40f7-9495-ec8ef5485728"},"vehicle_type_id":"4","last_reported":1740949707,"current_range_meters":3600,"station_id":"ce4bh692rcd13ifvqea0","pricing_plan_id":"cebpf4jnsgd1na2vs0mg"},{"bike_id":"ab47a1c3-db2e-445e-a0f4-114ff0e2da4e","system_id":"levelo_inurba_marseille","lat":43.29371,"lon":5.37843,"is_reserved":false,"is_disabled":false,"rental_uris":{"android":"levelo://app?vid=ab47a1c3-db2e-445e-a0f4-114ff0e2da4e","ios":"levelo://app?vid=ab47a1c3-db2e-445e-a0f4-114ff0e2da4e"},"vehicle_type_id":"4","last_reported":1740949707,"current_range_meters":4000,"station_id":"ce4bgjh2rcd13ifvqbf0","pricing_plan_id":"cebpf4jnsgd1na2vs0mg"},{"bike_id":"e2e56dff-9662-4970-8224-4aec0e76906e","system_id":"levelo_inurba_marseille","lat":43.27976,"lon":5.38733,"is_reserved":false,"is_disabled":false,"rental_uris":{"android":"levelo://app?vid=e2e56dff-9662-4970-8224-4aec0e76906e","ios":"levelo://app?vid=e2e56dff-9662-4970-8224-4aec0e76906e"},"vehicle_type_id":"4","last_reported":1740949707,"current_range_meters":4400,"station_id":"ce4bhg12rcd13ifvqf80","pricing_plan_id":"cebpf4jnsgd1na2vs0mg"},{"bike_id":"a3100b3c-d204-4694-98d2-c99d42b8f0ba","system_id":"levelo_inurba_marseille","lat":43.25109,"lon":5.40323,"is_reserved":false,"is_disabled":false,"rental_uris":{"android":"levelo://app?vid=a3100b3c-d204-4694-98d2-c99d42b8f0ba","ios":"levelo://app?vid=a3100b3c-d204-4694-98d2-c99d42b8f0ba"},"vehicle_type_id":"4","last_reported":1740949707,"current_range_meters":4400,"station_id":"ce4bhlh2rcd13ifvqgig","pricing_plan_id":"cebpf4jnsgd1na2vs0mg"},{"bike_id":"fd29ec35-5e36-48cf-b730-40472773ec6d","system_id":"levelo_inurba_marseille","lat":43.29561,"lon":5.42292,"is_reserved":false,"is_disabled":false,"rental_uris":{"android":"levelo://app?vid=fd29ec35-5e36-48cf-b730-40472773ec6d","ios":"levelo://app?vid=fd29ec35-5e36-48cf-b730-40472773ec6d"},"vehicle_type_id":"4","last_reported":1740949707,"current_range_meters":4400,"station_id":"ce4bhph2rcd13ifvqhdg","pricing_plan_id":"cebpf4jnsgd1na2vs0mg"},{"bike_id":"4758aee9-94e8-4696-854c-c7e0f3741b89","system_id":"levelo_inurba_marseille","lat":43.29554,"lon":5.42278,"is_reserved":false,"is_disabled":false,"rental_uris":{"android":"levelo://app?vid=4758aee9-94e8-4696-854c-c7e0f3741b89","ios":"levelo://app?vid=4758aee9-94e8-4696-854c-c7e0f3741b89"},"vehicle_type_id":"4","last_reported":1740949707,"current_range_meters":4400,"station_id":"ce4bhph2rcd13ifvqhdg","pricing_plan_id":"cebpf4jnsgd1na2vs0mg"},{"bike_id":"1646e501-b1ed-4a8a-92fd-76a38827e611","system_id":"levelo_inurba_marseille","lat":43.31996,"lon":5.38165,"is_reserved":false,"is_disabled":true,"rental_uris":{"android":"levelo://app?vid=1646e501-b1ed-4a8a-92fd-76a38827e611","ios":"levelo://app?vid=1646e501-b1ed-4a8a-92fd-76a38827e611"},"vehicle_type_id":"4","last_reported":1740949707,"current_range_meters":4400,"station_id":"ce4bhr12rcd13ifvqhpg","pricing_plan_id":"cebpf4jnsgd1na2vs0mg"},{"bike_id":"2fcd25b0-c421-4d0f-ba30-5f6f5ff608f3","system_id":"levelo_inurba_marseille","lat":43.30767,"lon":5.38663,"is_reserved":false,"is_disabled":false,"rental_uris":{"android":"levelo://app?vid=2fcd25b0-c421-4d0f-ba30-5f6f5ff608f3","ios":"levelo://app?vid=2fcd25b0-c421-4d0f-ba30-5f6f5ff608f3"},"vehicle_type_id":"4","last_reported":1740949707,"current_range_meters":4800,"station_id":"","pricing_plan_id":"cebpf4jnsgd1na2vs0mg"},{"bike_id":"e913bf1c-62e3-449e-bff2-f1f8b1e444ed","system_id":"levelo_inurba_marseille","lat":43.309753,"lon":5.371577,"is_reserved":false,"is_disabled":false,"rental_uris":{"android":"levelo://app?vid=e913bf1c-62e3-449e-bff2-f1f8b1e444ed","ios":"levelo://app?vid=e913bf1c-62e3-449e-bff2-f1f8b1e444ed"},"vehicle_type_id":"4","last_reported":1740949707,"current_range_meters":5600,"station_id":"","pricing_plan_id":"cebpf4jnsgd1na2vs0mg"},{"bike_id":"b4885ea7-931a-407b-beea-f03e677a29a3","system_id":"levelo_inurba_marseille","lat":43.23965,"lon":5.36631,"is_reserved":false,"is_disabled":false,"rental_uris":{"android":"levelo://app?vid=b4885ea7-931a-407b-beea-f03e677a29a3","ios":"levelo://app?vid=b4885ea7-931a-407b-beea-f03e677a29a3"},"vehicle_type_id":"4","last_reported":1740949707,"current_range_meters":5600,"station_id":"ce4bhi12rcd13ifvqfp0","pricing_plan_id":"cebpf4jnsgd1na2vs0mg"},{"bike_id":"8d492a96-f4af-4d5c-9f2f-04d1e365e865","system_id":"levelo_inurba_marseille","lat":43.27433,"lon":5.39423,"is_reserved":false,"is_disabled":false,"rental_uris":{"android":"levelo://app?vid=8d492a96-f4af-4d5c-9f2f-04d1e365e865","ios":"levelo://app?vid=8d492a96-f4af-4d5c-9f2f-04d1e365e865"},"vehicle_type_id":"4","last_reported":1740949707,"current_range_meters":6000,"station_id":"ce4bhdp2rcd13ifvqf20","pricing_plan_id":"cebpf4jnsgd1na2vs0mg"},{"bike_id":"7b52e9b0-59db-4aa0-8f2d-86fe5d0791e6","system_id":"levelo_inurba_marseille","lat":43.273,"lon":5.39078,"is_reserved":false,"is_disabled":false,"rental_uris":{"android":"levelo://app?vid=7b52e9b0-59db-4aa0-8f2d-86fe5d0791e6","ios":"levelo://app?vid=7b52e9b0-59db-4aa0-8f2d-86fe5d0791e6"},"vehicle_type_id":"4","last_reported":1740949707,"current_range_meters":6000,"station_id":"ce4bhgp2rcd13ifvqfe0","pricing_plan_id":"cebpf4jnsgd1na2vs0mg"},{"bike_id":"d0440bc7-d210-4331-b2a4-fb80cefb1d7d","system_id":"levelo_inurba_marseille","lat":43.2648,"lon":5.39553,"is_reserved":false,"is_disabled":false,"rental_uris":{"android":"levelo://app?vid=d0440bc7-d210-4331-b2a4-fb80cefb1d7d","ios":"levelo://app?vid=d0440bc7-d210-4331-b2a4-fb80cefb1d7d"},"vehicle_type_id":"4","last_reported":1740949707,"current_range_meters":6000,"station_id":"ce4bhi12rcd13ifvqfq0","pricing_plan_id":"cebpf4jnsgd1na2vs0mg"},{"bike_id":"53ebed9a-fd1a-4d94-96e3-0c8bc5887ace","system_id":"levelo_inurba_marseille","lat":43.31432,"lon":5.39366,"is_reserved":false,"is_disabled":false,"rental_uris":{"android":"levelo://app?vid=53ebed9a-fd1a-4d94-96e3-0c8bc5887ace","ios":"levelo://app?vid=53ebed9a-fd1a-4d94-96e3-0c8bc5887ace"},"vehicle_type_id":"4","last_reported":1740949707,"current_range_meters":6400,"station_id":"","pricing_plan_id":"cebpf4jnsgd1na2vs0mg"},{"bike_id":"088327a2-1b84-448d-bb96-f0ef51fec343","system_id":"levelo_inurba_marseille","lat":43.23965,"lon":5.36633,"is_reserved":false,"is_disabled":false,"rental_uris":{"android":"levelo://app?vid=088327a2-1b84-448d-bb96-f0ef51fec343","ios":"levelo://app?vid=088327a2-1b84-448d-bb96-f0ef51fec343"},"vehicle_type_id":"4","last_reported":1740949707,"current_range_meters":6400,"station_id":"ce4bhi12rcd13ifvqfp0","pricing_plan_id":"cebpf4jnsgd1na2vs0mg"},{"bike_id":"ea731fe0-f368-4c85-8313-0d046c7fe180","system_id":"levelo_inurba_marseille","lat":43.31185,"lon":5.37218,"is_reserved":false,"is_disabled":false,"rental_uris":{"android":"levelo://app?vid=ea731fe0-f368-4c85-8313-0d046c7fe180","ios":"levelo://app?vid=ea731fe0-f368-4c85-8313-0d046c7fe180"},"vehicle_type_id":"4","last_reported":1740949707,"current_range_meters":6800,"station_id":"","pricing_plan_id":"cebpf4jnsgd1na2vs0mg"},{"bike_id":"0fd1ee7a-1859-446e-893e-854c2e4f631f","system_id":"levelo_inurba_marseille","lat":43.31173,"lon":5.38722,"is_reserved":false,"is_disabled":false,"rental_uris":{"android":"levelo://app?vid=0fd1ee7a-1859-446e-893e-854c2e4f631f","ios":"levelo://app?vid=0fd1ee7a-1859-446e-893e-854c2e4f631f"},"vehicle_type_id":"4","last_reported":1740949707,"current_range_meters":6800,"station_id":"ce4bgvp2rcd13ifvqct0","pricing_plan_id":"cebpf4jnsgd1na2vs0mg"},{"bike_id":"76d97f00-053b-4a61-a3cf-c4ee7e918fe4","system_id":"levelo_inurba_marseille","lat":43.31325,"lon":5.39687,"is_reserved":false,"is_disabled":false,"rental_uris":{"android":"levelo://app?vid=76d97f00-053b-4a61-a3cf-c4ee7e918fe4","ios":"levelo://app?vid=76d97f00-053b-4a61-a3cf-c4ee7e918fe4"},"vehicle_type_id":"4","last_reported":1740949707,"current_range_meters":6800,"station_id":"ce4bgvp2rcd13ifvqcu0","pricing_plan_id":"cebpf4jnsgd1na2vs0mg"},{"bike_id":"11055268-68f6-4097-9490-f460baba9fdb","system_id":"levelo_inurba_marseille","lat":43.27437,"lon":5.39412,"is_reserved":false,"is_disabled":false,"rental_uris":{"android":"levelo://app?vid=11055268-68f6-4097-9490-f460baba9fdb","ios":"levelo://app?vid=11055268-68f6-4097-9490-f460baba9fdb"},"vehicle_type_id":"4","last_reported":1740949707,"current_range_meters":6800,"station_id":"ce4bhdp2rcd13ifvqf20","pricing_plan_id":"cebpf4jnsgd1na2vs0mg"},{"bike_id":"318dcb1b-9247-409e-9dad-ff18bd11104d","system_id":"levelo_inurba_marseille","lat":43.24812,"lon":5.3746,"is_reserved":false,"is_disabled":false,"rental_uris":{"android":"levelo://app?vid=318dcb1b-9247-409e-9dad-ff18bd11104d","ios":"levelo://app?vid=318dcb1b-9247-409e-9dad-ff18bd11104d"},"vehicle_type_id":"4","last_reported":1740949707,"current_range_meters":6800,"station_id":"ce4bhgh2rcd13ifvqfb0","pricing_plan_id":"cebpf4jnsgd1na2vs0mg"},{"bike_id":"b811c60a-6933-40a7-84ba-ba9cab9803d2","system_id":"levelo_inurba_marseille","lat":43.25001,"lon":5.38955,"is_reserved":false,"is_disabled":false,"rental_uris":{"android":"levelo://app?vid=b811c60a-6933-40a7-84ba-ba9cab9803d2","ios":"levelo://app?vid=b811c60a-6933-40a7-84ba-ba9cab9803d2"},"vehicle_type_id":"4","last_reported":1740949707,"current_range_meters":6800,"station_id":"ce4bhgp2rcd13ifvqfd0","pricing_plan_id":"cebpf4jnsgd1na2vs0mg"},{"bike_id":"a7fef403-d8af-4730-991b-704dd3570ef6","system_id":"levelo_inurba_marseille","lat":43.25832,"lon":5.3944,"is_reserved":false,"is_disabled":false,"rental_uris":{"android":"levelo://app?vid=a7fef403-d8af-4730-991b-704dd3570ef6","ios":"levelo://app?vid=a7fef403-d8af-4730-991b-704dd3570ef6"},"vehicle_type_id":"4","last_reported":1740949707,"current_range_meters":6800,"station_id":"ce4bhip2rcd13ifvqft0","pricing_plan_id":"cebpf4jnsgd1na2vs0mg"},{"bike_id":"6644bb0e-51c3-4cfa-9a8b-1cde2ef1e639","system_id":"levelo_inurba_marseille","lat":43.254371,"lon":5.401499,"is_reserved":false,"is_disabled":false,"rental_uris":{"android":"levelo://app?vid=6644bb0e-51c3-4cfa-9a8b-1cde2ef1e639","ios":"levelo://app?vid=6644bb0e-51c3-4cfa-9a8b-1cde2ef1e639"},"vehicle_type_id":"4","last_reported":1740949707,"current_range_meters":6800,"station_id":"ce4bhmp2rcd13ifvqgog","pricing_plan_id":"cebpf4jnsgd1na2vs0mg"},{"bike_id":"1a0d1b62-70f5-46d8-bc25-568ceb53336b","system_id":"levelo_inurba_marseille","lat":43.32654,"lon":5.40998,"is_reserved":false,"is_disabled":false,"rental_uris":{"android":"levelo://app?vid=1a0d1b62-70f5-46d8-bc25-568ceb53336b","ios":"levelo://app?vid=1a0d1b62-70f5-46d8-bc25-568ceb53336b"},"vehicle_type_id":"4","last_reported":1740949707,"current_range_meters":6800,"station_id":"ce4bhpp2rcd13ifvqhgg","pricing_plan_id":"cebpf4jnsgd1na2vs0mg"},{"bike_id":"97e8d4c3-f9a5-4604-95d3-9a0f93d23194","system_id":"levelo_inurba_marseille","lat":43.29182,"lon":5.40891,"is_reserved":false,"is_disabled":false,"rental_uris":{"android":"levelo://app?vid=97e8d4c3-f9a5-4604-95d3-9a0f93d23194","ios":"levelo://app?vid=97e8d4c3-f9a5-4604-95d3-9a0f93d23194"},"vehicle_type_id":"4","last_reported":1740949707,"current_range_meters":7200,"station_id":"","pricing_plan_id":"cebpf4jnsgd1na2vs0mg"},{"bike_id":"3cbb5843-7d6f-4ab1-8221-c879ecca96e4","system_id":"levelo_inurba_marseille","lat":43.32713,"lon":5.36297,"is_reserved":false,"is_disabled":false,"rental_uris":{"android":"levelo://app?vid=3cbb5843-7d6f-4ab1-8221-c879ecca96e4","ios":"levelo://app?vid=3cbb5843-7d6f-4ab1-8221-c879ecca96e4"},"vehicle_type_id":"4","last_reported":1740949707,"current_range_meters":7200,"station_id":"","pricing_plan_id":"cebpf4jnsgd1na2vs0mg"},{"bike_id":"8e2ea686-2ed9-4286-b302-de7e1e0dbacd","system_id":"levelo_inurba_marseille","lat":43.30243,"lon":5.39604,"is_reserved":false,"is_disabled":false,"rental_uris":{"android":"levelo://app?vid=8e2ea686-2ed9-4286-b302-de7e1e0dbacd","ios":"levelo://app?vid=8e2ea686-2ed9-4286-b302-de7e1e0dbacd"},"vehicle_type_id":"4","last_reported":1740949707,"current_range_meters":7200,"station_id":"","pricing_plan_id":"cebpf4jnsgd1na2vs0mg"},{"bike_id":"27ee9ae2-c5e7-4c2e-ad90-0c911cf7f55f","system_id":"levelo_inurba_marseille","lat":43.25055,"lon":5.38931,"is_reserved":false,"is_disabled":false,"rental_uris":{"android":"levelo://app?vid=27ee9ae2-c5e7-4c2e-ad90-0c911cf7f55f","ios":"levelo://app?vid=27ee9ae2-c5e7-4c2e-ad90-0c911cf7f55f"},"vehicle_type_id":"4","last_reported":1740949707,"current_range_meters":7200,"station_id":"ce4bhgp2rcd13ifvqfd0","pricing_plan_id":"cebpf4jnsgd1na2vs0mg"},{"bike_id":"b0599a88-1fdc-4ab9-bcbe-15873ba17cfc","system_id":"levelo_inurba_marseille","lat":43.27306,"lon":5.39071,"is_reserved":false,"is_disabled":false,"rental_uris":{"android":"levelo://app?vid=b0599a88-1fdc-4ab9-bcbe-15873ba17cfc","ios":"levelo://app?vid=b0599a88-1fdc-4ab9-bcbe-15873ba17cfc"},"vehicle_type_id":"4","last_reported":1740949707,"current_range_meters":7200,"station_id":"ce4bhgp2rcd13ifvqfe0","pricing_plan_id":"cebpf4jnsgd1na2vs0mg"},{"bike_id":"5eb8d4d1-e867-49d3-8611-bd57afc65cc2","system_id":"levelo_inurba_marseille","lat":43.27217,"lon":5.39206,"is_reserved":false,"is_disabled":false,"rental_uris":{"android":"levelo://app?vid=5eb8d4d1-e867-49d3-8611-bd57afc65cc2","ios":"levelo://app?vid=5eb8d4d1-e867-49d3-8611-bd57afc65cc2"},"vehicle_type_id":"4","last_reported":1740949707,"current_range_meters":7200,"station_id":"ce4bhhp2rcd13ifvqfm0","pricing_plan_id":"cebpf4jnsgd1na2vs0mg"},{"bike_id":"5e2f1c1c-b88b-490b-8fb4-30d4f19d3ef2","system_id":"levelo_inurba_marseille","lat":43.2721,"lon":5.39202,"is_reserved":false,"is_disabled":false,"rental_uris":{"android":"levelo://app?vid=5e2f1c1c-b88b-490b-8fb4-30d4f19d3ef2","ios":"levelo://app?vid=5e2f1c1c-b88b-490b-8fb4-30d4f19d3ef2"},"vehicle_type_id":"4","last_reported":1740949707,"current_range_meters":7200,"station_id":"ce4bhhp2rcd13ifvqfm0","pricing_plan_id":"cebpf4jnsgd1na2vs0mg"},{"bike_id":"3b899ec8-5a44-4ffd-8e3c-ea3713149e76","system_id":"levelo_inurba_marseille","lat":43.25741,"lon":5.4111,"is_reserved":false,"is_disabled":false,"rental_uris":{"android":"levelo://app?vid=3b899ec8-5a44-4ffd-8e3c-ea3713149e76","ios":"levelo://app?vid=3b899ec8-5a44-4ffd-8e3c-ea3713149e76"},"vehicle_type_id":"4","last_reported":1740949707,"current_range_meters":7200,"station_id":"ce4bhkp2rcd13ifvqgd0","pricing_plan_id":"cebpf4jnsgd1na2vs0mg"},{"bike_id":"6130471a-3e91-40d9-ab58-adc300217a91","system_id":"levelo_inurba_marseille","lat":43.28149,"lon":5.42638,"is_reserved":false,"is_disabled":false,"rental_uris":{"android":"levelo://app?vid=6130471a-3e91-40d9-ab58-adc300217a91","ios":"levelo://app?vid=6130471a-3e91-40d9-ab58-adc300217a91"},"vehicle_type_id":"4","last_reported":1740949707,"current_range_meters":7200,"station_id":"ce4bhnh2rcd13ifvqgug","pricing_plan_id":"cebpf4jnsgd1na2vs0mg"},{"bike_id":"529e9b56-2001-45da-9e9e-9493d2361a0b","system_id":"levelo_inurba_marseille","lat":43.26808,"lon":5.40252,"is_reserved":false,"is_disabled":false,"rental_uris":{"android":"levelo://app?vid=529e9b56-2001-45da-9e9e-9493d2361a0b","ios":"levelo://app?vid=529e9b56-2001-45da-9e9e-9493d2361a0b"},"vehicle_type_id":"4","last_reported":1740949707,"current_range_meters":7200,"station_id":"ce501612rcd8frsf0b60","pricing_plan_id":"cebpf4jnsgd1na2vs0mg"},{"bike_id":"8217e781-cc2d-40ba-8630-da9e9cd38df0","system_id":"levelo_inurba_marseille","lat":43.26987,"lon":5.40293,"is_reserved":false,"is_disabled":false,"rental_uris":{"android":"levelo://app?vid=8217e781-cc2d-40ba-8630-da9e9cd38df0","ios":"levelo://app?vid=8217e781-cc2d-40ba-8630-da9e9cd38df0"},"vehicle_type_id":"4","last_reported":1740949707,"current_range_meters":7200,"station_id":"cjm6bp8fraef2m0cb0m0","pricing_plan_id":"cebpf4jnsgd1na2vs0mg"},{"bike_id":"eafe4694-db55-4cde-85aa-971c3787bde8","system_id":"levelo_inurba_marseille","lat":43.24171,"lon":5.36412,"is_reserved":false,"is_disabled":false,"rental_uris":{"android":"levelo://app?vid=eafe4694-db55-4cde-85aa-971c3787bde8","ios":"levelo://app?vid=eafe4694-db55-4cde-85aa-971c3787bde8"},"vehicle_type_id":"4","last_reported":1740949707,"current_range_meters":7200,"station_id":"cpo36qri1sfpv3e86is0","pricing_plan_id":"cebpf4jnsgd1na2vs0mg"},{"bike_id":"56404ed2-8f36-423b-a2b4-f1cde3e1ab4b","system_id":"levelo_inurba_marseille","lat":43.30295,"lon":5.39206,"is_reserved":false,"is_disabled":false,"rental_uris":{"android":"levelo://app?vid=56404ed2-8f36-423b-a2b4-f1cde3e1ab4b","ios":"levelo://app?vid=56404ed2-8f36-423b-a2b4-f1cde3e1ab4b"},"vehicle_type_id":"4","last_reported":1740949707,"current_range_meters":8000,"station_id":"ce4bgkh2rcd13ifvqbk0","pricing_plan_id":"cebpf4jnsgd1na2vs0mg"},{"bike_id":"cbad3169-3b00-492c-91d6-1c939a86f914","system_id":"levelo_inurba_marseille","lat":43.28355,"lon":5.38107,"is_reserved":false,"is_disabled":false,"rental_uris":{"android":"levelo://app?vid=cbad3169-3b00-492c-91d6-1c939a86f914","ios":"levelo://app?vid=cbad3169-3b00-492c-91d6-1c939a86f914"},"vehicle_type_id":"4","last_reported":1740949707,"current_range_meters":8000,"station_id":"ce4bh412rcd13ifvqdr0","pricing_plan_id":"cebpf4jnsgd1na2vs0mg"},{"bike_id":"59acd8f1-fe25-4f7b-90e6-830f3a0c7613","system_id":"levelo_inurba_marseille","lat":43.27308,"lon":5.39071,"is_reserved":false,"is_disabled":false,"rental_uris":{"android":"levelo://app?vid=59acd8f1-fe25-4f7b-90e6-830f3a0c7613","ios":"levelo://app?vid=59acd8f1-fe25-4f7b-90e6-830f3a0c7613"},"vehicle_type_id":"4","last_reported":1740949707,"current_range_meters":8000,"station_id":"ce4bhgp2rcd13ifvqfe0","pricing_plan_id":"cebpf4jnsgd1na2vs0mg"},{"bike_id":"5f1c49bf-38ae-4b7a-999d-3fec40caf0f6","system_id":"levelo_inurba_marseille","lat":43.27213,"lon":5.39182,"is_reserved":false,"is_disabled":false,"rental_uris":{"android":"levelo://app?vid=5f1c49bf-38ae-4b7a-999d-3fec40caf0f6","ios":"levelo://app?vid=5f1c49bf-38ae-4b7a-999d-3fec40caf0f6"},"vehicle_type_id":"4","last_reported":1740949707,"current_range_meters":8000,"station_id":"ce4bhhp2rcd13ifvqfm0","pricing_plan_id":"cebpf4jnsgd1na2vs0mg"},{"bike_id":"3a00af1d-64b3-4f0c-9ae0-dc76fb5014f4","system_id":"levelo_inurba_marseille","lat":43.29555,"lon":5.4228,"is_reserved":false,"is_disabled":false,"rental_uris":{"android":"levelo://app?vid=3a00af1d-64b3-4f0c-9ae0-dc76fb5014f4","ios":"levelo://app?vid=3a00af1d-64b3-4f0c-9ae0-dc76fb5014f4"},"vehicle_type_id":"4","last_reported":1740949707,"current_range_meters":8000,"station_id":"ce4bhph2rcd13ifvqhdg","pricing_plan_id":"cebpf4jnsgd1na2vs0mg"},{"bike_id":"60cb851a-14b2-48f6-8511-6a80cee0eeea","system_id":"levelo_inurba_marseille","lat":43.26939,"lon":5.40246,"is_reserved":false,"is_disabled":false,"rental_uris":{"android":"levelo://app?vid=60cb851a-14b2-48f6-8511-6a80cee0eeea","ios":"levelo://app?vid=60cb851a-14b2-48f6-8511-6a80cee0eeea"},"vehicle_type_id":"4","last_reported":1740949707,"current_range_meters":8000,"station_id":"cjm6bp8fraef2m0cb0m0","pricing_plan_id":"cebpf4jnsgd1na2vs0mg"},{"bike_id":"0e4d5d36-7d5d-4fbf-9597-759cc9a1b223","system_id":"levelo_inurba_marseille","lat":43.30563,"lon":5.37246,"is_reserved":false,"is_disabled":false,"rental_uris":{"android":"levelo://app?vid=0e4d5d36-7d5d-4fbf-9597-759cc9a1b223","ios":"levelo://app?vid=0e4d5d36-7d5d-4fbf-9597-759cc9a1b223"},"vehicle_type_id":"4","last_reported":1740949707,"current_range_meters":8400,"station_id":"","pricing_plan_id":"cebpf4jnsgd1na2vs0mg"},{"bike_id":"b522ae1d-16a5-4e23-a39d-3078de6f615b","system_id":"levelo_inurba_marseille","lat":43.29881,"lon":5.38904,"is_reserved":false,"is_disabled":false,"rental_uris":{"android":"levelo://app?vid=b522ae1d-16a5-4e23-a39d-3078de6f615b","ios":"levelo://app?vid=b522ae1d-16a5-4e23-a39d-3078de6f615b"},"vehicle_type_id":"4","last_reported":1740949707,"current_range_meters":8400,"station_id":"ce4bh392rcd13ifvqdl0","pricing_plan_id":"cebpf4jnsgd1na2vs0mg"},{"bike_id":"3495a79b-07bc-439e-94f1-f63668354302","system_id":"levelo_inurba_marseille","lat":43.28355,"lon":5.38107,"is_reserved":false,"is_disabled":false,"rental_uris":{"android":"levelo://app?vid=3495a79b-07bc-439e-94f1-f63668354302","ios":"levelo://app?vid=3495a79b-07bc-439e-94f1-f63668354302"},"vehicle_type_id":"4","last_reported":1740949707,"current_range_meters":8400,"station_id":"ce4bh412rcd13ifvqdr0","pricing_plan_id":"cebpf4jnsgd1na2vs0mg"},{"bike_id":"8d351040-3fc2-4c93-82a1-c66ebec4a7f0","system_id":"levelo_inurba_marseille","lat":43.27915,"lon":5.39582,"is_reserved":false,"is_disabled":false,"rental_uris":{"android":"levelo://app?vid=8d351040-3fc2-4c93-82a1-c66ebec4a7f0","ios":"levelo://app?vid=8d351040-3fc2-4c93-82a1-c66ebec4a7f0"},"vehicle_type_id":"4","last_reported":1740949707,"current_range_meters":8400,"station_id":"ce4bhf92rcd13ifvqf40","pricing_plan_id":"cebpf4jnsgd1na2vs0mg"},{"bike_id":"602071b7-00b0-4a69-a020-a10b931a00a3","system_id":"levelo_inurba_marseille","lat":43.27316,"lon":5.39094,"is_reserved":false,"is_disabled":false,"rental_uris":{"android":"levelo://app?vid=602071b7-00b0-4a69-a020-a10b931a00a3","ios":"levelo://app?vid=602071b7-00b0-4a69-a020-a10b931a00a3"},"vehicle_type_id":"4","last_reported":1740949707,"current_range_meters":8400,"station_id":"ce4bhgp2rcd13ifvqfe0","pricing_plan_id":"cebpf4jnsgd1na2vs0mg"},{"bike_id":"5365f3e3-1095-4284-be0e-5e73a795384b","system_id":"levelo_inurba_marseille","lat":43.25738,"lon":5.4106,"is_reserved":false,"is_disabled":false,"rental_uris":{"android":"levelo://app?vid=5365f3e3-1095-4284-be0e-5e73a795384b","ios":"levelo://app?vid=5365f3e3-1095-4284-be0e-5e73a795384b"},"vehicle_type_id":"4","last_reported":1740949707,"current_range_meters":8400,"station_id":"ce4bhkp2rcd13ifvqgd0","pricing_plan_id":"cebpf4jnsgd1na2vs0mg"},{"bike_id":"59ef5800-ff3c-4c18-9229-7ba16507dc77","system_id":"levelo_inurba_marseille","lat":43.27811,"lon":5.40721,"is_reserved":false,"is_disabled":false,"rental_uris":{"android":"levelo://app?vid=59ef5800-ff3c-4c18-9229-7ba16507dc77","ios":"levelo://app?vid=59ef5800-ff3c-4c18-9229-7ba16507dc77"},"vehicle_type_id":"4","last_reported":1740949707,"current_range_meters":8400,"station_id":"ce4bhnh2rcd13ifvqgtg","pricing_plan_id":"cebpf4jnsgd1na2vs0mg"},{"bike_id":"0693b9d6-4a9d-4e38-bfa2-80f934bcc2e3","system_id":"levelo_inurba_marseille","lat":43.24166,"lon":5.36404,"is_reserved":false,"is_disabled":false,"rental_uris":{"android":"levelo://app?vid=0693b9d6-4a9d-4e38-bfa2-80f934bcc2e3","ios":"levelo://app?vid=0693b9d6-4a9d-4e38-bfa2-80f934bcc2e3"},"vehicle_type_id":"4","last_reported":1740949707,"current_range_meters":8400,"station_id":"cpo36qri1sfpv3e86is0","pricing_plan_id":"cebpf4jnsgd1na2vs0mg"},{"bike_id":"008f97af-63ed-4ccb-b4cf-a72ed0a04848","system_id":"levelo_inurba_marseille","lat":43.30431,"lon":5.388937,"is_reserved":false,"is_disabled":false,"rental_uris":{"android":"levelo://app?vid=008f97af-63ed-4ccb-b4cf-a72ed0a04848","ios":"levelo://app?vid=008f97af-63ed-4ccb-b4cf-a72ed0a04848"},"vehicle_type_id":"4","last_reported":1740949707,"current_range_meters":8800,"station_id":"ce4bgk12rcd13ifvqbi0","pricing_plan_id":"cebpf4jnsgd1na2vs0mg"},{"bike_id":"0b06deb1-9955-4324-8add-e24fe7b1f29d","system_id":"levelo_inurba_marseille","lat":43.269277,"lon":5.402169,"is_reserved":false,"is_disabled":false,"rental_uris":{"android":"levelo://app?vid=0b06deb1-9955-4324-8add-e24fe7b1f29d","ios":"levelo://app?vid=0b06deb1-9955-4324-8add-e24fe7b1f29d"},"vehicle_type_id":"4","last_reported":1740949707,"current_range_meters":8800,"station_id":"ce4bha12rcd13ifvqee0","pricing_plan_id":"cebpf4jnsgd1na2vs0mg"},{"bike_id":"de0374b1-5b21-43cc-9ff6-5bd80acc1bd8","system_id":"levelo_inurba_marseille","lat":43.28267,"lon":5.35076,"is_reserved":false,"is_disabled":false,"rental_uris":{"android":"levelo://app?vid=de0374b1-5b21-43cc-9ff6-5bd80acc1bd8","ios":"levelo://app?vid=de0374b1-5b21-43cc-9ff6-5bd80acc1bd8"},"vehicle_type_id":"4","last_reported":1740949707,"current_range_meters":9200,"station_id":"ce4bhbp2rcd13ifvqerg","pricing_plan_id":"cebpf4jnsgd1na2vs0mg"},{"bike_id":"f711a177-8c95-4e96-bcaf-e6e0dc33f59e","system_id":"levelo_inurba_marseille","lat":43.24392,"lon":5.37048,"is_reserved":false,"is_disabled":false,"rental_uris":{"android":"levelo://app?vid=f711a177-8c95-4e96-bcaf-e6e0dc33f59e","ios":"levelo://app?vid=f711a177-8c95-4e96-bcaf-e6e0dc33f59e"},"vehicle_type_id":"4","last_reported":1740949707,"current_range_meters":9200,"station_id":"ce4bhhh2rcd13ifvqfk0","pricing_plan_id":"cebpf4jnsgd1na2vs0mg"},{"bike_id":"37955086-1793-423e-884f-2fbdb3cb1087","system_id":"levelo_inurba_marseille","lat":43.26934,"lon":5.38915,"is_reserved":false,"is_disabled":false,"rental_uris":{"android":"levelo://app?vid=37955086-1793-423e-884f-2fbdb3cb1087","ios":"levelo://app?vid=37955086-1793-423e-884f-2fbdb3cb1087"},"vehicle_type_id":"4","last_reported":1740949707,"current_range_meters":9200,"station_id":"ce4bhhh2rcd13ifvqfl0","pricing_plan_id":"cebpf4jnsgd1na2vs0mg"},{"bike_id":"876792d9-70ce-459c-84fb-ba4e2d6af24a","system_id":"levelo_inurba_marseille","lat":43.2957,"lon":5.39981,"is_reserved":false,"is_disabled":false,"rental_uris":{"android":"levelo://app?vid=876792d9-70ce-459c-84fb-ba4e2d6af24a","ios":"levelo://app?vid=876792d9-70ce-459c-84fb-ba4e2d6af24a"},"vehicle_type_id":"4","last_reported":1740949707,"current_range_meters":9600,"station_id":"","pricing_plan_id":"cebpf4jnsgd1na2vs0mg"},{"bike_id":"d606c3a5-ef02-42b0-930d-884ebc257989","system_id":"levelo_inurba_marseille","lat":43.28707,"lon":5.3742,"is_reserved":false,"is_disabled":false,"rental_uris":{"android":"levelo://app?vid=d606c3a5-ef02-42b0-930d-884ebc257989","ios":"levelo://app?vid=d606c3a5-ef02-42b0-930d-884ebc257989"},"vehicle_type_id":"4","last_reported":1740949707,"current_range_meters":9600,"station_id":"ce4bh3p2rcd13ifvqdq0","pricing_plan_id":"cebpf4jnsgd1na2vs0mg"},{"bike_id":"2fb3e544-8b42-44c2-8088-0158eef00a62","system_id":"levelo_inurba_marseille","lat":43.27057,"lon":5.40289,"is_reserved":false,"is_disabled":false,"rental_uris":{"android":"levelo://app?vid=2fb3e544-8b42-44c2-8088-0158eef00a62","ios":"levelo://app?vid=2fb3e544-8b42-44c2-8088-0158eef00a62"},"vehicle_type_id":"4","last_reported":1740949707,"current_range_meters":9600,"station_id":"ce4bhk92rcd13ifvqgc0","pricing_plan_id":"cebpf4jnsgd1na2vs0mg"},{"bike_id":"5da90b11-a212-4d9f-aef0-f81237b2853e","system_id":"levelo_inurba_marseille","lat":43.28153,"lon":5.42642,"is_reserved":false,"is_disabled":false,"rental_uris":{"android":"levelo://app?vid=5da90b11-a212-4d9f-aef0-f81237b2853e","ios":"levelo://app?vid=5da90b11-a212-4d9f-aef0-f81237b2853e"},"vehicle_type_id":"4","last_reported":1740949707,"current_range_meters":9600,"station_id":"ce4bhnh2rcd13ifvqgug","pricing_plan_id":"cebpf4jnsgd1na2vs0mg"},{"bike_id":"372b0032-ea0b-4c81-98a7-bdc7da57d72d","system_id":"levelo_inurba_marseille","lat":43.30417,"lon":5.41295,"is_reserved":false,"is_disabled":false,"rental_uris":{"android":"levelo://app?vid=372b0032-ea0b-4c81-98a7-bdc7da57d72d","ios":"levelo://app?vid=372b0032-ea0b-4c81-98a7-bdc7da57d72d"},"vehicle_type_id":"4","last_reported":1740949707,"current_range_meters":9600,"station_id":"ce4bhop2rcd13ifvqh8g","pricing_plan_id":"cebpf4jnsgd1na2vs0mg"},{"bike_id":"a0e2f7cd-e0b0-4a62-bcc3-a37d69fc219e","system_id":"levelo_inurba_marseille","lat":43.296,"lon":5.38088,"is_reserved":false,"is_disabled":false,"rental_uris":{"android":"levelo://app?vid=a0e2f7cd-e0b0-4a62-bcc3-a37d69fc219e","ios":"levelo://app?vid=a0e2f7cd-e0b0-4a62-bcc3-a37d69fc219e"},"vehicle_type_id":"4","last_reported":1740949707,"current_range_meters":10000,"station_id":"ce4bgl12rcd13ifvqbo0","pricing_plan_id":"cebpf4jnsgd1na2vs0mg"},{"bike_id":"24c526bd-d370-4ef3-8593-b03621bdcb47","system_id":"levelo_inurba_marseille","lat":43.28403,"lon":5.37516,"is_reserved":false,"is_disabled":false,"rental_uris":{"android":"levelo://app?vid=24c526bd-d370-4ef3-8593-b03621bdcb47","ios":"levelo://app?vid=24c526bd-d370-4ef3-8593-b03621bdcb47"},"vehicle_type_id":"4","last_reported":1740949707,"current_range_meters":10000,"station_id":"ce4bh412rcd13ifvqds0","pricing_plan_id":"cebpf4jnsgd1na2vs0mg"},{"bike_id":"d15a920c-600b-4ae1-bbc4-6f27080680ca","system_id":"levelo_inurba_marseille","lat":43.24665,"lon":5.38161,"is_reserved":false,"is_disabled":false,"rental_uris":{"android":"levelo://app?vid=d15a920c-600b-4ae1-bbc4-6f27080680ca","ios":"levelo://app?vid=d15a920c-600b-4ae1-bbc4-6f27080680ca"},"vehicle_type_id":"4","last_reported":1740949707,"current_range_meters":10000,"station_id":"ce4bhih2rcd13ifvqfr0","pricing_plan_id":"cebpf4jnsgd1na2vs0mg"},{"bike_id":"5a9ed32d-635a-4b6a-99eb-e8d9d052f6d4","system_id":"levelo_inurba_marseille","lat":43.25724,"lon":5.41118,"is_reserved":false,"is_disabled":false,"rental_uris":{"android":"levelo://app?vid=5a9ed32d-635a-4b6a-99eb-e8d9d052f6d4","ios":"levelo://app?vid=5a9ed32d-635a-4b6a-99eb-e8d9d052f6d4"},"vehicle_type_id":"4","last_reported":1740949707,"current_range_meters":10000,"station_id":"ce4bhkp2rcd13ifvqgd0","pricing_plan_id":"cebpf4jnsgd1na2vs0mg"},{"bike_id":"7f781c51-47ec-4de7-b9ef-5d68e5b4c1b8","system_id":"levelo_inurba_marseille","lat":43.28003,"lon":5.40016,"is_reserved":false,"is_disabled":false,"rental_uris":{"android":"levelo://app?vid=7f781c51-47ec-4de7-b9ef-5d68e5b4c1b8","ios":"levelo://app?vid=7f781c51-47ec-4de7-b9ef-5d68e5b4c1b8"},"vehicle_type_id":"4","last_reported":1740949707,"current_range_meters":10000,"station_id":"ce4bho92rcd13ifvqh4g","pricing_plan_id":"cebpf4jnsgd1na2vs0mg"},{"bike_id":"12693aca-a270-498f-8eea-9f4b1639864e","system_id":"levelo_inurba_marseille","lat":43.269423,"lon":5.402518,"is_reserved":false,"is_disabled":false,"rental_uris":{"android":"levelo://app?vid=12693aca-a270-498f-8eea-9f4b1639864e","ios":"levelo://app?vid=12693aca-a270-498f-8eea-9f4b1639864e"},"vehicle_type_id":"4","last_reported":1740949707,"current_range_meters":10000,"station_id":"cjm6bp8fraef2m0cb0m0","pricing_plan_id":"cebpf4jnsgd1na2vs0mg"},{"bike_id":"88d09cbc-1497-4fea-99b9-c1fe29ff58f0","system_id":"levelo_inurba_marseille","lat":43.2803,"lon":5.36612,"is_reserved":false,"is_disabled":false,"rental_uris":{"android":"levelo://app?vid=88d09cbc-1497-4fea-99b9-c1fe29ff58f0","ios":"levelo://app?vid=88d09cbc-1497-4fea-99b9-c1fe29ff58f0"},"vehicle_type_id":"4","last_reported":1740949707,"current_range_meters":10800,"station_id":"","pricing_plan_id":"cebpf4jnsgd1na2vs0mg"},{"bike_id":"743aa7d5-ec02-4104-b9d2-1e5fe39cec65","system_id":"levelo_inurba_marseille","lat":43.27437,"lon":5.39413,"is_reserved":false,"is_disabled":false,"rental_uris":{"android":"levelo://app?vid=743aa7d5-ec02-4104-b9d2-1e5fe39cec65","ios":"levelo://app?vid=743aa7d5-ec02-4104-b9d2-1e5fe39cec65"},"vehicle_type_id":"4","last_reported":1740949707,"current_range_meters":10800,"station_id":"ce4bhdp2rcd13ifvqf20","pricing_plan_id":"cebpf4jnsgd1na2vs0mg"},{"bike_id":"f7201458-4a84-41e3-9432-885042a6d55a","system_id":"levelo_inurba_marseille","lat":43.2624,"lon":5.37473,"is_reserved":false,"is_disabled":false,"rental_uris":{"android":"levelo://app?vid=f7201458-4a84-41e3-9432-885042a6d55a","ios":"levelo://app?vid=f7201458-4a84-41e3-9432-885042a6d55a"},"vehicle_type_id":"4","last_reported":1740949707,"current_range_meters":10800,"station_id":"ce4bhgp2rcd13ifvqfc0","pricing_plan_id":"cebpf4jnsgd1na2vs0mg"},{"bike_id":"41e9e4b8-e4ab-4977-92a7-bb833bde980c","system_id":"levelo_inurba_marseille","lat":43.29546,"lon":5.42271,"is_reserved":false,"is_disabled":false,"rental_uris":{"android":"levelo://app?vid=41e9e4b8-e4ab-4977-92a7-bb833bde980c","ios":"levelo://app?vid=41e9e4b8-e4ab-4977-92a7-bb833bde980c"},"vehicle_type_id":"4","last_reported":1740949707,"current_range_meters":10800,"station_id":"ce4bhph2rcd13ifvqhdg","pricing_plan_id":"cebpf4jnsgd1na2vs0mg"},{"bike_id":"3c9c65ff-a2a8-4c52-a6f4-62bcc77556ef","system_id":"levelo_inurba_marseille","lat":43.24164,"lon":5.36412,"is_reserved":false,"is_disabled":false,"rental_uris":{"android":"levelo://app?vid=3c9c65ff-a2a8-4c52-a6f4-62bcc77556ef","ios":"levelo://app?vid=3c9c65ff-a2a8-4c52-a6f4-62bcc77556ef"},"vehicle_type_id":"4","last_reported":1740949707,"current_range_meters":10800,"station_id":"cpo36qri1sfpv3e86is0","pricing_plan_id":"cebpf4jnsgd1na2vs0mg"},{"bike_id":"a3e4e670-96af-42cb-8c2e-a7c558780b0b","system_id":"levelo_inurba_marseille","lat":43.24064,"lon":5.37745,"is_reserved":false,"is_disabled":false,"rental_uris":{"android":"levelo://app?vid=a3e4e670-96af-42cb-8c2e-a7c558780b0b","ios":"levelo://app?vid=a3e4e670-96af-42cb-8c2e-a7c558780b0b"},"vehicle_type_id":"4","last_reported":1740949707,"current_range_meters":11200,"station_id":"ce4bhnp2rcd13ifvqgvg","pricing_plan_id":"cebpf4jnsgd1na2vs0mg"},{"bike_id":"61e3c74e-7012-4cb6-8ef4-17db5d82fdf7","system_id":"levelo_inurba_marseille","lat":43.25332,"lon":5.39279,"is_reserved":false,"is_disabled":false,"rental_uris":{"android":"levelo://app?vid=61e3c74e-7012-4cb6-8ef4-17db5d82fdf7","ios":"levelo://app?vid=61e3c74e-7012-4cb6-8ef4-17db5d82fdf7"},"vehicle_type_id":"4","last_reported":1740949707,"current_range_meters":11600,"station_id":"","pricing_plan_id":"cebpf4jnsgd1na2vs0mg"},{"bike_id":"afaa6ab0-706f-48b9-9e8b-246ecf081361","system_id":"levelo_inurba_marseille","lat":43.24385,"lon":5.37048,"is_reserved":false,"is_disabled":false,"rental_uris":{"android":"levelo://app?vid=afaa6ab0-706f-48b9-9e8b-246ecf081361","ios":"levelo://app?vid=afaa6ab0-706f-48b9-9e8b-246ecf081361"},"vehicle_type_id":"4","last_reported":1740949707,"current_range_meters":11600,"station_id":"ce4bhhh2rcd13ifvqfk0","pricing_plan_id":"cebpf4jnsgd1na2vs0mg"},{"bike_id":"8af69f2f-1408-4451-a102-b998dd043818","system_id":"levelo_inurba_marseille","lat":43.29277,"lon":5.40134,"is_reserved":false,"is_disabled":false,"rental_uris":{"android":"levelo://app?vid=8af69f2f-1408-4451-a102-b998dd043818","ios":"levelo://app?vid=8af69f2f-1408-4451-a102-b998dd043818"},"vehicle_type_id":"4","last_reported":1740949707,"current_range_meters":12000,"station_id":"ce4bh312rcd13ifvqdk0","pricing_plan_id":"cebpf4jnsgd1na2vs0mg"},{"bike_id":"12ab922a-f881-4968-9e63-ec8d58f2ca05","system_id":"levelo_inurba_marseille","lat":43.24829,"lon":5.37461,"is_reserved":false,"is_disabled":false,"rental_uris":{"android":"levelo://app?vid=12ab922a-f881-4968-9e63-ec8d58f2ca05","ios":"levelo://app?vid=12ab922a-f881-4968-9e63-ec8d58f2ca05"},"vehicle_type_id":"4","last_reported":1740949707,"current_range_meters":12000,"station_id":"ce4bhgh2rcd13ifvqfb0","pricing_plan_id":"cebpf4jnsgd1na2vs0mg"},{"bike_id":"8ae3b1c3-aaad-4efb-802c-97a1e162b8ab","system_id":"levelo_inurba_marseille","lat":43.25573,"lon":5.38245,"is_reserved":false,"is_disabled":false,"rental_uris":{"android":"levelo://app?vid=8ae3b1c3-aaad-4efb-802c-97a1e162b8ab","ios":"levelo://app?vid=8ae3b1c3-aaad-4efb-802c-97a1e162b8ab"},"vehicle_type_id":"4","last_reported":1740949707,"current_range_meters":12000,"station_id":"ce4bhih2rcd13ifvqfs0","pricing_plan_id":"cebpf4jnsgd1na2vs0mg"},{"bike_id":"f2c0ca3b-8324-45cc-9282-3b53540210ba","system_id":"levelo_inurba_marseille","lat":43.29555,"lon":5.42279,"is_reserved":false,"is_disabled":false,"rental_uris":{"android":"levelo://app?vid=f2c0ca3b-8324-45cc-9282-3b53540210ba","ios":"levelo://app?vid=f2c0ca3b-8324-45cc-9282-3b53540210ba"},"vehicle_type_id":"4","last_reported":1740949707,"current_range_meters":12000,"station_id":"ce4bhph2rcd13ifvqhdg","pricing_plan_id":"cebpf4jnsgd1na2vs0mg"},{"bike_id":"78b83f52-c5a6-4c25-a933-23d391bd81e7","system_id":"levelo_inurba_marseille","lat":43.29862,"lon":5.36291,"is_reserved":false,"is_disabled":false,"rental_uris":{"android":"levelo://app?vid=78b83f52-c5a6-4c25-a933-23d391bd81e7","ios":"levelo://app?vid=78b83f52-c5a6-4c25-a933-23d391bd81e7"},"vehicle_type_id":"4","last_reported":1740949707,"current_range_meters":12400,"station_id":"ce4bgpp2rcd13ifvqc3g","pricing_plan_id":"cebpf4jnsgd1na2vs0mg"},{"bike_id":"2e7fb5cd-2e99-4cc9-92f0-4e595c1edef2","system_id":"levelo_inurba_marseille","lat":43.27312,"lon":5.39097,"is_reserved":false,"is_disabled":false,"rental_uris":{"android":"levelo://app?vid=2e7fb5cd-2e99-4cc9-92f0-4e595c1edef2","ios":"levelo://app?vid=2e7fb5cd-2e99-4cc9-92f0-4e595c1edef2"},"vehicle_type_id":"4","last_reported":1740949707,"current_range_meters":12400,"station_id":"ce4bhgp2rcd13ifvqfe0","pricing_plan_id":"cebpf4jnsgd1na2vs0mg"},{"bike_id":"cfcb0273-7337-4621-96ed-1e1413e21f71","system_id":"levelo_inurba_marseille","lat":43.31047,"lon":5.38945,"is_reserved":false,"is_disabled":false,"rental_uris":{"android":"levelo://app?vid=cfcb0273-7337-4621-96ed-1e1413e21f71","ios":"levelo://app?vid=cfcb0273-7337-4621-96ed-1e1413e21f71"},"vehicle_type_id":"4","last_reported":1740949707,"current_range_meters":12800,"station_id":"","pricing_plan_id":"cebpf4jnsgd1na2vs0mg"},{"bike_id":"3b1efb18-bb31-4f9b-9732-4b7592bbea37","system_id":"levelo_inurba_marseille","lat":43.28563,"lon":5.39498,"is_reserved":false,"is_disabled":false,"rental_uris":{"android":"levelo://app?vid=3b1efb18-bb31-4f9b-9732-4b7592bbea37","ios":"levelo://app?vid=3b1efb18-bb31-4f9b-9732-4b7592bbea37"},"vehicle_type_id":"4","last_reported":1740949707,"current_range_meters":12800,"station_id":"ce4bh292rcd13ifvqdg0","pricing_plan_id":"cebpf4jnsgd1na2vs0mg"},{"bike_id":"04b02381-0aeb-45e9-9973-cfeed9dbc62d","system_id":"levelo_inurba_marseille","lat":43.297363,"lon":5.380933,"is_reserved":false,"is_disabled":false,"rental_uris":{"android":"levelo://app?vid=04b02381-0aeb-45e9-9973-cfeed9dbc62d","ios":"levelo://app?vid=04b02381-0aeb-45e9-9973-cfeed9dbc62d"},"vehicle_type_id":"4","last_reported":1740949707,"current_range_meters":12800,"station_id":"ce4bh612rcd13ifvqe6g","pricing_plan_id":"cebpf4jnsgd1na2vs0mg"},{"bike_id":"18ed809a-93be-4ceb-a90d-b4661309b51d","system_id":"levelo_inurba_marseille","lat":43.30961,"lon":5.37445,"is_reserved":false,"is_disabled":false,"rental_uris":{"android":"levelo://app?vid=18ed809a-93be-4ceb-a90d-b4661309b51d","ios":"levelo://app?vid=18ed809a-93be-4ceb-a90d-b4661309b51d"},"vehicle_type_id":"4","last_reported":1740949707,"current_range_meters":13600,"station_id":"","pricing_plan_id":"cebpf4jnsgd1na2vs0mg"},{"bike_id":"d292c1a1-5d48-4870-96f4-cf5f26c43837","system_id":"levelo_inurba_marseille","lat":43.27918,"lon":5.42671,"is_reserved":false,"is_disabled":false,"rental_uris":{"android":"levelo://app?vid=d292c1a1-5d48-4870-96f4-cf5f26c43837","ios":"levelo://app?vid=d292c1a1-5d48-4870-96f4-cf5f26c43837"},"vehicle_type_id":"4","last_reported":1740949707,"current_range_meters":13600,"station_id":"","pricing_plan_id":"cebpf4jnsgd1na2vs0mg"},{"bike_id":"0e3c915f-7365-4879-9e5c-a1b1fe853dcc","system_id":"levelo_inurba_marseille","lat":43.29536,"lon":5.38545,"is_reserved":false,"is_disabled":false,"rental_uris":{"android":"levelo://app?vid=0e3c915f-7365-4879-9e5c-a1b1fe853dcc","ios":"levelo://app?vid=0e3c915f-7365-4879-9e5c-a1b1fe853dcc"},"vehicle_type_id":"4","last_reported":1740949707,"current_range_meters":13600,"station_id":"ce4bgih2rcd13ifvqba0","pricing_plan_id":"cebpf4jnsgd1na2vs0mg"},{"bike_id":"a20e6d10-3a48-45b7-92fd-a1243587151b","system_id":"levelo_inurba_marseille","lat":43.251357,"lon":5.403088,"is_reserved":false,"is_disabled":false,"rental_uris":{"android":"levelo://app?vid=a20e6d10-3a48-45b7-92fd-a1243587151b","ios":"levelo://app?vid=a20e6d10-3a48-45b7-92fd-a1243587151b"},"vehicle_type_id":"4","last_reported":1740949707,"current_range_meters":13600,"station_id":"ce4bh292rcd13ifvqdg0","pricing_plan_id":"cebpf4jnsgd1na2vs0mg"},{"bike_id":"06db2641-80a7-4472-a502-d0c66e53fb17","system_id":"levelo_inurba_marseille","lat":43.27556,"lon":5.38421,"is_reserved":false,"is_disabled":false,"rental_uris":{"android":"levelo://app?vid=06db2641-80a7-4472-a502-d0c66e53fb17","ios":"levelo://app?vid=06db2641-80a7-4472-a502-d0c66e53fb17"},"vehicle_type_id":"4","last_reported":1740949707,"current_range_meters":13600,"station_id":"ce4bhh92rcd13ifvqfi0","pricing_plan_id":"cebpf4jnsgd1na2vs0mg"},{"bike_id":"26c955ee-b34d-4e21-9012-fe7baa9646e7","system_id":"levelo_inurba_marseille","lat":43.2681,"lon":5.40261,"is_reserved":false,"is_disabled":false,"rental_uris":{"android":"levelo://app?vid=26c955ee-b34d-4e21-9012-fe7baa9646e7","ios":"levelo://app?vid=26c955ee-b34d-4e21-9012-fe7baa9646e7"},"vehicle_type_id":"4","last_reported":1740949707,"current_range_meters":13600,"station_id":"ce501612rcd8frsf0b60","pricing_plan_id":"cebpf4jnsgd1na2vs0mg"},{"bike_id":"ac5892ae-ac78-4c04-aae1-c25c0dd1c9a4","system_id":"levelo_inurba_marseille","lat":43.26807,"lon":5.40261,"is_reserved":false,"is_disabled":false,"rental_uris":{"android":"levelo://app?vid=ac5892ae-ac78-4c04-aae1-c25c0dd1c9a4","ios":"levelo://app?vid=ac5892ae-ac78-4c04-aae1-c25c0dd1c9a4"},"vehicle_type_id":"4","last_reported":1740949707,"current_range_meters":13600,"station_id":"ce501612rcd8frsf0b60","pricing_plan_id":"cebpf4jnsgd1na2vs0mg"},{"bike_id":"b9bb3a4f-109c-4a77-b568-caf784ecb79b","system_id":"levelo_inurba_marseille","lat":43.293651,"lon":5.378468,"is_reserved":false,"is_disabled":false,"rental_uris":{"android":"levelo://app?vid=b9bb3a4f-109c-4a77-b568-caf784ecb79b","ios":"levelo://app?vid=b9bb3a4f-109c-4a77-b568-caf784ecb79b"},"vehicle_type_id":"4","last_reported":1740949707,"current_range_meters":14000,"station_id":"ce4bgjh2rcd13ifvqbf0","pricing_plan_id":"cebpf4jnsgd1na2vs0mg"},{"bike_id":"49911b1f-df50-4168-a292-73a12d729034","system_id":"levelo_inurba_marseille","lat":43.28926,"lon":5.38411,"is_reserved":false,"is_disabled":false,"rental_uris":{"android":"levelo://app?vid=49911b1f-df50-4168-a292-73a12d729034","ios":"levelo://app?vid=49911b1f-df50-4168-a292-73a12d729034"},"vehicle_type_id":"4","last_reported":1740949707,"current_range_meters":14000,"station_id":"ce4bh612rcd13ifvqe6g","pricing_plan_id":"cebpf4jnsgd1na2vs0mg"},{"bike_id":"6b46004f-4edb-4030-b1fc-dc3fa9f0e4b6","system_id":"levelo_inurba_marseille","lat":43.25112,"lon":5.40327,"is_reserved":false,"is_disabled":false,"rental_uris":{"android":"levelo://app?vid=6b46004f-4edb-4030-b1fc-dc3fa9f0e4b6","ios":"levelo://app?vid=6b46004f-4edb-4030-b1fc-dc3fa9f0e4b6"},"vehicle_type_id":"4","last_reported":1740949707,"current_range_meters":14000,"station_id":"ce4bhlh2rcd13ifvqgig","pricing_plan_id":"cebpf4jnsgd1na2vs0mg"},{"bike_id":"1307fc65-524d-4570-b1d0-3705c0568da3","system_id":"levelo_inurba_marseille","lat":43.27806,"lon":5.40711,"is_reserved":false,"is_disabled":false,"rental_uris":{"android":"levelo://app?vid=1307fc65-524d-4570-b1d0-3705c0568da3","ios":"levelo://app?vid=1307fc65-524d-4570-b1d0-3705c0568da3"},"vehicle_type_id":"4","last_reported":1740949707,"current_range_meters":14000,"station_id":"ce4bhnh2rcd13ifvqgtg","pricing_plan_id":"cebpf4jnsgd1na2vs0mg"},{"bike_id":"c5b35fc3-133b-4fcd-9bc1-000b1b46221f","system_id":"levelo_inurba_marseille","lat":43.24181,"lon":5.364,"is_reserved":false,"is_disabled":false,"rental_uris":{"android":"levelo://app?vid=c5b35fc3-133b-4fcd-9bc1-000b1b46221f","ios":"levelo://app?vid=c5b35fc3-133b-4fcd-9bc1-000b1b46221f"},"vehicle_type_id":"4","last_reported":1740949707,"current_range_meters":14000,"station_id":"cpo36qri1sfpv3e86is0","pricing_plan_id":"cebpf4jnsgd1na2vs0mg"},{"bike_id":"464d74b3-2f15-442b-a4b6-a5749b2b207b","system_id":"levelo_inurba_marseille","lat":43.29527,"lon":5.3855,"is_reserved":false,"is_disabled":false,"rental_uris":{"android":"levelo://app?vid=464d74b3-2f15-442b-a4b6-a5749b2b207b","ios":"levelo://app?vid=464d74b3-2f15-442b-a4b6-a5749b2b207b"},"vehicle_type_id":"4","last_reported":1740949707,"current_range_meters":14400,"station_id":"ce4bgih2rcd13ifvqba0","pricing_plan_id":"cebpf4jnsgd1na2vs0mg"},{"bike_id":"3c4ad1e8-4b84-4c21-95ec-7198a2a0df0c","system_id":"levelo_inurba_marseille","lat":43.29939,"lon":5.36552,"is_reserved":false,"is_disabled":false,"rental_uris":{"android":"levelo://app?vid=3c4ad1e8-4b84-4c21-95ec-7198a2a0df0c","ios":"levelo://app?vid=3c4ad1e8-4b84-4c21-95ec-7198a2a0df0c"},"vehicle_type_id":"4","last_reported":1740949707,"current_range_meters":14400,"station_id":"ce4bgm92rcd13ifvqbr0","pricing_plan_id":"cebpf4jnsgd1na2vs0mg"},{"bike_id":"edc1a413-247b-4125-8ff6-3193d9b9b0b7","system_id":"levelo_inurba_marseille","lat":43.24393,"lon":5.37049,"is_reserved":false,"is_disabled":false,"rental_uris":{"android":"levelo://app?vid=edc1a413-247b-4125-8ff6-3193d9b9b0b7","ios":"levelo://app?vid=edc1a413-247b-4125-8ff6-3193d9b9b0b7"},"vehicle_type_id":"4","last_reported":1740949707,"current_range_meters":14400,"station_id":"ce4bhhh2rcd13ifvqfk0","pricing_plan_id":"cebpf4jnsgd1na2vs0mg"},{"bike_id":"b81da216-2962-45b7-afc4-dbe8b9663f8d","system_id":"levelo_inurba_marseille","lat":43.27684,"lon":5.38915,"is_reserved":false,"is_disabled":false,"rental_uris":{"android":"levelo://app?vid=b81da216-2962-45b7-afc4-dbe8b9663f8d","ios":"levelo://app?vid=b81da216-2962-45b7-afc4-dbe8b9663f8d"},"vehicle_type_id":"4","last_reported":1740949707,"current_range_meters":14400,"station_id":"ce4bhi12rcd13ifvqfo0","pricing_plan_id":"cebpf4jnsgd1na2vs0mg"},{"bike_id":"d29e82e5-442b-4177-903e-3742ab7d0a8c","system_id":"levelo_inurba_marseille","lat":43.30017,"lon":5.37446,"is_reserved":false,"is_disabled":false,"rental_uris":{"android":"levelo://app?vid=d29e82e5-442b-4177-903e-3742ab7d0a8c","ios":"levelo://app?vid=d29e82e5-442b-4177-903e-3742ab7d0a8c"},"vehicle_type_id":"4","last_reported":1740949707,"current_range_meters":14800,"station_id":"","pricing_plan_id":"cebpf4jnsgd1na2vs0mg"},{"bike_id":"f3576ec4-edb7-4702-a9c7-d25d3dba7ab5","system_id":"levelo_inurba_marseille","lat":43.31269,"lon":5.40172,"is_reserved":false,"is_disabled":false,"rental_uris":{"android":"levelo://app?vid=f3576ec4-edb7-4702-a9c7-d25d3dba7ab5","ios":"levelo://app?vid=f3576ec4-edb7-4702-a9c7-d25d3dba7ab5"},"vehicle_type_id":"4","last_reported":1740949707,"current_range_meters":14800,"station_id":"ce4bh092rcd13ifvqd30","pricing_plan_id":"cebpf4jnsgd1na2vs0mg"},{"bike_id":"2c5f6957-d531-40e4-8342-1a9be631de97","system_id":"levelo_inurba_marseille","lat":43.28421,"lon":5.37544,"is_reserved":false,"is_disabled":false,"rental_uris":{"android":"levelo://app?vid=2c5f6957-d531-40e4-8342-1a9be631de97","ios":"levelo://app?vid=2c5f6957-d531-40e4-8342-1a9be631de97"},"vehicle_type_id":"4","last_reported":1740949707,"current_range_meters":14800,"station_id":"ce4bh412rcd13ifvqds0","pricing_plan_id":"cebpf4jnsgd1na2vs0mg"},{"bike_id":"670122a3-157a-4ef1-82d1-a5574649dac0","system_id":"levelo_inurba_marseille","lat":43.2395,"lon":5.36643,"is_reserved":false,"is_disabled":false,"rental_uris":{"android":"levelo://app?vid=670122a3-157a-4ef1-82d1-a5574649dac0","ios":"levelo://app?vid=670122a3-157a-4ef1-82d1-a5574649dac0"},"vehicle_type_id":"4","last_reported":1740949707,"current_range_meters":14800,"station_id":"ce4bhi12rcd13ifvqfp0","pricing_plan_id":"cebpf4jnsgd1na2vs0mg"},{"bike_id":"ab1060c6-b742-499d-b43e-31b55742689d","system_id":"levelo_inurba_marseille","lat":43.2783,"lon":5.4071,"is_reserved":false,"is_disabled":false,"rental_uris":{"android":"levelo://app?vid=ab1060c6-b742-499d-b43e-31b55742689d","ios":"levelo://app?vid=ab1060c6-b742-499d-b43e-31b55742689d"},"vehicle_type_id":"4","last_reported":1740949707,"current_range_meters":14800,"station_id":"ce4bhnh2rcd13ifvqgtg","pricing_plan_id":"cebpf4jnsgd1na2vs0mg"},{"bike_id":"21a25fa3-011a-487c-a6a1-9a4a8b99ec63","system_id":"levelo_inurba_marseille","lat":43.3127,"lon":5.37751,"is_reserved":false,"is_disabled":false,"rental_uris":{"android":"levelo://app?vid=21a25fa3-011a-487c-a6a1-9a4a8b99ec63","ios":"levelo://app?vid=21a25fa3-011a-487c-a6a1-9a4a8b99ec63"},"vehicle_type_id":"4","last_reported":1740949707,"current_range_meters":15200,"station_id":"","pricing_plan_id":"cebpf4jnsgd1na2vs0mg"},{"bike_id":"1d3c7fd7-b709-4008-8e9f-a0f764fe60d9","system_id":"levelo_inurba_marseille","lat":43.2955,"lon":5.37405,"is_reserved":false,"is_disabled":false,"rental_uris":{"android":"levelo://app?vid=1d3c7fd7-b709-4008-8e9f-a0f764fe60d9","ios":"levelo://app?vid=1d3c7fd7-b709-4008-8e9f-a0f764fe60d9"},"vehicle_type_id":"4","last_reported":1740949707,"current_range_meters":15200,"station_id":"","pricing_plan_id":"cebpf4jnsgd1na2vs0mg"},{"bike_id":"0703fff1-a8e2-43e6-ade9-a370c390339e","system_id":"levelo_inurba_marseille","lat":43.2721,"lon":5.39152,"is_reserved":false,"is_disabled":false,"rental_uris":{"android":"levelo://app?vid=0703fff1-a8e2-43e6-ade9-a370c390339e","ios":"levelo://app?vid=0703fff1-a8e2-43e6-ade9-a370c390339e"},"vehicle_type_id":"4","last_reported":1740949707,"current_range_meters":15200,"station_id":"ce4bhhp2rcd13ifvqfm0","pricing_plan_id":"cebpf4jnsgd1na2vs0mg"},{"bike_id":"687cd9e6-0cef-4cf3-a0fd-75f582330f2e","system_id":"levelo_inurba_marseille","lat":43.337444,"lon":5.374475,"is_reserved":false,"is_disabled":false,"rental_uris":{"android":"levelo://app?vid=687cd9e6-0cef-4cf3-a0fd-75f582330f2e","ios":"levelo://app?vid=687cd9e6-0cef-4cf3-a0fd-75f582330f2e"},"vehicle_type_id":"4","last_reported":1740949707,"current_range_meters":16000,"station_id":"","pricing_plan_id":"cebpf4jnsgd1na2vs0mg"},{"bike_id":"2848430c-e0ac-406b-99f8-d4a1f7459337","system_id":"levelo_inurba_marseille","lat":43.2124,"lon":5.35302,"is_reserved":false,"is_disabled":false,"rental_uris":{"android":"levelo://app?vid=2848430c-e0ac-406b-99f8-d4a1f7459337","ios":"levelo://app?vid=2848430c-e0ac-406b-99f8-d4a1f7459337"},"vehicle_type_id":"4","last_reported":1740949707,"current_range_meters":16000,"station_id":"","pricing_plan_id":"cebpf4jnsgd1na2vs0mg"},{"bike_id":"751f951d-3b0b-452b-9980-b5e609b5f2bb","system_id":"levelo_inurba_marseille","lat":43.3044,"lon":5.38892,"is_reserved":false,"is_disabled":false,"rental_uris":{"android":"levelo://app?vid=751f951d-3b0b-452b-9980-b5e609b5f2bb","ios":"levelo://app?vid=751f951d-3b0b-452b-9980-b5e609b5f2bb"},"vehicle_type_id":"4","last_reported":1740949707,"current_range_meters":16000,"station_id":"ce4bgk12rcd13ifvqbi0","pricing_plan_id":"cebpf4jnsgd1na2vs0mg"},{"bike_id":"648445c4-2d1b-4af1-aa41-f717826c5401","system_id":"levelo_inurba_marseille","lat":43.29606,"lon":5.381,"is_reserved":false,"is_disabled":false,"rental_uris":{"android":"levelo://app?vid=648445c4-2d1b-4af1-aa41-f717826c5401","ios":"levelo://app?vid=648445c4-2d1b-4af1-aa41-f717826c5401"},"vehicle_type_id":"4","last_reported":1740949707,"current_range_meters":16000,"station_id":"ce4bgl12rcd13ifvqbo0","pricing_plan_id":"cebpf4jnsgd1na2vs0mg"},{"bike_id":"c756324b-7c3e-484b-a078-08970b558217","system_id":"levelo_inurba_marseille","lat":43.267847,"lon":5.394115,"is_reserved":false,"is_disabled":false,"rental_uris":{"android":"levelo://app?vid=c756324b-7c3e-484b-a078-08970b558217","ios":"levelo://app?vid=c756324b-7c3e-484b-a078-08970b558217"},"vehicle_type_id":"4","last_reported":1740949707,"current_range_meters":16000,"station_id":"ce4bh292rcd13ifvqdg0","pricing_plan_id":"cebpf4jnsgd1na2vs0mg"},{"bike_id":"a531b33e-0c70-4fda-a8fd-f89898decd7c","system_id":"levelo_inurba_marseille","lat":43.28698,"lon":5.37404,"is_reserved":false,"is_disabled":false,"rental_uris":{"android":"levelo://app?vid=a531b33e-0c70-4fda-a8fd-f89898decd7c","ios":"levelo://app?vid=a531b33e-0c70-4fda-a8fd-f89898decd7c"},"vehicle_type_id":"4","last_reported":1740949707,"current_range_meters":16000,"station_id":"ce4bh3p2rcd13ifvqdq0","pricing_plan_id":"cebpf4jnsgd1na2vs0mg"},{"bike_id":"4344c971-43c3-4c92-b0ff-47be87956c14","system_id":"levelo_inurba_marseille","lat":43.28414,"lon":5.3755,"is_reserved":false,"is_disabled":false,"rental_uris":{"android":"levelo://app?vid=4344c971-43c3-4c92-b0ff-47be87956c14","ios":"levelo://app?vid=4344c971-43c3-4c92-b0ff-47be87956c14"},"vehicle_type_id":"4","last_reported":1740949707,"current_range_meters":16000,"station_id":"ce4bh412rcd13ifvqds0","pricing_plan_id":"cebpf4jnsgd1na2vs0mg"},{"bike_id":"75ca9b01-7e77-4d95-bffe-054db5fd6865","system_id":"levelo_inurba_marseille","lat":43.27972,"lon":5.38738,"is_reserved":false,"is_disabled":false,"rental_uris":{"android":"levelo://app?vid=75ca9b01-7e77-4d95-bffe-054db5fd6865","ios":"levelo://app?vid=75ca9b01-7e77-4d95-bffe-054db5fd6865"},"vehicle_type_id":"4","last_reported":1740949707,"current_range_meters":16000,"station_id":"ce4bhg12rcd13ifvqf80","pricing_plan_id":"cebpf4jnsgd1na2vs0mg"},{"bike_id":"a4befc2e-2274-4931-b766-4cd55656eb23","system_id":"levelo_inurba_marseille","lat":43.24389,"lon":5.37061,"is_reserved":false,"is_disabled":false,"rental_uris":{"android":"levelo://app?vid=a4befc2e-2274-4931-b766-4cd55656eb23","ios":"levelo://app?vid=a4befc2e-2274-4931-b766-4cd55656eb23"},"vehicle_type_id":"4","last_reported":1740949707,"current_range_meters":16000,"station_id":"ce4bhhh2rcd13ifvqfk0","pricing_plan_id":"cebpf4jnsgd1na2vs0mg"},{"bike_id":"b40b8d0b-27cc-4eb5-9da9-1d246c2fa6dc","system_id":"levelo_inurba_marseille","lat":43.27214,"lon":5.39181,"is_reserved":false,"is_disabled":false,"rental_uris":{"android":"levelo://app?vid=b40b8d0b-27cc-4eb5-9da9-1d246c2fa6dc","ios":"levelo://app?vid=b40b8d0b-27cc-4eb5-9da9-1d246c2fa6dc"},"vehicle_type_id":"4","last_reported":1740949707,"current_range_meters":16000,"station_id":"ce4bhhp2rcd13ifvqfm0","pricing_plan_id":"cebpf4jnsgd1na2vs0mg"},{"bike_id":"b2dda537-96db-43e1-94ba-488c8c86b5a9","system_id":"levelo_inurba_marseille","lat":43.24663,"lon":5.38161,"is_reserved":false,"is_disabled":false,"rental_uris":{"android":"levelo://app?vid=b2dda537-96db-43e1-94ba-488c8c86b5a9","ios":"levelo://app?vid=b2dda537-96db-43e1-94ba-488c8c86b5a9"},"vehicle_type_id":"4","last_reported":1740949707,"current_range_meters":16000,"station_id":"ce4bhih2rcd13ifvqfr0","pricing_plan_id":"cebpf4jnsgd1na2vs0mg"},{"bike_id":"4dd78a9f-9698-4bed-9997-ee4fd5bc3a76","system_id":"levelo_inurba_marseille","lat":43.27071,"lon":5.42279,"is_reserved":false,"is_disabled":false,"rental_uris":{"android":"levelo://app?vid=4dd78a9f-9698-4bed-9997-ee4fd5bc3a76","ios":"levelo://app?vid=4dd78a9f-9698-4bed-9997-ee4fd5bc3a76"},"vehicle_type_id":"4","last_reported":1740949707,"current_range_meters":16000,"station_id":"ce4bhk92rcd13ifvqgb0","pricing_plan_id":"cebpf4jnsgd1na2vs0mg"},{"bike_id":"69379c57-b1c7-4e95-b8eb-049067b38329","system_id":"levelo_inurba_marseille","lat":43.27494,"lon":5.42448,"is_reserved":false,"is_disabled":false,"rental_uris":{"android":"levelo://app?vid=69379c57-b1c7-4e95-b8eb-049067b38329","ios":"levelo://app?vid=69379c57-b1c7-4e95-b8eb-049067b38329"},"vehicle_type_id":"4","last_reported":1740949707,"current_range_meters":16000,"station_id":"ce4bhn92rcd13ifvqgrg","pricing_plan_id":"cebpf4jnsgd1na2vs0mg"},{"bike_id":"05c5652e-f473-4c7f-aa5b-d18dd96fe6c0","system_id":"levelo_inurba_marseille","lat":43.27991,"lon":5.41666,"is_reserved":false,"is_disabled":false,"rental_uris":{"android":"levelo://app?vid=05c5652e-f473-4c7f-aa5b-d18dd96fe6c0","ios":"levelo://app?vid=05c5652e-f473-4c7f-aa5b-d18dd96fe6c0"},"vehicle_type_id":"4","last_reported":1740949707,"current_range_meters":16000,"station_id":"ce4bho12rcd13ifvqh1g","pricing_plan_id":"cebpf4jnsgd1na2vs0mg"},{"bike_id":"94601201-a01b-491a-846a-5d9968f2226a","system_id":"levelo_inurba_marseille","lat":43.30348,"lon":5.38608,"is_reserved":false,"is_disabled":false,"rental_uris":{"android":"levelo://app?vid=94601201-a01b-491a-846a-5d9968f2226a","ios":"levelo://app?vid=94601201-a01b-491a-846a-5d9968f2226a"},"vehicle_type_id":"4","last_reported":1740949707,"current_range_meters":16400,"station_id":"","pricing_plan_id":"cebpf4jnsgd1na2vs0mg"},{"bike_id":"523f0788-7259-4874-86bd-17650d9c00ce","system_id":"levelo_inurba_marseille","lat":43.30676,"lon":5.40055,"is_reserved":false,"is_disabled":false,"rental_uris":{"android":"levelo://app?vid=523f0788-7259-4874-86bd-17650d9c00ce","ios":"levelo://app?vid=523f0788-7259-4874-86bd-17650d9c00ce"},"vehicle_type_id":"4","last_reported":1740949707,"current_range_meters":16400,"station_id":"","pricing_plan_id":"cebpf4jnsgd1na2vs0mg"},{"bike_id":"4ed52d06-7ffd-4555-a5c1-9fd73b2327d9","system_id":"levelo_inurba_marseille","lat":43.30145,"lon":5.38782,"is_reserved":false,"is_disabled":false,"rental_uris":{"android":"levelo://app?vid=4ed52d06-7ffd-4555-a5c1-9fd73b2327d9","ios":"levelo://app?vid=4ed52d06-7ffd-4555-a5c1-9fd73b2327d9"},"vehicle_type_id":"4","last_reported":1740949707,"current_range_meters":16400,"station_id":"ce4bghh2rcd13ifvqb60","pricing_plan_id":"cebpf4jnsgd1na2vs0mg"},{"bike_id":"adf63bbb-eaa0-45a7-a944-bf55da192429","system_id":"levelo_inurba_marseille","lat":43.2927,"lon":5.38448,"is_reserved":false,"is_disabled":false,"rental_uris":{"android":"levelo://app?vid=adf63bbb-eaa0-45a7-a944-bf55da192429","ios":"levelo://app?vid=adf63bbb-eaa0-45a7-a944-bf55da192429"},"vehicle_type_id":"4","last_reported":1740949707,"current_range_meters":16400,"station_id":"ce4bh692rcd13ifvqea0","pricing_plan_id":"cebpf4jnsgd1na2vs0mg"},{"bike_id":"ca5edb48-c193-49eb-b738-99f416095581","system_id":"levelo_inurba_marseille","lat":43.28928,"lon":5.36644,"is_reserved":false,"is_disabled":false,"rental_uris":{"android":"levelo://app?vid=ca5edb48-c193-49eb-b738-99f416095581","ios":"levelo://app?vid=ca5edb48-c193-49eb-b738-99f416095581"},"vehicle_type_id":"4","last_reported":1740949707,"current_range_meters":16400,"station_id":"ce4bhap2rcd13ifvqek0","pricing_plan_id":"cebpf4jnsgd1na2vs0mg"},{"bike_id":"2baa42cb-e0c1-4d09-abff-60f3461b35e1","system_id":"levelo_inurba_marseille","lat":43.2742,"lon":5.39415,"is_reserved":false,"is_disabled":false,"rental_uris":{"android":"levelo://app?vid=2baa42cb-e0c1-4d09-abff-60f3461b35e1","ios":"levelo://app?vid=2baa42cb-e0c1-4d09-abff-60f3461b35e1"},"vehicle_type_id":"4","last_reported":1740949707,"current_range_meters":16400,"station_id":"ce4bhdp2rcd13ifvqf20","pricing_plan_id":"cebpf4jnsgd1na2vs0mg"},{"bike_id":"367fb4ce-d5e7-4054-aafc-c4d30cf921b6","system_id":"levelo_inurba_marseille","lat":43.29724,"lon":5.38113,"is_reserved":false,"is_disabled":false,"rental_uris":{"android":"levelo://app?vid=367fb4ce-d5e7-4054-aafc-c4d30cf921b6","ios":"levelo://app?vid=367fb4ce-d5e7-4054-aafc-c4d30cf921b6"},"vehicle_type_id":"4","last_reported":1740949707,"current_range_meters":16800,"station_id":"","pricing_plan_id":"cebpf4jnsgd1na2vs0mg"},{"bike_id":"cd56ae17-0ee7-40db-8805-022206b524ff","system_id":"levelo_inurba_marseille","lat":43.29605,"lon":5.38104,"is_reserved":false,"is_disabled":false,"rental_uris":{"android":"levelo://app?vid=cd56ae17-0ee7-40db-8805-022206b524ff","ios":"levelo://app?vid=cd56ae17-0ee7-40db-8805-022206b524ff"},"vehicle_type_id":"4","last_reported":1740949707,"current_range_meters":16800,"station_id":"ce4bgl12rcd13ifvqbo0","pricing_plan_id":"cebpf4jnsgd1na2vs0mg"},{"bike_id":"dafa2995-3d00-4c6d-ac92-144547f7168f","system_id":"levelo_inurba_marseille","lat":43.29473,"lon":5.39025,"is_reserved":false,"is_disabled":false,"rental_uris":{"android":"levelo://app?vid=dafa2995-3d00-4c6d-ac92-144547f7168f","ios":"levelo://app?vid=dafa2995-3d00-4c6d-ac92-144547f7168f"},"vehicle_type_id":"4","last_reported":1740949707,"current_range_meters":17200,"station_id":"","pricing_plan_id":"cebpf4jnsgd1na2vs0mg"},{"bike_id":"76f0ecc2-74d2-4458-9089-c4bdf8553e65","system_id":"levelo_inurba_marseille","lat":43.27174,"lon":5.41972,"is_reserved":false,"is_disabled":false,"rental_uris":{"android":"levelo://app?vid=76f0ecc2-74d2-4458-9089-c4bdf8553e65","ios":"levelo://app?vid=76f0ecc2-74d2-4458-9089-c4bdf8553e65"},"vehicle_type_id":"4","last_reported":1740949707,"current_range_meters":17200,"station_id":"","pricing_plan_id":"cebpf4jnsgd1na2vs0mg"},{"bike_id":"7373168c-0ba3-4d06-a86a-e4fc98aedebe","system_id":"levelo_inurba_marseille","lat":43.29711,"lon":5.36626,"is_reserved":false,"is_disabled":false,"rental_uris":{"android":"levelo://app?vid=7373168c-0ba3-4d06-a86a-e4fc98aedebe","ios":"levelo://app?vid=7373168c-0ba3-4d06-a86a-e4fc98aedebe"},"vehicle_type_id":"4","last_reported":1740949707,"current_range_meters":17200,"station_id":"ce4bgn12rcd13ifvqbt0","pricing_plan_id":"cebpf4jnsgd1na2vs0mg"},{"bike_id":"0cd6de10-d5ea-4e4a-8a09-6d9651ff9234","system_id":"levelo_inurba_marseille","lat":43.31324,"lon":5.39694,"is_reserved":false,"is_disabled":false,"rental_uris":{"android":"levelo://app?vid=0cd6de10-d5ea-4e4a-8a09-6d9651ff9234","ios":"levelo://app?vid=0cd6de10-d5ea-4e4a-8a09-6d9651ff9234"},"vehicle_type_id":"4","last_reported":1740949707,"current_range_meters":17200,"station_id":"ce4bgvp2rcd13ifvqcu0","pricing_plan_id":"cebpf4jnsgd1na2vs0mg"},{"bike_id":"723acd6a-9b0c-476a-814f-fdd661ef6b12","system_id":"levelo_inurba_marseille","lat":43.30663,"lon":5.40085,"is_reserved":false,"is_disabled":false,"rental_uris":{"android":"levelo://app?vid=723acd6a-9b0c-476a-814f-fdd661ef6b12","ios":"levelo://app?vid=723acd6a-9b0c-476a-814f-fdd661ef6b12"},"vehicle_type_id":"4","last_reported":1740949707,"current_range_meters":17200,"station_id":"ce4bh112rcd13ifvqda0","pricing_plan_id":"cebpf4jnsgd1na2vs0mg"},{"bike_id":"39d82624-ea19-4844-a592-f67f7bd5f616","system_id":"levelo_inurba_marseille","lat":43.29721,"lon":5.381,"is_reserved":false,"is_disabled":false,"rental_uris":{"android":"levelo://app?vid=39d82624-ea19-4844-a592-f67f7bd5f616","ios":"levelo://app?vid=39d82624-ea19-4844-a592-f67f7bd5f616"},"vehicle_type_id":"4","last_reported":1740949707,"current_range_meters":17600,"station_id":"","pricing_plan_id":"cebpf4jnsgd1na2vs0mg"},{"bike_id":"ee64b076-db53-4a07-8a61-f790fb3d7f18","system_id":"levelo_inurba_marseille","lat":43.29598,"lon":5.37335,"is_reserved":false,"is_disabled":false,"rental_uris":{"android":"levelo://app?vid=ee64b076-db53-4a07-8a61-f790fb3d7f18","ios":"levelo://app?vid=ee64b076-db53-4a07-8a61-f790fb3d7f18"},"vehicle_type_id":"4","last_reported":1740949707,"current_range_meters":17600,"station_id":"","pricing_plan_id":"cebpf4jnsgd1na2vs0mg"},{"bike_id":"aaace025-3089-417e-a8d0-a68c689fb08f","system_id":"levelo_inurba_marseille","lat":43.28421,"lon":5.37537,"is_reserved":false,"is_disabled":false,"rental_uris":{"android":"levelo://app?vid=aaace025-3089-417e-a8d0-a68c689fb08f","ios":"levelo://app?vid=aaace025-3089-417e-a8d0-a68c689fb08f"},"vehicle_type_id":"4","last_reported":1740949707,"current_range_meters":17600,"station_id":"ce4bh412rcd13ifvqds0","pricing_plan_id":"cebpf4jnsgd1na2vs0mg"},{"bike_id":"467e8806-0ea5-43c8-bef5-ac63fe94d7d2","system_id":"levelo_inurba_marseille","lat":43.29735,"lon":5.381125,"is_reserved":false,"is_disabled":false,"rental_uris":{"android":"levelo://app?vid=467e8806-0ea5-43c8-bef5-ac63fe94d7d2","ios":"levelo://app?vid=467e8806-0ea5-43c8-bef5-ac63fe94d7d2"},"vehicle_type_id":"4","last_reported":1740949707,"current_range_meters":17600,"station_id":"ce4bh492rcd13ifvqdug","pricing_plan_id":"cebpf4jnsgd1na2vs0mg"},{"bike_id":"360cb8fb-ae2d-4942-a777-0b20fe1843ea","system_id":"levelo_inurba_marseille","lat":43.26549,"lon":5.37283,"is_reserved":false,"is_disabled":false,"rental_uris":{"android":"levelo://app?vid=360cb8fb-ae2d-4942-a777-0b20fe1843ea","ios":"levelo://app?vid=360cb8fb-ae2d-4942-a777-0b20fe1843ea"},"vehicle_type_id":"4","last_reported":1740949707,"current_range_meters":17600,"station_id":"ce4bhg12rcd13ifvqf70","pricing_plan_id":"cebpf4jnsgd1na2vs0mg"},{"bike_id":"6529d7cc-c924-402a-beab-b10aa4793546","system_id":"levelo_inurba_marseille","lat":43.27184,"lon":5.39147,"is_reserved":false,"is_disabled":false,"rental_uris":{"android":"levelo://app?vid=6529d7cc-c924-402a-beab-b10aa4793546","ios":"levelo://app?vid=6529d7cc-c924-402a-beab-b10aa4793546"},"vehicle_type_id":"4","last_reported":1740949707,"current_range_meters":17600,"station_id":"ce4bhhp2rcd13ifvqfm0","pricing_plan_id":"cebpf4jnsgd1na2vs0mg"},{"bike_id":"553e3afb-3686-4ac0-a033-58eaeab25741","system_id":"levelo_inurba_marseille","lat":43.27073,"lon":5.42282,"is_reserved":false,"is_disabled":false,"rental_uris":{"android":"levelo://app?vid=553e3afb-3686-4ac0-a033-58eaeab25741","ios":"levelo://app?vid=553e3afb-3686-4ac0-a033-58eaeab25741"},"vehicle_type_id":"4","last_reported":1740949707,"current_range_meters":17600,"station_id":"ce4bhk92rcd13ifvqgb0","pricing_plan_id":"cebpf4jnsgd1na2vs0mg"},{"bike_id":"76394e5b-b5d3-409a-954a-e09b2559a295","system_id":"levelo_inurba_marseille","lat":43.23188,"lon":5.35558,"is_reserved":false,"is_disabled":false,"rental_uris":{"android":"levelo://app?vid=76394e5b-b5d3-409a-954a-e09b2559a295","ios":"levelo://app?vid=76394e5b-b5d3-409a-954a-e09b2559a295"},"vehicle_type_id":"4","last_reported":1740949707,"current_range_meters":17600,"station_id":"ce4bhu92rcd13ifvqi70","pricing_plan_id":"cebpf4jnsgd1na2vs0mg"},{"bike_id":"0846796b-c260-4b2b-8113-c556f70f4309","system_id":"levelo_inurba_marseille","lat":43.32725,"lon":5.39208,"is_reserved":false,"is_disabled":false,"rental_uris":{"android":"levelo://app?vid=0846796b-c260-4b2b-8113-c556f70f4309","ios":"levelo://app?vid=0846796b-c260-4b2b-8113-c556f70f4309"},"vehicle_type_id":"4","last_reported":1740949707,"current_range_meters":18000,"station_id":"","pricing_plan_id":"cebpf4jnsgd1na2vs0mg"},{"bike_id":"db6557e3-d612-45f1-870f-c403bf17088e","system_id":"levelo_inurba_marseille","lat":43.2124,"lon":5.35266,"is_reserved":false,"is_disabled":false,"rental_uris":{"android":"levelo://app?vid=db6557e3-d612-45f1-870f-c403bf17088e","ios":"levelo://app?vid=db6557e3-d612-45f1-870f-c403bf17088e"},"vehicle_type_id":"4","last_reported":1740949707,"current_range_meters":18000,"station_id":"","pricing_plan_id":"cebpf4jnsgd1na2vs0mg"},{"bike_id":"f52cb430-51f4-4ab8-9f8b-6083a50fe509","system_id":"levelo_inurba_marseille","lat":43.30581,"lon":5.37193,"is_reserved":false,"is_disabled":false,"rental_uris":{"android":"levelo://app?vid=f52cb430-51f4-4ab8-9f8b-6083a50fe509","ios":"levelo://app?vid=f52cb430-51f4-4ab8-9f8b-6083a50fe509"},"vehicle_type_id":"4","last_reported":1740949707,"current_range_meters":18000,"station_id":"ce4bgqh2rcd13ifvqc4g","pricing_plan_id":"cebpf4jnsgd1na2vs0mg"},{"bike_id":"29b6825d-f401-463c-a300-2cce33b52aa3","system_id":"levelo_inurba_marseille","lat":43.2871,"lon":5.37933,"is_reserved":false,"is_disabled":false,"rental_uris":{"android":"levelo://app?vid=29b6825d-f401-463c-a300-2cce33b52aa3","ios":"levelo://app?vid=29b6825d-f401-463c-a300-2cce33b52aa3"},"vehicle_type_id":"4","last_reported":1740949707,"current_range_meters":18000,"station_id":"ce4bh9p2rcd13ifvqec0","pricing_plan_id":"cebpf4jnsgd1na2vs0mg"},{"bike_id":"39268ff8-cdd9-40e3-ab4e-e8006ee8350f","system_id":"levelo_inurba_marseille","lat":43.2867,"lon":5.36349,"is_reserved":false,"is_disabled":false,"rental_uris":{"android":"levelo://app?vid=39268ff8-cdd9-40e3-ab4e-e8006ee8350f","ios":"levelo://app?vid=39268ff8-cdd9-40e3-ab4e-e8006ee8350f"},"vehicle_type_id":"4","last_reported":1740949707,"current_range_meters":18000,"station_id":"ce4bhah2rcd13ifvqej0","pricing_plan_id":"cebpf4jnsgd1na2vs0mg"},{"bike_id":"68637cb7-a80c-4ff7-b3c5-35ec8928b167","system_id":"levelo_inurba_marseille","lat":43.26193,"lon":5.37449,"is_reserved":false,"is_disabled":false,"rental_uris":{"android":"levelo://app?vid=68637cb7-a80c-4ff7-b3c5-35ec8928b167","ios":"levelo://app?vid=68637cb7-a80c-4ff7-b3c5-35ec8928b167"},"vehicle_type_id":"4","last_reported":1740949707,"current_range_meters":18000,"station_id":"ce4bhgp2rcd13ifvqfc0","pricing_plan_id":"cebpf4jnsgd1na2vs0mg"},{"bike_id":"123d5adf-8e93-46cc-93b8-80cd2a012f7c","system_id":"levelo_inurba_marseille","lat":43.27081,"lon":5.42296,"is_reserved":false,"is_disabled":false,"rental_uris":{"android":"levelo://app?vid=123d5adf-8e93-46cc-93b8-80cd2a012f7c","ios":"levelo://app?vid=123d5adf-8e93-46cc-93b8-80cd2a012f7c"},"vehicle_type_id":"4","last_reported":1740949707,"current_range_meters":18000,"station_id":"ce4bhk92rcd13ifvqgb0","pricing_plan_id":"cebpf4jnsgd1na2vs0mg"},{"bike_id":"a2b1df92-4430-43e7-aefa-aead754347cf","system_id":"levelo_inurba_marseille","lat":43.25706,"lon":5.41061,"is_reserved":false,"is_disabled":false,"rental_uris":{"android":"levelo://app?vid=a2b1df92-4430-43e7-aefa-aead754347cf","ios":"levelo://app?vid=a2b1df92-4430-43e7-aefa-aead754347cf"},"vehicle_type_id":"4","last_reported":1740949707,"current_range_meters":18000,"station_id":"ce4bhkp2rcd13ifvqgd0","pricing_plan_id":"cebpf4jnsgd1na2vs0mg"},{"bike_id":"36c4d28b-a1e8-4ec8-899d-5b78e5851159","system_id":"levelo_inurba_marseille","lat":43.27809,"lon":5.40713,"is_reserved":false,"is_disabled":false,"rental_uris":{"android":"levelo://app?vid=36c4d28b-a1e8-4ec8-899d-5b78e5851159","ios":"levelo://app?vid=36c4d28b-a1e8-4ec8-899d-5b78e5851159"},"vehicle_type_id":"4","last_reported":1740949707,"current_range_meters":18000,"station_id":"ce4bhnh2rcd13ifvqgtg","pricing_plan_id":"cebpf4jnsgd1na2vs0mg"},{"bike_id":"0d298ec3-66f1-4c0c-8a68-c90d2c8fdd9e","system_id":"levelo_inurba_marseille","lat":43.29563,"lon":5.42271,"is_reserved":false,"is_disabled":false,"rental_uris":{"android":"levelo://app?vid=0d298ec3-66f1-4c0c-8a68-c90d2c8fdd9e","ios":"levelo://app?vid=0d298ec3-66f1-4c0c-8a68-c90d2c8fdd9e"},"vehicle_type_id":"4","last_reported":1740949707,"current_range_meters":18000,"station_id":"ce4bhph2rcd13ifvqhdg","pricing_plan_id":"cebpf4jnsgd1na2vs0mg"},{"bike_id":"42cc57ce-ae6a-4e48-8089-2af745092243","system_id":"levelo_inurba_marseille","lat":43.31333,"lon":5.39692,"is_reserved":false,"is_disabled":false,"rental_uris":{"android":"levelo://app?vid=42cc57ce-ae6a-4e48-8089-2af745092243","ios":"levelo://app?vid=42cc57ce-ae6a-4e48-8089-2af745092243"},"vehicle_type_id":"4","last_reported":1740949707,"current_range_meters":18800,"station_id":"ce4bgvp2rcd13ifvqcu0","pricing_plan_id":"cebpf4jnsgd1na2vs0mg"},{"bike_id":"c27eb960-def0-420c-b70e-6a7bb14644f0","system_id":"levelo_inurba_marseille","lat":43.29874,"lon":5.38903,"is_reserved":false,"is_disabled":false,"rental_uris":{"android":"levelo://app?vid=c27eb960-def0-420c-b70e-6a7bb14644f0","ios":"levelo://app?vid=c27eb960-def0-420c-b70e-6a7bb14644f0"},"vehicle_type_id":"4","last_reported":1740949707,"current_range_meters":18800,"station_id":"ce4bh392rcd13ifvqdl0","pricing_plan_id":"cebpf4jnsgd1na2vs0mg"},{"bike_id":"ad2cc7bf-285b-43c8-921d-0797db38b5ff","system_id":"levelo_inurba_marseille","lat":43.29084,"lon":5.38156,"is_reserved":false,"is_disabled":false,"rental_uris":{"android":"levelo://app?vid=ad2cc7bf-285b-43c8-921d-0797db38b5ff","ios":"levelo://app?vid=ad2cc7bf-285b-43c8-921d-0797db38b5ff"},"vehicle_type_id":"4","last_reported":1740949707,"current_range_meters":18800,"station_id":"ce4bh512rcd13ifvqe2g","pricing_plan_id":"cebpf4jnsgd1na2vs0mg"},{"bike_id":"709ce59e-2ba2-4c68-8559-1f9c81b62fd7","system_id":"levelo_inurba_marseille","lat":43.26674,"lon":5.3826,"is_reserved":false,"is_disabled":false,"rental_uris":{"android":"levelo://app?vid=709ce59e-2ba2-4c68-8559-1f9c81b62fd7","ios":"levelo://app?vid=709ce59e-2ba2-4c68-8559-1f9c81b62fd7"},"vehicle_type_id":"4","last_reported":1740949707,"current_range_meters":18800,"station_id":"ce4bhg92rcd13ifvqf90","pricing_plan_id":"cebpf4jnsgd1na2vs0mg"},{"bike_id":"ba1ba081-a651-458b-864c-f93419b9b0b6","system_id":"levelo_inurba_marseille","lat":43.25017,"lon":5.389,"is_reserved":false,"is_disabled":false,"rental_uris":{"android":"levelo://app?vid=ba1ba081-a651-458b-864c-f93419b9b0b6","ios":"levelo://app?vid=ba1ba081-a651-458b-864c-f93419b9b0b6"},"vehicle_type_id":"4","last_reported":1740949707,"current_range_meters":18800,"station_id":"ce4bhgp2rcd13ifvqfd0","pricing_plan_id":"cebpf4jnsgd1na2vs0mg"},{"bike_id":"8325dad4-1989-447f-b883-aaa2a76a4725","system_id":"levelo_inurba_marseille","lat":43.24387,"lon":5.37043,"is_reserved":false,"is_disabled":false,"rental_uris":{"android":"levelo://app?vid=8325dad4-1989-447f-b883-aaa2a76a4725","ios":"levelo://app?vid=8325dad4-1989-447f-b883-aaa2a76a4725"},"vehicle_type_id":"4","last_reported":1740949707,"current_range_meters":18800,"station_id":"ce4bhhh2rcd13ifvqfk0","pricing_plan_id":"cebpf4jnsgd1na2vs0mg"},{"bike_id":"3c23bf49-7704-4d61-b8e7-41ff4741ae35","system_id":"levelo_inurba_marseille","lat":43.27212,"lon":5.391737,"is_reserved":false,"is_disabled":false,"rental_uris":{"android":"levelo://app?vid=3c23bf49-7704-4d61-b8e7-41ff4741ae35","ios":"levelo://app?vid=3c23bf49-7704-4d61-b8e7-41ff4741ae35"},"vehicle_type_id":"4","last_reported":1740949707,"current_range_meters":18800,"station_id":"ce4bhhp2rcd13ifvqfm0","pricing_plan_id":"cebpf4jnsgd1na2vs0mg"},{"bike_id":"e2d769b5-840d-4fd5-b8b2-a98d94d28e07","system_id":"levelo_inurba_marseille","lat":43.27074,"lon":5.42282,"is_reserved":false,"is_disabled":false,"rental_uris":{"android":"levelo://app?vid=e2d769b5-840d-4fd5-b8b2-a98d94d28e07","ios":"levelo://app?vid=e2d769b5-840d-4fd5-b8b2-a98d94d28e07"},"vehicle_type_id":"4","last_reported":1740949707,"current_range_meters":18800,"station_id":"ce4bhk92rcd13ifvqgb0","pricing_plan_id":"cebpf4jnsgd1na2vs0mg"},{"bike_id":"b66dabdf-64cc-434c-aef1-9c7d0448b8ef","system_id":"levelo_inurba_marseille","lat":43.27059,"lon":5.40286,"is_reserved":false,"is_disabled":false,"rental_uris":{"android":"levelo://app?vid=b66dabdf-64cc-434c-aef1-9c7d0448b8ef","ios":"levelo://app?vid=b66dabdf-64cc-434c-aef1-9c7d0448b8ef"},"vehicle_type_id":"4","last_reported":1740949707,"current_range_meters":18800,"station_id":"ce4bhk92rcd13ifvqgc0","pricing_plan_id":"cebpf4jnsgd1na2vs0mg"},{"bike_id":"ad364d62-4b4b-4fd1-aa32-74c3786b03a7","system_id":"levelo_inurba_marseille","lat":43.27071,"lon":5.40275,"is_reserved":false,"is_disabled":false,"rental_uris":{"android":"levelo://app?vid=ad364d62-4b4b-4fd1-aa32-74c3786b03a7","ios":"levelo://app?vid=ad364d62-4b4b-4fd1-aa32-74c3786b03a7"},"vehicle_type_id":"4","last_reported":1740949707,"current_range_meters":18800,"station_id":"ce4bhk92rcd13ifvqgc0","pricing_plan_id":"cebpf4jnsgd1na2vs0mg"},{"bike_id":"62cb0cc9-5e6c-492a-b088-33fea151eb3e","system_id":"levelo_inurba_marseille","lat":43.27963,"lon":5.41665,"is_reserved":false,"is_disabled":false,"rental_uris":{"android":"levelo://app?vid=62cb0cc9-5e6c-492a-b088-33fea151eb3e","ios":"levelo://app?vid=62cb0cc9-5e6c-492a-b088-33fea151eb3e"},"vehicle_type_id":"4","last_reported":1740949707,"current_range_meters":18800,"station_id":"ce4bho12rcd13ifvqh1g","pricing_plan_id":"cebpf4jnsgd1na2vs0mg"},{"bike_id":"0b1d16a8-c879-4989-bfe7-7eb35a59ec23","system_id":"levelo_inurba_marseille","lat":43.25185,"lon":5.37821,"is_reserved":false,"is_disabled":false,"rental_uris":{"android":"levelo://app?vid=0b1d16a8-c879-4989-bfe7-7eb35a59ec23","ios":"levelo://app?vid=0b1d16a8-c879-4989-bfe7-7eb35a59ec23"},"vehicle_type_id":"4","last_reported":1740949707,"current_range_meters":19200,"station_id":"","pricing_plan_id":"cebpf4jnsgd1na2vs0mg"},{"bike_id":"2e98121c-8891-4ab6-a9c5-0c0bca4f1004","system_id":"levelo_inurba_marseille","lat":43.30974,"lon":5.37169,"is_reserved":false,"is_disabled":false,"rental_uris":{"android":"levelo://app?vid=2e98121c-8891-4ab6-a9c5-0c0bca4f1004","ios":"levelo://app?vid=2e98121c-8891-4ab6-a9c5-0c0bca4f1004"},"vehicle_type_id":"4","last_reported":1740949707,"current_range_meters":19200,"station_id":"","pricing_plan_id":"cebpf4jnsgd1na2vs0mg"},{"bike_id":"05f79b85-f3d0-43dc-8446-f0e096c99a76","system_id":"levelo_inurba_marseille","lat":43.29376,"lon":5.42801,"is_reserved":false,"is_disabled":false,"rental_uris":{"android":"levelo://app?vid=05f79b85-f3d0-43dc-8446-f0e096c99a76","ios":"levelo://app?vid=05f79b85-f3d0-43dc-8446-f0e096c99a76"},"vehicle_type_id":"4","last_reported":1740949707,"current_range_meters":19200,"station_id":"","pricing_plan_id":"cebpf4jnsgd1na2vs0mg"},{"bike_id":"88858c28-5a08-41e9-b766-6b2e555e71e3","system_id":"levelo_inurba_marseille","lat":43.29585,"lon":5.38149,"is_reserved":false,"is_disabled":false,"rental_uris":{"android":"levelo://app?vid=88858c28-5a08-41e9-b766-6b2e555e71e3","ios":"levelo://app?vid=88858c28-5a08-41e9-b766-6b2e555e71e3"},"vehicle_type_id":"4","last_reported":1740949707,"current_range_meters":19200,"station_id":"ce4bgl12rcd13ifvqbo0","pricing_plan_id":"cebpf4jnsgd1na2vs0mg"},{"bike_id":"b1244363-4b14-4f04-92a3-504fdb19589c","system_id":"levelo_inurba_marseille","lat":43.28694,"lon":5.37385,"is_reserved":false,"is_disabled":false,"rental_uris":{"android":"levelo://app?vid=b1244363-4b14-4f04-92a3-504fdb19589c","ios":"levelo://app?vid=b1244363-4b14-4f04-92a3-504fdb19589c"},"vehicle_type_id":"4","last_reported":1740949707,"current_range_meters":19200,"station_id":"ce4bh3p2rcd13ifvqdq0","pricing_plan_id":"cebpf4jnsgd1na2vs0mg"},{"bike_id":"132dd1c8-eaff-40bd-ab95-ca5ba6f07040","system_id":"levelo_inurba_marseille","lat":43.28347,"lon":5.38111,"is_reserved":false,"is_disabled":false,"rental_uris":{"android":"levelo://app?vid=132dd1c8-eaff-40bd-ab95-ca5ba6f07040","ios":"levelo://app?vid=132dd1c8-eaff-40bd-ab95-ca5ba6f07040"},"vehicle_type_id":"4","last_reported":1740949707,"current_range_meters":19200,"station_id":"ce4bh412rcd13ifvqdr0","pricing_plan_id":"cebpf4jnsgd1na2vs0mg"},{"bike_id":"9573f001-b93c-46ca-8801-eba963a387cc","system_id":"levelo_inurba_marseille","lat":43.275391,"lon":5.389783,"is_reserved":false,"is_disabled":false,"rental_uris":{"android":"levelo://app?vid=9573f001-b93c-46ca-8801-eba963a387cc","ios":"levelo://app?vid=9573f001-b93c-46ca-8801-eba963a387cc"},"vehicle_type_id":"4","last_reported":1740949707,"current_range_meters":19200,"station_id":"ce4bhi12rcd13ifvqfo0","pricing_plan_id":"cebpf4jnsgd1na2vs0mg"},{"bike_id":"7eee2403-99a7-463a-9751-125ed8da2c18","system_id":"levelo_inurba_marseille","lat":43.2586,"lon":5.39906,"is_reserved":false,"is_disabled":false,"rental_uris":{"android":"levelo://app?vid=7eee2403-99a7-463a-9751-125ed8da2c18","ios":"levelo://app?vid=7eee2403-99a7-463a-9751-125ed8da2c18"},"vehicle_type_id":"4","last_reported":1740949707,"current_range_meters":19200,"station_id":"ce4bhl92rcd13ifvqghg","pricing_plan_id":"cebpf4jnsgd1na2vs0mg"},{"bike_id":"42270d13-d8e7-4a24-8714-40ef5dd2f047","system_id":"levelo_inurba_marseille","lat":43.25116,"lon":5.40318,"is_reserved":false,"is_disabled":false,"rental_uris":{"android":"levelo://app?vid=42270d13-d8e7-4a24-8714-40ef5dd2f047","ios":"levelo://app?vid=42270d13-d8e7-4a24-8714-40ef5dd2f047"},"vehicle_type_id":"4","last_reported":1740949707,"current_range_meters":19200,"station_id":"ce4bhlh2rcd13ifvqgig","pricing_plan_id":"cebpf4jnsgd1na2vs0mg"},{"bike_id":"5a605fc2-8bdd-4bb3-bf76-9387d76aad2b","system_id":"levelo_inurba_marseille","lat":43.2418,"lon":5.39731,"is_reserved":false,"is_disabled":false,"rental_uris":{"android":"levelo://app?vid=5a605fc2-8bdd-4bb3-bf76-9387d76aad2b","ios":"levelo://app?vid=5a605fc2-8bdd-4bb3-bf76-9387d76aad2b"},"vehicle_type_id":"4","last_reported":1740949707,"current_range_meters":19200,"station_id":"ce4bhn12rcd13ifvqgpg","pricing_plan_id":"cebpf4jnsgd1na2vs0mg"},{"bike_id":"056e5918-eaae-4bb0-a14f-4ff0f6c20d5c","system_id":"levelo_inurba_marseille","lat":43.24186,"lon":5.36419,"is_reserved":false,"is_disabled":false,"rental_uris":{"android":"levelo://app?vid=056e5918-eaae-4bb0-a14f-4ff0f6c20d5c","ios":"levelo://app?vid=056e5918-eaae-4bb0-a14f-4ff0f6c20d5c"},"vehicle_type_id":"4","last_reported":1740949707,"current_range_meters":19200,"station_id":"cpo36qri1sfpv3e86is0","pricing_plan_id":"cebpf4jnsgd1na2vs0mg"},{"bike_id":"4300cf9b-3f21-4db1-957e-9b9d93ea7ac9","system_id":"levelo_inurba_marseille","lat":43.31085,"lon":5.38147,"is_reserved":false,"is_disabled":false,"rental_uris":{"android":"levelo://app?vid=4300cf9b-3f21-4db1-957e-9b9d93ea7ac9","ios":"levelo://app?vid=4300cf9b-3f21-4db1-957e-9b9d93ea7ac9"},"vehicle_type_id":"4","last_reported":1740949707,"current_range_meters":19600,"station_id":"","pricing_plan_id":"cebpf4jnsgd1na2vs0mg"},{"bike_id":"8bc3f892-d336-44c6-9269-16b71df03d52","system_id":"levelo_inurba_marseille","lat":43.29193,"lon":5.39322,"is_reserved":false,"is_disabled":false,"rental_uris":{"android":"levelo://app?vid=8bc3f892-d336-44c6-9269-16b71df03d52","ios":"levelo://app?vid=8bc3f892-d336-44c6-9269-16b71df03d52"},"vehicle_type_id":"4","last_reported":1740949707,"current_range_meters":19600,"station_id":"ce4bh192rcd13ifvqdd0","pricing_plan_id":"cebpf4jnsgd1na2vs0mg"},{"bike_id":"fb82a47c-3c96-4bda-afcd-af9c04501056","system_id":"levelo_inurba_marseille","lat":43.28405,"lon":5.37505,"is_reserved":false,"is_disabled":false,"rental_uris":{"android":"levelo://app?vid=fb82a47c-3c96-4bda-afcd-af9c04501056","ios":"levelo://app?vid=fb82a47c-3c96-4bda-afcd-af9c04501056"},"vehicle_type_id":"4","last_reported":1740949707,"current_range_meters":19600,"station_id":"ce4bh412rcd13ifvqds0","pricing_plan_id":"cebpf4jnsgd1na2vs0mg"},{"bike_id":"12998719-c5fe-456e-983b-742fc55d6128","system_id":"levelo_inurba_marseille","lat":43.23968,"lon":5.36628,"is_reserved":false,"is_disabled":false,"rental_uris":{"android":"levelo://app?vid=12998719-c5fe-456e-983b-742fc55d6128","ios":"levelo://app?vid=12998719-c5fe-456e-983b-742fc55d6128"},"vehicle_type_id":"4","last_reported":1740949707,"current_range_meters":19600,"station_id":"ce4bhi12rcd13ifvqfp0","pricing_plan_id":"cebpf4jnsgd1na2vs0mg"},{"bike_id":"22dbf706-a1f8-4781-976d-fafbe5dfeac0","system_id":"levelo_inurba_marseille","lat":43.25823,"lon":5.39438,"is_reserved":false,"is_disabled":false,"rental_uris":{"android":"levelo://app?vid=22dbf706-a1f8-4781-976d-fafbe5dfeac0","ios":"levelo://app?vid=22dbf706-a1f8-4781-976d-fafbe5dfeac0"},"vehicle_type_id":"4","last_reported":1740949707,"current_range_meters":19600,"station_id":"ce4bhip2rcd13ifvqft0","pricing_plan_id":"cebpf4jnsgd1na2vs0mg"},{"bike_id":"9169c4a7-b233-4fe4-a763-6e8f6136cbd3","system_id":"levelo_inurba_marseille","lat":43.27057,"lon":5.4031,"is_reserved":false,"is_disabled":false,"rental_uris":{"android":"levelo://app?vid=9169c4a7-b233-4fe4-a763-6e8f6136cbd3","ios":"levelo://app?vid=9169c4a7-b233-4fe4-a763-6e8f6136cbd3"},"vehicle_type_id":"4","last_reported":1740949707,"current_range_meters":19600,"station_id":"ce4bhk92rcd13ifvqgc0","pricing_plan_id":"cebpf4jnsgd1na2vs0mg"},{"bike_id":"00ec7861-3191-4cee-98af-2e93d68ec449","system_id":"levelo_inurba_marseille","lat":43.278107,"lon":5.407182,"is_reserved":false,"is_disabled":false,"rental_uris":{"android":"levelo://app?vid=00ec7861-3191-4cee-98af-2e93d68ec449","ios":"levelo://app?vid=00ec7861-3191-4cee-98af-2e93d68ec449"},"vehicle_type_id":"4","last_reported":1740949707,"current_range_meters":19600,"station_id":"ce4bhnh2rcd13ifvqgtg","pricing_plan_id":"cebpf4jnsgd1na2vs0mg"},{"bike_id":"2975d942-7a9c-42db-a7f3-75fffbb5b106","system_id":"levelo_inurba_marseille","lat":43.26954,"lon":5.40247,"is_reserved":false,"is_disabled":false,"rental_uris":{"android":"levelo://app?vid=2975d942-7a9c-42db-a7f3-75fffbb5b106","ios":"levelo://app?vid=2975d942-7a9c-42db-a7f3-75fffbb5b106"},"vehicle_type_id":"4","last_reported":1740949707,"current_range_meters":19600,"station_id":"cjm6bp8fraef2m0cb0m0","pricing_plan_id":"cebpf4jnsgd1na2vs0mg"},{"bike_id":"882ff3c9-c6fe-402f-84ad-87614da4ea79","system_id":"levelo_inurba_marseille","lat":43.28709,"lon":5.37392,"is_reserved":false,"is_disabled":false,"rental_uris":{"android":"levelo://app?vid=882ff3c9-c6fe-402f-84ad-87614da4ea79","ios":"levelo://app?vid=882ff3c9-c6fe-402f-84ad-87614da4ea79"},"vehicle_type_id":"4","last_reported":1740949707,"current_range_meters":20400,"station_id":"ce4bh3p2rcd13ifvqdq0","pricing_plan_id":"cebpf4jnsgd1na2vs0mg"},{"bike_id":"b695c1b8-9d19-4083-975b-f498ffa15a5a","system_id":"levelo_inurba_marseille","lat":43.28717,"lon":5.3744,"is_reserved":false,"is_disabled":false,"rental_uris":{"android":"levelo://app?vid=b695c1b8-9d19-4083-975b-f498ffa15a5a","ios":"levelo://app?vid=b695c1b8-9d19-4083-975b-f498ffa15a5a"},"vehicle_type_id":"4","last_reported":1740949707,"current_range_meters":20400,"station_id":"ce4bh3p2rcd13ifvqdq0","pricing_plan_id":"cebpf4jnsgd1na2vs0mg"},{"bike_id":"4aaec2e6-2dfb-4159-821a-7a493fa8e5f4","system_id":"levelo_inurba_marseille","lat":43.25005,"lon":5.38901,"is_reserved":false,"is_disabled":false,"rental_uris":{"android":"levelo://app?vid=4aaec2e6-2dfb-4159-821a-7a493fa8e5f4","ios":"levelo://app?vid=4aaec2e6-2dfb-4159-821a-7a493fa8e5f4"},"vehicle_type_id":"4","last_reported":1740949707,"current_range_meters":20400,"station_id":"ce4bhgp2rcd13ifvqfd0","pricing_plan_id":"cebpf4jnsgd1na2vs0mg"},