{"last_updated":1730470117,"ttl":60,"version":"2.2","data":{"bikes":[{"bike_id":"baa5d8b2-8abc-4f47-aaea-2b6f975fb2b0","system_id":"levelo_inurba_marseille","lat":43.28425,"lon":5.34998,"is_reserved":false,"is_disabled":false,"rental_uris":{"android":"levelo://app?vid=baa5d8b2-8abc-4f47-aaea-2b6f975fb2b0","ios":"levelo://app?vid=baa5d8b2-8abc-4f47-aaea-2b6f975fb2b0"},"vehicle_type_id":"4","last_reported":1730470117,"current_range_meters":38800,"station_id":"ce4bhbh2rcd13ifvqepg","pricing_plan_id":"cebpf4jnsgd1na2vs0mg"},{"bike_id":"5f91fdb1-af44-4e60-814c-d84487ed3693","system_id":"levelo_inurba_marseille","lat":43.24665,"lon":5.3817,"is_reserved":false,"is_disabled":false,"rental_uris":{"android":"levelo://app?vid=5f91fdb1-af44-4e60-814c-d84487ed3693","ios":"levelo://app?vid=5f91fdb1-af44-4e60-814c-d84487ed3693"},"vehicle_type_id":"4","last_reported":1730470117,"current_range_meters":35200,"station_id":"ce4bhih2rcd13ifvqfr0","pricing_plan_id":"cebpf4jnsgd1na2vs0mg"},{"bike_id":"1532ad31-bec3-4523-a177-605b509fab5d","system_id":"levelo_inurba_marseille","lat":43.2901,"lon":5.35618,"is_reserved":false,"is_disabled":false,"rental_uris":{"android":"levelo://app?vid=1532ad31-bec3-4523-a177-605b509fab5d","ios":"levelo://app?vid=1532ad31-bec3-4523-a177-605b509fab5d"},"vehicle_type_id":"4","last_reported":1730470117,"current_range_meters":28800,"station_id":"ce4bhb92rcd13ifvqen0","pricing_plan_id":"cebpf4jnsgd1na2vs0mg"},{"bike_id":"dc015d1f-276c-40fe-8a60-f8e4ce96a4c8","system_id":"levelo_inurba_marseille","lat":43.28418,"lon":5.34984,"is_reserved":false,"is_disabled":false,"rental_uris":{"android":"levelo://app?vid=dc015d1f-276c-40fe-8a60-f8e4ce96a4c8","ios":"levelo://app?vid=dc015d1f-276c-40fe-8a60-f8e4ce96a4c8"},"vehicle_type_id":"4","last_reported":1730470117,"current_range_meters":11600,"station_id":"ce4bhbh2rcd13ifvqepg","pricing_plan_id":"cebpf4jnsgd1na2vs0mg"},{"bike_id":"72aeef7b-29fe-46b8-a95f-dcd59fc8c40f","system_id":"levelo_inurba_marseille","lat":43.27073,"lon":5.4228,"is_reserved":false,"is_disabled":false,"rental_uris":{"android":"levelo://app?vid=72aeef7b-29fe-46b8-a95f-dcd59fc8c40f","ios":"levelo://app?vid=72aeef7b-29fe-46b8-a95f-dcd59fc8c40f"},"vehicle_type_id":"4","last_reported":1730470117,"current_range_meters":25200,"station_id":"ce4bhk92rcd13ifvqgb0","pricing_plan_id":"cebpf4jnsgd1na2vs0mg"},{"bike_id":"7fce5b9c-5d3b-4868-b43f-177dd1f89b7e","system_id":"levelo_inurba_marseille","lat":43.30795,"lon":5.38161,"is_reserved":false,"is_disabled":false,"rental_uris":{"android":"levelo://app?vid=7fce5b9c-5d3b-4868-b43f-177dd1f89b7e","ios":"levelo://app?vid=7fce5b9c-5d3b-4868-b43f-177dd1f89b7e"},"vehicle_type_id":"4","last_reported":1730470117,"current_range_meters":24000,"station_id":"ce4bgt12rcd13ifvqce0","pricing_plan_id":"cebpf4jnsgd1na2vs0mg"},{"bike_id":"a8223920-1aec-4d99-99c7-1d57724d1cd7","system_id":"levelo_inurba_marseille","lat":43.29916,"lon":5.37479,"is_reserved":false,"is_disabled":false,"rental_uris":{"android":"levelo://app?vid=a8223920-1aec-4d99-99c7-1d57724d1cd7","ios":"levelo://app?vid=a8223920-1aec-4d99-99c7-1d57724d1cd7"},"vehicle_type_id":"4","last_reported":1730470117,"current_range_meters":38000,"station_id":"ce4bgjh2rcd13ifvqbg0","pricing_plan_id":"cebpf4jnsgd1na2vs0mg"},{"bike_id":"593c91b5-204c-4da6-be51-88ac8457a9ee","system_id":"levelo_inurba_marseille","lat":43.24175,"lon":5.36404,"is_reserved":false,"is_disabled":false,"rental_uris":{"android":"levelo://app?vid=593c91b5-204c-4da6-be51-88ac8457a9ee","ios":"levelo://app?vid=593c91b5-204c-4da6-be51-88ac8457a9ee"},"vehicle_type_id":"4","last_reported":1730470117,"current_range_meters":32800,"station_id":"cpo36qri1sfpv3e86is0","pricing_plan_id":"cebpf4jnsgd1na2vs0mg"},{"bike_id":"82f83eed-f359-445f-b2a1-3ac29bc02e10","system_id":"levelo_inurba_marseille","lat":43.2951,"lon":5.39397,"is_reserved":false,"is_disabled":false,"rental_uris":{"android":"levelo://app?vid=82f83eed-f359-445f-b2a1-3ac29bc02e10","ios":"levelo://app?vid=82f83eed-f359-445f-b2a1-3ac29bc02e10"},"vehicle_type_id":"4","last_reported":1730470117,"current_range_meters":14000,"station_id":"ce4bh292rcd13ifvqdf0","pricing_plan_id":"cebpf4jnsgd1na2vs0mg"},{"bike_id":"512c4bd5-3edb-49b7-a54a-bbe327a08aa0","system_id":"levelo_inurba_marseille","lat":43.25735,"lon":5.41113,"is_reserved":false,"is_disabled":false,"rental_uris":{"android":"levelo://app?vid=512c4bd5-3edb-49b7-a54a-bbe327a08aa0","ios":"levelo://app?vid=512c4bd5-3edb-49b7-a54a-bbe327a08aa0"},"vehicle_type_id":"4","last_reported":1730470117,"current_range_meters":17600,"station_id":"ce4bhkp2rcd13ifvqgd0","pricing_plan_id":"cebpf4jnsgd1na2vs0mg"},{"bike_id":"a4627486-a087-47d1-bdea-e9476cd49986","system_id":"levelo_inurba_marseille","lat":43.23198,"lon":5.35549,"is_reserved":false,"is_disabled":false,"rental_uris":{"android":"levelo://app?vid=a4627486-a087-47d1-bdea-e9476cd49986","ios":"levelo://app?vid=a4627486-a087-47d1-bdea-e9476cd49986"},"vehicle_type_id":"4","last_reported":1730470117,"current_range_meters":31200,"station_id":"ce4bhu92rcd13ifvqi70","pricing_plan_id":"cebpf4jnsgd1na2vs0mg"},{"bike_id":"509a9bdc-ca48-4855-8040-748bb9b3087b","system_id":"levelo_inurba_marseille","lat":43.25942,"lon":5.40902,"is_reserved":false,"is_disabled":false,"rental_uris":{"android":"levelo://app?vid=509a9bdc-ca48-4855-8040-748bb9b3087b","ios":"levelo://app?vid=509a9bdc-ca48-4855-8040-748bb9b3087b"},"vehicle_type_id":"4","last_reported":1730470117,"current_range_meters":27200,"station_id":"ce4bhm92rcd13ifvqglg","pricing_plan_id":"cebpf4jnsgd1na2vs0mg"},{"bike_id":"c6349e91-9caa-4934-a8ae-6e1d497938dd","system_id":"levelo_inurba_marseille","lat":43.28615,"lon":5.35103,"is_reserved":false,"is_disabled":false,"rental_uris":{"android":"levelo://app?vid=c6349e91-9caa-4934-a8ae-6e1d497938dd","ios":"levelo://app?vid=c6349e91-9caa-4934-a8ae-6e1d497938dd"},"vehicle_type_id":"4","last_reported":1730470117,"current_range_meters":38800,"station_id":"ce4bhch2rcd13ifvqeug","pricing_plan_id":"cebpf4jnsgd1na2vs0mg"},{"bike_id":"b58d7959-be24-4558-8014-49895e2f8ed4","system_id":"levelo_inurba_marseille","lat":43.23154,"lon":5.43714,"is_reserved":false,"is_disabled":false,"rental_uris":{"android":"levelo://app?vid=b58d7959-be24-4558-8014-49895e2f8ed4","ios":"levelo://app?vid=b58d7959-be24-4558-8014-49895e2f8ed4"},"vehicle_type_id":"4","last_reported":1730470117,"current_range_meters":21600,"station_id":"ce4bhmp2rcd13ifvqgog","pricing_plan_id":"cebpf4jnsgd1na2vs0mg"},{"bike_id":"503969ca-01fe-4888-a1e7-fdad2a25a1b9","system_id":"levelo_inurba_marseille","lat":43.28425,"lon":5.34991,"is_reserved":false,"is_disabled":false,"rental_uris":{"android":"levelo://app?vid=503969ca-01fe-4888-a1e7-fdad2a25a1b9","ios":"levelo://app?vid=503969ca-01fe-4888-a1e7-fdad2a25a1b9"},"vehicle_type_id":"4","last_reported":1730470117,"current_range_meters":23200,"station_id":"ce4bhbh2rcd13ifvqepg","pricing_plan_id":"cebpf4jnsgd1na2vs0mg"},{"bike_id":"f90c7233-f112-4411-a745-3ee84b3555db","system_id":"levelo_inurba_marseille","lat":43.27371,"lon":5.36256,"is_reserved":false,"is_disabled":false,"rental_uris":{"android":"levelo://app?vid=f90c7233-f112-4411-a745-3ee84b3555db","ios":"levelo://app?vid=f90c7233-f112-4411-a745-3ee84b3555db"},"vehicle_type_id":"4","last_reported":1730470117,"current_range_meters":38000,"station_id":"ce4bhbh2rcd13ifvqeo0","pricing_plan_id":"cebpf4jnsgd1na2vs0mg"},{"bike_id":"fc2095ca-d28e-46ea-9a51-601b74247bea","system_id":"levelo_inurba_marseille","lat":43.28448,"lon":5.3496,"is_reserved":false,"is_disabled":false,"rental_uris":{"android":"levelo://app?vid=fc2095ca-d28e-46ea-9a51-601b74247bea","ios":"levelo://app?vid=fc2095ca-d28e-46ea-9a51-601b74247bea"},"vehicle_type_id":"4","last_reported":1730470117,"current_range_meters":14000,"station_id":"ce4bhbh2rcd13ifvqepg","pricing_plan_id":"cebpf4jnsgd1na2vs0mg"},{"bike_id":"efbe383f-83c6-4df5-ac1f-ffa8f2e0197b","system_id":"levelo_inurba_marseille","lat":43.31335,"lon":5.39699,"is_reserved":false,"is_disabled":false,"rental_uris":{"android":"levelo://app?vid=efbe383f-83c6-4df5-ac1f-ffa8f2e0197b","ios":"levelo://app?vid=efbe383f-83c6-4df5-ac1f-ffa8f2e0197b"},"vehicle_type_id":"4","last_reported":1730470117,"current_range_meters":9600,"station_id":"ce4bgvp2rcd13ifvqcu0","pricing_plan_id":"cebpf4jnsgd1na2vs0mg"},{"bike_id":"980e7e86-840e-4800-93c7-c5171cc55726","system_id":"levelo_inurba_marseille","lat":43.2306,"lon":5.35488,"is_reserved":false,"is_disabled":false,"rental_uris":{"android":"levelo://app?vid=980e7e86-840e-4800-93c7-c5171cc55726","ios":"levelo://app?vid=980e7e86-840e-4800-93c7-c5171cc55726"},"vehicle_type_id":"4","last_reported":1730470117,"current_range_meters":38800,"station_id":"cpo3342slgdg3j2ifvpg","pricing_plan_id":"cebpf4jnsgd1na2vs0mg"},{"bike_id":"33ff75bf-9f87-42b0-9d36-af79f420205d","system_id":"levelo_inurba_marseille","lat":43.26681,"lon":5.38271,"is_reserved":false,"is_disabled":false,"rental_uris":{"android":"levelo://app?vid=33ff75bf-9f87-42b0-9d36-af79f420205d","ios":"levelo://app?vid=33ff75bf-9f87-42b0-9d36-af79f420205d"},"vehicle_type_id":"4","last_reported":1730470117,"current_range_meters":4000,"station_id":"ce4bhg92rcd13ifvqf90","pricing_plan_id":"cebpf4jnsgd1na2vs0mg"},{"bike_id":"7256dd54-7a94-401d-824a-25829f05bd6e","system_id":"levelo_inurba_marseille","lat":43.28619,"lon":5.35101,"is_reserved":false,"is_disabled":false,"rental_uris":{"android":"levelo://app?vid=7256dd54-7a94-401d-824a-25829f05bd6e","ios":"levelo://app?vid=7256dd54-7a94-401d-824a-25829f05bd6e"},"vehicle_type_id":"4","last_reported":1730470117,"current_range_meters":35200,"station_id":"ce4bhch2rcd13ifvqeug","pricing_plan_id":"cebpf4jnsgd1na2vs0mg"},{"bike_id":"70fbb7bf-cb9d-4690-990f-3d79ac96960e","system_id":"levelo_inurba_marseille","lat":43.2306,"lon":5.35485,"is_reserved":false,"is_disabled":false,"rental_uris":{"android":"levelo://app?vid=70fbb7bf-cb9d-4690-990f-3d79ac96960e","ios":"levelo://app?vid=70fbb7bf-cb9d-4690-990f-3d79ac96960e"},"vehicle_type_id":"4","last_reported":1730470117,"current_range_meters":22800,"station_id":"cpo3342slgdg3j2ifvpg","pricing_plan_id":"cebpf4jnsgd1na2vs0mg"},{"bike_id":"6b247946-f162-48a0-be8c-cb90f703a1c2","system_id":"levelo_inurba_marseille","lat":43.31072,"lon":5.38363,"is_reserved":false,"is_disabled":false,"rental_uris":{"android":"levelo://app?vid=6b247946-f162-48a0-be8c-cb90f703a1c2","ios":"levelo://app?vid=6b247946-f162-48a0-be8c-cb90f703a1c2"},"vehicle_type_id":"4","last_reported":1730470117,"current_range_meters":27200,"station_id":"ce4bgv92rcd13ifvqcr0","pricing_plan_id":"cebpf4jnsgd1na2vs0mg"},{"bike_id":"276c9587-13b1-4ed9-a5c3-41b5dd9ac5c5","system_id":"levelo_inurba_marseille","lat":43.25826,"lon":5.39426,"is_reserved":false,"is_disabled":false,"rental_uris":{"android":"levelo://app?vid=276c9587-13b1-4ed9-a5c3-41b5dd9ac5c5","ios":"levelo://app?vid=276c9587-13b1-4ed9-a5c3-41b5dd9ac5c5"},"vehicle_type_id":"4","last_reported":1730470117,"current_range_meters":32400,"station_id":"ce4bhip2rcd13ifvqft0","pricing_plan_id":"cebpf4jnsgd1na2vs0mg"},{"bike_id":"902a84d5-56ca-468a-a9e6-146ab5c6eab3","system_id":"levelo_inurba_marseille","lat":43.25091,"lon":5.39517,"is_reserved":false,"is_disabled":false,"rental_uris":{"android":"levelo://app?vid=902a84d5-56ca-468a-a9e6-146ab5c6eab3","ios":"levelo://app?vid=902a84d5-56ca-468a-a9e6-146ab5c6eab3"},"vehicle_type_id":"4","last_reported":1730470117,"current_range_meters":16800,"station_id":"ce4bhm12rcd13ifvqgkg","pricing_plan_id":"cebpf4jnsgd1na2vs0mg"},{"bike_id":"fe2eaa6b-9732-4396-9bd8-22abff2881b0","system_id":"levelo_inurba_marseille","lat":43.32292,"lon":5.38264,"is_reserved":false,"is_disabled":false,"rental_uris":{"android":"levelo://app?vid=fe2eaa6b-9732-4396-9bd8-22abff2881b0","ios":"levelo://app?vid=fe2eaa6b-9732-4396-9bd8-22abff2881b0"},"vehicle_type_id":"4","last_reported":1730470117,"current_range_meters":38800,"station_id":"ce4bhr12rcd13ifvqhqg","pricing_plan_id":"cebpf4jnsgd1na2vs0mg"},{"bike_id":"98e591af-1b37-4791-81f8-0a1125c50536","system_id":"levelo_inurba_marseille","lat":43.26208,"lon":5.37927,"is_reserved":false,"is_disabled":false,"rental_uris":{"android":"levelo://app?vid=98e591af-1b37-4791-81f8-0a1125c50536","ios":"levelo://app?vid=98e591af-1b37-4791-81f8-0a1125c50536"},"vehicle_type_id":"4","last_reported":1730470117,"current_range_meters":39200,"station_id":"ce4bhjp2rcd13ifvqg90","pricing_plan_id":"cebpf4jnsgd1na2vs0mg"},{"bike_id":"e8d86fa8-e773-40a8-a14d-9a74561290c9","system_id":"levelo_inurba_marseille","lat":43.25489,"lon":5.37648,"is_reserved":false,"is_disabled":false,"rental_uris":{"android":"levelo://app?vid=e8d86fa8-e773-40a8-a14d-9a74561290c9","ios":"levelo://app?vid=e8d86fa8-e773-40a8-a14d-9a74561290c9"},"vehicle_type_id":"4","last_reported":1730470117,"current_range_meters":19200,"station_id":"ce4bhh12rcd13ifvqff0","pricing_plan_id":"cebpf4jnsgd1na2vs0mg"},{"bike_id":"85afd25d-d86d-4f37-9f25-c69aab1cc07b","system_id":"levelo_inurba_marseille","lat":43.25581,"lon":5.38235,"is_reserved":false,"is_disabled":false,"rental_uris":{"android":"levelo://app?vid=85afd25d-d86d-4f37-9f25-c69aab1cc07b","ios":"levelo://app?vid=85afd25d-d86d-4f37-9f25-c69aab1cc07b"},"vehicle_type_id":"4","last_reported":1730470117,"current_range_meters":38800,"station_id":"ce4bhih2rcd13ifvqfs0","pricing_plan_id":"cebpf4jnsgd1na2vs0mg"},{"bike_id":"1b436f23-8f0b-4583-9175-5da63ed86193","system_id":"levelo_inurba_marseille","lat":43.23971,"lon":5.36617,"is_reserved":false,"is_disabled":false,"rental_uris":{"android":"levelo://app?vid=1b436f23-8f0b-4583-9175-5da63ed86193","ios":"levelo://app?vid=1b436f23-8f0b-4583-9175-5da63ed86193"},"vehicle_type_id":"4","last_reported":1730470117,"current_range_meters":29600,"station_id":"ce4bhi12rcd13ifvqfp0","pricing_plan_id":"cebpf4jnsgd1na2vs0mg"},{"bike_id":"1f9dd624-a9bc-4733-b175-decc110b0220","system_id":"levelo_inurba_marseille","lat":43.30289,"lon":5.37703,"is_reserved":false,"is_disabled":false,"rental_uris":{"android":"levelo://app?vid=1f9dd624-a9bc-4733-b175-decc110b0220","ios":"levelo://app?vid=1f9dd624-a9bc-4733-b175-decc110b0220"},"vehicle_type_id":"4","last_reported":1730470117,"current_range_meters":32000,"station_id":"ce4bguh2rcd13ifvqcj0","pricing_plan_id":"cebpf4jnsgd1na2vs0mg"},{"bike_id":"b9a731f6-a414-4b1d-9206-141e723290e3","system_id":"levelo_inurba_marseille","lat":43.27496,"lon":5.42451,"is_reserved":false,"is_disabled":false,"rental_uris":{"android":"levelo://app?vid=b9a731f6-a414-4b1d-9206-141e723290e3","ios":"levelo://app?vid=b9a731f6-a414-4b1d-9206-141e723290e3"},"vehicle_type_id":"4","last_reported":1730470117,"current_range_meters":2800,"station_id":"ce4bhn92rcd13ifvqgrg","pricing_plan_id":"cebpf4jnsgd1na2vs0mg"},{"bike_id":"547ec999-bc88-476b-810c-26a90a13b7af","system_id":"levelo_inurba_marseille","lat":43.27998,"lon":5.40014,"is_reserved":false,"is_disabled":false,"rental_uris":{"android":"levelo://app?vid=547ec999-bc88-476b-810c-26a90a13b7af","ios":"levelo://app?vid=547ec999-bc88-476b-810c-26a90a13b7af"},"vehicle_type_id":"4","last_reported":1730470117,"current_range_meters":28000,"station_id":"ce4bho92rcd13ifvqh4g","pricing_plan_id":"cebpf4jnsgd1na2vs0mg"},{"bike_id":"e14d6a12-0c94-4691-a226-816aa0ec53fd","system_id":"levelo_inurba_marseille","lat":43.28421,"lon":5.380685,"is_reserved":false,"is_disabled":false,"rental_uris":{"android":"levelo://app?vid=e14d6a12-0c94-4691-a226-816aa0ec53fd","ios":"levelo://app?vid=e14d6a12-0c94-4691-a226-816aa0ec53fd"},"vehicle_type_id":"4","last_reported":1730470117,"current_range_meters":24800,"station_id":"ce4bh412rcd13ifvqdr0","pricing_plan_id":"cebpf4jnsgd1na2vs0mg"},{"bike_id":"f72dba07-91df-45be-a8a3-0c113ce1d814","system_id":"levelo_inurba_marseille","lat":43.2738,"lon":5.36255,"is_reserved":false,"is_disabled":false,"rental_uris":{"android":"levelo://app?vid=f72dba07-91df-45be-a8a3-0c113ce1d814","ios":"levelo://app?vid=f72dba07-91df-45be-a8a3-0c113ce1d814"},"vehicle_type_id":"4","last_reported":1730470117,"current_range_meters":23200,"station_id":"ce4bhbh2rcd13ifvqeo0","pricing_plan_id":"cebpf4jnsgd1na2vs0mg"},{"bike_id":"f601267f-b39d-4ced-b78a-a44c7e288bc9","system_id":"levelo_inurba_marseille","lat":43.29624,"lon":5.37158,"is_reserved":false,"is_disabled":false,"rental_uris":{"android":"levelo://app?vid=f601267f-b39d-4ced-b78a-a44c7e288bc9","ios":"levelo://app?vid=f601267f-b39d-4ced-b78a-a44c7e288bc9"},"vehicle_type_id":"4","last_reported":1730470117,"current_range_meters":32000,"station_id":"ce4bgnh2rcd13ifvqc0g","pricing_plan_id":"cebpf4jnsgd1na2vs0mg"},{"bike_id":"5a8a5998-a730-4837-9b39-b64081a052e5","system_id":"levelo_inurba_marseille","lat":43.28476,"lon":5.38558,"is_reserved":false,"is_disabled":false,"rental_uris":{"android":"levelo://app?vid=5a8a5998-a730-4837-9b39-b64081a052e5","ios":"levelo://app?vid=5a8a5998-a730-4837-9b39-b64081a052e5"},"vehicle_type_id":"4","last_reported":1730470117,"current_range_meters":13600,"station_id":"ce4bh8p2rcd13ifvqeb0","pricing_plan_id":"cebpf4jnsgd1na2vs0mg"},{"bike_id":"328e4742-9293-4811-bae2-d6228dc19180","system_id":"levelo_inurba_marseille","lat":43.2551,"lon":5.37645,"is_reserved":false,"is_disabled":false,"rental_uris":{"android":"levelo://app?vid=328e4742-9293-4811-bae2-d6228dc19180","ios":"levelo://app?vid=328e4742-9293-4811-bae2-d6228dc19180"},"vehicle_type_id":"4","last_reported":1730470117,"current_range_meters":26000,"station_id":"ce4bhh12rcd13ifvqff0","pricing_plan_id":"cebpf4jnsgd1na2vs0mg"},{"bike_id":"992576b8-89ce-4bc0-9d30-64fcb187c195","system_id":"levelo_inurba_marseille","lat":43.303101,"lon":5.369068,"is_reserved":false,"is_disabled":false,"rental_uris":{"android":"levelo://app?vid=992576b8-89ce-4bc0-9d30-64fcb187c195","ios":"levelo://app?vid=992576b8-89ce-4bc0-9d30-64fcb187c195"},"vehicle_type_id":"4","last_reported":1730470117,"current_range_meters":38000,"station_id":"ce4bgqh2rcd13ifvqc5g","pricing_plan_id":"cebpf4jnsgd1na2vs0mg"},{"bike_id":"76daf9d0-b47b-40d6-9996-9aa3f3f48bc8","system_id":"levelo_inurba_marseille","lat":43.28423,"lon":5.34976,"is_reserved":false,"is_disabled":false,"rental_uris":{"android":"levelo://app?vid=76daf9d0-b47b-40d6-9996-9aa3f3f48bc8","ios":"levelo://app?vid=76daf9d0-b47b-40d6-9996-9aa3f3f48bc8"},"vehicle_type_id":"4","last_reported":1730470117,"current_range_meters":38800,"station_id":"ce4bhbh2rcd13ifvqepg","pricing_plan_id":"cebpf4jnsgd1na2vs0mg"},{"bike_id":"9e546183-b604-48f1-b9ab-93595f19c2eb","system_id":"levelo_inurba_marseille","lat":43.28278,"lon":5.35083,"is_reserved":false,"is_disabled":false,"rental_uris":{"android":"levelo://app?vid=9e546183-b604-48f1-b9ab-93595f19c2eb","ios":"levelo://app?vid=9e546183-b604-48f1-b9ab-93595f19c2eb"},"vehicle_type_id":"4","last_reported":1730470117,"current_range_meters":16800,"station_id":"ce4bhbp2rcd13ifvqerg","pricing_plan_id":"cebpf4jnsgd1na2vs0mg"},{"bike_id":"39853c7f-9f79-4333-9783-d152d826fdb5","system_id":"levelo_inurba_marseille","lat":43.28618,"lon":5.35109,"is_reserved":false,"is_disabled":false,"rental_uris":{"android":"levelo://app?vid=39853c7f-9f79-4333-9783-d152d826fdb5","ios":"levelo://app?vid=39853c7f-9f79-4333-9783-d152d826fdb5"},"vehicle_type_id":"4","last_reported":1730470117,"current_range_meters":31200,"station_id":"ce4bhch2rcd13ifvqeug","pricing_plan_id":"cebpf4jnsgd1na2vs0mg"},{"bike_id":"e63f1f85-7803-4e73-8df0-24c484de7863","system_id":"levelo_inurba_marseille","lat":43.31179,"lon":5.40508,"is_reserved":false,"is_disabled":false,"rental_uris":{"android":"levelo://app?vid=e63f1f85-7803-4e73-8df0-24c484de7863","ios":"levelo://app?vid=e63f1f85-7803-4e73-8df0-24c484de7863"},"vehicle_type_id":"4","last_reported":1730470117,"current_range_meters":29600,"station_id":"ce4bhq92rcd13ifvqhkg","pricing_plan_id":"cebpf4jnsgd1na2vs0mg"},{"bike_id":"e9aa96b7-84c9-4881-a593-ce7c0cd98473","system_id":"levelo_inurba_marseille","lat":43.2511,"lon":5.40326,"is_reserved":false,"is_disabled":false,"rental_uris":{"android":"levelo://app?vid=e9aa96b7-84c9-4881-a593-ce7c0cd98473","ios":"levelo://app?vid=e9aa96b7-84c9-4881-a593-ce7c0cd98473"},"vehicle_type_id":"4","last_reported":1730470117,"current_range_meters":27200,"station_id":"ce4bhlh2rcd13ifvqgig","pricing_plan_id":"cebpf4jnsgd1na2vs0mg"},{"bike_id":"7a7abe75-bd11-44c1-979b-06ef3e9f9da8","system_id":"levelo_inurba_marseille","lat":43.240844,"lon":5.377592,"is_reserved":false,"is_disabled":false,"rental_uris":{"android":"levelo://app?vid=7a7abe75-bd11-44c1-979b-06ef3e9f9da8","ios":"levelo://app?vid=7a7abe75-bd11-44c1-979b-06ef3e9f9da8"},"vehicle_type_id":"4","last_reported":1730470117,"current_range_meters":37600,"station_id":"ce4bhg12rcd13ifvqf60","pricing_plan_id":"cebpf4jnsgd1na2vs0mg"},{"bike_id":"c971222b-c38a-43e5-ba20-389f8d870b10","system_id":"levelo_inurba_marseille","lat":43.29012,"lon":5.35616,"is_reserved":false,"is_disabled":false,"rental_uris":{"android":"levelo://app?vid=c971222b-c38a-43e5-ba20-389f8d870b10","ios":"levelo://app?vid=c971222b-c38a-43e5-ba20-389f8d870b10"},"vehicle_type_id":"4","last_reported":1730470117,"current_range_meters":37600,"station_id":"ce4bhb92rcd13ifvqen0","pricing_plan_id":"cebpf4jnsgd1na2vs0mg"},{"bike_id":"bed0c71a-9306-404b-9af5-946d6a383a0f","system_id":"levelo_inurba_marseille","lat":43.28614,"lon":5.35106,"is_reserved":false,"is_disabled":false,"rental_uris":{"android":"levelo://app?vid=bed0c71a-9306-404b-9af5-946d6a383a0f","ios":"levelo://app?vid=bed0c71a-9306-404b-9af5-946d6a383a0f"},"vehicle_type_id":"4","last_reported":1730470117,"current_range_meters":26000,"station_id":"ce4bhch2rcd13ifvqeug","pricing_plan_id":"cebpf4jnsgd1na2vs0mg"},{"bike_id":"71b44894-3df8-451a-bc8d-cf278fbdb6fc","system_id":"levelo_inurba_marseille","lat":43.25499,"lon":5.37651,"is_reserved":false,"is_disabled":false,"rental_uris":{"android":"levelo://app?vid=71b44894-3df8-451a-bc8d-cf278fbdb6fc","ios":"levelo://app?vid=71b44894-3df8-451a-bc8d-cf278fbdb6fc"},"vehicle_type_id":"4","last_reported":1730470117,"current_range_meters":29600,"station_id":"ce4bhh12rcd13ifvqff0","pricing_plan_id":"cebpf4jnsgd1na2vs0mg"},{"bike_id":"9938ebcd-9900-4f33-ae62-087d07b91466","system_id":"levelo_inurba_marseille","lat":43.25735,"lon":5.41114,"is_reserved":false,"is_disabled":false,"rental_uris":{"android":"levelo://app?vid=9938ebcd-9900-4f33-ae62-087d07b91466","ios":"levelo://app?vid=9938ebcd-9900-4f33-ae62-087d07b91466"},"vehicle_type_id":"4","last_reported":1730470117,"current_range_meters":39200,"station_id":"ce4bhkp2rcd13ifvqgd0","pricing_plan_id":"cebpf4jnsgd1na2vs0mg"},{"bike_id":"5d039939-abf3-42e5-b79a-b48827c3ccb6","system_id":"levelo_inurba_marseille","lat":43.26829,"lon":5.38215,"is_reserved":false,"is_disabled":false,"rental_uris":{"android":"levelo://app?vid=5d039939-abf3-42e5-b79a-b48827c3ccb6","ios":"levelo://app?vid=5d039939-abf3-42e5-b79a-b48827c3ccb6"},"vehicle_type_id":"4","last_reported":1730470117,"current_range_meters":6800,"station_id":"","pricing_plan_id":"cebpf4jnsgd1na2vs0mg"},{"bike_id":"dc8fcbb5-8a40-4304-9661-cddb984b12f4","system_id":"levelo_inurba_marseille","lat":43.2293,"lon":5.35375,"is_reserved":false,"is_disabled":false,"rental_uris":{"android":"levelo://app?vid=dc8fcbb5-8a40-4304-9661-cddb984b12f4","ios":"levelo://app?vid=dc8fcbb5-8a40-4304-9661-cddb984b12f4"},"vehicle_type_id":"4","last_reported":1730470117,"current_range_meters":30800,"station_id":"cpo3532slgdg3j2ikp40","pricing_plan_id":"cebpf4jnsgd1na2vs0mg"},{"bike_id":"337aedca-2f90-4d1a-84bd-12a131b00b94","system_id":"levelo_inurba_marseille","lat":43.23974,"lon":5.366115,"is_reserved":false,"is_disabled":false,"rental_uris":{"android":"levelo://app?vid=337aedca-2f90-4d1a-84bd-12a131b00b94","ios":"levelo://app?vid=337aedca-2f90-4d1a-84bd-12a131b00b94"},"vehicle_type_id":"4","last_reported":1730470117,"current_range_meters":24400,"station_id":"ce4bhi12rcd13ifvqfp0","pricing_plan_id":"cebpf4jnsgd1na2vs0mg"},{"bike_id":"51adf9d8-0dd9-481e-b570-fad8bd805644","system_id":"levelo_inurba_marseille","lat":43.32004,"lon":5.38157,"is_reserved":false,"is_disabled":false,"rental_uris":{"android":"levelo://app?vid=51adf9d8-0dd9-481e-b570-fad8bd805644","ios":"levelo://app?vid=51adf9d8-0dd9-481e-b570-fad8bd805644"},"vehicle_type_id":"4","last_reported":1730470117,"current_range_meters":38800,"station_id":"ce4bhr12rcd13ifvqhpg","pricing_plan_id":"cebpf4jnsgd1na2vs0mg"},{"bike_id":"59599f5f-75b7-4d56-bc71-0446ade706fe","system_id":"levelo_inurba_marseille","lat":43.308,"lon":5.37665,"is_reserved":false,"is_disabled":false,"rental_uris":{"android":"levelo://app?vid=59599f5f-75b7-4d56-bc71-0446ade706fe","ios":"levelo://app?vid=59599f5f-75b7-4d56-bc71-0446ade706fe"},"vehicle_type_id":"4","last_reported":1730470117,"current_range_meters":24400,"station_id":"ce4bgv92rcd13ifvqcq0","pricing_plan_id":"cebpf4jnsgd1na2vs0mg"},{"bike_id":"58a716bf-d694-466f-989e-38efb9c28cd7","system_id":"levelo_inurba_marseille","lat":43.33021,"lon":5.39051,"is_reserved":false,"is_disabled":false,"rental_uris":{"android":"levelo://app?vid=58a716bf-d694-466f-989e-38efb9c28cd7","ios":"levelo://app?vid=58a716bf-d694-466f-989e-38efb9c28cd7"},"vehicle_type_id":"4","last_reported":1730470117,"current_range_meters":36800,"station_id":"ce4bhr92rcd13ifvqhrg","pricing_plan_id":"cebpf4jnsgd1na2vs0mg"},{"bike_id":"05b66808-27ba-48de-8c25-fa6353c85930","system_id":"levelo_inurba_marseille","lat":43.271005,"lon":5.404111,"is_reserved":false,"is_disabled":false,"rental_uris":{"android":"levelo://app?vid=05b66808-27ba-48de-8c25-fa6353c85930","ios":"levelo://app?vid=05b66808-27ba-48de-8c25-fa6353c85930"},"vehicle_type_id":"4","last_reported":1730470117,"current_range_meters":10000,"station_id":"ce4bhjp2rcd13ifvqga0","pricing_plan_id":"cebpf4jnsgd1na2vs0mg"},{"bike_id":"0b267037-c4e3-463c-b84e-90dd3c42f027","system_id":"levelo_inurba_marseille","lat":43.29875,"lon":5.39736,"is_reserved":false,"is_disabled":false,"rental_uris":{"android":"levelo://app?vid=0b267037-c4e3-463c-b84e-90dd3c42f027","ios":"levelo://app?vid=0b267037-c4e3-463c-b84e-90dd3c42f027"},"vehicle_type_id":"4","last_reported":1730470117,"current_range_meters":21600,"station_id":"ce4bh0h2rcd13ifvqd50","pricing_plan_id":"cebpf4jnsgd1na2vs0mg"},{"bike_id":"a63b9fb5-56f7-422f-b390-b53b9a4eff8b","system_id":"levelo_inurba_marseille","lat":43.23179,"lon":5.39988,"is_reserved":false,"is_disabled":false,"rental_uris":{"android":"levelo://app?vid=a63b9fb5-56f7-422f-b390-b53b9a4eff8b","ios":"levelo://app?vid=a63b9fb5-56f7-422f-b390-b53b9a4eff8b"},"vehicle_type_id":"4","last_reported":1730470117,"current_range_meters":9600,"station_id":"ce4bhn12rcd13ifvqgqg","pricing_plan_id":"cebpf4jnsgd1na2vs0mg"},{"bike_id":"0bd966fd-877b-4aae-8013-4621694ce072","system_id":"levelo_inurba_marseille","lat":43.32486,"lon":5.36557,"is_reserved":false,"is_disabled":false,"rental_uris":{"android":"levelo://app?vid=0bd966fd-877b-4aae-8013-4621694ce072","ios":"levelo://app?vid=0bd966fd-877b-4aae-8013-4621694ce072"},"vehicle_type_id":"4","last_reported":1730470117,"current_range_meters":30800,"station_id":"ce4bhs12rcd13ifvqhvg","pricing_plan_id":"cebpf4jnsgd1na2vs0mg"},{"bike_id":"8650d5e7-8d59-4d74-af9c-6b832171c700","system_id":"levelo_inurba_marseille","lat":43.23963,"lon":5.36631,"is_reserved":false,"is_disabled":false,"rental_uris":{"android":"levelo://app?vid=8650d5e7-8d59-4d74-af9c-6b832171c700","ios":"levelo://app?vid=8650d5e7-8d59-4d74-af9c-6b832171c700"},"vehicle_type_id":"4","last_reported":1730470117,"current_range_meters":12400,"station_id":"ce4bhi12rcd13ifvqfp0","pricing_plan_id":"cebpf4jnsgd1na2vs0mg"},{"bike_id":"7471bc9b-f984-44e8-a6de-2b1222eeead0","system_id":"levelo_inurba_marseille","lat":43.2417,"lon":5.36401,"is_reserved":false,"is_disabled":false,"rental_uris":{"android":"levelo://app?vid=7471bc9b-f984-44e8-a6de-2b1222eeead0","ios":"levelo://app?vid=7471bc9b-f984-44e8-a6de-2b1222eeead0"},"vehicle_type_id":"4","last_reported":1730470117,"current_range_meters":5600,"station_id":"cpo36qri1sfpv3e86is0","pricing_plan_id":"cebpf4jnsgd1na2vs0mg"},{"bike_id":"fcd45cc4-a0e9-43bd-a022-fb30ef298065","system_id":"levelo_inurba_marseille","lat":43.30597,"lon":5.39361,"is_reserved":false,"is_disabled":false,"rental_uris":{"android":"levelo://app?vid=fcd45cc4-a0e9-43bd-a022-fb30ef298065","ios":"levelo://app?vid=fcd45cc4-a0e9-43bd-a022-fb30ef298065"},"vehicle_type_id":"4","last_reported":1730470117,"current_range_meters":37600,"station_id":"ce4bh0p2rcd13ifvqd80","pricing_plan_id":"cebpf4jnsgd1na2vs0mg"},{"bike_id":"a8594471-923b-4371-82a5-d750e1a3d991","system_id":"levelo_inurba_marseille","lat":43.315303,"lon":5.380255,"is_reserved":false,"is_disabled":false,"rental_uris":{"android":"levelo://app?vid=a8594471-923b-4371-82a5-d750e1a3d991","ios":"levelo://app?vid=a8594471-923b-4371-82a5-d750e1a3d991"},"vehicle_type_id":"4","last_reported":1730470117,"current_range_meters":11200,"station_id":"ce4bhsp2rcd13ifvqi50","pricing_plan_id":"cebpf4jnsgd1na2vs0mg"},{"bike_id":"df1ded04-d8df-477c-a652-9146b074b774","system_id":"levelo_inurba_marseille","lat":43.28619,"lon":5.35103,"is_reserved":false,"is_disabled":false,"rental_uris":{"android":"levelo://app?vid=df1ded04-d8df-477c-a652-9146b074b774","ios":"levelo://app?vid=df1ded04-d8df-477c-a652-9146b074b774"},"vehicle_type_id":"4","last_reported":1730470117,"current_range_meters":18000,"station_id":"ce4bhch2rcd13ifvqeug","pricing_plan_id":"cebpf4jnsgd1na2vs0mg"},{"bike_id":"658dacf4-7ef3-4634-8126-9bbd88e5a6eb","system_id":"levelo_inurba_marseille","lat":43.232,"lon":5.35548,"is_reserved":false,"is_disabled":false,"rental_uris":{"android":"levelo://app?vid=658dacf4-7ef3-4634-8126-9bbd88e5a6eb","ios":"levelo://app?vid=658dacf4-7ef3-4634-8126-9bbd88e5a6eb"},"vehicle_type_id":"4","last_reported":1730470117,"current_range_meters":24400,"station_id":"ce4bhu92rcd13ifvqi70","pricing_plan_id":"cebpf4jnsgd1na2vs0mg"},{"bike_id":"ebc85d08-6aae-420a-ac93-70b02dbfaf84","system_id":"levelo_inurba_marseille","lat":43.24395,"lon":5.37069,"is_reserved":false,"is_disabled":false,"rental_uris":{"android":"levelo://app?vid=ebc85d08-6aae-420a-ac93-70b02dbfaf84","ios":"levelo://app?vid=ebc85d08-6aae-420a-ac93-70b02dbfaf84"},"vehicle_type_id":"4","last_reported":1730470117,"current_range_meters":35600,"station_id":"ce4bhhh2rcd13ifvqfk0","pricing_plan_id":"cebpf4jnsgd1na2vs0mg"},{"bike_id":"b692e918-030c-47f1-9d0f-f3f6cbd61424","system_id":"levelo_inurba_marseille","lat":43.30145,"lon":5.38066,"is_reserved":false,"is_disabled":false,"rental_uris":{"android":"levelo://app?vid=b692e918-030c-47f1-9d0f-f3f6cbd61424","ios":"levelo://app?vid=b692e918-030c-47f1-9d0f-f3f6cbd61424"},"vehicle_type_id":"4","last_reported":1730470117,"current_range_meters":36800,"station_id":"ce4bhgh2rcd13ifvqfb0","pricing_plan_id":"cebpf4jnsgd1na2vs0mg"},{"bike_id":"3eccccc1-c19b-44e9-b15b-3d62bb4cb78e","system_id":"levelo_inurba_marseille","lat":43.28857,"lon":5.39317,"is_reserved":false,"is_disabled":false,"rental_uris":{"android":"levelo://app?vid=3eccccc1-c19b-44e9-b15b-3d62bb4cb78e","ios":"levelo://app?vid=3eccccc1-c19b-44e9-b15b-3d62bb4cb78e"},"vehicle_type_id":"4","last_reported":1730470117,"current_range_meters":29600,"station_id":"ce4bh2p2rcd13ifvqdi0","pricing_plan_id":"cebpf4jnsgd1na2vs0mg"},{"bike_id":"7a2defa2-1b93-4548-abb9-075ab49d3ebe","system_id":"levelo_inurba_marseille","lat":43.27625,"lon":5.36108,"is_reserved":false,"is_disabled":false,"rental_uris":{"android":"levelo://app?vid=7a2defa2-1b93-4548-abb9-075ab49d3ebe","ios":"levelo://app?vid=7a2defa2-1b93-4548-abb9-075ab49d3ebe"},"vehicle_type_id":"4","last_reported":1730470117,"current_range_meters":20000,"station_id":"ce4bgj92rcd13ifvqbe0","pricing_plan_id":"cebpf4jnsgd1na2vs0mg"},{"bike_id":"e30171e7-4eb5-4a0e-bf0f-459c1c96bdd6","system_id":"levelo_inurba_marseille","lat":43.23183,"lon":5.39993,"is_reserved":false,"is_disabled":false,"rental_uris":{"android":"levelo://app?vid=e30171e7-4eb5-4a0e-bf0f-459c1c96bdd6","ios":"levelo://app?vid=e30171e7-4eb5-4a0e-bf0f-459c1c96bdd6"},"vehicle_type_id":"4","last_reported":1730470117,"current_range_meters":3600,"station_id":"ce4bhn12rcd13ifvqgqg","pricing_plan_id":"cebpf4jnsgd1na2vs0mg"},{"bike_id":"e9945190-061a-4dd7-b1d1-d2eba02f0de1","system_id":"levelo_inurba_marseille","lat":43.28424,"lon":5.34995,"is_reserved":false,"is_disabled":false,"rental_uris":{"android":"levelo://app?vid=e9945190-061a-4dd7-b1d1-d2eba02f0de1","ios":"levelo://app?vid=e9945190-061a-4dd7-b1d1-d2eba02f0de1"},"vehicle_type_id":"4","last_reported":1730470117,"current_range_meters":23200,"station_id":"ce4bhbh2rcd13ifvqepg","pricing_plan_id":"cebpf4jnsgd1na2vs0mg"},{"bike_id":"84b3858e-724d-4a51-abdd-a1c7708d404b","system_id":"levelo_inurba_marseille","lat":43.29489,"lon":5.38095,"is_reserved":false,"is_disabled":false,"rental_uris":{"android":"levelo://app?vid=84b3858e-724d-4a51-abdd-a1c7708d404b","ios":"levelo://app?vid=84b3858e-724d-4a51-abdd-a1c7708d404b"},"vehicle_type_id":"4","last_reported":1730470117,"current_range_meters":16800,"station_id":"","pricing_plan_id":"cebpf4jnsgd1na2vs0mg"},{"bike_id":"205d74b9-4188-436c-8520-a69986be2fad","system_id":"levelo_inurba_marseille","lat":43.28429,"lon":5.34986,"is_reserved":false,"is_disabled":false,"rental_uris":{"android":"levelo://app?vid=205d74b9-4188-436c-8520-a69986be2fad","ios":"levelo://app?vid=205d74b9-4188-436c-8520-a69986be2fad"},"vehicle_type_id":"4","last_reported":1730470117,"current_range_meters":37600,"station_id":"ce4bhbh2rcd13ifvqepg","pricing_plan_id":"cebpf4jnsgd1na2vs0mg"},{"bike_id":"421438a7-603f-43c4-8a4c-ce4f972aa0f2","system_id":"levelo_inurba_marseille","lat":43.301479,"lon":5.374207,"is_reserved":false,"is_disabled":false,"rental_uris":{"android":"levelo://app?vid=421438a7-603f-43c4-8a4c-ce4f972aa0f2","ios":"levelo://app?vid=421438a7-603f-43c4-8a4c-ce4f972aa0f2"},"vehicle_type_id":"4","last_reported":1730470117,"current_range_meters":38800,"station_id":"ce4bgs92rcd13ifvqcc0","pricing_plan_id":"cebpf4jnsgd1na2vs0mg"},{"bike_id":"3bae9340-aae2-47c4-82c5-5c0d7349f14b","system_id":"levelo_inurba_marseille","lat":43.308,"lon":5.43523,"is_reserved":false,"is_disabled":false,"rental_uris":{"android":"levelo://app?vid=3bae9340-aae2-47c4-82c5-5c0d7349f14b","ios":"levelo://app?vid=3bae9340-aae2-47c4-82c5-5c0d7349f14b"},"vehicle_type_id":"4","last_reported":1730470117,"current_range_meters":31200,"station_id":"ce4bhph2rcd13ifvqheg","pricing_plan_id":"cebpf4jnsgd1na2vs0mg"},{"bike_id":"5e952f6b-9aee-4257-81cc-27b4ae171e24","system_id":"levelo_inurba_marseille","lat":43.22936,"lon":5.35377,"is_reserved":false,"is_disabled":false,"rental_uris":{"android":"levelo://app?vid=5e952f6b-9aee-4257-81cc-27b4ae171e24","ios":"levelo://app?vid=5e952f6b-9aee-4257-81cc-27b4ae171e24"},"vehicle_type_id":"4","last_reported":1730470117,"current_range_meters":38800,"station_id":"cpo3532slgdg3j2ikp40","pricing_plan_id":"cebpf4jnsgd1na2vs0mg"},{"bike_id":"4ff4596a-9ec8-4fc0-afc4-66453f49832a","system_id":"levelo_inurba_marseille","lat":43.24545,"lon":5.39521,"is_reserved":false,"is_disabled":false,"rental_uris":{"android":"levelo://app?vid=4ff4596a-9ec8-4fc0-afc4-66453f49832a","ios":"levelo://app?vid=4ff4596a-9ec8-4fc0-afc4-66453f49832a"},"vehicle_type_id":"4","last_reported":1730470117,"current_range_meters":14400,"station_id":"ce4bhlp2rcd13ifvqgjg","pricing_plan_id":"cebpf4jnsgd1na2vs0mg"},{"bike_id":"81eaa22b-96f5-47dd-9220-ed8909709108","system_id":"levelo_inurba_marseille","lat":43.28422,"lon":5.34986,"is_reserved":false,"is_disabled":false,"rental_uris":{"android":"levelo://app?vid=81eaa22b-96f5-47dd-9220-ed8909709108","ios":"levelo://app?vid=81eaa22b-96f5-47dd-9220-ed8909709108"},"vehicle_type_id":"4","last_reported":1730470117,"current_range_meters":39200,"station_id":"ce4bhbh2rcd13ifvqepg","pricing_plan_id":"cebpf4jnsgd1na2vs0mg"},{"bike_id":"bb144d3a-99be-466e-805f-a8416b71e848","system_id":"levelo_inurba_marseille","lat":43.307268,"lon":5.381686,"is_reserved":false,"is_disabled":false,"rental_uris":{"android":"levelo://app?vid=bb144d3a-99be-466e-805f-a8416b71e848","ios":"levelo://app?vid=bb144d3a-99be-466e-805f-a8416b71e848"},"vehicle_type_id":"4","last_reported":1730470117,"current_range_meters":38400,"station_id":"ce4bgt12rcd13ifvqce0","pricing_plan_id":"cebpf4jnsgd1na2vs0mg"},{"bike_id":"19b286a1-b5fa-400c-9ebc-da773145c323","system_id":"levelo_inurba_marseille","lat":43.278371,"lon":5.392064,"is_reserved":false,"is_disabled":false,"rental_uris":{"android":"levelo://app?vid=19b286a1-b5fa-400c-9ebc-da773145c323","ios":"levelo://app?vid=19b286a1-b5fa-400c-9ebc-da773145c323"},"vehicle_type_id":"4","last_reported":1730470117,"current_range_meters":16000,"station_id":"ce4bhjp2rcd13ifvqga0","pricing_plan_id":"cebpf4jnsgd1na2vs0mg"},{"bike_id":"cd69dab1-f210-4472-94bb-a84dcdbb4d88","system_id":"levelo_inurba_marseille","lat":43.255,"lon":5.37649,"is_reserved":false,"is_disabled":false,"rental_uris":{"android":"levelo://app?vid=cd69dab1-f210-4472-94bb-a84dcdbb4d88","ios":"levelo://app?vid=cd69dab1-f210-4472-94bb-a84dcdbb4d88"},"vehicle_type_id":"4","last_reported":1730470117,"current_range_meters":29600,"station_id":"ce4bhh12rcd13ifvqff0","pricing_plan_id":"cebpf4jnsgd1na2vs0mg"},{"bike_id":"4aaf9177-6ed9-4281-b081-6c2065ca8c1e","system_id":"levelo_inurba_marseille","lat":43.23196,"lon":5.39986,"is_reserved":false,"is_disabled":false,"rental_uris":{"android":"levelo://app?vid=4aaf9177-6ed9-4281-b081-6c2065ca8c1e","ios":"levelo://app?vid=4aaf9177-6ed9-4281-b081-6c2065ca8c1e"},"vehicle_type_id":"4","last_reported":1730470117,"current_range_meters":20800,"station_id":"ce4bhn12rcd13ifvqgqg","pricing_plan_id":"cebpf4jnsgd1na2vs0mg"},{"bike_id":"7f032ca0-2fbc-425c-b9e3-db49dd40b923","system_id":"levelo_inurba_marseille","lat":43.28271,"lon":5.35075,"is_reserved":false,"is_disabled":false,"rental_uris":{"android":"levelo://app?vid=7f032ca0-2fbc-425c-b9e3-db49dd40b923","ios":"levelo://app?vid=7f032ca0-2fbc-425c-b9e3-db49dd40b923"},"vehicle_type_id":"4","last_reported":1730470117,"current_range_meters":38800,"station_id":"ce4bhbp2rcd13ifvqerg","pricing_plan_id":"cebpf4jnsgd1na2vs0mg"},{"bike_id":"b647ad8c-5239-4792-a303-51c2978d56fb","system_id":"levelo_inurba_marseille","lat":43.336144,"lon":5.410144,"is_reserved":false,"is_disabled":false,"rental_uris":{"android":"levelo://app?vid=b647ad8c-5239-4792-a303-51c2978d56fb","ios":"levelo://app?vid=b647ad8c-5239-4792-a303-51c2978d56fb"},"vehicle_type_id":"4","last_reported":1730470117,"current_range_meters":38000,"station_id":"ce4bhqh2rcd13ifvqhmg","pricing_plan_id":"cebpf4jnsgd1na2vs0mg"},{"bike_id":"ca4e931c-8ef5-4130-8183-d440a5801a2f","system_id":"levelo_inurba_marseille","lat":43.23189,"lon":5.35554,"is_reserved":false,"is_disabled":false,"rental_uris":{"android":"levelo://app?vid=ca4e931c-8ef5-4130-8183-d440a5801a2f","ios":"levelo://app?vid=ca4e931c-8ef5-4130-8183-d440a5801a2f"},"vehicle_type_id":"4","last_reported":1730470117,"current_range_meters":31200,"station_id":"ce4bhu92rcd13ifvqi70","pricing_plan_id":"cebpf4jnsgd1na2vs0mg"},{"bike_id":"08699fb3-aee1-41b6-8e67-10a7e996191b","system_id":"levelo_inurba_marseille","lat":43.27383,"lon":5.36261,"is_reserved":false,"is_disabled":false,"rental_uris":{"android":"levelo://app?vid=08699fb3-aee1-41b6-8e67-10a7e996191b","ios":"levelo://app?vid=08699fb3-aee1-41b6-8e67-10a7e996191b"},"vehicle_type_id":"4","last_reported":1730470117,"current_range_meters":32800,"station_id":"ce4bhbh2rcd13ifvqeo0","pricing_plan_id":"cebpf4jnsgd1na2vs0mg"},{"bike_id":"2e1b78e5-1809-4f29-99ff-b678cf502fe3","system_id":"levelo_inurba_marseille","lat":43.24663,"lon":5.38162,"is_reserved":false,"is_disabled":false,"rental_uris":{"android":"levelo://app?vid=2e1b78e5-1809-4f29-99ff-b678cf502fe3","ios":"levelo://app?vid=2e1b78e5-1809-4f29-99ff-b678cf502fe3"},"vehicle_type_id":"4","last_reported":1730470117,"current_range_meters":28400,"station_id":"ce4bhih2rcd13ifvqfr0","pricing_plan_id":"cebpf4jnsgd1na2vs0mg"},{"bike_id":"f046d6d2-e88c-4382-8d3d-c7a081ffeb0e","system_id":"levelo_inurba_marseille","lat":43.27813,"lon":5.40707,"is_reserved":false,"is_disabled":false,"rental_uris":{"android":"levelo://app?vid=f046d6d2-e88c-4382-8d3d-c7a081ffeb0e","ios":"levelo://app?vid=f046d6d2-e88c-4382-8d3d-c7a081ffeb0e"},"vehicle_type_id":"4","last_reported":1730470117,"current_range_meters":24000,"station_id":"ce4bhnh2rcd13ifvqgtg","pricing_plan_id":"cebpf4jnsgd1na2vs0mg"},{"bike_id":"ecfff336-404e-4f76-9217-a25607b85b9b","system_id":"levelo_inurba_marseille","lat":43.30138,"lon":5.37418,"is_reserved":false,"is_disabled":false,"rental_uris":{"android":"levelo://app?vid=ecfff336-404e-4f76-9217-a25607b85b9b","ios":"levelo://app?vid=ecfff336-404e-4f76-9217-a25607b85b9b"},"vehicle_type_id":"4","last_reported":1730470117,"current_range_meters":16000,"station_id":"ce4bgs92rcd13ifvqcc0","pricing_plan_id":"cebpf4jnsgd1na2vs0mg"},{"bike_id":"1bddf228-d1ee-4fa0-bc92-046b67bba6e8","system_id":"levelo_inurba_marseille","lat":43.26027,"lon":5.37556,"is_reserved":false,"is_disabled":false,"rental_uris":{"android":"levelo://app?vid=1bddf228-d1ee-4fa0-bc92-046b67bba6e8","ios":"levelo://app?vid=1bddf228-d1ee-4fa0-bc92-046b67bba6e8"},"vehicle_type_id":"4","last_reported":1730470117,"current_range_meters":10800,"station_id":"ce4bhgh2rcd13ifvqfa0","pricing_plan_id":"cebpf4jnsgd1na2vs0mg"},{"bike_id":"8fdfb16d-2f74-4ff8-8ca3-65fe899fd81a","system_id":"levelo_inurba_marseille","lat":43.25096,"lon":5.39521,"is_reserved":false,"is_disabled":false,"rental_uris":{"android":"levelo://app?vid=8fdfb16d-2f74-4ff8-8ca3-65fe899fd81a","ios":"levelo://app?vid=8fdfb16d-2f74-4ff8-8ca3-65fe899fd81a"},"vehicle_type_id":"4","last_reported":1730470117,"current_range_meters":22400,"station_id":"ce4bhm12rcd13ifvqgkg","pricing_plan_id":"cebpf4jnsgd1na2vs0mg"},{"bike_id":"a8a0fb52-bd35-44df-bee9-47987ca6fea0","system_id":"levelo_inurba_marseille","lat":43.28415,"lon":5.34983,"is_reserved":false,"is_disabled":false,"rental_uris":{"android":"levelo://app?vid=a8a0fb52-bd35-44df-bee9-47987ca6fea0","ios":"levelo://app?vid=a8a0fb52-bd35-44df-bee9-47987ca6fea0"},"vehicle_type_id":"4","last_reported":1730470117,"current_range_meters":9200,"station_id":"ce4bhbh2rcd13ifvqepg","pricing_plan_id":"cebpf4jnsgd1na2vs0mg"},{"bike_id":"75bb46af-b778-42a3-80fc-788683ce5363","system_id":"levelo_inurba_marseille","lat":43.28156,"lon":5.42641,"is_reserved":false,"is_disabled":false,"rental_uris":{"android":"levelo://app?vid=75bb46af-b778-42a3-80fc-788683ce5363","ios":"levelo://app?vid=75bb46af-b778-42a3-80fc-788683ce5363"},"vehicle_type_id":"4","last_reported":1730470117,"current_range_meters":3600,"station_id":"ce4bhnh2rcd13ifvqgug","pricing_plan_id":"cebpf4jnsgd1na2vs0mg"},{"bike_id":"07852c55-08e9-49ee-aea2-3e79699dedd9","system_id":"levelo_inurba_marseille","lat":43.31715,"lon":5.4371,"is_reserved":false,"is_disabled":false,"rental_uris":{"android":"levelo://app?vid=07852c55-08e9-49ee-aea2-3e79699dedd9","ios":"levelo://app?vid=07852c55-08e9-49ee-aea2-3e79699dedd9"},"vehicle_type_id":"4","last_reported":1730470117,"current_range_meters":28000,"station_id":"ce4bhp92rcd13ifvqhcg","pricing_plan_id":"cebpf4jnsgd1na2vs0mg"},{"bike_id":"18402065-9e87-476b-95ad-30853de181a0","system_id":"levelo_inurba_marseille","lat":43.32457,"lon":5.4555,"is_reserved":false,"is_disabled":false,"rental_uris":{"android":"levelo://app?vid=18402065-9e87-476b-95ad-30853de181a0","ios":"levelo://app?vid=18402065-9e87-476b-95ad-30853de181a0"},"vehicle_type_id":"4","last_reported":1730470117,"current_range_meters":11600,"station_id":"","pricing_plan_id":"cebpf4jnsgd1na2vs0mg"},{"bike_id":"b4e50ec7-9169-4f70-82dd-2ae58cb4864e","system_id":"levelo_inurba_marseille","lat":43.26208,"lon":5.37449,"is_reserved":false,"is_disabled":false,"rental_uris":{"android":"levelo://app?vid=b4e50ec7-9169-4f70-82dd-2ae58cb4864e","ios":"levelo://app?vid=b4e50ec7-9169-4f70-82dd-2ae58cb4864e"},"vehicle_type_id":"4","last_reported":1730470117,"current_range_meters":18800,"station_id":"ce4bhgp2rcd13ifvqfc0","pricing_plan_id":"cebpf4jnsgd1na2vs0mg"},{"bike_id":"52e0f049-819f-4272-abcc-63b2eafb9639","system_id":"levelo_inurba_marseille","lat":43.23143,"lon":5.43701,"is_reserved":false,"is_disabled":false,"rental_uris":{"android":"levelo://app?vid=52e0f049-819f-4272-abcc-63b2eafb9639","ios":"levelo://app?vid=52e0f049-819f-4272-abcc-63b2eafb9639"},"vehicle_type_id":"4","last_reported":1730470117,"current_range_meters":38800,"station_id":"ce4bhmp2rcd13ifvqgog","pricing_plan_id":"cebpf4jnsgd1na2vs0mg"},{"bike_id":"d7547404-01f3-4bc3-88c4-b601865bf7d0","system_id":"levelo_inurba_marseille","lat":43.28277,"lon":5.35081,"is_reserved":false,"is_disabled":false,"rental_uris":{"android":"levelo://app?vid=d7547404-01f3-4bc3-88c4-b601865bf7d0","ios":"levelo://app?vid=d7547404-01f3-4bc3-88c4-b601865bf7d0"},"vehicle_type_id":"4","last_reported":1730470117,"current_range_meters":39200,"station_id":"ce4bhbp2rcd13ifvqerg","pricing_plan_id":"cebpf4jnsgd1na2vs0mg"},{"bike_id":"11652d23-a7e6-437a-8160-8c886b46a8ea","system_id":"levelo_inurba_marseille","lat":43.25093,"lon":5.39524,"is_reserved":false,"is_disabled":false,"rental_uris":{"android":"levelo://app?vid=11652d23-a7e6-437a-8160-8c886b46a8ea","ios":"levelo://app?vid=11652d23-a7e6-437a-8160-8c886b46a8ea"},"vehicle_type_id":"4","last_reported":1730470117,"current_range_meters":3600,"station_id":"ce4bhm12rcd13ifvqgkg","pricing_plan_id":"cebpf4jnsgd1na2vs0mg"},{"bike_id":"ef8a3dd0-a226-438e-8379-aa279fca8109","system_id":"levelo_inurba_marseille","lat":43.24393,"lon":5.37061,"is_reserved":false,"is_disabled":false,"rental_uris":{"android":"levelo://app?vid=ef8a3dd0-a226-438e-8379-aa279fca8109","ios":"levelo://app?vid=ef8a3dd0-a226-438e-8379-aa279fca8109"},"vehicle_type_id":"4","last_reported":1730470117,"current_range_meters":25600,"station_id":"ce4bhhh2rcd13ifvqfk0","pricing_plan_id":"cebpf4jnsgd1na2vs0mg"},{"bike_id":"4ffafafb-d1f2-42ef-8f04-8f3514b238b1","system_id":"levelo_inurba_marseille","lat":43.25096,"lon":5.39517,"is_reserved":false,"is_disabled":false,"rental_uris":{"android":"levelo://app?vid=4ffafafb-d1f2-42ef-8f04-8f3514b238b1","ios":"levelo://app?vid=4ffafafb-d1f2-42ef-8f04-8f3514b238b1"},"vehicle_type_id":"4","last_reported":1730470117,"current_range_meters":24000,"station_id":"ce4bhm12rcd13ifvqgkg","pricing_plan_id":"cebpf4jnsgd1na2vs0mg"},{"bike_id":"4e4e17f7-8a40-41d0-b503-28bfbcae5c24","system_id":"levelo_inurba_marseille","lat":43.28616,"lon":5.35103,"is_reserved":false,"is_disabled":false,"rental_uris":{"android":"levelo://app?vid=4e4e17f7-8a40-41d0-b503-28bfbcae5c24","ios":"levelo://app?vid=4e4e17f7-8a40-41d0-b503-28bfbcae5c24"},"vehicle_type_id":"4","last_reported":1730470117,"current_range_meters":38800,"station_id":"ce4bhch2rcd13ifvqeug","pricing_plan_id":"cebpf4jnsgd1na2vs0mg"},{"bike_id":"8f55f6cc-0b54-4d5f-9029-aa15dfd6d9b0","system_id":"levelo_inurba_marseille","lat":43.31618,"lon":5.39072,"is_reserved":false,"is_disabled":false,"rental_uris":{"android":"levelo://app?vid=8f55f6cc-0b54-4d5f-9029-aa15dfd6d9b0","ios":"levelo://app?vid=8f55f6cc-0b54-4d5f-9029-aa15dfd6d9b0"},"vehicle_type_id":"4","last_reported":1730470117,"current_range_meters":4000,"station_id":"","pricing_plan_id":"cebpf4jnsgd1na2vs0mg"},{"bike_id":"fe198506-445a-4fd4-ad81-1c93c83826aa","system_id":"levelo_inurba_marseille","lat":43.28619,"lon":5.35103,"is_reserved":false,"is_disabled":false,"rental_uris":{"android":"levelo://app?vid=fe198506-445a-4fd4-ad81-1c93c83826aa","ios":"levelo://app?vid=fe198506-445a-4fd4-ad81-1c93c83826aa"},"vehicle_type_id":"4","last_reported":1730470117,"current_range_meters":38800,"station_id":"ce4bhch2rcd13ifvqeug","pricing_plan_id":"cebpf4jnsgd1na2vs0mg"},{"bike_id":"54b1db93-7993-4b47-8da3-8dc269c2f8e9","system_id":"levelo_inurba_marseille","lat":43.26209,"lon":5.37928,"is_reserved":false,"is_disabled":false,"rental_uris":{"android":"levelo://app?vid=54b1db93-7993-4b47-8da3-8dc269c2f8e9","ios":"levelo://app?vid=54b1db93-7993-4b47-8da3-8dc269c2f8e9"},"vehicle_type_id":"4","last_reported":1730470117,"current_range_meters":20400,"station_id":"ce4bhjp2rcd13ifvqg90","pricing_plan_id":"cebpf4jnsgd1na2vs0mg"},{"bike_id":"7af0fdb8-8ea7-4015-b137-29897019fd61","system_id":"levelo_inurba_marseille","lat":43.24173,"lon":5.36383,"is_reserved":false,"is_disabled":false,"rental_uris":{"android":"levelo://app?vid=7af0fdb8-8ea7-4015-b137-29897019fd61","ios":"levelo://app?vid=7af0fdb8-8ea7-4015-b137-29897019fd61"},"vehicle_type_id":"4","last_reported":1730470117,"current_range_meters":6800,"station_id":"cpo36qri1sfpv3e86is0","pricing_plan_id":"cebpf4jnsgd1na2vs0mg"},{"bike_id":"e8c83ea8-9239-492b-aa40-24cdb5c5f7fd","system_id":"levelo_inurba_marseille","lat":43.29071,"lon":5.37172,"is_reserved":false,"is_disabled":false,"rental_uris":{"android":"levelo://app?vid=e8c83ea8-9239-492b-aa40-24cdb5c5f7fd","ios":"levelo://app?vid=e8c83ea8-9239-492b-aa40-24cdb5c5f7fd"},"vehicle_type_id":"4","last_reported":1730470117,"current_range_meters":29600,"station_id":"ce4bh5p2rcd13ifvqe4g","pricing_plan_id":"cebpf4jnsgd1na2vs0mg"},{"bike_id":"fadda05f-95af-4152-ab41-ce3a2d7a3da6","system_id":"levelo_inurba_marseille","lat":43.27816,"lon":5.4071,"is_reserved":false,"is_disabled":false,"rental_uris":{"android":"levelo://app?vid=fadda05f-95af-4152-ab41-ce3a2d7a3da6","ios":"levelo://app?vid=fadda05f-95af-4152-ab41-ce3a2d7a3da6"},"vehicle_type_id":"4","last_reported":1730470117,"current_range_meters":36000,"station_id":"ce4bhnh2rcd13ifvqgtg","pricing_plan_id":"cebpf4jnsgd1na2vs0mg"},{"bike_id":"c3892579-34c0-4f4d-b3e9-6b40091087e9","system_id":"levelo_inurba_marseille","lat":43.28415,"lon":5.34992,"is_reserved":false,"is_disabled":false,"rental_uris":{"android":"levelo://app?vid=c3892579-34c0-4f4d-b3e9-6b40091087e9","ios":"levelo://app?vid=c3892579-34c0-4f4d-b3e9-6b40091087e9"},"vehicle_type_id":"4","last_reported":1730470117,"current_range_meters":13600,"station_id":"ce4bhbh2rcd13ifvqepg","pricing_plan_id":"cebpf4jnsgd1na2vs0mg"},{"bike_id":"f7cd2e11-9116-45d3-91bc-6140ce51beb9","system_id":"levelo_inurba_marseille","lat":43.28419,"lon":5.34989,"is_reserved":false,"is_disabled":false,"rental_uris":{"android":"levelo://app?vid=f7cd2e11-9116-45d3-91bc-6140ce51beb9","ios":"levelo://app?vid=f7cd2e11-9116-45d3-91bc-6140ce51beb9"},"vehicle_type_id":"4","last_reported":1730470117,"current_range_meters":32000,"station_id":"ce4bhbh2rcd13ifvqepg","pricing_plan_id":"cebpf4jnsgd1na2vs0mg"},{"bike_id":"af4e9ea9-0a7b-461e-a196-6a3fb6b64b49","system_id":"levelo_inurba_marseille","lat":43.23196,"lon":5.35552,"is_reserved":false,"is_disabled":false,"rental_uris":{"android":"levelo://app?vid=af4e9ea9-0a7b-461e-a196-6a3fb6b64b49","ios":"levelo://app?vid=af4e9ea9-0a7b-461e-a196-6a3fb6b64b49"},"vehicle_type_id":"4","last_reported":1730470117,"current_range_meters":28400,"station_id":"ce4bhu92rcd13ifvqi70","pricing_plan_id":"cebpf4jnsgd1na2vs0mg"},{"bike_id":"ee1d2d43-17c8-41a2-add5-ff1373b37f6a","system_id":"levelo_inurba_marseille","lat":43.28266,"lon":5.35063,"is_reserved":false,"is_disabled":false,"rental_uris":{"android":"levelo://app?vid=ee1d2d43-17c8-41a2-add5-ff1373b37f6a","ios":"levelo://app?vid=ee1d2d43-17c8-41a2-add5-ff1373b37f6a"},"vehicle_type_id":"4","last_reported":1730470117,"current_range_meters":37600,"station_id":"ce4bhbp2rcd13ifvqerg","pricing_plan_id":"cebpf4jnsgd1na2vs0mg"},{"bike_id":"24df5884-c5b9-48a0-8fd8-fe6a4145860c","system_id":"levelo_inurba_marseille","lat":43.31367,"lon":5.38496,"is_reserved":false,"is_disabled":false,"rental_uris":{"android":"levelo://app?vid=24df5884-c5b9-48a0-8fd8-fe6a4145860c","ios":"levelo://app?vid=24df5884-c5b9-48a0-8fd8-fe6a4145860c"},"vehicle_type_id":"4","last_reported":1730470117,"current_range_meters":34000,"station_id":"ce4bgt92rcd13ifvqcf0","pricing_plan_id":"cebpf4jnsgd1na2vs0mg"},{"bike_id":"76ff0f0f-932d-42ef-8025-75058f5d06cb","system_id":"levelo_inurba_marseille","lat":43.28423,"lon":5.34987,"is_reserved":false,"is_disabled":false,"rental_uris":{"android":"levelo://app?vid=76ff0f0f-932d-42ef-8025-75058f5d06cb","ios":"levelo://app?vid=76ff0f0f-932d-42ef-8025-75058f5d06cb"},"vehicle_type_id":"4","last_reported":1730470117,"current_range_meters":33200,"station_id":"ce4bhbh2rcd13ifvqepg","pricing_plan_id":"cebpf4jnsgd1na2vs0mg"},{"bike_id":"9a622b6c-8f69-4974-b122-b98929aa7a88","system_id":"levelo_inurba_marseille","lat":43.28861,"lon":5.35844,"is_reserved":false,"is_disabled":false,"rental_uris":{"android":"levelo://app?vid=9a622b6c-8f69-4974-b122-b98929aa7a88","ios":"levelo://app?vid=9a622b6c-8f69-4974-b122-b98929aa7a88"},"vehicle_type_id":"4","last_reported":1730470117,"current_range_meters":20800,"station_id":"ce4bhb12rcd13ifvqem0","pricing_plan_id":"cebpf4jnsgd1na2vs0mg"},{"bike_id":"e774631b-ad90-4388-b9e5-795e1ebd992c","system_id":"levelo_inurba_marseille","lat":43.23191,"lon":5.39991,"is_reserved":false,"is_disabled":false,"rental_uris":{"android":"levelo://app?vid=e774631b-ad90-4388-b9e5-795e1ebd992c","ios":"levelo://app?vid=e774631b-ad90-4388-b9e5-795e1ebd992c"},"vehicle_type_id":"4","last_reported":1730470117,"current_range_meters":17200,"station_id":"ce4bhn12rcd13ifvqgqg","pricing_plan_id":"cebpf4jnsgd1na2vs0mg"},{"bike_id":"d2df533a-0f6f-45c1-b04a-17e8f7bf61b0","system_id":"levelo_inurba_marseille","lat":43.25491,"lon":5.37648,"is_reserved":false,"is_disabled":false,"rental_uris":{"android":"levelo://app?vid=d2df533a-0f6f-45c1-b04a-17e8f7bf61b0","ios":"levelo://app?vid=d2df533a-0f6f-45c1-b04a-17e8f7bf61b0"},"vehicle_type_id":"4","last_reported":1730470117,"current_range_meters":25600,"station_id":"ce4bhh12rcd13ifvqff0","pricing_plan_id":"cebpf4jnsgd1na2vs0mg"},{"bike_id":"5b1beb29-08c3-4517-96e1-89c4b727e0c3","system_id":"levelo_inurba_marseille","lat":43.23197,"lon":5.35549,"is_reserved":false,"is_disabled":false,"rental_uris":{"android":"levelo://app?vid=5b1beb29-08c3-4517-96e1-89c4b727e0c3","ios":"levelo://app?vid=5b1beb29-08c3-4517-96e1-89c4b727e0c3"},"vehicle_type_id":"4","last_reported":1730470117,"current_range_meters":28800,"station_id":"ce4bhu92rcd13ifvqi70","pricing_plan_id":"cebpf4jnsgd1na2vs0mg"},{"bike_id":"184436cc-2283-4849-99ff-4cf3cfcbd0b4","system_id":"levelo_inurba_marseille","lat":43.27379,"lon":5.36263,"is_reserved":false,"is_disabled":false,"rental_uris":{"android":"levelo://app?vid=184436cc-2283-4849-99ff-4cf3cfcbd0b4","ios":"levelo://app?vid=184436cc-2283-4849-99ff-4cf3cfcbd0b4"},"vehicle_type_id":"4","last_reported":1730470117,"current_range_meters":10800,"station_id":"ce4bhbh2rcd13ifvqeo0","pricing_plan_id":"cebpf4jnsgd1na2vs0mg"},{"bike_id":"82cad8c2-89ed-4ac3-a4ea-cf1a80903fb8","system_id":"levelo_inurba_marseille","lat":43.28002,"lon":5.40012,"is_reserved":false,"is_disabled":false,"rental_uris":{"android":"levelo://app?vid=82cad8c2-89ed-4ac3-a4ea-cf1a80903fb8","ios":"levelo://app?vid=82cad8c2-89ed-4ac3-a4ea-cf1a80903fb8"},"vehicle_type_id":"4","last_reported":1730470117,"current_range_meters":36400,"station_id":"ce4bho92rcd13ifvqh4g","pricing_plan_id":"cebpf4jnsgd1na2vs0mg"},{"bike_id":"68c00515-8a66-4ef6-adbd-b0bb74466dbc","system_id":"levelo_inurba_marseille","lat":43.26034,"lon":5.37549,"is_reserved":false,"is_disabled":false,"rental_uris":{"android":"levelo://app?vid=68c00515-8a66-4ef6-adbd-b0bb74466dbc","ios":"levelo://app?vid=68c00515-8a66-4ef6-adbd-b0bb74466dbc"},"vehicle_type_id":"4","last_reported":1730470117,"current_range_meters":38800,"station_id":"ce4bhgh2rcd13ifvqfa0","pricing_plan_id":"cebpf4jnsgd1na2vs0mg"},{"bike_id":"f99547b6-e0b7-4a86-b4bb-f600f8ca5cb2","system_id":"levelo_inurba_marseille","lat":43.2418,"lon":5.36396,"is_reserved":false,"is_disabled":false,"rental_uris":{"android":"levelo://app?vid=f99547b6-e0b7-4a86-b4bb-f600f8ca5cb2","ios":"levelo://app?vid=f99547b6-e0b7-4a86-b4bb-f600f8ca5cb2"},"vehicle_type_id":"4","last_reported":1730470117,"current_range_meters":6400,"station_id":"cpo36qri1sfpv3e86is0","pricing_plan_id":"cebpf4jnsgd1na2vs0mg"},{"bike_id":"06ba2035-774a-4f77-9b17-1034301a8dc2","system_id":"levelo_inurba_marseille","lat":43.24075,"lon":5.3776,"is_reserved":false,"is_disabled":false,"rental_uris":{"android":"levelo://app?vid=06ba2035-774a-4f77-9b17-1034301a8dc2","ios":"levelo://app?vid=06ba2035-774a-4f77-9b17-1034301a8dc2"},"vehicle_type_id":"4","last_reported":1730470117,"current_range_meters":38000,"station_id":"ce4bhnp2rcd13ifvqgvg","pricing_plan_id":"cebpf4jnsgd1na2vs0mg"},{"bike_id":"e6a6d45a-e190-43cb-8101-dd964c389a88","system_id":"levelo_inurba_marseille","lat":43.2842,"lon":5.34987,"is_reserved":false,"is_disabled":false,"rental_uris":{"android":"levelo://app?vid=e6a6d45a-e190-43cb-8101-dd964c389a88","ios":"levelo://app?vid=e6a6d45a-e190-43cb-8101-dd964c389a88"},"vehicle_type_id":"4","last_reported":1730470117,"current_range_meters":39200,"station_id":"ce4bhbh2rcd13ifvqepg","pricing_plan_id":"cebpf4jnsgd1na2vs0mg"},{"bike_id":"f35cf324-1adf-4bd9-a56a-f0c165fbeeb8","system_id":"levelo_inurba_marseille","lat":43.2842,"lon":5.34978,"is_reserved":false,"is_disabled":false,"rental_uris":{"android":"levelo://app?vid=f35cf324-1adf-4bd9-a56a-f0c165fbeeb8","ios":"levelo://app?vid=f35cf324-1adf-4bd9-a56a-f0c165fbeeb8"},"vehicle_type_id":"4","last_reported":1730470117,"current_range_meters":22400,"station_id":"ce4bhbh2rcd13ifvqepg","pricing_plan_id":"cebpf4jnsgd1na2vs0mg"},{"bike_id":"e136f05c-4173-4d3a-8465-ffde765b804b","system_id":"levelo_inurba_marseille","lat":43.265682,"lon":5.390209,"is_reserved":false,"is_disabled":false,"rental_uris":{"android":"levelo://app?vid=e136f05c-4173-4d3a-8465-ffde765b804b","ios":"levelo://app?vid=e136f05c-4173-4d3a-8465-ffde765b804b"},"vehicle_type_id":"4","last_reported":1730470117,"current_range_meters":36400,"station_id":"ce4bhe12rcd13ifvqf30","pricing_plan_id":"cebpf4jnsgd1na2vs0mg"},{"bike_id":"794d23c0-def7-4557-a69a-112ea268f585","system_id":"levelo_inurba_marseille","lat":43.2319,"lon":5.35558,"is_reserved":false,"is_disabled":false,"rental_uris":{"android":"levelo://app?vid=794d23c0-def7-4557-a69a-112ea268f585","ios":"levelo://app?vid=794d23c0-def7-4557-a69a-112ea268f585"},"vehicle_type_id":"4","last_reported":1730470117,"current_range_meters":38800,"station_id":"ce4bhu92rcd13ifvqi70","pricing_plan_id":"cebpf4jnsgd1na2vs0mg"},{"bike_id":"59cec7b9-78d7-4735-80b7-a490bf6983ef","system_id":"levelo_inurba_marseille","lat":43.302582,"lon":5.377304,"is_reserved":false,"is_disabled":false,"rental_uris":{"android":"levelo://app?vid=59cec7b9-78d7-4735-80b7-a490bf6983ef","ios":"levelo://app?vid=59cec7b9-78d7-4735-80b7-a490bf6983ef"},"vehicle_type_id":"4","last_reported":1730470117,"current_range_meters":38000,"station_id":"ce4bguh2rcd13ifvqcj0","pricing_plan_id":"cebpf4jnsgd1na2vs0mg"},{"bike_id":"74ce391a-6089-43cc-bb4b-deb38ba8959c","system_id":"levelo_inurba_marseille","lat":43.29918,"lon":5.37486,"is_reserved":false,"is_disabled":false,"rental_uris":{"android":"levelo://app?vid=74ce391a-6089-43cc-bb4b-deb38ba8959c","ios":"levelo://app?vid=74ce391a-6089-43cc-bb4b-deb38ba8959c"},"vehicle_type_id":"4","last_reported":1730470117,"current_range_meters":25600,"station_id":"ce4bgjh2rcd13ifvqbg0","pricing_plan_id":"cebpf4jnsgd1na2vs0mg"},{"bike_id":"c9fe9305-e5b5-403a-8ac6-ee784523647c","system_id":"levelo_inurba_marseille","lat":43.23424,"lon":5.35945,"is_reserved":false,"is_disabled":false,"rental_uris":{"android":"levelo://app?vid=c9fe9305-e5b5-403a-8ac6-ee784523647c","ios":"levelo://app?vid=c9fe9305-e5b5-403a-8ac6-ee784523647c"},"vehicle_type_id":"4","last_reported":1730470117,"current_range_meters":22800,"station_id":"","pricing_plan_id":"cebpf4jnsgd1na2vs0mg"},{"bike_id":"616fd93b-d570-4dd3-a586-175d7b011c09","system_id":"levelo_inurba_marseille","lat":43.23153,"lon":5.43713,"is_reserved":false,"is_disabled":false,"rental_uris":{"android":"levelo://app?vid=616fd93b-d570-4dd3-a586-175d7b011c09","ios":"levelo://app?vid=616fd93b-d570-4dd3-a586-175d7b011c09"},"vehicle_type_id":"4","last_reported":1730470117,"current_range_meters":38800,"station_id":"ce4bhmp2rcd13ifvqgog","pricing_plan_id":"cebpf4jnsgd1na2vs0mg"},{"bike_id":"1457e520-5f81-4350-8a0e-59a53e77d12a","system_id":"levelo_inurba_marseille","lat":43.2842,"lon":5.3499,"is_reserved":false,"is_disabled":false,"rental_uris":{"android":"levelo://app?vid=1457e520-5f81-4350-8a0e-59a53e77d12a","ios":"levelo://app?vid=1457e520-5f81-4350-8a0e-59a53e77d12a"},"vehicle_type_id":"4","last_reported":1730470117,"current_range_meters":32400,"station_id":"ce4bhbh2rcd13ifvqepg","pricing_plan_id":"cebpf4jnsgd1na2vs0mg"},{"bike_id":"e52b30a3-4b57-4670-bfc2-001af37ad664","system_id":"levelo_inurba_marseille","lat":43.28424,"lon":5.34996,"is_reserved":false,"is_disabled":false,"rental_uris":{"android":"levelo://app?vid=e52b30a3-4b57-4670-bfc2-001af37ad664","ios":"levelo://app?vid=e52b30a3-4b57-4670-bfc2-001af37ad664"},"vehicle_type_id":"4","last_reported":1730470117,"current_range_meters":28000,"station_id":"ce4bhbh2rcd13ifvqepg","pricing_plan_id":"cebpf4jnsgd1na2vs0mg"},{"bike_id":"f05152d9-b569-41c3-9c0f-430ea81d5a3a","system_id":"levelo_inurba_marseille","lat":43.26211,"lon":5.37445,"is_reserved":false,"is_disabled":false,"rental_uris":{"android":"levelo://app?vid=f05152d9-b569-41c3-9c0f-430ea81d5a3a","ios":"levelo://app?vid=f05152d9-b569-41c3-9c0f-430ea81d5a3a"},"vehicle_type_id":"4","last_reported":1730470117,"current_range_meters":32000,"station_id":"ce4bhgp2rcd13ifvqfc0","pricing_plan_id":"cebpf4jnsgd1na2vs0mg"},{"bike_id":"5a351049-e982-4b77-a56d-51a40c9047ac","system_id":"levelo_inurba_marseille","lat":43.30438,"lon":5.38893,"is_reserved":false,"is_disabled":false,"rental_uris":{"android":"levelo://app?vid=5a351049-e982-4b77-a56d-51a40c9047ac","ios":"levelo://app?vid=5a351049-e982-4b77-a56d-51a40c9047ac"},"vehicle_type_id":"4","last_reported":1730470117,"current_range_meters":38800,"station_id":"ce4bgk12rcd13ifvqbi0","pricing_plan_id":"cebpf4jnsgd1na2vs0mg"},{"bike_id":"68ee9e57-81bc-4ab4-adb1-b44853174ba9","system_id":"levelo_inurba_marseille","lat":43.2397,"lon":5.36633,"is_reserved":false,"is_disabled":false,"rental_uris":{"android":"levelo://app?vid=68ee9e57-81bc-4ab4-adb1-b44853174ba9","ios":"levelo://app?vid=68ee9e57-81bc-4ab4-adb1-b44853174ba9"},"vehicle_type_id":"4","last_reported":1730470117,"current_range_meters":32000,"station_id":"ce4bhi12rcd13ifvqfp0","pricing_plan_id":"cebpf4jnsgd1na2vs0mg"},{"bike_id":"9fc1694f-ecea-4332-ac35-6c0889cf7a5b","system_id":"levelo_inurba_marseille","lat":43.2815,"lon":5.42649,"is_reserved":false,"is_disabled":false,"rental_uris":{"android":"levelo://app?vid=9fc1694f-ecea-4332-ac35-6c0889cf7a5b","ios":"levelo://app?vid=9fc1694f-ecea-4332-ac35-6c0889cf7a5b"},"vehicle_type_id":"4","last_reported":1730470117,"current_range_meters":22800,"station_id":"ce4bhnh2rcd13ifvqgug","pricing_plan_id":"cebpf4jnsgd1na2vs0mg"},{"bike_id":"4d54dee4-abc6-458f-99a7-45ce50c413d1","system_id":"levelo_inurba_marseille","lat":43.28617,"lon":5.35098,"is_reserved":false,"is_disabled":false,"rental_uris":{"android":"levelo://app?vid=4d54dee4-abc6-458f-99a7-45ce50c413d1","ios":"levelo://app?vid=4d54dee4-abc6-458f-99a7-45ce50c413d1"},"vehicle_type_id":"4","last_reported":1730470117,"current_range_meters":38800,"station_id":"ce4bhch2rcd13ifvqeug","pricing_plan_id":"cebpf4jnsgd1na2vs0mg"},{"bike_id":"c0e56f38-9c3e-4596-aecc-63cba37f5624","system_id":"levelo_inurba_marseille","lat":43.26934,"lon":5.38918,"is_reserved":false,"is_disabled":false,"rental_uris":{"android":"levelo://app?vid=c0e56f38-9c3e-4596-aecc-63cba37f5624","ios":"levelo://app?vid=c0e56f38-9c3e-4596-aecc-63cba37f5624"},"vehicle_type_id":"4","last_reported":1730470117,"current_range_meters":28400,"station_id":"ce4bhhh2rcd13ifvqfl0","pricing_plan_id":"cebpf4jnsgd1na2vs0mg"},{"bike_id":"9371ec22-28e8-4a60-ad3e-a03e315b6981","system_id":"levelo_inurba_marseille","lat":43.26683,"lon":5.38271,"is_reserved":false,"is_disabled":false,"rental_uris":{"android":"levelo://app?vid=9371ec22-28e8-4a60-ad3e-a03e315b6981","ios":"levelo://app?vid=9371ec22-28e8-4a60-ad3e-a03e315b6981"},"vehicle_type_id":"4","last_reported":1730470117,"current_range_meters":38800,"station_id":"ce4bhg92rcd13ifvqf90","pricing_plan_id":"cebpf4jnsgd1na2vs0mg"},{"bike_id":"94e5a78a-7095-4be1-a4e8-698f69574a49","system_id":"levelo_inurba_marseille","lat":43.23192,"lon":5.3555,"is_reserved":false,"is_disabled":false,"rental_uris":{"android":"levelo://app?vid=94e5a78a-7095-4be1-a4e8-698f69574a49","ios":"levelo://app?vid=94e5a78a-7095-4be1-a4e8-698f69574a49"},"vehicle_type_id":"4","last_reported":1730470117,"current_range_meters":28400,"station_id":"ce4bhu92rcd13ifvqi70","pricing_plan_id":"cebpf4jnsgd1na2vs0mg"},{"bike_id":"e28f4cf4-aaa0-4089-94fb-a26e49eaf87d","system_id":"levelo_inurba_marseille","lat":43.23183,"lon":5.39993,"is_reserved":false,"is_disabled":false,"rental_uris":{"android":"levelo://app?vid=e28f4cf4-aaa0-4089-94fb-a26e49eaf87d","ios":"levelo://app?vid=e28f4cf4-aaa0-4089-94fb-a26e49eaf87d"},"vehicle_type_id":"4","last_reported":1730470117,"current_range_meters":6400,"station_id":"ce4bhn12rcd13ifvqgqg","pricing_plan_id":"cebpf4jnsgd1na2vs0mg"},{"bike_id":"7ae78073-5d3c-4033-919b-ebc75633ef59","system_id":"levelo_inurba_marseille","lat":43.2842,"lon":5.34984,"is_reserved":false,"is_disabled":false,"rental_uris":{"android":"levelo://app?vid=7ae78073-5d3c-4033-919b-ebc75633ef59","ios":"levelo://app?vid=7ae78073-5d3c-4033-919b-ebc75633ef59"},"vehicle_type_id":"4","last_reported":1730470117,"current_range_meters":20800,"station_id":"ce4bhbh2rcd13ifvqepg","pricing_plan_id":"cebpf4jnsgd1na2vs0mg"},{"bike_id":"b82e46bd-dd93-438e-8032-253c0ff00e77","system_id":"levelo_inurba_marseille","lat":43.28616,"lon":5.35107,"is_reserved":false,"is_disabled":false,"rental_uris":{"android":"levelo://app?vid=b82e46bd-dd93-438e-8032-253c0ff00e77","ios":"levelo://app?vid=b82e46bd-dd93-438e-8032-253c0ff00e77"},"vehicle_type_id":"4","last_reported":1730470117,"current_range_meters":33600,"station_id":"ce4bhch2rcd13ifvqeug","pricing_plan_id":"cebpf4jnsgd1na2vs0mg"},{"bike_id":"bc155649-11d5-4ba6-b606-b84f02fec052","system_id":"levelo_inurba_marseille","lat":43.3055,"lon":5.36727,"is_reserved":false,"is_disabled":false,"rental_uris":{"android":"levelo://app?vid=bc155649-11d5-4ba6-b606-b84f02fec052","ios":"levelo://app?vid=bc155649-11d5-4ba6-b606-b84f02fec052"},"vehicle_type_id":"4","last_reported":1730470117,"current_range_meters":16400,"station_id":"ce4bgrp2rcd13ifvqc9g","pricing_plan_id":"cebpf4jnsgd1na2vs0mg"},{"bike_id":"707604b6-c6b3-46a1-a0b3-4a69400962f8","system_id":"levelo_inurba_marseille","lat":43.27497,"lon":5.42452,"is_reserved":false,"is_disabled":false,"rental_uris":{"android":"levelo://app?vid=707604b6-c6b3-46a1-a0b3-4a69400962f8","ios":"levelo://app?vid=707604b6-c6b3-46a1-a0b3-4a69400962f8"},"vehicle_type_id":"4","last_reported":1730470117,"current_range_meters":32000,"station_id":"ce4bhn92rcd13ifvqgrg","pricing_plan_id":"cebpf4jnsgd1na2vs0mg"},{"bike_id":"81058b87-89d4-4a98-91a5-3c18d215adc8","system_id":"levelo_inurba_marseille","lat":43.29942,"lon":5.36535,"is_reserved":false,"is_disabled":false,"rental_uris":{"android":"levelo://app?vid=81058b87-89d4-4a98-91a5-3c18d215adc8","ios":"levelo://app?vid=81058b87-89d4-4a98-91a5-3c18d215adc8"},"vehicle_type_id":"4","last_reported":1730470117,"current_range_meters":34800,"station_id":"ce4bgm92rcd13ifvqbr0","pricing_plan_id":"cebpf4jnsgd1na2vs0mg"},{"bike_id":"5b56874c-c7a1-46f2-acff-a7978e67ef45","system_id":"levelo_inurba_marseille","lat":43.24394,"lon":5.3707,"is_reserved":false,"is_disabled":false,"rental_uris":{"android":"levelo://app?vid=5b56874c-c7a1-46f2-acff-a7978e67ef45","ios":"levelo://app?vid=5b56874c-c7a1-46f2-acff-a7978e67ef45"},"vehicle_type_id":"4","last_reported":1730470117,"current_range_meters":23200,"station_id":"ce4bhhh2rcd13ifvqfk0","pricing_plan_id":"cebpf4jnsgd1na2vs0mg"},{"bike_id":"58748d2a-dff2-4bfe-ba69-a9beed25e62c","system_id":"levelo_inurba_marseille","lat":43.27112,"lon":5.39449,"is_reserved":false,"is_disabled":false,"rental_uris":{"android":"levelo://app?vid=58748d2a-dff2-4bfe-ba69-a9beed25e62c","ios":"levelo://app?vid=58748d2a-dff2-4bfe-ba69-a9beed25e62c"},"vehicle_type_id":"4","last_reported":1730470117,"current_range_meters":22800,"station_id":"","pricing_plan_id":"cebpf4jnsgd1na2vs0mg"},{"bike_id":"08ed22d7-663d-413b-8e4a-a32596a7792f","system_id":"levelo_inurba_marseille","lat":43.32483,"lon":5.41579,"is_reserved":false,"is_disabled":false,"rental_uris":{"android":"levelo://app?vid=08ed22d7-663d-413b-8e4a-a32596a7792f","ios":"levelo://app?vid=08ed22d7-663d-413b-8e4a-a32596a7792f"},"vehicle_type_id":"4","last_reported":1730470117,"current_range_meters":36800,"station_id":"","pricing_plan_id":"cebpf4jnsgd1na2vs0mg"},{"bike_id":"55db49d4-5a48-49c8-9207-c7b4fb027811","system_id":"levelo_inurba_marseille","lat":43.25007,"lon":5.38939,"is_reserved":false,"is_disabled":false,"rental_uris":{"android":"levelo://app?vid=55db49d4-5a48-49c8-9207-c7b4fb027811","ios":"levelo://app?vid=55db49d4-5a48-49c8-9207-c7b4fb027811"},"vehicle_type_id":"4","last_reported":1730470117,"current_range_meters":27200,"station_id":"ce4bhgp2rcd13ifvqfd0","pricing_plan_id":"cebpf4jnsgd1na2vs0mg"},{"bike_id":"819560b3-07b7-47c9-9936-06dfb2faf181","system_id":"levelo_inurba_marseille","lat":43.23193,"lon":5.35552,"is_reserved":false,"is_disabled":false,"rental_uris":{"android":"levelo://app?vid=819560b3-07b7-47c9-9936-06dfb2faf181","ios":"levelo://app?vid=819560b3-07b7-47c9-9936-06dfb2faf181"},"vehicle_type_id":"4","last_reported":1730470117,"current_range_meters":25200,"station_id":"ce4bhu92rcd13ifvqi70","pricing_plan_id":"cebpf4jnsgd1na2vs0mg"},{"bike_id":"ced181f5-f583-419a-a5fc-7dff9e3e201f","system_id":"levelo_inurba_marseille","lat":43.23958,"lon":5.36637,"is_reserved":false,"is_disabled":false,"rental_uris":{"android":"levelo://app?vid=ced181f5-f583-419a-a5fc-7dff9e3e201f","ios":"levelo://app?vid=ced181f5-f583-419a-a5fc-7dff9e3e201f"},"vehicle_type_id":"4","last_reported":1730470117,"current_range_meters":16400,"station_id":"ce4bhi12rcd13ifvqfp0","pricing_plan_id":"cebpf4jnsgd1na2vs0mg"},{"bike_id":"7761dfd7-5811-407a-97cf-83e9d6d36c83","system_id":"levelo_inurba_marseille","lat":43.23185,"lon":5.39987,"is_reserved":false,"is_disabled":false,"rental_uris":{"android":"levelo://app?vid=7761dfd7-5811-407a-97cf-83e9d6d36c83","ios":"levelo://app?vid=7761dfd7-5811-407a-97cf-83e9d6d36c83"},"vehicle_type_id":"4","last_reported":1730470117,"current_range_meters":38800,"station_id":"ce4bhn12rcd13ifvqgqg","pricing_plan_id":"cebpf4jnsgd1na2vs0mg"},{"bike_id":"ca6d5ea9-ba9b-4634-9d52-aa45cf22cc72","system_id":"levelo_inurba_marseille","lat":43.28924,"lon":5.38401,"is_reserved":false,"is_disabled":false,"rental_uris":{"android":"levelo://app?vid=ca6d5ea9-ba9b-4634-9d52-aa45cf22cc72","ios":"levelo://app?vid=ca6d5ea9-ba9b-4634-9d52-aa45cf22cc72"},"vehicle_type_id":"4","last_reported":1730470117,"current_range_meters":32000,"station_id":"ce4bh612rcd13ifvqe6g","pricing_plan_id":"cebpf4jnsgd1na2vs0mg"},{"bike_id":"ed239b41-af43-4f0b-bb81-814199b4db42","system_id":"levelo_inurba_marseille","lat":43.28274,"lon":5.35073,"is_reserved":false,"is_disabled":false,"rental_uris":{"android":"levelo://app?vid=ed239b41-af43-4f0b-bb81-814199b4db42","ios":"levelo://app?vid=ed239b41-af43-4f0b-bb81-814199b4db42"},"vehicle_type_id":"4","last_reported":1730470117,"current_range_meters":38800,"station_id":"ce4bhbp2rcd13ifvqerg","pricing_plan_id":"cebpf4jnsgd1na2vs0mg"},{"bike_id":"519ed868-bf2d-403e-82a3-e650632e4ae9","system_id":"levelo_inurba_marseille","lat":43.28616,"lon":5.35109,"is_reserved":false,"is_disabled":false,"rental_uris":{"android":"levelo://app?vid=519ed868-bf2d-403e-82a3-e650632e4ae9","ios":"levelo://app?vid=519ed868-bf2d-403e-82a3-e650632e4ae9"},"vehicle_type_id":"4","last_reported":1730470117,"current_range_meters":24800,"station_id":"ce4bhch2rcd13ifvqeug","pricing_plan_id":"cebpf4jnsgd1na2vs0mg"},{"bike_id":"94279a57-03c0-47b7-abe3-7226e86fd3b0","system_id":"levelo_inurba_marseille","lat":43.27622,"lon":5.36105,"is_reserved":false,"is_disabled":false,"rental_uris":{"android":"levelo://app?vid=94279a57-03c0-47b7-abe3-7226e86fd3b0","ios":"levelo://app?vid=94279a57-03c0-47b7-abe3-7226e86fd3b0"},"vehicle_type_id":"4","last_reported":1730470117,"current_range_meters":25200,"station_id":"ce4bgj92rcd13ifvqbe0","pricing_plan_id":"cebpf4jnsgd1na2vs0mg"},{"bike_id":"7fbf1697-6f7f-4b7d-a843-4706494944b8","system_id":"levelo_inurba_marseille","lat":43.29078,"lon":5.37181,"is_reserved":false,"is_disabled":false,"rental_uris":{"android":"levelo://app?vid=7fbf1697-6f7f-4b7d-a843-4706494944b8","ios":"levelo://app?vid=7fbf1697-6f7f-4b7d-a843-4706494944b8"},"vehicle_type_id":"4","last_reported":1730470117,"current_range_meters":22800,"station_id":"ce4bh5p2rcd13ifvqe4g","pricing_plan_id":"cebpf4jnsgd1na2vs0mg"},{"bike_id":"1e279533-6ee3-438e-a8e4-70abef3b2e54","system_id":"levelo_inurba_marseille","lat":43.28941,"lon":5.39637,"is_reserved":false,"is_disabled":false,"rental_uris":{"android":"levelo://app?vid=1e279533-6ee3-438e-a8e4-70abef3b2e54","ios":"levelo://app?vid=1e279533-6ee3-438e-a8e4-70abef3b2e54"},"vehicle_type_id":"4","last_reported":1730470117,"current_range_meters":22800,"station_id":"ce4bh3h2rcd13ifvqdn0","pricing_plan_id":"cebpf4jnsgd1na2vs0mg"},{"bike_id":"864a552f-87dd-464a-977f-d7ea2d5d0d29","system_id":"levelo_inurba_marseille","lat":43.276212,"lon":5.36107,"is_reserved":false,"is_disabled":false,"rental_uris":{"android":"levelo://app?vid=864a552f-87dd-464a-977f-d7ea2d5d0d29","ios":"levelo://app?vid=864a552f-87dd-464a-977f-d7ea2d5d0d29"},"vehicle_type_id":"4","last_reported":1730470117,"current_range_meters":21600,"station_id":"ce4bgj92rcd13ifvqbe0","pricing_plan_id":"cebpf4jnsgd1na2vs0mg"},{"bike_id":"c97b97e3-8572-413d-a972-8b4265cd9cd0","system_id":"levelo_inurba_marseille","lat":43.28273,"lon":5.3507,"is_reserved":false,"is_disabled":false,"rental_uris":{"android":"levelo://app?vid=c97b97e3-8572-413d-a972-8b4265cd9cd0","ios":"levelo://app?vid=c97b97e3-8572-413d-a972-8b4265cd9cd0"},"vehicle_type_id":"4","last_reported":1730470117,"current_range_meters":38000,"station_id":"ce4bhbp2rcd13ifvqerg","pricing_plan_id":"cebpf4jnsgd1na2vs0mg"},{"bike_id":"a59de3a1-b5ee-4992-95d5-92d91d1b8221","system_id":"levelo_inurba_marseille","lat":43.25868,"lon":5.39903,"is_reserved":false,"is_disabled":false,"rental_uris":{"android":"levelo://app?vid=a59de3a1-b5ee-4992-95d5-92d91d1b8221","ios":"levelo://app?vid=a59de3a1-b5ee-4992-95d5-92d91d1b8221"},"vehicle_type_id":"4","last_reported":1730470117,"current_range_meters":32000,"station_id":"ce4bhl92rcd13ifvqghg","pricing_plan_id":"cebpf4jnsgd1na2vs0mg"},{"bike_id":"1a4dfb36-c358-4aa3-8fb1-28e026a5fd9d","system_id":"levelo_inurba_marseille","lat":43.25584,"lon":5.38239,"is_reserved":false,"is_disabled":false,"rental_uris":{"android":"levelo://app?vid=1a4dfb36-c358-4aa3-8fb1-28e026a5fd9d","ios":"levelo://app?vid=1a4dfb36-c358-4aa3-8fb1-28e026a5fd9d"},"vehicle_type_id":"4","last_reported":1730470117,"current_range_meters":26000,"station_id":"ce4bhih2rcd13ifvqfs0","pricing_plan_id":"cebpf4jnsgd1na2vs0mg"},{"bike_id":"ce7a9679-1309-4337-a277-05901a838b7d","system_id":"levelo_inurba_marseille","lat":43.29358,"lon":5.43431,"is_reserved":false,"is_disabled":false,"rental_uris":{"android":"levelo://app?vid=ce7a9679-1309-4337-a277-05901a838b7d","ios":"levelo://app?vid=ce7a9679-1309-4337-a277-05901a838b7d"},"vehicle_type_id":"4","last_reported":1730470117,"current_range_meters":16800,"station_id":"","pricing_plan_id":"cebpf4jnsgd1na2vs0mg"},{"bike_id":"7c5052d6-3270-49f8-9f7e-c8b4f0cdc4b3","system_id":"levelo_inurba_marseille","lat":43.24081,"lon":5.37757,"is_reserved":false,"is_disabled":false,"rental_uris":{"android":"levelo://app?vid=7c5052d6-3270-49f8-9f7e-c8b4f0cdc4b3","ios":"levelo://app?vid=7c5052d6-3270-49f8-9f7e-c8b4f0cdc4b3"},"vehicle_type_id":"4","last_reported":1730470117,"current_range_meters":22400,"station_id":"ce4bhnp2rcd13ifvqgvg","pricing_plan_id":"cebpf4jnsgd1na2vs0mg"},{"bike_id":"62cc4766-8c4f-4c68-b806-619b96217818","system_id":"levelo_inurba_marseille","lat":43.25115,"lon":5.40317,"is_reserved":false,"is_disabled":false,"rental_uris":{"android":"levelo://app?vid=62cc4766-8c4f-4c68-b806-619b96217818","ios":"levelo://app?vid=62cc4766-8c4f-4c68-b806-619b96217818"},"vehicle_type_id":"4","last_reported":1730470117,"current_range_meters":9600,"station_id":"ce4bhlh2rcd13ifvqgig","pricing_plan_id":"cebpf4jnsgd1na2vs0mg"},{"bike_id":"1fe219b2-8626-414e-8d61-0586c316f82f","system_id":"levelo_inurba_marseille","lat":43.2549,"lon":5.37646,"is_reserved":false,"is_disabled":false,"rental_uris":{"android":"levelo://app?vid=1fe219b2-8626-414e-8d61-0586c316f82f","ios":"levelo://app?vid=1fe219b2-8626-414e-8d61-0586c316f82f"},"vehicle_type_id":"4","last_reported":1730470117,"current_range_meters":9200,"station_id":"ce4bhh12rcd13ifvqff0","pricing_plan_id":"cebpf4jnsgd1na2vs0mg"},{"bike_id":"dcb8f151-5f72-4ce7-a41b-c8f44dd67b21","system_id":"levelo_inurba_marseille","lat":43.31362,"lon":5.38498,"is_reserved":false,"is_disabled":false,"rental_uris":{"android":"levelo://app?vid=dcb8f151-5f72-4ce7-a41b-c8f44dd67b21","ios":"levelo://app?vid=dcb8f151-5f72-4ce7-a41b-c8f44dd67b21"},"vehicle_type_id":"4","last_reported":1730470117,"current_range_meters":38000,"station_id":"ce4bgt92rcd13ifvqcf0","pricing_plan_id":"cebpf4jnsgd1na2vs0mg"},{"bike_id":"ef71afb4-3f56-43da-a8b3-460d8ef063ad","system_id":"levelo_inurba_marseille","lat":43.28622,"lon":5.35105,"is_reserved":false,"is_disabled":false,"rental_uris":{"android":"levelo://app?vid=ef71afb4-3f56-43da-a8b3-460d8ef063ad","ios":"levelo://app?vid=ef71afb4-3f56-43da-a8b3-460d8ef063ad"},"vehicle_type_id":"4","last_reported":1730470117,"current_range_meters":29600,"station_id":"ce4bhch2rcd13ifvqeug","pricing_plan_id":"cebpf4jnsgd1na2vs0mg"},{"bike_id":"3b6d58db-8895-4cc7-be97-1889ebe64700","system_id":"levelo_inurba_marseille","lat":43.28268,"lon":5.35069,"is_reserved":false,"is_disabled":false,"rental_uris":{"android":"levelo://app?vid=3b6d58db-8895-4cc7-be97-1889ebe64700","ios":"levelo://app?vid=3b6d58db-8895-4cc7-be97-1889ebe64700"},"vehicle_type_id":"4","last_reported":1730470117,"current_range_meters":2800,"station_id":"ce4bhbp2rcd13ifvqerg","pricing_plan_id":"cebpf4jnsgd1na2vs0mg"},{"bike_id":"fcaccd5c-23fb-4cc8-8931-ae330b22fb5a","system_id":"levelo_inurba_marseille","lat":43.23191,"lon":5.39987,"is_reserved":false,"is_disabled":false,"rental_uris":{"android":"levelo://app?vid=fcaccd5c-23fb-4cc8-8931-ae330b22fb5a","ios":"levelo://app?vid=fcaccd5c-23fb-4cc8-8931-ae330b22fb5a"},"vehicle_type_id":"4","last_reported":1730470117,"current_range_meters":28000,"station_id":"ce4bhn12rcd13ifvqgqg","pricing_plan_id":"cebpf4jnsgd1na2vs0mg"},{"bike_id":"86008901-30ea-4421-9db2-a092ed66c428","system_id":"levelo_inurba_marseille","lat":43.25729,"lon":5.41109,"is_reserved":false,"is_disabled":false,"rental_uris":{"android":"levelo://app?vid=86008901-30ea-4421-9db2-a092ed66c428","ios":"levelo://app?vid=86008901-30ea-4421-9db2-a092ed66c428"},"vehicle_type_id":"4","last_reported":1730470117,"current_range_meters":36800,"station_id":"ce4bhkp2rcd13ifvqgd0","pricing_plan_id":"cebpf4jnsgd1na2vs0mg"},{"bike_id":"b7a9d8e8-c35d-4971-bd3f-c64a2bbcec4e","system_id":"levelo_inurba_marseille","lat":43.28278,"lon":5.35064,"is_reserved":false,"is_disabled":false,"rental_uris":{"android":"levelo://app?vid=b7a9d8e8-c35d-4971-bd3f-c64a2bbcec4e","ios":"levelo://app?vid=b7a9d8e8-c35d-4971-bd3f-c64a2bbcec4e"},"vehicle_type_id":"4","last_reported":1730470117,"current_range_meters":38800,"station_id":"ce4bhbp2rcd13ifvqerg","pricing_plan_id":"cebpf4jnsgd1na2vs0mg"},{"bike_id":"adf0a568-b210-4d8d-a616-1be5a3c57b8f","system_id":"levelo_inurba_marseille","lat":43.24802,"lon":5.37505,"is_reserved":false,"is_disabled":false,"rental_uris":{"android":"levelo://app?vid=adf0a568-b210-4d8d-a616-1be5a3c57b8f","ios":"levelo://app?vid=adf0a568-b210-4d8d-a616-1be5a3c57b8f"},"vehicle_type_id":"4","last_reported":1730470117,"current_range_meters":16000,"station_id":"ce4bhgh2rcd13ifvqfb0","pricing_plan_id":"cebpf4jnsgd1na2vs0mg"},{"bike_id":"ffcea463-c3ed-497e-8095-385644b9476c","system_id":"levelo_inurba_marseille","lat":43.28423,"lon":5.3498,"is_reserved":false,"is_disabled":false,"rental_uris":{"android":"levelo://app?vid=ffcea463-c3ed-497e-8095-385644b9476c","ios":"levelo://app?vid=ffcea463-c3ed-497e-8095-385644b9476c"},"vehicle_type_id":"4","last_reported":1730470117,"current_range_meters":39200,"station_id":"ce4bhbh2rcd13ifvqepg","pricing_plan_id":"cebpf4jnsgd1na2vs0mg"},{"bike_id":"ae31f7aa-ec14-4090-9ea9-479b30ff0ee5","system_id":"levelo_inurba_marseille","lat":43.33605,"lon":5.41028,"is_reserved":false,"is_disabled":false,"rental_uris":{"android":"levelo://app?vid=ae31f7aa-ec14-4090-9ea9-479b30ff0ee5","ios":"levelo://app?vid=ae31f7aa-ec14-4090-9ea9-479b30ff0ee5"},"vehicle_type_id":"4","last_reported":1730470117,"current_range_meters":38800,"station_id":"ce4bhqh2rcd13ifvqhmg","pricing_plan_id":"cebpf4jnsgd1na2vs0mg"},{"bike_id":"3f862de1-3221-4cb5-b04f-a32f0115487e","system_id":"levelo_inurba_marseille","lat":43.25587,"lon":5.38239,"is_reserved":false,"is_disabled":false,"rental_uris":{"android":"levelo://app?vid=3f862de1-3221-4cb5-b04f-a32f0115487e","ios":"levelo://app?vid=3f862de1-3221-4cb5-b04f-a32f0115487e"},"vehicle_type_id":"4","last_reported":1730470117,"current_range_meters":22800,"station_id":"ce4bhih2rcd13ifvqfs0","pricing_plan_id":"cebpf4jnsgd1na2vs0mg"},{"bike_id":"adc0a462-8eb9-480f-b655-2b6add39beb8","system_id":"levelo_inurba_marseille","lat":43.304316,"lon":5.388854,"is_reserved":false,"is_disabled":false,"rental_uris":{"android":"levelo://app?vid=adc0a462-8eb9-480f-b655-2b6add39beb8","ios":"levelo://app?vid=adc0a462-8eb9-480f-b655-2b6add39beb8"},"vehicle_type_id":"4","last_reported":1730470117,"current_range_meters":24000,"station_id":"ce4bgt92rcd13ifvqcf0","pricing_plan_id":"cebpf4jnsgd1na2vs0mg"},{"bike_id":"d21e1646-0290-4c60-9599-68e38690e9d3","system_id":"levelo_inurba_marseille","lat":43.28036,"lon":5.3694,"is_reserved":false,"is_disabled":false,"rental_uris":{"android":"levelo://app?vid=d21e1646-0290-4c60-9599-68e38690e9d3","ios":"levelo://app?vid=d21e1646-0290-4c60-9599-68e38690e9d3"},"vehicle_type_id":"4","last_reported":1730470117,"current_range_meters":16800,"station_id":"ce4bha12rcd13ifvqef0","pricing_plan_id":"cebpf4jnsgd1na2vs0mg"},{"bike_id":"b85c2746-8362-41aa-989e-9dc5064ea886","system_id":"levelo_inurba_marseille","lat":43.23057,"lon":5.35485,"is_reserved":false,"is_disabled":false,"rental_uris":{"android":"levelo://app?vid=b85c2746-8362-41aa-989e-9dc5064ea886","ios":"levelo://app?vid=b85c2746-8362-41aa-989e-9dc5064ea886"},"vehicle_type_id":"4","last_reported":1730470117,"current_range_meters":16000,"station_id":"cpo3342slgdg3j2ifvpg","pricing_plan_id":"cebpf4jnsgd1na2vs0mg"},{"bike_id":"fdd816e1-ffb8-43ab-a99d-87aee9a789c2","system_id":"levelo_inurba_marseille","lat":43.33611,"lon":5.4104,"is_reserved":false,"is_disabled":false,"rental_uris":{"android":"levelo://app?vid=fdd816e1-ffb8-43ab-a99d-87aee9a789c2","ios":"levelo://app?vid=fdd816e1-ffb8-43ab-a99d-87aee9a789c2"},"vehicle_type_id":"4","last_reported":1730470117,"current_range_meters":37600,"station_id":"ce4bhqh2rcd13ifvqhmg","pricing_plan_id":"cebpf4jnsgd1na2vs0mg"},{"bike_id":"2391d7cb-380f-47f0-b9b7-4c484f696159","system_id":"levelo_inurba_marseille","lat":43.31224,"lon":5.36867,"is_reserved":false,"is_disabled":false,"rental_uris":{"android":"levelo://app?vid=2391d7cb-380f-47f0-b9b7-4c484f696159","ios":"levelo://app?vid=2391d7cb-380f-47f0-b9b7-4c484f696159"},"vehicle_type_id":"4","last_reported":1730470117,"current_range_meters":11200,"station_id":"ce4bgl92rcd13ifvqbq0","pricing_plan_id":"cebpf4jnsgd1na2vs0mg"},{"bike_id":"c657de8a-95e0-43b4-8395-cd234d817153","system_id":"levelo_inurba_marseille","lat":43.30151,"lon":5.37421,"is_reserved":false,"is_disabled":false,"rental_uris":{"android":"levelo://app?vid=c657de8a-95e0-43b4-8395-cd234d817153","ios":"levelo://app?vid=c657de8a-95e0-43b4-8395-cd234d817153"},"vehicle_type_id":"4","last_reported":1730470117,"current_range_meters":35200,"station_id":"ce4bgs92rcd13ifvqcc0","pricing_plan_id":"cebpf4jnsgd1na2vs0mg"},{"bike_id":"069d79ff-0468-4bb8-9e21-898ee5cac159","system_id":"levelo_inurba_marseille","lat":43.291687,"lon":5.371779,"is_reserved":false,"is_disabled":false,"rental_uris":{"android":"levelo://app?vid=069d79ff-0468-4bb8-9e21-898ee5cac159","ios":"levelo://app?vid=069d79ff-0468-4bb8-9e21-898ee5cac159"},"vehicle_type_id":"4","last_reported":1730470117,"current_range_meters":12400,"station_id":"ce4bha92rcd13ifvqeh0","pricing_plan_id":"cebpf4jnsgd1na2vs0mg"},{"bike_id":"df929ed3-557f-4e11-9511-f0d001c9bb7d","system_id":"levelo_inurba_marseille","lat":43.28415,"lon":5.34998,"is_reserved":false,"is_disabled":false,"rental_uris":{"android":"levelo://app?vid=df929ed3-557f-4e11-9511-f0d001c9bb7d","ios":"levelo://app?vid=df929ed3-557f-4e11-9511-f0d001c9bb7d"},"vehicle_type_id":"4","last_reported":1730470117,"current_range_meters":38400,"station_id":"ce4bhbh2rcd13ifvqepg","pricing_plan_id":"cebpf4jnsgd1na2vs0mg"},{"bike_id":"ff2b8f6d-0356-465d-9dfe-c642ea8d5d32","system_id":"levelo_inurba_marseille","lat":43.24394,"lon":5.37052,"is_reserved":false,"is_disabled":false,"rental_uris":{"android":"levelo://app?vid=ff2b8f6d-0356-465d-9dfe-c642ea8d5d32","ios":"levelo://app?vid=ff2b8f6d-0356-465d-9dfe-c642ea8d5d32"},"vehicle_type_id":"4","last_reported":1730470117,"current_range_meters":39200,"station_id":"ce4bhhh2rcd13ifvqfk0","pricing_plan_id":"cebpf4jnsgd1na2vs0mg"},{"bike_id":"9c0ce7c2-266b-456a-b600-aad012ecaf01","system_id":"levelo_inurba_marseille","lat":43.26198,"lon":5.37924,"is_reserved":false,"is_disabled":false,"rental_uris":{"android":"levelo://app?vid=9c0ce7c2-266b-456a-b600-aad012ecaf01","ios":"levelo://app?vid=9c0ce7c2-266b-456a-b600-aad012ecaf01"},"vehicle_type_id":"4","last_reported":1730470117,"current_range_meters":39200,"station_id":"ce4bhjp2rcd13ifvqg90","pricing_plan_id":"cebpf4jnsgd1na2vs0mg"},{"bike_id":"41d47d69-979b-4480-8fb6-135de4b1e8ff","system_id":"levelo_inurba_marseille","lat":43.2572,"lon":5.41112,"is_reserved":false,"is_disabled":false,"rental_uris":{"android":"levelo://app?vid=41d47d69-979b-4480-8fb6-135de4b1e8ff","ios":"levelo://app?vid=41d47d69-979b-4480-8fb6-135de4b1e8ff"},"vehicle_type_id":"4","last_reported":1730470117,"current_range_meters":39200,"station_id":"ce4bhkp2rcd13ifvqgd0","pricing_plan_id":"cebpf4jnsgd1na2vs0mg"},{"bike_id":"06680b63-9402-4c2d-bd8c-d5881e972d8b","system_id":"levelo_inurba_marseille","lat":43.24392,"lon":5.3706,"is_reserved":false,"is_disabled":false,"rental_uris":{"android":"levelo://app?vid=06680b63-9402-4c2d-bd8c-d5881e972d8b","ios":"levelo://app?vid=06680b63-9402-4c2d-bd8c-d5881e972d8b"},"vehicle_type_id":"4","last_reported":1730470117,"current_range_meters":35600,"station_id":"ce4bhhh2rcd13ifvqfk0","pricing_plan_id":"cebpf4jnsgd1na2vs0mg"},{"bike_id":"973d12e5-903c-4a0c-a3ba-5707cb4c8586","system_id":"levelo_inurba_marseille","lat":43.29915,"lon":5.3747,"is_reserved":false,"is_disabled":false,"rental_uris":{"android":"levelo://app?vid=973d12e5-903c-4a0c-a3ba-5707cb4c8586","ios":"levelo://app?vid=973d12e5-903c-4a0c-a3ba-5707cb4c8586"},"vehicle_type_id":"4","last_reported":1730470117,"current_range_meters":18800,"station_id":"ce4bgjh2rcd13ifvqbg0","pricing_plan_id":"cebpf4jnsgd1na2vs0mg"},{"bike_id":"8a7ab539-39eb-4eab-80f0-0313e301edf0","system_id":"levelo_inurba_marseille","lat":43.23194,"lon":5.39989,"is_reserved":false,"is_disabled":false,"rental_uris":{"android":"levelo://app?vid=8a7ab539-39eb-4eab-80f0-0313e301edf0","ios":"levelo://app?vid=8a7ab539-39eb-4eab-80f0-0313e301edf0"},"vehicle_type_id":"4","last_reported":1730470117,"current_range_meters":38000,"station_id":"ce4bhn12rcd13ifvqgqg","pricing_plan_id":"cebpf4jnsgd1na2vs0mg"},{"bike_id":"96520657-3bb1-4a42-bae8-f72225cb073e","system_id":"levelo_inurba_marseille","lat":43.277567,"lon":5.389226,"is_reserved":false,"is_disabled":false,"rental_uris":{"android":"levelo://app?vid=96520657-3bb1-4a42-bae8-f72225cb073e","ios":"levelo://app?vid=96520657-3bb1-4a42-bae8-f72225cb073e"},"vehicle_type_id":"4","last_reported":1730470117,"current_range_meters":4400,"station_id":"ce4bhi12rcd13ifvqfo0","pricing_plan_id":"cebpf4jnsgd1na2vs0mg"},{"bike_id":"e0144c7f-61c2-45ac-ad5e-415ee1ecd7b2","system_id":"levelo_inurba_marseille","lat":43.280701,"lon":5.396518,"is_reserved":false,"is_disabled":false,"rental_uris":{"android":"levelo://app?vid=e0144c7f-61c2-45ac-ad5e-415ee1ecd7b2","ios":"levelo://app?vid=e0144c7f-61c2-45ac-ad5e-415ee1ecd7b2"},"vehicle_type_id":"4","last_reported":1730470117,"current_range_meters":28400,"station_id":"ce4bho12rcd13ifvqh2g","pricing_plan_id":"cebpf4jnsgd1na2vs0mg"},{"bike_id":"34c73688-b86a-4c37-80e4-24292d892f0d","system_id":"levelo_inurba_marseille","lat":43.29226,"lon":5.36056,"is_reserved":false,"is_disabled":false,"rental_uris":{"android":"levelo://app?vid=34c73688-b86a-4c37-80e4-24292d892f0d","ios":"levelo://app?vid=34c73688-b86a-4c37-80e4-24292d892f0d"},"vehicle_type_id":"4","last_reported":1730470117,"current_range_meters":28800,"station_id":"ce4bhbh2rcd13ifvqeqg","pricing_plan_id":"cebpf4jnsgd1na2vs0mg"},{"bike_id":"2dcf0cbe-b0ad-4133-b0a2-63460d6d9400","system_id":"levelo_inurba_marseille","lat":43.30144,"lon":5.37413,"is_reserved":false,"is_disabled":false,"rental_uris":{"android":"levelo://app?vid=2dcf0cbe-b0ad-4133-b0a2-63460d6d9400","ios":"levelo://app?vid=2dcf0cbe-b0ad-4133-b0a2-63460d6d9400"},"vehicle_type_id":"4","last_reported":1730470117,"current_range_meters":30000,"station_id":"ce4bgs92rcd13ifvqcc0","pricing_plan_id":"cebpf4jnsgd1na2vs0mg"},{"bike_id":"088e0d73-52d1-47b7-afdb-9922744310b7","system_id":"levelo_inurba_marseille","lat":43.2622,"lon":5.37448,"is_reserved":false,"is_disabled":false,"rental_uris":{"android":"levelo://app?vid=088e0d73-52d1-47b7-afdb-9922744310b7","ios":"levelo://app?vid=088e0d73-52d1-47b7-afdb-9922744310b7"},"vehicle_type_id":"4","last_reported":1730470117,"current_range_meters":16000,"station_id":"ce4bhgp2rcd13ifvqfc0","pricing_plan_id":"cebpf4jnsgd1na2vs0mg"},{"bike_id":"2e679aa2-6222-4666-94d2-8febbbac34cf","system_id":"levelo_inurba_marseille","lat":43.28932,"lon":5.48078,"is_reserved":false,"is_disabled":false,"rental_uris":{"android":"levelo://app?vid=2e679aa2-6222-4666-94d2-8febbbac34cf","ios":"levelo://app?vid=2e679aa2-6222-4666-94d2-8febbbac34cf"},"vehicle_type_id":"4","last_reported":1730470117,"current_range_meters":6800,"station_id":"ce4bgvp2rcd13ifvqct0","pricing_plan_id":"cebpf4jnsgd1na2vs0mg"},{"bike_id":"f37747ca-e9c4-427d-80e3-aee733adf11b","system_id":"levelo_inurba_marseille","lat":43.23065,"lon":5.35493,"is_reserved":false,"is_disabled":false,"rental_uris":{"android":"levelo://app?vid=f37747ca-e9c4-427d-80e3-aee733adf11b","ios":"levelo://app?vid=f37747ca-e9c4-427d-80e3-aee733adf11b"},"vehicle_type_id":"4","last_reported":1730470117,"current_range_meters":9600,"station_id":"cpo3342slgdg3j2ifvpg","pricing_plan_id":"cebpf4jnsgd1na2vs0mg"},{"bike_id":"a2b24b7e-5aba-4c80-bdb5-7c03d8640965","system_id":"levelo_inurba_marseille","lat":43.26024,"lon":5.37548,"is_reserved":false,"is_disabled":false,"rental_uris":{"android":"levelo://app?vid=a2b24b7e-5aba-4c80-bdb5-7c03d8640965","ios":"levelo://app?vid=a2b24b7e-5aba-4c80-bdb5-7c03d8640965"},"vehicle_type_id":"4","last_reported":1730470117,"current_range_meters":34000,"station_id":"ce4bhgh2rcd13ifvqfa0","pricing_plan_id":"cebpf4jnsgd1na2vs0mg"},{"bike_id":"1dca45a8-0336-4041-83cb-7a06ca40420d","system_id":"levelo_inurba_marseille","lat":43.23198,"lon":5.35553,"is_reserved":false,"is_disabled":false,"rental_uris":{"android":"levelo://app?vid=1dca45a8-0336-4041-83cb-7a06ca40420d","ios":"levelo://app?vid=1dca45a8-0336-4041-83cb-7a06ca40420d"},"vehicle_type_id":"4","last_reported":1730470117,"current_range_meters":8800,"station_id":"ce4bhu92rcd13ifvqi70","pricing_plan_id":"cebpf4jnsgd1na2vs0mg"},{"bike_id":"116f8d73-d789-4d51-b444-7d3f7a1fc8d1","system_id":"levelo_inurba_marseille","lat":43.25586,"lon":5.38236,"is_reserved":false,"is_disabled":false,"rental_uris":{"android":"levelo://app?vid=116f8d73-d789-4d51-b444-7d3f7a1fc8d1","ios":"levelo://app?vid=116f8d73-d789-4d51-b444-7d3f7a1fc8d1"},"vehicle_type_id":"4","last_reported":1730470117,"current_range_meters":38800,"station_id":"ce4bhih2rcd13ifvqfs0","pricing_plan_id":"cebpf4jnsgd1na2vs0mg"},{"bike_id":"81564ad0-0ff6-439f-ab16-8d10426d2843","system_id":"levelo_inurba_marseille","lat":43.337567,"lon":5.374547,"is_reserved":false,"is_disabled":false,"rental_uris":{"android":"levelo://app?vid=81564ad0-0ff6-439f-ab16-8d10426d2843","ios":"levelo://app?vid=81564ad0-0ff6-439f-ab16-8d10426d2843"},"vehicle_type_id":"4","last_reported":1730470117,"current_range_meters":35200,"station_id":"","pricing_plan_id":"cebpf4jnsgd1na2vs0mg"},{"bike_id":"a4d3867e-9221-45b9-8b6b-6567e09269dd","system_id":"levelo_inurba_marseille","lat":43.28416,"lon":5.35,"is_reserved":false,"is_disabled":false,"rental_uris":{"android":"levelo://app?vid=a4d3867e-9221-45b9-8b6b-6567e09269dd","ios":"levelo://app?vid=a4d3867e-9221-45b9-8b6b-6567e09269dd"},"vehicle_type_id":"4","last_reported":1730470117,"current_range_meters":19600,"station_id":"ce4bhbh2rcd13ifvqepg","pricing_plan_id":"cebpf4jnsgd1na2vs0mg"},{"bike_id":"0f28cd18-23d0-4435-9e94-35446716ca3f","system_id":"levelo_inurba_marseille","lat":43.273773,"lon":5.362619,"is_reserved":false,"is_disabled":false,"rental_uris":{"android":"levelo://app?vid=0f28cd18-23d0-4435-9e94-35446716ca3f","ios":"levelo://app?vid=0f28cd18-23d0-4435-9e94-35446716ca3f"},"vehicle_type_id":"4","last_reported":1730470117,"current_range_meters":38800,"station_id":"ce4bhbh2rcd13ifvqeo0","pricing_plan_id":"cebpf4jnsgd1na2vs0mg"},{"bike_id":"71f0eac6-afac-4fb0-8c9a-d4d0f80c4719","system_id":"levelo_inurba_marseille","lat":43.30139,"lon":5.37409,"is_reserved":false,"is_disabled":false,"rental_uris":{"android":"levelo://app?vid=71f0eac6-afac-4fb0-8c9a-d4d0f80c4719","ios":"levelo://app?vid=71f0eac6-afac-4fb0-8c9a-d4d0f80c4719"},"vehicle_type_id":"4","last_reported":1730470117,"current_range_meters":35600,"station_id":"ce4bgs92rcd13ifvqcc0","pricing_plan_id":"cebpf4jnsgd1na2vs0mg"},{"bike_id":"ed279d38-b7eb-4b14-96b9-94c615824290","system_id":"levelo_inurba_marseille","lat":43.23197,"lon":5.35549,"is_reserved":false,"is_disabled":false,"rental_uris":{"android":"levelo://app?vid=ed279d38-b7eb-4b14-96b9-94c615824290","ios":"levelo://app?vid=ed279d38-b7eb-4b14-96b9-94c615824290"},"vehicle_type_id":"4","last_reported":1730470117,"current_range_meters":14400,"station_id":"ce4bhu92rcd13ifvqi70","pricing_plan_id":"cebpf4jnsgd1na2vs0mg"},{"bike_id":"8a747cb8-f6a1-4bc2-96fb-18e7dee5de4b","system_id":"levelo_inurba_marseille","lat":43.24647,"lon":5.38896,"is_reserved":false,"is_disabled":false,"rental_uris":{"android":"levelo://app?vid=8a747cb8-f6a1-4bc2-96fb-18e7dee5de4b","ios":"levelo://app?vid=8a747cb8-f6a1-4bc2-96fb-18e7dee5de4b"},"vehicle_type_id":"4","last_reported":1730470117,"current_range_meters":39200,"station_id":"ce4bhg12rcd13ifvqf60","pricing_plan_id":"cebpf4jnsgd1na2vs0mg"},{"bike_id":"05d7bf34-85f8-478d-b39a-77883222a38b","system_id":"levelo_inurba_marseille","lat":43.22929,"lon":5.35378,"is_reserved":false,"is_disabled":false,"rental_uris":{"android":"levelo://app?vid=05d7bf34-85f8-478d-b39a-77883222a38b","ios":"levelo://app?vid=05d7bf34-85f8-478d-b39a-77883222a38b"},"vehicle_type_id":"4","last_reported":1730470117,"current_range_meters":28800,"station_id":"cpo3532slgdg3j2ikp40","pricing_plan_id":"cebpf4jnsgd1na2vs0mg"},{"bike_id":"938ad7a8-faf1-44f3-ac73-aa1b4d76edf4","system_id":"levelo_inurba_marseille","lat":43.24394,"lon":5.37069,"is_reserved":false,"is_disabled":false,"rental_uris":{"android":"levelo://app?vid=938ad7a8-faf1-44f3-ac73-aa1b4d76edf4","ios":"levelo://app?vid=938ad7a8-faf1-44f3-ac73-aa1b4d76edf4"},"vehicle_type_id":"4","last_reported":1730470117,"current_range_meters":26000,"station_id":"ce4bhhh2rcd13ifvqfk0","pricing_plan_id":"cebpf4jnsgd1na2vs0mg"},{"bike_id":"ca410e95-aa22-4bf2-897d-4c00364325d9","system_id":"levelo_inurba_marseille","lat":43.27817,"lon":5.40713,"is_reserved":false,"is_disabled":false,"rental_uris":{"android":"levelo://app?vid=ca410e95-aa22-4bf2-897d-4c00364325d9","ios":"levelo://app?vid=ca410e95-aa22-4bf2-897d-4c00364325d9"},"vehicle_type_id":"4","last_reported":1730470117,"current_range_meters":16400,"station_id":"ce4bhnh2rcd13ifvqgtg","pricing_plan_id":"cebpf4jnsgd1na2vs0mg"},{"bike_id":"f7efe7b1-c72c-41dd-85fa-0aa78300f8c6","system_id":"levelo_inurba_marseille","lat":43.27997,"lon":5.41668,"is_reserved":false,"is_disabled":false,"rental_uris":{"android":"levelo://app?vid=f7efe7b1-c72c-41dd-85fa-0aa78300f8c6","ios":"levelo://app?vid=f7efe7b1-c72c-41dd-85fa-0aa78300f8c6"},"vehicle_type_id":"4","last_reported":1730470117,"current_range_meters":29600,"station_id":"ce4bho12rcd13ifvqh1g","pricing_plan_id":"cebpf4jnsgd1na2vs0mg"},{"bike_id":"1dd797c1-ea33-461a-b7fd-00946f00c6ed","system_id":"levelo_inurba_marseille","lat":43.27621,"lon":5.36108,"is_reserved":false,"is_disabled":false,"rental_uris":{"android":"levelo://app?vid=1dd797c1-ea33-461a-b7fd-00946f00c6ed","ios":"levelo://app?vid=1dd797c1-ea33-461a-b7fd-00946f00c6ed"},"vehicle_type_id":"4","last_reported":1730470117,"current_range_meters":13600,"station_id":"ce4bgj92rcd13ifvqbe0","pricing_plan_id":"cebpf4jnsgd1na2vs0mg"},{"bike_id":"e09552c3-8891-47c5-b35e-7a560c38caf4","system_id":"levelo_inurba_marseille","lat":43.3248,"lon":5.36556,"is_reserved":false,"is_disabled":false,"rental_uris":{"android":"levelo://app?vid=e09552c3-8891-47c5-b35e-7a560c38caf4","ios":"levelo://app?vid=e09552c3-8891-47c5-b35e-7a560c38caf4"},"vehicle_type_id":"4","last_reported":1730470117,"current_range_meters":18000,"station_id":"ce4bhs12rcd13ifvqhvg","pricing_plan_id":"cebpf4jnsgd1na2vs0mg"},{"bike_id":"dca853f7-af7c-4032-a681-b4bf37253dab","system_id":"levelo_inurba_marseille","lat":43.31492,"lon":5.37306,"is_reserved":false,"is_disabled":false,"rental_uris":{"android":"levelo://app?vid=dca853f7-af7c-4032-a681-b4bf37253dab","ios":"levelo://app?vid=dca853f7-af7c-4032-a681-b4bf37253dab"},"vehicle_type_id":"4","last_reported":1730470117,"current_range_meters":29600,"station_id":"ce4bgt12rcd13ifvqcd0","pricing_plan_id":"cebpf4jnsgd1na2vs0mg"},{"bike_id":"dc40eaaf-5822-4061-abe2-12bb973cceb0","system_id":"levelo_inurba_marseille","lat":43.24393,"lon":5.37049,"is_reserved":false,"is_disabled":false,"rental_uris":{"android":"levelo://app?vid=dc40eaaf-5822-4061-abe2-12bb973cceb0","ios":"levelo://app?vid=dc40eaaf-5822-4061-abe2-12bb973cceb0"},"vehicle_type_id":"4","last_reported":1730470117,"current_range_meters":25600,"station_id":"ce4bhhh2rcd13ifvqfk0","pricing_plan_id":"cebpf4jnsgd1na2vs0mg"},{"bike_id":"7414557e-12be-4e3b-a0c8-1c70ed5a44b0","system_id":"levelo_inurba_marseille","lat":43.24389,"lon":5.37053,"is_reserved":false,"is_disabled":false,"rental_uris":{"android":"levelo://app?vid=7414557e-12be-4e3b-a0c8-1c70ed5a44b0","ios":"levelo://app?vid=7414557e-12be-4e3b-a0c8-1c70ed5a44b0"},"vehicle_type_id":"4","last_reported":1730470117,"current_range_meters":24800,"station_id":"ce4bhhh2rcd13ifvqfk0","pricing_plan_id":"cebpf4jnsgd1na2vs0mg"},{"bike_id":"02d2e474-1c7b-49ca-a92d-c6c1454df27d","system_id":"levelo_inurba_marseille","lat":43.318174,"lon":5.404351,"is_reserved":false,"is_disabled":false,"rental_uris":{"android":"levelo://app?vid=02d2e474-1c7b-49ca-a92d-c6c1454df27d","ios":"levelo://app?vid=02d2e474-1c7b-49ca-a92d-c6c1454df27d"},"vehicle_type_id":"4","last_reported":1730470117,"current_range_meters":30000,"station_id":"ce4bhq92rcd13ifvqhkg","pricing_plan_id":"cebpf4jnsgd1na2vs0mg"},{"bike_id":"fc53137f-973c-4e37-b176-9b345ebdc941","system_id":"levelo_inurba_marseille","lat":43.27815,"lon":5.40714,"is_reserved":false,"is_disabled":false,"rental_uris":{"android":"levelo://app?vid=fc53137f-973c-4e37-b176-9b345ebdc941","ios":"levelo://app?vid=fc53137f-973c-4e37-b176-9b345ebdc941"},"vehicle_type_id":"4","last_reported":1730470117,"current_range_meters":8000,"station_id":"ce4bhnh2rcd13ifvqgtg","pricing_plan_id":"cebpf4jnsgd1na2vs0mg"},