{"last_updated":1718467804,"ttl":30,"version":"2.2","data":{"bikes":[{"bike_id":"00dcdb17-1f4f-45ea-af22-62c32a76ab56","system_id":"levelo_inurba_marseille","lat":43.31341,"lon":5.367098,"is_reserved":false,"is_disabled":false,"rental_uris":{"android":"levelo://app?vid=00dcdb17-1f4f-45ea-af22-62c32a76ab56","ios":"levelo://app?vid=00dcdb17-1f4f-45ea-af22-62c32a76ab56"},"vehicle_type_id":"4","last_reported":1718467804,"current_range_meters":0,"station_id":"ce4bgr92rcd13ifvqc6g","pricing_plan_id":"cebpf4jnsgd1na2vs0mg"},{"bike_id":"42aece32-4e34-4b39-87a1-9f5f6bb5fa51","system_id":"levelo_inurba_marseille","lat":43.312239,"lon":5.368562,"is_reserved":false,"is_disabled":false,"rental_uris":{"android":"levelo://app?vid=42aece32-4e34-4b39-87a1-9f5f6bb5fa51","ios":"levelo://app?vid=42aece32-4e34-4b39-87a1-9f5f6bb5fa51"},"vehicle_type_id":"4","last_reported":1718467804,"current_range_meters":1600,"station_id":"ce4bgl92rcd13ifvqbq0","pricing_plan_id":"cebpf4jnsgd1na2vs0mg"},{"bike_id":"c62b9163-3cee-42b9-9fff-ecb3eb28f7d8","system_id":"levelo_inurba_marseille","lat":43.31636,"lon":5.36753,"is_reserved":false,"is_disabled":false,"rental_uris":{"android":"levelo://app?vid=c62b9163-3cee-42b9-9fff-ecb3eb28f7d8","ios":"levelo://app?vid=c62b9163-3cee-42b9-9fff-ecb3eb28f7d8"},"vehicle_type_id":"4","last_reported":1718467804,"current_range_meters":16400,"station_id":"","pricing_plan_id":"cebpf4jnsgd1na2vs0mg"},{"bike_id":"7a2e2ff6-c44b-43e1-9ca4-4ee1c08b2cf8","system_id":"levelo_inurba_marseille","lat":43.314811,"lon":5.373104,"is_reserved":false,"is_disabled":false,"rental_uris":{"android":"levelo://app?vid=7a2e2ff6-c44b-43e1-9ca4-4ee1c08b2cf8","ios":"levelo://app?vid=7a2e2ff6-c44b-43e1-9ca4-4ee1c08b2cf8"},"vehicle_type_id":"4","last_reported":1718467804,"current_range_meters":29200,"station_id":"ce4bgt12rcd13ifvqcd0","pricing_plan_id":"cebpf4jnsgd1na2vs0mg"},{"bike_id":"7c155b7f-5e33-439f-8427-6f93142cd231","system_id":"levelo_inurba_marseille","lat":43.313305,"lon":5.374865,"is_reserved":false,"is_disabled":false,"rental_uris":{"android":"levelo://app?vid=7c155b7f-5e33-439f-8427-6f93142cd231","ios":"levelo://app?vid=7c155b7f-5e33-439f-8427-6f93142cd231"},"vehicle_type_id":"4","last_reported":1718467804,"current_range_meters":0,"station_id":"","pricing_plan_id":"cebpf4jnsgd1na2vs0mg"},{"bike_id":"55a09161-2fc3-4bc5-bb9f-1e91a3ddad9a","system_id":"levelo_inurba_marseille","lat":43.305712,"lon":5.365641,"is_reserved":false,"is_disabled":false,"rental_uris":{"android":"levelo://app?vid=55a09161-2fc3-4bc5-bb9f-1e91a3ddad9a","ios":"levelo://app?vid=55a09161-2fc3-4bc5-bb9f-1e91a3ddad9a"},"vehicle_type_id":"4","last_reported":1718467804,"current_range_meters":28400,"station_id":"ce4bgs12rcd13ifvqcag","pricing_plan_id":"cebpf4jnsgd1na2vs0mg"},{"bike_id":"37471f4c-741d-4423-ad28-3beb8104ff11","system_id":"levelo_inurba_marseille","lat":43.305818,"lon":5.370936,"is_reserved":false,"is_disabled":false,"rental_uris":{"android":"levelo://app?vid=37471f4c-741d-4423-ad28-3beb8104ff11","ios":"levelo://app?vid=37471f4c-741d-4423-ad28-3beb8104ff11"},"vehicle_type_id":"4","last_reported":1718467804,"current_range_meters":11200,"station_id":"","pricing_plan_id":"cebpf4jnsgd1na2vs0mg"},{"bike_id":"aaa11606-ba72-4fe9-9328-48edc80d77d9","system_id":"levelo_inurba_marseille","lat":43.305989,"lon":5.37225,"is_reserved":false,"is_disabled":false,"rental_uris":{"android":"levelo://app?vid=aaa11606-ba72-4fe9-9328-48edc80d77d9","ios":"levelo://app?vid=aaa11606-ba72-4fe9-9328-48edc80d77d9"},"vehicle_type_id":"4","last_reported":1718467804,"current_range_meters":27200,"station_id":"ce4bgqh2rcd13ifvqc4g","pricing_plan_id":"cebpf4jnsgd1na2vs0mg"},{"bike_id":"abef26bf-1726-4b37-8c1e-618f16c09784","system_id":"levelo_inurba_marseille","lat":43.311131,"lon":5.377651,"is_reserved":false,"is_disabled":false,"rental_uris":{"android":"levelo://app?vid=abef26bf-1726-4b37-8c1e-618f16c09784","ios":"levelo://app?vid=abef26bf-1726-4b37-8c1e-618f16c09784"},"vehicle_type_id":"4","last_reported":1718467804,"current_range_meters":3600,"station_id":"ce4bgt92rcd13ifvqcg0","pricing_plan_id":"cebpf4jnsgd1na2vs0mg"},{"bike_id":"91e65379-4f29-418a-9716-66ddce7b432c","system_id":"levelo_inurba_marseille","lat":43.304081,"lon":5.366872,"is_reserved":false,"is_disabled":false,"rental_uris":{"android":"levelo://app?vid=91e65379-4f29-418a-9716-66ddce7b432c","ios":"levelo://app?vid=91e65379-4f29-418a-9716-66ddce7b432c"},"vehicle_type_id":"4","last_reported":1718467804,"current_range_meters":0,"station_id":"","pricing_plan_id":"cebpf4jnsgd1na2vs0mg"},{"bike_id":"1b4cb508-1bd0-4abb-90e1-db692453866d","system_id":"levelo_inurba_marseille","lat":43.317075,"lon":5.377367,"is_reserved":false,"is_disabled":false,"rental_uris":{"android":"levelo://app?vid=1b4cb508-1bd0-4abb-90e1-db692453866d","ios":"levelo://app?vid=1b4cb508-1bd0-4abb-90e1-db692453866d"},"vehicle_type_id":"4","last_reported":1718467804,"current_range_meters":20800,"station_id":"ce4bgth2rcd13ifvqch0","pricing_plan_id":"cebpf4jnsgd1na2vs0mg"},{"bike_id":"0cecaf7c-0b66-41f6-ae84-4911dab17d33","system_id":"levelo_inurba_marseille","lat":43.303046,"lon":5.368981,"is_reserved":false,"is_disabled":false,"rental_uris":{"android":"levelo://app?vid=0cecaf7c-0b66-41f6-ae84-4911dab17d33","ios":"levelo://app?vid=0cecaf7c-0b66-41f6-ae84-4911dab17d33"},"vehicle_type_id":"4","last_reported":1718467804,"current_range_meters":7200,"station_id":"ce4bgqh2rcd13ifvqc5g","pricing_plan_id":"cebpf4jnsgd1na2vs0mg"},{"bike_id":"b98261eb-f445-4e99-a09b-73064ccfba4a","system_id":"levelo_inurba_marseille","lat":43.303046,"lon":5.368981,"is_reserved":false,"is_disabled":false,"rental_uris":{"android":"levelo://app?vid=b98261eb-f445-4e99-a09b-73064ccfba4a","ios":"levelo://app?vid=b98261eb-f445-4e99-a09b-73064ccfba4a"},"vehicle_type_id":"4","last_reported":1718467804,"current_range_meters":27600,"station_id":"ce4bgqh2rcd13ifvqc5g","pricing_plan_id":"cebpf4jnsgd1na2vs0mg"},{"bike_id":"45e4adbb-0ac1-4b50-b236-b227ffaea1c5","system_id":"levelo_inurba_marseille","lat":43.303046,"lon":5.368981,"is_reserved":false,"is_disabled":false,"rental_uris":{"android":"levelo://app?vid=45e4adbb-0ac1-4b50-b236-b227ffaea1c5","ios":"levelo://app?vid=45e4adbb-0ac1-4b50-b236-b227ffaea1c5"},"vehicle_type_id":"4","last_reported":1718467804,"current_range_meters":30800,"station_id":"ce4bgqh2rcd13ifvqc5g","pricing_plan_id":"cebpf4jnsgd1na2vs0mg"},{"bike_id":"7e391f6d-054b-4dd4-b71e-da8f130a0581","system_id":"levelo_inurba_marseille","lat":43.30484,"lon":5.37579,"is_reserved":false,"is_disabled":false,"rental_uris":{"android":"levelo://app?vid=7e391f6d-054b-4dd4-b71e-da8f130a0581","ios":"levelo://app?vid=7e391f6d-054b-4dd4-b71e-da8f130a0581"},"vehicle_type_id":"4","last_reported":1718467804,"current_range_meters":7600,"station_id":"","pricing_plan_id":"cebpf4jnsgd1na2vs0mg"},{"bike_id":"37407cf0-7a98-4626-9957-e30f744a5d71","system_id":"levelo_inurba_marseille","lat":43.301939,"lon":5.366286,"is_reserved":false,"is_disabled":false,"rental_uris":{"android":"levelo://app?vid=37407cf0-7a98-4626-9957-e30f744a5d71","ios":"levelo://app?vid=37407cf0-7a98-4626-9957-e30f744a5d71"},"vehicle_type_id":"4","last_reported":1718467804,"current_range_meters":6400,"station_id":"ce4bgrh2rcd13ifvqc8g","pricing_plan_id":"cebpf4jnsgd1na2vs0mg"},{"bike_id":"b6bed6cc-6128-4304-8b9c-0891561ae0f7","system_id":"levelo_inurba_marseille","lat":43.301939,"lon":5.366286,"is_reserved":false,"is_disabled":false,"rental_uris":{"android":"levelo://app?vid=b6bed6cc-6128-4304-8b9c-0891561ae0f7","ios":"levelo://app?vid=b6bed6cc-6128-4304-8b9c-0891561ae0f7"},"vehicle_type_id":"4","last_reported":1718467804,"current_range_meters":17600,"station_id":"ce4bgrh2rcd13ifvqc8g","pricing_plan_id":"cebpf4jnsgd1na2vs0mg"},{"bike_id":"38b2c9e1-4c23-45fd-99ed-bbe9e26de9f4","system_id":"levelo_inurba_marseille","lat":43.324771,"lon":5.36557,"is_reserved":false,"is_disabled":false,"rental_uris":{"android":"levelo://app?vid=38b2c9e1-4c23-45fd-99ed-bbe9e26de9f4","ios":"levelo://app?vid=38b2c9e1-4c23-45fd-99ed-bbe9e26de9f4"},"vehicle_type_id":"4","last_reported":1718467804,"current_range_meters":18400,"station_id":"ce4bhs12rcd13ifvqhvg","pricing_plan_id":"cebpf4jnsgd1na2vs0mg"},{"bike_id":"7655a4cc-e9a9-448b-9a63-11b58cc941e4","system_id":"levelo_inurba_marseille","lat":43.324771,"lon":5.36557,"is_reserved":false,"is_disabled":false,"rental_uris":{"android":"levelo://app?vid=7655a4cc-e9a9-448b-9a63-11b58cc941e4","ios":"levelo://app?vid=7655a4cc-e9a9-448b-9a63-11b58cc941e4"},"vehicle_type_id":"4","last_reported":1718467804,"current_range_meters":9600,"station_id":"ce4bhs12rcd13ifvqhvg","pricing_plan_id":"cebpf4jnsgd1na2vs0mg"},{"bike_id":"7e87196e-7da2-4a73-bb1f-08a78330daec","system_id":"levelo_inurba_marseille","lat":43.324771,"lon":5.36557,"is_reserved":false,"is_disabled":false,"rental_uris":{"android":"levelo://app?vid=7e87196e-7da2-4a73-bb1f-08a78330daec","ios":"levelo://app?vid=7e87196e-7da2-4a73-bb1f-08a78330daec"},"vehicle_type_id":"4","last_reported":1718467804,"current_range_meters":4000,"station_id":"ce4bhs12rcd13ifvqhvg","pricing_plan_id":"cebpf4jnsgd1na2vs0mg"},{"bike_id":"e04d8555-f083-4eb8-8189-d92050db7a4b","system_id":"levelo_inurba_marseille","lat":43.324771,"lon":5.36557,"is_reserved":false,"is_disabled":false,"rental_uris":{"android":"levelo://app?vid=e04d8555-f083-4eb8-8189-d92050db7a4b","ios":"levelo://app?vid=e04d8555-f083-4eb8-8189-d92050db7a4b"},"vehicle_type_id":"4","last_reported":1718467804,"current_range_meters":4400,"station_id":"ce4bhs12rcd13ifvqhvg","pricing_plan_id":"cebpf4jnsgd1na2vs0mg"},{"bike_id":"0bd7e063-1a25-4aae-af49-2f3318c320b1","system_id":"levelo_inurba_marseille","lat":43.324771,"lon":5.36557,"is_reserved":false,"is_disabled":false,"rental_uris":{"android":"levelo://app?vid=0bd7e063-1a25-4aae-af49-2f3318c320b1","ios":"levelo://app?vid=0bd7e063-1a25-4aae-af49-2f3318c320b1"},"vehicle_type_id":"4","last_reported":1718467804,"current_range_meters":16000,"station_id":"ce4bhs12rcd13ifvqhvg","pricing_plan_id":"cebpf4jnsgd1na2vs0mg"},{"bike_id":"25ac5ebc-294d-4867-aeb3-cc466256aea0","system_id":"levelo_inurba_marseille","lat":43.324771,"lon":5.36557,"is_reserved":false,"is_disabled":false,"rental_uris":{"android":"levelo://app?vid=25ac5ebc-294d-4867-aeb3-cc466256aea0","ios":"levelo://app?vid=25ac5ebc-294d-4867-aeb3-cc466256aea0"},"vehicle_type_id":"4","last_reported":1718467804,"current_range_meters":0,"station_id":"ce4bhs12rcd13ifvqhvg","pricing_plan_id":"cebpf4jnsgd1na2vs0mg"},{"bike_id":"0c078b81-df41-4216-b1d1-63c7b8f03d19","system_id":"levelo_inurba_marseille","lat":43.310804,"lon":5.38359,"is_reserved":false,"is_disabled":false,"rental_uris":{"android":"levelo://app?vid=0c078b81-df41-4216-b1d1-63c7b8f03d19","ios":"levelo://app?vid=0c078b81-df41-4216-b1d1-63c7b8f03d19"},"vehicle_type_id":"4","last_reported":1718467804,"current_range_meters":0,"station_id":"ce4bgv92rcd13ifvqcr0","pricing_plan_id":"cebpf4jnsgd1na2vs0mg"},{"bike_id":"88e2ef8e-16c1-4810-b009-de846a008235","system_id":"levelo_inurba_marseille","lat":43.302784,"lon":5.377158,"is_reserved":false,"is_disabled":false,"rental_uris":{"android":"levelo://app?vid=88e2ef8e-16c1-4810-b009-de846a008235","ios":"levelo://app?vid=88e2ef8e-16c1-4810-b009-de846a008235"},"vehicle_type_id":"4","last_reported":1718467804,"current_range_meters":6800,"station_id":"ce4bguh2rcd13ifvqcj0","pricing_plan_id":"cebpf4jnsgd1na2vs0mg"},{"bike_id":"b0b40aaf-8420-4ff3-a4b5-a56ba06c1a8b","system_id":"levelo_inurba_marseille","lat":43.324771,"lon":5.36557,"is_reserved":false,"is_disabled":false,"rental_uris":{"android":"levelo://app?vid=b0b40aaf-8420-4ff3-a4b5-a56ba06c1a8b","ios":"levelo://app?vid=b0b40aaf-8420-4ff3-a4b5-a56ba06c1a8b"},"vehicle_type_id":"4","last_reported":1718467804,"current_range_meters":21600,"station_id":"ce4bhs12rcd13ifvqhvg","pricing_plan_id":"cebpf4jnsgd1na2vs0mg"},{"bike_id":"8d3e0635-5f69-40d7-bc2c-5a9d05b68657","system_id":"levelo_inurba_marseille","lat":43.319935,"lon":5.381699,"is_reserved":false,"is_disabled":false,"rental_uris":{"android":"levelo://app?vid=8d3e0635-5f69-40d7-bc2c-5a9d05b68657","ios":"levelo://app?vid=8d3e0635-5f69-40d7-bc2c-5a9d05b68657"},"vehicle_type_id":"4","last_reported":1718467804,"current_range_meters":15200,"station_id":"ce4bhr12rcd13ifvqhpg","pricing_plan_id":"cebpf4jnsgd1na2vs0mg"},{"bike_id":"3fbcf1c2-3ddd-48d6-9707-804ab2c7aa3f","system_id":"levelo_inurba_marseille","lat":43.319935,"lon":5.381699,"is_reserved":false,"is_disabled":false,"rental_uris":{"android":"levelo://app?vid=3fbcf1c2-3ddd-48d6-9707-804ab2c7aa3f","ios":"levelo://app?vid=3fbcf1c2-3ddd-48d6-9707-804ab2c7aa3f"},"vehicle_type_id":"4","last_reported":1718467804,"current_range_meters":22000,"station_id":"ce4bhr12rcd13ifvqhpg","pricing_plan_id":"cebpf4jnsgd1na2vs0mg"},{"bike_id":"f047635d-f091-4b1a-b3d9-79fe0cc3aa07","system_id":"levelo_inurba_marseille","lat":43.319935,"lon":5.381699,"is_reserved":false,"is_disabled":false,"rental_uris":{"android":"levelo://app?vid=f047635d-f091-4b1a-b3d9-79fe0cc3aa07","ios":"levelo://app?vid=f047635d-f091-4b1a-b3d9-79fe0cc3aa07"},"vehicle_type_id":"4","last_reported":1718467804,"current_range_meters":4000,"station_id":"ce4bhr12rcd13ifvqhpg","pricing_plan_id":"cebpf4jnsgd1na2vs0mg"},{"bike_id":"bb884419-8c44-4403-8345-df7c9c17c60b","system_id":"levelo_inurba_marseille","lat":43.313571,"lon":5.384829,"is_reserved":false,"is_disabled":false,"rental_uris":{"android":"levelo://app?vid=bb884419-8c44-4403-8345-df7c9c17c60b","ios":"levelo://app?vid=bb884419-8c44-4403-8345-df7c9c17c60b"},"vehicle_type_id":"4","last_reported":1718467804,"current_range_meters":8000,"station_id":"ce4bgt92rcd13ifvqcf0","pricing_plan_id":"cebpf4jnsgd1na2vs0mg"},{"bike_id":"1d9be24e-ed97-4319-89b6-aab53065fa38","system_id":"levelo_inurba_marseille","lat":43.31354,"lon":5.38496,"is_reserved":false,"is_disabled":false,"rental_uris":{"android":"levelo://app?vid=1d9be24e-ed97-4319-89b6-aab53065fa38","ios":"levelo://app?vid=1d9be24e-ed97-4319-89b6-aab53065fa38"},"vehicle_type_id":"4","last_reported":1718467804,"current_range_meters":1600,"station_id":"ce4bgt92rcd13ifvqcf0","pricing_plan_id":"cebpf4jnsgd1na2vs0mg"},{"bike_id":"97933c25-9696-4278-9ac9-97c4efb2df2a","system_id":"levelo_inurba_marseille","lat":43.313571,"lon":5.384829,"is_reserved":false,"is_disabled":false,"rental_uris":{"android":"levelo://app?vid=97933c25-9696-4278-9ac9-97c4efb2df2a","ios":"levelo://app?vid=97933c25-9696-4278-9ac9-97c4efb2df2a"},"vehicle_type_id":"4","last_reported":1718467804,"current_range_meters":6000,"station_id":"ce4bgt92rcd13ifvqcf0","pricing_plan_id":"cebpf4jnsgd1na2vs0mg"},{"bike_id":"e214c535-f8f3-421c-8e42-04e36fb19963","system_id":"levelo_inurba_marseille","lat":43.31364,"lon":5.38504,"is_reserved":false,"is_disabled":false,"rental_uris":{"android":"levelo://app?vid=e214c535-f8f3-421c-8e42-04e36fb19963","ios":"levelo://app?vid=e214c535-f8f3-421c-8e42-04e36fb19963"},"vehicle_type_id":"4","last_reported":1718467804,"current_range_meters":0,"station_id":"ce4bgt92rcd13ifvqcf0","pricing_plan_id":"cebpf4jnsgd1na2vs0mg"},{"bike_id":"ec2dc514-4743-45ac-93b2-d54efe1260da","system_id":"levelo_inurba_marseille","lat":43.313597,"lon":5.385143,"is_reserved":false,"is_disabled":false,"rental_uris":{"android":"levelo://app?vid=ec2dc514-4743-45ac-93b2-d54efe1260da","ios":"levelo://app?vid=ec2dc514-4743-45ac-93b2-d54efe1260da"},"vehicle_type_id":"4","last_reported":1718467804,"current_range_meters":2000,"station_id":"ce4bgt92rcd13ifvqcf0","pricing_plan_id":"cebpf4jnsgd1na2vs0mg"},{"bike_id":"ba3d1e2c-b9e6-4492-8f7e-238faecc9672","system_id":"levelo_inurba_marseille","lat":43.299724,"lon":5.371829,"is_reserved":false,"is_disabled":false,"rental_uris":{"android":"levelo://app?vid=ba3d1e2c-b9e6-4492-8f7e-238faecc9672","ios":"levelo://app?vid=ba3d1e2c-b9e6-4492-8f7e-238faecc9672"},"vehicle_type_id":"4","last_reported":1718467804,"current_range_meters":29200,"station_id":"ce4bgr92rcd13ifvqc7g","pricing_plan_id":"cebpf4jnsgd1na2vs0mg"},{"bike_id":"49e32c55-54fc-4d65-afbc-3083103f4cbf","system_id":"levelo_inurba_marseille","lat":43.29946,"lon":5.37485,"is_reserved":false,"is_disabled":false,"rental_uris":{"android":"levelo://app?vid=49e32c55-54fc-4d65-afbc-3083103f4cbf","ios":"levelo://app?vid=49e32c55-54fc-4d65-afbc-3083103f4cbf"},"vehicle_type_id":"4","last_reported":1718467804,"current_range_meters":0,"station_id":"ce4bgjh2rcd13ifvqbg0","pricing_plan_id":"cebpf4jnsgd1na2vs0mg"},{"bike_id":"81ca5e59-60a3-45fb-9b94-8ca54e6e3a28","system_id":"levelo_inurba_marseille","lat":43.298433,"lon":5.362774,"is_reserved":false,"is_disabled":false,"rental_uris":{"android":"levelo://app?vid=81ca5e59-60a3-45fb-9b94-8ca54e6e3a28","ios":"levelo://app?vid=81ca5e59-60a3-45fb-9b94-8ca54e6e3a28"},"vehicle_type_id":"4","last_reported":1718467804,"current_range_meters":14000,"station_id":"ce4bgpp2rcd13ifvqc3g","pricing_plan_id":"cebpf4jnsgd1na2vs0mg"},{"bike_id":"23f2f085-3678-4be1-bb9d-d7c066355cac","system_id":"levelo_inurba_marseille","lat":43.3118,"lon":5.38714,"is_reserved":false,"is_disabled":false,"rental_uris":{"android":"levelo://app?vid=23f2f085-3678-4be1-bb9d-d7c066355cac","ios":"levelo://app?vid=23f2f085-3678-4be1-bb9d-d7c066355cac"},"vehicle_type_id":"4","last_reported":1718467804,"current_range_meters":10800,"station_id":"ce4bgv12rcd13ifvqcp0","pricing_plan_id":"cebpf4jnsgd1na2vs0mg"},{"bike_id":"cbc62028-fd69-4243-8f85-1675bc9ff622","system_id":"levelo_inurba_marseille","lat":43.311722,"lon":5.387247,"is_reserved":false,"is_disabled":false,"rental_uris":{"android":"levelo://app?vid=cbc62028-fd69-4243-8f85-1675bc9ff622","ios":"levelo://app?vid=cbc62028-fd69-4243-8f85-1675bc9ff622"},"vehicle_type_id":"4","last_reported":1718467804,"current_range_meters":4800,"station_id":"ce4bgv12rcd13ifvqcp0","pricing_plan_id":"cebpf4jnsgd1na2vs0mg"},{"bike_id":"653ca462-963d-437a-bd14-d381665bbaba","system_id":"levelo_inurba_marseille","lat":43.311722,"lon":5.387247,"is_reserved":false,"is_disabled":false,"rental_uris":{"android":"levelo://app?vid=653ca462-963d-437a-bd14-d381665bbaba","ios":"levelo://app?vid=653ca462-963d-437a-bd14-d381665bbaba"},"vehicle_type_id":"4","last_reported":1718467804,"current_range_meters":26000,"station_id":"ce4bgv12rcd13ifvqcp0","pricing_plan_id":"cebpf4jnsgd1na2vs0mg"},{"bike_id":"7f915ff8-8e8a-4d42-9218-36ee6fec91bd","system_id":"levelo_inurba_marseille","lat":43.297794,"lon":5.370888,"is_reserved":false,"is_disabled":false,"rental_uris":{"android":"levelo://app?vid=7f915ff8-8e8a-4d42-9218-36ee6fec91bd","ios":"levelo://app?vid=7f915ff8-8e8a-4d42-9218-36ee6fec91bd"},"vehicle_type_id":"4","last_reported":1718467804,"current_range_meters":25600,"station_id":"ce4bgop2rcd13ifvqc1g","pricing_plan_id":"cebpf4jnsgd1na2vs0mg"},{"bike_id":"6e17947f-dbbd-4079-9621-2408b9dc75cf","system_id":"levelo_inurba_marseille","lat":43.322872,"lon":5.382756,"is_reserved":false,"is_disabled":false,"rental_uris":{"android":"levelo://app?vid=6e17947f-dbbd-4079-9621-2408b9dc75cf","ios":"levelo://app?vid=6e17947f-dbbd-4079-9621-2408b9dc75cf"},"vehicle_type_id":"4","last_reported":1718467804,"current_range_meters":26000,"station_id":"ce4bhr12rcd13ifvqhqg","pricing_plan_id":"cebpf4jnsgd1na2vs0mg"},{"bike_id":"8029ecd1-33e2-4630-a400-989116e1b619","system_id":"levelo_inurba_marseille","lat":43.322872,"lon":5.382756,"is_reserved":false,"is_disabled":false,"rental_uris":{"android":"levelo://app?vid=8029ecd1-33e2-4630-a400-989116e1b619","ios":"levelo://app?vid=8029ecd1-33e2-4630-a400-989116e1b619"},"vehicle_type_id":"4","last_reported":1718467804,"current_range_meters":30400,"station_id":"ce4bhr12rcd13ifvqhqg","pricing_plan_id":"cebpf4jnsgd1na2vs0mg"},{"bike_id":"0deb78a0-9c40-4752-86ab-e4ab34545970","system_id":"levelo_inurba_marseille","lat":43.297794,"lon":5.370888,"is_reserved":false,"is_disabled":false,"rental_uris":{"android":"levelo://app?vid=0deb78a0-9c40-4752-86ab-e4ab34545970","ios":"levelo://app?vid=0deb78a0-9c40-4752-86ab-e4ab34545970"},"vehicle_type_id":"4","last_reported":1718467804,"current_range_meters":400,"station_id":"ce4bgop2rcd13ifvqc1g","pricing_plan_id":"cebpf4jnsgd1na2vs0mg"},{"bike_id":"01383fda-e6b3-4a07-9b33-a5992385f3b2","system_id":"levelo_inurba_marseille","lat":43.322872,"lon":5.382756,"is_reserved":false,"is_disabled":false,"rental_uris":{"android":"levelo://app?vid=01383fda-e6b3-4a07-9b33-a5992385f3b2","ios":"levelo://app?vid=01383fda-e6b3-4a07-9b33-a5992385f3b2"},"vehicle_type_id":"4","last_reported":1718467804,"current_range_meters":28000,"station_id":"ce4bhr12rcd13ifvqhqg","pricing_plan_id":"cebpf4jnsgd1na2vs0mg"},{"bike_id":"f2bdecf8-a6c2-4f3c-81fb-c1c044a9cbee","system_id":"levelo_inurba_marseille","lat":43.297272,"lon":5.365508,"is_reserved":false,"is_disabled":false,"rental_uris":{"android":"levelo://app?vid=f2bdecf8-a6c2-4f3c-81fb-c1c044a9cbee","ios":"levelo://app?vid=f2bdecf8-a6c2-4f3c-81fb-c1c044a9cbee"},"vehicle_type_id":"4","last_reported":1718467804,"current_range_meters":30000,"station_id":"","pricing_plan_id":"cebpf4jnsgd1na2vs0mg"},{"bike_id":"5cfe1ffe-cf80-4088-afe9-f599048bfce6","system_id":"levelo_inurba_marseille","lat":43.297163,"lon":5.365866,"is_reserved":false,"is_disabled":false,"rental_uris":{"android":"levelo://app?vid=5cfe1ffe-cf80-4088-afe9-f599048bfce6","ios":"levelo://app?vid=5cfe1ffe-cf80-4088-afe9-f599048bfce6"},"vehicle_type_id":"4","last_reported":1718467804,"current_range_meters":0,"station_id":"ce4bgn12rcd13ifvqbt0","pricing_plan_id":"cebpf4jnsgd1na2vs0mg"},{"bike_id":"c9511fe8-8f82-47c5-957e-d2b32d0a512e","system_id":"levelo_inurba_marseille","lat":43.297163,"lon":5.365866,"is_reserved":false,"is_disabled":false,"rental_uris":{"android":"levelo://app?vid=c9511fe8-8f82-47c5-957e-d2b32d0a512e","ios":"levelo://app?vid=c9511fe8-8f82-47c5-957e-d2b32d0a512e"},"vehicle_type_id":"4","last_reported":1718467804,"current_range_meters":0,"station_id":"ce4bgn12rcd13ifvqbt0","pricing_plan_id":"cebpf4jnsgd1na2vs0mg"},{"bike_id":"1ae86f28-0ab4-4da7-a843-11ae56da2444","system_id":"levelo_inurba_marseille","lat":43.2968,"lon":5.37291,"is_reserved":false,"is_disabled":false,"rental_uris":{"android":"levelo://app?vid=1ae86f28-0ab4-4da7-a843-11ae56da2444","ios":"levelo://app?vid=1ae86f28-0ab4-4da7-a843-11ae56da2444"},"vehicle_type_id":"4","last_reported":1718467804,"current_range_meters":25600,"station_id":"ce4bgk12rcd13ifvqbj0","pricing_plan_id":"cebpf4jnsgd1na2vs0mg"},{"bike_id":"3afb9ddf-9875-4200-b0f9-88f8b9337115","system_id":"levelo_inurba_marseille","lat":43.2968,"lon":5.37291,"is_reserved":false,"is_disabled":false,"rental_uris":{"android":"levelo://app?vid=3afb9ddf-9875-4200-b0f9-88f8b9337115","ios":"levelo://app?vid=3afb9ddf-9875-4200-b0f9-88f8b9337115"},"vehicle_type_id":"4","last_reported":1718467804,"current_range_meters":2800,"station_id":"ce4bgk12rcd13ifvqbj0","pricing_plan_id":"cebpf4jnsgd1na2vs0mg"},{"bike_id":"7f613d13-449c-44c6-8fb2-27c406553355","system_id":"levelo_inurba_marseille","lat":43.2968,"lon":5.37291,"is_reserved":false,"is_disabled":false,"rental_uris":{"android":"levelo://app?vid=7f613d13-449c-44c6-8fb2-27c406553355","ios":"levelo://app?vid=7f613d13-449c-44c6-8fb2-27c406553355"},"vehicle_type_id":"4","last_reported":1718467804,"current_range_meters":1600,"station_id":"ce4bgk12rcd13ifvqbj0","pricing_plan_id":"cebpf4jnsgd1na2vs0mg"},{"bike_id":"59227864-9d9c-47a8-bbf1-f5067a87b6e2","system_id":"levelo_inurba_marseille","lat":43.2968,"lon":5.37291,"is_reserved":false,"is_disabled":false,"rental_uris":{"android":"levelo://app?vid=59227864-9d9c-47a8-bbf1-f5067a87b6e2","ios":"levelo://app?vid=59227864-9d9c-47a8-bbf1-f5067a87b6e2"},"vehicle_type_id":"4","last_reported":1718467804,"current_range_meters":14800,"station_id":"ce4bgk12rcd13ifvqbj0","pricing_plan_id":"cebpf4jnsgd1na2vs0mg"},{"bike_id":"2aa1ab7a-8ce6-4b6b-b3d4-a6d41733f78c","system_id":"levelo_inurba_marseille","lat":43.29666,"lon":5.36171,"is_reserved":false,"is_disabled":false,"rental_uris":{"android":"levelo://app?vid=2aa1ab7a-8ce6-4b6b-b3d4-a6d41733f78c","ios":"levelo://app?vid=2aa1ab7a-8ce6-4b6b-b3d4-a6d41733f78c"},"vehicle_type_id":"4","last_reported":1718467804,"current_range_meters":30400,"station_id":"","pricing_plan_id":"cebpf4jnsgd1na2vs0mg"},{"bike_id":"3d9556c8-3b29-4437-b75e-13dd5c9c0574","system_id":"levelo_inurba_marseille","lat":43.296131,"lon":5.370791,"is_reserved":false,"is_disabled":false,"rental_uris":{"android":"levelo://app?vid=3d9556c8-3b29-4437-b75e-13dd5c9c0574","ios":"levelo://app?vid=3d9556c8-3b29-4437-b75e-13dd5c9c0574"},"vehicle_type_id":"4","last_reported":1718467804,"current_range_meters":15600,"station_id":"ce4bgnh2rcd13ifvqc0g","pricing_plan_id":"cebpf4jnsgd1na2vs0mg"},{"bike_id":"05224d61-974e-4f32-919a-601653be79f0","system_id":"levelo_inurba_marseille","lat":43.296129,"lon":5.370777,"is_reserved":false,"is_disabled":false,"rental_uris":{"android":"levelo://app?vid=05224d61-974e-4f32-919a-601653be79f0","ios":"levelo://app?vid=05224d61-974e-4f32-919a-601653be79f0"},"vehicle_type_id":"4","last_reported":1718467804,"current_range_meters":0,"station_id":"ce4bgnh2rcd13ifvqc0g","pricing_plan_id":"cebpf4jnsgd1na2vs0mg"},{"bike_id":"2234fbb4-c422-4bc0-a6ca-d1fb96ab5cdf","system_id":"levelo_inurba_marseille","lat":43.296131,"lon":5.370791,"is_reserved":false,"is_disabled":false,"rental_uris":{"android":"levelo://app?vid=2234fbb4-c422-4bc0-a6ca-d1fb96ab5cdf","ios":"levelo://app?vid=2234fbb4-c422-4bc0-a6ca-d1fb96ab5cdf"},"vehicle_type_id":"4","last_reported":1718467804,"current_range_meters":19600,"station_id":"ce4bgnh2rcd13ifvqc0g","pricing_plan_id":"cebpf4jnsgd1na2vs0mg"},{"bike_id":"75616893-66c6-4d66-999d-5ad2ad88a65c","system_id":"levelo_inurba_marseille","lat":43.29581,"lon":5.36743,"is_reserved":false,"is_disabled":false,"rental_uris":{"android":"levelo://app?vid=75616893-66c6-4d66-999d-5ad2ad88a65c","ios":"levelo://app?vid=75616893-66c6-4d66-999d-5ad2ad88a65c"},"vehicle_type_id":"4","last_reported":1718467804,"current_range_meters":0,"station_id":"ce4bgph2rcd13ifvqc2g","pricing_plan_id":"cebpf4jnsgd1na2vs0mg"},{"bike_id":"9d331424-9726-40f0-bbf2-bd10aab4935a","system_id":"levelo_inurba_marseille","lat":43.309589,"lon":5.390258,"is_reserved":false,"is_disabled":false,"rental_uris":{"android":"levelo://app?vid=9d331424-9726-40f0-bbf2-bd10aab4935a","ios":"levelo://app?vid=9d331424-9726-40f0-bbf2-bd10aab4935a"},"vehicle_type_id":"4","last_reported":1718467804,"current_range_meters":20400,"station_id":"ce4bgup2rcd13ifvqco0","pricing_plan_id":"cebpf4jnsgd1na2vs0mg"},{"bike_id":"689002ce-381e-4616-a884-d7af9221fd1d","system_id":"levelo_inurba_marseille","lat":43.317557,"lon":5.390173,"is_reserved":false,"is_disabled":false,"rental_uris":{"android":"levelo://app?vid=689002ce-381e-4616-a884-d7af9221fd1d","ios":"levelo://app?vid=689002ce-381e-4616-a884-d7af9221fd1d"},"vehicle_type_id":"4","last_reported":1718467804,"current_range_meters":23200,"station_id":"ce4bhqp2rcd13ifvqhng","pricing_plan_id":"cebpf4jnsgd1na2vs0mg"},{"bike_id":"272b991e-d1ee-4133-9cb8-7a3e02fa7515","system_id":"levelo_inurba_marseille","lat":43.29694,"lon":5.37897,"is_reserved":false,"is_disabled":false,"rental_uris":{"android":"levelo://app?vid=272b991e-d1ee-4133-9cb8-7a3e02fa7515","ios":"levelo://app?vid=272b991e-d1ee-4133-9cb8-7a3e02fa7515"},"vehicle_type_id":"4","last_reported":1718467804,"current_range_meters":21200,"station_id":"","pricing_plan_id":"cebpf4jnsgd1na2vs0mg"},{"bike_id":"a5899033-9ad9-4fa6-9e23-d1d65738ad99","system_id":"levelo_inurba_marseille","lat":43.29788,"lon":5.38119,"is_reserved":false,"is_disabled":false,"rental_uris":{"android":"levelo://app?vid=a5899033-9ad9-4fa6-9e23-d1d65738ad99","ios":"levelo://app?vid=a5899033-9ad9-4fa6-9e23-d1d65738ad99"},"vehicle_type_id":"4","last_reported":1718467804,"current_range_meters":0,"station_id":"ce4bgip2rcd13ifvqbb0","pricing_plan_id":"cebpf4jnsgd1na2vs0mg"},{"bike_id":"598631d3-09bc-4e14-9824-b122bd35b344","system_id":"levelo_inurba_marseille","lat":43.299707,"lon":5.384859,"is_reserved":false,"is_disabled":false,"rental_uris":{"android":"levelo://app?vid=598631d3-09bc-4e14-9824-b122bd35b344","ios":"levelo://app?vid=598631d3-09bc-4e14-9824-b122bd35b344"},"vehicle_type_id":"4","last_reported":1718467804,"current_range_meters":11600,"station_id":"ce4bgj92rcd13ifvqbd0","pricing_plan_id":"cebpf4jnsgd1na2vs0mg"},{"bike_id":"e33d0a7f-e031-457f-ad59-e6f5d9abc9bb","system_id":"levelo_inurba_marseille","lat":43.295279,"lon":5.375048,"is_reserved":false,"is_disabled":false,"rental_uris":{"android":"levelo://app?vid=e33d0a7f-e031-457f-ad59-e6f5d9abc9bb","ios":"levelo://app?vid=e33d0a7f-e031-457f-ad59-e6f5d9abc9bb"},"vehicle_type_id":"4","last_reported":1718467804,"current_range_meters":18800,"station_id":"ce4bgkp2rcd13ifvqbmg","pricing_plan_id":"cebpf4jnsgd1na2vs0mg"},{"bike_id":"509a3fb5-78b1-4102-9e20-dd8a77cd5bab","system_id":"levelo_inurba_marseille","lat":43.299717,"lon":5.384845,"is_reserved":false,"is_disabled":false,"rental_uris":{"android":"levelo://app?vid=509a3fb5-78b1-4102-9e20-dd8a77cd5bab","ios":"levelo://app?vid=509a3fb5-78b1-4102-9e20-dd8a77cd5bab"},"vehicle_type_id":"4","last_reported":1718467804,"current_range_meters":4400,"station_id":"ce4bgj92rcd13ifvqbd0","pricing_plan_id":"cebpf4jnsgd1na2vs0mg"},{"bike_id":"5ee71161-2e1f-4e47-97fa-bcef9d9f3f53","system_id":"levelo_inurba_marseille","lat":43.299717,"lon":5.384845,"is_reserved":false,"is_disabled":false,"rental_uris":{"android":"levelo://app?vid=5ee71161-2e1f-4e47-97fa-bcef9d9f3f53","ios":"levelo://app?vid=5ee71161-2e1f-4e47-97fa-bcef9d9f3f53"},"vehicle_type_id":"4","last_reported":1718467804,"current_range_meters":22400,"station_id":"ce4bgj92rcd13ifvqbd0","pricing_plan_id":"cebpf4jnsgd1na2vs0mg"},{"bike_id":"c0245490-81fd-452a-bc1b-059c2a5ebd25","system_id":"levelo_inurba_marseille","lat":43.32367,"lon":5.388836,"is_reserved":false,"is_disabled":false,"rental_uris":{"android":"levelo://app?vid=c0245490-81fd-452a-bc1b-059c2a5ebd25","ios":"levelo://app?vid=c0245490-81fd-452a-bc1b-059c2a5ebd25"},"vehicle_type_id":"4","last_reported":1718467804,"current_range_meters":8000,"station_id":"ce4bhqp2rcd13ifvqhog","pricing_plan_id":"cebpf4jnsgd1na2vs0mg"},{"bike_id":"d86f7998-7a25-40fb-a0d1-14387a955595","system_id":"levelo_inurba_marseille","lat":43.32367,"lon":5.388836,"is_reserved":false,"is_disabled":false,"rental_uris":{"android":"levelo://app?vid=d86f7998-7a25-40fb-a0d1-14387a955595","ios":"levelo://app?vid=d86f7998-7a25-40fb-a0d1-14387a955595"},"vehicle_type_id":"4","last_reported":1718467804,"current_range_meters":2400,"station_id":"ce4bhqp2rcd13ifvqhog","pricing_plan_id":"cebpf4jnsgd1na2vs0mg"},{"bike_id":"be7bde44-2736-46f6-86d2-f673ea749756","system_id":"levelo_inurba_marseille","lat":43.32367,"lon":5.38884,"is_reserved":false,"is_disabled":false,"rental_uris":{"android":"levelo://app?vid=be7bde44-2736-46f6-86d2-f673ea749756","ios":"levelo://app?vid=be7bde44-2736-46f6-86d2-f673ea749756"},"vehicle_type_id":"4","last_reported":1718467804,"current_range_meters":0,"station_id":"ce4bhqp2rcd13ifvqhog","pricing_plan_id":"cebpf4jnsgd1na2vs0mg"},{"bike_id":"92c3e0ec-11b1-443f-9264-3c5d137e58a7","system_id":"levelo_inurba_marseille","lat":43.29311,"lon":5.37171,"is_reserved":false,"is_disabled":false,"rental_uris":{"android":"levelo://app?vid=92c3e0ec-11b1-443f-9264-3c5d137e58a7","ios":"levelo://app?vid=92c3e0ec-11b1-443f-9264-3c5d137e58a7"},"vehicle_type_id":"4","last_reported":1718467804,"current_range_meters":28400,"station_id":"ce4bgh92rcd13ifvqb40","pricing_plan_id":"cebpf4jnsgd1na2vs0mg"},{"bike_id":"049061b4-b1ab-40c5-9b3d-a74b629abd05","system_id":"levelo_inurba_marseille","lat":43.293259,"lon":5.371586,"is_reserved":false,"is_disabled":false,"rental_uris":{"android":"levelo://app?vid=049061b4-b1ab-40c5-9b3d-a74b629abd05","ios":"levelo://app?vid=049061b4-b1ab-40c5-9b3d-a74b629abd05"},"vehicle_type_id":"4","last_reported":1718467804,"current_range_meters":4000,"station_id":"ce4bgh92rcd13ifvqb40","pricing_plan_id":"cebpf4jnsgd1na2vs0mg"},{"bike_id":"c223bc06-19c6-4dda-b78d-266d0b48a654","system_id":"levelo_inurba_marseille","lat":43.293259,"lon":5.371586,"is_reserved":false,"is_disabled":false,"rental_uris":{"android":"levelo://app?vid=c223bc06-19c6-4dda-b78d-266d0b48a654","ios":"levelo://app?vid=c223bc06-19c6-4dda-b78d-266d0b48a654"},"vehicle_type_id":"4","last_reported":1718467804,"current_range_meters":30400,"station_id":"ce4bgh92rcd13ifvqb40","pricing_plan_id":"cebpf4jnsgd1na2vs0mg"},{"bike_id":"849c959b-b33e-4b28-9070-5eeda07fa9fb","system_id":"levelo_inurba_marseille","lat":43.293259,"lon":5.371586,"is_reserved":false,"is_disabled":false,"rental_uris":{"android":"levelo://app?vid=849c959b-b33e-4b28-9070-5eeda07fa9fb","ios":"levelo://app?vid=849c959b-b33e-4b28-9070-5eeda07fa9fb"},"vehicle_type_id":"4","last_reported":1718467804,"current_range_meters":13600,"station_id":"ce4bgh92rcd13ifvqb40","pricing_plan_id":"cebpf4jnsgd1na2vs0mg"},{"bike_id":"65ff29a7-d99e-4c7c-b3ae-bb97359a489f","system_id":"levelo_inurba_marseille","lat":43.293249,"lon":5.371578,"is_reserved":false,"is_disabled":false,"rental_uris":{"android":"levelo://app?vid=65ff29a7-d99e-4c7c-b3ae-bb97359a489f","ios":"levelo://app?vid=65ff29a7-d99e-4c7c-b3ae-bb97359a489f"},"vehicle_type_id":"4","last_reported":1718467804,"current_range_meters":18000,"station_id":"ce4bgh92rcd13ifvqb40","pricing_plan_id":"cebpf4jnsgd1na2vs0mg"},{"bike_id":"2e60989b-23d8-45ef-8dd1-3925dd3da3d4","system_id":"levelo_inurba_marseille","lat":43.292749,"lon":5.368402,"is_reserved":false,"is_disabled":false,"rental_uris":{"android":"levelo://app?vid=2e60989b-23d8-45ef-8dd1-3925dd3da3d4","ios":"levelo://app?vid=2e60989b-23d8-45ef-8dd1-3925dd3da3d4"},"vehicle_type_id":"4","last_reported":1718467804,"current_range_meters":0,"station_id":"ce4bhbp2rcd13ifvqesg","pricing_plan_id":"cebpf4jnsgd1na2vs0mg"},{"bike_id":"5f061db8-ad3b-4e73-8af8-e561173acb79","system_id":"levelo_inurba_marseille","lat":43.29276,"lon":5.36841,"is_reserved":false,"is_disabled":false,"rental_uris":{"android":"levelo://app?vid=5f061db8-ad3b-4e73-8af8-e561173acb79","ios":"levelo://app?vid=5f061db8-ad3b-4e73-8af8-e561173acb79"},"vehicle_type_id":"4","last_reported":1718467804,"current_range_meters":2000,"station_id":"","pricing_plan_id":"cebpf4jnsgd1na2vs0mg"},{"bike_id":"a94af356-13f1-42e3-bba4-d6c2904f7811","system_id":"levelo_inurba_marseille","lat":43.29302,"lon":5.3746,"is_reserved":false,"is_disabled":false,"rental_uris":{"android":"levelo://app?vid=a94af356-13f1-42e3-bba4-d6c2904f7811","ios":"levelo://app?vid=a94af356-13f1-42e3-bba4-d6c2904f7811"},"vehicle_type_id":"4","last_reported":1718467804,"current_range_meters":0,"station_id":"ce4bgi12rcd13ifvqb70","pricing_plan_id":"cebpf4jnsgd1na2vs0mg"},{"bike_id":"9dbf3be3-dcb0-4816-b4ef-760b36faed0a","system_id":"levelo_inurba_marseille","lat":43.293009,"lon":5.374584,"is_reserved":false,"is_disabled":false,"rental_uris":{"android":"levelo://app?vid=9dbf3be3-dcb0-4816-b4ef-760b36faed0a","ios":"levelo://app?vid=9dbf3be3-dcb0-4816-b4ef-760b36faed0a"},"vehicle_type_id":"4","last_reported":1718467804,"current_range_meters":3200,"station_id":"ce4bgi12rcd13ifvqb70","pricing_plan_id":"cebpf4jnsgd1na2vs0mg"},{"bike_id":"7a5002a3-e365-4061-9a39-2cf2bd68457f","system_id":"levelo_inurba_marseille","lat":43.29297,"lon":5.37462,"is_reserved":false,"is_disabled":false,"rental_uris":{"android":"levelo://app?vid=7a5002a3-e365-4061-9a39-2cf2bd68457f","ios":"levelo://app?vid=7a5002a3-e365-4061-9a39-2cf2bd68457f"},"vehicle_type_id":"4","last_reported":1718467804,"current_range_meters":0,"station_id":"ce4bgi12rcd13ifvqb70","pricing_plan_id":"cebpf4jnsgd1na2vs0mg"},{"bike_id":"0a297668-6bc7-4fa2-8e48-332dabd02abf","system_id":"levelo_inurba_marseille","lat":43.305994,"lon":5.393687,"is_reserved":false,"is_disabled":false,"rental_uris":{"android":"levelo://app?vid=0a297668-6bc7-4fa2-8e48-332dabd02abf","ios":"levelo://app?vid=0a297668-6bc7-4fa2-8e48-332dabd02abf"},"vehicle_type_id":"4","last_reported":1718467804,"current_range_meters":4000,"station_id":"ce4bh0p2rcd13ifvqd80","pricing_plan_id":"cebpf4jnsgd1na2vs0mg"},{"bike_id":"ddd5eaae-968d-49e8-bed7-b81032dd5c79","system_id":"levelo_inurba_marseille","lat":43.302992,"lon":5.392136,"is_reserved":false,"is_disabled":false,"rental_uris":{"android":"levelo://app?vid=ddd5eaae-968d-49e8-bed7-b81032dd5c79","ios":"levelo://app?vid=ddd5eaae-968d-49e8-bed7-b81032dd5c79"},"vehicle_type_id":"4","last_reported":1718467804,"current_range_meters":10400,"station_id":"ce4bgkh2rcd13ifvqbk0","pricing_plan_id":"cebpf4jnsgd1na2vs0mg"},{"bike_id":"1a83ab1f-5252-4c53-963d-b9c85daeb108","system_id":"levelo_inurba_marseille","lat":43.2936,"lon":5.37835,"is_reserved":false,"is_disabled":false,"rental_uris":{"android":"levelo://app?vid=1a83ab1f-5252-4c53-963d-b9c85daeb108","ios":"levelo://app?vid=1a83ab1f-5252-4c53-963d-b9c85daeb108"},"vehicle_type_id":"4","last_reported":1718467804,"current_range_meters":11600,"station_id":"ce4bgjh2rcd13ifvqbf0","pricing_plan_id":"cebpf4jnsgd1na2vs0mg"},{"bike_id":"43ae2604-760c-42d7-a034-5f6c19cbad2a","system_id":"levelo_inurba_marseille","lat":43.292311,"lon":5.360731,"is_reserved":false,"is_disabled":false,"rental_uris":{"android":"levelo://app?vid=43ae2604-760c-42d7-a034-5f6c19cbad2a","ios":"levelo://app?vid=43ae2604-760c-42d7-a034-5f6c19cbad2a"},"vehicle_type_id":"4","last_reported":1718467804,"current_range_meters":25600,"station_id":"ce4bhbh2rcd13ifvqeqg","pricing_plan_id":"cebpf4jnsgd1na2vs0mg"},{"bike_id":"2ebd949d-7c39-4994-bda2-c8e2990da88d","system_id":"levelo_inurba_marseille","lat":43.292311,"lon":5.360731,"is_reserved":false,"is_disabled":false,"rental_uris":{"android":"levelo://app?vid=2ebd949d-7c39-4994-bda2-c8e2990da88d","ios":"levelo://app?vid=2ebd949d-7c39-4994-bda2-c8e2990da88d"},"vehicle_type_id":"4","last_reported":1718467804,"current_range_meters":28800,"station_id":"ce4bhbh2rcd13ifvqeqg","pricing_plan_id":"cebpf4jnsgd1na2vs0mg"},{"bike_id":"2a9aba21-9d04-43d7-a302-8913439a7d1f","system_id":"levelo_inurba_marseille","lat":43.30085,"lon":5.390856,"is_reserved":false,"is_disabled":false,"rental_uris":{"android":"levelo://app?vid=2a9aba21-9d04-43d7-a302-8913439a7d1f","ios":"levelo://app?vid=2a9aba21-9d04-43d7-a302-8913439a7d1f"},"vehicle_type_id":"4","last_reported":1718467804,"current_range_meters":21600,"station_id":"ce4bh192rcd13ifvqdb0","pricing_plan_id":"cebpf4jnsgd1na2vs0mg"},{"bike_id":"27cca113-48b1-410c-8685-ae7a60a62ad5","system_id":"levelo_inurba_marseille","lat":43.292311,"lon":5.360731,"is_reserved":false,"is_disabled":false,"rental_uris":{"android":"levelo://app?vid=27cca113-48b1-410c-8685-ae7a60a62ad5","ios":"levelo://app?vid=27cca113-48b1-410c-8685-ae7a60a62ad5"},"vehicle_type_id":"4","last_reported":1718467804,"current_range_meters":30000,"station_id":"ce4bhbh2rcd13ifvqeqg","pricing_plan_id":"cebpf4jnsgd1na2vs0mg"},{"bike_id":"f14a9b32-dbed-4880-b7e0-44140503d340","system_id":"levelo_inurba_marseille","lat":43.291675,"lon":5.371583,"is_reserved":false,"is_disabled":false,"rental_uris":{"android":"levelo://app?vid=f14a9b32-dbed-4880-b7e0-44140503d340","ios":"levelo://app?vid=f14a9b32-dbed-4880-b7e0-44140503d340"},"vehicle_type_id":"4","last_reported":1718467804,"current_range_meters":20800,"station_id":"ce4bha92rcd13ifvqeh0","pricing_plan_id":"cebpf4jnsgd1na2vs0mg"},{"bike_id":"7015d4c9-8937-474e-a48f-e4a4fca50929","system_id":"levelo_inurba_marseille","lat":43.298764,"lon":5.388973,"is_reserved":false,"is_disabled":false,"rental_uris":{"android":"levelo://app?vid=7015d4c9-8937-474e-a48f-e4a4fca50929","ios":"levelo://app?vid=7015d4c9-8937-474e-a48f-e4a4fca50929"},"vehicle_type_id":"4","last_reported":1718467804,"current_range_meters":15600,"station_id":"ce4bh392rcd13ifvqdl0","pricing_plan_id":"cebpf4jnsgd1na2vs0mg"},{"bike_id":"43b53464-621b-4346-933c-c169f11c39dc","system_id":"levelo_inurba_marseille","lat":43.298764,"lon":5.388973,"is_reserved":false,"is_disabled":false,"rental_uris":{"android":"levelo://app?vid=43b53464-621b-4346-933c-c169f11c39dc","ios":"levelo://app?vid=43b53464-621b-4346-933c-c169f11c39dc"},"vehicle_type_id":"4","last_reported":1718467804,"current_range_meters":21200,"station_id":"ce4bh392rcd13ifvqdl0","pricing_plan_id":"cebpf4jnsgd1na2vs0mg"},{"bike_id":"f9def9c8-8d25-44d6-aab1-95e5064b496a","system_id":"levelo_inurba_marseille","lat":43.313291,"lon":5.396838,"is_reserved":false,"is_disabled":false,"rental_uris":{"android":"levelo://app?vid=f9def9c8-8d25-44d6-aab1-95e5064b496a","ios":"levelo://app?vid=f9def9c8-8d25-44d6-aab1-95e5064b496a"},"vehicle_type_id":"4","last_reported":1718467804,"current_range_meters":11600,"station_id":"ce4bgvp2rcd13ifvqcu0","pricing_plan_id":"cebpf4jnsgd1na2vs0mg"},{"bike_id":"f46bf819-adcb-48fb-882b-1048065238eb","system_id":"levelo_inurba_marseille","lat":43.313291,"lon":5.396838,"is_reserved":false,"is_disabled":false,"rental_uris":{"android":"levelo://app?vid=f46bf819-adcb-48fb-882b-1048065238eb","ios":"levelo://app?vid=f46bf819-adcb-48fb-882b-1048065238eb"},"vehicle_type_id":"4","last_reported":1718467804,"current_range_meters":27200,"station_id":"ce4bgvp2rcd13ifvqcu0","pricing_plan_id":"cebpf4jnsgd1na2vs0mg"},{"bike_id":"c753555b-34e0-475e-9668-736519d0d579","system_id":"levelo_inurba_marseille","lat":43.313291,"lon":5.396838,"is_reserved":false,"is_disabled":false,"rental_uris":{"android":"levelo://app?vid=c753555b-34e0-475e-9668-736519d0d579","ios":"levelo://app?vid=c753555b-34e0-475e-9668-736519d0d579"},"vehicle_type_id":"4","last_reported":1718467804,"current_range_meters":17600,"station_id":"ce4bgvp2rcd13ifvqcu0","pricing_plan_id":"cebpf4jnsgd1na2vs0mg"},{"bike_id":"f9781533-72ad-403a-8163-e7b82d06cc3c","system_id":"levelo_inurba_marseille","lat":43.309038,"lon":5.396546,"is_reserved":false,"is_disabled":false,"rental_uris":{"android":"levelo://app?vid=f9781533-72ad-403a-8163-e7b82d06cc3c","ios":"levelo://app?vid=f9781533-72ad-403a-8163-e7b82d06cc3c"},"vehicle_type_id":"4","last_reported":1718467804,"current_range_meters":25600,"station_id":"ce4bh012rcd13ifvqcv0","pricing_plan_id":"cebpf4jnsgd1na2vs0mg"},{"bike_id":"87c89be7-5a80-40b7-9af5-2ae8f1c339b9","system_id":"levelo_inurba_marseille","lat":43.29529,"lon":5.385581,"is_reserved":false,"is_disabled":false,"rental_uris":{"android":"levelo://app?vid=87c89be7-5a80-40b7-9af5-2ae8f1c339b9","ios":"levelo://app?vid=87c89be7-5a80-40b7-9af5-2ae8f1c339b9"},"vehicle_type_id":"4","last_reported":1718467804,"current_range_meters":10000,"station_id":"ce4bgih2rcd13ifvqba0","pricing_plan_id":"cebpf4jnsgd1na2vs0mg"},{"bike_id":"4eceb1da-2016-4842-8482-fd3e6d32eb65","system_id":"levelo_inurba_marseille","lat":43.290631,"lon":5.359244,"is_reserved":false,"is_disabled":false,"rental_uris":{"android":"levelo://app?vid=4eceb1da-2016-4842-8482-fd3e6d32eb65","ios":"levelo://app?vid=4eceb1da-2016-4842-8482-fd3e6d32eb65"},"vehicle_type_id":"4","last_reported":1718467804,"current_range_meters":10400,"station_id":"ce4bha92rcd13ifvqeg0","pricing_plan_id":"cebpf4jnsgd1na2vs0mg"},{"bike_id":"664a8b73-8805-438d-aaf4-a433c94fbf8f","system_id":"levelo_inurba_marseille","lat":43.290624,"lon":5.359245,"is_reserved":false,"is_disabled":false,"rental_uris":{"android":"levelo://app?vid=664a8b73-8805-438d-aaf4-a433c94fbf8f","ios":"levelo://app?vid=664a8b73-8805-438d-aaf4-a433c94fbf8f"},"vehicle_type_id":"4","last_reported":1718467804,"current_range_meters":9600,"station_id":"ce4bha92rcd13ifvqeg0","pricing_plan_id":"cebpf4jnsgd1na2vs0mg"},{"bike_id":"6cb917ba-5b40-422b-94ff-4289019949c7","system_id":"levelo_inurba_marseille","lat":43.289184,"lon":5.366408,"is_reserved":false,"is_disabled":false,"rental_uris":{"android":"levelo://app?vid=6cb917ba-5b40-422b-94ff-4289019949c7","ios":"levelo://app?vid=6cb917ba-5b40-422b-94ff-4289019949c7"},"vehicle_type_id":"4","last_reported":1718467804,"current_range_meters":8000,"station_id":"ce4bhap2rcd13ifvqek0","pricing_plan_id":"cebpf4jnsgd1na2vs0mg"},{"bike_id":"4b9c9532-0424-41ae-bfcd-4aeb20f520e2","system_id":"levelo_inurba_marseille","lat":43.290319,"lon":5.375732,"is_reserved":false,"is_disabled":false,"rental_uris":{"android":"levelo://app?vid=4b9c9532-0424-41ae-bfcd-4aeb20f520e2","ios":"levelo://app?vid=4b9c9532-0424-41ae-bfcd-4aeb20f520e2"},"vehicle_type_id":"4","last_reported":1718467804,"current_range_meters":0,"station_id":"ce4bh692rcd13ifvqe90","pricing_plan_id":"cebpf4jnsgd1na2vs0mg"},{"bike_id":"68b375de-e730-43a2-b2a8-6a4b605507e9","system_id":"levelo_inurba_marseille","lat":43.289184,"lon":5.366408,"is_reserved":false,"is_disabled":false,"rental_uris":{"android":"levelo://app?vid=68b375de-e730-43a2-b2a8-6a4b605507e9","ios":"levelo://app?vid=68b375de-e730-43a2-b2a8-6a4b605507e9"},"vehicle_type_id":"4","last_reported":1718467804,"current_range_meters":2400,"station_id":"ce4bhap2rcd13ifvqek0","pricing_plan_id":"cebpf4jnsgd1na2vs0mg"},{"bike_id":"41ec1e3b-16ce-40bd-a093-79a89cc216fe","system_id":"levelo_inurba_marseille","lat":43.289468,"lon":5.363719,"is_reserved":false,"is_disabled":false,"rental_uris":{"android":"levelo://app?vid=41ec1e3b-16ce-40bd-a093-79a89cc216fe","ios":"levelo://app?vid=41ec1e3b-16ce-40bd-a093-79a89cc216fe"},"vehicle_type_id":"4","last_reported":1718467804,"current_range_meters":3600,"station_id":"ce4bhc92rcd13ifvqetg","pricing_plan_id":"cebpf4jnsgd1na2vs0mg"},{"bike_id":"fa46607c-47c1-4226-a0f2-fa98a6a03d38","system_id":"levelo_inurba_marseille","lat":43.292642,"lon":5.384254,"is_reserved":false,"is_disabled":false,"rental_uris":{"android":"levelo://app?vid=fa46607c-47c1-4226-a0f2-fa98a6a03d38","ios":"levelo://app?vid=fa46607c-47c1-4226-a0f2-fa98a6a03d38"},"vehicle_type_id":"4","last_reported":1718467804,"current_range_meters":0,"station_id":"ce4bh692rcd13ifvqea0","pricing_plan_id":"cebpf4jnsgd1na2vs0mg"},{"bike_id":"accfda54-28ca-4e6e-abfb-2714f9517eb1","system_id":"levelo_inurba_marseille","lat":43.304296,"lon":5.397513,"is_reserved":false,"is_disabled":false,"rental_uris":{"android":"levelo://app?vid=accfda54-28ca-4e6e-abfb-2714f9517eb1","ios":"levelo://app?vid=accfda54-28ca-4e6e-abfb-2714f9517eb1"},"vehicle_type_id":"4","last_reported":1718467804,"current_range_meters":15600,"station_id":"ce4bh092rcd13ifvqd20","pricing_plan_id":"cebpf4jnsgd1na2vs0mg"},{"bike_id":"77598045-6686-48dd-98ca-f7fd2f74fb52","system_id":"levelo_inurba_marseille","lat":43.292543,"lon":5.384387,"is_reserved":false,"is_disabled":false,"rental_uris":{"android":"levelo://app?vid=77598045-6686-48dd-98ca-f7fd2f74fb52","ios":"levelo://app?vid=77598045-6686-48dd-98ca-f7fd2f74fb52"},"vehicle_type_id":"4","last_reported":1718467804,"current_range_meters":0,"station_id":"ce4bh692rcd13ifvqea0","pricing_plan_id":"cebpf4jnsgd1na2vs0mg"},{"bike_id":"4589e914-1b4f-4c3c-8e9d-d119824a677e","system_id":"levelo_inurba_marseille","lat":43.292644,"lon":5.384257,"is_reserved":false,"is_disabled":false,"rental_uris":{"android":"levelo://app?vid=4589e914-1b4f-4c3c-8e9d-d119824a677e","ios":"levelo://app?vid=4589e914-1b4f-4c3c-8e9d-d119824a677e"},"vehicle_type_id":"4","last_reported":1718467804,"current_range_meters":6800,"station_id":"ce4bh692rcd13ifvqea0","pricing_plan_id":"cebpf4jnsgd1na2vs0mg"},{"bike_id":"2b08d995-b392-4cec-8121-b0ce33828c38","system_id":"levelo_inurba_marseille","lat":43.290995,"lon":5.381361,"is_reserved":false,"is_disabled":false,"rental_uris":{"android":"levelo://app?vid=2b08d995-b392-4cec-8121-b0ce33828c38","ios":"levelo://app?vid=2b08d995-b392-4cec-8121-b0ce33828c38"},"vehicle_type_id":"4","last_reported":1718467804,"current_range_meters":20400,"station_id":"ce4bh512rcd13ifvqe2g","pricing_plan_id":"cebpf4jnsgd1na2vs0mg"},{"bike_id":"ef200b44-58b9-4875-a9f9-d27319c2291d","system_id":"levelo_inurba_marseille","lat":43.290995,"lon":5.381361,"is_reserved":false,"is_disabled":false,"rental_uris":{"android":"levelo://app?vid=ef200b44-58b9-4875-a9f9-d27319c2291d","ios":"levelo://app?vid=ef200b44-58b9-4875-a9f9-d27319c2291d"},"vehicle_type_id":"4","last_reported":1718467804,"current_range_meters":4000,"station_id":"ce4bh512rcd13ifvqe2g","pricing_plan_id":"cebpf4jnsgd1na2vs0mg"},{"bike_id":"10c6c75a-05c0-4342-bf0d-b6bbb9c1dc6a","system_id":"levelo_inurba_marseille","lat":43.330442,"lon":5.389148,"is_reserved":false,"is_disabled":false,"rental_uris":{"android":"levelo://app?vid=10c6c75a-05c0-4342-bf0d-b6bbb9c1dc6a","ios":"levelo://app?vid=10c6c75a-05c0-4342-bf0d-b6bbb9c1dc6a"},"vehicle_type_id":"4","last_reported":1718467804,"current_range_meters":0,"station_id":"ce4bhr92rcd13ifvqhrg","pricing_plan_id":"cebpf4jnsgd1na2vs0mg"},{"bike_id":"c5df9016-a330-47cc-af82-2eed33e3f167","system_id":"levelo_inurba_marseille","lat":43.2901,"lon":5.381269,"is_reserved":false,"is_disabled":false,"rental_uris":{"android":"levelo://app?vid=c5df9016-a330-47cc-af82-2eed33e3f167","ios":"levelo://app?vid=c5df9016-a330-47cc-af82-2eed33e3f167"},"vehicle_type_id":"4","last_reported":1718467804,"current_range_meters":14800,"station_id":"ce4bh4p2rcd13ifvqe1g","pricing_plan_id":"cebpf4jnsgd1na2vs0mg"},{"bike_id":"9694d5ea-615c-45a2-af04-6c9006e6ffbb","system_id":"levelo_inurba_marseille","lat":43.29016,"lon":5.38143,"is_reserved":false,"is_disabled":false,"rental_uris":{"android":"levelo://app?vid=9694d5ea-615c-45a2-af04-6c9006e6ffbb","ios":"levelo://app?vid=9694d5ea-615c-45a2-af04-6c9006e6ffbb"},"vehicle_type_id":"4","last_reported":1718467804,"current_range_meters":0,"station_id":"ce4bh4p2rcd13ifvqe1g","pricing_plan_id":"cebpf4jnsgd1na2vs0mg"},{"bike_id":"3bb89d0d-aaa4-4bcc-9916-2231732e6a67","system_id":"levelo_inurba_marseille","lat":43.28856,"lon":5.358371,"is_reserved":false,"is_disabled":false,"rental_uris":{"android":"levelo://app?vid=3bb89d0d-aaa4-4bcc-9916-2231732e6a67","ios":"levelo://app?vid=3bb89d0d-aaa4-4bcc-9916-2231732e6a67"},"vehicle_type_id":"4","last_reported":1718467804,"current_range_meters":16400,"station_id":"ce4bhb12rcd13ifvqem0","pricing_plan_id":"cebpf4jnsgd1na2vs0mg"},{"bike_id":"744b2ff0-6fe8-419b-a2a5-3b6b9bb7cd08","system_id":"levelo_inurba_marseille","lat":43.33752,"lon":5.37443,"is_reserved":false,"is_disabled":false,"rental_uris":{"android":"levelo://app?vid=744b2ff0-6fe8-419b-a2a5-3b6b9bb7cd08","ios":"levelo://app?vid=744b2ff0-6fe8-419b-a2a5-3b6b9bb7cd08"},"vehicle_type_id":"4","last_reported":1718467804,"current_range_meters":29200,"station_id":"","pricing_plan_id":"cebpf4jnsgd1na2vs0mg"},{"bike_id":"e1512863-0927-4702-b249-40d36e19f2c0","system_id":"levelo_inurba_marseille","lat":43.33754,"lon":5.37485,"is_reserved":false,"is_disabled":false,"rental_uris":{"android":"levelo://app?vid=e1512863-0927-4702-b249-40d36e19f2c0","ios":"levelo://app?vid=e1512863-0927-4702-b249-40d36e19f2c0"},"vehicle_type_id":"4","last_reported":1718467804,"current_range_meters":22400,"station_id":"","pricing_plan_id":"cebpf4jnsgd1na2vs0mg"},{"bike_id":"7074564c-08b5-4652-ba50-7976d444cb8b","system_id":"levelo_inurba_marseille","lat":43.29962,"lon":5.39726,"is_reserved":false,"is_disabled":false,"rental_uris":{"android":"levelo://app?vid=7074564c-08b5-4652-ba50-7976d444cb8b","ios":"levelo://app?vid=7074564c-08b5-4652-ba50-7976d444cb8b"},"vehicle_type_id":"4","last_reported":1718467804,"current_range_meters":0,"station_id":"","pricing_plan_id":"cebpf4jnsgd1na2vs0mg"},{"bike_id":"83f7eb33-4bb5-4522-b902-549c1d720325","system_id":"levelo_inurba_marseille","lat":43.301117,"lon":5.398795,"is_reserved":false,"is_disabled":false,"rental_uris":{"android":"levelo://app?vid=83f7eb33-4bb5-4522-b902-549c1d720325","ios":"levelo://app?vid=83f7eb33-4bb5-4522-b902-549c1d720325"},"vehicle_type_id":"4","last_reported":1718467804,"current_range_meters":24800,"station_id":"ce4bh0h2rcd13ifvqd40","pricing_plan_id":"cebpf4jnsgd1na2vs0mg"},{"bike_id":"8fc832c0-eedb-482d-99ab-e237445874d3","system_id":"levelo_inurba_marseille","lat":43.28727,"lon":5.36078,"is_reserved":false,"is_disabled":false,"rental_uris":{"android":"levelo://app?vid=8fc832c0-eedb-482d-99ab-e237445874d3","ios":"levelo://app?vid=8fc832c0-eedb-482d-99ab-e237445874d3"},"vehicle_type_id":"4","last_reported":1718467804,"current_range_meters":22400,"station_id":"cki0cbj6b192h4jlfktg","pricing_plan_id":"cebpf4jnsgd1na2vs0mg"},{"bike_id":"39ff05ff-8f07-4292-b835-5076ec513dc9","system_id":"levelo_inurba_marseille","lat":43.30642,"lon":5.401031,"is_reserved":false,"is_disabled":false,"rental_uris":{"android":"levelo://app?vid=39ff05ff-8f07-4292-b835-5076ec513dc9","ios":"levelo://app?vid=39ff05ff-8f07-4292-b835-5076ec513dc9"},"vehicle_type_id":"4","last_reported":1718467804,"current_range_meters":8800,"station_id":"ce4bh112rcd13ifvqda0","pricing_plan_id":"cebpf4jnsgd1na2vs0mg"},{"bike_id":"38ba35f5-a898-4fc9-99ab-d426c2cb2a55","system_id":"levelo_inurba_marseille","lat":43.28727,"lon":5.36078,"is_reserved":false,"is_disabled":false,"rental_uris":{"android":"levelo://app?vid=38ba35f5-a898-4fc9-99ab-d426c2cb2a55","ios":"levelo://app?vid=38ba35f5-a898-4fc9-99ab-d426c2cb2a55"},"vehicle_type_id":"4","last_reported":1718467804,"current_range_meters":14400,"station_id":"cki0cbj6b192h4jlfktg","pricing_plan_id":"cebpf4jnsgd1na2vs0mg"},{"bike_id":"13d36912-ff2f-4027-abbc-f81a569ca9cf","system_id":"levelo_inurba_marseille","lat":43.298681,"lon":5.397225,"is_reserved":false,"is_disabled":false,"rental_uris":{"android":"levelo://app?vid=13d36912-ff2f-4027-abbc-f81a569ca9cf","ios":"levelo://app?vid=13d36912-ff2f-4027-abbc-f81a569ca9cf"},"vehicle_type_id":"4","last_reported":1718467804,"current_range_meters":19600,"station_id":"ce4bh0h2rcd13ifvqd50","pricing_plan_id":"cebpf4jnsgd1na2vs0mg"},{"bike_id":"f8c582a9-afd9-4aae-ba69-d2b2c97f1b92","system_id":"levelo_inurba_marseille","lat":43.298681,"lon":5.397225,"is_reserved":false,"is_disabled":false,"rental_uris":{"android":"levelo://app?vid=f8c582a9-afd9-4aae-ba69-d2b2c97f1b92","ios":"levelo://app?vid=f8c582a9-afd9-4aae-ba69-d2b2c97f1b92"},"vehicle_type_id":"4","last_reported":1718467804,"current_range_meters":30800,"station_id":"ce4bh0h2rcd13ifvqd50","pricing_plan_id":"cebpf4jnsgd1na2vs0mg"},{"bike_id":"b885908e-5a6f-458a-bc27-ce74bb7693ea","system_id":"levelo_inurba_marseille","lat":43.286591,"lon":5.363346,"is_reserved":false,"is_disabled":false,"rental_uris":{"android":"levelo://app?vid=b885908e-5a6f-458a-bc27-ce74bb7693ea","ios":"levelo://app?vid=b885908e-5a6f-458a-bc27-ce74bb7693ea"},"vehicle_type_id":"4","last_reported":1718467804,"current_range_meters":3200,"station_id":"ce4bhah2rcd13ifvqej0","pricing_plan_id":"cebpf4jnsgd1na2vs0mg"},{"bike_id":"2ecee0a5-afb2-413b-836b-3164fc9d5ea9","system_id":"levelo_inurba_marseille","lat":43.286961,"lon":5.373785,"is_reserved":false,"is_disabled":false,"rental_uris":{"android":"levelo://app?vid=2ecee0a5-afb2-413b-836b-3164fc9d5ea9","ios":"levelo://app?vid=2ecee0a5-afb2-413b-836b-3164fc9d5ea9"},"vehicle_type_id":"4","last_reported":1718467804,"current_range_meters":0,"station_id":"ce4bh3p2rcd13ifvqdq0","pricing_plan_id":"cebpf4jnsgd1na2vs0mg"},{"bike_id":"27df32d8-1529-45dd-b859-8f5f026d3d56","system_id":"levelo_inurba_marseille","lat":43.28695,"lon":5.37396,"is_reserved":false,"is_disabled":false,"rental_uris":{"android":"levelo://app?vid=27df32d8-1529-45dd-b859-8f5f026d3d56","ios":"levelo://app?vid=27df32d8-1529-45dd-b859-8f5f026d3d56"},"vehicle_type_id":"4","last_reported":1718467804,"current_range_meters":0,"station_id":"ce4bh3p2rcd13ifvqdq0","pricing_plan_id":"cebpf4jnsgd1na2vs0mg"},{"bike_id":"914b0cdb-b53d-4979-81e0-5a7bc0f2b922","system_id":"levelo_inurba_marseille","lat":43.295196,"lon":5.39397,"is_reserved":false,"is_disabled":false,"rental_uris":{"android":"levelo://app?vid=914b0cdb-b53d-4979-81e0-5a7bc0f2b922","ios":"levelo://app?vid=914b0cdb-b53d-4979-81e0-5a7bc0f2b922"},"vehicle_type_id":"4","last_reported":1718467804,"current_range_meters":12400,"station_id":"ce4bh292rcd13ifvqdf0","pricing_plan_id":"cebpf4jnsgd1na2vs0mg"},{"bike_id":"1efbbdb7-8b02-47d9-a5c1-d37e4dd84752","system_id":"levelo_inurba_marseille","lat":43.302759,"lon":5.400793,"is_reserved":false,"is_disabled":false,"rental_uris":{"android":"levelo://app?vid=1efbbdb7-8b02-47d9-a5c1-d37e4dd84752","ios":"levelo://app?vid=1efbbdb7-8b02-47d9-a5c1-d37e4dd84752"},"vehicle_type_id":"4","last_reported":1718467804,"current_range_meters":4400,"station_id":"ce4bgvh2rcd13ifvqcs0","pricing_plan_id":"cebpf4jnsgd1na2vs0mg"},{"bike_id":"e74fe614-67bd-4440-b4b4-79ca1c3400aa","system_id":"levelo_inurba_marseille","lat":43.302759,"lon":5.400793,"is_reserved":false,"is_disabled":false,"rental_uris":{"android":"levelo://app?vid=e74fe614-67bd-4440-b4b4-79ca1c3400aa","ios":"levelo://app?vid=e74fe614-67bd-4440-b4b4-79ca1c3400aa"},"vehicle_type_id":"4","last_reported":1718467804,"current_range_meters":6800,"station_id":"ce4bgvh2rcd13ifvqcs0","pricing_plan_id":"cebpf4jnsgd1na2vs0mg"},{"bike_id":"512b3996-bf02-46b5-b8ec-c98d83c6db71","system_id":"levelo_inurba_marseille","lat":43.28931,"lon":5.38399,"is_reserved":false,"is_disabled":false,"rental_uris":{"android":"levelo://app?vid=512b3996-bf02-46b5-b8ec-c98d83c6db71","ios":"levelo://app?vid=512b3996-bf02-46b5-b8ec-c98d83c6db71"},"vehicle_type_id":"4","last_reported":1718467804,"current_range_meters":0,"station_id":"ce4bh4p2rcd13ifvqe1g","pricing_plan_id":"cebpf4jnsgd1na2vs0mg"},{"bike_id":"b9e37227-c761-49ca-a7fc-b278378248af","system_id":"levelo_inurba_marseille","lat":43.302759,"lon":5.400793,"is_reserved":false,"is_disabled":false,"rental_uris":{"android":"levelo://app?vid=b9e37227-c761-49ca-a7fc-b278378248af","ios":"levelo://app?vid=b9e37227-c761-49ca-a7fc-b278378248af"},"vehicle_type_id":"4","last_reported":1718467804,"current_range_meters":19600,"station_id":"ce4bgvh2rcd13ifvqcs0","pricing_plan_id":"cebpf4jnsgd1na2vs0mg"},{"bike_id":"e69c83fc-893a-403e-9f44-33c317a06492","system_id":"levelo_inurba_marseille","lat":43.30256,"lon":5.40067,"is_reserved":false,"is_disabled":false,"rental_uris":{"android":"levelo://app?vid=e69c83fc-893a-403e-9f44-33c317a06492","ios":"levelo://app?vid=e69c83fc-893a-403e-9f44-33c317a06492"},"vehicle_type_id":"4","last_reported":1718467804,"current_range_meters":5200,"station_id":"ce4bgvh2rcd13ifvqcs0","pricing_plan_id":"cebpf4jnsgd1na2vs0mg"},{"bike_id":"ad667251-38f8-44ac-972a-906998ce85a3","system_id":"levelo_inurba_marseille","lat":43.289307,"lon":5.38406,"is_reserved":false,"is_disabled":false,"rental_uris":{"android":"levelo://app?vid=ad667251-38f8-44ac-972a-906998ce85a3","ios":"levelo://app?vid=ad667251-38f8-44ac-972a-906998ce85a3"},"vehicle_type_id":"4","last_reported":1718467804,"current_range_meters":0,"station_id":"ce4bh612rcd13ifvqe6g","pricing_plan_id":"cebpf4jnsgd1na2vs0mg"},{"bike_id":"f4bf6e3c-2498-4f1b-8df9-5d0659f6fcf0","system_id":"levelo_inurba_marseille","lat":43.302759,"lon":5.400793,"is_reserved":false,"is_disabled":false,"rental_uris":{"android":"levelo://app?vid=f4bf6e3c-2498-4f1b-8df9-5d0659f6fcf0","ios":"levelo://app?vid=f4bf6e3c-2498-4f1b-8df9-5d0659f6fcf0"},"vehicle_type_id":"4","last_reported":1718467804,"current_range_meters":2400,"station_id":"ce4bgvh2rcd13ifvqcs0","pricing_plan_id":"cebpf4jnsgd1na2vs0mg"},{"bike_id":"90b3b508-4098-484c-8da6-d7d700c4e524","system_id":"levelo_inurba_marseille","lat":43.28724,"lon":5.37939,"is_reserved":false,"is_disabled":false,"rental_uris":{"android":"levelo://app?vid=90b3b508-4098-484c-8da6-d7d700c4e524","ios":"levelo://app?vid=90b3b508-4098-484c-8da6-d7d700c4e524"},"vehicle_type_id":"4","last_reported":1718467804,"current_range_meters":0,"station_id":"ce4bh9p2rcd13ifvqec0","pricing_plan_id":"cebpf4jnsgd1na2vs0mg"},{"bike_id":"3f316795-cdc9-441e-8463-cf3ff9789525","system_id":"levelo_inurba_marseille","lat":43.287184,"lon":5.37937,"is_reserved":false,"is_disabled":false,"rental_uris":{"android":"levelo://app?vid=3f316795-cdc9-441e-8463-cf3ff9789525","ios":"levelo://app?vid=3f316795-cdc9-441e-8463-cf3ff9789525"},"vehicle_type_id":"4","last_reported":1718467804,"current_range_meters":10800,"station_id":"ce4bh9p2rcd13ifvqec0","pricing_plan_id":"cebpf4jnsgd1na2vs0mg"},{"bike_id":"cdaf8de9-5936-497a-b88f-09798b63ae67","system_id":"levelo_inurba_marseille","lat":43.28721,"lon":5.37946,"is_reserved":false,"is_disabled":false,"rental_uris":{"android":"levelo://app?vid=cdaf8de9-5936-497a-b88f-09798b63ae67","ios":"levelo://app?vid=cdaf8de9-5936-497a-b88f-09798b63ae67"},"vehicle_type_id":"4","last_reported":1718467804,"current_range_meters":4800,"station_id":"ce4bh9p2rcd13ifvqec0","pricing_plan_id":"cebpf4jnsgd1na2vs0mg"},{"bike_id":"5bf34eb3-7905-4dae-a80b-1f6152a434b3","system_id":"levelo_inurba_marseille","lat":43.316828,"lon":5.404723,"is_reserved":false,"is_disabled":false,"rental_uris":{"android":"levelo://app?vid=5bf34eb3-7905-4dae-a80b-1f6152a434b3","ios":"levelo://app?vid=5bf34eb3-7905-4dae-a80b-1f6152a434b3"},"vehicle_type_id":"4","last_reported":1718467804,"current_range_meters":2800,"station_id":"ce4bh012rcd13ifvqd00","pricing_plan_id":"cebpf4jnsgd1na2vs0mg"},{"bike_id":"cedb7837-f98e-491d-9736-b645b7887ae9","system_id":"levelo_inurba_marseille","lat":43.316821,"lon":5.404737,"is_reserved":false,"is_disabled":false,"rental_uris":{"android":"levelo://app?vid=cedb7837-f98e-491d-9736-b645b7887ae9","ios":"levelo://app?vid=cedb7837-f98e-491d-9736-b645b7887ae9"},"vehicle_type_id":"4","last_reported":1718467804,"current_range_meters":32000,"station_id":"ce4bh012rcd13ifvqd00","pricing_plan_id":"cebpf4jnsgd1na2vs0mg"},{"bike_id":"d9cc819c-0fcf-4e35-a78b-276b6841ced4","system_id":"levelo_inurba_marseille","lat":43.316828,"lon":5.404723,"is_reserved":false,"is_disabled":false,"rental_uris":{"android":"levelo://app?vid=d9cc819c-0fcf-4e35-a78b-276b6841ced4","ios":"levelo://app?vid=d9cc819c-0fcf-4e35-a78b-276b6841ced4"},"vehicle_type_id":"4","last_reported":1718467804,"current_range_meters":18400,"station_id":"ce4bh012rcd13ifvqd00","pricing_plan_id":"cebpf4jnsgd1na2vs0mg"},{"bike_id":"bad3e50a-21ae-4369-8ad4-8f5594f600c2","system_id":"levelo_inurba_marseille","lat":43.316821,"lon":5.404737,"is_reserved":false,"is_disabled":false,"rental_uris":{"android":"levelo://app?vid=bad3e50a-21ae-4369-8ad4-8f5594f600c2","ios":"levelo://app?vid=bad3e50a-21ae-4369-8ad4-8f5594f600c2"},"vehicle_type_id":"4","last_reported":1718467804,"current_range_meters":6800,"station_id":"ce4bh012rcd13ifvqd00","pricing_plan_id":"cebpf4jnsgd1na2vs0mg"},{"bike_id":"5f07aa06-4e45-400d-9cbc-05d2182f88cd","system_id":"levelo_inurba_marseille","lat":43.316828,"lon":5.404723,"is_reserved":false,"is_disabled":false,"rental_uris":{"android":"levelo://app?vid=5f07aa06-4e45-400d-9cbc-05d2182f88cd","ios":"levelo://app?vid=5f07aa06-4e45-400d-9cbc-05d2182f88cd"},"vehicle_type_id":"4","last_reported":1718467804,"current_range_meters":0,"station_id":"ce4bh012rcd13ifvqd00","pricing_plan_id":"cebpf4jnsgd1na2vs0mg"},{"bike_id":"6c501bfa-c548-44bb-a21e-6e82fad4244a","system_id":"levelo_inurba_marseille","lat":43.291994,"lon":5.392907,"is_reserved":false,"is_disabled":false,"rental_uris":{"android":"levelo://app?vid=6c501bfa-c548-44bb-a21e-6e82fad4244a","ios":"levelo://app?vid=6c501bfa-c548-44bb-a21e-6e82fad4244a"},"vehicle_type_id":"4","last_reported":1718467804,"current_range_meters":28800,"station_id":"ce4bh192rcd13ifvqdd0","pricing_plan_id":"cebpf4jnsgd1na2vs0mg"},{"bike_id":"ac9f201d-f5e6-4b9b-a984-d83a2601f20e","system_id":"levelo_inurba_marseille","lat":43.291994,"lon":5.392907,"is_reserved":false,"is_disabled":false,"rental_uris":{"android":"levelo://app?vid=ac9f201d-f5e6-4b9b-a984-d83a2601f20e","ios":"levelo://app?vid=ac9f201d-f5e6-4b9b-a984-d83a2601f20e"},"vehicle_type_id":"4","last_reported":1718467804,"current_range_meters":14400,"station_id":"ce4bh192rcd13ifvqdd0","pricing_plan_id":"cebpf4jnsgd1na2vs0mg"},{"bike_id":"c9d73f56-e1d4-455d-b2a9-de6e44973a27","system_id":"levelo_inurba_marseille","lat":43.291994,"lon":5.392907,"is_reserved":false,"is_disabled":false,"rental_uris":{"android":"levelo://app?vid=c9d73f56-e1d4-455d-b2a9-de6e44973a27","ios":"levelo://app?vid=c9d73f56-e1d4-455d-b2a9-de6e44973a27"},"vehicle_type_id":"4","last_reported":1718467804,"current_range_meters":12800,"station_id":"ce4bh192rcd13ifvqdd0","pricing_plan_id":"cebpf4jnsgd1na2vs0mg"},{"bike_id":"5be64119-1417-4a18-a2c9-ef33e57fe5c2","system_id":"levelo_inurba_marseille","lat":43.291994,"lon":5.392907,"is_reserved":false,"is_disabled":false,"rental_uris":{"android":"levelo://app?vid=5be64119-1417-4a18-a2c9-ef33e57fe5c2","ios":"levelo://app?vid=5be64119-1417-4a18-a2c9-ef33e57fe5c2"},"vehicle_type_id":"4","last_reported":1718467804,"current_range_meters":21600,"station_id":"ce4bh192rcd13ifvqdd0","pricing_plan_id":"cebpf4jnsgd1na2vs0mg"},{"bike_id":"260dcce2-a696-475c-b724-902d60f81fde","system_id":"levelo_inurba_marseille","lat":43.28463,"lon":5.35888,"is_reserved":false,"is_disabled":false,"rental_uris":{"android":"levelo://app?vid=260dcce2-a696-475c-b724-902d60f81fde","ios":"levelo://app?vid=260dcce2-a696-475c-b724-902d60f81fde"},"vehicle_type_id":"4","last_reported":1718467804,"current_range_meters":6800,"station_id":"ce4bhah2rcd13ifvqei0","pricing_plan_id":"cebpf4jnsgd1na2vs0mg"},{"bike_id":"8cd7af95-6db7-4ad6-8436-d12aec381ba9","system_id":"levelo_inurba_marseille","lat":43.284575,"lon":5.35879,"is_reserved":false,"is_disabled":false,"rental_uris":{"android":"levelo://app?vid=8cd7af95-6db7-4ad6-8436-d12aec381ba9","ios":"levelo://app?vid=8cd7af95-6db7-4ad6-8436-d12aec381ba9"},"vehicle_type_id":"4","last_reported":1718467804,"current_range_meters":0,"station_id":"ce4bhah2rcd13ifvqei0","pricing_plan_id":"cebpf4jnsgd1na2vs0mg"},{"bike_id":"8309c0b0-720c-4daf-bc06-dd5ba205cfdc","system_id":"levelo_inurba_marseille","lat":43.284538,"lon":5.358657,"is_reserved":false,"is_disabled":false,"rental_uris":{"android":"levelo://app?vid=8309c0b0-720c-4daf-bc06-dd5ba205cfdc","ios":"levelo://app?vid=8309c0b0-720c-4daf-bc06-dd5ba205cfdc"},"vehicle_type_id":"4","last_reported":1718467804,"current_range_meters":2000,"station_id":"ce4bhah2rcd13ifvqei0","pricing_plan_id":"cebpf4jnsgd1na2vs0mg"},{"bike_id":"465ab872-bef5-4786-b233-1073abe70c2e","system_id":"levelo_inurba_marseille","lat":43.28632,"lon":5.35111,"is_reserved":false,"is_disabled":false,"rental_uris":{"android":"levelo://app?vid=465ab872-bef5-4786-b233-1073abe70c2e","ios":"levelo://app?vid=465ab872-bef5-4786-b233-1073abe70c2e"},"vehicle_type_id":"4","last_reported":1718467804,"current_range_meters":28800,"station_id":"ce4bhch2rcd13ifvqeug","pricing_plan_id":"cebpf4jnsgd1na2vs0mg"},{"bike_id":"4f40dd2e-f3e8-453b-8c2d-42e8d3a7ead8","system_id":"levelo_inurba_marseille","lat":43.28621,"lon":5.35105,"is_reserved":false,"is_disabled":false,"rental_uris":{"android":"levelo://app?vid=4f40dd2e-f3e8-453b-8c2d-42e8d3a7ead8","ios":"levelo://app?vid=4f40dd2e-f3e8-453b-8c2d-42e8d3a7ead8"},"vehicle_type_id":"4","last_reported":1718467804,"current_range_meters":14800,"station_id":"ce4bhch2rcd13ifvqeug","pricing_plan_id":"cebpf4jnsgd1na2vs0mg"},{"bike_id":"4937ff50-13a1-41d8-8e95-0acb895645a6","system_id":"levelo_inurba_marseille","lat":43.286187,"lon":5.351082,"is_reserved":false,"is_disabled":false,"rental_uris":{"android":"levelo://app?vid=4937ff50-13a1-41d8-8e95-0acb895645a6","ios":"levelo://app?vid=4937ff50-13a1-41d8-8e95-0acb895645a6"},"vehicle_type_id":"4","last_reported":1718467804,"current_range_meters":27200,"station_id":"ce4bhch2rcd13ifvqeug","pricing_plan_id":"cebpf4jnsgd1na2vs0mg"},{"bike_id":"962abb60-416b-41cb-8620-a9f29aa4a695","system_id":"levelo_inurba_marseille","lat":43.2862,"lon":5.351,"is_reserved":false,"is_disabled":false,"rental_uris":{"android":"levelo://app?vid=962abb60-416b-41cb-8620-a9f29aa4a695","ios":"levelo://app?vid=962abb60-416b-41cb-8620-a9f29aa4a695"},"vehicle_type_id":"4","last_reported":1718467804,"current_range_meters":20000,"station_id":"ce4bhch2rcd13ifvqeug","pricing_plan_id":"cebpf4jnsgd1na2vs0mg"},{"bike_id":"9a8011df-d26a-4548-845c-6e6e05ba2811","system_id":"levelo_inurba_marseille","lat":43.28617,"lon":5.35107,"is_reserved":false,"is_disabled":false,"rental_uris":{"android":"levelo://app?vid=9a8011df-d26a-4548-845c-6e6e05ba2811","ios":"levelo://app?vid=9a8011df-d26a-4548-845c-6e6e05ba2811"},"vehicle_type_id":"4","last_reported":1718467804,"current_range_meters":0,"station_id":"ce4bhch2rcd13ifvqeug","pricing_plan_id":"cebpf4jnsgd1na2vs0mg"},{"bike_id":"9ae84ca9-1169-4c88-9ee6-ae68c2075745","system_id":"levelo_inurba_marseille","lat":43.28617,"lon":5.35104,"is_reserved":false,"is_disabled":false,"rental_uris":{"android":"levelo://app?vid=9ae84ca9-1169-4c88-9ee6-ae68c2075745","ios":"levelo://app?vid=9ae84ca9-1169-4c88-9ee6-ae68c2075745"},"vehicle_type_id":"4","last_reported":1718467804,"current_range_meters":6000,"station_id":"ce4bhch2rcd13ifvqeug","pricing_plan_id":"cebpf4jnsgd1na2vs0mg"},{"bike_id":"5a9bea87-7ea6-4dec-bc27-e6f202b0bc90","system_id":"levelo_inurba_marseille","lat":43.28616,"lon":5.35104,"is_reserved":false,"is_disabled":false,"rental_uris":{"android":"levelo://app?vid=5a9bea87-7ea6-4dec-bc27-e6f202b0bc90","ios":"levelo://app?vid=5a9bea87-7ea6-4dec-bc27-e6f202b0bc90"},"vehicle_type_id":"4","last_reported":1718467804,"current_range_meters":6800,"station_id":"ce4bhch2rcd13ifvqeug","pricing_plan_id":"cebpf4jnsgd1na2vs0mg"},{"bike_id":"46183499-229a-48f9-9dab-e90f1f07356b","system_id":"levelo_inurba_marseille","lat":43.28614,"lon":5.35109,"is_reserved":false,"is_disabled":false,"rental_uris":{"android":"levelo://app?vid=46183499-229a-48f9-9dab-e90f1f07356b","ios":"levelo://app?vid=46183499-229a-48f9-9dab-e90f1f07356b"},"vehicle_type_id":"4","last_reported":1718467804,"current_range_meters":12000,"station_id":"ce4bhch2rcd13ifvqeug","pricing_plan_id":"cebpf4jnsgd1na2vs0mg"},{"bike_id":"be91949c-3ef7-4acf-bade-b72958be0963","system_id":"levelo_inurba_marseille","lat":43.285856,"lon":5.350771,"is_reserved":false,"is_disabled":false,"rental_uris":{"android":"levelo://app?vid=be91949c-3ef7-4acf-bade-b72958be0963","ios":"levelo://app?vid=be91949c-3ef7-4acf-bade-b72958be0963"},"vehicle_type_id":"4","last_reported":1718467804,"current_range_meters":14400,"station_id":"ce4bhch2rcd13ifvqeug","pricing_plan_id":"cebpf4jnsgd1na2vs0mg"},{"bike_id":"cb48ad8f-550a-4ef7-8d24-7eeea25f5f04","system_id":"levelo_inurba_marseille","lat":43.28614,"lon":5.35106,"is_reserved":false,"is_disabled":false,"rental_uris":{"android":"levelo://app?vid=cb48ad8f-550a-4ef7-8d24-7eeea25f5f04","ios":"levelo://app?vid=cb48ad8f-550a-4ef7-8d24-7eeea25f5f04"},"vehicle_type_id":"4","last_reported":1718467804,"current_range_meters":0,"station_id":"ce4bhch2rcd13ifvqeug","pricing_plan_id":"cebpf4jnsgd1na2vs0mg"},{"bike_id":"46da65ca-ae7b-47bc-839d-695264f16a2a","system_id":"levelo_inurba_marseille","lat":43.28615,"lon":5.35101,"is_reserved":false,"is_disabled":false,"rental_uris":{"android":"levelo://app?vid=46da65ca-ae7b-47bc-839d-695264f16a2a","ios":"levelo://app?vid=46da65ca-ae7b-47bc-839d-695264f16a2a"},"vehicle_type_id":"4","last_reported":1718467804,"current_range_meters":13600,"station_id":"ce4bhch2rcd13ifvqeug","pricing_plan_id":"cebpf4jnsgd1na2vs0mg"},{"bike_id":"2bfce80c-3bed-4ca3-b1cd-b815f1e7759e","system_id":"levelo_inurba_marseille","lat":43.28614,"lon":5.35102,"is_reserved":false,"is_disabled":false,"rental_uris":{"android":"levelo://app?vid=2bfce80c-3bed-4ca3-b1cd-b815f1e7759e","ios":"levelo://app?vid=2bfce80c-3bed-4ca3-b1cd-b815f1e7759e"},"vehicle_type_id":"4","last_reported":1718467804,"current_range_meters":28000,"station_id":"ce4bhch2rcd13ifvqeug","pricing_plan_id":"cebpf4jnsgd1na2vs0mg"},{"bike_id":"56cb0128-545d-4647-b226-d4b35e201ab3","system_id":"levelo_inurba_marseille","lat":43.28613,"lon":5.35105,"is_reserved":false,"is_disabled":false,"rental_uris":{"android":"levelo://app?vid=56cb0128-545d-4647-b226-d4b35e201ab3","ios":"levelo://app?vid=56cb0128-545d-4647-b226-d4b35e201ab3"},"vehicle_type_id":"4","last_reported":1718467804,"current_range_meters":31200,"station_id":"ce4bhch2rcd13ifvqeug","pricing_plan_id":"cebpf4jnsgd1na2vs0mg"},{"bike_id":"5ef45a37-acac-4484-9f64-64c282105386","system_id":"levelo_inurba_marseille","lat":43.28613,"lon":5.35104,"is_reserved":false,"is_disabled":false,"rental_uris":{"android":"levelo://app?vid=5ef45a37-acac-4484-9f64-64c282105386","ios":"levelo://app?vid=5ef45a37-acac-4484-9f64-64c282105386"},"vehicle_type_id":"4","last_reported":1718467804,"current_range_meters":30800,"station_id":"ce4bhch2rcd13ifvqeug","pricing_plan_id":"cebpf4jnsgd1na2vs0mg"},{"bike_id":"3aa9df15-6516-4809-8a06-c8640080b6fe","system_id":"levelo_inurba_marseille","lat":43.28613,"lon":5.35104,"is_reserved":false,"is_disabled":false,"rental_uris":{"android":"levelo://app?vid=3aa9df15-6516-4809-8a06-c8640080b6fe","ios":"levelo://app?vid=3aa9df15-6516-4809-8a06-c8640080b6fe"},"vehicle_type_id":"4","last_reported":1718467804,"current_range_meters":400,"station_id":"ce4bhch2rcd13ifvqeug","pricing_plan_id":"cebpf4jnsgd1na2vs0mg"},{"bike_id":"9783a789-553c-458d-a0cc-f5c7eebbbf25","system_id":"levelo_inurba_marseille","lat":43.28612,"lon":5.35107,"is_reserved":false,"is_disabled":false,"rental_uris":{"android":"levelo://app?vid=9783a789-553c-458d-a0cc-f5c7eebbbf25","ios":"levelo://app?vid=9783a789-553c-458d-a0cc-f5c7eebbbf25"},"vehicle_type_id":"4","last_reported":1718467804,"current_range_meters":26000,"station_id":"ce4bhch2rcd13ifvqeug","pricing_plan_id":"cebpf4jnsgd1na2vs0mg"},{"bike_id":"ca4ff79d-7391-49e2-aa03-6a6e639b722a","system_id":"levelo_inurba_marseille","lat":43.28611,"lon":5.35108,"is_reserved":false,"is_disabled":false,"rental_uris":{"android":"levelo://app?vid=ca4ff79d-7391-49e2-aa03-6a6e639b722a","ios":"levelo://app?vid=ca4ff79d-7391-49e2-aa03-6a6e639b722a"},"vehicle_type_id":"4","last_reported":1718467804,"current_range_meters":13200,"station_id":"ce4bhch2rcd13ifvqeug","pricing_plan_id":"cebpf4jnsgd1na2vs0mg"},{"bike_id":"57b8fbcf-29dd-4c52-b68c-d6e38610f50d","system_id":"levelo_inurba_marseille","lat":43.28616,"lon":5.35092,"is_reserved":false,"is_disabled":false,"rental_uris":{"android":"levelo://app?vid=57b8fbcf-29dd-4c52-b68c-d6e38610f50d","ios":"levelo://app?vid=57b8fbcf-29dd-4c52-b68c-d6e38610f50d"},"vehicle_type_id":"4","last_reported":1718467804,"current_range_meters":2800,"station_id":"ce4bhch2rcd13ifvqeug","pricing_plan_id":"cebpf4jnsgd1na2vs0mg"},{"bike_id":"c4082452-7fa0-46ce-ac16-d90a5a9fdad4","system_id":"levelo_inurba_marseille","lat":43.28611,"lon":5.35107,"is_reserved":false,"is_disabled":false,"rental_uris":{"android":"levelo://app?vid=c4082452-7fa0-46ce-ac16-d90a5a9fdad4","ios":"levelo://app?vid=c4082452-7fa0-46ce-ac16-d90a5a9fdad4"},"vehicle_type_id":"4","last_reported":1718467804,"current_range_meters":30800,"station_id":"ce4bhch2rcd13ifvqeug","pricing_plan_id":"cebpf4jnsgd1na2vs0mg"},{"bike_id":"9d5d42cc-2b99-4fba-a444-1fd64251ea7d","system_id":"levelo_inurba_marseille","lat":43.28615,"lon":5.35094,"is_reserved":false,"is_disabled":false,"rental_uris":{"android":"levelo://app?vid=9d5d42cc-2b99-4fba-a444-1fd64251ea7d","ios":"levelo://app?vid=9d5d42cc-2b99-4fba-a444-1fd64251ea7d"},"vehicle_type_id":"4","last_reported":1718467804,"current_range_meters":8400,"station_id":"ce4bhch2rcd13ifvqeug","pricing_plan_id":"cebpf4jnsgd1na2vs0mg"},{"bike_id":"eb6653cc-b34a-46fb-98c1-c0d2db4be9d6","system_id":"levelo_inurba_marseille","lat":43.28614,"lon":5.35096,"is_reserved":false,"is_disabled":false,"rental_uris":{"android":"levelo://app?vid=eb6653cc-b34a-46fb-98c1-c0d2db4be9d6","ios":"levelo://app?vid=eb6653cc-b34a-46fb-98c1-c0d2db4be9d6"},"vehicle_type_id":"4","last_reported":1718467804,"current_range_meters":18000,"station_id":"ce4bhch2rcd13ifvqeug","pricing_plan_id":"cebpf4jnsgd1na2vs0mg"},{"bike_id":"901051d8-a5c3-4a98-8f1a-03acc8b253e4","system_id":"levelo_inurba_marseille","lat":43.28612,"lon":5.35095,"is_reserved":false,"is_disabled":false,"rental_uris":{"android":"levelo://app?vid=901051d8-a5c3-4a98-8f1a-03acc8b253e4","ios":"levelo://app?vid=901051d8-a5c3-4a98-8f1a-03acc8b253e4"},"vehicle_type_id":"4","last_reported":1718467804,"current_range_meters":19200,"station_id":"ce4bhch2rcd13ifvqeug","pricing_plan_id":"cebpf4jnsgd1na2vs0mg"},{"bike_id":"db4b5efb-acf9-4896-8cfa-921e929f34e9","system_id":"levelo_inurba_marseille","lat":43.28607,"lon":5.35105,"is_reserved":false,"is_disabled":false,"rental_uris":{"android":"levelo://app?vid=db4b5efb-acf9-4896-8cfa-921e929f34e9","ios":"levelo://app?vid=db4b5efb-acf9-4896-8cfa-921e929f34e9"},"vehicle_type_id":"4","last_reported":1718467804,"current_range_meters":31200,"station_id":"ce4bhch2rcd13ifvqeug","pricing_plan_id":"cebpf4jnsgd1na2vs0mg"},{"bike_id":"27db9e5d-1786-4c2a-bb8c-20218315de52","system_id":"levelo_inurba_marseille","lat":43.2861,"lon":5.35094,"is_reserved":false,"is_disabled":false,"rental_uris":{"android":"levelo://app?vid=27db9e5d-1786-4c2a-bb8c-20218315de52","ios":"levelo://app?vid=27db9e5d-1786-4c2a-bb8c-20218315de52"},"vehicle_type_id":"4","last_reported":1718467804,"current_range_meters":20800,"station_id":"ce4bhch2rcd13ifvqeug","pricing_plan_id":"cebpf4jnsgd1na2vs0mg"},{"bike_id":"9f010749-3c5b-4ef8-bf42-4d6f26921492","system_id":"levelo_inurba_marseille","lat":43.28607,"lon":5.351,"is_reserved":false,"is_disabled":false,"rental_uris":{"android":"levelo://app?vid=9f010749-3c5b-4ef8-bf42-4d6f26921492","ios":"levelo://app?vid=9f010749-3c5b-4ef8-bf42-4d6f26921492"},"vehicle_type_id":"4","last_reported":1718467804,"current_range_meters":30400,"station_id":"ce4bhch2rcd13ifvqeug","pricing_plan_id":"cebpf4jnsgd1na2vs0mg"},{"bike_id":"7c33ec65-e910-4ade-a2b7-09ed40bfac00","system_id":"levelo_inurba_marseille","lat":43.28408,"lon":5.37516,"is_reserved":false,"is_disabled":false,"rental_uris":{"android":"levelo://app?vid=7c33ec65-e910-4ade-a2b7-09ed40bfac00","ios":"levelo://app?vid=7c33ec65-e910-4ade-a2b7-09ed40bfac00"},"vehicle_type_id":"4","last_reported":1718467804,"current_range_meters":10400,"station_id":"ce4bh412rcd13ifvqds0","pricing_plan_id":"cebpf4jnsgd1na2vs0mg"},{"bike_id":"a91c8eb2-cb7d-43dc-9f50-3486ad413890","system_id":"levelo_inurba_marseille","lat":43.295713,"lon":5.399639,"is_reserved":false,"is_disabled":false,"rental_uris":{"android":"levelo://app?vid=a91c8eb2-cb7d-43dc-9f50-3486ad413890","ios":"levelo://app?vid=a91c8eb2-cb7d-43dc-9f50-3486ad413890"},"vehicle_type_id":"4","last_reported":1718467804,"current_range_meters":11600,"station_id":"ce4bh312rcd13ifvqdj0","pricing_plan_id":"cebpf4jnsgd1na2vs0mg"},{"bike_id":"cae184cc-605f-47d8-8668-abd85cadac46","system_id":"levelo_inurba_marseille","lat":43.285746,"lon":5.38327,"is_reserved":false,"is_disabled":false,"rental_uris":{"android":"levelo://app?vid=cae184cc-605f-47d8-8668-abd85cadac46","ios":"levelo://app?vid=cae184cc-605f-47d8-8668-abd85cadac46"},"vehicle_type_id":"4","last_reported":1718467804,"current_range_meters":0,"station_id":"","pricing_plan_id":"cebpf4jnsgd1na2vs0mg"},{"bike_id":"98f6e370-d2ad-444a-954a-913865fa42cb","system_id":"levelo_inurba_marseille","lat":43.286595,"lon":5.386795,"is_reserved":false,"is_disabled":false,"rental_uris":{"android":"levelo://app?vid=98f6e370-d2ad-444a-954a-913865fa42cb","ios":"levelo://app?vid=98f6e370-d2ad-444a-954a-913865fa42cb"},"vehicle_type_id":"4","last_reported":1718467804,"current_range_meters":17200,"station_id":"ce4bh492rcd13ifvqdug","pricing_plan_id":"cebpf4jnsgd1na2vs0mg"},{"bike_id":"6d05d788-c182-4d15-a19e-fa5ccbc41d5c","system_id":"levelo_inurba_marseille","lat":43.286595,"lon":5.386795,"is_reserved":false,"is_disabled":false,"rental_uris":{"android":"levelo://app?vid=6d05d788-c182-4d15-a19e-fa5ccbc41d5c","ios":"levelo://app?vid=6d05d788-c182-4d15-a19e-fa5ccbc41d5c"},"vehicle_type_id":"4","last_reported":1718467804,"current_range_meters":22400,"station_id":"ce4bh492rcd13ifvqdug","pricing_plan_id":"cebpf4jnsgd1na2vs0mg"},{"bike_id":"c789b1dd-1f23-4255-89e4-a6c1dd79ae5b","system_id":"levelo_inurba_marseille","lat":43.28634,"lon":5.386047,"is_reserved":false,"is_disabled":false,"rental_uris":{"android":"levelo://app?vid=c789b1dd-1f23-4255-89e4-a6c1dd79ae5b","ios":"levelo://app?vid=c789b1dd-1f23-4255-89e4-a6c1dd79ae5b"},"vehicle_type_id":"4","last_reported":1718467804,"current_range_meters":0,"station_id":"","pricing_plan_id":"cebpf4jnsgd1na2vs0mg"},{"bike_id":"e229690f-a312-45ef-b429-442417c9cbc8","system_id":"levelo_inurba_marseille","lat":43.319179,"lon":5.407725,"is_reserved":false,"is_disabled":false,"rental_uris":{"android":"levelo://app?vid=e229690f-a312-45ef-b429-442417c9cbc8","ios":"levelo://app?vid=e229690f-a312-45ef-b429-442417c9cbc8"},"vehicle_type_id":"4","last_reported":1718467804,"current_range_meters":31600,"station_id":"ce4bhq12rcd13ifvqhig","pricing_plan_id":"cebpf4jnsgd1na2vs0mg"},{"bike_id":"774f5251-ae0b-4305-9298-2bba315dcf2e","system_id":"levelo_inurba_marseille","lat":43.319179,"lon":5.407725,"is_reserved":false,"is_disabled":false,"rental_uris":{"android":"levelo://app?vid=774f5251-ae0b-4305-9298-2bba315dcf2e","ios":"levelo://app?vid=774f5251-ae0b-4305-9298-2bba315dcf2e"},"vehicle_type_id":"4","last_reported":1718467804,"current_range_meters":10800,"station_id":"ce4bhq12rcd13ifvqhig","pricing_plan_id":"cebpf4jnsgd1na2vs0mg"},{"bike_id":"4a56fdfe-237c-4eb1-9409-668452a8b93b","system_id":"levelo_inurba_marseille","lat":43.319179,"lon":5.407725,"is_reserved":false,"is_disabled":false,"rental_uris":{"android":"levelo://app?vid=4a56fdfe-237c-4eb1-9409-668452a8b93b","ios":"levelo://app?vid=4a56fdfe-237c-4eb1-9409-668452a8b93b"},"vehicle_type_id":"4","last_reported":1718467804,"current_range_meters":27200,"station_id":"ce4bhq12rcd13ifvqhig","pricing_plan_id":"cebpf4jnsgd1na2vs0mg"},{"bike_id":"18b971c1-389c-4e03-991b-3b02b70177a1","system_id":"levelo_inurba_marseille","lat":43.323464,"lon":5.406297,"is_reserved":false,"is_disabled":false,"rental_uris":{"android":"levelo://app?vid=18b971c1-389c-4e03-991b-3b02b70177a1","ios":"levelo://app?vid=18b971c1-389c-4e03-991b-3b02b70177a1"},"vehicle_type_id":"4","last_reported":1718467804,"current_range_meters":12800,"station_id":"ce4bhq92rcd13ifvqhjg","pricing_plan_id":"cebpf4jnsgd1na2vs0mg"},{"bike_id":"cb4053bb-75a6-4a28-994d-83cddf62f7bb","system_id":"levelo_inurba_marseille","lat":43.337168,"lon":5.391825,"is_reserved":false,"is_disabled":false,"rental_uris":{"android":"levelo://app?vid=cb4053bb-75a6-4a28-994d-83cddf62f7bb","ios":"levelo://app?vid=cb4053bb-75a6-4a28-994d-83cddf62f7bb"},"vehicle_type_id":"4","last_reported":1718467804,"current_range_meters":4000,"station_id":"ce4bhr92rcd13ifvqhsg","pricing_plan_id":"cebpf4jnsgd1na2vs0mg"},{"bike_id":"84676084-7589-43e6-9b81-e521584c157e","system_id":"levelo_inurba_marseille","lat":43.337168,"lon":5.391825,"is_reserved":false,"is_disabled":false,"rental_uris":{"android":"levelo://app?vid=84676084-7589-43e6-9b81-e521584c157e","ios":"levelo://app?vid=84676084-7589-43e6-9b81-e521584c157e"},"vehicle_type_id":"4","last_reported":1718467804,"current_range_meters":6800,"station_id":"ce4bhr92rcd13ifvqhsg","pricing_plan_id":"cebpf4jnsgd1na2vs0mg"},{"bike_id":"4ac683cc-1dcb-4847-b406-ffc52fb8fe38","system_id":"levelo_inurba_marseille","lat":43.33727,"lon":5.39175,"is_reserved":false,"is_disabled":false,"rental_uris":{"android":"levelo://app?vid=4ac683cc-1dcb-4847-b406-ffc52fb8fe38","ios":"levelo://app?vid=4ac683cc-1dcb-4847-b406-ffc52fb8fe38"},"vehicle_type_id":"4","last_reported":1718467804,"current_range_meters":400,"station_id":"ce4bhr92rcd13ifvqhsg","pricing_plan_id":"cebpf4jnsgd1na2vs0mg"},{"bike_id":"9523b7ca-4336-41f1-85bb-5c49a4be3e04","system_id":"levelo_inurba_marseille","lat":43.337168,"lon":5.391825,"is_reserved":false,"is_disabled":false,"rental_uris":{"android":"levelo://app?vid=9523b7ca-4336-41f1-85bb-5c49a4be3e04","ios":"levelo://app?vid=9523b7ca-4336-41f1-85bb-5c49a4be3e04"},"vehicle_type_id":"4","last_reported":1718467804,"current_range_meters":23600,"station_id":"ce4bhr92rcd13ifvqhsg","pricing_plan_id":"cebpf4jnsgd1na2vs0mg"},{"bike_id":"07e31c47-42f9-4a9b-836a-7ecf727c7da1","system_id":"levelo_inurba_marseille","lat":43.337168,"lon":5.391825,"is_reserved":false,"is_disabled":false,"rental_uris":{"android":"levelo://app?vid=07e31c47-42f9-4a9b-836a-7ecf727c7da1","ios":"levelo://app?vid=07e31c47-42f9-4a9b-836a-7ecf727c7da1"},"vehicle_type_id":"4","last_reported":1718467804,"current_range_meters":20400,"station_id":"ce4bhr92rcd13ifvqhsg","pricing_plan_id":"cebpf4jnsgd1na2vs0mg"},{"bike_id":"01e4e9b1-0ee7-440f-a35f-5235e48b5dde","system_id":"levelo_inurba_marseille","lat":43.323464,"lon":5.406297,"is_reserved":false,"is_disabled":false,"rental_uris":{"android":"levelo://app?vid=01e4e9b1-0ee7-440f-a35f-5235e48b5dde","ios":"levelo://app?vid=01e4e9b1-0ee7-440f-a35f-5235e48b5dde"},"vehicle_type_id":"4","last_reported":1718467804,"current_range_meters":26800,"station_id":"ce4bhq92rcd13ifvqhjg","pricing_plan_id":"cebpf4jnsgd1na2vs0mg"},{"bike_id":"9846c02f-92de-4ccf-83eb-b029d6d33dc3","system_id":"levelo_inurba_marseille","lat":43.323464,"lon":5.406297,"is_reserved":false,"is_disabled":false,"rental_uris":{"android":"levelo://app?vid=9846c02f-92de-4ccf-83eb-b029d6d33dc3","ios":"levelo://app?vid=9846c02f-92de-4ccf-83eb-b029d6d33dc3"},"vehicle_type_id":"4","last_reported":1718467804,"current_range_meters":16400,"station_id":"ce4bhq92rcd13ifvqhjg","pricing_plan_id":"cebpf4jnsgd1na2vs0mg"},{"bike_id":"71a9dcd5-5693-4d71-b905-1a93e63a8232","system_id":"levelo_inurba_marseille","lat":43.284793,"lon":5.384119,"is_reserved":false,"is_disabled":false,"rental_uris":{"android":"levelo://app?vid=71a9dcd5-5693-4d71-b905-1a93e63a8232","ios":"levelo://app?vid=71a9dcd5-5693-4d71-b905-1a93e63a8232"},"vehicle_type_id":"4","last_reported":1718467804,"current_range_meters":0,"station_id":"ce4bh512rcd13ifvqe3g","pricing_plan_id":"cebpf4jnsgd1na2vs0mg"},{"bike_id":"3a72c8d0-37fc-4af2-be31-3dcda2b1e1f5","system_id":"levelo_inurba_marseille","lat":43.284787,"lon":5.384116,"is_reserved":false,"is_disabled":false,"rental_uris":{"android":"levelo://app?vid=3a72c8d0-37fc-4af2-be31-3dcda2b1e1f5","ios":"levelo://app?vid=3a72c8d0-37fc-4af2-be31-3dcda2b1e1f5"},"vehicle_type_id":"4","last_reported":1718467804,"current_range_meters":25200,"station_id":"ce4bh512rcd13ifvqe3g","pricing_plan_id":"cebpf4jnsgd1na2vs0mg"},{"bike_id":"f84a0702-80ed-4d76-820e-426516c385be","system_id":"levelo_inurba_marseille","lat":43.28436,"lon":5.35003,"is_reserved":false,"is_disabled":false,"rental_uris":{"android":"levelo://app?vid=f84a0702-80ed-4d76-820e-426516c385be","ios":"levelo://app?vid=f84a0702-80ed-4d76-820e-426516c385be"},"vehicle_type_id":"4","last_reported":1718467804,"current_range_meters":29200,"station_id":"ce4bhbh2rcd13ifvqepg","pricing_plan_id":"cebpf4jnsgd1na2vs0mg"},{"bike_id":"0d47371e-8716-4261-aabc-0f3aa7c7f2fe","system_id":"levelo_inurba_marseille","lat":43.283494,"lon":5.380945,"is_reserved":false,"is_disabled":false,"rental_uris":{"android":"levelo://app?vid=0d47371e-8716-4261-aabc-0f3aa7c7f2fe","ios":"levelo://app?vid=0d47371e-8716-4261-aabc-0f3aa7c7f2fe"},"vehicle_type_id":"4","last_reported":1718467804,"current_range_meters":6400,"station_id":"ce4bh412rcd13ifvqdr0","pricing_plan_id":"cebpf4jnsgd1na2vs0mg"},{"bike_id":"3274ea65-98ab-4d14-a6fd-a4d96583259e","system_id":"levelo_inurba_marseille","lat":43.284219,"lon":5.3497,"is_reserved":false,"is_disabled":false,"rental_uris":{"android":"levelo://app?vid=3274ea65-98ab-4d14-a6fd-a4d96583259e","ios":"levelo://app?vid=3274ea65-98ab-4d14-a6fd-a4d96583259e"},"vehicle_type_id":"4","last_reported":1718467804,"current_range_meters":24000,"station_id":"ce4bhbh2rcd13ifvqepg","pricing_plan_id":"cebpf4jnsgd1na2vs0mg"},{"bike_id":"e5a79bf6-2ffe-44f3-88bc-775c16aba124","system_id":"levelo_inurba_marseille","lat":43.283494,"lon":5.380945,"is_reserved":false,"is_disabled":false,"rental_uris":{"android":"levelo://app?vid=e5a79bf6-2ffe-44f3-88bc-775c16aba124","ios":"levelo://app?vid=e5a79bf6-2ffe-44f3-88bc-775c16aba124"},"vehicle_type_id":"4","last_reported":1718467804,"current_range_meters":6000,"station_id":"ce4bh412rcd13ifvqdr0","pricing_plan_id":"cebpf4jnsgd1na2vs0mg"},{"bike_id":"180e5622-8ee0-4016-ad72-8c4c3b1c3652","system_id":"levelo_inurba_marseille","lat":43.28421,"lon":5.35003,"is_reserved":false,"is_disabled":false,"rental_uris":{"android":"levelo://app?vid=180e5622-8ee0-4016-ad72-8c4c3b1c3652","ios":"levelo://app?vid=180e5622-8ee0-4016-ad72-8c4c3b1c3652"},"vehicle_type_id":"4","last_reported":1718467804,"current_range_meters":15600,"station_id":"ce4bhbh2rcd13ifvqepg","pricing_plan_id":"cebpf4jnsgd1na2vs0mg"},{"bike_id":"6e585306-4ffe-4003-8b26-597e5ff3e791","system_id":"levelo_inurba_marseille","lat":43.283494,"lon":5.380945,"is_reserved":false,"is_disabled":false,"rental_uris":{"android":"levelo://app?vid=6e585306-4ffe-4003-8b26-597e5ff3e791","ios":"levelo://app?vid=6e585306-4ffe-4003-8b26-597e5ff3e791"},"vehicle_type_id":"4","last_reported":1718467804,"current_range_meters":3600,"station_id":"ce4bh412rcd13ifvqdr0","pricing_plan_id":"cebpf4jnsgd1na2vs0mg"},{"bike_id":"67c5b83d-f784-4301-9cc4-2fc5293ec237","system_id":"levelo_inurba_marseille","lat":43.284219,"lon":5.3497,"is_reserved":false,"is_disabled":false,"rental_uris":{"android":"levelo://app?vid=67c5b83d-f784-4301-9cc4-2fc5293ec237","ios":"levelo://app?vid=67c5b83d-f784-4301-9cc4-2fc5293ec237"},"vehicle_type_id":"4","last_reported":1718467804,"current_range_meters":27600,"station_id":"ce4bhbh2rcd13ifvqepg","pricing_plan_id":"cebpf4jnsgd1na2vs0mg"},{"bike_id":"b32da819-bc8b-42e5-8208-2d6fbad6b0a4","system_id":"levelo_inurba_marseille","lat":43.284219,"lon":5.3497,"is_reserved":false,"is_disabled":false,"rental_uris":{"android":"levelo://app?vid=b32da819-bc8b-42e5-8208-2d6fbad6b0a4","ios":"levelo://app?vid=b32da819-bc8b-42e5-8208-2d6fbad6b0a4"},"vehicle_type_id":"4","last_reported":1718467804,"current_range_meters":13200,"station_id":"ce4bhbh2rcd13ifvqepg","pricing_plan_id":"cebpf4jnsgd1na2vs0mg"},{"bike_id":"340171ba-2e95-4d80-8d64-c614cc46f623","system_id":"levelo_inurba_marseille","lat":43.284214,"lon":5.349706,"is_reserved":false,"is_disabled":false,"rental_uris":{"android":"levelo://app?vid=340171ba-2e95-4d80-8d64-c614cc46f623","ios":"levelo://app?vid=340171ba-2e95-4d80-8d64-c614cc46f623"},"vehicle_type_id":"4","last_reported":1718467804,"current_range_meters":22800,"station_id":"ce4bhbh2rcd13ifvqepg","pricing_plan_id":"cebpf4jnsgd1na2vs0mg"},{"bike_id":"74eefe45-04d9-4b87-8abc-7079bc4ddcb2","system_id":"levelo_inurba_marseille","lat":43.284242,"lon":5.349836,"is_reserved":false,"is_disabled":false,"rental_uris":{"android":"levelo://app?vid=74eefe45-04d9-4b87-8abc-7079bc4ddcb2","ios":"levelo://app?vid=74eefe45-04d9-4b87-8abc-7079bc4ddcb2"},"vehicle_type_id":"4","last_reported":1718467804,"current_range_meters":2800,"station_id":"ce4bhbh2rcd13ifvqepg","pricing_plan_id":"cebpf4jnsgd1na2vs0mg"},{"bike_id":"de1cd8b0-36cb-4f47-bc57-16ae7b4d6004","system_id":"levelo_inurba_marseille","lat":43.28423,"lon":5.34984,"is_reserved":false,"is_disabled":false,"rental_uris":{"android":"levelo://app?vid=de1cd8b0-36cb-4f47-bc57-16ae7b4d6004","ios":"levelo://app?vid=de1cd8b0-36cb-4f47-bc57-16ae7b4d6004"},"vehicle_type_id":"4","last_reported":1718467804,"current_range_meters":31200,"station_id":"ce4bhbh2rcd13ifvqepg","pricing_plan_id":"cebpf4jnsgd1na2vs0mg"},{"bike_id":"30d7b588-a2db-4d31-9317-154640376d00","system_id":"levelo_inurba_marseille","lat":43.284219,"lon":5.3497,"is_reserved":false,"is_disabled":false,"rental_uris":{"android":"levelo://app?vid=30d7b588-a2db-4d31-9317-154640376d00","ios":"levelo://app?vid=30d7b588-a2db-4d31-9317-154640376d00"},"vehicle_type_id":"4","last_reported":1718467804,"current_range_meters":4400,"station_id":"ce4bhbh2rcd13ifvqepg","pricing_plan_id":"cebpf4jnsgd1na2vs0mg"},{"bike_id":"a7c7a2fd-9119-485f-ad7a-3990168979e5","system_id":"levelo_inurba_marseille","lat":43.284219,"lon":5.3497,"is_reserved":false,"is_disabled":false,"rental_uris":{"android":"levelo://app?vid=a7c7a2fd-9119-485f-ad7a-3990168979e5","ios":"levelo://app?vid=a7c7a2fd-9119-485f-ad7a-3990168979e5"},"vehicle_type_id":"4","last_reported":1718467804,"current_range_meters":12000,"station_id":"ce4bhbh2rcd13ifvqepg","pricing_plan_id":"cebpf4jnsgd1na2vs0mg"},{"bike_id":"7280e5ba-8fa7-4523-914d-9f0a5f9df919","system_id":"levelo_inurba_marseille","lat":43.284191,"lon":5.34989,"is_reserved":false,"is_disabled":false,"rental_uris":{"android":"levelo://app?vid=7280e5ba-8fa7-4523-914d-9f0a5f9df919","ios":"levelo://app?vid=7280e5ba-8fa7-4523-914d-9f0a5f9df919"},"vehicle_type_id":"4","last_reported":1718467804,"current_range_meters":19200,"station_id":"ce4bhbh2rcd13ifvqepg","pricing_plan_id":"cebpf4jnsgd1na2vs0mg"},{"bike_id":"e0bd5db5-3bab-43b6-baa9-e07dcc461ea0","system_id":"levelo_inurba_marseille","lat":43.284196,"lon":5.349829,"is_reserved":false,"is_disabled":false,"rental_uris":{"android":"levelo://app?vid=e0bd5db5-3bab-43b6-baa9-e07dcc461ea0","ios":"levelo://app?vid=e0bd5db5-3bab-43b6-baa9-e07dcc461ea0"},"vehicle_type_id":"4","last_reported":1718467804,"current_range_meters":16800,"station_id":"ce4bhbh2rcd13ifvqepg","pricing_plan_id":"cebpf4jnsgd1na2vs0mg"},{"bike_id":"5f8350a7-fc44-46f1-b075-7466ccb6e352","system_id":"levelo_inurba_marseille","lat":43.284214,"lon":5.349706,"is_reserved":false,"is_disabled":false,"rental_uris":{"android":"levelo://app?vid=5f8350a7-fc44-46f1-b075-7466ccb6e352","ios":"levelo://app?vid=5f8350a7-fc44-46f1-b075-7466ccb6e352"},"vehicle_type_id":"4","last_reported":1718467804,"current_range_meters":11200,"station_id":"ce4bhbh2rcd13ifvqepg","pricing_plan_id":"cebpf4jnsgd1na2vs0mg"},{"bike_id":"fefca882-52d2-4241-9980-be440aeffba0","system_id":"levelo_inurba_marseille","lat":43.28412,"lon":5.349843,"is_reserved":false,"is_disabled":false,"rental_uris":{"android":"levelo://app?vid=fefca882-52d2-4241-9980-be440aeffba0","ios":"levelo://app?vid=fefca882-52d2-4241-9980-be440aeffba0"},"vehicle_type_id":"4","last_reported":1718467804,"current_range_meters":11600,"station_id":"ce4bhbh2rcd13ifvqepg","pricing_plan_id":"cebpf4jnsgd1na2vs0mg"},{"bike_id":"ae89693b-1322-4fab-bc13-ad773dc66ee2","system_id":"levelo_inurba_marseille","lat":43.284047,"lon":5.349787,"is_reserved":false,"is_disabled":false,"rental_uris":{"android":"levelo://app?vid=ae89693b-1322-4fab-bc13-ad773dc66ee2","ios":"levelo://app?vid=ae89693b-1322-4fab-bc13-ad773dc66ee2"},"vehicle_type_id":"4","last_reported":1718467804,"current_range_meters":16800,"station_id":"ce4bhbh2rcd13ifvqepg","pricing_plan_id":"cebpf4jnsgd1na2vs0mg"},{"bike_id":"321b7c5d-fccd-47f4-a13f-759a33c8276b","system_id":"levelo_inurba_marseille","lat":43.289363,"lon":5.396322,"is_reserved":false,"is_disabled":false,"rental_uris":{"android":"levelo://app?vid=321b7c5d-fccd-47f4-a13f-759a33c8276b","ios":"levelo://app?vid=321b7c5d-fccd-47f4-a13f-759a33c8276b"},"vehicle_type_id":"4","last_reported":1718467804,"current_range_meters":10400,"station_id":"ce4bh3h2rcd13ifvqdn0","pricing_plan_id":"cebpf4jnsgd1na2vs0mg"},{"bike_id":"e588e751-ffdc-44c9-ac95-1b37888c4f80","system_id":"levelo_inurba_marseille","lat":43.292724,"lon":5.401131,"is_reserved":false,"is_disabled":false,"rental_uris":{"android":"levelo://app?vid=e588e751-ffdc-44c9-ac95-1b37888c4f80","ios":"levelo://app?vid=e588e751-ffdc-44c9-ac95-1b37888c4f80"},"vehicle_type_id":"4","last_reported":1718467804,"current_range_meters":19200,"station_id":"ce4bh312rcd13ifvqdk0","pricing_plan_id":"cebpf4jnsgd1na2vs0mg"},{"bike_id":"c557bfd4-aebd-43a5-9360-fa1b2bb59801","system_id":"levelo_inurba_marseille","lat":43.292724,"lon":5.401131,"is_reserved":false,"is_disabled":false,"rental_uris":{"android":"levelo://app?vid=c557bfd4-aebd-43a5-9360-fa1b2bb59801","ios":"levelo://app?vid=c557bfd4-aebd-43a5-9360-fa1b2bb59801"},"vehicle_type_id":"4","last_reported":1718467804,"current_range_meters":20800,"station_id":"ce4bh312rcd13ifvqdk0","pricing_plan_id":"cebpf4jnsgd1na2vs0mg"},{"bike_id":"8092f3f9-c260-4bcf-bd28-ec1e69e9111c","system_id":"levelo_inurba_marseille","lat":43.28275,"lon":5.35072,"is_reserved":false,"is_disabled":false,"rental_uris":{"android":"levelo://app?vid=8092f3f9-c260-4bcf-bd28-ec1e69e9111c","ios":"levelo://app?vid=8092f3f9-c260-4bcf-bd28-ec1e69e9111c"},"vehicle_type_id":"4","last_reported":1718467804,"current_range_meters":4400,"station_id":"ce4bhbp2rcd13ifvqerg","pricing_plan_id":"cebpf4jnsgd1na2vs0mg"},{"bike_id":"54be03c2-ba3c-4981-ad4a-048ec39d910a","system_id":"levelo_inurba_marseille","lat":43.282744,"lon":5.350533,"is_reserved":false,"is_disabled":false,"rental_uris":{"android":"levelo://app?vid=54be03c2-ba3c-4981-ad4a-048ec39d910a","ios":"levelo://app?vid=54be03c2-ba3c-4981-ad4a-048ec39d910a"},"vehicle_type_id":"4","last_reported":1718467804,"current_range_meters":31200,"station_id":"ce4bhbp2rcd13ifvqerg","pricing_plan_id":"cebpf4jnsgd1na2vs0mg"},{"bike_id":"7292ebcf-087b-468c-afae-f33103993642","system_id":"levelo_inurba_marseille","lat":43.282754,"lon":5.350519,"is_reserved":false,"is_disabled":false,"rental_uris":{"android":"levelo://app?vid=7292ebcf-087b-468c-afae-f33103993642","ios":"levelo://app?vid=7292ebcf-087b-468c-afae-f33103993642"},"vehicle_type_id":"4","last_reported":1718467804,"current_range_meters":28400,"station_id":"ce4bhbp2rcd13ifvqerg","pricing_plan_id":"cebpf4jnsgd1na2vs0mg"},{"bike_id":"93147210-c399-436c-9e0c-96a02448021a","system_id":"levelo_inurba_marseille","lat":43.282744,"lon":5.350533,"is_reserved":false,"is_disabled":false,"rental_uris":{"android":"levelo://app?vid=93147210-c399-436c-9e0c-96a02448021a","ios":"levelo://app?vid=93147210-c399-436c-9e0c-96a02448021a"},"vehicle_type_id":"4","last_reported":1718467804,"current_range_meters":30800,"station_id":"ce4bhbp2rcd13ifvqerg","pricing_plan_id":"cebpf4jnsgd1na2vs0mg"},{"bike_id":"43185f57-1641-4170-bad5-5a3e4c246236","system_id":"levelo_inurba_marseille","lat":43.282754,"lon":5.350519,"is_reserved":false,"is_disabled":false,"rental_uris":{"android":"levelo://app?vid=43185f57-1641-4170-bad5-5a3e4c246236","ios":"levelo://app?vid=43185f57-1641-4170-bad5-5a3e4c246236"},"vehicle_type_id":"4","last_reported":1718467804,"current_range_meters":24400,"station_id":"ce4bhbp2rcd13ifvqerg","pricing_plan_id":"cebpf4jnsgd1na2vs0mg"},{"bike_id":"590b3cb1-d7bd-4348-9860-496a3a704886","system_id":"levelo_inurba_marseille","lat":43.282754,"lon":5.350519,"is_reserved":false,"is_disabled":false,"rental_uris":{"android":"levelo://app?vid=590b3cb1-d7bd-4348-9860-496a3a704886","ios":"levelo://app?vid=590b3cb1-d7bd-4348-9860-496a3a704886"},"vehicle_type_id":"4","last_reported":1718467804,"current_range_meters":30800,"station_id":"ce4bhbp2rcd13ifvqerg","pricing_plan_id":"cebpf4jnsgd1na2vs0mg"},{"bike_id":"19ee2293-1425-4187-9376-56e20a232db0","system_id":"levelo_inurba_marseille","lat":43.28367,"lon":5.38641,"is_reserved":false,"is_disabled":false,"rental_uris":{"android":"levelo://app?vid=19ee2293-1425-4187-9376-56e20a232db0","ios":"levelo://app?vid=19ee2293-1425-4187-9376-56e20a232db0"},"vehicle_type_id":"4","last_reported":1718467804,"current_range_meters":21200,"station_id":"ce4bh492rcd13ifvqdvg","pricing_plan_id":"cebpf4jnsgd1na2vs0mg"},{"bike_id":"45a473ff-d07c-40f9-8961-d2dfabf0427c","system_id":"levelo_inurba_marseille","lat":43.283502,"lon":5.386471,"is_reserved":false,"is_disabled":false,"rental_uris":{"android":"levelo://app?vid=45a473ff-d07c-40f9-8961-d2dfabf0427c","ios":"levelo://app?vid=45a473ff-d07c-40f9-8961-d2dfabf0427c"},"vehicle_type_id":"4","last_reported":1718467804,"current_range_meters":10000,"station_id":"ce4bh492rcd13ifvqdvg","pricing_plan_id":"cebpf4jnsgd1na2vs0mg"},{"bike_id":"ff40198d-52a1-4d75-be31-75c858b33be6","system_id":"levelo_inurba_marseille","lat":43.280382,"lon":5.369291,"is_reserved":false,"is_disabled":false,"rental_uris":{"android":"levelo://app?vid=ff40198d-52a1-4d75-be31-75c858b33be6","ios":"levelo://app?vid=ff40198d-52a1-4d75-be31-75c858b33be6"},"vehicle_type_id":"4","last_reported":1718467804,"current_range_meters":1200,"station_id":"ce4bha12rcd13ifvqef0","pricing_plan_id":"cebpf4jnsgd1na2vs0mg"},{"bike_id":"4374aa38-71ea-4327-93b7-243fdbb76e53","system_id":"levelo_inurba_marseille","lat":43.290412,"lon":5.399633,"is_reserved":false,"is_disabled":false,"rental_uris":{"android":"levelo://app?vid=4374aa38-71ea-4327-93b7-243fdbb76e53","ios":"levelo://app?vid=4374aa38-71ea-4327-93b7-243fdbb76e53"},"vehicle_type_id":"4","last_reported":1718467804,"current_range_meters":0,"station_id":"ce4bh392rcd13ifvqdm0","pricing_plan_id":"cebpf4jnsgd1na2vs0mg"},