{"last_updated":1721499019,"ttl":30,"version":"2.2","data":{"bikes":[{"bike_id":"d1d81e54-fed9-443c-944a-6820c8a62e66","system_id":"levelo_inurba_marseille","lat":43.31251,"lon":5.36793,"is_reserved":false,"is_disabled":false,"rental_uris":{"android":"levelo://app?vid=d1d81e54-fed9-443c-944a-6820c8a62e66","ios":"levelo://app?vid=d1d81e54-fed9-443c-944a-6820c8a62e66"},"vehicle_type_id":"4","last_reported":1721499019,"current_range_meters":0,"station_id":"","pricing_plan_id":"cebpf4jnsgd1na2vs0mg"},{"bike_id":"926ad79d-8b06-47c3-9e83-59910d54321d","system_id":"levelo_inurba_marseille","lat":43.314811,"lon":5.373103,"is_reserved":false,"is_disabled":false,"rental_uris":{"android":"levelo://app?vid=926ad79d-8b06-47c3-9e83-59910d54321d","ios":"levelo://app?vid=926ad79d-8b06-47c3-9e83-59910d54321d"},"vehicle_type_id":"4","last_reported":1721499019,"current_range_meters":0,"station_id":"ce4bgt12rcd13ifvqcd0","pricing_plan_id":"cebpf4jnsgd1na2vs0mg"},{"bike_id":"d8104fe6-a885-41e2-ae54-285e051ee53d","system_id":"levelo_inurba_marseille","lat":43.309034,"lon":5.371783,"is_reserved":false,"is_disabled":false,"rental_uris":{"android":"levelo://app?vid=d8104fe6-a885-41e2-ae54-285e051ee53d","ios":"levelo://app?vid=d8104fe6-a885-41e2-ae54-285e051ee53d"},"vehicle_type_id":"4","last_reported":1721499019,"current_range_meters":0,"station_id":"ce4bguh2rcd13ifvqckg","pricing_plan_id":"cebpf4jnsgd1na2vs0mg"},{"bike_id":"2481a59d-792e-41c5-8809-9ee1a3af015d","system_id":"levelo_inurba_marseille","lat":43.309034,"lon":5.371783,"is_reserved":false,"is_disabled":false,"rental_uris":{"android":"levelo://app?vid=2481a59d-792e-41c5-8809-9ee1a3af015d","ios":"levelo://app?vid=2481a59d-792e-41c5-8809-9ee1a3af015d"},"vehicle_type_id":"4","last_reported":1721499019,"current_range_meters":12000,"station_id":"ce4bguh2rcd13ifvqckg","pricing_plan_id":"cebpf4jnsgd1na2vs0mg"},{"bike_id":"842c8b92-a385-437f-bd78-934722be9bd0","system_id":"levelo_inurba_marseille","lat":43.309034,"lon":5.371783,"is_reserved":false,"is_disabled":false,"rental_uris":{"android":"levelo://app?vid=842c8b92-a385-437f-bd78-934722be9bd0","ios":"levelo://app?vid=842c8b92-a385-437f-bd78-934722be9bd0"},"vehicle_type_id":"4","last_reported":1721499019,"current_range_meters":400,"station_id":"ce4bguh2rcd13ifvqckg","pricing_plan_id":"cebpf4jnsgd1na2vs0mg"},{"bike_id":"32bf86fb-39c7-4520-b12e-60e8f91c25e9","system_id":"levelo_inurba_marseille","lat":43.30643,"lon":5.36802,"is_reserved":false,"is_disabled":false,"rental_uris":{"android":"levelo://app?vid=32bf86fb-39c7-4520-b12e-60e8f91c25e9","ios":"levelo://app?vid=32bf86fb-39c7-4520-b12e-60e8f91c25e9"},"vehicle_type_id":"4","last_reported":1721499019,"current_range_meters":30400,"station_id":"","pricing_plan_id":"cebpf4jnsgd1na2vs0mg"},{"bike_id":"7324c588-c2c0-4663-9d1d-949945d173fe","system_id":"levelo_inurba_marseille","lat":43.305989,"lon":5.37225,"is_reserved":false,"is_disabled":false,"rental_uris":{"android":"levelo://app?vid=7324c588-c2c0-4663-9d1d-949945d173fe","ios":"levelo://app?vid=7324c588-c2c0-4663-9d1d-949945d173fe"},"vehicle_type_id":"4","last_reported":1721499019,"current_range_meters":1200,"station_id":"ce4bgqh2rcd13ifvqc4g","pricing_plan_id":"cebpf4jnsgd1na2vs0mg"},{"bike_id":"8d87a287-a8b0-4855-90f3-43c005a54446","system_id":"levelo_inurba_marseille","lat":43.305989,"lon":5.37225,"is_reserved":false,"is_disabled":false,"rental_uris":{"android":"levelo://app?vid=8d87a287-a8b0-4855-90f3-43c005a54446","ios":"levelo://app?vid=8d87a287-a8b0-4855-90f3-43c005a54446"},"vehicle_type_id":"4","last_reported":1721499019,"current_range_meters":0,"station_id":"ce4bgqh2rcd13ifvqc4g","pricing_plan_id":"cebpf4jnsgd1na2vs0mg"},{"bike_id":"7f4a288c-8938-48e3-988a-dd5ca356f5cc","system_id":"levelo_inurba_marseille","lat":43.30605,"lon":5.37236,"is_reserved":false,"is_disabled":false,"rental_uris":{"android":"levelo://app?vid=7f4a288c-8938-48e3-988a-dd5ca356f5cc","ios":"levelo://app?vid=7f4a288c-8938-48e3-988a-dd5ca356f5cc"},"vehicle_type_id":"4","last_reported":1721499019,"current_range_meters":20400,"station_id":"ce4bgqh2rcd13ifvqc4g","pricing_plan_id":"cebpf4jnsgd1na2vs0mg"},{"bike_id":"0e25956e-1846-47a2-bbef-d83c27c2c5c4","system_id":"levelo_inurba_marseille","lat":43.305989,"lon":5.37225,"is_reserved":false,"is_disabled":false,"rental_uris":{"android":"levelo://app?vid=0e25956e-1846-47a2-bbef-d83c27c2c5c4","ios":"levelo://app?vid=0e25956e-1846-47a2-bbef-d83c27c2c5c4"},"vehicle_type_id":"4","last_reported":1721499019,"current_range_meters":11200,"station_id":"ce4bgqh2rcd13ifvqc4g","pricing_plan_id":"cebpf4jnsgd1na2vs0mg"},{"bike_id":"a5647cad-9a9f-406a-b4b3-7a7a47e15ff6","system_id":"levelo_inurba_marseille","lat":43.31102,"lon":5.377673,"is_reserved":false,"is_disabled":false,"rental_uris":{"android":"levelo://app?vid=a5647cad-9a9f-406a-b4b3-7a7a47e15ff6","ios":"levelo://app?vid=a5647cad-9a9f-406a-b4b3-7a7a47e15ff6"},"vehicle_type_id":"4","last_reported":1721499019,"current_range_meters":0,"station_id":"ce4bgt92rcd13ifvqcg0","pricing_plan_id":"cebpf4jnsgd1na2vs0mg"},{"bike_id":"56ba189d-417a-4b1c-b1b5-db19c4ab40c7","system_id":"levelo_inurba_marseille","lat":43.315289,"lon":5.380349,"is_reserved":false,"is_disabled":false,"rental_uris":{"android":"levelo://app?vid=56ba189d-417a-4b1c-b1b5-db19c4ab40c7","ios":"levelo://app?vid=56ba189d-417a-4b1c-b1b5-db19c4ab40c7"},"vehicle_type_id":"4","last_reported":1721499019,"current_range_meters":4000,"station_id":"ce4bhsp2rcd13ifvqi50","pricing_plan_id":"cebpf4jnsgd1na2vs0mg"},{"bike_id":"13be5902-1cda-47a9-8291-eed046f635c1","system_id":"levelo_inurba_marseille","lat":43.315289,"lon":5.380349,"is_reserved":false,"is_disabled":false,"rental_uris":{"android":"levelo://app?vid=13be5902-1cda-47a9-8291-eed046f635c1","ios":"levelo://app?vid=13be5902-1cda-47a9-8291-eed046f635c1"},"vehicle_type_id":"4","last_reported":1721499019,"current_range_meters":12800,"station_id":"ce4bhsp2rcd13ifvqi50","pricing_plan_id":"cebpf4jnsgd1na2vs0mg"},{"bike_id":"a8034226-0433-4157-9bd2-bdaaf2479a49","system_id":"levelo_inurba_marseille","lat":43.301939,"lon":5.366286,"is_reserved":false,"is_disabled":false,"rental_uris":{"android":"levelo://app?vid=a8034226-0433-4157-9bd2-bdaaf2479a49","ios":"levelo://app?vid=a8034226-0433-4157-9bd2-bdaaf2479a49"},"vehicle_type_id":"4","last_reported":1721499019,"current_range_meters":9200,"station_id":"ce4bgrh2rcd13ifvqc8g","pricing_plan_id":"cebpf4jnsgd1na2vs0mg"},{"bike_id":"e3453838-5aab-41f8-8b66-5abb0920278f","system_id":"levelo_inurba_marseille","lat":43.30808,"lon":5.38153,"is_reserved":false,"is_disabled":false,"rental_uris":{"android":"levelo://app?vid=e3453838-5aab-41f8-8b66-5abb0920278f","ios":"levelo://app?vid=e3453838-5aab-41f8-8b66-5abb0920278f"},"vehicle_type_id":"4","last_reported":1721499019,"current_range_meters":0,"station_id":"ce4bgt12rcd13ifvqce0","pricing_plan_id":"cebpf4jnsgd1na2vs0mg"},{"bike_id":"a8cecd93-f7da-4fb8-9aa9-56f472262cc4","system_id":"levelo_inurba_marseille","lat":43.308033,"lon":5.381513,"is_reserved":false,"is_disabled":false,"rental_uris":{"android":"levelo://app?vid=a8cecd93-f7da-4fb8-9aa9-56f472262cc4","ios":"levelo://app?vid=a8cecd93-f7da-4fb8-9aa9-56f472262cc4"},"vehicle_type_id":"4","last_reported":1721499019,"current_range_meters":0,"station_id":"ce4bgt12rcd13ifvqce0","pricing_plan_id":"cebpf4jnsgd1na2vs0mg"},{"bike_id":"5be1716b-fbd2-4cf9-84f6-805d341cb5f4","system_id":"levelo_inurba_marseille","lat":43.304606,"lon":5.379026,"is_reserved":false,"is_disabled":false,"rental_uris":{"android":"levelo://app?vid=5be1716b-fbd2-4cf9-84f6-805d341cb5f4","ios":"levelo://app?vid=5be1716b-fbd2-4cf9-84f6-805d341cb5f4"},"vehicle_type_id":"4","last_reported":1721499019,"current_range_meters":0,"station_id":"ce4bgup2rcd13ifvqcn0","pricing_plan_id":"cebpf4jnsgd1na2vs0mg"},{"bike_id":"96190691-5c79-4f2a-af95-3f66f23d1b5b","system_id":"levelo_inurba_marseille","lat":43.32475,"lon":5.36584,"is_reserved":false,"is_disabled":false,"rental_uris":{"android":"levelo://app?vid=96190691-5c79-4f2a-af95-3f66f23d1b5b","ios":"levelo://app?vid=96190691-5c79-4f2a-af95-3f66f23d1b5b"},"vehicle_type_id":"4","last_reported":1721499019,"current_range_meters":1200,"station_id":"ce4bhs12rcd13ifvqhvg","pricing_plan_id":"cebpf4jnsgd1na2vs0mg"},{"bike_id":"751b495a-ded5-440d-924d-2bf060460f69","system_id":"levelo_inurba_marseille","lat":43.32481,"lon":5.36576,"is_reserved":false,"is_disabled":false,"rental_uris":{"android":"levelo://app?vid=751b495a-ded5-440d-924d-2bf060460f69","ios":"levelo://app?vid=751b495a-ded5-440d-924d-2bf060460f69"},"vehicle_type_id":"4","last_reported":1721499019,"current_range_meters":17200,"station_id":"ce4bhs12rcd13ifvqhvg","pricing_plan_id":"cebpf4jnsgd1na2vs0mg"},{"bike_id":"2baca4ef-0d69-4564-91f0-6aa88a9ace5b","system_id":"levelo_inurba_marseille","lat":43.324842,"lon":5.36577,"is_reserved":false,"is_disabled":false,"rental_uris":{"android":"levelo://app?vid=2baca4ef-0d69-4564-91f0-6aa88a9ace5b","ios":"levelo://app?vid=2baca4ef-0d69-4564-91f0-6aa88a9ace5b"},"vehicle_type_id":"4","last_reported":1721499019,"current_range_meters":11200,"station_id":"ce4bhs12rcd13ifvqhvg","pricing_plan_id":"cebpf4jnsgd1na2vs0mg"},{"bike_id":"feefa1db-43c9-45bf-adaf-8904865759cc","system_id":"levelo_inurba_marseille","lat":43.324771,"lon":5.36557,"is_reserved":false,"is_disabled":false,"rental_uris":{"android":"levelo://app?vid=feefa1db-43c9-45bf-adaf-8904865759cc","ios":"levelo://app?vid=feefa1db-43c9-45bf-adaf-8904865759cc"},"vehicle_type_id":"4","last_reported":1721499019,"current_range_meters":6800,"station_id":"ce4bhs12rcd13ifvqhvg","pricing_plan_id":"cebpf4jnsgd1na2vs0mg"},{"bike_id":"96442150-d32c-44ac-a637-519fd25b0f97","system_id":"levelo_inurba_marseille","lat":43.324771,"lon":5.36557,"is_reserved":false,"is_disabled":false,"rental_uris":{"android":"levelo://app?vid=96442150-d32c-44ac-a637-519fd25b0f97","ios":"levelo://app?vid=96442150-d32c-44ac-a637-519fd25b0f97"},"vehicle_type_id":"4","last_reported":1721499019,"current_range_meters":13600,"station_id":"ce4bhs12rcd13ifvqhvg","pricing_plan_id":"cebpf4jnsgd1na2vs0mg"},{"bike_id":"83d0d2a4-db84-49e3-92b6-3a18fd57e226","system_id":"levelo_inurba_marseille","lat":43.324771,"lon":5.36557,"is_reserved":false,"is_disabled":false,"rental_uris":{"android":"levelo://app?vid=83d0d2a4-db84-49e3-92b6-3a18fd57e226","ios":"levelo://app?vid=83d0d2a4-db84-49e3-92b6-3a18fd57e226"},"vehicle_type_id":"4","last_reported":1721499019,"current_range_meters":10400,"station_id":"ce4bhs12rcd13ifvqhvg","pricing_plan_id":"cebpf4jnsgd1na2vs0mg"},{"bike_id":"c7503cdd-741a-45f8-a876-c49cfcd462b9","system_id":"levelo_inurba_marseille","lat":43.310804,"lon":5.38359,"is_reserved":false,"is_disabled":false,"rental_uris":{"android":"levelo://app?vid=c7503cdd-741a-45f8-a876-c49cfcd462b9","ios":"levelo://app?vid=c7503cdd-741a-45f8-a876-c49cfcd462b9"},"vehicle_type_id":"4","last_reported":1721499019,"current_range_meters":5200,"station_id":"ce4bgv92rcd13ifvqcr0","pricing_plan_id":"cebpf4jnsgd1na2vs0mg"},{"bike_id":"7d77fb66-2e81-487c-ba0a-519429ba6ddb","system_id":"levelo_inurba_marseille","lat":43.3014,"lon":5.37421,"is_reserved":false,"is_disabled":false,"rental_uris":{"android":"levelo://app?vid=7d77fb66-2e81-487c-ba0a-519429ba6ddb","ios":"levelo://app?vid=7d77fb66-2e81-487c-ba0a-519429ba6ddb"},"vehicle_type_id":"4","last_reported":1721499019,"current_range_meters":25600,"station_id":"ce4bgs92rcd13ifvqcc0","pricing_plan_id":"cebpf4jnsgd1na2vs0mg"},{"bike_id":"fbe6f029-3915-48d5-ae4b-82e25d6074cd","system_id":"levelo_inurba_marseille","lat":43.31366,"lon":5.38493,"is_reserved":false,"is_disabled":false,"rental_uris":{"android":"levelo://app?vid=fbe6f029-3915-48d5-ae4b-82e25d6074cd","ios":"levelo://app?vid=fbe6f029-3915-48d5-ae4b-82e25d6074cd"},"vehicle_type_id":"4","last_reported":1721499019,"current_range_meters":0,"station_id":"ce4bgt92rcd13ifvqcf0","pricing_plan_id":"cebpf4jnsgd1na2vs0mg"},{"bike_id":"834ae887-00f6-435d-90c1-6f2d087bd1f5","system_id":"levelo_inurba_marseille","lat":43.29956,"lon":5.3664,"is_reserved":false,"is_disabled":false,"rental_uris":{"android":"levelo://app?vid=834ae887-00f6-435d-90c1-6f2d087bd1f5","ios":"levelo://app?vid=834ae887-00f6-435d-90c1-6f2d087bd1f5"},"vehicle_type_id":"4","last_reported":1721499019,"current_range_meters":21600,"station_id":"","pricing_plan_id":"cebpf4jnsgd1na2vs0mg"},{"bike_id":"526b6bb0-0c11-4934-bfb4-cff8c2fcad75","system_id":"levelo_inurba_marseille","lat":43.299724,"lon":5.371829,"is_reserved":false,"is_disabled":false,"rental_uris":{"android":"levelo://app?vid=526b6bb0-0c11-4934-bfb4-cff8c2fcad75","ios":"levelo://app?vid=526b6bb0-0c11-4934-bfb4-cff8c2fcad75"},"vehicle_type_id":"4","last_reported":1721499019,"current_range_meters":13600,"station_id":"ce4bgr92rcd13ifvqc7g","pricing_plan_id":"cebpf4jnsgd1na2vs0mg"},{"bike_id":"66b9bcd6-1fea-46a5-9e47-87df714368f4","system_id":"levelo_inurba_marseille","lat":43.299724,"lon":5.371829,"is_reserved":false,"is_disabled":false,"rental_uris":{"android":"levelo://app?vid=66b9bcd6-1fea-46a5-9e47-87df714368f4","ios":"levelo://app?vid=66b9bcd6-1fea-46a5-9e47-87df714368f4"},"vehicle_type_id":"4","last_reported":1721499019,"current_range_meters":1600,"station_id":"ce4bgr92rcd13ifvqc7g","pricing_plan_id":"cebpf4jnsgd1na2vs0mg"},{"bike_id":"a0b4d633-db22-481b-95a8-eb64df73ad4f","system_id":"levelo_inurba_marseille","lat":43.299724,"lon":5.371829,"is_reserved":false,"is_disabled":false,"rental_uris":{"android":"levelo://app?vid=a0b4d633-db22-481b-95a8-eb64df73ad4f","ios":"levelo://app?vid=a0b4d633-db22-481b-95a8-eb64df73ad4f"},"vehicle_type_id":"4","last_reported":1721499019,"current_range_meters":0,"station_id":"ce4bgr92rcd13ifvqc7g","pricing_plan_id":"cebpf4jnsgd1na2vs0mg"},{"bike_id":"e2e3f7c7-adcb-427d-9ab6-9264681d89e5","system_id":"levelo_inurba_marseille","lat":43.29976,"lon":5.37175,"is_reserved":false,"is_disabled":false,"rental_uris":{"android":"levelo://app?vid=e2e3f7c7-adcb-427d-9ab6-9264681d89e5","ios":"levelo://app?vid=e2e3f7c7-adcb-427d-9ab6-9264681d89e5"},"vehicle_type_id":"4","last_reported":1721499019,"current_range_meters":2800,"station_id":"ce4bgr92rcd13ifvqc7g","pricing_plan_id":"cebpf4jnsgd1na2vs0mg"},{"bike_id":"04078405-1e32-499a-9c25-a57d05870de6","system_id":"levelo_inurba_marseille","lat":43.299243,"lon":5.374807,"is_reserved":false,"is_disabled":false,"rental_uris":{"android":"levelo://app?vid=04078405-1e32-499a-9c25-a57d05870de6","ios":"levelo://app?vid=04078405-1e32-499a-9c25-a57d05870de6"},"vehicle_type_id":"4","last_reported":1721499019,"current_range_meters":28400,"station_id":"ce4bgjh2rcd13ifvqbg0","pricing_plan_id":"cebpf4jnsgd1na2vs0mg"},{"bike_id":"deef619f-ca84-4c1c-80d2-4f20f8b41be2","system_id":"levelo_inurba_marseille","lat":43.311722,"lon":5.387247,"is_reserved":false,"is_disabled":false,"rental_uris":{"android":"levelo://app?vid=deef619f-ca84-4c1c-80d2-4f20f8b41be2","ios":"levelo://app?vid=deef619f-ca84-4c1c-80d2-4f20f8b41be2"},"vehicle_type_id":"4","last_reported":1721499019,"current_range_meters":2000,"station_id":"ce4bgv12rcd13ifvqcp0","pricing_plan_id":"cebpf4jnsgd1na2vs0mg"},{"bike_id":"79231d2d-2454-4c85-8d30-d0cc5a7fc833","system_id":"levelo_inurba_marseille","lat":43.311722,"lon":5.387247,"is_reserved":false,"is_disabled":false,"rental_uris":{"android":"levelo://app?vid=79231d2d-2454-4c85-8d30-d0cc5a7fc833","ios":"levelo://app?vid=79231d2d-2454-4c85-8d30-d0cc5a7fc833"},"vehicle_type_id":"4","last_reported":1721499019,"current_range_meters":21600,"station_id":"ce4bgv12rcd13ifvqcp0","pricing_plan_id":"cebpf4jnsgd1na2vs0mg"},{"bike_id":"452fb856-6e5e-4a7f-af65-f24ebe34fd99","system_id":"levelo_inurba_marseille","lat":43.311722,"lon":5.387247,"is_reserved":false,"is_disabled":false,"rental_uris":{"android":"levelo://app?vid=452fb856-6e5e-4a7f-af65-f24ebe34fd99","ios":"levelo://app?vid=452fb856-6e5e-4a7f-af65-f24ebe34fd99"},"vehicle_type_id":"4","last_reported":1721499019,"current_range_meters":13200,"station_id":"ce4bgv12rcd13ifvqcp0","pricing_plan_id":"cebpf4jnsgd1na2vs0mg"},{"bike_id":"46920590-0dbc-44b5-aa87-4201002b7d17","system_id":"levelo_inurba_marseille","lat":43.32343,"lon":5.382098,"is_reserved":false,"is_disabled":false,"rental_uris":{"android":"levelo://app?vid=46920590-0dbc-44b5-aa87-4201002b7d17","ios":"levelo://app?vid=46920590-0dbc-44b5-aa87-4201002b7d17"},"vehicle_type_id":"4","last_reported":1721499019,"current_range_meters":0,"station_id":"","pricing_plan_id":"cebpf4jnsgd1na2vs0mg"},{"bike_id":"1407d482-e48c-4041-ac44-a138d5b6c612","system_id":"levelo_inurba_marseille","lat":43.29718,"lon":5.36611,"is_reserved":false,"is_disabled":false,"rental_uris":{"android":"levelo://app?vid=1407d482-e48c-4041-ac44-a138d5b6c612","ios":"levelo://app?vid=1407d482-e48c-4041-ac44-a138d5b6c612"},"vehicle_type_id":"4","last_reported":1721499019,"current_range_meters":2800,"station_id":"ce4bgn12rcd13ifvqbt0","pricing_plan_id":"cebpf4jnsgd1na2vs0mg"},{"bike_id":"53f5878b-416a-48c4-bcef-9fe79d74b06d","system_id":"levelo_inurba_marseille","lat":43.297163,"lon":5.365866,"is_reserved":false,"is_disabled":false,"rental_uris":{"android":"levelo://app?vid=53f5878b-416a-48c4-bcef-9fe79d74b06d","ios":"levelo://app?vid=53f5878b-416a-48c4-bcef-9fe79d74b06d"},"vehicle_type_id":"4","last_reported":1721499019,"current_range_meters":0,"station_id":"ce4bgn12rcd13ifvqbt0","pricing_plan_id":"cebpf4jnsgd1na2vs0mg"},{"bike_id":"3bdebc3e-b5b7-4424-8003-5c2df91365e8","system_id":"levelo_inurba_marseille","lat":43.297163,"lon":5.365866,"is_reserved":false,"is_disabled":false,"rental_uris":{"android":"levelo://app?vid=3bdebc3e-b5b7-4424-8003-5c2df91365e8","ios":"levelo://app?vid=3bdebc3e-b5b7-4424-8003-5c2df91365e8"},"vehicle_type_id":"4","last_reported":1721499019,"current_range_meters":800,"station_id":"ce4bgn12rcd13ifvqbt0","pricing_plan_id":"cebpf4jnsgd1na2vs0mg"},{"bike_id":"05bdae84-1067-465f-ae1f-1f8e13b8e143","system_id":"levelo_inurba_marseille","lat":43.32905,"lon":5.36705,"is_reserved":false,"is_disabled":false,"rental_uris":{"android":"levelo://app?vid=05bdae84-1067-465f-ae1f-1f8e13b8e143","ios":"levelo://app?vid=05bdae84-1067-465f-ae1f-1f8e13b8e143"},"vehicle_type_id":"4","last_reported":1721499019,"current_range_meters":2800,"station_id":"","pricing_plan_id":"cebpf4jnsgd1na2vs0mg"},{"bike_id":"6d9a3579-10b8-481f-bdc5-4d9fb44fbff9","system_id":"levelo_inurba_marseille","lat":43.2968,"lon":5.37291,"is_reserved":false,"is_disabled":false,"rental_uris":{"android":"levelo://app?vid=6d9a3579-10b8-481f-bdc5-4d9fb44fbff9","ios":"levelo://app?vid=6d9a3579-10b8-481f-bdc5-4d9fb44fbff9"},"vehicle_type_id":"4","last_reported":1721499019,"current_range_meters":9200,"station_id":"ce4bgk12rcd13ifvqbj0","pricing_plan_id":"cebpf4jnsgd1na2vs0mg"},{"bike_id":"19c3a51d-e9da-41ab-b61f-03d6694d461f","system_id":"levelo_inurba_marseille","lat":43.29624,"lon":5.37149,"is_reserved":false,"is_disabled":false,"rental_uris":{"android":"levelo://app?vid=19c3a51d-e9da-41ab-b61f-03d6694d461f","ios":"levelo://app?vid=19c3a51d-e9da-41ab-b61f-03d6694d461f"},"vehicle_type_id":"4","last_reported":1721499019,"current_range_meters":0,"station_id":"ce4bgnh2rcd13ifvqc0g","pricing_plan_id":"cebpf4jnsgd1na2vs0mg"},{"bike_id":"00849e7d-7715-4a22-b324-d8b774189abf","system_id":"levelo_inurba_marseille","lat":43.296129,"lon":5.370777,"is_reserved":false,"is_disabled":false,"rental_uris":{"android":"levelo://app?vid=00849e7d-7715-4a22-b324-d8b774189abf","ios":"levelo://app?vid=00849e7d-7715-4a22-b324-d8b774189abf"},"vehicle_type_id":"4","last_reported":1721499019,"current_range_meters":4800,"station_id":"ce4bgnh2rcd13ifvqc0g","pricing_plan_id":"cebpf4jnsgd1na2vs0mg"},{"bike_id":"cf48199f-665a-4f3c-8e0d-29b29ee25c88","system_id":"levelo_inurba_marseille","lat":43.296129,"lon":5.370777,"is_reserved":false,"is_disabled":false,"rental_uris":{"android":"levelo://app?vid=cf48199f-665a-4f3c-8e0d-29b29ee25c88","ios":"levelo://app?vid=cf48199f-665a-4f3c-8e0d-29b29ee25c88"},"vehicle_type_id":"4","last_reported":1721499019,"current_range_meters":14000,"station_id":"ce4bgnh2rcd13ifvqc0g","pricing_plan_id":"cebpf4jnsgd1na2vs0mg"},{"bike_id":"8da0f40b-e859-4fbd-8a02-4d3b1fcbcef6","system_id":"levelo_inurba_marseille","lat":43.296129,"lon":5.370777,"is_reserved":false,"is_disabled":false,"rental_uris":{"android":"levelo://app?vid=8da0f40b-e859-4fbd-8a02-4d3b1fcbcef6","ios":"levelo://app?vid=8da0f40b-e859-4fbd-8a02-4d3b1fcbcef6"},"vehicle_type_id":"4","last_reported":1721499019,"current_range_meters":0,"station_id":"ce4bgnh2rcd13ifvqc0g","pricing_plan_id":"cebpf4jnsgd1na2vs0mg"},{"bike_id":"e924a4e5-5439-4f76-875f-9be221c90336","system_id":"levelo_inurba_marseille","lat":43.296921,"lon":5.376579,"is_reserved":false,"is_disabled":false,"rental_uris":{"android":"levelo://app?vid=e924a4e5-5439-4f76-875f-9be221c90336","ios":"levelo://app?vid=e924a4e5-5439-4f76-875f-9be221c90336"},"vehicle_type_id":"4","last_reported":1721499019,"current_range_meters":13600,"station_id":"ce4bgkh2rcd13ifvqbl0","pricing_plan_id":"cebpf4jnsgd1na2vs0mg"},{"bike_id":"469a29e9-3a53-4718-ab96-a2480ce8c429","system_id":"levelo_inurba_marseille","lat":43.309589,"lon":5.390258,"is_reserved":false,"is_disabled":false,"rental_uris":{"android":"levelo://app?vid=469a29e9-3a53-4718-ab96-a2480ce8c429","ios":"levelo://app?vid=469a29e9-3a53-4718-ab96-a2480ce8c429"},"vehicle_type_id":"4","last_reported":1721499019,"current_range_meters":10800,"station_id":"ce4bgup2rcd13ifvqco0","pricing_plan_id":"cebpf4jnsgd1na2vs0mg"},{"bike_id":"6b6f62f6-17a0-485b-ac41-19ce074c43ef","system_id":"levelo_inurba_marseille","lat":43.309589,"lon":5.390258,"is_reserved":false,"is_disabled":false,"rental_uris":{"android":"levelo://app?vid=6b6f62f6-17a0-485b-ac41-19ce074c43ef","ios":"levelo://app?vid=6b6f62f6-17a0-485b-ac41-19ce074c43ef"},"vehicle_type_id":"4","last_reported":1721499019,"current_range_meters":0,"station_id":"ce4bgup2rcd13ifvqco0","pricing_plan_id":"cebpf4jnsgd1na2vs0mg"},{"bike_id":"1cca9ae7-44a2-4a31-ac2e-db9944f2ad10","system_id":"levelo_inurba_marseille","lat":43.29898,"lon":5.3813,"is_reserved":false,"is_disabled":false,"rental_uris":{"android":"levelo://app?vid=1cca9ae7-44a2-4a31-ac2e-db9944f2ad10","ios":"levelo://app?vid=1cca9ae7-44a2-4a31-ac2e-db9944f2ad10"},"vehicle_type_id":"4","last_reported":1721499019,"current_range_meters":31200,"station_id":"ce4bgj12rcd13ifvqbc0","pricing_plan_id":"cebpf4jnsgd1na2vs0mg"},{"bike_id":"14b8da56-a0c8-450f-8e32-caa28ffae636","system_id":"levelo_inurba_marseille","lat":43.309589,"lon":5.390258,"is_reserved":false,"is_disabled":false,"rental_uris":{"android":"levelo://app?vid=14b8da56-a0c8-450f-8e32-caa28ffae636","ios":"levelo://app?vid=14b8da56-a0c8-450f-8e32-caa28ffae636"},"vehicle_type_id":"4","last_reported":1721499019,"current_range_meters":10400,"station_id":"ce4bgup2rcd13ifvqco0","pricing_plan_id":"cebpf4jnsgd1na2vs0mg"},{"bike_id":"3da75c95-f3e9-48b0-a8cb-648aa9cc0b3b","system_id":"levelo_inurba_marseille","lat":43.309589,"lon":5.390258,"is_reserved":false,"is_disabled":false,"rental_uris":{"android":"levelo://app?vid=3da75c95-f3e9-48b0-a8cb-648aa9cc0b3b","ios":"levelo://app?vid=3da75c95-f3e9-48b0-a8cb-648aa9cc0b3b"},"vehicle_type_id":"4","last_reported":1721499019,"current_range_meters":7200,"station_id":"ce4bgup2rcd13ifvqco0","pricing_plan_id":"cebpf4jnsgd1na2vs0mg"},{"bike_id":"32ea673f-5aad-45bc-a7fe-b60ddf8c9101","system_id":"levelo_inurba_marseille","lat":43.309589,"lon":5.390258,"is_reserved":false,"is_disabled":false,"rental_uris":{"android":"levelo://app?vid=32ea673f-5aad-45bc-a7fe-b60ddf8c9101","ios":"levelo://app?vid=32ea673f-5aad-45bc-a7fe-b60ddf8c9101"},"vehicle_type_id":"4","last_reported":1721499019,"current_range_meters":0,"station_id":"ce4bgup2rcd13ifvqco0","pricing_plan_id":"cebpf4jnsgd1na2vs0mg"},{"bike_id":"06de800e-6c64-450b-9ac9-fe17a6e7e1e7","system_id":"levelo_inurba_marseille","lat":43.309589,"lon":5.390258,"is_reserved":false,"is_disabled":false,"rental_uris":{"android":"levelo://app?vid=06de800e-6c64-450b-9ac9-fe17a6e7e1e7","ios":"levelo://app?vid=06de800e-6c64-450b-9ac9-fe17a6e7e1e7"},"vehicle_type_id":"4","last_reported":1721499019,"current_range_meters":2000,"station_id":"ce4bgup2rcd13ifvqco0","pricing_plan_id":"cebpf4jnsgd1na2vs0mg"},{"bike_id":"55229fe6-5c67-4283-8b86-be963dd46776","system_id":"levelo_inurba_marseille","lat":43.309589,"lon":5.390258,"is_reserved":false,"is_disabled":false,"rental_uris":{"android":"levelo://app?vid=55229fe6-5c67-4283-8b86-be963dd46776","ios":"levelo://app?vid=55229fe6-5c67-4283-8b86-be963dd46776"},"vehicle_type_id":"4","last_reported":1721499019,"current_range_meters":18000,"station_id":"ce4bgup2rcd13ifvqco0","pricing_plan_id":"cebpf4jnsgd1na2vs0mg"},{"bike_id":"724d32ec-4e8e-4b16-ad90-6513912d1d70","system_id":"levelo_inurba_marseille","lat":43.309589,"lon":5.390258,"is_reserved":false,"is_disabled":false,"rental_uris":{"android":"levelo://app?vid=724d32ec-4e8e-4b16-ad90-6513912d1d70","ios":"levelo://app?vid=724d32ec-4e8e-4b16-ad90-6513912d1d70"},"vehicle_type_id":"4","last_reported":1721499019,"current_range_meters":8800,"station_id":"ce4bgup2rcd13ifvqco0","pricing_plan_id":"cebpf4jnsgd1na2vs0mg"},{"bike_id":"58770c48-df64-4702-8df8-55b10ce92e56","system_id":"levelo_inurba_marseille","lat":43.309589,"lon":5.390258,"is_reserved":false,"is_disabled":false,"rental_uris":{"android":"levelo://app?vid=58770c48-df64-4702-8df8-55b10ce92e56","ios":"levelo://app?vid=58770c48-df64-4702-8df8-55b10ce92e56"},"vehicle_type_id":"4","last_reported":1721499019,"current_range_meters":29200,"station_id":"ce4bgup2rcd13ifvqco0","pricing_plan_id":"cebpf4jnsgd1na2vs0mg"},{"bike_id":"9d109053-2ad2-4f68-af59-e02c04becf65","system_id":"levelo_inurba_marseille","lat":43.309589,"lon":5.390258,"is_reserved":false,"is_disabled":false,"rental_uris":{"android":"levelo://app?vid=9d109053-2ad2-4f68-af59-e02c04becf65","ios":"levelo://app?vid=9d109053-2ad2-4f68-af59-e02c04becf65"},"vehicle_type_id":"4","last_reported":1721499019,"current_range_meters":24400,"station_id":"ce4bgup2rcd13ifvqco0","pricing_plan_id":"cebpf4jnsgd1na2vs0mg"},{"bike_id":"ebb531ac-8160-4045-a6d9-424175f80b01","system_id":"levelo_inurba_marseille","lat":43.309589,"lon":5.390258,"is_reserved":false,"is_disabled":false,"rental_uris":{"android":"levelo://app?vid=ebb531ac-8160-4045-a6d9-424175f80b01","ios":"levelo://app?vid=ebb531ac-8160-4045-a6d9-424175f80b01"},"vehicle_type_id":"4","last_reported":1721499019,"current_range_meters":1200,"station_id":"ce4bgup2rcd13ifvqco0","pricing_plan_id":"cebpf4jnsgd1na2vs0mg"},{"bike_id":"f9add01e-b56b-4289-b17b-217415a0ab34","system_id":"levelo_inurba_marseille","lat":43.309589,"lon":5.390258,"is_reserved":false,"is_disabled":false,"rental_uris":{"android":"levelo://app?vid=f9add01e-b56b-4289-b17b-217415a0ab34","ios":"levelo://app?vid=f9add01e-b56b-4289-b17b-217415a0ab34"},"vehicle_type_id":"4","last_reported":1721499019,"current_range_meters":20000,"station_id":"ce4bgup2rcd13ifvqco0","pricing_plan_id":"cebpf4jnsgd1na2vs0mg"},{"bike_id":"031ff5f7-a2c2-4643-bd1c-4b2ad8c2fa89","system_id":"levelo_inurba_marseille","lat":43.309589,"lon":5.390258,"is_reserved":false,"is_disabled":false,"rental_uris":{"android":"levelo://app?vid=031ff5f7-a2c2-4643-bd1c-4b2ad8c2fa89","ios":"levelo://app?vid=031ff5f7-a2c2-4643-bd1c-4b2ad8c2fa89"},"vehicle_type_id":"4","last_reported":1721499019,"current_range_meters":29200,"station_id":"ce4bgup2rcd13ifvqco0","pricing_plan_id":"cebpf4jnsgd1na2vs0mg"},{"bike_id":"cf358a63-5b8c-4bba-8023-26a50d5db6ba","system_id":"levelo_inurba_marseille","lat":43.309589,"lon":5.390258,"is_reserved":false,"is_disabled":false,"rental_uris":{"android":"levelo://app?vid=cf358a63-5b8c-4bba-8023-26a50d5db6ba","ios":"levelo://app?vid=cf358a63-5b8c-4bba-8023-26a50d5db6ba"},"vehicle_type_id":"4","last_reported":1721499019,"current_range_meters":25200,"station_id":"ce4bgup2rcd13ifvqco0","pricing_plan_id":"cebpf4jnsgd1na2vs0mg"},{"bike_id":"396180e1-487c-40ac-9f07-a01a68a78fc2","system_id":"levelo_inurba_marseille","lat":43.309589,"lon":5.390258,"is_reserved":false,"is_disabled":false,"rental_uris":{"android":"levelo://app?vid=396180e1-487c-40ac-9f07-a01a68a78fc2","ios":"levelo://app?vid=396180e1-487c-40ac-9f07-a01a68a78fc2"},"vehicle_type_id":"4","last_reported":1721499019,"current_range_meters":6400,"station_id":"ce4bgup2rcd13ifvqco0","pricing_plan_id":"cebpf4jnsgd1na2vs0mg"},{"bike_id":"9389ba00-e9c3-49b9-affb-1d4f077c53bf","system_id":"levelo_inurba_marseille","lat":43.309589,"lon":5.390258,"is_reserved":false,"is_disabled":false,"rental_uris":{"android":"levelo://app?vid=9389ba00-e9c3-49b9-affb-1d4f077c53bf","ios":"levelo://app?vid=9389ba00-e9c3-49b9-affb-1d4f077c53bf"},"vehicle_type_id":"4","last_reported":1721499019,"current_range_meters":8800,"station_id":"ce4bgup2rcd13ifvqco0","pricing_plan_id":"cebpf4jnsgd1na2vs0mg"},{"bike_id":"e8dc7ea3-49f1-4ff8-b31e-93acf8c004f0","system_id":"levelo_inurba_marseille","lat":43.309589,"lon":5.390258,"is_reserved":false,"is_disabled":false,"rental_uris":{"android":"levelo://app?vid=e8dc7ea3-49f1-4ff8-b31e-93acf8c004f0","ios":"levelo://app?vid=e8dc7ea3-49f1-4ff8-b31e-93acf8c004f0"},"vehicle_type_id":"4","last_reported":1721499019,"current_range_meters":0,"station_id":"ce4bgup2rcd13ifvqco0","pricing_plan_id":"cebpf4jnsgd1na2vs0mg"},{"bike_id":"f95bfb28-3665-4377-a09f-e75a1425b683","system_id":"levelo_inurba_marseille","lat":43.30913,"lon":5.39097,"is_reserved":false,"is_disabled":false,"rental_uris":{"android":"levelo://app?vid=f95bfb28-3665-4377-a09f-e75a1425b683","ios":"levelo://app?vid=f95bfb28-3665-4377-a09f-e75a1425b683"},"vehicle_type_id":"4","last_reported":1721499019,"current_range_meters":14400,"station_id":"","pricing_plan_id":"cebpf4jnsgd1na2vs0mg"},{"bike_id":"b57cb75a-a3d2-46b2-bf2f-66dd4c5faefb","system_id":"levelo_inurba_marseille","lat":43.29795,"lon":5.38092,"is_reserved":false,"is_disabled":false,"rental_uris":{"android":"levelo://app?vid=b57cb75a-a3d2-46b2-bf2f-66dd4c5faefb","ios":"levelo://app?vid=b57cb75a-a3d2-46b2-bf2f-66dd4c5faefb"},"vehicle_type_id":"4","last_reported":1721499019,"current_range_meters":0,"station_id":"ce4bgip2rcd13ifvqbb0","pricing_plan_id":"cebpf4jnsgd1na2vs0mg"},{"bike_id":"597e0fb5-c207-4286-af0d-d69a550fa531","system_id":"levelo_inurba_marseille","lat":43.304274,"lon":5.388873,"is_reserved":false,"is_disabled":false,"rental_uris":{"android":"levelo://app?vid=597e0fb5-c207-4286-af0d-d69a550fa531","ios":"levelo://app?vid=597e0fb5-c207-4286-af0d-d69a550fa531"},"vehicle_type_id":"4","last_reported":1721499019,"current_range_meters":11600,"station_id":"ce4bgk12rcd13ifvqbi0","pricing_plan_id":"cebpf4jnsgd1na2vs0mg"},{"bike_id":"5668d9c4-c478-4586-ad20-da38ee12d6f0","system_id":"levelo_inurba_marseille","lat":43.298037,"lon":5.381066,"is_reserved":false,"is_disabled":false,"rental_uris":{"android":"levelo://app?vid=5668d9c4-c478-4586-ad20-da38ee12d6f0","ios":"levelo://app?vid=5668d9c4-c478-4586-ad20-da38ee12d6f0"},"vehicle_type_id":"4","last_reported":1721499019,"current_range_meters":4400,"station_id":"ce4bgip2rcd13ifvqbb0","pricing_plan_id":"cebpf4jnsgd1na2vs0mg"},{"bike_id":"1bb2b96c-d640-4427-ba31-713a901b6348","system_id":"levelo_inurba_marseille","lat":43.296263,"lon":5.377094,"is_reserved":false,"is_disabled":false,"rental_uris":{"android":"levelo://app?vid=1bb2b96c-d640-4427-ba31-713a901b6348","ios":"levelo://app?vid=1bb2b96c-d640-4427-ba31-713a901b6348"},"vehicle_type_id":"4","last_reported":1721499019,"current_range_meters":29200,"station_id":"ce4bgi92rcd13ifvqb90","pricing_plan_id":"cebpf4jnsgd1na2vs0mg"},{"bike_id":"f51bfe9f-4d93-42c8-9cbe-494237016735","system_id":"levelo_inurba_marseille","lat":43.29612,"lon":5.37713,"is_reserved":false,"is_disabled":false,"rental_uris":{"android":"levelo://app?vid=f51bfe9f-4d93-42c8-9cbe-494237016735","ios":"levelo://app?vid=f51bfe9f-4d93-42c8-9cbe-494237016735"},"vehicle_type_id":"4","last_reported":1721499019,"current_range_meters":31200,"station_id":"ce4bgi92rcd13ifvqb90","pricing_plan_id":"cebpf4jnsgd1na2vs0mg"},{"bike_id":"4f474b60-280c-480a-ae3e-bc60e4feb747","system_id":"levelo_inurba_marseille","lat":43.299707,"lon":5.384859,"is_reserved":false,"is_disabled":false,"rental_uris":{"android":"levelo://app?vid=4f474b60-280c-480a-ae3e-bc60e4feb747","ios":"levelo://app?vid=4f474b60-280c-480a-ae3e-bc60e4feb747"},"vehicle_type_id":"4","last_reported":1721499019,"current_range_meters":0,"station_id":"ce4bgj92rcd13ifvqbd0","pricing_plan_id":"cebpf4jnsgd1na2vs0mg"},{"bike_id":"b1d33561-f0b3-44b5-9259-56d115e0cea8","system_id":"levelo_inurba_marseille","lat":43.299707,"lon":5.384859,"is_reserved":false,"is_disabled":false,"rental_uris":{"android":"levelo://app?vid=b1d33561-f0b3-44b5-9259-56d115e0cea8","ios":"levelo://app?vid=b1d33561-f0b3-44b5-9259-56d115e0cea8"},"vehicle_type_id":"4","last_reported":1721499019,"current_range_meters":0,"station_id":"ce4bgj92rcd13ifvqbd0","pricing_plan_id":"cebpf4jnsgd1na2vs0mg"},{"bike_id":"47d092c3-7779-4f3f-b828-6d9633f074a1","system_id":"levelo_inurba_marseille","lat":43.295748,"lon":5.37522,"is_reserved":false,"is_disabled":false,"rental_uris":{"android":"levelo://app?vid=47d092c3-7779-4f3f-b828-6d9633f074a1","ios":"levelo://app?vid=47d092c3-7779-4f3f-b828-6d9633f074a1"},"vehicle_type_id":"4","last_reported":1721499019,"current_range_meters":27200,"station_id":"ce4bgh92rcd13ifvqb50","pricing_plan_id":"cebpf4jnsgd1na2vs0mg"},{"bike_id":"18491e9b-089a-423d-92a6-2224fb4ac1cb","system_id":"levelo_inurba_marseille","lat":43.30473,"lon":5.39011,"is_reserved":false,"is_disabled":false,"rental_uris":{"android":"levelo://app?vid=18491e9b-089a-423d-92a6-2224fb4ac1cb","ios":"levelo://app?vid=18491e9b-089a-423d-92a6-2224fb4ac1cb"},"vehicle_type_id":"4","last_reported":1721499019,"current_range_meters":2800,"station_id":"","pricing_plan_id":"cebpf4jnsgd1na2vs0mg"},{"bike_id":"64c83d4a-b449-4397-b3e7-b3b6831f5742","system_id":"levelo_inurba_marseille","lat":43.309589,"lon":5.390258,"is_reserved":false,"is_disabled":false,"rental_uris":{"android":"levelo://app?vid=64c83d4a-b449-4397-b3e7-b3b6831f5742","ios":"levelo://app?vid=64c83d4a-b449-4397-b3e7-b3b6831f5742"},"vehicle_type_id":"4","last_reported":1721499019,"current_range_meters":0,"station_id":"ce4bgup2rcd13ifvqco0","pricing_plan_id":"cebpf4jnsgd1na2vs0mg"},{"bike_id":"4f93584d-ced7-49e0-b128-6f3c7a4c939a","system_id":"levelo_inurba_marseille","lat":43.301483,"lon":5.38773,"is_reserved":false,"is_disabled":false,"rental_uris":{"android":"levelo://app?vid=4f93584d-ced7-49e0-b128-6f3c7a4c939a","ios":"levelo://app?vid=4f93584d-ced7-49e0-b128-6f3c7a4c939a"},"vehicle_type_id":"4","last_reported":1721499019,"current_range_meters":0,"station_id":"ce4bghh2rcd13ifvqb60","pricing_plan_id":"cebpf4jnsgd1na2vs0mg"},{"bike_id":"aae0a28b-f1a8-45aa-994d-7b5ce01945a3","system_id":"levelo_inurba_marseille","lat":43.301396,"lon":5.387812,"is_reserved":false,"is_disabled":false,"rental_uris":{"android":"levelo://app?vid=aae0a28b-f1a8-45aa-994d-7b5ce01945a3","ios":"levelo://app?vid=aae0a28b-f1a8-45aa-994d-7b5ce01945a3"},"vehicle_type_id":"4","last_reported":1721499019,"current_range_meters":0,"station_id":"ce4bghh2rcd13ifvqb60","pricing_plan_id":"cebpf4jnsgd1na2vs0mg"},{"bike_id":"5b46c555-81a4-4d11-bec8-11588f937b4c","system_id":"levelo_inurba_marseille","lat":43.32367,"lon":5.388836,"is_reserved":false,"is_disabled":false,"rental_uris":{"android":"levelo://app?vid=5b46c555-81a4-4d11-bec8-11588f937b4c","ios":"levelo://app?vid=5b46c555-81a4-4d11-bec8-11588f937b4c"},"vehicle_type_id":"4","last_reported":1721499019,"current_range_meters":22400,"station_id":"ce4bhqp2rcd13ifvqhog","pricing_plan_id":"cebpf4jnsgd1na2vs0mg"},{"bike_id":"66452375-d1b4-4b75-820e-297fc7268ef3","system_id":"levelo_inurba_marseille","lat":43.32367,"lon":5.388836,"is_reserved":false,"is_disabled":false,"rental_uris":{"android":"levelo://app?vid=66452375-d1b4-4b75-820e-297fc7268ef3","ios":"levelo://app?vid=66452375-d1b4-4b75-820e-297fc7268ef3"},"vehicle_type_id":"4","last_reported":1721499019,"current_range_meters":19600,"station_id":"ce4bhqp2rcd13ifvqhog","pricing_plan_id":"cebpf4jnsgd1na2vs0mg"},{"bike_id":"04d14f9e-6f09-465a-9963-81da2400f6b2","system_id":"levelo_inurba_marseille","lat":43.29601,"lon":5.381084,"is_reserved":false,"is_disabled":false,"rental_uris":{"android":"levelo://app?vid=04d14f9e-6f09-465a-9963-81da2400f6b2","ios":"levelo://app?vid=04d14f9e-6f09-465a-9963-81da2400f6b2"},"vehicle_type_id":"4","last_reported":1721499019,"current_range_meters":0,"station_id":"ce4bgl12rcd13ifvqbo0","pricing_plan_id":"cebpf4jnsgd1na2vs0mg"},{"bike_id":"d70be32a-76e1-48b6-820d-2e01b1436125","system_id":"levelo_inurba_marseille","lat":43.29602,"lon":5.381084,"is_reserved":false,"is_disabled":false,"rental_uris":{"android":"levelo://app?vid=d70be32a-76e1-48b6-820d-2e01b1436125","ios":"levelo://app?vid=d70be32a-76e1-48b6-820d-2e01b1436125"},"vehicle_type_id":"4","last_reported":1721499019,"current_range_meters":30400,"station_id":"ce4bgl12rcd13ifvqbo0","pricing_plan_id":"cebpf4jnsgd1na2vs0mg"},{"bike_id":"a714632d-44c0-4d33-8aa9-55a02a942e0d","system_id":"levelo_inurba_marseille","lat":43.32555,"lon":5.38787,"is_reserved":false,"is_disabled":false,"rental_uris":{"android":"levelo://app?vid=a714632d-44c0-4d33-8aa9-55a02a942e0d","ios":"levelo://app?vid=a714632d-44c0-4d33-8aa9-55a02a942e0d"},"vehicle_type_id":"4","last_reported":1721499019,"current_range_meters":12000,"station_id":"","pricing_plan_id":"cebpf4jnsgd1na2vs0mg"},{"bike_id":"04262d7e-5303-4c2a-94a2-56ef6693997a","system_id":"levelo_inurba_marseille","lat":43.293259,"lon":5.371586,"is_reserved":false,"is_disabled":false,"rental_uris":{"android":"levelo://app?vid=04262d7e-5303-4c2a-94a2-56ef6693997a","ios":"levelo://app?vid=04262d7e-5303-4c2a-94a2-56ef6693997a"},"vehicle_type_id":"4","last_reported":1721499019,"current_range_meters":800,"station_id":"ce4bgh92rcd13ifvqb40","pricing_plan_id":"cebpf4jnsgd1na2vs0mg"},{"bike_id":"cc383473-df81-4f44-9ff0-01e628c742bc","system_id":"levelo_inurba_marseille","lat":43.292749,"lon":5.368402,"is_reserved":false,"is_disabled":false,"rental_uris":{"android":"levelo://app?vid=cc383473-df81-4f44-9ff0-01e628c742bc","ios":"levelo://app?vid=cc383473-df81-4f44-9ff0-01e628c742bc"},"vehicle_type_id":"4","last_reported":1721499019,"current_range_meters":0,"station_id":"ce4bhbp2rcd13ifvqesg","pricing_plan_id":"cebpf4jnsgd1na2vs0mg"},{"bike_id":"34ce35f4-e770-444f-a576-d06de50f9c5d","system_id":"levelo_inurba_marseille","lat":43.292749,"lon":5.368402,"is_reserved":false,"is_disabled":false,"rental_uris":{"android":"levelo://app?vid=34ce35f4-e770-444f-a576-d06de50f9c5d","ios":"levelo://app?vid=34ce35f4-e770-444f-a576-d06de50f9c5d"},"vehicle_type_id":"4","last_reported":1721499019,"current_range_meters":0,"station_id":"ce4bhbp2rcd13ifvqesg","pricing_plan_id":"cebpf4jnsgd1na2vs0mg"},{"bike_id":"b7961c6f-ba48-47c1-8572-201dd0725abb","system_id":"levelo_inurba_marseille","lat":43.293259,"lon":5.371586,"is_reserved":false,"is_disabled":false,"rental_uris":{"android":"levelo://app?vid=b7961c6f-ba48-47c1-8572-201dd0725abb","ios":"levelo://app?vid=b7961c6f-ba48-47c1-8572-201dd0725abb"},"vehicle_type_id":"4","last_reported":1721499019,"current_range_meters":4800,"station_id":"ce4bgh92rcd13ifvqb40","pricing_plan_id":"cebpf4jnsgd1na2vs0mg"},{"bike_id":"205e629f-2e9d-435d-ae33-92fcd26686d2","system_id":"levelo_inurba_marseille","lat":43.292749,"lon":5.368402,"is_reserved":false,"is_disabled":false,"rental_uris":{"android":"levelo://app?vid=205e629f-2e9d-435d-ae33-92fcd26686d2","ios":"levelo://app?vid=205e629f-2e9d-435d-ae33-92fcd26686d2"},"vehicle_type_id":"4","last_reported":1721499019,"current_range_meters":14800,"station_id":"ce4bhbp2rcd13ifvqesg","pricing_plan_id":"cebpf4jnsgd1na2vs0mg"},{"bike_id":"27667a25-9da7-45ce-80f0-c3e1e40b5ab9","system_id":"levelo_inurba_marseille","lat":43.29298,"lon":5.3718,"is_reserved":false,"is_disabled":false,"rental_uris":{"android":"levelo://app?vid=27667a25-9da7-45ce-80f0-c3e1e40b5ab9","ios":"levelo://app?vid=27667a25-9da7-45ce-80f0-c3e1e40b5ab9"},"vehicle_type_id":"4","last_reported":1721499019,"current_range_meters":0,"station_id":"ce4bgh92rcd13ifvqb40","pricing_plan_id":"cebpf4jnsgd1na2vs0mg"},{"bike_id":"2bb6f90a-bf1e-486b-8751-7df49e5f89de","system_id":"levelo_inurba_marseille","lat":43.332683,"lon":5.362608,"is_reserved":false,"is_disabled":false,"rental_uris":{"android":"levelo://app?vid=2bb6f90a-bf1e-486b-8751-7df49e5f89de","ios":"levelo://app?vid=2bb6f90a-bf1e-486b-8751-7df49e5f89de"},"vehicle_type_id":"4","last_reported":1721499019,"current_range_meters":7600,"station_id":"","pricing_plan_id":"cebpf4jnsgd1na2vs0mg"},{"bike_id":"a131ae1d-8900-4270-bc6c-77c17e025c5e","system_id":"levelo_inurba_marseille","lat":43.305994,"lon":5.393687,"is_reserved":false,"is_disabled":false,"rental_uris":{"android":"levelo://app?vid=a131ae1d-8900-4270-bc6c-77c17e025c5e","ios":"levelo://app?vid=a131ae1d-8900-4270-bc6c-77c17e025c5e"},"vehicle_type_id":"4","last_reported":1721499019,"current_range_meters":0,"station_id":"ce4bh0p2rcd13ifvqd80","pricing_plan_id":"cebpf4jnsgd1na2vs0mg"},{"bike_id":"84e9f1fe-2283-44ed-bdb3-dd7d7b002215","system_id":"levelo_inurba_marseille","lat":43.305994,"lon":5.393687,"is_reserved":false,"is_disabled":false,"rental_uris":{"android":"levelo://app?vid=84e9f1fe-2283-44ed-bdb3-dd7d7b002215","ios":"levelo://app?vid=84e9f1fe-2283-44ed-bdb3-dd7d7b002215"},"vehicle_type_id":"4","last_reported":1721499019,"current_range_meters":18400,"station_id":"ce4bh0p2rcd13ifvqd80","pricing_plan_id":"cebpf4jnsgd1na2vs0mg"},{"bike_id":"b4c9b23b-2605-4a27-80ff-d7a8dd53000e","system_id":"levelo_inurba_marseille","lat":43.305994,"lon":5.393687,"is_reserved":false,"is_disabled":false,"rental_uris":{"android":"levelo://app?vid=b4c9b23b-2605-4a27-80ff-d7a8dd53000e","ios":"levelo://app?vid=b4c9b23b-2605-4a27-80ff-d7a8dd53000e"},"vehicle_type_id":"4","last_reported":1721499019,"current_range_meters":6000,"station_id":"ce4bh0p2rcd13ifvqd80","pricing_plan_id":"cebpf4jnsgd1na2vs0mg"},{"bike_id":"14ff147d-eafd-45f3-bcdb-12a4c2bc577e","system_id":"levelo_inurba_marseille","lat":43.305994,"lon":5.393687,"is_reserved":false,"is_disabled":false,"rental_uris":{"android":"levelo://app?vid=14ff147d-eafd-45f3-bcdb-12a4c2bc577e","ios":"levelo://app?vid=14ff147d-eafd-45f3-bcdb-12a4c2bc577e"},"vehicle_type_id":"4","last_reported":1721499019,"current_range_meters":3200,"station_id":"ce4bh0p2rcd13ifvqd80","pricing_plan_id":"cebpf4jnsgd1na2vs0mg"},{"bike_id":"0c814298-8315-4bc2-b127-5541bc78a7a8","system_id":"levelo_inurba_marseille","lat":43.305994,"lon":5.393687,"is_reserved":false,"is_disabled":false,"rental_uris":{"android":"levelo://app?vid=0c814298-8315-4bc2-b127-5541bc78a7a8","ios":"levelo://app?vid=0c814298-8315-4bc2-b127-5541bc78a7a8"},"vehicle_type_id":"4","last_reported":1721499019,"current_range_meters":22800,"station_id":"ce4bh0p2rcd13ifvqd80","pricing_plan_id":"cebpf4jnsgd1na2vs0mg"},{"bike_id":"21848374-a0d2-417e-acbe-37e702c709ff","system_id":"levelo_inurba_marseille","lat":43.303002,"lon":5.392142,"is_reserved":false,"is_disabled":false,"rental_uris":{"android":"levelo://app?vid=21848374-a0d2-417e-acbe-37e702c709ff","ios":"levelo://app?vid=21848374-a0d2-417e-acbe-37e702c709ff"},"vehicle_type_id":"4","last_reported":1721499019,"current_range_meters":6800,"station_id":"ce4bgkh2rcd13ifvqbk0","pricing_plan_id":"cebpf4jnsgd1na2vs0mg"},{"bike_id":"6c3a37a4-8688-4ff1-b14e-43f2cdd47133","system_id":"levelo_inurba_marseille","lat":43.30296,"lon":5.39206,"is_reserved":false,"is_disabled":false,"rental_uris":{"android":"levelo://app?vid=6c3a37a4-8688-4ff1-b14e-43f2cdd47133","ios":"levelo://app?vid=6c3a37a4-8688-4ff1-b14e-43f2cdd47133"},"vehicle_type_id":"4","last_reported":1721499019,"current_range_meters":0,"station_id":"ce4bgkh2rcd13ifvqbk0","pricing_plan_id":"cebpf4jnsgd1na2vs0mg"},{"bike_id":"56350402-8a33-4aa1-b280-c76c9e307e7e","system_id":"levelo_inurba_marseille","lat":43.303002,"lon":5.392142,"is_reserved":false,"is_disabled":false,"rental_uris":{"android":"levelo://app?vid=56350402-8a33-4aa1-b280-c76c9e307e7e","ios":"levelo://app?vid=56350402-8a33-4aa1-b280-c76c9e307e7e"},"vehicle_type_id":"4","last_reported":1721499019,"current_range_meters":18000,"station_id":"ce4bgkh2rcd13ifvqbk0","pricing_plan_id":"cebpf4jnsgd1na2vs0mg"},{"bike_id":"939e7693-e94a-4e89-a832-6789011503ba","system_id":"levelo_inurba_marseille","lat":43.303002,"lon":5.392142,"is_reserved":false,"is_disabled":false,"rental_uris":{"android":"levelo://app?vid=939e7693-e94a-4e89-a832-6789011503ba","ios":"levelo://app?vid=939e7693-e94a-4e89-a832-6789011503ba"},"vehicle_type_id":"4","last_reported":1721499019,"current_range_meters":26800,"station_id":"ce4bgkh2rcd13ifvqbk0","pricing_plan_id":"cebpf4jnsgd1na2vs0mg"},{"bike_id":"5b925853-a717-4d01-a8b1-9d090a82af51","system_id":"levelo_inurba_marseille","lat":43.30311,"lon":5.39219,"is_reserved":false,"is_disabled":false,"rental_uris":{"android":"levelo://app?vid=5b925853-a717-4d01-a8b1-9d090a82af51","ios":"levelo://app?vid=5b925853-a717-4d01-a8b1-9d090a82af51"},"vehicle_type_id":"4","last_reported":1721499019,"current_range_meters":12800,"station_id":"ce4bgkh2rcd13ifvqbk0","pricing_plan_id":"cebpf4jnsgd1na2vs0mg"},{"bike_id":"913bf8f0-eaff-4f87-b33d-709260352e6e","system_id":"levelo_inurba_marseille","lat":43.30298,"lon":5.392115,"is_reserved":false,"is_disabled":false,"rental_uris":{"android":"levelo://app?vid=913bf8f0-eaff-4f87-b33d-709260352e6e","ios":"levelo://app?vid=913bf8f0-eaff-4f87-b33d-709260352e6e"},"vehicle_type_id":"4","last_reported":1721499019,"current_range_meters":0,"station_id":"ce4bgkh2rcd13ifvqbk0","pricing_plan_id":"cebpf4jnsgd1na2vs0mg"},{"bike_id":"9f79dff0-dfe8-485e-a06a-ac728c013c70","system_id":"levelo_inurba_marseille","lat":43.30294,"lon":5.39209,"is_reserved":false,"is_disabled":false,"rental_uris":{"android":"levelo://app?vid=9f79dff0-dfe8-485e-a06a-ac728c013c70","ios":"levelo://app?vid=9f79dff0-dfe8-485e-a06a-ac728c013c70"},"vehicle_type_id":"4","last_reported":1721499019,"current_range_meters":2800,"station_id":"ce4bgkh2rcd13ifvqbk0","pricing_plan_id":"cebpf4jnsgd1na2vs0mg"},{"bike_id":"c33ca63d-cadd-4d0b-82db-76b0c377babc","system_id":"levelo_inurba_marseille","lat":43.2936,"lon":5.37835,"is_reserved":false,"is_disabled":false,"rental_uris":{"android":"levelo://app?vid=c33ca63d-cadd-4d0b-82db-76b0c377babc","ios":"levelo://app?vid=c33ca63d-cadd-4d0b-82db-76b0c377babc"},"vehicle_type_id":"4","last_reported":1721499019,"current_range_meters":0,"station_id":"ce4bgjh2rcd13ifvqbf0","pricing_plan_id":"cebpf4jnsgd1na2vs0mg"},{"bike_id":"3658649d-e136-4031-9ef2-5a0e96274f58","system_id":"levelo_inurba_marseille","lat":43.30295,"lon":5.39214,"is_reserved":false,"is_disabled":false,"rental_uris":{"android":"levelo://app?vid=3658649d-e136-4031-9ef2-5a0e96274f58","ios":"levelo://app?vid=3658649d-e136-4031-9ef2-5a0e96274f58"},"vehicle_type_id":"4","last_reported":1721499019,"current_range_meters":4000,"station_id":"ce4bgkh2rcd13ifvqbk0","pricing_plan_id":"cebpf4jnsgd1na2vs0mg"},{"bike_id":"4667b34f-e692-4cc6-859f-4c0daae24ec5","system_id":"levelo_inurba_marseille","lat":43.303002,"lon":5.392142,"is_reserved":false,"is_disabled":false,"rental_uris":{"android":"levelo://app?vid=4667b34f-e692-4cc6-859f-4c0daae24ec5","ios":"levelo://app?vid=4667b34f-e692-4cc6-859f-4c0daae24ec5"},"vehicle_type_id":"4","last_reported":1721499019,"current_range_meters":800,"station_id":"ce4bgkh2rcd13ifvqbk0","pricing_plan_id":"cebpf4jnsgd1na2vs0mg"},{"bike_id":"a7e6281d-aef8-4cb8-a6d9-65665fc51855","system_id":"levelo_inurba_marseille","lat":43.29373,"lon":5.37858,"is_reserved":false,"is_disabled":false,"rental_uris":{"android":"levelo://app?vid=a7e6281d-aef8-4cb8-a6d9-65665fc51855","ios":"levelo://app?vid=a7e6281d-aef8-4cb8-a6d9-65665fc51855"},"vehicle_type_id":"4","last_reported":1721499019,"current_range_meters":18800,"station_id":"ce4bgjh2rcd13ifvqbf0","pricing_plan_id":"cebpf4jnsgd1na2vs0mg"},{"bike_id":"8c449df3-8faf-4ed9-a503-6c1ba764be0e","system_id":"levelo_inurba_marseille","lat":43.293746,"lon":5.378704,"is_reserved":false,"is_disabled":false,"rental_uris":{"android":"levelo://app?vid=8c449df3-8faf-4ed9-a503-6c1ba764be0e","ios":"levelo://app?vid=8c449df3-8faf-4ed9-a503-6c1ba764be0e"},"vehicle_type_id":"4","last_reported":1721499019,"current_range_meters":0,"station_id":"ce4bgjh2rcd13ifvqbf0","pricing_plan_id":"cebpf4jnsgd1na2vs0mg"},{"bike_id":"295e5a8a-9480-4788-aff5-ac311c730682","system_id":"levelo_inurba_marseille","lat":43.29362,"lon":5.378613,"is_reserved":false,"is_disabled":false,"rental_uris":{"android":"levelo://app?vid=295e5a8a-9480-4788-aff5-ac311c730682","ios":"levelo://app?vid=295e5a8a-9480-4788-aff5-ac311c730682"},"vehicle_type_id":"4","last_reported":1721499019,"current_range_meters":0,"station_id":"ce4bgjh2rcd13ifvqbf0","pricing_plan_id":"cebpf4jnsgd1na2vs0mg"},{"bike_id":"3265df2e-727e-438b-a1a9-44158275bcfc","system_id":"levelo_inurba_marseille","lat":43.2936,"lon":5.37835,"is_reserved":false,"is_disabled":false,"rental_uris":{"android":"levelo://app?vid=3265df2e-727e-438b-a1a9-44158275bcfc","ios":"levelo://app?vid=3265df2e-727e-438b-a1a9-44158275bcfc"},"vehicle_type_id":"4","last_reported":1721499019,"current_range_meters":5200,"station_id":"ce4bgjh2rcd13ifvqbf0","pricing_plan_id":"cebpf4jnsgd1na2vs0mg"},{"bike_id":"d18f0d0f-1de2-4e4d-9c88-8eb931a234d7","system_id":"levelo_inurba_marseille","lat":43.30085,"lon":5.390856,"is_reserved":false,"is_disabled":false,"rental_uris":{"android":"levelo://app?vid=d18f0d0f-1de2-4e4d-9c88-8eb931a234d7","ios":"levelo://app?vid=d18f0d0f-1de2-4e4d-9c88-8eb931a234d7"},"vehicle_type_id":"4","last_reported":1721499019,"current_range_meters":4800,"station_id":"ce4bh192rcd13ifvqdb0","pricing_plan_id":"cebpf4jnsgd1na2vs0mg"},{"bike_id":"ff4daaf7-cd36-4a01-9956-80d90926f894","system_id":"levelo_inurba_marseille","lat":43.292311,"lon":5.360731,"is_reserved":false,"is_disabled":false,"rental_uris":{"android":"levelo://app?vid=ff4daaf7-cd36-4a01-9956-80d90926f894","ios":"levelo://app?vid=ff4daaf7-cd36-4a01-9956-80d90926f894"},"vehicle_type_id":"4","last_reported":1721499019,"current_range_meters":30000,"station_id":"ce4bhbh2rcd13ifvqeqg","pricing_plan_id":"cebpf4jnsgd1na2vs0mg"},{"bike_id":"2442f040-e1ca-40f7-9c87-54028d3f42cb","system_id":"levelo_inurba_marseille","lat":43.291815,"lon":5.372038,"is_reserved":false,"is_disabled":false,"rental_uris":{"android":"levelo://app?vid=2442f040-e1ca-40f7-9c87-54028d3f42cb","ios":"levelo://app?vid=2442f040-e1ca-40f7-9c87-54028d3f42cb"},"vehicle_type_id":"4","last_reported":1721499019,"current_range_meters":11200,"station_id":"ce4bha92rcd13ifvqeh0","pricing_plan_id":"cebpf4jnsgd1na2vs0mg"},{"bike_id":"936cf053-d2ba-4454-a519-5aae65aa21ee","system_id":"levelo_inurba_marseille","lat":43.29886,"lon":5.38909,"is_reserved":false,"is_disabled":false,"rental_uris":{"android":"levelo://app?vid=936cf053-d2ba-4454-a519-5aae65aa21ee","ios":"levelo://app?vid=936cf053-d2ba-4454-a519-5aae65aa21ee"},"vehicle_type_id":"4","last_reported":1721499019,"current_range_meters":16400,"station_id":"ce4bh392rcd13ifvqdl0","pricing_plan_id":"cebpf4jnsgd1na2vs0mg"},{"bike_id":"a6071135-ba8d-4c91-baa0-735f929f19f8","system_id":"levelo_inurba_marseille","lat":43.298764,"lon":5.388973,"is_reserved":false,"is_disabled":false,"rental_uris":{"android":"levelo://app?vid=a6071135-ba8d-4c91-baa0-735f929f19f8","ios":"levelo://app?vid=a6071135-ba8d-4c91-baa0-735f929f19f8"},"vehicle_type_id":"4","last_reported":1721499019,"current_range_meters":23600,"station_id":"ce4bh392rcd13ifvqdl0","pricing_plan_id":"cebpf4jnsgd1na2vs0mg"},{"bike_id":"42e5057b-7ffe-4db0-a615-fed36896eede","system_id":"levelo_inurba_marseille","lat":43.298764,"lon":5.388973,"is_reserved":false,"is_disabled":false,"rental_uris":{"android":"levelo://app?vid=42e5057b-7ffe-4db0-a615-fed36896eede","ios":"levelo://app?vid=42e5057b-7ffe-4db0-a615-fed36896eede"},"vehicle_type_id":"4","last_reported":1721499019,"current_range_meters":0,"station_id":"ce4bh392rcd13ifvqdl0","pricing_plan_id":"cebpf4jnsgd1na2vs0mg"},{"bike_id":"f1783930-7eca-48c5-b2bb-a79eebf93e3b","system_id":"levelo_inurba_marseille","lat":43.30893,"lon":5.39634,"is_reserved":false,"is_disabled":false,"rental_uris":{"android":"levelo://app?vid=f1783930-7eca-48c5-b2bb-a79eebf93e3b","ios":"levelo://app?vid=f1783930-7eca-48c5-b2bb-a79eebf93e3b"},"vehicle_type_id":"4","last_reported":1721499019,"current_range_meters":0,"station_id":"ce4bh012rcd13ifvqcv0","pricing_plan_id":"cebpf4jnsgd1na2vs0mg"},{"bike_id":"058b39f3-5b98-4f5f-9c95-645af171862a","system_id":"levelo_inurba_marseille","lat":43.313291,"lon":5.396838,"is_reserved":false,"is_disabled":false,"rental_uris":{"android":"levelo://app?vid=058b39f3-5b98-4f5f-9c95-645af171862a","ios":"levelo://app?vid=058b39f3-5b98-4f5f-9c95-645af171862a"},"vehicle_type_id":"4","last_reported":1721499019,"current_range_meters":11200,"station_id":"ce4bgvp2rcd13ifvqcu0","pricing_plan_id":"cebpf4jnsgd1na2vs0mg"},{"bike_id":"10ef7eb7-bfbc-4887-a34c-aa6c1126497b","system_id":"levelo_inurba_marseille","lat":43.313291,"lon":5.396838,"is_reserved":false,"is_disabled":false,"rental_uris":{"android":"levelo://app?vid=10ef7eb7-bfbc-4887-a34c-aa6c1126497b","ios":"levelo://app?vid=10ef7eb7-bfbc-4887-a34c-aa6c1126497b"},"vehicle_type_id":"4","last_reported":1721499019,"current_range_meters":9600,"station_id":"ce4bgvp2rcd13ifvqcu0","pricing_plan_id":"cebpf4jnsgd1na2vs0mg"},{"bike_id":"3b66ccec-ade8-4d99-a138-58656852b5b3","system_id":"levelo_inurba_marseille","lat":43.313291,"lon":5.396838,"is_reserved":false,"is_disabled":false,"rental_uris":{"android":"levelo://app?vid=3b66ccec-ade8-4d99-a138-58656852b5b3","ios":"levelo://app?vid=3b66ccec-ade8-4d99-a138-58656852b5b3"},"vehicle_type_id":"4","last_reported":1721499019,"current_range_meters":10000,"station_id":"ce4bgvp2rcd13ifvqcu0","pricing_plan_id":"cebpf4jnsgd1na2vs0mg"},{"bike_id":"763e60aa-9d5f-460f-9cdd-e0f0fbb808b3","system_id":"levelo_inurba_marseille","lat":43.29529,"lon":5.385581,"is_reserved":false,"is_disabled":false,"rental_uris":{"android":"levelo://app?vid=763e60aa-9d5f-460f-9cdd-e0f0fbb808b3","ios":"levelo://app?vid=763e60aa-9d5f-460f-9cdd-e0f0fbb808b3"},"vehicle_type_id":"4","last_reported":1721499019,"current_range_meters":0,"station_id":"ce4bgih2rcd13ifvqba0","pricing_plan_id":"cebpf4jnsgd1na2vs0mg"},{"bike_id":"dbce3027-f1b1-46a4-a3d3-fd7e93c1d4ba","system_id":"levelo_inurba_marseille","lat":43.332406,"lon":5.380534,"is_reserved":false,"is_disabled":false,"rental_uris":{"android":"levelo://app?vid=dbce3027-f1b1-46a4-a3d3-fd7e93c1d4ba","ios":"levelo://app?vid=dbce3027-f1b1-46a4-a3d3-fd7e93c1d4ba"},"vehicle_type_id":"4","last_reported":1721499019,"current_range_meters":0,"station_id":"","pricing_plan_id":"cebpf4jnsgd1na2vs0mg"},{"bike_id":"f6281b2d-093d-403a-83d6-4ee35a44b7ff","system_id":"levelo_inurba_marseille","lat":43.29067,"lon":5.3717,"is_reserved":false,"is_disabled":false,"rental_uris":{"android":"levelo://app?vid=f6281b2d-093d-403a-83d6-4ee35a44b7ff","ios":"levelo://app?vid=f6281b2d-093d-403a-83d6-4ee35a44b7ff"},"vehicle_type_id":"4","last_reported":1721499019,"current_range_meters":0,"station_id":"ce4bh5p2rcd13ifvqe4g","pricing_plan_id":"cebpf4jnsgd1na2vs0mg"},{"bike_id":"d38d5b4c-ff1a-4878-8873-ee0fe0bb4b9a","system_id":"levelo_inurba_marseille","lat":43.294162,"lon":5.386292,"is_reserved":false,"is_disabled":false,"rental_uris":{"android":"levelo://app?vid=d38d5b4c-ff1a-4878-8873-ee0fe0bb4b9a","ios":"levelo://app?vid=d38d5b4c-ff1a-4878-8873-ee0fe0bb4b9a"},"vehicle_type_id":"4","last_reported":1721499019,"current_range_meters":21200,"station_id":"ce4bh2h2rcd13ifvqdh0","pricing_plan_id":"cebpf4jnsgd1na2vs0mg"},{"bike_id":"0290abce-15fa-4d83-95b7-d7ecfa5c1f70","system_id":"levelo_inurba_marseille","lat":43.302008,"lon":5.394694,"is_reserved":false,"is_disabled":false,"rental_uris":{"android":"levelo://app?vid=0290abce-15fa-4d83-95b7-d7ecfa5c1f70","ios":"levelo://app?vid=0290abce-15fa-4d83-95b7-d7ecfa5c1f70"},"vehicle_type_id":"4","last_reported":1721499019,"current_range_meters":4000,"station_id":"ce4bh0p2rcd13ifvqd70","pricing_plan_id":"cebpf4jnsgd1na2vs0mg"},{"bike_id":"225b1d43-d0af-40fe-8b7e-b4073e94253b","system_id":"levelo_inurba_marseille","lat":43.302008,"lon":5.394694,"is_reserved":false,"is_disabled":false,"rental_uris":{"android":"levelo://app?vid=225b1d43-d0af-40fe-8b7e-b4073e94253b","ios":"levelo://app?vid=225b1d43-d0af-40fe-8b7e-b4073e94253b"},"vehicle_type_id":"4","last_reported":1721499019,"current_range_meters":4000,"station_id":"ce4bh0p2rcd13ifvqd70","pricing_plan_id":"cebpf4jnsgd1na2vs0mg"},{"bike_id":"18536fc8-5797-4e37-96ba-163cefd16e05","system_id":"levelo_inurba_marseille","lat":43.302008,"lon":5.394694,"is_reserved":false,"is_disabled":false,"rental_uris":{"android":"levelo://app?vid=18536fc8-5797-4e37-96ba-163cefd16e05","ios":"levelo://app?vid=18536fc8-5797-4e37-96ba-163cefd16e05"},"vehicle_type_id":"4","last_reported":1721499019,"current_range_meters":2400,"station_id":"ce4bh0p2rcd13ifvqd70","pricing_plan_id":"cebpf4jnsgd1na2vs0mg"},{"bike_id":"4fa80359-b10b-4d6b-9e2f-302b75f0ab55","system_id":"levelo_inurba_marseille","lat":43.302008,"lon":5.394694,"is_reserved":false,"is_disabled":false,"rental_uris":{"android":"levelo://app?vid=4fa80359-b10b-4d6b-9e2f-302b75f0ab55","ios":"levelo://app?vid=4fa80359-b10b-4d6b-9e2f-302b75f0ab55"},"vehicle_type_id":"4","last_reported":1721499019,"current_range_meters":10000,"station_id":"ce4bh0p2rcd13ifvqd70","pricing_plan_id":"cebpf4jnsgd1na2vs0mg"},{"bike_id":"3725b0c6-9265-42dd-8bde-ad1f4d47755b","system_id":"levelo_inurba_marseille","lat":43.302008,"lon":5.394694,"is_reserved":false,"is_disabled":false,"rental_uris":{"android":"levelo://app?vid=3725b0c6-9265-42dd-8bde-ad1f4d47755b","ios":"levelo://app?vid=3725b0c6-9265-42dd-8bde-ad1f4d47755b"},"vehicle_type_id":"4","last_reported":1721499019,"current_range_meters":4400,"station_id":"ce4bh0p2rcd13ifvqd70","pricing_plan_id":"cebpf4jnsgd1na2vs0mg"},{"bike_id":"74e3c16e-ec63-4364-af04-57fb54a9efa7","system_id":"levelo_inurba_marseille","lat":43.290631,"lon":5.359244,"is_reserved":false,"is_disabled":false,"rental_uris":{"android":"levelo://app?vid=74e3c16e-ec63-4364-af04-57fb54a9efa7","ios":"levelo://app?vid=74e3c16e-ec63-4364-af04-57fb54a9efa7"},"vehicle_type_id":"4","last_reported":1721499019,"current_range_meters":0,"station_id":"ce4bha92rcd13ifvqeg0","pricing_plan_id":"cebpf4jnsgd1na2vs0mg"},{"bike_id":"4d8eac3c-8a13-457e-bb05-912549e26d95","system_id":"levelo_inurba_marseille","lat":43.290435,"lon":5.37493,"is_reserved":false,"is_disabled":false,"rental_uris":{"android":"levelo://app?vid=4d8eac3c-8a13-457e-bb05-912549e26d95","ios":"levelo://app?vid=4d8eac3c-8a13-457e-bb05-912549e26d95"},"vehicle_type_id":"4","last_reported":1721499019,"current_range_meters":4800,"station_id":"","pricing_plan_id":"cebpf4jnsgd1na2vs0mg"},{"bike_id":"84a583ae-e838-4868-9eda-0a850f26e23a","system_id":"levelo_inurba_marseille","lat":43.29032,"lon":5.35914,"is_reserved":false,"is_disabled":false,"rental_uris":{"android":"levelo://app?vid=84a583ae-e838-4868-9eda-0a850f26e23a","ios":"levelo://app?vid=84a583ae-e838-4868-9eda-0a850f26e23a"},"vehicle_type_id":"4","last_reported":1721499019,"current_range_meters":26800,"station_id":"","pricing_plan_id":"cebpf4jnsgd1na2vs0mg"},{"bike_id":"25ec6cfa-63a1-4680-bd07-ee017204cf20","system_id":"levelo_inurba_marseille","lat":43.290327,"lon":5.375711,"is_reserved":false,"is_disabled":false,"rental_uris":{"android":"levelo://app?vid=25ec6cfa-63a1-4680-bd07-ee017204cf20","ios":"levelo://app?vid=25ec6cfa-63a1-4680-bd07-ee017204cf20"},"vehicle_type_id":"4","last_reported":1721499019,"current_range_meters":4000,"station_id":"ce4bh692rcd13ifvqe90","pricing_plan_id":"cebpf4jnsgd1na2vs0mg"},{"bike_id":"7780a537-ae75-4ca3-a50a-f69ca6fb7c95","system_id":"levelo_inurba_marseille","lat":43.294162,"lon":5.386292,"is_reserved":false,"is_disabled":false,"rental_uris":{"android":"levelo://app?vid=7780a537-ae75-4ca3-a50a-f69ca6fb7c95","ios":"levelo://app?vid=7780a537-ae75-4ca3-a50a-f69ca6fb7c95"},"vehicle_type_id":"4","last_reported":1721499019,"current_range_meters":6400,"station_id":"ce4bh2h2rcd13ifvqdh0","pricing_plan_id":"cebpf4jnsgd1na2vs0mg"},{"bike_id":"2f3f7a5c-3ac3-46bc-b320-4e5aaf9f61d0","system_id":"levelo_inurba_marseille","lat":43.294153,"lon":5.386305,"is_reserved":false,"is_disabled":false,"rental_uris":{"android":"levelo://app?vid=2f3f7a5c-3ac3-46bc-b320-4e5aaf9f61d0","ios":"levelo://app?vid=2f3f7a5c-3ac3-46bc-b320-4e5aaf9f61d0"},"vehicle_type_id":"4","last_reported":1721499019,"current_range_meters":2800,"station_id":"ce4bh2h2rcd13ifvqdh0","pricing_plan_id":"cebpf4jnsgd1na2vs0mg"},{"bike_id":"e38ff040-3a8e-4559-b810-db08c9f489f0","system_id":"levelo_inurba_marseille","lat":43.290327,"lon":5.375711,"is_reserved":false,"is_disabled":false,"rental_uris":{"android":"levelo://app?vid=e38ff040-3a8e-4559-b810-db08c9f489f0","ios":"levelo://app?vid=e38ff040-3a8e-4559-b810-db08c9f489f0"},"vehicle_type_id":"4","last_reported":1721499019,"current_range_meters":27600,"station_id":"ce4bh692rcd13ifvqe90","pricing_plan_id":"cebpf4jnsgd1na2vs0mg"},{"bike_id":"cad21c26-c3d7-45eb-90e5-5b0814716e1a","system_id":"levelo_inurba_marseille","lat":43.2942,"lon":5.38621,"is_reserved":false,"is_disabled":false,"rental_uris":{"android":"levelo://app?vid=cad21c26-c3d7-45eb-90e5-5b0814716e1a","ios":"levelo://app?vid=cad21c26-c3d7-45eb-90e5-5b0814716e1a"},"vehicle_type_id":"4","last_reported":1721499019,"current_range_meters":0,"station_id":"ce4bh2h2rcd13ifvqdh0","pricing_plan_id":"cebpf4jnsgd1na2vs0mg"},{"bike_id":"416e7191-1def-4922-b696-83ff41bff5e4","system_id":"levelo_inurba_marseille","lat":43.28949,"lon":5.36642,"is_reserved":false,"is_disabled":false,"rental_uris":{"android":"levelo://app?vid=416e7191-1def-4922-b696-83ff41bff5e4","ios":"levelo://app?vid=416e7191-1def-4922-b696-83ff41bff5e4"},"vehicle_type_id":"4","last_reported":1721499019,"current_range_meters":28400,"station_id":"ce4bhap2rcd13ifvqek0","pricing_plan_id":"cebpf4jnsgd1na2vs0mg"},{"bike_id":"99f19fa7-77a8-46e5-a3f0-6cafaaf2b443","system_id":"levelo_inurba_marseille","lat":43.28946,"lon":5.36637,"is_reserved":false,"is_disabled":false,"rental_uris":{"android":"levelo://app?vid=99f19fa7-77a8-46e5-a3f0-6cafaaf2b443","ios":"levelo://app?vid=99f19fa7-77a8-46e5-a3f0-6cafaaf2b443"},"vehicle_type_id":"4","last_reported":1721499019,"current_range_meters":25200,"station_id":"ce4bhap2rcd13ifvqek0","pricing_plan_id":"cebpf4jnsgd1na2vs0mg"},{"bike_id":"76ba53af-b00b-4354-849c-d2c216e20599","system_id":"levelo_inurba_marseille","lat":43.2942,"lon":5.38629,"is_reserved":false,"is_disabled":false,"rental_uris":{"android":"levelo://app?vid=76ba53af-b00b-4354-849c-d2c216e20599","ios":"levelo://app?vid=76ba53af-b00b-4354-849c-d2c216e20599"},"vehicle_type_id":"4","last_reported":1721499019,"current_range_meters":0,"station_id":"ce4bh2h2rcd13ifvqdh0","pricing_plan_id":"cebpf4jnsgd1na2vs0mg"},{"bike_id":"712b6ae4-96ce-41b3-ae1d-c2491d66db43","system_id":"levelo_inurba_marseille","lat":43.28945,"lon":5.36628,"is_reserved":false,"is_disabled":false,"rental_uris":{"android":"levelo://app?vid=712b6ae4-96ce-41b3-ae1d-c2491d66db43","ios":"levelo://app?vid=712b6ae4-96ce-41b3-ae1d-c2491d66db43"},"vehicle_type_id":"4","last_reported":1721499019,"current_range_meters":6400,"station_id":"ce4bhap2rcd13ifvqek0","pricing_plan_id":"cebpf4jnsgd1na2vs0mg"},{"bike_id":"19bdd815-c31c-4d30-917a-6aaf7dd71d30","system_id":"levelo_inurba_marseille","lat":43.28941,"lon":5.36636,"is_reserved":false,"is_disabled":false,"rental_uris":{"android":"levelo://app?vid=19bdd815-c31c-4d30-917a-6aaf7dd71d30","ios":"levelo://app?vid=19bdd815-c31c-4d30-917a-6aaf7dd71d30"},"vehicle_type_id":"4","last_reported":1721499019,"current_range_meters":0,"station_id":"ce4bhap2rcd13ifvqek0","pricing_plan_id":"cebpf4jnsgd1na2vs0mg"},{"bike_id":"a73b4d89-ae1c-4462-a6b7-3dc745194c1e","system_id":"levelo_inurba_marseille","lat":43.304296,"lon":5.397513,"is_reserved":false,"is_disabled":false,"rental_uris":{"android":"levelo://app?vid=a73b4d89-ae1c-4462-a6b7-3dc745194c1e","ios":"levelo://app?vid=a73b4d89-ae1c-4462-a6b7-3dc745194c1e"},"vehicle_type_id":"4","last_reported":1721499019,"current_range_meters":7600,"station_id":"ce4bh092rcd13ifvqd20","pricing_plan_id":"cebpf4jnsgd1na2vs0mg"},{"bike_id":"9cccf394-b8e7-4c4b-912f-0e46ed256d62","system_id":"levelo_inurba_marseille","lat":43.304296,"lon":5.397513,"is_reserved":false,"is_disabled":false,"rental_uris":{"android":"levelo://app?vid=9cccf394-b8e7-4c4b-912f-0e46ed256d62","ios":"levelo://app?vid=9cccf394-b8e7-4c4b-912f-0e46ed256d62"},"vehicle_type_id":"4","last_reported":1721499019,"current_range_meters":6400,"station_id":"ce4bh092rcd13ifvqd20","pricing_plan_id":"cebpf4jnsgd1na2vs0mg"},{"bike_id":"351e5c6c-d213-461b-894e-16a8280e935b","system_id":"levelo_inurba_marseille","lat":43.304296,"lon":5.397513,"is_reserved":false,"is_disabled":false,"rental_uris":{"android":"levelo://app?vid=351e5c6c-d213-461b-894e-16a8280e935b","ios":"levelo://app?vid=351e5c6c-d213-461b-894e-16a8280e935b"},"vehicle_type_id":"4","last_reported":1721499019,"current_range_meters":4800,"station_id":"ce4bh092rcd13ifvqd20","pricing_plan_id":"cebpf4jnsgd1na2vs0mg"},{"bike_id":"17b88c1e-4ce8-4312-973b-9d7ba48ceedf","system_id":"levelo_inurba_marseille","lat":43.2926,"lon":5.38443,"is_reserved":false,"is_disabled":false,"rental_uris":{"android":"levelo://app?vid=17b88c1e-4ce8-4312-973b-9d7ba48ceedf","ios":"levelo://app?vid=17b88c1e-4ce8-4312-973b-9d7ba48ceedf"},"vehicle_type_id":"4","last_reported":1721499019,"current_range_meters":0,"station_id":"ce4bh692rcd13ifvqea0","pricing_plan_id":"cebpf4jnsgd1na2vs0mg"},{"bike_id":"c61f59b5-5791-449d-b01e-da43893c14bd","system_id":"levelo_inurba_marseille","lat":43.29006,"lon":5.35619,"is_reserved":false,"is_disabled":false,"rental_uris":{"android":"levelo://app?vid=c61f59b5-5791-449d-b01e-da43893c14bd","ios":"levelo://app?vid=c61f59b5-5791-449d-b01e-da43893c14bd"},"vehicle_type_id":"4","last_reported":1721499019,"current_range_meters":0,"station_id":"ce4bhb92rcd13ifvqen0","pricing_plan_id":"cebpf4jnsgd1na2vs0mg"},{"bike_id":"0546e021-2453-48ad-acf4-dbbc52e3d71b","system_id":"levelo_inurba_marseille","lat":43.290103,"lon":5.356114,"is_reserved":false,"is_disabled":false,"rental_uris":{"android":"levelo://app?vid=0546e021-2453-48ad-acf4-dbbc52e3d71b","ios":"levelo://app?vid=0546e021-2453-48ad-acf4-dbbc52e3d71b"},"vehicle_type_id":"4","last_reported":1721499019,"current_range_meters":19200,"station_id":"ce4bhb92rcd13ifvqen0","pricing_plan_id":"cebpf4jnsgd1na2vs0mg"},{"bike_id":"a5018666-1a23-4eda-8f71-d63d06019913","system_id":"levelo_inurba_marseille","lat":43.290103,"lon":5.356114,"is_reserved":false,"is_disabled":false,"rental_uris":{"android":"levelo://app?vid=a5018666-1a23-4eda-8f71-d63d06019913","ios":"levelo://app?vid=a5018666-1a23-4eda-8f71-d63d06019913"},"vehicle_type_id":"4","last_reported":1721499019,"current_range_meters":16400,"station_id":"ce4bhb92rcd13ifvqen0","pricing_plan_id":"cebpf4jnsgd1na2vs0mg"},{"bike_id":"7f084168-f4a2-4c4f-a323-59e8bba81395","system_id":"levelo_inurba_marseille","lat":43.290104,"lon":5.356111,"is_reserved":false,"is_disabled":false,"rental_uris":{"android":"levelo://app?vid=7f084168-f4a2-4c4f-a323-59e8bba81395","ios":"levelo://app?vid=7f084168-f4a2-4c4f-a323-59e8bba81395"},"vehicle_type_id":"4","last_reported":1721499019,"current_range_meters":800,"station_id":"ce4bhb92rcd13ifvqen0","pricing_plan_id":"cebpf4jnsgd1na2vs0mg"},{"bike_id":"31afbd5b-f587-4785-a993-135b99b20d78","system_id":"levelo_inurba_marseille","lat":43.29101,"lon":5.38143,"is_reserved":false,"is_disabled":false,"rental_uris":{"android":"levelo://app?vid=31afbd5b-f587-4785-a993-135b99b20d78","ios":"levelo://app?vid=31afbd5b-f587-4785-a993-135b99b20d78"},"vehicle_type_id":"4","last_reported":1721499019,"current_range_meters":0,"station_id":"ce4bh512rcd13ifvqe2g","pricing_plan_id":"cebpf4jnsgd1na2vs0mg"},{"bike_id":"cdb48d1c-08b8-4698-a2ec-ca327d4c04d0","system_id":"levelo_inurba_marseille","lat":43.290995,"lon":5.381361,"is_reserved":false,"is_disabled":false,"rental_uris":{"android":"levelo://app?vid=cdb48d1c-08b8-4698-a2ec-ca327d4c04d0","ios":"levelo://app?vid=cdb48d1c-08b8-4698-a2ec-ca327d4c04d0"},"vehicle_type_id":"4","last_reported":1721499019,"current_range_meters":18400,"station_id":"ce4bh512rcd13ifvqe2g","pricing_plan_id":"cebpf4jnsgd1na2vs0mg"},{"bike_id":"87ddd670-3d8e-4dc6-b927-aa3d01031f78","system_id":"levelo_inurba_marseille","lat":43.28978,"lon":5.3784,"is_reserved":false,"is_disabled":false,"rental_uris":{"android":"levelo://app?vid=87ddd670-3d8e-4dc6-b927-aa3d01031f78","ios":"levelo://app?vid=87ddd670-3d8e-4dc6-b927-aa3d01031f78"},"vehicle_type_id":"4","last_reported":1721499019,"current_range_meters":0,"station_id":"ce4bh9p2rcd13ifvqed0","pricing_plan_id":"cebpf4jnsgd1na2vs0mg"},{"bike_id":"38df83c9-60c0-4cd1-8f7b-1daf30a729bd","system_id":"levelo_inurba_marseille","lat":43.330442,"lon":5.389148,"is_reserved":false,"is_disabled":false,"rental_uris":{"android":"levelo://app?vid=38df83c9-60c0-4cd1-8f7b-1daf30a729bd","ios":"levelo://app?vid=38df83c9-60c0-4cd1-8f7b-1daf30a729bd"},"vehicle_type_id":"4","last_reported":1721499019,"current_range_meters":9600,"station_id":"ce4bhr92rcd13ifvqhrg","pricing_plan_id":"cebpf4jnsgd1na2vs0mg"},{"bike_id":"494a57c9-548f-46e2-a35f-a7a095bf771f","system_id":"levelo_inurba_marseille","lat":43.325243,"lon":5.414326,"is_reserved":false,"is_disabled":false,"rental_uris":{"android":"levelo://app?vid=494a57c9-548f-46e2-a35f-a7a095bf771f","ios":"levelo://app?vid=494a57c9-548f-46e2-a35f-a7a095bf771f"},"vehicle_type_id":"4","last_reported":1721499019,"current_range_meters":4800,"station_id":"ce4bhq12rcd13ifvqhhg","pricing_plan_id":"cebpf4jnsgd1na2vs0mg"},{"bike_id":"63662f8a-f410-41ca-9814-12fd86ab6243","system_id":"levelo_inurba_marseille","lat":43.28856,"lon":5.358371,"is_reserved":false,"is_disabled":false,"rental_uris":{"android":"levelo://app?vid=63662f8a-f410-41ca-9814-12fd86ab6243","ios":"levelo://app?vid=63662f8a-f410-41ca-9814-12fd86ab6243"},"vehicle_type_id":"4","last_reported":1721499019,"current_range_meters":15200,"station_id":"ce4bhb12rcd13ifvqem0","pricing_plan_id":"cebpf4jnsgd1na2vs0mg"},{"bike_id":"c15e01fe-b0a1-424d-b80d-0c7e3c40963b","system_id":"levelo_inurba_marseille","lat":43.309371,"lon":5.401449,"is_reserved":false,"is_disabled":false,"rental_uris":{"android":"levelo://app?vid=c15e01fe-b0a1-424d-b80d-0c7e3c40963b","ios":"levelo://app?vid=c15e01fe-b0a1-424d-b80d-0c7e3c40963b"},"vehicle_type_id":"4","last_reported":1721499019,"current_range_meters":15200,"station_id":"ce4bgvp2rcd13ifvqct0","pricing_plan_id":"cebpf4jnsgd1na2vs0mg"},{"bike_id":"a2c37cc0-d26f-4454-856e-fdff735a736d","system_id":"levelo_inurba_marseille","lat":43.312609,"lon":5.401662,"is_reserved":false,"is_disabled":false,"rental_uris":{"android":"levelo://app?vid=a2c37cc0-d26f-4454-856e-fdff735a736d","ios":"levelo://app?vid=a2c37cc0-d26f-4454-856e-fdff735a736d"},"vehicle_type_id":"4","last_reported":1721499019,"current_range_meters":0,"station_id":"ce4bh092rcd13ifvqd30","pricing_plan_id":"cebpf4jnsgd1na2vs0mg"},{"bike_id":"6795da36-3152-4090-a899-b743f7df4382","system_id":"levelo_inurba_marseille","lat":43.309371,"lon":5.401449,"is_reserved":false,"is_disabled":false,"rental_uris":{"android":"levelo://app?vid=6795da36-3152-4090-a899-b743f7df4382","ios":"levelo://app?vid=6795da36-3152-4090-a899-b743f7df4382"},"vehicle_type_id":"4","last_reported":1721499019,"current_range_meters":20800,"station_id":"ce4bgvp2rcd13ifvqct0","pricing_plan_id":"cebpf4jnsgd1na2vs0mg"},{"bike_id":"76974679-eaf5-41fa-8633-acc82d773d44","system_id":"levelo_inurba_marseille","lat":43.312609,"lon":5.401662,"is_reserved":false,"is_disabled":false,"rental_uris":{"android":"levelo://app?vid=76974679-eaf5-41fa-8633-acc82d773d44","ios":"levelo://app?vid=76974679-eaf5-41fa-8633-acc82d773d44"},"vehicle_type_id":"4","last_reported":1721499019,"current_range_meters":28400,"station_id":"ce4bh092rcd13ifvqd30","pricing_plan_id":"cebpf4jnsgd1na2vs0mg"},{"bike_id":"da1ef795-4411-4787-a704-e9710fe27f7e","system_id":"levelo_inurba_marseille","lat":43.337472,"lon":5.374599,"is_reserved":false,"is_disabled":false,"rental_uris":{"android":"levelo://app?vid=da1ef795-4411-4787-a704-e9710fe27f7e","ios":"levelo://app?vid=da1ef795-4411-4787-a704-e9710fe27f7e"},"vehicle_type_id":"4","last_reported":1721499019,"current_range_meters":22000,"station_id":"","pricing_plan_id":"cebpf4jnsgd1na2vs0mg"},{"bike_id":"5dcaf156-8706-4470-852b-bbc283fe383a","system_id":"levelo_inurba_marseille","lat":43.309371,"lon":5.401449,"is_reserved":false,"is_disabled":false,"rental_uris":{"android":"levelo://app?vid=5dcaf156-8706-4470-852b-bbc283fe383a","ios":"levelo://app?vid=5dcaf156-8706-4470-852b-bbc283fe383a"},"vehicle_type_id":"4","last_reported":1721499019,"current_range_meters":13600,"station_id":"ce4bgvp2rcd13ifvqct0","pricing_plan_id":"cebpf4jnsgd1na2vs0mg"},{"bike_id":"9458a255-a47a-41f1-849e-755dc4612ffe","system_id":"levelo_inurba_marseille","lat":43.337517,"lon":5.374535,"is_reserved":false,"is_disabled":false,"rental_uris":{"android":"levelo://app?vid=9458a255-a47a-41f1-849e-755dc4612ffe","ios":"levelo://app?vid=9458a255-a47a-41f1-849e-755dc4612ffe"},"vehicle_type_id":"4","last_reported":1721499019,"current_range_meters":20800,"station_id":"","pricing_plan_id":"cebpf4jnsgd1na2vs0mg"},{"bike_id":"0ad3db73-21e8-41b5-aad3-7f410c37748d","system_id":"levelo_inurba_marseille","lat":43.33754,"lon":5.37454,"is_reserved":false,"is_disabled":false,"rental_uris":{"android":"levelo://app?vid=0ad3db73-21e8-41b5-aad3-7f410c37748d","ios":"levelo://app?vid=0ad3db73-21e8-41b5-aad3-7f410c37748d"},"vehicle_type_id":"4","last_reported":1721499019,"current_range_meters":13600,"station_id":"","pricing_plan_id":"cebpf4jnsgd1na2vs0mg"},{"bike_id":"9fd23b8b-c7c3-4b5a-b11d-8284b8e4dfa2","system_id":"levelo_inurba_marseille","lat":43.337578,"lon":5.374428,"is_reserved":false,"is_disabled":false,"rental_uris":{"android":"levelo://app?vid=9fd23b8b-c7c3-4b5a-b11d-8284b8e4dfa2","ios":"levelo://app?vid=9fd23b8b-c7c3-4b5a-b11d-8284b8e4dfa2"},"vehicle_type_id":"4","last_reported":1721499019,"current_range_meters":25600,"station_id":"","pricing_plan_id":"cebpf4jnsgd1na2vs0mg"},{"bike_id":"ac377a63-6a02-42fa-8a70-d5bb9b7546c9","system_id":"levelo_inurba_marseille","lat":43.337626,"lon":5.374295,"is_reserved":false,"is_disabled":false,"rental_uris":{"android":"levelo://app?vid=ac377a63-6a02-42fa-8a70-d5bb9b7546c9","ios":"levelo://app?vid=ac377a63-6a02-42fa-8a70-d5bb9b7546c9"},"vehicle_type_id":"4","last_reported":1721499019,"current_range_meters":20000,"station_id":"","pricing_plan_id":"cebpf4jnsgd1na2vs0mg"},{"bike_id":"20f378d4-a99f-47d5-8518-36b590c9d17a","system_id":"levelo_inurba_marseille","lat":43.30642,"lon":5.401031,"is_reserved":false,"is_disabled":false,"rental_uris":{"android":"levelo://app?vid=20f378d4-a99f-47d5-8518-36b590c9d17a","ios":"levelo://app?vid=20f378d4-a99f-47d5-8518-36b590c9d17a"},"vehicle_type_id":"4","last_reported":1721499019,"current_range_meters":23200,"station_id":"ce4bh112rcd13ifvqda0","pricing_plan_id":"cebpf4jnsgd1na2vs0mg"},{"bike_id":"d0723523-f35a-472e-b198-a5153fc33bb6","system_id":"levelo_inurba_marseille","lat":43.3376,"lon":5.37479,"is_reserved":false,"is_disabled":false,"rental_uris":{"android":"levelo://app?vid=d0723523-f35a-472e-b198-a5153fc33bb6","ios":"levelo://app?vid=d0723523-f35a-472e-b198-a5153fc33bb6"},"vehicle_type_id":"4","last_reported":1721499019,"current_range_meters":21600,"station_id":"","pricing_plan_id":"cebpf4jnsgd1na2vs0mg"},{"bike_id":"c5feb7d2-b368-4f1a-8f74-6d1c5bf51385","system_id":"levelo_inurba_marseille","lat":43.301117,"lon":5.398795,"is_reserved":false,"is_disabled":false,"rental_uris":{"android":"levelo://app?vid=c5feb7d2-b368-4f1a-8f74-6d1c5bf51385","ios":"levelo://app?vid=c5feb7d2-b368-4f1a-8f74-6d1c5bf51385"},"vehicle_type_id":"4","last_reported":1721499019,"current_range_meters":9600,"station_id":"ce4bh0h2rcd13ifvqd40","pricing_plan_id":"cebpf4jnsgd1na2vs0mg"},{"bike_id":"c1af56de-be73-4e36-97b2-97d715f9f6e1","system_id":"levelo_inurba_marseille","lat":43.28727,"lon":5.36078,"is_reserved":false,"is_disabled":false,"rental_uris":{"android":"levelo://app?vid=c1af56de-be73-4e36-97b2-97d715f9f6e1","ios":"levelo://app?vid=c1af56de-be73-4e36-97b2-97d715f9f6e1"},"vehicle_type_id":"4","last_reported":1721499019,"current_range_meters":19200,"station_id":"cki0cbj6b192h4jlfktg","pricing_plan_id":"cebpf4jnsgd1na2vs0mg"},{"bike_id":"13ff47b7-0ed4-4359-8d4b-9981f8e6f20f","system_id":"levelo_inurba_marseille","lat":43.286961,"lon":5.373785,"is_reserved":false,"is_disabled":false,"rental_uris":{"android":"levelo://app?vid=13ff47b7-0ed4-4359-8d4b-9981f8e6f20f","ios":"levelo://app?vid=13ff47b7-0ed4-4359-8d4b-9981f8e6f20f"},"vehicle_type_id":"4","last_reported":1721499019,"current_range_meters":21200,"station_id":"ce4bh3p2rcd13ifvqdq0","pricing_plan_id":"cebpf4jnsgd1na2vs0mg"},{"bike_id":"d1494a3e-7a31-4bda-a7fe-c72aba6306a9","system_id":"levelo_inurba_marseille","lat":43.286593,"lon":5.363346,"is_reserved":false,"is_disabled":false,"rental_uris":{"android":"levelo://app?vid=d1494a3e-7a31-4bda-a7fe-c72aba6306a9","ios":"levelo://app?vid=d1494a3e-7a31-4bda-a7fe-c72aba6306a9"},"vehicle_type_id":"4","last_reported":1721499019,"current_range_meters":11200,"station_id":"ce4bhah2rcd13ifvqej0","pricing_plan_id":"cebpf4jnsgd1na2vs0mg"},{"bike_id":"b09ff504-0228-44e9-a0a6-c60c8bfc798b","system_id":"levelo_inurba_marseille","lat":43.2987,"lon":5.3973,"is_reserved":false,"is_disabled":false,"rental_uris":{"android":"levelo://app?vid=b09ff504-0228-44e9-a0a6-c60c8bfc798b","ios":"levelo://app?vid=b09ff504-0228-44e9-a0a6-c60c8bfc798b"},"vehicle_type_id":"4","last_reported":1721499019,"current_range_meters":2800,"station_id":"ce4bh0h2rcd13ifvqd50","pricing_plan_id":"cebpf4jnsgd1na2vs0mg"},{"bike_id":"5e0815f0-806f-4687-b4b8-000e5ef9e84c","system_id":"levelo_inurba_marseille","lat":43.286039,"lon":5.370679,"is_reserved":false,"is_disabled":false,"rental_uris":{"android":"levelo://app?vid=5e0815f0-806f-4687-b4b8-000e5ef9e84c","ios":"levelo://app?vid=5e0815f0-806f-4687-b4b8-000e5ef9e84c"},"vehicle_type_id":"4","last_reported":1721499019,"current_range_meters":2400,"station_id":"ce4bht12rcd13ifvqi60","pricing_plan_id":"cebpf4jnsgd1na2vs0mg"},{"bike_id":"a8cb3bc8-804e-4f72-8d96-3c83c46cb078","system_id":"levelo_inurba_marseille","lat":43.3261,"lon":5.398408,"is_reserved":false,"is_disabled":false,"rental_uris":{"android":"levelo://app?vid=a8cb3bc8-804e-4f72-8d96-3c83c46cb078","ios":"levelo://app?vid=a8cb3bc8-804e-4f72-8d96-3c83c46cb078"},"vehicle_type_id":"4","last_reported":1721499019,"current_range_meters":28800,"station_id":"","pricing_plan_id":"cebpf4jnsgd1na2vs0mg"},{"bike_id":"2add18a6-8374-49e4-8d89-64fd874cd577","system_id":"levelo_inurba_marseille","lat":43.286039,"lon":5.370679,"is_reserved":false,"is_disabled":false,"rental_uris":{"android":"levelo://app?vid=2add18a6-8374-49e4-8d89-64fd874cd577","ios":"levelo://app?vid=2add18a6-8374-49e4-8d89-64fd874cd577"},"vehicle_type_id":"4","last_reported":1721499019,"current_range_meters":16400,"station_id":"ce4bht12rcd13ifvqi60","pricing_plan_id":"cebpf4jnsgd1na2vs0mg"},{"bike_id":"4f434f97-05b6-45b3-b482-1a8021332856","system_id":"levelo_inurba_marseille","lat":43.286039,"lon":5.370681,"is_reserved":false,"is_disabled":false,"rental_uris":{"android":"levelo://app?vid=4f434f97-05b6-45b3-b482-1a8021332856","ios":"levelo://app?vid=4f434f97-05b6-45b3-b482-1a8021332856"},"vehicle_type_id":"4","last_reported":1721499019,"current_range_meters":15600,"station_id":"ce4bht12rcd13ifvqi60","pricing_plan_id":"cebpf4jnsgd1na2vs0mg"},{"bike_id":"d5e922bf-281a-4d6e-958f-fe73f5506bb7","system_id":"levelo_inurba_marseille","lat":43.28719,"lon":5.37936,"is_reserved":false,"is_disabled":false,"rental_uris":{"android":"levelo://app?vid=d5e922bf-281a-4d6e-958f-fe73f5506bb7","ios":"levelo://app?vid=d5e922bf-281a-4d6e-958f-fe73f5506bb7"},"vehicle_type_id":"4","last_reported":1721499019,"current_range_meters":0,"station_id":"ce4bh9p2rcd13ifvqec0","pricing_plan_id":"cebpf4jnsgd1na2vs0mg"},{"bike_id":"af8c9f28-bfe5-43c7-b2cb-a840dc76a329","system_id":"levelo_inurba_marseille","lat":43.28716,"lon":5.37943,"is_reserved":false,"is_disabled":false,"rental_uris":{"android":"levelo://app?vid=af8c9f28-bfe5-43c7-b2cb-a840dc76a329","ios":"levelo://app?vid=af8c9f28-bfe5-43c7-b2cb-a840dc76a329"},"vehicle_type_id":"4","last_reported":1721499019,"current_range_meters":0,"station_id":"ce4bh9p2rcd13ifvqec0","pricing_plan_id":"cebpf4jnsgd1na2vs0mg"},{"bike_id":"b1573b25-3dee-4dee-9a71-26cb24f437b4","system_id":"levelo_inurba_marseille","lat":43.316828,"lon":5.404723,"is_reserved":false,"is_disabled":false,"rental_uris":{"android":"levelo://app?vid=b1573b25-3dee-4dee-9a71-26cb24f437b4","ios":"levelo://app?vid=b1573b25-3dee-4dee-9a71-26cb24f437b4"},"vehicle_type_id":"4","last_reported":1721499019,"current_range_meters":18400,"station_id":"ce4bh012rcd13ifvqd00","pricing_plan_id":"cebpf4jnsgd1na2vs0mg"},{"bike_id":"767fc776-16d9-42ad-a724-9efae6d12118","system_id":"levelo_inurba_marseille","lat":43.294314,"lon":5.397498,"is_reserved":false,"is_disabled":false,"rental_uris":{"android":"levelo://app?vid=767fc776-16d9-42ad-a724-9efae6d12118","ios":"levelo://app?vid=767fc776-16d9-42ad-a724-9efae6d12118"},"vehicle_type_id":"4","last_reported":1721499019,"current_range_meters":16000,"station_id":"ce4bh3h2rcd13ifvqdo0","pricing_plan_id":"cebpf4jnsgd1na2vs0mg"},{"bike_id":"199132a0-5b7f-483f-88dd-0bc817d8f34a","system_id":"levelo_inurba_marseille","lat":43.28622,"lon":5.35112,"is_reserved":false,"is_disabled":false,"rental_uris":{"android":"levelo://app?vid=199132a0-5b7f-483f-88dd-0bc817d8f34a","ios":"levelo://app?vid=199132a0-5b7f-483f-88dd-0bc817d8f34a"},"vehicle_type_id":"4","last_reported":1721499019,"current_range_meters":0,"station_id":"ce4bhch2rcd13ifvqeug","pricing_plan_id":"cebpf4jnsgd1na2vs0mg"},{"bike_id":"d6da4b18-7e4b-43fd-8ad6-b5ad7f32c880","system_id":"levelo_inurba_marseille","lat":43.2862,"lon":5.35114,"is_reserved":false,"is_disabled":false,"rental_uris":{"android":"levelo://app?vid=d6da4b18-7e4b-43fd-8ad6-b5ad7f32c880","ios":"levelo://app?vid=d6da4b18-7e4b-43fd-8ad6-b5ad7f32c880"},"vehicle_type_id":"4","last_reported":1721499019,"current_range_meters":0,"station_id":"ce4bhch2rcd13ifvqeug","pricing_plan_id":"cebpf4jnsgd1na2vs0mg"},{"bike_id":"99c18c73-d086-4c11-b583-d7a9634ebb8d","system_id":"levelo_inurba_marseille","lat":43.28618,"lon":5.35104,"is_reserved":false,"is_disabled":false,"rental_uris":{"android":"levelo://app?vid=99c18c73-d086-4c11-b583-d7a9634ebb8d","ios":"levelo://app?vid=99c18c73-d086-4c11-b583-d7a9634ebb8d"},"vehicle_type_id":"4","last_reported":1721499019,"current_range_meters":0,"station_id":"","pricing_plan_id":"cebpf4jnsgd1na2vs0mg"},{"bike_id":"f38eeb83-9c77-4c11-a9e6-fa0aea19d26b","system_id":"levelo_inurba_marseille","lat":43.285848,"lon":5.350787,"is_reserved":false,"is_disabled":false,"rental_uris":{"android":"levelo://app?vid=f38eeb83-9c77-4c11-a9e6-fa0aea19d26b","ios":"levelo://app?vid=f38eeb83-9c77-4c11-a9e6-fa0aea19d26b"},"vehicle_type_id":"4","last_reported":1721499019,"current_range_meters":0,"station_id":"ce4bhch2rcd13ifvqeug","pricing_plan_id":"cebpf4jnsgd1na2vs0mg"},{"bike_id":"962f07d4-6429-4420-bb4b-9e77bcb737db","system_id":"levelo_inurba_marseille","lat":43.28618,"lon":5.351,"is_reserved":false,"is_disabled":false,"rental_uris":{"android":"levelo://app?vid=962f07d4-6429-4420-bb4b-9e77bcb737db","ios":"levelo://app?vid=962f07d4-6429-4420-bb4b-9e77bcb737db"},"vehicle_type_id":"4","last_reported":1721499019,"current_range_meters":0,"station_id":"ce4bhch2rcd13ifvqeug","pricing_plan_id":"cebpf4jnsgd1na2vs0mg"},{"bike_id":"9125047c-d0f9-4b2e-b9fb-a36768bdde48","system_id":"levelo_inurba_marseille","lat":43.285848,"lon":5.350787,"is_reserved":false,"is_disabled":false,"rental_uris":{"android":"levelo://app?vid=9125047c-d0f9-4b2e-b9fb-a36768bdde48","ios":"levelo://app?vid=9125047c-d0f9-4b2e-b9fb-a36768bdde48"},"vehicle_type_id":"4","last_reported":1721499019,"current_range_meters":0,"station_id":"ce4bhch2rcd13ifvqeug","pricing_plan_id":"cebpf4jnsgd1na2vs0mg"},{"bike_id":"57d2b317-8f6a-4eb0-af3b-67e1cab96ae5","system_id":"levelo_inurba_marseille","lat":43.285848,"lon":5.350787,"is_reserved":false,"is_disabled":false,"rental_uris":{"android":"levelo://app?vid=57d2b317-8f6a-4eb0-af3b-67e1cab96ae5","ios":"levelo://app?vid=57d2b317-8f6a-4eb0-af3b-67e1cab96ae5"},"vehicle_type_id":"4","last_reported":1721499019,"current_range_meters":0,"station_id":"ce4bhch2rcd13ifvqeug","pricing_plan_id":"cebpf4jnsgd1na2vs0mg"},{"bike_id":"7ca2d8bb-becb-40b3-8d52-72259a6612ef","system_id":"levelo_inurba_marseille","lat":43.28755,"lon":5.38688,"is_reserved":false,"is_disabled":false,"rental_uris":{"android":"levelo://app?vid=7ca2d8bb-becb-40b3-8d52-72259a6612ef","ios":"levelo://app?vid=7ca2d8bb-becb-40b3-8d52-72259a6612ef"},"vehicle_type_id":"4","last_reported":1721499019,"current_range_meters":13600,"station_id":"","pricing_plan_id":"cebpf4jnsgd1na2vs0mg"},{"bike_id":"83dbcc56-5409-43e2-841c-a9218ec64ba8","system_id":"levelo_inurba_marseille","lat":43.283998,"lon":5.375062,"is_reserved":false,"is_disabled":false,"rental_uris":{"android":"levelo://app?vid=83dbcc56-5409-43e2-841c-a9218ec64ba8","ios":"levelo://app?vid=83dbcc56-5409-43e2-841c-a9218ec64ba8"},"vehicle_type_id":"4","last_reported":1721499019,"current_range_meters":0,"station_id":"ce4bh412rcd13ifvqds0","pricing_plan_id":"cebpf4jnsgd1na2vs0mg"},{"bike_id":"2773ebe8-2ed1-469a-bc40-7c29c2a431a5","system_id":"levelo_inurba_marseille","lat":43.283998,"lon":5.375062,"is_reserved":false,"is_disabled":false,"rental_uris":{"android":"levelo://app?vid=2773ebe8-2ed1-469a-bc40-7c29c2a431a5","ios":"levelo://app?vid=2773ebe8-2ed1-469a-bc40-7c29c2a431a5"},"vehicle_type_id":"4","last_reported":1721499019,"current_range_meters":0,"station_id":"ce4bh412rcd13ifvqds0","pricing_plan_id":"cebpf4jnsgd1na2vs0mg"},{"bike_id":"e4d6229d-ba6f-4870-9e19-a05183cf18a9","system_id":"levelo_inurba_marseille","lat":43.28411,"lon":5.37506,"is_reserved":false,"is_disabled":false,"rental_uris":{"android":"levelo://app?vid=e4d6229d-ba6f-4870-9e19-a05183cf18a9","ios":"levelo://app?vid=e4d6229d-ba6f-4870-9e19-a05183cf18a9"},"vehicle_type_id":"4","last_reported":1721499019,"current_range_meters":0,"station_id":"ce4bh412rcd13ifvqds0","pricing_plan_id":"cebpf4jnsgd1na2vs0mg"},{"bike_id":"5daf1fcf-938c-4376-bddb-5626cfd1ba96","system_id":"levelo_inurba_marseille","lat":43.283998,"lon":5.375062,"is_reserved":false,"is_disabled":false,"rental_uris":{"android":"levelo://app?vid=5daf1fcf-938c-4376-bddb-5626cfd1ba96","ios":"levelo://app?vid=5daf1fcf-938c-4376-bddb-5626cfd1ba96"},"vehicle_type_id":"4","last_reported":1721499019,"current_range_meters":0,"station_id":"ce4bh412rcd13ifvqds0","pricing_plan_id":"cebpf4jnsgd1na2vs0mg"},{"bike_id":"7b9f46c8-7e89-4d22-96b4-28fd7849b02a","system_id":"levelo_inurba_marseille","lat":43.283998,"lon":5.375062,"is_reserved":false,"is_disabled":false,"rental_uris":{"android":"levelo://app?vid=7b9f46c8-7e89-4d22-96b4-28fd7849b02a","ios":"levelo://app?vid=7b9f46c8-7e89-4d22-96b4-28fd7849b02a"},"vehicle_type_id":"4","last_reported":1721499019,"current_range_meters":1600,"station_id":"ce4bh412rcd13ifvqds0","pricing_plan_id":"cebpf4jnsgd1na2vs0mg"},{"bike_id":"982705c8-434b-4984-840a-d1e0da4b6124","system_id":"levelo_inurba_marseille","lat":43.299606,"lon":5.403206,"is_reserved":false,"is_disabled":false,"rental_uris":{"android":"levelo://app?vid=982705c8-434b-4984-840a-d1e0da4b6124","ios":"levelo://app?vid=982705c8-434b-4984-840a-d1e0da4b6124"},"vehicle_type_id":"4","last_reported":1721499019,"current_range_meters":15200,"station_id":"","pricing_plan_id":"cebpf4jnsgd1na2vs0mg"},{"bike_id":"e0591a70-6ba3-4fbc-85e3-7ba558382f30","system_id":"levelo_inurba_marseille","lat":43.2868,"lon":5.38657,"is_reserved":false,"is_disabled":false,"rental_uris":{"android":"levelo://app?vid=e0591a70-6ba3-4fbc-85e3-7ba558382f30","ios":"levelo://app?vid=e0591a70-6ba3-4fbc-85e3-7ba558382f30"},"vehicle_type_id":"4","last_reported":1721499019,"current_range_meters":0,"station_id":"ce4bh492rcd13ifvqdug","pricing_plan_id":"cebpf4jnsgd1na2vs0mg"},{"bike_id":"b517262a-1eb0-43bc-93b1-615ca01f6b28","system_id":"levelo_inurba_marseille","lat":43.28682,"lon":5.38663,"is_reserved":false,"is_disabled":false,"rental_uris":{"android":"levelo://app?vid=b517262a-1eb0-43bc-93b1-615ca01f6b28","ios":"levelo://app?vid=b517262a-1eb0-43bc-93b1-615ca01f6b28"},"vehicle_type_id":"4","last_reported":1721499019,"current_range_meters":0,"station_id":"ce4bh492rcd13ifvqdug","pricing_plan_id":"cebpf4jnsgd1na2vs0mg"},{"bike_id":"f584fb3c-4dd0-4f63-ad77-356ab1d5ec53","system_id":"levelo_inurba_marseille","lat":43.286595,"lon":5.386795,"is_reserved":false,"is_disabled":false,"rental_uris":{"android":"levelo://app?vid=f584fb3c-4dd0-4f63-ad77-356ab1d5ec53","ios":"levelo://app?vid=f584fb3c-4dd0-4f63-ad77-356ab1d5ec53"},"vehicle_type_id":"4","last_reported":1721499019,"current_range_meters":0,"station_id":"ce4bh492rcd13ifvqdug","pricing_plan_id":"cebpf4jnsgd1na2vs0mg"},{"bike_id":"13d1c0d7-2a0b-45a4-b72d-973613e2c873","system_id":"levelo_inurba_marseille","lat":43.273609,"lon":5.362708,"is_reserved":false,"is_disabled":false,"rental_uris":{"android":"levelo://app?vid=13d1c0d7-2a0b-45a4-b72d-973613e2c873","ios":"levelo://app?vid=13d1c0d7-2a0b-45a4-b72d-973613e2c873"},"vehicle_type_id":"4","last_reported":1721499019,"current_range_meters":4800,"station_id":"ce4bhbh2rcd13ifvqeo0","pricing_plan_id":"cebpf4jnsgd1na2vs0mg"},{"bike_id":"6dd3e6dc-e12d-46f8-8b0a-9993ff970c55","system_id":"levelo_inurba_marseille","lat":43.286619,"lon":5.386738,"is_reserved":false,"is_disabled":false,"rental_uris":{"android":"levelo://app?vid=6dd3e6dc-e12d-46f8-8b0a-9993ff970c55","ios":"levelo://app?vid=6dd3e6dc-e12d-46f8-8b0a-9993ff970c55"},"vehicle_type_id":"4","last_reported":1721499019,"current_range_meters":14000,"station_id":"","pricing_plan_id":"cebpf4jnsgd1na2vs0mg"},{"bike_id":"9746be6c-acc2-4a6d-b5cf-8eb7dbb151ec","system_id":"levelo_inurba_marseille","lat":43.319179,"lon":5.407725,"is_reserved":false,"is_disabled":false,"rental_uris":{"android":"levelo://app?vid=9746be6c-acc2-4a6d-b5cf-8eb7dbb151ec","ios":"levelo://app?vid=9746be6c-acc2-4a6d-b5cf-8eb7dbb151ec"},"vehicle_type_id":"4","last_reported":1721499019,"current_range_meters":4400,"station_id":"ce4bhq12rcd13ifvqhig","pricing_plan_id":"cebpf4jnsgd1na2vs0mg"},{"bike_id":"4f071ffb-ae52-429f-bc2e-669cd2ae2229","system_id":"levelo_inurba_marseille","lat":43.28836,"lon":5.39127,"is_reserved":false,"is_disabled":false,"rental_uris":{"android":"levelo://app?vid=4f071ffb-ae52-429f-bc2e-669cd2ae2229","ios":"levelo://app?vid=4f071ffb-ae52-429f-bc2e-669cd2ae2229"},"vehicle_type_id":"4","last_reported":1721499019,"current_range_meters":20400,"station_id":"","pricing_plan_id":"cebpf4jnsgd1na2vs0mg"},{"bike_id":"086482ce-db1f-4503-b3cc-5f2f87605733","system_id":"levelo_inurba_marseille","lat":43.3234,"lon":5.40616,"is_reserved":false,"is_disabled":false,"rental_uris":{"android":"levelo://app?vid=086482ce-db1f-4503-b3cc-5f2f87605733","ios":"levelo://app?vid=086482ce-db1f-4503-b3cc-5f2f87605733"},"vehicle_type_id":"4","last_reported":1721499019,"current_range_meters":9600,"station_id":"ce4bhq92rcd13ifvqhjg","pricing_plan_id":"cebpf4jnsgd1na2vs0mg"},{"bike_id":"cef1b977-454e-4e1d-b5b2-3970820dd435","system_id":"levelo_inurba_marseille","lat":43.284993,"lon":5.385503,"is_reserved":false,"is_disabled":false,"rental_uris":{"android":"levelo://app?vid=cef1b977-454e-4e1d-b5b2-3970820dd435","ios":"levelo://app?vid=cef1b977-454e-4e1d-b5b2-3970820dd435"},"vehicle_type_id":"4","last_reported":1721499019,"current_range_meters":31200,"station_id":"ce4bh8p2rcd13ifvqeb0","pricing_plan_id":"cebpf4jnsgd1na2vs0mg"},{"bike_id":"111a54f2-9748-4089-b16d-692237016fd1","system_id":"levelo_inurba_marseille","lat":43.288497,"lon":5.393089,"is_reserved":false,"is_disabled":false,"rental_uris":{"android":"levelo://app?vid=111a54f2-9748-4089-b16d-692237016fd1","ios":"levelo://app?vid=111a54f2-9748-4089-b16d-692237016fd1"},"vehicle_type_id":"4","last_reported":1721499019,"current_range_meters":0,"station_id":"ce4bh2p2rcd13ifvqdi0","pricing_plan_id":"cebpf4jnsgd1na2vs0mg"},{"bike_id":"a2f221a3-318b-41c6-a945-a896b25c3921","system_id":"levelo_inurba_marseille","lat":43.28489,"lon":5.38544,"is_reserved":false,"is_disabled":false,"rental_uris":{"android":"levelo://app?vid=a2f221a3-318b-41c6-a945-a896b25c3921","ios":"levelo://app?vid=a2f221a3-318b-41c6-a945-a896b25c3921"},"vehicle_type_id":"4","last_reported":1721499019,"current_range_meters":25200,"station_id":"ce4bh8p2rcd13ifvqeb0","pricing_plan_id":"cebpf4jnsgd1na2vs0mg"},{"bike_id":"65db2918-b9df-4a8a-8262-14cb3d560b3d","system_id":"levelo_inurba_marseille","lat":43.284776,"lon":5.385603,"is_reserved":false,"is_disabled":false,"rental_uris":{"android":"levelo://app?vid=65db2918-b9df-4a8a-8262-14cb3d560b3d","ios":"levelo://app?vid=65db2918-b9df-4a8a-8262-14cb3d560b3d"},"vehicle_type_id":"4","last_reported":1721499019,"current_range_meters":31200,"station_id":"ce4bh8p2rcd13ifvqeb0","pricing_plan_id":"cebpf4jnsgd1na2vs0mg"},{"bike_id":"93903d67-8698-4a1e-a109-1b58e80dc8b9","system_id":"levelo_inurba_marseille","lat":43.284776,"lon":5.385603,"is_reserved":false,"is_disabled":false,"rental_uris":{"android":"levelo://app?vid=93903d67-8698-4a1e-a109-1b58e80dc8b9","ios":"levelo://app?vid=93903d67-8698-4a1e-a109-1b58e80dc8b9"},"vehicle_type_id":"4","last_reported":1721499019,"current_range_meters":31200,"station_id":"ce4bh8p2rcd13ifvqeb0","pricing_plan_id":"cebpf4jnsgd1na2vs0mg"},{"bike_id":"6fa8f9de-c5fe-4879-be1f-67571569aeaf","system_id":"levelo_inurba_marseille","lat":43.284776,"lon":5.385603,"is_reserved":false,"is_disabled":false,"rental_uris":{"android":"levelo://app?vid=6fa8f9de-c5fe-4879-be1f-67571569aeaf","ios":"levelo://app?vid=6fa8f9de-c5fe-4879-be1f-67571569aeaf"},"vehicle_type_id":"4","last_reported":1721499019,"current_range_meters":31200,"station_id":"ce4bh8p2rcd13ifvqeb0","pricing_plan_id":"cebpf4jnsgd1na2vs0mg"},{"bike_id":"2606338f-5981-4752-ac77-bd5148c5bea0","system_id":"levelo_inurba_marseille","lat":43.28475,"lon":5.38538,"is_reserved":false,"is_disabled":false,"rental_uris":{"android":"levelo://app?vid=2606338f-5981-4752-ac77-bd5148c5bea0","ios":"levelo://app?vid=2606338f-5981-4752-ac77-bd5148c5bea0"},"vehicle_type_id":"4","last_reported":1721499019,"current_range_meters":30000,"station_id":"ce4bh8p2rcd13ifvqeb0","pricing_plan_id":"cebpf4jnsgd1na2vs0mg"},{"bike_id":"5ed30aef-a57e-48a9-afc3-825d526bac59","system_id":"levelo_inurba_marseille","lat":43.284776,"lon":5.385603,"is_reserved":false,"is_disabled":false,"rental_uris":{"android":"levelo://app?vid=5ed30aef-a57e-48a9-afc3-825d526bac59","ios":"levelo://app?vid=5ed30aef-a57e-48a9-afc3-825d526bac59"},"vehicle_type_id":"4","last_reported":1721499019,"current_range_meters":31200,"station_id":"ce4bh8p2rcd13ifvqeb0","pricing_plan_id":"cebpf4jnsgd1na2vs0mg"},{"bike_id":"cab7b019-a284-4429-b9f4-27aaee159856","system_id":"levelo_inurba_marseille","lat":43.28472,"lon":5.38536,"is_reserved":false,"is_disabled":false,"rental_uris":{"android":"levelo://app?vid=cab7b019-a284-4429-b9f4-27aaee159856","ios":"levelo://app?vid=cab7b019-a284-4429-b9f4-27aaee159856"},"vehicle_type_id":"4","last_reported":1721499019,"current_range_meters":31200,"station_id":"ce4bh8p2rcd13ifvqeb0","pricing_plan_id":"cebpf4jnsgd1na2vs0mg"},{"bike_id":"94cb5347-72c6-4f4d-b9ee-eee9fe9a495e","system_id":"levelo_inurba_marseille","lat":43.289363,"lon":5.396322,"is_reserved":false,"is_disabled":false,"rental_uris":{"android":"levelo://app?vid=94cb5347-72c6-4f4d-b9ee-eee9fe9a495e","ios":"levelo://app?vid=94cb5347-72c6-4f4d-b9ee-eee9fe9a495e"},"vehicle_type_id":"4","last_reported":1721499019,"current_range_meters":3600,"station_id":"ce4bh3h2rcd13ifvqdn0","pricing_plan_id":"cebpf4jnsgd1na2vs0mg"},{"bike_id":"6b1a9741-e438-4d4e-b574-438d4c35aed0","system_id":"levelo_inurba_marseille","lat":43.292644,"lon":5.384257,"is_reserved":false,"is_disabled":false,"rental_uris":{"android":"levelo://app?vid=6b1a9741-e438-4d4e-b574-438d4c35aed0","ios":"levelo://app?vid=6b1a9741-e438-4d4e-b574-438d4c35aed0"},"vehicle_type_id":"4","last_reported":1721499019,"current_range_meters":21600,"station_id":"ce4bh692rcd13ifvqea0","pricing_plan_id":"cebpf4jnsgd1na2vs0mg"},{"bike_id":"79970310-51f3-4974-9736-33226daebbc7","system_id":"levelo_inurba_marseille","lat":43.292663,"lon":5.401163,"is_reserved":false,"is_disabled":false,"rental_uris":{"android":"levelo://app?vid=79970310-51f3-4974-9736-33226daebbc7","ios":"levelo://app?vid=79970310-51f3-4974-9736-33226daebbc7"},"vehicle_type_id":"4","last_reported":1721499019,"current_range_meters":0,"station_id":"ce4bh312rcd13ifvqdk0","pricing_plan_id":"cebpf4jnsgd1na2vs0mg"},{"bike_id":"6584788a-6dda-43ce-a88c-c9a3b5b5682d","system_id":"levelo_inurba_marseille","lat":43.295963,"lon":5.404483,"is_reserved":false,"is_disabled":false,"rental_uris":{"android":"levelo://app?vid=6584788a-6dda-43ce-a88c-c9a3b5b5682d","ios":"levelo://app?vid=6584788a-6dda-43ce-a88c-c9a3b5b5682d"},"vehicle_type_id":"4","last_reported":1721499019,"current_range_meters":0,"station_id":"","pricing_plan_id":"cebpf4jnsgd1na2vs0mg"},{"bike_id":"4d8a4c68-3e67-4404-94e7-f09056589af5","system_id":"levelo_inurba_marseille","lat":43.283502,"lon":5.386471,"is_reserved":false,"is_disabled":false,"rental_uris":{"android":"levelo://app?vid=4d8a4c68-3e67-4404-94e7-f09056589af5","ios":"levelo://app?vid=4d8a4c68-3e67-4404-94e7-f09056589af5"},"vehicle_type_id":"4","last_reported":1721499019,"current_range_meters":0,"station_id":"ce4bh492rcd13ifvqdvg","pricing_plan_id":"cebpf4jnsgd1na2vs0mg"},{"bike_id":"b8e4d725-16db-461e-b5e2-ee2befb28d39","system_id":"levelo_inurba_marseille","lat":43.28047,"lon":5.36939,"is_reserved":false,"is_disabled":false,"rental_uris":{"android":"levelo://app?vid=b8e4d725-16db-461e-b5e2-ee2befb28d39","ios":"levelo://app?vid=b8e4d725-16db-461e-b5e2-ee2befb28d39"},"vehicle_type_id":"4","last_reported":1721499019,"current_range_meters":23200,"station_id":"ce4bha12rcd13ifvqef0","pricing_plan_id":"cebpf4jnsgd1na2vs0mg"},{"bike_id":"81224430-f16a-4402-a1e8-b7f67a2d74a5","system_id":"levelo_inurba_marseille","lat":43.280442,"lon":5.368638,"is_reserved":false,"is_disabled":false,"rental_uris":{"android":"levelo://app?vid=81224430-f16a-4402-a1e8-b7f67a2d74a5","ios":"levelo://app?vid=81224430-f16a-4402-a1e8-b7f67a2d74a5"},"vehicle_type_id":"4","last_reported":1721499019,"current_range_meters":17600,"station_id":"","pricing_plan_id":"cebpf4jnsgd1na2vs0mg"},{"bike_id":"1347f37f-fd73-406c-a0b3-fcbbbe4ecf38","system_id":"levelo_inurba_marseille","lat":43.283502,"lon":5.386471,"is_reserved":false,"is_disabled":false,"rental_uris":{"android":"levelo://app?vid=1347f37f-fd73-406c-a0b3-fcbbbe4ecf38","ios":"levelo://app?vid=1347f37f-fd73-406c-a0b3-fcbbbe4ecf38"},"vehicle_type_id":"4","last_reported":1721499019,"current_range_meters":0,"station_id":"ce4bh492rcd13ifvqdvg","pricing_plan_id":"cebpf4jnsgd1na2vs0mg"},{"bike_id":"bc1f9fc0-9275-4f56-8433-ab676e04b2b5","system_id":"levelo_inurba_marseille","lat":43.28043,"lon":5.36938,"is_reserved":false,"is_disabled":false,"rental_uris":{"android":"levelo://app?vid=bc1f9fc0-9275-4f56-8433-ab676e04b2b5","ios":"levelo://app?vid=bc1f9fc0-9275-4f56-8433-ab676e04b2b5"},"vehicle_type_id":"4","last_reported":1721499019,"current_range_meters":26800,"station_id":"ce4bha12rcd13ifvqef0","pricing_plan_id":"cebpf4jnsgd1na2vs0mg"},{"bike_id":"eead1020-e6ce-4a7f-bc83-25f2a876cb25","system_id":"levelo_inurba_marseille","lat":43.28039,"lon":5.369297,"is_reserved":false,"is_disabled":false,"rental_uris":{"android":"levelo://app?vid=eead1020-e6ce-4a7f-bc83-25f2a876cb25","ios":"levelo://app?vid=eead1020-e6ce-4a7f-bc83-25f2a876cb25"},