{"last_updated":1731532132,"ttl":60,"version":"2.2","data":{"bikes":[{"bike_id":"b74cb09f-382c-42dd-9f0b-cfd941347c2c","system_id":"levelo_inurba_marseille","lat":43.30886,"lon":5.39652,"is_reserved":false,"is_disabled":false,"rental_uris":{"android":"levelo://app?vid=b74cb09f-382c-42dd-9f0b-cfd941347c2c","ios":"levelo://app?vid=b74cb09f-382c-42dd-9f0b-cfd941347c2c"},"vehicle_type_id":"4","last_reported":1731532132,"current_range_meters":24400,"station_id":"ce4bh012rcd13ifvqcv0","pricing_plan_id":"cebpf4jnsgd1na2vs0mg"},{"bike_id":"4c6f81c8-c2ea-4292-aa7a-9ac037143110","system_id":"levelo_inurba_marseille","lat":43.28931,"lon":5.3639,"is_reserved":false,"is_disabled":false,"rental_uris":{"android":"levelo://app?vid=4c6f81c8-c2ea-4292-aa7a-9ac037143110","ios":"levelo://app?vid=4c6f81c8-c2ea-4292-aa7a-9ac037143110"},"vehicle_type_id":"4","last_reported":1731532132,"current_range_meters":38800,"station_id":"ce4bhc92rcd13ifvqetg","pricing_plan_id":"cebpf4jnsgd1na2vs0mg"},{"bike_id":"2d85a8c9-73cd-4fa7-9d24-3a50ba732dcc","system_id":"levelo_inurba_marseille","lat":43.23961,"lon":5.36629,"is_reserved":false,"is_disabled":false,"rental_uris":{"android":"levelo://app?vid=2d85a8c9-73cd-4fa7-9d24-3a50ba732dcc","ios":"levelo://app?vid=2d85a8c9-73cd-4fa7-9d24-3a50ba732dcc"},"vehicle_type_id":"4","last_reported":1731532132,"current_range_meters":22000,"station_id":"ce4bhi12rcd13ifvqfp0","pricing_plan_id":"cebpf4jnsgd1na2vs0mg"},{"bike_id":"a8523969-7310-41b8-ba95-7f5054b6a770","system_id":"levelo_inurba_marseille","lat":43.3265,"lon":5.40979,"is_reserved":false,"is_disabled":false,"rental_uris":{"android":"levelo://app?vid=a8523969-7310-41b8-ba95-7f5054b6a770","ios":"levelo://app?vid=a8523969-7310-41b8-ba95-7f5054b6a770"},"vehicle_type_id":"4","last_reported":1731532132,"current_range_meters":39200,"station_id":"ce4bhpp2rcd13ifvqhgg","pricing_plan_id":"cebpf4jnsgd1na2vs0mg"},{"bike_id":"eb66c83e-9c22-451e-9a96-11fcf0b6a22c","system_id":"levelo_inurba_marseille","lat":43.31789,"lon":5.39014,"is_reserved":false,"is_disabled":false,"rental_uris":{"android":"levelo://app?vid=eb66c83e-9c22-451e-9a96-11fcf0b6a22c","ios":"levelo://app?vid=eb66c83e-9c22-451e-9a96-11fcf0b6a22c"},"vehicle_type_id":"4","last_reported":1731532132,"current_range_meters":38800,"station_id":"ce4bhqp2rcd13ifvqhng","pricing_plan_id":"cebpf4jnsgd1na2vs0mg"},{"bike_id":"a809c138-fd8b-4171-b770-b916fa7d466d","system_id":"levelo_inurba_marseille","lat":43.2903,"lon":5.38138,"is_reserved":false,"is_disabled":false,"rental_uris":{"android":"levelo://app?vid=a809c138-fd8b-4171-b770-b916fa7d466d","ios":"levelo://app?vid=a809c138-fd8b-4171-b770-b916fa7d466d"},"vehicle_type_id":"4","last_reported":1731532132,"current_range_meters":25200,"station_id":"ce4bh4p2rcd13ifvqe1g","pricing_plan_id":"cebpf4jnsgd1na2vs0mg"},{"bike_id":"c80f3f58-b316-4387-898d-071e0a8e6fdf","system_id":"levelo_inurba_marseille","lat":43.290263,"lon":5.386499,"is_reserved":false,"is_disabled":false,"rental_uris":{"android":"levelo://app?vid=c80f3f58-b316-4387-898d-071e0a8e6fdf","ios":"levelo://app?vid=c80f3f58-b316-4387-898d-071e0a8e6fdf"},"vehicle_type_id":"4","last_reported":1731532132,"current_range_meters":2800,"station_id":"ce4bho92rcd13ifvqh3g","pricing_plan_id":"cebpf4jnsgd1na2vs0mg"},{"bike_id":"052f9b93-6cd6-4b1f-acb9-36b85dbc4923","system_id":"levelo_inurba_marseille","lat":43.28452,"lon":5.35902,"is_reserved":false,"is_disabled":false,"rental_uris":{"android":"levelo://app?vid=052f9b93-6cd6-4b1f-acb9-36b85dbc4923","ios":"levelo://app?vid=052f9b93-6cd6-4b1f-acb9-36b85dbc4923"},"vehicle_type_id":"4","last_reported":1731532132,"current_range_meters":10800,"station_id":"ce4bhah2rcd13ifvqei0","pricing_plan_id":"cebpf4jnsgd1na2vs0mg"},{"bike_id":"ae292185-8e91-4db6-a612-c3563674c7fa","system_id":"levelo_inurba_marseille","lat":43.31762,"lon":5.39017,"is_reserved":false,"is_disabled":false,"rental_uris":{"android":"levelo://app?vid=ae292185-8e91-4db6-a612-c3563674c7fa","ios":"levelo://app?vid=ae292185-8e91-4db6-a612-c3563674c7fa"},"vehicle_type_id":"4","last_reported":1731532132,"current_range_meters":24400,"station_id":"ce4bhqp2rcd13ifvqhng","pricing_plan_id":"cebpf4jnsgd1na2vs0mg"},{"bike_id":"e284bf0f-8cbf-463b-a39e-6af10373216e","system_id":"levelo_inurba_marseille","lat":43.27819,"lon":5.4072,"is_reserved":false,"is_disabled":false,"rental_uris":{"android":"levelo://app?vid=e284bf0f-8cbf-463b-a39e-6af10373216e","ios":"levelo://app?vid=e284bf0f-8cbf-463b-a39e-6af10373216e"},"vehicle_type_id":"4","last_reported":1731532132,"current_range_meters":27600,"station_id":"ce4bhnh2rcd13ifvqgtg","pricing_plan_id":"cebpf4jnsgd1na2vs0mg"},{"bike_id":"4f6386c1-cffb-4610-b64d-62e0d4870946","system_id":"levelo_inurba_marseille","lat":43.28734,"lon":5.36065,"is_reserved":false,"is_disabled":false,"rental_uris":{"android":"levelo://app?vid=4f6386c1-cffb-4610-b64d-62e0d4870946","ios":"levelo://app?vid=4f6386c1-cffb-4610-b64d-62e0d4870946"},"vehicle_type_id":"4","last_reported":1731532132,"current_range_meters":17200,"station_id":"cki0cbj6b192h4jlfktg","pricing_plan_id":"cebpf4jnsgd1na2vs0mg"},{"bike_id":"3b18cb70-5566-4f31-8dbf-ae39d6d51962","system_id":"levelo_inurba_marseille","lat":43.30936,"lon":5.40144,"is_reserved":false,"is_disabled":false,"rental_uris":{"android":"levelo://app?vid=3b18cb70-5566-4f31-8dbf-ae39d6d51962","ios":"levelo://app?vid=3b18cb70-5566-4f31-8dbf-ae39d6d51962"},"vehicle_type_id":"4","last_reported":1731532132,"current_range_meters":9200,"station_id":"ce4bgvp2rcd13ifvqct0","pricing_plan_id":"cebpf4jnsgd1na2vs0mg"},{"bike_id":"d9c902c9-ceb4-4faa-92db-38f2e5e1d341","system_id":"levelo_inurba_marseille","lat":43.25823,"lon":5.39443,"is_reserved":false,"is_disabled":false,"rental_uris":{"android":"levelo://app?vid=d9c902c9-ceb4-4faa-92db-38f2e5e1d341","ios":"levelo://app?vid=d9c902c9-ceb4-4faa-92db-38f2e5e1d341"},"vehicle_type_id":"4","last_reported":1731532132,"current_range_meters":6400,"station_id":"ce4bhip2rcd13ifvqft0","pricing_plan_id":"cebpf4jnsgd1na2vs0mg"},{"bike_id":"de22db50-d954-4326-8e04-3a22ad4ddf40","system_id":"levelo_inurba_marseille","lat":43.287,"lon":5.39997,"is_reserved":false,"is_disabled":false,"rental_uris":{"android":"levelo://app?vid=de22db50-d954-4326-8e04-3a22ad4ddf40","ios":"levelo://app?vid=de22db50-d954-4326-8e04-3a22ad4ddf40"},"vehicle_type_id":"4","last_reported":1731532132,"current_range_meters":8000,"station_id":"ce4bho92rcd13ifvqh3g","pricing_plan_id":"cebpf4jnsgd1na2vs0mg"},{"bike_id":"57787bb0-1cf7-4460-ad20-7da83147c060","system_id":"levelo_inurba_marseille","lat":43.31179,"lon":5.38717,"is_reserved":false,"is_disabled":false,"rental_uris":{"android":"levelo://app?vid=57787bb0-1cf7-4460-ad20-7da83147c060","ios":"levelo://app?vid=57787bb0-1cf7-4460-ad20-7da83147c060"},"vehicle_type_id":"4","last_reported":1731532132,"current_range_meters":30000,"station_id":"ce4bgv12rcd13ifvqcp0","pricing_plan_id":"cebpf4jnsgd1na2vs0mg"},{"bike_id":"955710c8-768d-4e59-9a97-d3797676d0f1","system_id":"levelo_inurba_marseille","lat":43.28663,"lon":5.36344,"is_reserved":false,"is_disabled":false,"rental_uris":{"android":"levelo://app?vid=955710c8-768d-4e59-9a97-d3797676d0f1","ios":"levelo://app?vid=955710c8-768d-4e59-9a97-d3797676d0f1"},"vehicle_type_id":"4","last_reported":1731532132,"current_range_meters":14000,"station_id":"ce4bhah2rcd13ifvqej0","pricing_plan_id":"cebpf4jnsgd1na2vs0mg"},{"bike_id":"d3ebfbb1-031c-47c5-9773-0facfe63d00e","system_id":"levelo_inurba_marseille","lat":43.29087,"lon":5.38139,"is_reserved":false,"is_disabled":false,"rental_uris":{"android":"levelo://app?vid=d3ebfbb1-031c-47c5-9773-0facfe63d00e","ios":"levelo://app?vid=d3ebfbb1-031c-47c5-9773-0facfe63d00e"},"vehicle_type_id":"4","last_reported":1731532132,"current_range_meters":28400,"station_id":"ce4bh512rcd13ifvqe2g","pricing_plan_id":"cebpf4jnsgd1na2vs0mg"},{"bike_id":"af23c437-9c01-4e48-a6af-488f0359b3d8","system_id":"levelo_inurba_marseille","lat":43.23967,"lon":5.36632,"is_reserved":false,"is_disabled":false,"rental_uris":{"android":"levelo://app?vid=af23c437-9c01-4e48-a6af-488f0359b3d8","ios":"levelo://app?vid=af23c437-9c01-4e48-a6af-488f0359b3d8"},"vehicle_type_id":"4","last_reported":1731532132,"current_range_meters":29600,"station_id":"ce4bhi12rcd13ifvqfp0","pricing_plan_id":"cebpf4jnsgd1na2vs0mg"},{"bike_id":"d0733b5e-6bfa-4bdb-8b6a-792a1167a5b8","system_id":"levelo_inurba_marseille","lat":43.31163,"lon":5.38708,"is_reserved":false,"is_disabled":false,"rental_uris":{"android":"levelo://app?vid=d0733b5e-6bfa-4bdb-8b6a-792a1167a5b8","ios":"levelo://app?vid=d0733b5e-6bfa-4bdb-8b6a-792a1167a5b8"},"vehicle_type_id":"4","last_reported":1731532132,"current_range_meters":38800,"station_id":"ce4bgv12rcd13ifvqcp0","pricing_plan_id":"cebpf4jnsgd1na2vs0mg"},{"bike_id":"341b4146-f80f-4069-97ee-692e0462699f","system_id":"levelo_inurba_marseille","lat":43.31073,"lon":5.38357,"is_reserved":false,"is_disabled":false,"rental_uris":{"android":"levelo://app?vid=341b4146-f80f-4069-97ee-692e0462699f","ios":"levelo://app?vid=341b4146-f80f-4069-97ee-692e0462699f"},"vehicle_type_id":"4","last_reported":1731532132,"current_range_meters":17200,"station_id":"ce4bgv92rcd13ifvqcr0","pricing_plan_id":"cebpf4jnsgd1na2vs0mg"},{"bike_id":"55eaa616-6069-4488-b2c4-a1d4f41baf53","system_id":"levelo_inurba_marseille","lat":43.28706,"lon":5.37398,"is_reserved":false,"is_disabled":false,"rental_uris":{"android":"levelo://app?vid=55eaa616-6069-4488-b2c4-a1d4f41baf53","ios":"levelo://app?vid=55eaa616-6069-4488-b2c4-a1d4f41baf53"},"vehicle_type_id":"4","last_reported":1731532132,"current_range_meters":22800,"station_id":"ce4bh3p2rcd13ifvqdq0","pricing_plan_id":"cebpf4jnsgd1na2vs0mg"},{"bike_id":"4a74f469-1d99-48ee-a8ca-9199898c00a4","system_id":"levelo_inurba_marseille","lat":43.23199,"lon":5.35549,"is_reserved":false,"is_disabled":false,"rental_uris":{"android":"levelo://app?vid=4a74f469-1d99-48ee-a8ca-9199898c00a4","ios":"levelo://app?vid=4a74f469-1d99-48ee-a8ca-9199898c00a4"},"vehicle_type_id":"4","last_reported":1731532132,"current_range_meters":25200,"station_id":"ce4bhu92rcd13ifvqi70","pricing_plan_id":"cebpf4jnsgd1na2vs0mg"},{"bike_id":"8e3b3b5a-d72c-46fb-b010-12e705e622d4","system_id":"levelo_inurba_marseille","lat":43.29532,"lon":5.38541,"is_reserved":false,"is_disabled":false,"rental_uris":{"android":"levelo://app?vid=8e3b3b5a-d72c-46fb-b010-12e705e622d4","ios":"levelo://app?vid=8e3b3b5a-d72c-46fb-b010-12e705e622d4"},"vehicle_type_id":"4","last_reported":1731532132,"current_range_meters":38800,"station_id":"ce4bgih2rcd13ifvqba0","pricing_plan_id":"cebpf4jnsgd1na2vs0mg"},{"bike_id":"77849bd5-5bfe-4445-8191-82da714d15fa","system_id":"levelo_inurba_marseille","lat":43.27813,"lon":5.4071,"is_reserved":false,"is_disabled":false,"rental_uris":{"android":"levelo://app?vid=77849bd5-5bfe-4445-8191-82da714d15fa","ios":"levelo://app?vid=77849bd5-5bfe-4445-8191-82da714d15fa"},"vehicle_type_id":"4","last_reported":1731532132,"current_range_meters":36400,"station_id":"ce4bhnh2rcd13ifvqgtg","pricing_plan_id":"cebpf4jnsgd1na2vs0mg"},{"bike_id":"665699a5-6b6c-4677-82d6-c491fd2c4a6f","system_id":"levelo_inurba_marseille","lat":43.26567,"lon":5.39013,"is_reserved":false,"is_disabled":false,"rental_uris":{"android":"levelo://app?vid=665699a5-6b6c-4677-82d6-c491fd2c4a6f","ios":"levelo://app?vid=665699a5-6b6c-4677-82d6-c491fd2c4a6f"},"vehicle_type_id":"4","last_reported":1731532132,"current_range_meters":38800,"station_id":"ce4bhe12rcd13ifvqf30","pricing_plan_id":"cebpf4jnsgd1na2vs0mg"},{"bike_id":"baeed238-b5b4-482c-9e5c-2accf4da025a","system_id":"levelo_inurba_marseille","lat":43.280379,"lon":5.369439,"is_reserved":false,"is_disabled":false,"rental_uris":{"android":"levelo://app?vid=baeed238-b5b4-482c-9e5c-2accf4da025a","ios":"levelo://app?vid=baeed238-b5b4-482c-9e5c-2accf4da025a"},"vehicle_type_id":"4","last_reported":1731532132,"current_range_meters":27600,"station_id":"ce4bha12rcd13ifvqef0","pricing_plan_id":"cebpf4jnsgd1na2vs0mg"},{"bike_id":"4a5ca1e0-4e13-4a04-b77d-92aecf8fbba5","system_id":"levelo_inurba_marseille","lat":43.30648,"lon":5.40101,"is_reserved":false,"is_disabled":false,"rental_uris":{"android":"levelo://app?vid=4a5ca1e0-4e13-4a04-b77d-92aecf8fbba5","ios":"levelo://app?vid=4a5ca1e0-4e13-4a04-b77d-92aecf8fbba5"},"vehicle_type_id":"4","last_reported":1731532132,"current_range_meters":32000,"station_id":"ce4bh112rcd13ifvqda0","pricing_plan_id":"cebpf4jnsgd1na2vs0mg"},{"bike_id":"75659cfe-2d87-40df-8a8a-06fea6680d55","system_id":"levelo_inurba_marseille","lat":43.29159,"lon":5.38491,"is_reserved":false,"is_disabled":false,"rental_uris":{"android":"levelo://app?vid=75659cfe-2d87-40df-8a8a-06fea6680d55","ios":"levelo://app?vid=75659cfe-2d87-40df-8a8a-06fea6680d55"},"vehicle_type_id":"4","last_reported":1731532132,"current_range_meters":17200,"station_id":"ce4bh3h2rcd13ifvqdo0","pricing_plan_id":"cebpf4jnsgd1na2vs0mg"},{"bike_id":"d90d861b-f246-48e4-b5c6-8f100bd8f91c","system_id":"levelo_inurba_marseille","lat":43.25091,"lon":5.39522,"is_reserved":false,"is_disabled":false,"rental_uris":{"android":"levelo://app?vid=d90d861b-f246-48e4-b5c6-8f100bd8f91c","ios":"levelo://app?vid=d90d861b-f246-48e4-b5c6-8f100bd8f91c"},"vehicle_type_id":"4","last_reported":1731532132,"current_range_meters":27200,"station_id":"ce4bhm12rcd13ifvqgkg","pricing_plan_id":"cebpf4jnsgd1na2vs0mg"},{"bike_id":"263d9352-745d-4496-b9ba-001591edf2fa","system_id":"levelo_inurba_marseille","lat":43.25505,"lon":5.37648,"is_reserved":false,"is_disabled":false,"rental_uris":{"android":"levelo://app?vid=263d9352-745d-4496-b9ba-001591edf2fa","ios":"levelo://app?vid=263d9352-745d-4496-b9ba-001591edf2fa"},"vehicle_type_id":"4","last_reported":1731532132,"current_range_meters":37600,"station_id":"ce4bhh12rcd13ifvqff0","pricing_plan_id":"cebpf4jnsgd1na2vs0mg"},{"bike_id":"5a62bbf4-0c11-40cf-814d-301fd0a3a13c","system_id":"levelo_inurba_marseille","lat":43.27992,"lon":5.40012,"is_reserved":false,"is_disabled":false,"rental_uris":{"android":"levelo://app?vid=5a62bbf4-0c11-40cf-814d-301fd0a3a13c","ios":"levelo://app?vid=5a62bbf4-0c11-40cf-814d-301fd0a3a13c"},"vehicle_type_id":"4","last_reported":1731532132,"current_range_meters":38000,"station_id":"ce4bho92rcd13ifvqh4g","pricing_plan_id":"cebpf4jnsgd1na2vs0mg"},{"bike_id":"e96be754-1b7a-4c97-ab4b-5ca29a573804","system_id":"levelo_inurba_marseille","lat":43.30088,"lon":5.39083,"is_reserved":false,"is_disabled":false,"rental_uris":{"android":"levelo://app?vid=e96be754-1b7a-4c97-ab4b-5ca29a573804","ios":"levelo://app?vid=e96be754-1b7a-4c97-ab4b-5ca29a573804"},"vehicle_type_id":"4","last_reported":1731532132,"current_range_meters":14000,"station_id":"ce4bh192rcd13ifvqdb0","pricing_plan_id":"cebpf4jnsgd1na2vs0mg"},{"bike_id":"58ba5ea2-470c-498b-b318-3980922fb046","system_id":"levelo_inurba_marseille","lat":43.30899,"lon":5.37183,"is_reserved":false,"is_disabled":false,"rental_uris":{"android":"levelo://app?vid=58ba5ea2-470c-498b-b318-3980922fb046","ios":"levelo://app?vid=58ba5ea2-470c-498b-b318-3980922fb046"},"vehicle_type_id":"4","last_reported":1731532132,"current_range_meters":6000,"station_id":"ce4bguh2rcd13ifvqckg","pricing_plan_id":"cebpf4jnsgd1na2vs0mg"},{"bike_id":"44376c3b-e62c-4341-acee-1fb0b2497c4c","system_id":"levelo_inurba_marseille","lat":43.239593,"lon":5.36642,"is_reserved":false,"is_disabled":false,"rental_uris":{"android":"levelo://app?vid=44376c3b-e62c-4341-acee-1fb0b2497c4c","ios":"levelo://app?vid=44376c3b-e62c-4341-acee-1fb0b2497c4c"},"vehicle_type_id":"4","last_reported":1731532132,"current_range_meters":35600,"station_id":"ce4bhi12rcd13ifvqfp0","pricing_plan_id":"cebpf4jnsgd1na2vs0mg"},{"bike_id":"7cdb67bd-0174-4b2a-a978-6d8f0879f18a","system_id":"levelo_inurba_marseille","lat":43.3176,"lon":5.39013,"is_reserved":false,"is_disabled":false,"rental_uris":{"android":"levelo://app?vid=7cdb67bd-0174-4b2a-a978-6d8f0879f18a","ios":"levelo://app?vid=7cdb67bd-0174-4b2a-a978-6d8f0879f18a"},"vehicle_type_id":"4","last_reported":1731532132,"current_range_meters":38800,"station_id":"ce4bhqp2rcd13ifvqhng","pricing_plan_id":"cebpf4jnsgd1na2vs0mg"},{"bike_id":"45865806-bc2c-4c6c-8332-c61b5ccd45c4","system_id":"levelo_inurba_marseille","lat":43.3153,"lon":5.3802,"is_reserved":false,"is_disabled":false,"rental_uris":{"android":"levelo://app?vid=45865806-bc2c-4c6c-8332-c61b5ccd45c4","ios":"levelo://app?vid=45865806-bc2c-4c6c-8332-c61b5ccd45c4"},"vehicle_type_id":"4","last_reported":1731532132,"current_range_meters":38800,"station_id":"ce4bhsp2rcd13ifvqi50","pricing_plan_id":"cebpf4jnsgd1na2vs0mg"},{"bike_id":"e8c29f09-ca6d-40ba-8178-db92cf2e907e","system_id":"levelo_inurba_marseille","lat":43.28857,"lon":5.39326,"is_reserved":false,"is_disabled":false,"rental_uris":{"android":"levelo://app?vid=e8c29f09-ca6d-40ba-8178-db92cf2e907e","ios":"levelo://app?vid=e8c29f09-ca6d-40ba-8178-db92cf2e907e"},"vehicle_type_id":"4","last_reported":1731532132,"current_range_meters":38400,"station_id":"ce4bh2p2rcd13ifvqdi0","pricing_plan_id":"cebpf4jnsgd1na2vs0mg"},{"bike_id":"dbbecf2f-0cb9-4679-a1bc-19b1f856f9c9","system_id":"levelo_inurba_marseille","lat":43.28667,"lon":5.3635,"is_reserved":false,"is_disabled":false,"rental_uris":{"android":"levelo://app?vid=dbbecf2f-0cb9-4679-a1bc-19b1f856f9c9","ios":"levelo://app?vid=dbbecf2f-0cb9-4679-a1bc-19b1f856f9c9"},"vehicle_type_id":"4","last_reported":1731532132,"current_range_meters":14400,"station_id":"ce4bhah2rcd13ifvqej0","pricing_plan_id":"cebpf4jnsgd1na2vs0mg"},{"bike_id":"f6be5a9f-da9f-4673-8aa7-5387ec0333e4","system_id":"levelo_inurba_marseille","lat":43.28079,"lon":5.39655,"is_reserved":false,"is_disabled":false,"rental_uris":{"android":"levelo://app?vid=f6be5a9f-da9f-4673-8aa7-5387ec0333e4","ios":"levelo://app?vid=f6be5a9f-da9f-4673-8aa7-5387ec0333e4"},"vehicle_type_id":"4","last_reported":1731532132,"current_range_meters":23200,"station_id":"ce4bho12rcd13ifvqh2g","pricing_plan_id":"cebpf4jnsgd1na2vs0mg"},{"bike_id":"558355e9-bfb9-4b65-9aa9-8b11f75a01f6","system_id":"levelo_inurba_marseille","lat":43.32482,"lon":5.36556,"is_reserved":false,"is_disabled":false,"rental_uris":{"android":"levelo://app?vid=558355e9-bfb9-4b65-9aa9-8b11f75a01f6","ios":"levelo://app?vid=558355e9-bfb9-4b65-9aa9-8b11f75a01f6"},"vehicle_type_id":"4","last_reported":1731532132,"current_range_meters":8400,"station_id":"ce4bhs12rcd13ifvqhvg","pricing_plan_id":"cebpf4jnsgd1na2vs0mg"},{"bike_id":"e7dba591-5900-402e-97ff-bd9dd1890971","system_id":"levelo_inurba_marseille","lat":43.29868,"lon":5.39733,"is_reserved":false,"is_disabled":false,"rental_uris":{"android":"levelo://app?vid=e7dba591-5900-402e-97ff-bd9dd1890971","ios":"levelo://app?vid=e7dba591-5900-402e-97ff-bd9dd1890971"},"vehicle_type_id":"4","last_reported":1731532132,"current_range_meters":38800,"station_id":"ce4bh0h2rcd13ifvqd50","pricing_plan_id":"cebpf4jnsgd1na2vs0mg"},{"bike_id":"d2ed4da5-c7f5-4a7f-99c0-0bad629e4afd","system_id":"levelo_inurba_marseille","lat":43.29302,"lon":5.3744,"is_reserved":false,"is_disabled":false,"rental_uris":{"android":"levelo://app?vid=d2ed4da5-c7f5-4a7f-99c0-0bad629e4afd","ios":"levelo://app?vid=d2ed4da5-c7f5-4a7f-99c0-0bad629e4afd"},"vehicle_type_id":"4","last_reported":1731532132,"current_range_meters":38800,"station_id":"ce4bgi12rcd13ifvqb70","pricing_plan_id":"cebpf4jnsgd1na2vs0mg"},{"bike_id":"02f51329-94b0-4bbb-8147-6760726555dd","system_id":"levelo_inurba_marseille","lat":43.28661,"lon":5.3636,"is_reserved":false,"is_disabled":false,"rental_uris":{"android":"levelo://app?vid=02f51329-94b0-4bbb-8147-6760726555dd","ios":"levelo://app?vid=02f51329-94b0-4bbb-8147-6760726555dd"},"vehicle_type_id":"4","last_reported":1731532132,"current_range_meters":30000,"station_id":"ce4bhah2rcd13ifvqej0","pricing_plan_id":"cebpf4jnsgd1na2vs0mg"},{"bike_id":"72a3122b-3968-42df-88c4-71eec312046a","system_id":"levelo_inurba_marseille","lat":43.30924,"lon":5.40141,"is_reserved":false,"is_disabled":false,"rental_uris":{"android":"levelo://app?vid=72a3122b-3968-42df-88c4-71eec312046a","ios":"levelo://app?vid=72a3122b-3968-42df-88c4-71eec312046a"},"vehicle_type_id":"4","last_reported":1731532132,"current_range_meters":38000,"station_id":"ce4bgvp2rcd13ifvqct0","pricing_plan_id":"cebpf4jnsgd1na2vs0mg"},{"bike_id":"746758f4-228f-45df-96ba-32cec80269d7","system_id":"levelo_inurba_marseille","lat":43.28667,"lon":5.36341,"is_reserved":false,"is_disabled":false,"rental_uris":{"android":"levelo://app?vid=746758f4-228f-45df-96ba-32cec80269d7","ios":"levelo://app?vid=746758f4-228f-45df-96ba-32cec80269d7"},"vehicle_type_id":"4","last_reported":1731532132,"current_range_meters":29600,"station_id":"ce4bhah2rcd13ifvqej0","pricing_plan_id":"cebpf4jnsgd1na2vs0mg"},{"bike_id":"12817c99-3b1a-40e0-be55-c1f1ccfaedd7","system_id":"levelo_inurba_marseille","lat":43.27808,"lon":5.40713,"is_reserved":false,"is_disabled":false,"rental_uris":{"android":"levelo://app?vid=12817c99-3b1a-40e0-be55-c1f1ccfaedd7","ios":"levelo://app?vid=12817c99-3b1a-40e0-be55-c1f1ccfaedd7"},"vehicle_type_id":"4","last_reported":1731532132,"current_range_meters":38800,"station_id":"ce4bhnh2rcd13ifvqgtg","pricing_plan_id":"cebpf4jnsgd1na2vs0mg"},{"bike_id":"b5c48233-4f2d-4568-a512-177511afea67","system_id":"levelo_inurba_marseille","lat":43.29049,"lon":5.3592,"is_reserved":false,"is_disabled":false,"rental_uris":{"android":"levelo://app?vid=b5c48233-4f2d-4568-a512-177511afea67","ios":"levelo://app?vid=b5c48233-4f2d-4568-a512-177511afea67"},"vehicle_type_id":"4","last_reported":1731532132,"current_range_meters":20400,"station_id":"ce4bha92rcd13ifvqeg0","pricing_plan_id":"cebpf4jnsgd1na2vs0mg"},{"bike_id":"3dd2ef49-ad1c-43a1-ac6b-b877c1801c2f","system_id":"levelo_inurba_marseille","lat":43.27906,"lon":5.38011,"is_reserved":false,"is_disabled":false,"rental_uris":{"android":"levelo://app?vid=3dd2ef49-ad1c-43a1-ac6b-b877c1801c2f","ios":"levelo://app?vid=3dd2ef49-ad1c-43a1-ac6b-b877c1801c2f"},"vehicle_type_id":"4","last_reported":1731532132,"current_range_meters":6800,"station_id":"ce4bhf92rcd13ifvqf50","pricing_plan_id":"cebpf4jnsgd1na2vs0mg"},{"bike_id":"7a56d0a8-a4a2-4acb-8323-25d4cda32662","system_id":"levelo_inurba_marseille","lat":43.24068,"lon":5.37762,"is_reserved":false,"is_disabled":false,"rental_uris":{"android":"levelo://app?vid=7a56d0a8-a4a2-4acb-8323-25d4cda32662","ios":"levelo://app?vid=7a56d0a8-a4a2-4acb-8323-25d4cda32662"},"vehicle_type_id":"4","last_reported":1731532132,"current_range_meters":38800,"station_id":"ce4bhnp2rcd13ifvqgvg","pricing_plan_id":"cebpf4jnsgd1na2vs0mg"},{"bike_id":"d99bff46-e3e0-4c25-9719-3fa3dd9a1a6e","system_id":"levelo_inurba_marseille","lat":43.314221,"lon":5.374171,"is_reserved":false,"is_disabled":false,"rental_uris":{"android":"levelo://app?vid=d99bff46-e3e0-4c25-9719-3fa3dd9a1a6e","ios":"levelo://app?vid=d99bff46-e3e0-4c25-9719-3fa3dd9a1a6e"},"vehicle_type_id":"4","last_reported":1731532132,"current_range_meters":21600,"station_id":"","pricing_plan_id":"cebpf4jnsgd1na2vs0mg"},{"bike_id":"f371a6af-aca0-4335-94f7-2af5b5d94844","system_id":"levelo_inurba_marseille","lat":43.2928,"lon":5.40126,"is_reserved":false,"is_disabled":false,"rental_uris":{"android":"levelo://app?vid=f371a6af-aca0-4335-94f7-2af5b5d94844","ios":"levelo://app?vid=f371a6af-aca0-4335-94f7-2af5b5d94844"},"vehicle_type_id":"4","last_reported":1731532132,"current_range_meters":34000,"station_id":"ce4bh312rcd13ifvqdk0","pricing_plan_id":"cebpf4jnsgd1na2vs0mg"},{"bike_id":"1f9bbbe2-6d43-4695-ad1c-62239c6576c6","system_id":"levelo_inurba_marseille","lat":43.28455,"lon":5.35886,"is_reserved":false,"is_disabled":false,"rental_uris":{"android":"levelo://app?vid=1f9bbbe2-6d43-4695-ad1c-62239c6576c6","ios":"levelo://app?vid=1f9bbbe2-6d43-4695-ad1c-62239c6576c6"},"vehicle_type_id":"4","last_reported":1731532132,"current_range_meters":10000,"station_id":"ce4bhah2rcd13ifvqei0","pricing_plan_id":"cebpf4jnsgd1na2vs0mg"},{"bike_id":"4e2374da-ae8a-4e80-b322-a311f399cd72","system_id":"levelo_inurba_marseille","lat":43.3064,"lon":5.40074,"is_reserved":false,"is_disabled":false,"rental_uris":{"android":"levelo://app?vid=4e2374da-ae8a-4e80-b322-a311f399cd72","ios":"levelo://app?vid=4e2374da-ae8a-4e80-b322-a311f399cd72"},"vehicle_type_id":"4","last_reported":1731532132,"current_range_meters":9600,"station_id":"ce4bh112rcd13ifvqda0","pricing_plan_id":"cebpf4jnsgd1na2vs0mg"},{"bike_id":"41216121-f9a5-4d0d-b4ad-c65a5f5a6201","system_id":"levelo_inurba_marseille","lat":43.33722,"lon":5.39183,"is_reserved":false,"is_disabled":false,"rental_uris":{"android":"levelo://app?vid=41216121-f9a5-4d0d-b4ad-c65a5f5a6201","ios":"levelo://app?vid=41216121-f9a5-4d0d-b4ad-c65a5f5a6201"},"vehicle_type_id":"4","last_reported":1731532132,"current_range_meters":37600,"station_id":"ce4bhr92rcd13ifvqhsg","pricing_plan_id":"cebpf4jnsgd1na2vs0mg"},{"bike_id":"07df449b-4274-4142-8432-30fbab1e34c7","system_id":"levelo_inurba_marseille","lat":43.316925,"lon":5.423986,"is_reserved":false,"is_disabled":false,"rental_uris":{"android":"levelo://app?vid=07df449b-4274-4142-8432-30fbab1e34c7","ios":"levelo://app?vid=07df449b-4274-4142-8432-30fbab1e34c7"},"vehicle_type_id":"4","last_reported":1731532132,"current_range_meters":8400,"station_id":"ce4bhp92rcd13ifvqhbg","pricing_plan_id":"cebpf4jnsgd1na2vs0mg"},{"bike_id":"805bb8b1-9cc6-4f3e-a15b-1d33acae2c35","system_id":"levelo_inurba_marseille","lat":43.25085,"lon":5.39525,"is_reserved":false,"is_disabled":false,"rental_uris":{"android":"levelo://app?vid=805bb8b1-9cc6-4f3e-a15b-1d33acae2c35","ios":"levelo://app?vid=805bb8b1-9cc6-4f3e-a15b-1d33acae2c35"},"vehicle_type_id":"4","last_reported":1731532132,"current_range_meters":16400,"station_id":"ce4bhm12rcd13ifvqgkg","pricing_plan_id":"cebpf4jnsgd1na2vs0mg"},{"bike_id":"9e9a2369-1d14-4981-a72c-1ddb3ebe0ae3","system_id":"levelo_inurba_marseille","lat":43.27985,"lon":5.41661,"is_reserved":false,"is_disabled":false,"rental_uris":{"android":"levelo://app?vid=9e9a2369-1d14-4981-a72c-1ddb3ebe0ae3","ios":"levelo://app?vid=9e9a2369-1d14-4981-a72c-1ddb3ebe0ae3"},"vehicle_type_id":"4","last_reported":1731532132,"current_range_meters":38800,"station_id":"ce4bho12rcd13ifvqh1g","pricing_plan_id":"cebpf4jnsgd1na2vs0mg"},{"bike_id":"b25fe842-6422-4358-a7cc-2c44f10e0b00","system_id":"levelo_inurba_marseille","lat":43.30545,"lon":5.3653,"is_reserved":false,"is_disabled":false,"rental_uris":{"android":"levelo://app?vid=b25fe842-6422-4358-a7cc-2c44f10e0b00","ios":"levelo://app?vid=b25fe842-6422-4358-a7cc-2c44f10e0b00"},"vehicle_type_id":"4","last_reported":1731532132,"current_range_meters":38800,"station_id":"ce4bgs12rcd13ifvqcag","pricing_plan_id":"cebpf4jnsgd1na2vs0mg"},{"bike_id":"95cfd582-7856-482f-bb27-fe8e393ce982","system_id":"levelo_inurba_marseille","lat":43.296692,"lon":5.38545,"is_reserved":false,"is_disabled":false,"rental_uris":{"android":"levelo://app?vid=95cfd582-7856-482f-bb27-fe8e393ce982","ios":"levelo://app?vid=95cfd582-7856-482f-bb27-fe8e393ce982"},"vehicle_type_id":"4","last_reported":1731532132,"current_range_meters":29600,"station_id":"ce4bgih2rcd13ifvqba0","pricing_plan_id":"cebpf4jnsgd1na2vs0mg"},{"bike_id":"e310a17a-40c4-4a75-85fa-ab8c2d50d79e","system_id":"levelo_inurba_marseille","lat":43.29787,"lon":5.37091,"is_reserved":false,"is_disabled":false,"rental_uris":{"android":"levelo://app?vid=e310a17a-40c4-4a75-85fa-ab8c2d50d79e","ios":"levelo://app?vid=e310a17a-40c4-4a75-85fa-ab8c2d50d79e"},"vehicle_type_id":"4","last_reported":1731532132,"current_range_meters":18800,"station_id":"ce4bgop2rcd13ifvqc1g","pricing_plan_id":"cebpf4jnsgd1na2vs0mg"},{"bike_id":"c922eb02-035c-4fd0-a78f-29ec8348d4e8","system_id":"levelo_inurba_marseille","lat":43.29201,"lon":5.39324,"is_reserved":false,"is_disabled":false,"rental_uris":{"android":"levelo://app?vid=c922eb02-035c-4fd0-a78f-29ec8348d4e8","ios":"levelo://app?vid=c922eb02-035c-4fd0-a78f-29ec8348d4e8"},"vehicle_type_id":"4","last_reported":1731532132,"current_range_meters":24400,"station_id":"ce4bh192rcd13ifvqdd0","pricing_plan_id":"cebpf4jnsgd1na2vs0mg"},{"bike_id":"cb9a6aa0-0b19-47f1-9052-a16185b299c2","system_id":"levelo_inurba_marseille","lat":43.2987,"lon":5.39733,"is_reserved":false,"is_disabled":false,"rental_uris":{"android":"levelo://app?vid=cb9a6aa0-0b19-47f1-9052-a16185b299c2","ios":"levelo://app?vid=cb9a6aa0-0b19-47f1-9052-a16185b299c2"},"vehicle_type_id":"4","last_reported":1731532132,"current_range_meters":32000,"station_id":"ce4bh0h2rcd13ifvqd50","pricing_plan_id":"cebpf4jnsgd1na2vs0mg"},{"bike_id":"4d588559-87d9-4b67-ac55-1a3523c0923d","system_id":"levelo_inurba_marseille","lat":43.29897,"lon":5.43662,"is_reserved":false,"is_disabled":false,"rental_uris":{"android":"levelo://app?vid=4d588559-87d9-4b67-ac55-1a3523c0923d","ios":"levelo://app?vid=4d588559-87d9-4b67-ac55-1a3523c0923d"},"vehicle_type_id":"4","last_reported":1731532132,"current_range_meters":38000,"station_id":"ce4bhpp2rcd13ifvqhfg","pricing_plan_id":"cebpf4jnsgd1na2vs0mg"},{"bike_id":"c4cd912c-a38b-4bea-8dd2-1adccd444902","system_id":"levelo_inurba_marseille","lat":43.32289,"lon":5.38263,"is_reserved":false,"is_disabled":false,"rental_uris":{"android":"levelo://app?vid=c4cd912c-a38b-4bea-8dd2-1adccd444902","ios":"levelo://app?vid=c4cd912c-a38b-4bea-8dd2-1adccd444902"},"vehicle_type_id":"4","last_reported":1731532132,"current_range_meters":5600,"station_id":"ce4bhr12rcd13ifvqhqg","pricing_plan_id":"cebpf4jnsgd1na2vs0mg"},{"bike_id":"6a013f38-7997-41e7-ac4a-77fc2e02fba8","system_id":"levelo_inurba_marseille","lat":43.30291,"lon":5.39199,"is_reserved":false,"is_disabled":false,"rental_uris":{"android":"levelo://app?vid=6a013f38-7997-41e7-ac4a-77fc2e02fba8","ios":"levelo://app?vid=6a013f38-7997-41e7-ac4a-77fc2e02fba8"},"vehicle_type_id":"4","last_reported":1731532132,"current_range_meters":29600,"station_id":"ce4bgkh2rcd13ifvqbk0","pricing_plan_id":"cebpf4jnsgd1na2vs0mg"},{"bike_id":"8889ce2c-aa97-491c-a8b4-11b49466b5c3","system_id":"levelo_inurba_marseille","lat":43.30306,"lon":5.39217,"is_reserved":false,"is_disabled":false,"rental_uris":{"android":"levelo://app?vid=8889ce2c-aa97-491c-a8b4-11b49466b5c3","ios":"levelo://app?vid=8889ce2c-aa97-491c-a8b4-11b49466b5c3"},"vehicle_type_id":"4","last_reported":1731532132,"current_range_meters":38800,"station_id":"ce4bgkh2rcd13ifvqbk0","pricing_plan_id":"cebpf4jnsgd1na2vs0mg"},{"bike_id":"6a2767a8-6b74-4b4a-9500-8064922f7124","system_id":"levelo_inurba_marseille","lat":43.28846,"lon":5.39318,"is_reserved":false,"is_disabled":false,"rental_uris":{"android":"levelo://app?vid=6a2767a8-6b74-4b4a-9500-8064922f7124","ios":"levelo://app?vid=6a2767a8-6b74-4b4a-9500-8064922f7124"},"vehicle_type_id":"4","last_reported":1731532132,"current_range_meters":10000,"station_id":"ce4bh2p2rcd13ifvqdi0","pricing_plan_id":"cebpf4jnsgd1na2vs0mg"},{"bike_id":"8963f262-bdcb-43f5-9e37-237198779ba8","system_id":"levelo_inurba_marseille","lat":43.33773,"lon":5.37442,"is_reserved":false,"is_disabled":false,"rental_uris":{"android":"levelo://app?vid=8963f262-bdcb-43f5-9e37-237198779ba8","ios":"levelo://app?vid=8963f262-bdcb-43f5-9e37-237198779ba8"},"vehicle_type_id":"4","last_reported":1731532132,"current_range_meters":36400,"station_id":"","pricing_plan_id":"cebpf4jnsgd1na2vs0mg"},{"bike_id":"131d5275-8201-4abf-89e3-9cd3bb0ce7b5","system_id":"levelo_inurba_marseille","lat":43.306834,"lon":5.380212,"is_reserved":false,"is_disabled":false,"rental_uris":{"android":"levelo://app?vid=131d5275-8201-4abf-89e3-9cd3bb0ce7b5","ios":"levelo://app?vid=131d5275-8201-4abf-89e3-9cd3bb0ce7b5"},"vehicle_type_id":"4","last_reported":1731532132,"current_range_meters":36000,"station_id":"","pricing_plan_id":"cebpf4jnsgd1na2vs0mg"},{"bike_id":"398b47b3-a042-4cec-b1dd-254773a78263","system_id":"levelo_inurba_marseille","lat":43.27411,"lon":5.38946,"is_reserved":false,"is_disabled":false,"rental_uris":{"android":"levelo://app?vid=398b47b3-a042-4cec-b1dd-254773a78263","ios":"levelo://app?vid=398b47b3-a042-4cec-b1dd-254773a78263"},"vehicle_type_id":"4","last_reported":1731532132,"current_range_meters":8000,"station_id":"","pricing_plan_id":"cebpf4jnsgd1na2vs0mg"},{"bike_id":"4dd1ab80-ca37-41fe-b709-0d670edfaf60","system_id":"levelo_inurba_marseille","lat":43.29104,"lon":5.38151,"is_reserved":false,"is_disabled":false,"rental_uris":{"android":"levelo://app?vid=4dd1ab80-ca37-41fe-b709-0d670edfaf60","ios":"levelo://app?vid=4dd1ab80-ca37-41fe-b709-0d670edfaf60"},"vehicle_type_id":"4","last_reported":1731532132,"current_range_meters":38800,"station_id":"ce4bh512rcd13ifvqe2g","pricing_plan_id":"cebpf4jnsgd1na2vs0mg"},{"bike_id":"7168df54-b985-45a1-9282-ce32dbb97513","system_id":"levelo_inurba_marseille","lat":43.294197,"lon":5.386253,"is_reserved":false,"is_disabled":false,"rental_uris":{"android":"levelo://app?vid=7168df54-b985-45a1-9282-ce32dbb97513","ios":"levelo://app?vid=7168df54-b985-45a1-9282-ce32dbb97513"},"vehicle_type_id":"4","last_reported":1731532132,"current_range_meters":30000,"station_id":"ce4bh0h2rcd13ifvqd40","pricing_plan_id":"cebpf4jnsgd1na2vs0mg"},{"bike_id":"44d4aeee-f0c2-4734-b402-fb62f0186632","system_id":"levelo_inurba_marseille","lat":43.24387,"lon":5.37051,"is_reserved":false,"is_disabled":false,"rental_uris":{"android":"levelo://app?vid=44d4aeee-f0c2-4734-b402-fb62f0186632","ios":"levelo://app?vid=44d4aeee-f0c2-4734-b402-fb62f0186632"},"vehicle_type_id":"4","last_reported":1731532132,"current_range_meters":31200,"station_id":"ce4bhhh2rcd13ifvqfk0","pricing_plan_id":"cebpf4jnsgd1na2vs0mg"},{"bike_id":"93e575e8-2b6c-4dd1-9a52-2ca595c1a12c","system_id":"levelo_inurba_marseille","lat":43.33023,"lon":5.3904,"is_reserved":false,"is_disabled":false,"rental_uris":{"android":"levelo://app?vid=93e575e8-2b6c-4dd1-9a52-2ca595c1a12c","ios":"levelo://app?vid=93e575e8-2b6c-4dd1-9a52-2ca595c1a12c"},"vehicle_type_id":"4","last_reported":1731532132,"current_range_meters":38800,"station_id":"ce4bhr92rcd13ifvqhrg","pricing_plan_id":"cebpf4jnsgd1na2vs0mg"},{"bike_id":"80b7a411-f20b-4eee-ba8a-e47419f89860","system_id":"levelo_inurba_marseille","lat":43.2894,"lon":5.3663,"is_reserved":false,"is_disabled":false,"rental_uris":{"android":"levelo://app?vid=80b7a411-f20b-4eee-ba8a-e47419f89860","ios":"levelo://app?vid=80b7a411-f20b-4eee-ba8a-e47419f89860"},"vehicle_type_id":"4","last_reported":1731532132,"current_range_meters":38800,"station_id":"ce4bhap2rcd13ifvqek0","pricing_plan_id":"cebpf4jnsgd1na2vs0mg"},{"bike_id":"92e3ad17-17c9-4714-a148-ef9436ad6113","system_id":"levelo_inurba_marseille","lat":43.22933,"lon":5.35383,"is_reserved":false,"is_disabled":false,"rental_uris":{"android":"levelo://app?vid=92e3ad17-17c9-4714-a148-ef9436ad6113","ios":"levelo://app?vid=92e3ad17-17c9-4714-a148-ef9436ad6113"},"vehicle_type_id":"4","last_reported":1731532132,"current_range_meters":39200,"station_id":"cpo3532slgdg3j2ikp40","pricing_plan_id":"cebpf4jnsgd1na2vs0mg"},{"bike_id":"6d3b6101-e514-4fa7-8db1-6dc1e101fc47","system_id":"levelo_inurba_marseille","lat":43.29191,"lon":5.39328,"is_reserved":false,"is_disabled":false,"rental_uris":{"android":"levelo://app?vid=6d3b6101-e514-4fa7-8db1-6dc1e101fc47","ios":"levelo://app?vid=6d3b6101-e514-4fa7-8db1-6dc1e101fc47"},"vehicle_type_id":"4","last_reported":1731532132,"current_range_meters":38800,"station_id":"ce4bh192rcd13ifvqdd0","pricing_plan_id":"cebpf4jnsgd1na2vs0mg"},{"bike_id":"a06566a4-5aac-4a41-85f6-488547859322","system_id":"levelo_inurba_marseille","lat":43.28675,"lon":5.38667,"is_reserved":false,"is_disabled":false,"rental_uris":{"android":"levelo://app?vid=a06566a4-5aac-4a41-85f6-488547859322","ios":"levelo://app?vid=a06566a4-5aac-4a41-85f6-488547859322"},"vehicle_type_id":"4","last_reported":1731532132,"current_range_meters":35200,"station_id":"ce4bh492rcd13ifvqdug","pricing_plan_id":"cebpf4jnsgd1na2vs0mg"},{"bike_id":"beb7b9bd-a544-4d0c-b0ee-a6204f3f5108","system_id":"levelo_inurba_marseille","lat":43.291962,"lon":5.385193,"is_reserved":false,"is_disabled":false,"rental_uris":{"android":"levelo://app?vid=beb7b9bd-a544-4d0c-b0ee-a6204f3f5108","ios":"levelo://app?vid=beb7b9bd-a544-4d0c-b0ee-a6204f3f5108"},"vehicle_type_id":"4","last_reported":1731532132,"current_range_meters":27600,"station_id":"","pricing_plan_id":"cebpf4jnsgd1na2vs0mg"},{"bike_id":"82f309e6-c4ae-421f-89cb-1d64a8e0ef10","system_id":"levelo_inurba_marseille","lat":43.337444,"lon":5.374475,"is_reserved":false,"is_disabled":false,"rental_uris":{"android":"levelo://app?vid=82f309e6-c4ae-421f-89cb-1d64a8e0ef10","ios":"levelo://app?vid=82f309e6-c4ae-421f-89cb-1d64a8e0ef10"},"vehicle_type_id":"4","last_reported":1731532132,"current_range_meters":35600,"station_id":"","pricing_plan_id":"cebpf4jnsgd1na2vs0mg"},{"bike_id":"5419d154-3ce9-4c40-9294-d16b9d2b3431","system_id":"levelo_inurba_marseille","lat":43.337444,"lon":5.374475,"is_reserved":false,"is_disabled":false,"rental_uris":{"android":"levelo://app?vid=5419d154-3ce9-4c40-9294-d16b9d2b3431","ios":"levelo://app?vid=5419d154-3ce9-4c40-9294-d16b9d2b3431"},"vehicle_type_id":"4","last_reported":1731532132,"current_range_meters":35600,"station_id":"","pricing_plan_id":"cebpf4jnsgd1na2vs0mg"},{"bike_id":"b615b6de-5530-40a5-9554-a272be97687a","system_id":"levelo_inurba_marseille","lat":43.3137,"lon":5.38506,"is_reserved":false,"is_disabled":false,"rental_uris":{"android":"levelo://app?vid=b615b6de-5530-40a5-9554-a272be97687a","ios":"levelo://app?vid=b615b6de-5530-40a5-9554-a272be97687a"},"vehicle_type_id":"4","last_reported":1731532132,"current_range_meters":32800,"station_id":"ce4bgt92rcd13ifvqcf0","pricing_plan_id":"cebpf4jnsgd1na2vs0mg"},{"bike_id":"f2fa18d9-876e-4ce7-878b-a33ffcd12794","system_id":"levelo_inurba_marseille","lat":43.2816,"lon":5.4264,"is_reserved":false,"is_disabled":false,"rental_uris":{"android":"levelo://app?vid=f2fa18d9-876e-4ce7-878b-a33ffcd12794","ios":"levelo://app?vid=f2fa18d9-876e-4ce7-878b-a33ffcd12794"},"vehicle_type_id":"4","last_reported":1731532132,"current_range_meters":37600,"station_id":"ce4bhnh2rcd13ifvqgug","pricing_plan_id":"cebpf4jnsgd1na2vs0mg"},{"bike_id":"6e4ab7d2-c1df-4ea4-bb4b-2f5c43ed5717","system_id":"levelo_inurba_marseille","lat":43.33768,"lon":5.37439,"is_reserved":false,"is_disabled":false,"rental_uris":{"android":"levelo://app?vid=6e4ab7d2-c1df-4ea4-bb4b-2f5c43ed5717","ios":"levelo://app?vid=6e4ab7d2-c1df-4ea4-bb4b-2f5c43ed5717"},"vehicle_type_id":"4","last_reported":1731532132,"current_range_meters":35600,"station_id":"","pricing_plan_id":"cebpf4jnsgd1na2vs0mg"},{"bike_id":"9698c42d-c6fb-41ed-bf32-4c1c922b1d18","system_id":"levelo_inurba_marseille","lat":43.29532,"lon":5.38546,"is_reserved":false,"is_disabled":false,"rental_uris":{"android":"levelo://app?vid=9698c42d-c6fb-41ed-bf32-4c1c922b1d18","ios":"levelo://app?vid=9698c42d-c6fb-41ed-bf32-4c1c922b1d18"},"vehicle_type_id":"4","last_reported":1731532132,"current_range_meters":38800,"station_id":"ce4bgih2rcd13ifvqba0","pricing_plan_id":"cebpf4jnsgd1na2vs0mg"},{"bike_id":"bf572986-72e5-4ae6-bf1e-d22b0a1d0215","system_id":"levelo_inurba_marseille","lat":43.31188,"lon":5.38719,"is_reserved":false,"is_disabled":false,"rental_uris":{"android":"levelo://app?vid=bf572986-72e5-4ae6-bf1e-d22b0a1d0215","ios":"levelo://app?vid=bf572986-72e5-4ae6-bf1e-d22b0a1d0215"},"vehicle_type_id":"4","last_reported":1731532132,"current_range_meters":8800,"station_id":"ce4bgv12rcd13ifvqcp0","pricing_plan_id":"cebpf4jnsgd1na2vs0mg"},{"bike_id":"9722550f-1a69-4d6e-8160-2610e45f09a4","system_id":"levelo_inurba_marseille","lat":43.28041,"lon":5.36951,"is_reserved":false,"is_disabled":false,"rental_uris":{"android":"levelo://app?vid=9722550f-1a69-4d6e-8160-2610e45f09a4","ios":"levelo://app?vid=9722550f-1a69-4d6e-8160-2610e45f09a4"},"vehicle_type_id":"4","last_reported":1731532132,"current_range_meters":35600,"station_id":"ce4bha12rcd13ifvqef0","pricing_plan_id":"cebpf4jnsgd1na2vs0mg"},{"bike_id":"42744b5d-4b77-4c92-808c-ebf462138a5f","system_id":"levelo_inurba_marseille","lat":43.31554,"lon":5.38623,"is_reserved":false,"is_disabled":false,"rental_uris":{"android":"levelo://app?vid=42744b5d-4b77-4c92-808c-ebf462138a5f","ios":"levelo://app?vid=42744b5d-4b77-4c92-808c-ebf462138a5f"},"vehicle_type_id":"4","last_reported":1731532132,"current_range_meters":26800,"station_id":"","pricing_plan_id":"cebpf4jnsgd1na2vs0mg"},{"bike_id":"c9d041c0-acec-4cf4-bba2-e01a92441368","system_id":"levelo_inurba_marseille","lat":43.337444,"lon":5.374475,"is_reserved":false,"is_disabled":false,"rental_uris":{"android":"levelo://app?vid=c9d041c0-acec-4cf4-bba2-e01a92441368","ios":"levelo://app?vid=c9d041c0-acec-4cf4-bba2-e01a92441368"},"vehicle_type_id":"4","last_reported":1731532132,"current_range_meters":34000,"station_id":"","pricing_plan_id":"cebpf4jnsgd1na2vs0mg"},{"bike_id":"d5c59c70-fa61-4480-a64f-17bdc0321be9","system_id":"levelo_inurba_marseille","lat":43.30462,"lon":5.37905,"is_reserved":false,"is_disabled":false,"rental_uris":{"android":"levelo://app?vid=d5c59c70-fa61-4480-a64f-17bdc0321be9","ios":"levelo://app?vid=d5c59c70-fa61-4480-a64f-17bdc0321be9"},"vehicle_type_id":"4","last_reported":1731532132,"current_range_meters":9200,"station_id":"ce4bh392rcd13ifvqdm0","pricing_plan_id":"cebpf4jnsgd1na2vs0mg"},{"bike_id":"38bbdcff-2bf0-472f-b7a7-55224c74f01e","system_id":"levelo_inurba_marseille","lat":43.28848,"lon":5.35837,"is_reserved":false,"is_disabled":false,"rental_uris":{"android":"levelo://app?vid=38bbdcff-2bf0-472f-b7a7-55224c74f01e","ios":"levelo://app?vid=38bbdcff-2bf0-472f-b7a7-55224c74f01e"},"vehicle_type_id":"4","last_reported":1731532132,"current_range_meters":38800,"station_id":"ce4bhb12rcd13ifvqem0","pricing_plan_id":"cebpf4jnsgd1na2vs0mg"},{"bike_id":"5a35f5f6-3fbd-4daf-92c1-fe655d427fb3","system_id":"levelo_inurba_marseille","lat":43.2958,"lon":5.37504,"is_reserved":false,"is_disabled":false,"rental_uris":{"android":"levelo://app?vid=5a35f5f6-3fbd-4daf-92c1-fe655d427fb3","ios":"levelo://app?vid=5a35f5f6-3fbd-4daf-92c1-fe655d427fb3"},"vehicle_type_id":"4","last_reported":1731532132,"current_range_meters":32800,"station_id":"ce4bgh92rcd13ifvqb50","pricing_plan_id":"cebpf4jnsgd1na2vs0mg"},{"bike_id":"f6ea2b41-fe6a-4679-905f-4633608a76f7","system_id":"levelo_inurba_marseille","lat":43.30593,"lon":5.3723,"is_reserved":false,"is_disabled":false,"rental_uris":{"android":"levelo://app?vid=f6ea2b41-fe6a-4679-905f-4633608a76f7","ios":"levelo://app?vid=f6ea2b41-fe6a-4679-905f-4633608a76f7"},"vehicle_type_id":"4","last_reported":1731532132,"current_range_meters":6400,"station_id":"ce4bgqh2rcd13ifvqc4g","pricing_plan_id":"cebpf4jnsgd1na2vs0mg"},{"bike_id":"7cd628f6-74fa-4f71-b36c-47ea37f47b53","system_id":"levelo_inurba_marseille","lat":43.27831,"lon":5.39206,"is_reserved":false,"is_disabled":false,"rental_uris":{"android":"levelo://app?vid=7cd628f6-74fa-4f71-b36c-47ea37f47b53","ios":"levelo://app?vid=7cd628f6-74fa-4f71-b36c-47ea37f47b53"},"vehicle_type_id":"4","last_reported":1731532132,"current_range_meters":37600,"station_id":"ce4bhjp2rcd13ifvqga0","pricing_plan_id":"cebpf4jnsgd1na2vs0mg"},{"bike_id":"08ddd397-20a4-4234-a420-f4a64d5d4b94","system_id":"levelo_inurba_marseille","lat":43.28716,"lon":5.373755,"is_reserved":false,"is_disabled":false,"rental_uris":{"android":"levelo://app?vid=08ddd397-20a4-4234-a420-f4a64d5d4b94","ios":"levelo://app?vid=08ddd397-20a4-4234-a420-f4a64d5d4b94"},"vehicle_type_id":"4","last_reported":1731532132,"current_range_meters":26000,"station_id":"ce4bh3p2rcd13ifvqdq0","pricing_plan_id":"cebpf4jnsgd1na2vs0mg"},{"bike_id":"5f1b89ae-1266-4792-91ad-55b706dc1643","system_id":"levelo_inurba_marseille","lat":43.23973,"lon":5.3663,"is_reserved":false,"is_disabled":false,"rental_uris":{"android":"levelo://app?vid=5f1b89ae-1266-4792-91ad-55b706dc1643","ios":"levelo://app?vid=5f1b89ae-1266-4792-91ad-55b706dc1643"},"vehicle_type_id":"4","last_reported":1731532132,"current_range_meters":28800,"station_id":"ce4bhi12rcd13ifvqfp0","pricing_plan_id":"cebpf4jnsgd1na2vs0mg"},{"bike_id":"9813a0cc-edd1-418a-8ddf-f56e5ab6daab","system_id":"levelo_inurba_marseille","lat":43.29024,"lon":5.38126,"is_reserved":false,"is_disabled":false,"rental_uris":{"android":"levelo://app?vid=9813a0cc-edd1-418a-8ddf-f56e5ab6daab","ios":"levelo://app?vid=9813a0cc-edd1-418a-8ddf-f56e5ab6daab"},"vehicle_type_id":"4","last_reported":1731532132,"current_range_meters":39200,"station_id":"ce4bh4p2rcd13ifvqe1g","pricing_plan_id":"cebpf4jnsgd1na2vs0mg"},{"bike_id":"56b95c73-8922-4454-af0c-d312d9510ff0","system_id":"levelo_inurba_marseille","lat":43.30641,"lon":5.40095,"is_reserved":false,"is_disabled":false,"rental_uris":{"android":"levelo://app?vid=56b95c73-8922-4454-af0c-d312d9510ff0","ios":"levelo://app?vid=56b95c73-8922-4454-af0c-d312d9510ff0"},"vehicle_type_id":"4","last_reported":1731532132,"current_range_meters":20000,"station_id":"ce4bh112rcd13ifvqda0","pricing_plan_id":"cebpf4jnsgd1na2vs0mg"},{"bike_id":"afa396d2-9106-4dc1-b62f-59eb008229f7","system_id":"levelo_inurba_marseille","lat":43.29422,"lon":5.38619,"is_reserved":false,"is_disabled":false,"rental_uris":{"android":"levelo://app?vid=afa396d2-9106-4dc1-b62f-59eb008229f7","ios":"levelo://app?vid=afa396d2-9106-4dc1-b62f-59eb008229f7"},"vehicle_type_id":"4","last_reported":1731532132,"current_range_meters":30800,"station_id":"ce4bh2h2rcd13ifvqdh0","pricing_plan_id":"cebpf4jnsgd1na2vs0mg"},{"bike_id":"3d690e1b-69ae-4c2f-ad72-e8f42b0e3614","system_id":"levelo_inurba_marseille","lat":43.297577,"lon":5.380925,"is_reserved":false,"is_disabled":false,"rental_uris":{"android":"levelo://app?vid=3d690e1b-69ae-4c2f-ad72-e8f42b0e3614","ios":"levelo://app?vid=3d690e1b-69ae-4c2f-ad72-e8f42b0e3614"},"vehicle_type_id":"4","last_reported":1731532132,"current_range_meters":38800,"station_id":"ce4bgj12rcd13ifvqbc0","pricing_plan_id":"cebpf4jnsgd1na2vs0mg"},{"bike_id":"929996c8-eb75-49bc-a4c9-6cfd09c05ed2","system_id":"levelo_inurba_marseille","lat":43.32368,"lon":5.38886,"is_reserved":false,"is_disabled":false,"rental_uris":{"android":"levelo://app?vid=929996c8-eb75-49bc-a4c9-6cfd09c05ed2","ios":"levelo://app?vid=929996c8-eb75-49bc-a4c9-6cfd09c05ed2"},"vehicle_type_id":"4","last_reported":1731532132,"current_range_meters":37600,"station_id":"ce4bhqp2rcd13ifvqhog","pricing_plan_id":"cebpf4jnsgd1na2vs0mg"},{"bike_id":"83a46b88-087d-4287-b780-84d4db7aff44","system_id":"levelo_inurba_marseille","lat":43.327454,"lon":5.38461,"is_reserved":false,"is_disabled":false,"rental_uris":{"android":"levelo://app?vid=83a46b88-087d-4287-b780-84d4db7aff44","ios":"levelo://app?vid=83a46b88-087d-4287-b780-84d4db7aff44"},"vehicle_type_id":"4","last_reported":1731532132,"current_range_meters":22400,"station_id":"","pricing_plan_id":"cebpf4jnsgd1na2vs0mg"},{"bike_id":"033c5c19-203a-4d11-a7e6-91e96fa07efd","system_id":"levelo_inurba_marseille","lat":43.31331,"lon":5.39694,"is_reserved":false,"is_disabled":false,"rental_uris":{"android":"levelo://app?vid=033c5c19-203a-4d11-a7e6-91e96fa07efd","ios":"levelo://app?vid=033c5c19-203a-4d11-a7e6-91e96fa07efd"},"vehicle_type_id":"4","last_reported":1731532132,"current_range_meters":17200,"station_id":"ce4bgvp2rcd13ifvqcu0","pricing_plan_id":"cebpf4jnsgd1na2vs0mg"},{"bike_id":"4d8f881f-ecad-4bd3-ab56-d00a4cc82962","system_id":"levelo_inurba_marseille","lat":43.24801,"lon":5.37454,"is_reserved":false,"is_disabled":false,"rental_uris":{"android":"levelo://app?vid=4d8f881f-ecad-4bd3-ab56-d00a4cc82962","ios":"levelo://app?vid=4d8f881f-ecad-4bd3-ab56-d00a4cc82962"},"vehicle_type_id":"4","last_reported":1731532132,"current_range_meters":15200,"station_id":"ce4bhgh2rcd13ifvqfb0","pricing_plan_id":"cebpf4jnsgd1na2vs0mg"},{"bike_id":"170905c7-f490-4232-b141-663a4bd15902","system_id":"levelo_inurba_marseille","lat":43.29867,"lon":5.39726,"is_reserved":false,"is_disabled":false,"rental_uris":{"android":"levelo://app?vid=170905c7-f490-4232-b141-663a4bd15902","ios":"levelo://app?vid=170905c7-f490-4232-b141-663a4bd15902"},"vehicle_type_id":"4","last_reported":1731532132,"current_range_meters":4000,"station_id":"ce4bh0h2rcd13ifvqd50","pricing_plan_id":"cebpf4jnsgd1na2vs0mg"},{"bike_id":"337ea833-1b01-4041-a864-7a3676c066d7","system_id":"levelo_inurba_marseille","lat":43.26937,"lon":5.40714,"is_reserved":false,"is_disabled":false,"rental_uris":{"android":"levelo://app?vid=337ea833-1b01-4041-a864-7a3676c066d7","ios":"levelo://app?vid=337ea833-1b01-4041-a864-7a3676c066d7"},"vehicle_type_id":"4","last_reported":1731532132,"current_range_meters":6800,"station_id":"","pricing_plan_id":"cebpf4jnsgd1na2vs0mg"},{"bike_id":"7616a63e-4040-448c-a84b-1c511a4e52ab","system_id":"levelo_inurba_marseille","lat":43.3107,"lon":5.38352,"is_reserved":false,"is_disabled":false,"rental_uris":{"android":"levelo://app?vid=7616a63e-4040-448c-a84b-1c511a4e52ab","ios":"levelo://app?vid=7616a63e-4040-448c-a84b-1c511a4e52ab"},"vehicle_type_id":"4","last_reported":1731532132,"current_range_meters":18800,"station_id":"ce4bgv92rcd13ifvqcr0","pricing_plan_id":"cebpf4jnsgd1na2vs0mg"},{"bike_id":"cf3359b3-5d82-4cc3-a668-cb5579c081c4","system_id":"levelo_inurba_marseille","lat":43.29188,"lon":5.3932,"is_reserved":false,"is_disabled":false,"rental_uris":{"android":"levelo://app?vid=cf3359b3-5d82-4cc3-a668-cb5579c081c4","ios":"levelo://app?vid=cf3359b3-5d82-4cc3-a668-cb5579c081c4"},"vehicle_type_id":"4","last_reported":1731532132,"current_range_meters":28000,"station_id":"ce4bh192rcd13ifvqdd0","pricing_plan_id":"cebpf4jnsgd1na2vs0mg"},{"bike_id":"38280340-22b8-4dac-8181-0075275e8306","system_id":"levelo_inurba_marseille","lat":43.30434,"lon":5.38885,"is_reserved":false,"is_disabled":false,"rental_uris":{"android":"levelo://app?vid=38280340-22b8-4dac-8181-0075275e8306","ios":"levelo://app?vid=38280340-22b8-4dac-8181-0075275e8306"},"vehicle_type_id":"4","last_reported":1731532132,"current_range_meters":30000,"station_id":"ce4bgk12rcd13ifvqbi0","pricing_plan_id":"cebpf4jnsgd1na2vs0mg"},{"bike_id":"a0b30bce-20cf-4682-b432-68f0b7278295","system_id":"levelo_inurba_marseille","lat":43.295738,"lon":5.399963,"is_reserved":false,"is_disabled":false,"rental_uris":{"android":"levelo://app?vid=a0b30bce-20cf-4682-b432-68f0b7278295","ios":"levelo://app?vid=a0b30bce-20cf-4682-b432-68f0b7278295"},"vehicle_type_id":"4","last_reported":1731532132,"current_range_meters":38000,"station_id":"ce4bh312rcd13ifvqdj0","pricing_plan_id":"cebpf4jnsgd1na2vs0mg"},{"bike_id":"116d09b8-1abe-4844-b065-1ec5bc1a85fd","system_id":"levelo_inurba_marseille","lat":43.29097,"lon":5.38142,"is_reserved":false,"is_disabled":false,"rental_uris":{"android":"levelo://app?vid=116d09b8-1abe-4844-b065-1ec5bc1a85fd","ios":"levelo://app?vid=116d09b8-1abe-4844-b065-1ec5bc1a85fd"},"vehicle_type_id":"4","last_reported":1731532132,"current_range_meters":18000,"station_id":"ce4bh512rcd13ifvqe2g","pricing_plan_id":"cebpf4jnsgd1na2vs0mg"},{"bike_id":"f03bcde4-7a0f-47cc-bf92-10221891ef90","system_id":"levelo_inurba_marseille","lat":43.292843,"lon":5.368441,"is_reserved":false,"is_disabled":false,"rental_uris":{"android":"levelo://app?vid=f03bcde4-7a0f-47cc-bf92-10221891ef90","ios":"levelo://app?vid=f03bcde4-7a0f-47cc-bf92-10221891ef90"},"vehicle_type_id":"4","last_reported":1731532132,"current_range_meters":25600,"station_id":"ce4bhbp2rcd13ifvqesg","pricing_plan_id":"cebpf4jnsgd1na2vs0mg"},{"bike_id":"5b41e762-1614-46f6-92e6-bba5e7d3cb79","system_id":"levelo_inurba_marseille","lat":43.28453,"lon":5.35884,"is_reserved":false,"is_disabled":false,"rental_uris":{"android":"levelo://app?vid=5b41e762-1614-46f6-92e6-bba5e7d3cb79","ios":"levelo://app?vid=5b41e762-1614-46f6-92e6-bba5e7d3cb79"},"vehicle_type_id":"4","last_reported":1731532132,"current_range_meters":38800,"station_id":"ce4bhah2rcd13ifvqei0","pricing_plan_id":"cebpf4jnsgd1na2vs0mg"},{"bike_id":"012927f2-0ce0-4abc-933c-6366952c031d","system_id":"levelo_inurba_marseille","lat":43.24182,"lon":5.39736,"is_reserved":false,"is_disabled":false,"rental_uris":{"android":"levelo://app?vid=012927f2-0ce0-4abc-933c-6366952c031d","ios":"levelo://app?vid=012927f2-0ce0-4abc-933c-6366952c031d"},"vehicle_type_id":"4","last_reported":1731532132,"current_range_meters":29600,"station_id":"ce4bhn12rcd13ifvqgpg","pricing_plan_id":"cebpf4jnsgd1na2vs0mg"},{"bike_id":"0a2e9766-10bc-434d-a8be-5aab9a3a977a","system_id":"levelo_inurba_marseille","lat":43.29537,"lon":5.3903,"is_reserved":false,"is_disabled":false,"rental_uris":{"android":"levelo://app?vid=0a2e9766-10bc-434d-a8be-5aab9a3a977a","ios":"levelo://app?vid=0a2e9766-10bc-434d-a8be-5aab9a3a977a"},"vehicle_type_id":"4","last_reported":1731532132,"current_range_meters":38400,"station_id":"ce4bh3p2rcd13ifvqdp0","pricing_plan_id":"cebpf4jnsgd1na2vs0mg"},{"bike_id":"0df27a03-8e74-41dd-acc5-65d32248cd46","system_id":"levelo_inurba_marseille","lat":43.28941,"lon":5.36637,"is_reserved":false,"is_disabled":false,"rental_uris":{"android":"levelo://app?vid=0df27a03-8e74-41dd-acc5-65d32248cd46","ios":"levelo://app?vid=0df27a03-8e74-41dd-acc5-65d32248cd46"},"vehicle_type_id":"4","last_reported":1731532132,"current_range_meters":38400,"station_id":"ce4bhap2rcd13ifvqek0","pricing_plan_id":"cebpf4jnsgd1na2vs0mg"},{"bike_id":"bbf3d7b1-2e94-4d93-baf5-c3150735841d","system_id":"levelo_inurba_marseille","lat":43.30589,"lon":5.39357,"is_reserved":false,"is_disabled":false,"rental_uris":{"android":"levelo://app?vid=bbf3d7b1-2e94-4d93-baf5-c3150735841d","ios":"levelo://app?vid=bbf3d7b1-2e94-4d93-baf5-c3150735841d"},"vehicle_type_id":"4","last_reported":1731532132,"current_range_meters":15200,"station_id":"ce4bh0p2rcd13ifvqd80","pricing_plan_id":"cebpf4jnsgd1na2vs0mg"},{"bike_id":"04fd7234-bd35-4e2e-9705-1c29b2840cb0","system_id":"levelo_inurba_marseille","lat":43.30327,"lon":5.4043,"is_reserved":false,"is_disabled":false,"rental_uris":{"android":"levelo://app?vid=04fd7234-bd35-4e2e-9705-1c29b2840cb0","ios":"levelo://app?vid=04fd7234-bd35-4e2e-9705-1c29b2840cb0"},"vehicle_type_id":"4","last_reported":1731532132,"current_range_meters":37600,"station_id":"ce4bh012rcd13ifvqd10","pricing_plan_id":"cebpf4jnsgd1na2vs0mg"},{"bike_id":"fd1e7b30-f859-4736-a101-5352f5409432","system_id":"levelo_inurba_marseille","lat":43.28029,"lon":5.36943,"is_reserved":false,"is_disabled":false,"rental_uris":{"android":"levelo://app?vid=fd1e7b30-f859-4736-a101-5352f5409432","ios":"levelo://app?vid=fd1e7b30-f859-4736-a101-5352f5409432"},"vehicle_type_id":"4","last_reported":1731532132,"current_range_meters":22800,"station_id":"ce4bha12rcd13ifvqef0","pricing_plan_id":"cebpf4jnsgd1na2vs0mg"},{"bike_id":"39dbdb1b-2ab9-4cb6-8983-c42406590ac6","system_id":"levelo_inurba_marseille","lat":43.288565,"lon":5.358515,"is_reserved":false,"is_disabled":false,"rental_uris":{"android":"levelo://app?vid=39dbdb1b-2ab9-4cb6-8983-c42406590ac6","ios":"levelo://app?vid=39dbdb1b-2ab9-4cb6-8983-c42406590ac6"},"vehicle_type_id":"4","last_reported":1731532132,"current_range_meters":23200,"station_id":"","pricing_plan_id":"cebpf4jnsgd1na2vs0mg"},{"bike_id":"7c9b8995-ac96-4708-b4eb-b4b17631b9d8","system_id":"levelo_inurba_marseille","lat":43.337444,"lon":5.374475,"is_reserved":false,"is_disabled":false,"rental_uris":{"android":"levelo://app?vid=7c9b8995-ac96-4708-b4eb-b4b17631b9d8","ios":"levelo://app?vid=7c9b8995-ac96-4708-b4eb-b4b17631b9d8"},"vehicle_type_id":"4","last_reported":1731532132,"current_range_meters":36000,"station_id":"","pricing_plan_id":"cebpf4jnsgd1na2vs0mg"},{"bike_id":"8ab17290-17a8-48a2-8dba-505756bb84a7","system_id":"levelo_inurba_marseille","lat":43.28428,"lon":5.39181,"is_reserved":false,"is_disabled":false,"rental_uris":{"android":"levelo://app?vid=8ab17290-17a8-48a2-8dba-505756bb84a7","ios":"levelo://app?vid=8ab17290-17a8-48a2-8dba-505756bb84a7"},"vehicle_type_id":"4","last_reported":1731532132,"current_range_meters":26000,"station_id":"ce4bhoh2rcd13ifvqh5g","pricing_plan_id":"cebpf4jnsgd1na2vs0mg"},{"bike_id":"bfa998e5-f39d-4565-8083-ac8883bcdd82","system_id":"levelo_inurba_marseille","lat":43.24069,"lon":5.37764,"is_reserved":false,"is_disabled":false,"rental_uris":{"android":"levelo://app?vid=bfa998e5-f39d-4565-8083-ac8883bcdd82","ios":"levelo://app?vid=bfa998e5-f39d-4565-8083-ac8883bcdd82"},"vehicle_type_id":"4","last_reported":1731532132,"current_range_meters":11200,"station_id":"ce4bhnp2rcd13ifvqgvg","pricing_plan_id":"cebpf4jnsgd1na2vs0mg"},{"bike_id":"a4df5d8f-a96e-44fd-a33c-a0551b9dcb5d","system_id":"levelo_inurba_marseille","lat":43.2707,"lon":5.42273,"is_reserved":false,"is_disabled":false,"rental_uris":{"android":"levelo://app?vid=a4df5d8f-a96e-44fd-a33c-a0551b9dcb5d","ios":"levelo://app?vid=a4df5d8f-a96e-44fd-a33c-a0551b9dcb5d"},"vehicle_type_id":"4","last_reported":1731532132,"current_range_meters":39200,"station_id":"ce4bhk92rcd13ifvqgb0","pricing_plan_id":"cebpf4jnsgd1na2vs0mg"},{"bike_id":"9c6bb25d-2b69-436a-8173-c10a8787ff81","system_id":"levelo_inurba_marseille","lat":43.28447,"lon":5.39184,"is_reserved":false,"is_disabled":false,"rental_uris":{"android":"levelo://app?vid=9c6bb25d-2b69-436a-8173-c10a8787ff81","ios":"levelo://app?vid=9c6bb25d-2b69-436a-8173-c10a8787ff81"},"vehicle_type_id":"4","last_reported":1731532132,"current_range_meters":38000,"station_id":"ce4bhoh2rcd13ifvqh5g","pricing_plan_id":"cebpf4jnsgd1na2vs0mg"},{"bike_id":"caed76f8-7fcb-4143-a047-45544b91ced9","system_id":"levelo_inurba_marseille","lat":43.30418,"lon":5.39753,"is_reserved":false,"is_disabled":false,"rental_uris":{"android":"levelo://app?vid=caed76f8-7fcb-4143-a047-45544b91ced9","ios":"levelo://app?vid=caed76f8-7fcb-4143-a047-45544b91ced9"},"vehicle_type_id":"4","last_reported":1731532132,"current_range_meters":38000,"station_id":"ce4bh092rcd13ifvqd20","pricing_plan_id":"cebpf4jnsgd1na2vs0mg"},{"bike_id":"5f265537-5f45-4694-bda7-7aa85ff975a3","system_id":"levelo_inurba_marseille","lat":43.28662,"lon":5.36357,"is_reserved":false,"is_disabled":false,"rental_uris":{"android":"levelo://app?vid=5f265537-5f45-4694-bda7-7aa85ff975a3","ios":"levelo://app?vid=5f265537-5f45-4694-bda7-7aa85ff975a3"},"vehicle_type_id":"4","last_reported":1731532132,"current_range_meters":12800,"station_id":"ce4bhah2rcd13ifvqej0","pricing_plan_id":"cebpf4jnsgd1na2vs0mg"},{"bike_id":"cff9a9b2-0a99-4fd7-bab4-15454d4bffba","system_id":"levelo_inurba_marseille","lat":43.30318,"lon":5.40433,"is_reserved":false,"is_disabled":false,"rental_uris":{"android":"levelo://app?vid=cff9a9b2-0a99-4fd7-bab4-15454d4bffba","ios":"levelo://app?vid=cff9a9b2-0a99-4fd7-bab4-15454d4bffba"},"vehicle_type_id":"4","last_reported":1731532132,"current_range_meters":6800,"station_id":"ce4bh012rcd13ifvqd10","pricing_plan_id":"cebpf4jnsgd1na2vs0mg"},{"bike_id":"b3b5223c-5272-409d-bc43-d2e21832bcd1","system_id":"levelo_inurba_marseille","lat":43.30352,"lon":5.41873,"is_reserved":false,"is_disabled":false,"rental_uris":{"android":"levelo://app?vid=b3b5223c-5272-409d-bc43-d2e21832bcd1","ios":"levelo://app?vid=b3b5223c-5272-409d-bc43-d2e21832bcd1"},"vehicle_type_id":"4","last_reported":1731532132,"current_range_meters":28400,"station_id":"ce4bhop2rcd13ifvqh7g","pricing_plan_id":"cebpf4jnsgd1na2vs0mg"},{"bike_id":"87d93078-85b6-4456-ba43-4faf2544291e","system_id":"levelo_inurba_marseille","lat":43.31335,"lon":5.39696,"is_reserved":false,"is_disabled":false,"rental_uris":{"android":"levelo://app?vid=87d93078-85b6-4456-ba43-4faf2544291e","ios":"levelo://app?vid=87d93078-85b6-4456-ba43-4faf2544291e"},"vehicle_type_id":"4","last_reported":1731532132,"current_range_meters":29600,"station_id":"ce4bgvp2rcd13ifvqcu0","pricing_plan_id":"cebpf4jnsgd1na2vs0mg"},{"bike_id":"c89636c4-78e9-4446-96fb-7618bf9057be","system_id":"levelo_inurba_marseille","lat":43.2841,"lon":5.3751,"is_reserved":false,"is_disabled":false,"rental_uris":{"android":"levelo://app?vid=c89636c4-78e9-4446-96fb-7618bf9057be","ios":"levelo://app?vid=c89636c4-78e9-4446-96fb-7618bf9057be"},"vehicle_type_id":"4","last_reported":1731532132,"current_range_meters":26800,"station_id":"ce4bh412rcd13ifvqds0","pricing_plan_id":"cebpf4jnsgd1na2vs0mg"},{"bike_id":"92adb336-5165-474e-9737-637bddb603ea","system_id":"levelo_inurba_marseille","lat":43.28616,"lon":5.35106,"is_reserved":false,"is_disabled":false,"rental_uris":{"android":"levelo://app?vid=92adb336-5165-474e-9737-637bddb603ea","ios":"levelo://app?vid=92adb336-5165-474e-9737-637bddb603ea"},"vehicle_type_id":"4","last_reported":1731532132,"current_range_meters":35200,"station_id":"ce4bhch2rcd13ifvqeug","pricing_plan_id":"cebpf4jnsgd1na2vs0mg"},{"bike_id":"83f700c3-f7b1-4a09-9190-340c479d326a","system_id":"levelo_inurba_marseille","lat":43.31166,"lon":5.38715,"is_reserved":false,"is_disabled":false,"rental_uris":{"android":"levelo://app?vid=83f700c3-f7b1-4a09-9190-340c479d326a","ios":"levelo://app?vid=83f700c3-f7b1-4a09-9190-340c479d326a"},"vehicle_type_id":"4","last_reported":1731532132,"current_range_meters":8800,"station_id":"ce4bgv12rcd13ifvqcp0","pricing_plan_id":"cebpf4jnsgd1na2vs0mg"},{"bike_id":"36d094b0-e04d-47a6-a7b6-331edee81ed7","system_id":"levelo_inurba_marseille","lat":43.27685,"lon":5.38908,"is_reserved":false,"is_disabled":false,"rental_uris":{"android":"levelo://app?vid=36d094b0-e04d-47a6-a7b6-331edee81ed7","ios":"levelo://app?vid=36d094b0-e04d-47a6-a7b6-331edee81ed7"},"vehicle_type_id":"4","last_reported":1731532132,"current_range_meters":38800,"station_id":"ce4bhi12rcd13ifvqfo0","pricing_plan_id":"cebpf4jnsgd1na2vs0mg"},{"bike_id":"3df87364-8199-4827-8dfc-502d9609a920","system_id":"levelo_inurba_marseille","lat":43.29631,"lon":5.40597,"is_reserved":false,"is_disabled":false,"rental_uris":{"android":"levelo://app?vid=3df87364-8199-4827-8dfc-502d9609a920","ios":"levelo://app?vid=3df87364-8199-4827-8dfc-502d9609a920"},"vehicle_type_id":"4","last_reported":1731532132,"current_range_meters":32800,"station_id":"ce4bh0h2rcd13ifvqd60","pricing_plan_id":"cebpf4jnsgd1na2vs0mg"},{"bike_id":"ae6c3bfa-052d-44b6-aa7e-4e13cbe7d6ea","system_id":"levelo_inurba_marseille","lat":43.27992,"lon":5.41654,"is_reserved":false,"is_disabled":false,"rental_uris":{"android":"levelo://app?vid=ae6c3bfa-052d-44b6-aa7e-4e13cbe7d6ea","ios":"levelo://app?vid=ae6c3bfa-052d-44b6-aa7e-4e13cbe7d6ea"},"vehicle_type_id":"4","last_reported":1731532132,"current_range_meters":37600,"station_id":"ce4bho12rcd13ifvqh1g","pricing_plan_id":"cebpf4jnsgd1na2vs0mg"},{"bike_id":"dc61d19c-1cee-4753-936b-7b21a8abe5b9","system_id":"levelo_inurba_marseille","lat":43.29784,"lon":5.39341,"is_reserved":false,"is_disabled":false,"rental_uris":{"android":"levelo://app?vid=dc61d19c-1cee-4753-936b-7b21a8abe5b9","ios":"levelo://app?vid=dc61d19c-1cee-4753-936b-7b21a8abe5b9"},"vehicle_type_id":"4","last_reported":1731532132,"current_range_meters":22400,"station_id":"chh1huq6cuj3fo74tm60","pricing_plan_id":"cebpf4jnsgd1na2vs0mg"},{"bike_id":"7735a892-8d6b-4a93-b64f-341778d38d92","system_id":"levelo_inurba_marseille","lat":43.33609,"lon":5.4102,"is_reserved":false,"is_disabled":false,"rental_uris":{"android":"levelo://app?vid=7735a892-8d6b-4a93-b64f-341778d38d92","ios":"levelo://app?vid=7735a892-8d6b-4a93-b64f-341778d38d92"},"vehicle_type_id":"4","last_reported":1731532132,"current_range_meters":28000,"station_id":"ce4bhqh2rcd13ifvqhmg","pricing_plan_id":"cebpf4jnsgd1na2vs0mg"},{"bike_id":"a4ec425c-e618-4c93-8518-14aaf2cc1493","system_id":"levelo_inurba_marseille","lat":43.31761,"lon":5.39017,"is_reserved":false,"is_disabled":false,"rental_uris":{"android":"levelo://app?vid=a4ec425c-e618-4c93-8518-14aaf2cc1493","ios":"levelo://app?vid=a4ec425c-e618-4c93-8518-14aaf2cc1493"},"vehicle_type_id":"4","last_reported":1731532132,"current_range_meters":38800,"station_id":"ce4bhqp2rcd13ifvqhng","pricing_plan_id":"cebpf4jnsgd1na2vs0mg"},{"bike_id":"060dc6d6-4408-448f-b460-b0951a785652","system_id":"levelo_inurba_marseille","lat":43.29364,"lon":5.378467,"is_reserved":false,"is_disabled":false,"rental_uris":{"android":"levelo://app?vid=060dc6d6-4408-448f-b460-b0951a785652","ios":"levelo://app?vid=060dc6d6-4408-448f-b460-b0951a785652"},"vehicle_type_id":"4","last_reported":1731532132,"current_range_meters":38800,"station_id":"ce4bgjh2rcd13ifvqbf0","pricing_plan_id":"cebpf4jnsgd1na2vs0mg"},{"bike_id":"9e4868d1-d7bd-46d5-a321-e3594e2b8567","system_id":"levelo_inurba_marseille","lat":43.28699,"lon":5.37389,"is_reserved":false,"is_disabled":false,"rental_uris":{"android":"levelo://app?vid=9e4868d1-d7bd-46d5-a321-e3594e2b8567","ios":"levelo://app?vid=9e4868d1-d7bd-46d5-a321-e3594e2b8567"},"vehicle_type_id":"4","last_reported":1731532132,"current_range_meters":32400,"station_id":"ce4bh3p2rcd13ifvqdq0","pricing_plan_id":"cebpf4jnsgd1na2vs0mg"},{"bike_id":"763a0d0b-adc4-4f6c-8ca3-5d5ac74d0652","system_id":"levelo_inurba_marseille","lat":43.28419,"lon":5.37522,"is_reserved":false,"is_disabled":false,"rental_uris":{"android":"levelo://app?vid=763a0d0b-adc4-4f6c-8ca3-5d5ac74d0652","ios":"levelo://app?vid=763a0d0b-adc4-4f6c-8ca3-5d5ac74d0652"},"vehicle_type_id":"4","last_reported":1731532132,"current_range_meters":20400,"station_id":"ce4bh412rcd13ifvqds0","pricing_plan_id":"cebpf4jnsgd1na2vs0mg"},{"bike_id":"69e59e2d-8fe5-4acb-8e33-86237767e569","system_id":"levelo_inurba_marseille","lat":43.29519,"lon":5.39036,"is_reserved":false,"is_disabled":false,"rental_uris":{"android":"levelo://app?vid=69e59e2d-8fe5-4acb-8e33-86237767e569","ios":"levelo://app?vid=69e59e2d-8fe5-4acb-8e33-86237767e569"},"vehicle_type_id":"4","last_reported":1731532132,"current_range_meters":33600,"station_id":"ce4bh3p2rcd13ifvqdp0","pricing_plan_id":"cebpf4jnsgd1na2vs0mg"},{"bike_id":"7891995d-7c39-4fa5-ab0a-02ee601a522d","system_id":"levelo_inurba_marseille","lat":43.32001,"lon":5.38149,"is_reserved":false,"is_disabled":false,"rental_uris":{"android":"levelo://app?vid=7891995d-7c39-4fa5-ab0a-02ee601a522d","ios":"levelo://app?vid=7891995d-7c39-4fa5-ab0a-02ee601a522d"},"vehicle_type_id":"4","last_reported":1731532132,"current_range_meters":38000,"station_id":"ce4bhr12rcd13ifvqhpg","pricing_plan_id":"cebpf4jnsgd1na2vs0mg"},{"bike_id":"e4935905-67da-4e99-bbf5-f13614b8f314","system_id":"levelo_inurba_marseille","lat":43.23964,"lon":5.36634,"is_reserved":false,"is_disabled":false,"rental_uris":{"android":"levelo://app?vid=e4935905-67da-4e99-bbf5-f13614b8f314","ios":"levelo://app?vid=e4935905-67da-4e99-bbf5-f13614b8f314"},"vehicle_type_id":"4","last_reported":1731532132,"current_range_meters":13600,"station_id":"ce4bhi12rcd13ifvqfp0","pricing_plan_id":"cebpf4jnsgd1na2vs0mg"},{"bike_id":"58e244c1-4fc0-4be5-a598-59c5ada0c569","system_id":"levelo_inurba_marseille","lat":43.27954,"lon":5.41035,"is_reserved":false,"is_disabled":false,"rental_uris":{"android":"levelo://app?vid=58e244c1-4fc0-4be5-a598-59c5ada0c569","ios":"levelo://app?vid=58e244c1-4fc0-4be5-a598-59c5ada0c569"},"vehicle_type_id":"4","last_reported":1731532132,"current_range_meters":39200,"station_id":"ce4bhnp2rcd13ifvqh0g","pricing_plan_id":"cebpf4jnsgd1na2vs0mg"},{"bike_id":"8bbddea8-bd9b-4382-a8f4-748b385024f3","system_id":"levelo_inurba_marseille","lat":43.25728,"lon":5.41107,"is_reserved":false,"is_disabled":false,"rental_uris":{"android":"levelo://app?vid=8bbddea8-bd9b-4382-a8f4-748b385024f3","ios":"levelo://app?vid=8bbddea8-bd9b-4382-a8f4-748b385024f3"},"vehicle_type_id":"4","last_reported":1731532132,"current_range_meters":18800,"station_id":"ce4bhkp2rcd13ifvqgd0","pricing_plan_id":"cebpf4jnsgd1na2vs0mg"},{"bike_id":"f2c0c674-a5e7-4997-8a27-413af9bcc481","system_id":"levelo_inurba_marseille","lat":43.28611,"lon":5.35101,"is_reserved":false,"is_disabled":false,"rental_uris":{"android":"levelo://app?vid=f2c0c674-a5e7-4997-8a27-413af9bcc481","ios":"levelo://app?vid=f2c0c674-a5e7-4997-8a27-413af9bcc481"},"vehicle_type_id":"4","last_reported":1731532132,"current_range_meters":16000,"station_id":"ce4bhch2rcd13ifvqeug","pricing_plan_id":"cebpf4jnsgd1na2vs0mg"},{"bike_id":"828cbcfe-6c6b-4507-8ddf-f4d69c2d8108","system_id":"levelo_inurba_marseille","lat":43.24081,"lon":5.37754,"is_reserved":false,"is_disabled":false,"rental_uris":{"android":"levelo://app?vid=828cbcfe-6c6b-4507-8ddf-f4d69c2d8108","ios":"levelo://app?vid=828cbcfe-6c6b-4507-8ddf-f4d69c2d8108"},"vehicle_type_id":"4","last_reported":1731532132,"current_range_meters":32800,"station_id":"ce4bhnp2rcd13ifvqgvg","pricing_plan_id":"cebpf4jnsgd1na2vs0mg"},{"bike_id":"a0d487ad-3c58-4cac-bcaa-cf6491bccc23","system_id":"levelo_inurba_marseille","lat":43.2988,"lon":5.38909,"is_reserved":false,"is_disabled":false,"rental_uris":{"android":"levelo://app?vid=a0d487ad-3c58-4cac-bcaa-cf6491bccc23","ios":"levelo://app?vid=a0d487ad-3c58-4cac-bcaa-cf6491bccc23"},"vehicle_type_id":"4","last_reported":1731532132,"current_range_meters":37600,"station_id":"ce4bh392rcd13ifvqdl0","pricing_plan_id":"cebpf4jnsgd1na2vs0mg"},{"bike_id":"1311c692-6e9d-4afb-b7b0-20686564fe7a","system_id":"levelo_inurba_marseille","lat":43.337444,"lon":5.374475,"is_reserved":false,"is_disabled":false,"rental_uris":{"android":"levelo://app?vid=1311c692-6e9d-4afb-b7b0-20686564fe7a","ios":"levelo://app?vid=1311c692-6e9d-4afb-b7b0-20686564fe7a"},"vehicle_type_id":"4","last_reported":1731532132,"current_range_meters":36000,"station_id":"","pricing_plan_id":"cebpf4jnsgd1na2vs0mg"},{"bike_id":"4e68bfdf-c6f2-4ac5-a03d-cdcff3af65c9","system_id":"levelo_inurba_marseille","lat":43.2959,"lon":5.38103,"is_reserved":false,"is_disabled":false,"rental_uris":{"android":"levelo://app?vid=4e68bfdf-c6f2-4ac5-a03d-cdcff3af65c9","ios":"levelo://app?vid=4e68bfdf-c6f2-4ac5-a03d-cdcff3af65c9"},"vehicle_type_id":"4","last_reported":1731532132,"current_range_meters":38800,"station_id":"ce4bgl12rcd13ifvqbo0","pricing_plan_id":"cebpf4jnsgd1na2vs0mg"},{"bike_id":"7d7af234-560f-4f63-8b91-79069909b91d","system_id":"levelo_inurba_marseille","lat":43.29318,"lon":5.37175,"is_reserved":false,"is_disabled":false,"rental_uris":{"android":"levelo://app?vid=7d7af234-560f-4f63-8b91-79069909b91d","ios":"levelo://app?vid=7d7af234-560f-4f63-8b91-79069909b91d"},"vehicle_type_id":"4","last_reported":1731532132,"current_range_meters":12800,"station_id":"ce4bgh92rcd13ifvqb40","pricing_plan_id":"cebpf4jnsgd1na2vs0mg"},{"bike_id":"07a4be1c-5cf0-4f3e-8c27-4c3e24078daa","system_id":"levelo_inurba_marseille","lat":43.24814,"lon":5.37452,"is_reserved":false,"is_disabled":false,"rental_uris":{"android":"levelo://app?vid=07a4be1c-5cf0-4f3e-8c27-4c3e24078daa","ios":"levelo://app?vid=07a4be1c-5cf0-4f3e-8c27-4c3e24078daa"},"vehicle_type_id":"4","last_reported":1731532132,"current_range_meters":18000,"station_id":"ce4bhgh2rcd13ifvqfb0","pricing_plan_id":"cebpf4jnsgd1na2vs0mg"},{"bike_id":"ecb3cc37-9673-4250-b386-228d12a366ea","system_id":"levelo_inurba_marseille","lat":43.27813,"lon":5.40708,"is_reserved":false,"is_disabled":false,"rental_uris":{"android":"levelo://app?vid=ecb3cc37-9673-4250-b386-228d12a366ea","ios":"levelo://app?vid=ecb3cc37-9673-4250-b386-228d12a366ea"},"vehicle_type_id":"4","last_reported":1731532132,"current_range_meters":38800,"station_id":"ce4bhnh2rcd13ifvqgtg","pricing_plan_id":"cebpf4jnsgd1na2vs0mg"},{"bike_id":"4236ba3b-ca60-447f-9fcf-44724f3d403a","system_id":"levelo_inurba_marseille","lat":43.28699,"lon":5.37395,"is_reserved":false,"is_disabled":false,"rental_uris":{"android":"levelo://app?vid=4236ba3b-ca60-447f-9fcf-44724f3d403a","ios":"levelo://app?vid=4236ba3b-ca60-447f-9fcf-44724f3d403a"},"vehicle_type_id":"4","last_reported":1731532132,"current_range_meters":24800,"station_id":"ce4bh3p2rcd13ifvqdq0","pricing_plan_id":"cebpf4jnsgd1na2vs0mg"},{"bike_id":"d7595a11-9b28-4bec-b99f-e0f1cad51f41","system_id":"levelo_inurba_marseille","lat":43.29804,"lon":5.40413,"is_reserved":false,"is_disabled":false,"rental_uris":{"android":"levelo://app?vid=d7595a11-9b28-4bec-b99f-e0f1cad51f41","ios":"levelo://app?vid=d7595a11-9b28-4bec-b99f-e0f1cad51f41"},"vehicle_type_id":"4","last_reported":1731532132,"current_range_meters":6800,"station_id":"ce4bh112rcd13ifvqd90","pricing_plan_id":"cebpf4jnsgd1na2vs0mg"},{"bike_id":"064785b1-570d-4d3d-b30e-ad791fb7597f","system_id":"levelo_inurba_marseille","lat":43.30421,"lon":5.39754,"is_reserved":false,"is_disabled":false,"rental_uris":{"android":"levelo://app?vid=064785b1-570d-4d3d-b30e-ad791fb7597f","ios":"levelo://app?vid=064785b1-570d-4d3d-b30e-ad791fb7597f"},"vehicle_type_id":"4","last_reported":1731532132,"current_range_meters":37600,"station_id":"ce4bh092rcd13ifvqd20","pricing_plan_id":"cebpf4jnsgd1na2vs0mg"},{"bike_id":"75f71ef1-6e08-415a-bb8b-dfb0f44294ba","system_id":"levelo_inurba_marseille","lat":43.27989,"lon":5.4166,"is_reserved":false,"is_disabled":false,"rental_uris":{"android":"levelo://app?vid=75f71ef1-6e08-415a-bb8b-dfb0f44294ba","ios":"levelo://app?vid=75f71ef1-6e08-415a-bb8b-dfb0f44294ba"},"vehicle_type_id":"4","last_reported":1731532132,"current_range_meters":8400,"station_id":"ce4bho12rcd13ifvqh1g","pricing_plan_id":"cebpf4jnsgd1na2vs0mg"},{"bike_id":"a365b508-1ef5-4939-b750-e9d43b113938","system_id":"levelo_inurba_marseille","lat":43.31758,"lon":5.39007,"is_reserved":false,"is_disabled":false,"rental_uris":{"android":"levelo://app?vid=a365b508-1ef5-4939-b750-e9d43b113938","ios":"levelo://app?vid=a365b508-1ef5-4939-b750-e9d43b113938"},"vehicle_type_id":"4","last_reported":1731532132,"current_range_meters":37600,"station_id":"ce4bhqp2rcd13ifvqhng","pricing_plan_id":"cebpf4jnsgd1na2vs0mg"},{"bike_id":"50b9b110-0620-4136-879b-a71176745a66","system_id":"levelo_inurba_marseille","lat":43.28946,"lon":5.36641,"is_reserved":false,"is_disabled":false,"rental_uris":{"android":"levelo://app?vid=50b9b110-0620-4136-879b-a71176745a66","ios":"levelo://app?vid=50b9b110-0620-4136-879b-a71176745a66"},"vehicle_type_id":"4","last_reported":1731532132,"current_range_meters":26800,"station_id":"ce4bhap2rcd13ifvqek0","pricing_plan_id":"cebpf4jnsgd1na2vs0mg"},{"bike_id":"ad22d4a2-6680-4f56-8a49-66ce49a0e001","system_id":"levelo_inurba_marseille","lat":43.29591,"lon":5.38099,"is_reserved":false,"is_disabled":false,"rental_uris":{"android":"levelo://app?vid=ad22d4a2-6680-4f56-8a49-66ce49a0e001","ios":"levelo://app?vid=ad22d4a2-6680-4f56-8a49-66ce49a0e001"},"vehicle_type_id":"4","last_reported":1731532132,"current_range_meters":38400,"station_id":"ce4bgl12rcd13ifvqbo0","pricing_plan_id":"cebpf4jnsgd1na2vs0mg"},{"bike_id":"20a6022f-93e7-457d-9e65-34fc2c4ed419","system_id":"levelo_inurba_marseille","lat":43.2844,"lon":5.3919,"is_reserved":false,"is_disabled":false,"rental_uris":{"android":"levelo://app?vid=20a6022f-93e7-457d-9e65-34fc2c4ed419","ios":"levelo://app?vid=20a6022f-93e7-457d-9e65-34fc2c4ed419"},"vehicle_type_id":"4","last_reported":1731532132,"current_range_meters":16400,"station_id":"ce4bhoh2rcd13ifvqh5g","pricing_plan_id":"cebpf4jnsgd1na2vs0mg"},{"bike_id":"f6ebf0a7-2773-4b55-ac8c-1b60b9018cfd","system_id":"levelo_inurba_marseille","lat":43.30539,"lon":5.36702,"is_reserved":false,"is_disabled":false,"rental_uris":{"android":"levelo://app?vid=f6ebf0a7-2773-4b55-ac8c-1b60b9018cfd","ios":"levelo://app?vid=f6ebf0a7-2773-4b55-ac8c-1b60b9018cfd"},"vehicle_type_id":"4","last_reported":1731532132,"current_range_meters":12800,"station_id":"ce4bgrp2rcd13ifvqc9g","pricing_plan_id":"cebpf4jnsgd1na2vs0mg"},{"bike_id":"7dc814f5-6091-4ac1-87d7-cf23c08e1f89","system_id":"levelo_inurba_marseille","lat":43.30927,"lon":5.4014,"is_reserved":false,"is_disabled":false,"rental_uris":{"android":"levelo://app?vid=7dc814f5-6091-4ac1-87d7-cf23c08e1f89","ios":"levelo://app?vid=7dc814f5-6091-4ac1-87d7-cf23c08e1f89"},"vehicle_type_id":"4","last_reported":1731532132,"current_range_meters":8000,"station_id":"ce4bgvp2rcd13ifvqct0","pricing_plan_id":"cebpf4jnsgd1na2vs0mg"},{"bike_id":"695aed6b-428c-4f8a-88b2-9adfa7e213a1","system_id":"levelo_inurba_marseille","lat":43.30091,"lon":5.39074,"is_reserved":false,"is_disabled":false,"rental_uris":{"android":"levelo://app?vid=695aed6b-428c-4f8a-88b2-9adfa7e213a1","ios":"levelo://app?vid=695aed6b-428c-4f8a-88b2-9adfa7e213a1"},"vehicle_type_id":"4","last_reported":1731532132,"current_range_meters":30000,"station_id":"ce4bh192rcd13ifvqdb0","pricing_plan_id":"cebpf4jnsgd1na2vs0mg"},{"bike_id":"8a8eab4b-f46a-43eb-9092-462e49d0527d","system_id":"levelo_inurba_marseille","lat":43.29625,"lon":5.40593,"is_reserved":false,"is_disabled":false,"rental_uris":{"android":"levelo://app?vid=8a8eab4b-f46a-43eb-9092-462e49d0527d","ios":"levelo://app?vid=8a8eab4b-f46a-43eb-9092-462e49d0527d"},"vehicle_type_id":"4","last_reported":1731532132,"current_range_meters":22800,"station_id":"ce4bh0h2rcd13ifvqd60","pricing_plan_id":"cebpf4jnsgd1na2vs0mg"},{"bike_id":"4d7147b0-96cf-4f9a-a06b-8a063557159b","system_id":"levelo_inurba_marseille","lat":43.23182,"lon":5.39979,"is_reserved":false,"is_disabled":false,"rental_uris":{"android":"levelo://app?vid=4d7147b0-96cf-4f9a-a06b-8a063557159b","ios":"levelo://app?vid=4d7147b0-96cf-4f9a-a06b-8a063557159b"},"vehicle_type_id":"4","last_reported":1731532132,"current_range_meters":39200,"station_id":"ce4bhn12rcd13ifvqgqg","pricing_plan_id":"cebpf4jnsgd1na2vs0mg"},{"bike_id":"ed2d8bd5-9c27-40ae-959f-74a893930887","system_id":"levelo_inurba_marseille","lat":43.25579,"lon":5.38235,"is_reserved":false,"is_disabled":false,"rental_uris":{"android":"levelo://app?vid=ed2d8bd5-9c27-40ae-959f-74a893930887","ios":"levelo://app?vid=ed2d8bd5-9c27-40ae-959f-74a893930887"},"vehicle_type_id":"4","last_reported":1731532132,"current_range_meters":11200,"station_id":"ce4bhih2rcd13ifvqfs0","pricing_plan_id":"cebpf4jnsgd1na2vs0mg"},{"bike_id":"f5df91d9-4a7c-43df-9009-00af233090e5","system_id":"levelo_inurba_marseille","lat":43.33614,"lon":5.41024,"is_reserved":false,"is_disabled":false,"rental_uris":{"android":"levelo://app?vid=f5df91d9-4a7c-43df-9009-00af233090e5","ios":"levelo://app?vid=f5df91d9-4a7c-43df-9009-00af233090e5"},"vehicle_type_id":"4","last_reported":1731532132,"current_range_meters":32800,"station_id":"ce4bhqh2rcd13ifvqhmg","pricing_plan_id":"cebpf4jnsgd1na2vs0mg"},{"bike_id":"91994f10-6cdd-4c64-9c6f-592b27e86568","system_id":"levelo_inurba_marseille","lat":43.28852,"lon":5.39308,"is_reserved":false,"is_disabled":false,"rental_uris":{"android":"levelo://app?vid=91994f10-6cdd-4c64-9c6f-592b27e86568","ios":"levelo://app?vid=91994f10-6cdd-4c64-9c6f-592b27e86568"},"vehicle_type_id":"4","last_reported":1731532132,"current_range_meters":38800,"station_id":"ce4bh2p2rcd13ifvqdi0","pricing_plan_id":"cebpf4jnsgd1na2vs0mg"},{"bike_id":"3da22c96-18a6-4d3a-a579-0c04984c3537","system_id":"levelo_inurba_marseille","lat":43.2621,"lon":5.37436,"is_reserved":false,"is_disabled":false,"rental_uris":{"android":"levelo://app?vid=3da22c96-18a6-4d3a-a579-0c04984c3537","ios":"levelo://app?vid=3da22c96-18a6-4d3a-a579-0c04984c3537"},"vehicle_type_id":"4","last_reported":1731532132,"current_range_meters":20000,"station_id":"ce4bhgp2rcd13ifvqfc0","pricing_plan_id":"cebpf4jnsgd1na2vs0mg"},{"bike_id":"68bc58cb-911d-4d81-8ded-a9f8f07ca418","system_id":"levelo_inurba_marseille","lat":43.28611,"lon":5.37062,"is_reserved":false,"is_disabled":false,"rental_uris":{"android":"levelo://app?vid=68bc58cb-911d-4d81-8ded-a9f8f07ca418","ios":"levelo://app?vid=68bc58cb-911d-4d81-8ded-a9f8f07ca418"},"vehicle_type_id":"4","last_reported":1731532132,"current_range_meters":37600,"station_id":"ce4bht12rcd13ifvqi60","pricing_plan_id":"cebpf4jnsgd1na2vs0mg"},{"bike_id":"142cc613-291c-4ade-afdd-7169a8a4d477","system_id":"levelo_inurba_marseille","lat":43.31082,"lon":5.42431,"is_reserved":false,"is_disabled":false,"rental_uris":{"android":"levelo://app?vid=142cc613-291c-4ade-afdd-7169a8a4d477","ios":"levelo://app?vid=142cc613-291c-4ade-afdd-7169a8a4d477"},"vehicle_type_id":"4","last_reported":1731532132,"current_range_meters":32000,"station_id":"ce4bhp92rcd13ifvqhag","pricing_plan_id":"cebpf4jnsgd1na2vs0mg"},{"bike_id":"2ce69362-2d7a-43c2-9b6d-043db0dca5c4","system_id":"levelo_inurba_marseille","lat":43.28699,"lon":5.39978,"is_reserved":false,"is_disabled":false,"rental_uris":{"android":"levelo://app?vid=2ce69362-2d7a-43c2-9b6d-043db0dca5c4","ios":"levelo://app?vid=2ce69362-2d7a-43c2-9b6d-043db0dca5c4"},"vehicle_type_id":"4","last_reported":1731532132,"current_range_meters":17600,"station_id":"ce4bho92rcd13ifvqh3g","pricing_plan_id":"cebpf4jnsgd1na2vs0mg"},{"bike_id":"9241c57a-fdc2-4884-a6b2-393df57dd8ca","system_id":"levelo_inurba_marseille","lat":43.290436,"lon":5.375672,"is_reserved":false,"is_disabled":false,"rental_uris":{"android":"levelo://app?vid=9241c57a-fdc2-4884-a6b2-393df57dd8ca","ios":"levelo://app?vid=9241c57a-fdc2-4884-a6b2-393df57dd8ca"},"vehicle_type_id":"4","last_reported":1731532132,"current_range_meters":30400,"station_id":"ce4bh692rcd13ifvqe90","pricing_plan_id":"cebpf4jnsgd1na2vs0mg"},{"bike_id":"b0b0aea0-587b-46d4-b71a-ee2360286eb0","system_id":"levelo_inurba_marseille","lat":43.29021,"lon":5.38145,"is_reserved":false,"is_disabled":false,"rental_uris":{"android":"levelo://app?vid=b0b0aea0-587b-46d4-b71a-ee2360286eb0","ios":"levelo://app?vid=b0b0aea0-587b-46d4-b71a-ee2360286eb0"},"vehicle_type_id":"4","last_reported":1731532132,"current_range_meters":36400,"station_id":"ce4bh4p2rcd13ifvqe1g","pricing_plan_id":"cebpf4jnsgd1na2vs0mg"},{"bike_id":"bff54997-1790-4727-a556-bbaeb5e5c93c","system_id":"levelo_inurba_marseille","lat":43.27912,"lon":5.39591,"is_reserved":false,"is_disabled":false,"rental_uris":{"android":"levelo://app?vid=bff54997-1790-4727-a556-bbaeb5e5c93c","ios":"levelo://app?vid=bff54997-1790-4727-a556-bbaeb5e5c93c"},"vehicle_type_id":"4","last_reported":1731532132,"current_range_meters":10000,"station_id":"ce4bhf92rcd13ifvqf40","pricing_plan_id":"cebpf4jnsgd1na2vs0mg"},{"bike_id":"a43d1870-89ce-4a4f-92bf-7c83dad695e2","system_id":"levelo_inurba_marseille","lat":43.29035,"lon":5.35916,"is_reserved":false,"is_disabled":false,"rental_uris":{"android":"levelo://app?vid=a43d1870-89ce-4a4f-92bf-7c83dad695e2","ios":"levelo://app?vid=a43d1870-89ce-4a4f-92bf-7c83dad695e2"},"vehicle_type_id":"4","last_reported":1731532132,"current_range_meters":28000,"station_id":"ce4bha92rcd13ifvqeg0","pricing_plan_id":"cebpf4jnsgd1na2vs0mg"},{"bike_id":"57489f75-402f-411d-ac18-b7e38a45b7d9","system_id":"levelo_inurba_marseille","lat":43.31172,"lon":5.38713,"is_reserved":false,"is_disabled":false,"rental_uris":{"android":"levelo://app?vid=57489f75-402f-411d-ac18-b7e38a45b7d9","ios":"levelo://app?vid=57489f75-402f-411d-ac18-b7e38a45b7d9"},"vehicle_type_id":"4","last_reported":1731532132,"current_range_meters":33200,"station_id":"ce4bgv12rcd13ifvqcp0","pricing_plan_id":"cebpf4jnsgd1na2vs0mg"},{"bike_id":"8759ae07-5bad-4a84-ada3-f28f57811112","system_id":"levelo_inurba_marseille","lat":43.28854,"lon":5.35847,"is_reserved":false,"is_disabled":false,"rental_uris":{"android":"levelo://app?vid=8759ae07-5bad-4a84-ada3-f28f57811112","ios":"levelo://app?vid=8759ae07-5bad-4a84-ada3-f28f57811112"},"vehicle_type_id":"4","last_reported":1731532132,"current_range_meters":38800,"station_id":"ce4bhb12rcd13ifvqem0","pricing_plan_id":"cebpf4jnsgd1na2vs0mg"},{"bike_id":"917b00d5-ac4a-4d98-84f8-0ad48d774aac","system_id":"levelo_inurba_marseille","lat":43.30326,"lon":5.40438,"is_reserved":false,"is_disabled":false,"rental_uris":{"android":"levelo://app?vid=917b00d5-ac4a-4d98-84f8-0ad48d774aac","ios":"levelo://app?vid=917b00d5-ac4a-4d98-84f8-0ad48d774aac"},"vehicle_type_id":"4","last_reported":1731532132,"current_range_meters":36800,"station_id":"ce4bh012rcd13ifvqd10","pricing_plan_id":"cebpf4jnsgd1na2vs0mg"},{"bike_id":"043cc5cd-c396-4b05-acc2-17ca28fab22d","system_id":"levelo_inurba_marseille","lat":43.2804,"lon":5.36954,"is_reserved":false,"is_disabled":false,"rental_uris":{"android":"levelo://app?vid=043cc5cd-c396-4b05-acc2-17ca28fab22d","ios":"levelo://app?vid=043cc5cd-c396-4b05-acc2-17ca28fab22d"},"vehicle_type_id":"4","last_reported":1731532132,"current_range_meters":39200,"station_id":"ce4bha12rcd13ifvqef0","pricing_plan_id":"cebpf4jnsgd1na2vs0mg"},{"bike_id":"77eeae7b-ed74-47f2-944f-eb4b80aa21b8","system_id":"levelo_inurba_marseille","lat":43.27372,"lon":5.36241,"is_reserved":false,"is_disabled":false,"rental_uris":{"android":"levelo://app?vid=77eeae7b-ed74-47f2-944f-eb4b80aa21b8","ios":"levelo://app?vid=77eeae7b-ed74-47f2-944f-eb4b80aa21b8"},"vehicle_type_id":"4","last_reported":1731532132,"current_range_meters":38800,"station_id":"ce4bhbh2rcd13ifvqeo0","pricing_plan_id":"cebpf4jnsgd1na2vs0mg"},{"bike_id":"b448c76e-6a85-4e4e-8af8-7d9249501502","system_id":"levelo_inurba_marseille","lat":43.337444,"lon":5.374475,"is_reserved":false,"is_disabled":false,"rental_uris":{"android":"levelo://app?vid=b448c76e-6a85-4e4e-8af8-7d9249501502","ios":"levelo://app?vid=b448c76e-6a85-4e4e-8af8-7d9249501502"},"vehicle_type_id":"4","last_reported":1731532132,"current_range_meters":36000,"station_id":"","pricing_plan_id":"cebpf4jnsgd1na2vs0mg"},{"bike_id":"4752e5e5-63f5-4641-8678-6e80d894407e","system_id":"levelo_inurba_marseille","lat":43.29051,"lon":5.3591,"is_reserved":false,"is_disabled":false,"rental_uris":{"android":"levelo://app?vid=4752e5e5-63f5-4641-8678-6e80d894407e","ios":"levelo://app?vid=4752e5e5-63f5-4641-8678-6e80d894407e"},"vehicle_type_id":"4","last_reported":1731532132,"current_range_meters":38800,"station_id":"ce4bha92rcd13ifvqeg0","pricing_plan_id":"cebpf4jnsgd1na2vs0mg"},{"bike_id":"e61ef5b6-e648-4094-af76-5194442a2ca6","system_id":"levelo_inurba_marseille","lat":43.31165,"lon":5.38721,"is_reserved":false,"is_disabled":false,"rental_uris":{"android":"levelo://app?vid=e61ef5b6-e648-4094-af76-5194442a2ca6","ios":"levelo://app?vid=e61ef5b6-e648-4094-af76-5194442a2ca6"},"vehicle_type_id":"4","last_reported":1731532132,"current_range_meters":34800,"station_id":"ce4bgv12rcd13ifvqcp0","pricing_plan_id":"cebpf4jnsgd1na2vs0mg"},{"bike_id":"e2fac76a-6818-4872-8a51-62b76cf6f02d","system_id":"levelo_inurba_marseille","lat":43.25824,"lon":5.39428,"is_reserved":false,"is_disabled":false,"rental_uris":{"android":"levelo://app?vid=e2fac76a-6818-4872-8a51-62b76cf6f02d","ios":"levelo://app?vid=e2fac76a-6818-4872-8a51-62b76cf6f02d"},"vehicle_type_id":"4","last_reported":1731532132,"current_range_meters":31200,"station_id":"ce4bhip2rcd13ifvqft0","pricing_plan_id":"cebpf4jnsgd1na2vs0mg"},{"bike_id":"d5b64711-bd4f-4516-b2d1-931b6ac9d239","system_id":"levelo_inurba_marseille","lat":43.29078,"lon":5.37169,"is_reserved":false,"is_disabled":false,"rental_uris":{"android":"levelo://app?vid=d5b64711-bd4f-4516-b2d1-931b6ac9d239","ios":"levelo://app?vid=d5b64711-bd4f-4516-b2d1-931b6ac9d239"},"vehicle_type_id":"4","last_reported":1731532132,"current_range_meters":38800,"station_id":"ce4bh5p2rcd13ifvqe4g","pricing_plan_id":"cebpf4jnsgd1na2vs0mg"},{"bike_id":"e2bfda87-cc45-4c4b-9f7e-c41385f85f84","system_id":"levelo_inurba_marseille","lat":43.25727,"lon":5.4111,"is_reserved":false,"is_disabled":false,"rental_uris":{"android":"levelo://app?vid=e2bfda87-cc45-4c4b-9f7e-c41385f85f84","ios":"levelo://app?vid=e2bfda87-cc45-4c4b-9f7e-c41385f85f84"},"vehicle_type_id":"4","last_reported":1731532132,"current_range_meters":26800,"station_id":"ce4bhkp2rcd13ifvqgd0","pricing_plan_id":"cebpf4jnsgd1na2vs0mg"},{"bike_id":"3837b05f-67c8-4d02-9aa9-54642194c0fb","system_id":"levelo_inurba_marseille","lat":43.28619,"lon":5.35102,"is_reserved":false,"is_disabled":false,"rental_uris":{"android":"levelo://app?vid=3837b05f-67c8-4d02-9aa9-54642194c0fb","ios":"levelo://app?vid=3837b05f-67c8-4d02-9aa9-54642194c0fb"},"vehicle_type_id":"4","last_reported":1731532132,"current_range_meters":22800,"station_id":"ce4bhch2rcd13ifvqeug","pricing_plan_id":"cebpf4jnsgd1na2vs0mg"},{"bike_id":"dd421a88-b0c5-4ae9-97a1-6cbd2f97bad3","system_id":"levelo_inurba_marseille","lat":43.28846,"lon":5.35844,"is_reserved":false,"is_disabled":false,"rental_uris":{"android":"levelo://app?vid=dd421a88-b0c5-4ae9-97a1-6cbd2f97bad3","ios":"levelo://app?vid=dd421a88-b0c5-4ae9-97a1-6cbd2f97bad3"},"vehicle_type_id":"4","last_reported":1731532132,"current_range_meters":25200,"station_id":"ce4bhb12rcd13ifvqem0","pricing_plan_id":"cebpf4jnsgd1na2vs0mg"},{"bike_id":"42350e70-b7b2-433e-8c1a-8b8484f9bc99","system_id":"levelo_inurba_marseille","lat":43.24548,"lon":5.39534,"is_reserved":false,"is_disabled":false,"rental_uris":{"android":"levelo://app?vid=42350e70-b7b2-433e-8c1a-8b8484f9bc99","ios":"levelo://app?vid=42350e70-b7b2-433e-8c1a-8b8484f9bc99"},"vehicle_type_id":"4","last_reported":1731532132,"current_range_meters":30800,"station_id":"ce4bhlp2rcd13ifvqgjg","pricing_plan_id":"cebpf4jnsgd1na2vs0mg"},{"bike_id":"525d356b-1fe6-45ba-ab59-d7282d7e32ad","system_id":"levelo_inurba_marseille","lat":43.2937,"lon":5.3787,"is_reserved":false,"is_disabled":false,"rental_uris":{"android":"levelo://app?vid=525d356b-1fe6-45ba-ab59-d7282d7e32ad","ios":"levelo://app?vid=525d356b-1fe6-45ba-ab59-d7282d7e32ad"},"vehicle_type_id":"4","last_reported":1731532132,"current_range_meters":14800,"station_id":"ce4bgjh2rcd13ifvqbf0","pricing_plan_id":"cebpf4jnsgd1na2vs0mg"},{"bike_id":"55cdb0d7-8f1b-4bb3-800b-fa43bc5589a1","system_id":"levelo_inurba_marseille","lat":43.2587,"lon":5.39905,"is_reserved":false,"is_disabled":false,"rental_uris":{"android":"levelo://app?vid=55cdb0d7-8f1b-4bb3-800b-fa43bc5589a1","ios":"levelo://app?vid=55cdb0d7-8f1b-4bb3-800b-fa43bc5589a1"},"vehicle_type_id":"4","last_reported":1731532132,"current_range_meters":37600,"station_id":"ce4bhl92rcd13ifvqghg","pricing_plan_id":"cebpf4jnsgd1na2vs0mg"},{"bike_id":"bd9de752-2b89-462e-8b87-6e235b9e48d7","system_id":"levelo_inurba_marseille","lat":43.29607,"lon":5.38105,"is_reserved":false,"is_disabled":false,"rental_uris":{"android":"levelo://app?vid=bd9de752-2b89-462e-8b87-6e235b9e48d7","ios":"levelo://app?vid=bd9de752-2b89-462e-8b87-6e235b9e48d7"},"vehicle_type_id":"4","last_reported":1731532132,"current_range_meters":34800,"station_id":"ce4bgl12rcd13ifvqbo0","pricing_plan_id":"cebpf4jnsgd1na2vs0mg"},{"bike_id":"4018447b-2886-4c23-942b-201819b3bc28","system_id":"levelo_inurba_marseille","lat":43.337444,"lon":5.374475,"is_reserved":false,"is_disabled":false,"rental_uris":{"android":"levelo://app?vid=4018447b-2886-4c23-942b-201819b3bc28","ios":"levelo://app?vid=4018447b-2886-4c23-942b-201819b3bc28"},"vehicle_type_id":"4","last_reported":1731532132,"current_range_meters":36000,"station_id":"","pricing_plan_id":"cebpf4jnsgd1na2vs0mg"},{"bike_id":"1d5554cd-38bd-4932-8dc4-7ba104d60466","system_id":"levelo_inurba_marseille","lat":43.32335,"lon":5.40619,"is_reserved":false,"is_disabled":false,"rental_uris":{"android":"levelo://app?vid=1d5554cd-38bd-4932-8dc4-7ba104d60466","ios":"levelo://app?vid=1d5554cd-38bd-4932-8dc4-7ba104d60466"},"vehicle_type_id":"4","last_reported":1731532132,"current_range_meters":34800,"station_id":"ce4bhq92rcd13ifvqhjg","pricing_plan_id":"cebpf4jnsgd1na2vs0mg"},{"bike_id":"8363accd-fb3e-4197-b76c-de8d47411466","system_id":"levelo_inurba_marseille","lat":43.288532,"lon":5.358499,"is_reserved":false,"is_disabled":false,"rental_uris":{"android":"levelo://app?vid=8363accd-fb3e-4197-b76c-de8d47411466","ios":"levelo://app?vid=8363accd-fb3e-4197-b76c-de8d47411466"},"vehicle_type_id":"4","last_reported":1731532132,"current_range_meters":8000,"station_id":"ce4bhb12rcd13ifvqem0","pricing_plan_id":"cebpf4jnsgd1na2vs0mg"},{"bike_id":"7a08f294-61a7-4f42-ab06-11c378777544","system_id":"levelo_inurba_marseille","lat":43.30936,"lon":5.40139,"is_reserved":false,"is_disabled":false,"rental_uris":{"android":"levelo://app?vid=7a08f294-61a7-4f42-ab06-11c378777544","ios":"levelo://app?vid=7a08f294-61a7-4f42-ab06-11c378777544"},"vehicle_type_id":"4","last_reported":1731532132,"current_range_meters":39200,"station_id":"ce4bgvp2rcd13ifvqct0","pricing_plan_id":"cebpf4jnsgd1na2vs0mg"},{"bike_id":"c0d71a98-b107-48ce-aef4-4b5946b5e3bc","system_id":"levelo_inurba_marseille","lat":43.29781,"lon":5.39354,"is_reserved":false,"is_disabled":false,"rental_uris":{"android":"levelo://app?vid=c0d71a98-b107-48ce-aef4-4b5946b5e3bc","ios":"levelo://app?vid=c0d71a98-b107-48ce-aef4-4b5946b5e3bc"},"vehicle_type_id":"4","last_reported":1731532132,"current_range_meters":4800,"station_id":"chh1huq6cuj3fo74tm60","pricing_plan_id":"cebpf4jnsgd1na2vs0mg"},{"bike_id":"8ff3daf9-97e9-480f-95f9-4d1d61792a54","system_id":"levelo_inurba_marseille","lat":43.33758,"lon":5.37471,"is_reserved":false,"is_disabled":false,"rental_uris":{"android":"levelo://app?vid=8ff3daf9-97e9-480f-95f9-4d1d61792a54","ios":"levelo://app?vid=8ff3daf9-97e9-480f-95f9-4d1d61792a54"},"vehicle_type_id":"4","last_reported":1731532132,"current_range_meters":33600,"station_id":"","pricing_plan_id":"cebpf4jnsgd1na2vs0mg"},{"bike_id":"5f866fdd-8704-46d5-9c47-da8cf38ca8fd","system_id":"levelo_inurba_marseille","lat":43.28451,"lon":5.35895,"is_reserved":false,"is_disabled":false,"rental_uris":{"android":"levelo://app?vid=5f866fdd-8704-46d5-9c47-da8cf38ca8fd","ios":"levelo://app?vid=5f866fdd-8704-46d5-9c47-da8cf38ca8fd"},"vehicle_type_id":"4","last_reported":1731532132,"current_range_meters":22800,"station_id":"ce4bhah2rcd13ifvqei0","pricing_plan_id":"cebpf4jnsgd1na2vs0mg"},{"bike_id":"6d324a4b-3e3c-4b7a-8a3d-a2bd5d37a176","system_id":"levelo_inurba_marseille","lat":43.28438,"lon":5.39193,"is_reserved":false,"is_disabled":false,"rental_uris":{"android":"levelo://app?vid=6d324a4b-3e3c-4b7a-8a3d-a2bd5d37a176","ios":"levelo://app?vid=6d324a4b-3e3c-4b7a-8a3d-a2bd5d37a176"},"vehicle_type_id":"4","last_reported":1731532132,"current_range_meters":24800,"station_id":"ce4bhoh2rcd13ifvqh5g","pricing_plan_id":"cebpf4jnsgd1na2vs0mg"},{"bike_id":"bcd9ec67-dc4d-4a9f-9880-edada7245054","system_id":"levelo_inurba_marseille","lat":43.30786,"lon":5.3764,"is_reserved":false,"is_disabled":false,"rental_uris":{"android":"levelo://app?vid=bcd9ec67-dc4d-4a9f-9880-edada7245054","ios":"levelo://app?vid=bcd9ec67-dc4d-4a9f-9880-edada7245054"},"vehicle_type_id":"4","last_reported":1731532132,"current_range_meters":33600,"station_id":"ce4bgv92rcd13ifvqcq0","pricing_plan_id":"cebpf4jnsgd1na2vs0mg"},{"bike_id":"dd7d9016-feda-4fb9-833e-5c856731139b","system_id":"levelo_inurba_marseille","lat":43.27996,"lon":5.41666,"is_reserved":false,"is_disabled":false,"rental_uris":{"android":"levelo://app?vid=dd7d9016-feda-4fb9-833e-5c856731139b","ios":"levelo://app?vid=dd7d9016-feda-4fb9-833e-5c856731139b"},"vehicle_type_id":"4","last_reported":1731532132,"current_range_meters":23200,"station_id":"ce4bho12rcd13ifvqh1g","pricing_plan_id":"cebpf4jnsgd1na2vs0mg"},{"bike_id":"76126c21-1d3a-4f1e-a92b-a3d69f6c6146","system_id":"levelo_inurba_marseille","lat":43.3169,"lon":5.40476,"is_reserved":false,"is_disabled":false,"rental_uris":{"android":"levelo://app?vid=76126c21-1d3a-4f1e-a92b-a3d69f6c6146","ios":"levelo://app?vid=76126c21-1d3a-4f1e-a92b-a3d69f6c6146"},"vehicle_type_id":"4","last_reported":1731532132,"current_range_meters":8400,"station_id":"ce4bh012rcd13ifvqd00","pricing_plan_id":"cebpf4jnsgd1na2vs0mg"},{"bike_id":"8ff16e97-ab24-466c-9258-7b196851f388","system_id":"levelo_inurba_marseille","lat":43.29031,"lon":5.3814,"is_reserved":false,"is_disabled":false,"rental_uris":{"android":"levelo://app?vid=8ff16e97-ab24-466c-9258-7b196851f388","ios":"levelo://app?vid=8ff16e97-ab24-466c-9258-7b196851f388"},"vehicle_type_id":"4","last_reported":1731532132,"current_range_meters":27600,"station_id":"ce4bh4p2rcd13ifvqe1g","pricing_plan_id":"cebpf4jnsgd1na2vs0mg"},{"bike_id":"d09a69b4-a6cd-4352-9b70-237c7ec2c287","system_id":"levelo_inurba_marseille","lat":43.29679,"lon":5.37666,"is_reserved":false,"is_disabled":false,"rental_uris":{"android":"levelo://app?vid=d09a69b4-a6cd-4352-9b70-237c7ec2c287","ios":"levelo://app?vid=d09a69b4-a6cd-4352-9b70-237c7ec2c287"},"vehicle_type_id":"4","last_reported":1731532132,"current_range_meters":24800,"station_id":"ce4bgkh2rcd13ifvqbl0","pricing_plan_id":"cebpf4jnsgd1na2vs0mg"},{"bike_id":"a2e2df79-cc69-41e6-8284-a1aa301b7a90","system_id":"levelo_inurba_marseille","lat":43.29046,"lon":5.35911,"is_reserved":false,"is_disabled":false,"rental_uris":{"android":"levelo://app?vid=a2e2df79-cc69-41e6-8284-a1aa301b7a90","ios":"levelo://app?vid=a2e2df79-cc69-41e6-8284-a1aa301b7a90"},"vehicle_type_id":"4","last_reported":1731532132,"current_range_meters":10000,"station_id":"ce4bha92rcd13ifvqeg0","pricing_plan_id":"cebpf4jnsgd1na2vs0mg"},{"bike_id":"ca502d75-f3ed-4841-9c03-2278864d924d","system_id":"levelo_inurba_marseille","lat":43.31765,"lon":5.39013,"is_reserved":false,"is_disabled":false,"rental_uris":{"android":"levelo://app?vid=ca502d75-f3ed-4841-9c03-2278864d924d","ios":"levelo://app?vid=ca502d75-f3ed-4841-9c03-2278864d924d"},"vehicle_type_id":"4","last_reported":1731532132,"current_range_meters":31200,"station_id":"ce4bhqp2rcd13ifvqhng","pricing_plan_id":"cebpf4jnsgd1na2vs0mg"},{"bike_id":"faadc699-ff5e-4404-97a3-84a3a229d88a","system_id":"levelo_inurba_marseille","lat":43.30154,"lon":5.38768,"is_reserved":false,"is_disabled":false,"rental_uris":{"android":"levelo://app?vid=faadc699-ff5e-4404-97a3-84a3a229d88a","ios":"levelo://app?vid=faadc699-ff5e-4404-97a3-84a3a229d88a"},"vehicle_type_id":"4","last_reported":1731532132,"current_range_meters":38400,"station_id":"ce4bghh2rcd13ifvqb60","pricing_plan_id":"cebpf4jnsgd1na2vs0mg"},{"bike_id":"298f7b0e-f74b-470c-bc7f-e5659e780787","system_id":"levelo_inurba_marseille","lat":43.29199,"lon":5.39317,"is_reserved":false,"is_disabled":false,"rental_uris":{"android":"levelo://app?vid=298f7b0e-f74b-470c-bc7f-e5659e780787","ios":"levelo://app?vid=298f7b0e-f74b-470c-bc7f-e5659e780787"},"vehicle_type_id":"4","last_reported":1731532132,"current_range_meters":27200,"station_id":"ce4bh192rcd13ifvqdd0","pricing_plan_id":"cebpf4jnsgd1na2vs0mg"},{"bike_id":"136ee9f8-3379-49d8-9783-eac1e6a38a27","system_id":"levelo_inurba_marseille","lat":43.29688,"lon":5.37286,"is_reserved":false,"is_disabled":false,"rental_uris":{"android":"levelo://app?vid=136ee9f8-3379-49d8-9783-eac1e6a38a27","ios":"levelo://app?vid=136ee9f8-3379-49d8-9783-eac1e6a38a27"},"vehicle_type_id":"4","last_reported":1731532132,"current_range_meters":38400,"station_id":"ce4bgk12rcd13ifvqbj0","pricing_plan_id":"cebpf4jnsgd1na2vs0mg"},{"bike_id":"6277ad66-fef2-4974-8d33-a9129f5c4127","system_id":"levelo_inurba_marseille","lat":43.33023,"lon":5.39046,"is_reserved":false,"is_disabled":false,"rental_uris":{"android":"levelo://app?vid=6277ad66-fef2-4974-8d33-a9129f5c4127","ios":"levelo://app?vid=6277ad66-fef2-4974-8d33-a9129f5c4127"},"vehicle_type_id":"4","last_reported":1731532132,"current_range_meters":36800,"station_id":"ce4bhr92rcd13ifvqhrg","pricing_plan_id":"cebpf4jnsgd1na2vs0mg"},{"bike_id":"c535e790-27e2-4ce7-961c-5661965a9f6f","system_id":"levelo_inurba_marseille","lat":43.24388,"lon":5.37061,"is_reserved":false,"is_disabled":false,"rental_uris":{"android":"levelo://app?vid=c535e790-27e2-4ce7-961c-5661965a9f6f","ios":"levelo://app?vid=c535e790-27e2-4ce7-961c-5661965a9f6f"},"vehicle_type_id":"4","last_reported":1731532132,"current_range_meters":38000,"station_id":"ce4bhhh2rcd13ifvqfk0","pricing_plan_id":"cebpf4jnsgd1na2vs0mg"},{"bike_id":"3153853c-f0be-40e0-9dde-35786788d7af","system_id":"levelo_inurba_marseille","lat":43.3059,"lon":5.39351,"is_reserved":false,"is_disabled":false,"rental_uris":{"android":"levelo://app?vid=3153853c-f0be-40e0-9dde-35786788d7af","ios":"levelo://app?vid=3153853c-f0be-40e0-9dde-35786788d7af"},"vehicle_type_id":"4","last_reported":1731532132,"current_range_meters":18000,"station_id":"ce4bh0p2rcd13ifvqd80","pricing_plan_id":"cebpf4jnsgd1na2vs0mg"},{"bike_id":"14c92d3d-ca6d-452b-ae52-256a8a50e74c","system_id":"levelo_inurba_marseille","lat":43.306,"lon":5.39361,"is_reserved":false,"is_disabled":false,"rental_uris":{"android":"levelo://app?vid=14c92d3d-ca6d-452b-ae52-256a8a50e74c","ios":"levelo://app?vid=14c92d3d-ca6d-452b-ae52-256a8a50e74c"},"vehicle_type_id":"4","last_reported":1731532132,"current_range_meters":10000,"station_id":"ce4bh0p2rcd13ifvqd80","pricing_plan_id":"cebpf4jnsgd1na2vs0mg"},{"bike_id":"ef4307a3-9764-47b3-93f4-cc62a86f6057","system_id":"levelo_inurba_marseille","lat":43.30596,"lon":5.393607,"is_reserved":false,"is_disabled":false,"rental_uris":{"android":"levelo://app?vid=ef4307a3-9764-47b3-93f4-cc62a86f6057","ios":"levelo://app?vid=ef4307a3-9764-47b3-93f4-cc62a86f6057"},"vehicle_type_id":"4","last_reported":1731532132,"current_range_meters":12400,"station_id":"ce4bh0p2rcd13ifvqd80","pricing_plan_id":"cebpf4jnsgd1na2vs0mg"},