{"last_updated":1753038457,"ttl":60,"version":"2.2","data":{"bikes":[{"bike_id":"53b742a7-31ae-4272-9bba-7740339e2a2f","system_id":"levelo_inurba_marseille","lat":43.33747,"lon":5.37463,"is_reserved":false,"is_disabled":false,"rental_uris":{"android":"levelo://app?vid=53b742a7-31ae-4272-9bba-7740339e2a2f","ios":"levelo://app?vid=53b742a7-31ae-4272-9bba-7740339e2a2f"},"vehicle_type_id":"1","last_reported":1753038458,"current_range_meters":9600,"station_id":"","pricing_plan_id":"cebpf4jnsgd1na2vs0mg"},{"bike_id":"be854ba8-3152-4420-97c2-b279c17ba1d1","system_id":"levelo_inurba_marseille","lat":43.26187,"lon":5.37477,"is_reserved":false,"is_disabled":true,"rental_uris":{"android":"levelo://app?vid=be854ba8-3152-4420-97c2-b279c17ba1d1","ios":"levelo://app?vid=be854ba8-3152-4420-97c2-b279c17ba1d1"},"vehicle_type_id":"4","last_reported":1753038458,"current_range_meters":2800,"station_id":"ce4bhgp2rcd13ifvqfc0","pricing_plan_id":"cebpf4jnsgd1na2vs0mg"},{"bike_id":"64a2f514-4942-458d-b3fc-7d7fd0dfd1b1","system_id":"levelo_inurba_marseille","lat":43.21191,"lon":5.35073,"is_reserved":false,"is_disabled":false,"rental_uris":{"android":"levelo://app?vid=64a2f514-4942-458d-b3fc-7d7fd0dfd1b1","ios":"levelo://app?vid=64a2f514-4942-458d-b3fc-7d7fd0dfd1b1"},"vehicle_type_id":"4","last_reported":1753038458,"current_range_meters":2800,"station_id":"st_cvj6sg6p6f1abm77japg","pricing_plan_id":"cebpf4jnsgd1na2vs0mg"},{"bike_id":"6b552b1c-84f8-45e3-b369-530339281f82","system_id":"levelo_inurba_marseille","lat":43.293732,"lon":5.378543,"is_reserved":false,"is_disabled":false,"rental_uris":{"android":"levelo://app?vid=6b552b1c-84f8-45e3-b369-530339281f82","ios":"levelo://app?vid=6b552b1c-84f8-45e3-b369-530339281f82"},"vehicle_type_id":"4","last_reported":1753038458,"current_range_meters":3200,"station_id":"ce4bgjh2rcd13ifvqbf0","pricing_plan_id":"cebpf4jnsgd1na2vs0mg"},{"bike_id":"eb56f441-d680-458a-8698-5e965a5ec9a4","system_id":"levelo_inurba_marseille","lat":43.311809,"lon":5.387176,"is_reserved":false,"is_disabled":false,"rental_uris":{"android":"levelo://app?vid=eb56f441-d680-458a-8698-5e965a5ec9a4","ios":"levelo://app?vid=eb56f441-d680-458a-8698-5e965a5ec9a4"},"vehicle_type_id":"4","last_reported":1753038458,"current_range_meters":3200,"station_id":"ce4bgv12rcd13ifvqcp0","pricing_plan_id":"cebpf4jnsgd1na2vs0mg"},{"bike_id":"2ba6b6fa-32fc-46f9-8a08-dfb4fa93c7ee","system_id":"levelo_inurba_marseille","lat":43.27968,"lon":5.38735,"is_reserved":false,"is_disabled":false,"rental_uris":{"android":"levelo://app?vid=2ba6b6fa-32fc-46f9-8a08-dfb4fa93c7ee","ios":"levelo://app?vid=2ba6b6fa-32fc-46f9-8a08-dfb4fa93c7ee"},"vehicle_type_id":"4","last_reported":1753038458,"current_range_meters":2800,"station_id":"ce4bhg12rcd13ifvqf80","pricing_plan_id":"cebpf4jnsgd1na2vs0mg"},{"bike_id":"794a0512-4d07-4208-bd1e-6a69cad80cf3","system_id":"levelo_inurba_marseille","lat":43.27494,"lon":5.4245,"is_reserved":false,"is_disabled":false,"rental_uris":{"android":"levelo://app?vid=794a0512-4d07-4208-bd1e-6a69cad80cf3","ios":"levelo://app?vid=794a0512-4d07-4208-bd1e-6a69cad80cf3"},"vehicle_type_id":"4","last_reported":1753038458,"current_range_meters":3200,"station_id":"ce4bhn92rcd13ifvqgrg","pricing_plan_id":"cebpf4jnsgd1na2vs0mg"},{"bike_id":"c6db0f6a-96fe-4e1d-8ded-c2ef38c9bab4","system_id":"levelo_inurba_marseille","lat":43.305688,"lon":5.418387,"is_reserved":false,"is_disabled":true,"rental_uris":{"android":"levelo://app?vid=c6db0f6a-96fe-4e1d-8ded-c2ef38c9bab4","ios":"levelo://app?vid=c6db0f6a-96fe-4e1d-8ded-c2ef38c9bab4"},"vehicle_type_id":"4","last_reported":1753038458,"current_range_meters":3600,"station_id":"ce4bht12rcd13ifvqi60","pricing_plan_id":"cebpf4jnsgd1na2vs0mg"},{"bike_id":"2e532954-91d6-45d0-820d-bd93ef877e83","system_id":"levelo_inurba_marseille","lat":43.303243,"lon":5.394574,"is_reserved":false,"is_disabled":true,"rental_uris":{"android":"levelo://app?vid=2e532954-91d6-45d0-820d-bd93ef877e83","ios":"levelo://app?vid=2e532954-91d6-45d0-820d-bd93ef877e83"},"vehicle_type_id":"4","last_reported":1753038458,"current_range_meters":3600,"station_id":"","pricing_plan_id":"cebpf4jnsgd1na2vs0mg"},{"bike_id":"ae401539-292a-4416-bae3-ea638ee7f105","system_id":"levelo_inurba_marseille","lat":43.318451,"lon":5.407202,"is_reserved":false,"is_disabled":false,"rental_uris":{"android":"levelo://app?vid=ae401539-292a-4416-bae3-ea638ee7f105","ios":"levelo://app?vid=ae401539-292a-4416-bae3-ea638ee7f105"},"vehicle_type_id":"4","last_reported":1753038458,"current_range_meters":4000,"station_id":"ce4bhq12rcd13ifvqhhg","pricing_plan_id":"cebpf4jnsgd1na2vs0mg"},{"bike_id":"78cf64b6-550a-44f0-8152-cbd9443a024f","system_id":"levelo_inurba_marseille","lat":43.30043,"lon":5.36606,"is_reserved":false,"is_disabled":false,"rental_uris":{"android":"levelo://app?vid=78cf64b6-550a-44f0-8152-cbd9443a024f","ios":"levelo://app?vid=78cf64b6-550a-44f0-8152-cbd9443a024f"},"vehicle_type_id":"4","last_reported":1753038458,"current_range_meters":4000,"station_id":"","pricing_plan_id":"cebpf4jnsgd1na2vs0mg"},{"bike_id":"57bb565d-2136-465a-803d-648474c4a3a7","system_id":"levelo_inurba_marseille","lat":43.33109,"lon":5.35504,"is_reserved":false,"is_disabled":false,"rental_uris":{"android":"levelo://app?vid=57bb565d-2136-465a-803d-648474c4a3a7","ios":"levelo://app?vid=57bb565d-2136-465a-803d-648474c4a3a7"},"vehicle_type_id":"4","last_reported":1753038458,"current_range_meters":4000,"station_id":"","pricing_plan_id":"cebpf4jnsgd1na2vs0mg"},{"bike_id":"bc71386f-1818-4471-9687-ebbd8fde0dd7","system_id":"levelo_inurba_marseille","lat":43.26958,"lon":5.36658,"is_reserved":false,"is_disabled":false,"rental_uris":{"android":"levelo://app?vid=bc71386f-1818-4471-9687-ebbd8fde0dd7","ios":"levelo://app?vid=bc71386f-1818-4471-9687-ebbd8fde0dd7"},"vehicle_type_id":"4","last_reported":1753038458,"current_range_meters":4000,"station_id":"","pricing_plan_id":"cebpf4jnsgd1na2vs0mg"},{"bike_id":"87322ed1-dafc-44f9-868a-35b11dcb7223","system_id":"levelo_inurba_marseille","lat":43.28487,"lon":5.38421,"is_reserved":false,"is_disabled":false,"rental_uris":{"android":"levelo://app?vid=87322ed1-dafc-44f9-868a-35b11dcb7223","ios":"levelo://app?vid=87322ed1-dafc-44f9-868a-35b11dcb7223"},"vehicle_type_id":"4","last_reported":1753038458,"current_range_meters":4800,"station_id":"ce4bh512rcd13ifvqe3g","pricing_plan_id":"cebpf4jnsgd1na2vs0mg"},{"bike_id":"9606aed5-9318-4bc7-8af9-4251a6078307","system_id":"levelo_inurba_marseille","lat":43.26675,"lon":5.38266,"is_reserved":false,"is_disabled":false,"rental_uris":{"android":"levelo://app?vid=9606aed5-9318-4bc7-8af9-4251a6078307","ios":"levelo://app?vid=9606aed5-9318-4bc7-8af9-4251a6078307"},"vehicle_type_id":"4","last_reported":1753038458,"current_range_meters":4000,"station_id":"ce4bhg92rcd13ifvqf90","pricing_plan_id":"cebpf4jnsgd1na2vs0mg"},{"bike_id":"7d9c59d5-e7be-453e-89ae-a74d93c9249a","system_id":"levelo_inurba_marseille","lat":43.29362,"lon":5.37853,"is_reserved":false,"is_disabled":false,"rental_uris":{"android":"levelo://app?vid=7d9c59d5-e7be-453e-89ae-a74d93c9249a","ios":"levelo://app?vid=7d9c59d5-e7be-453e-89ae-a74d93c9249a"},"vehicle_type_id":"4","last_reported":1753038458,"current_range_meters":4400,"station_id":"ce4bgjh2rcd13ifvqbf0","pricing_plan_id":"cebpf4jnsgd1na2vs0mg"},{"bike_id":"14e2cd3f-56ea-4ef3-bc5e-342add1724e6","system_id":"levelo_inurba_marseille","lat":43.28849,"lon":5.3933,"is_reserved":false,"is_disabled":false,"rental_uris":{"android":"levelo://app?vid=14e2cd3f-56ea-4ef3-bc5e-342add1724e6","ios":"levelo://app?vid=14e2cd3f-56ea-4ef3-bc5e-342add1724e6"},"vehicle_type_id":"4","last_reported":1753038458,"current_range_meters":4400,"station_id":"ce4bh2p2rcd13ifvqdi0","pricing_plan_id":"cebpf4jnsgd1na2vs0mg"},{"bike_id":"2ce33ba9-b6ff-47e7-891b-e9344ecda03d","system_id":"levelo_inurba_marseille","lat":43.29026,"lon":5.39967,"is_reserved":false,"is_disabled":false,"rental_uris":{"android":"levelo://app?vid=2ce33ba9-b6ff-47e7-891b-e9344ecda03d","ios":"levelo://app?vid=2ce33ba9-b6ff-47e7-891b-e9344ecda03d"},"vehicle_type_id":"4","last_reported":1753038458,"current_range_meters":4800,"station_id":"ce4bh392rcd13ifvqdm0","pricing_plan_id":"cebpf4jnsgd1na2vs0mg"},{"bike_id":"a46c15ae-4fc4-4cd4-95fc-2c8639ac60a9","system_id":"levelo_inurba_marseille","lat":43.286106,"lon":5.370677,"is_reserved":false,"is_disabled":false,"rental_uris":{"android":"levelo://app?vid=a46c15ae-4fc4-4cd4-95fc-2c8639ac60a9","ios":"levelo://app?vid=a46c15ae-4fc4-4cd4-95fc-2c8639ac60a9"},"vehicle_type_id":"4","last_reported":1753038458,"current_range_meters":4800,"station_id":"ce4bht12rcd13ifvqi60","pricing_plan_id":"cebpf4jnsgd1na2vs0mg"},{"bike_id":"98c30460-2ac7-40af-980f-2b690ab62611","system_id":"levelo_inurba_marseille","lat":43.27835,"lon":5.3921,"is_reserved":false,"is_disabled":false,"rental_uris":{"android":"levelo://app?vid=98c30460-2ac7-40af-980f-2b690ab62611","ios":"levelo://app?vid=98c30460-2ac7-40af-980f-2b690ab62611"},"vehicle_type_id":"4","last_reported":1753038458,"current_range_meters":4800,"station_id":"ce4bhjp2rcd13ifvqga0","pricing_plan_id":"cebpf4jnsgd1na2vs0mg"},{"bike_id":"73c05124-091c-432f-87d4-0e0dae2ef6b4","system_id":"levelo_inurba_marseille","lat":43.32365,"lon":5.38885,"is_reserved":false,"is_disabled":false,"rental_uris":{"android":"levelo://app?vid=73c05124-091c-432f-87d4-0e0dae2ef6b4","ios":"levelo://app?vid=73c05124-091c-432f-87d4-0e0dae2ef6b4"},"vehicle_type_id":"4","last_reported":1753038458,"current_range_meters":4800,"station_id":"ce4bhqp2rcd13ifvqhog","pricing_plan_id":"cebpf4jnsgd1na2vs0mg"},{"bike_id":"8d5f13da-d5c2-4387-bab5-9a759b98851d","system_id":"levelo_inurba_marseille","lat":43.255792,"lon":5.382301,"is_reserved":false,"is_disabled":true,"rental_uris":{"android":"levelo://app?vid=8d5f13da-d5c2-4387-bab5-9a759b98851d","ios":"levelo://app?vid=8d5f13da-d5c2-4387-bab5-9a759b98851d"},"vehicle_type_id":"4","last_reported":1753038458,"current_range_meters":5600,"station_id":"ce4bhih2rcd13ifvqfs0","pricing_plan_id":"cebpf4jnsgd1na2vs0mg"},{"bike_id":"cbf7688c-5904-42fe-9716-66198165ad92","system_id":"levelo_inurba_marseille","lat":43.29369,"lon":5.37858,"is_reserved":false,"is_disabled":false,"rental_uris":{"android":"levelo://app?vid=cbf7688c-5904-42fe-9716-66198165ad92","ios":"levelo://app?vid=cbf7688c-5904-42fe-9716-66198165ad92"},"vehicle_type_id":"4","last_reported":1753038458,"current_range_meters":5600,"station_id":"ce4bgjh2rcd13ifvqbf0","pricing_plan_id":"cebpf4jnsgd1na2vs0mg"},{"bike_id":"4d463f01-064a-41e3-b927-5c9b905d401f","system_id":"levelo_inurba_marseille","lat":43.24811,"lon":5.37459,"is_reserved":false,"is_disabled":false,"rental_uris":{"android":"levelo://app?vid=4d463f01-064a-41e3-b927-5c9b905d401f","ios":"levelo://app?vid=4d463f01-064a-41e3-b927-5c9b905d401f"},"vehicle_type_id":"4","last_reported":1753038458,"current_range_meters":5600,"station_id":"ce4bhgh2rcd13ifvqfb0","pricing_plan_id":"cebpf4jnsgd1na2vs0mg"},{"bike_id":"88581b98-f618-4eaf-aff2-76c4d3bfd601","system_id":"levelo_inurba_marseille","lat":43.30535,"lon":5.38429,"is_reserved":false,"is_disabled":false,"rental_uris":{"android":"levelo://app?vid=88581b98-f618-4eaf-aff2-76c4d3bfd601","ios":"levelo://app?vid=88581b98-f618-4eaf-aff2-76c4d3bfd601"},"vehicle_type_id":"4","last_reported":1753038458,"current_range_meters":5600,"station_id":"ce4bgg92rcd13ifvqb30","pricing_plan_id":"cebpf4jnsgd1na2vs0mg"},{"bike_id":"2088693f-914e-4273-b07b-de2abe9fb9e6","system_id":"levelo_inurba_marseille","lat":43.28694,"lon":5.37393,"is_reserved":false,"is_disabled":false,"rental_uris":{"android":"levelo://app?vid=2088693f-914e-4273-b07b-de2abe9fb9e6","ios":"levelo://app?vid=2088693f-914e-4273-b07b-de2abe9fb9e6"},"vehicle_type_id":"4","last_reported":1753038458,"current_range_meters":5600,"station_id":"ce4bh3p2rcd13ifvqdq0","pricing_plan_id":"cebpf4jnsgd1na2vs0mg"},{"bike_id":"dd64a47a-b3e9-4d4d-878c-d397186c1b8b","system_id":"levelo_inurba_marseille","lat":43.295179,"lon":5.39398,"is_reserved":false,"is_disabled":false,"rental_uris":{"android":"levelo://app?vid=dd64a47a-b3e9-4d4d-878c-d397186c1b8b","ios":"levelo://app?vid=dd64a47a-b3e9-4d4d-878c-d397186c1b8b"},"vehicle_type_id":"4","last_reported":1753038458,"current_range_meters":6000,"station_id":"ce4bh292rcd13ifvqdf0","pricing_plan_id":"cebpf4jnsgd1na2vs0mg"},{"bike_id":"2d5426b7-c5ef-4761-9a4a-28e19dac621a","system_id":"levelo_inurba_marseille","lat":43.304258,"lon":5.412817,"is_reserved":false,"is_disabled":true,"rental_uris":{"android":"levelo://app?vid=2d5426b7-c5ef-4761-9a4a-28e19dac621a","ios":"levelo://app?vid=2d5426b7-c5ef-4761-9a4a-28e19dac621a"},"vehicle_type_id":"4","last_reported":1753038458,"current_range_meters":6000,"station_id":"ce4bhop2rcd13ifvqh8g","pricing_plan_id":"cebpf4jnsgd1na2vs0mg"},{"bike_id":"a47b1f63-bcc5-41ef-b4ac-8a5b18854d4a","system_id":"levelo_inurba_marseille","lat":43.29969,"lon":5.37183,"is_reserved":false,"is_disabled":false,"rental_uris":{"android":"levelo://app?vid=a47b1f63-bcc5-41ef-b4ac-8a5b18854d4a","ios":"levelo://app?vid=a47b1f63-bcc5-41ef-b4ac-8a5b18854d4a"},"vehicle_type_id":"4","last_reported":1753038458,"current_range_meters":8800,"station_id":"ce4bgr92rcd13ifvqc7g","pricing_plan_id":"cebpf4jnsgd1na2vs0mg"},{"bike_id":"940ce351-8b2a-41eb-9a5e-24bbfb8592ba","system_id":"levelo_inurba_marseille","lat":43.30883,"lon":5.37195,"is_reserved":false,"is_disabled":false,"rental_uris":{"android":"levelo://app?vid=940ce351-8b2a-41eb-9a5e-24bbfb8592ba","ios":"levelo://app?vid=940ce351-8b2a-41eb-9a5e-24bbfb8592ba"},"vehicle_type_id":"4","last_reported":1753038458,"current_range_meters":5600,"station_id":"ce4bguh2rcd13ifvqckg","pricing_plan_id":"cebpf4jnsgd1na2vs0mg"},{"bike_id":"6f18ab1b-0c74-47b1-bed8-837677176207","system_id":"levelo_inurba_marseille","lat":43.320451,"lon":5.409409,"is_reserved":false,"is_disabled":true,"rental_uris":{"android":"levelo://app?vid=6f18ab1b-0c74-47b1-bed8-837677176207","ios":"levelo://app?vid=6f18ab1b-0c74-47b1-bed8-837677176207"},"vehicle_type_id":"4","last_reported":1753038458,"current_range_meters":6000,"station_id":"","pricing_plan_id":"cebpf4jnsgd1na2vs0mg"},{"bike_id":"475b9799-8c28-49d7-a2bd-b989a871d401","system_id":"levelo_inurba_marseille","lat":43.240742,"lon":5.377536,"is_reserved":false,"is_disabled":true,"rental_uris":{"android":"levelo://app?vid=475b9799-8c28-49d7-a2bd-b989a871d401","ios":"levelo://app?vid=475b9799-8c28-49d7-a2bd-b989a871d401"},"vehicle_type_id":"4","last_reported":1753038458,"current_range_meters":6400,"station_id":"ce4bhnp2rcd13ifvqgvg","pricing_plan_id":"cebpf4jnsgd1na2vs0mg"},{"bike_id":"114dfb56-8bf2-474e-8319-2b316b050620","system_id":"levelo_inurba_marseille","lat":43.32105,"lon":5.36764,"is_reserved":false,"is_disabled":false,"rental_uris":{"android":"levelo://app?vid=114dfb56-8bf2-474e-8319-2b316b050620","ios":"levelo://app?vid=114dfb56-8bf2-474e-8319-2b316b050620"},"vehicle_type_id":"4","last_reported":1753038458,"current_range_meters":6400,"station_id":"ce4bhrh2rcd13ifvqhug","pricing_plan_id":"cebpf4jnsgd1na2vs0mg"},{"bike_id":"cdf9d9c2-777c-4ff8-a45e-b2a5a0f7f207","system_id":"levelo_inurba_marseille","lat":43.25499,"lon":5.37652,"is_reserved":false,"is_disabled":false,"rental_uris":{"android":"levelo://app?vid=cdf9d9c2-777c-4ff8-a45e-b2a5a0f7f207","ios":"levelo://app?vid=cdf9d9c2-777c-4ff8-a45e-b2a5a0f7f207"},"vehicle_type_id":"4","last_reported":1753038458,"current_range_meters":6400,"station_id":"ce4bhh12rcd13ifvqff0","pricing_plan_id":"cebpf4jnsgd1na2vs0mg"},{"bike_id":"06fcaf41-a3b3-4096-a515-28545e82af83","system_id":"levelo_inurba_marseille","lat":43.22707,"lon":5.34796,"is_reserved":false,"is_disabled":false,"rental_uris":{"android":"levelo://app?vid=06fcaf41-a3b3-4096-a515-28545e82af83","ios":"levelo://app?vid=06fcaf41-a3b3-4096-a515-28545e82af83"},"vehicle_type_id":"4","last_reported":1753038458,"current_range_meters":6800,"station_id":"","pricing_plan_id":"cebpf4jnsgd1na2vs0mg"},{"bike_id":"1e7ee3c7-7313-4cf1-becc-c25fa75d4399","system_id":"levelo_inurba_marseille","lat":43.284546,"lon":5.358719,"is_reserved":false,"is_disabled":false,"rental_uris":{"android":"levelo://app?vid=1e7ee3c7-7313-4cf1-becc-c25fa75d4399","ios":"levelo://app?vid=1e7ee3c7-7313-4cf1-becc-c25fa75d4399"},"vehicle_type_id":"4","last_reported":1753038458,"current_range_meters":6800,"station_id":"ce4bh2p2rcd13ifvqdi0","pricing_plan_id":"cebpf4jnsgd1na2vs0mg"},{"bike_id":"11a43a3e-2d75-4df3-ba59-43e1875d5f3e","system_id":"levelo_inurba_marseille","lat":43.24178,"lon":5.36379,"is_reserved":false,"is_disabled":true,"rental_uris":{"android":"levelo://app?vid=11a43a3e-2d75-4df3-ba59-43e1875d5f3e","ios":"levelo://app?vid=11a43a3e-2d75-4df3-ba59-43e1875d5f3e"},"vehicle_type_id":"4","last_reported":1753038458,"current_range_meters":7200,"station_id":"cpo36qri1sfpv3e86is0","pricing_plan_id":"cebpf4jnsgd1na2vs0mg"},{"bike_id":"a6ceebc2-e748-439f-864a-524a831fbf1e","system_id":"levelo_inurba_marseille","lat":43.29672,"lon":5.3687,"is_reserved":false,"is_disabled":false,"rental_uris":{"android":"levelo://app?vid=a6ceebc2-e748-439f-864a-524a831fbf1e","ios":"levelo://app?vid=a6ceebc2-e748-439f-864a-524a831fbf1e"},"vehicle_type_id":"4","last_reported":1753038458,"current_range_meters":7200,"station_id":"","pricing_plan_id":"cebpf4jnsgd1na2vs0mg"},{"bike_id":"69330df8-278b-4233-a183-c9c5c17b0812","system_id":"levelo_inurba_marseille","lat":43.29934,"lon":5.36518,"is_reserved":false,"is_disabled":false,"rental_uris":{"android":"levelo://app?vid=69330df8-278b-4233-a183-c9c5c17b0812","ios":"levelo://app?vid=69330df8-278b-4233-a183-c9c5c17b0812"},"vehicle_type_id":"4","last_reported":1753038458,"current_range_meters":8000,"station_id":"ce4bgm92rcd13ifvqbr0","pricing_plan_id":"cebpf4jnsgd1na2vs0mg"},{"bike_id":"b3e8d1dd-81a4-4761-8509-afb99f2e09c2","system_id":"levelo_inurba_marseille","lat":43.30317,"lon":5.40439,"is_reserved":false,"is_disabled":false,"rental_uris":{"android":"levelo://app?vid=b3e8d1dd-81a4-4761-8509-afb99f2e09c2","ios":"levelo://app?vid=b3e8d1dd-81a4-4761-8509-afb99f2e09c2"},"vehicle_type_id":"4","last_reported":1753038458,"current_range_meters":8000,"station_id":"ce4bh012rcd13ifvqd10","pricing_plan_id":"cebpf4jnsgd1na2vs0mg"},{"bike_id":"1380fdeb-69c0-4a02-8ae1-b2f126b72c45","system_id":"levelo_inurba_marseille","lat":43.30416,"lon":5.39738,"is_reserved":false,"is_disabled":false,"rental_uris":{"android":"levelo://app?vid=1380fdeb-69c0-4a02-8ae1-b2f126b72c45","ios":"levelo://app?vid=1380fdeb-69c0-4a02-8ae1-b2f126b72c45"},"vehicle_type_id":"4","last_reported":1753038458,"current_range_meters":8000,"station_id":"ce4bh092rcd13ifvqd20","pricing_plan_id":"cebpf4jnsgd1na2vs0mg"},{"bike_id":"192c0fa5-c826-4847-bdd0-11edb7180ff9","system_id":"levelo_inurba_marseille","lat":43.30657,"lon":5.40084,"is_reserved":false,"is_disabled":true,"rental_uris":{"android":"levelo://app?vid=192c0fa5-c826-4847-bdd0-11edb7180ff9","ios":"levelo://app?vid=192c0fa5-c826-4847-bdd0-11edb7180ff9"},"vehicle_type_id":"4","last_reported":1753038458,"current_range_meters":8000,"station_id":"ce4bh112rcd13ifvqda0","pricing_plan_id":"cebpf4jnsgd1na2vs0mg"},{"bike_id":"1a83c576-fc93-4027-8ab8-2ef65c7e59de","system_id":"levelo_inurba_marseille","lat":43.2655,"lon":5.37257,"is_reserved":false,"is_disabled":false,"rental_uris":{"android":"levelo://app?vid=1a83c576-fc93-4027-8ab8-2ef65c7e59de","ios":"levelo://app?vid=1a83c576-fc93-4027-8ab8-2ef65c7e59de"},"vehicle_type_id":"4","last_reported":1753038458,"current_range_meters":8000,"station_id":"ce4bhg12rcd13ifvqf70","pricing_plan_id":"cebpf4jnsgd1na2vs0mg"},{"bike_id":"86c2bc69-849f-4c07-aba9-53da9daa1e23","system_id":"levelo_inurba_marseille","lat":43.30303,"lon":5.3921,"is_reserved":false,"is_disabled":false,"rental_uris":{"android":"levelo://app?vid=86c2bc69-849f-4c07-aba9-53da9daa1e23","ios":"levelo://app?vid=86c2bc69-849f-4c07-aba9-53da9daa1e23"},"vehicle_type_id":"4","last_reported":1753038458,"current_range_meters":6400,"station_id":"ce4bgkh2rcd13ifvqbk0","pricing_plan_id":"cebpf4jnsgd1na2vs0mg"},{"bike_id":"94c07cb2-0943-4d24-99f2-97bdab47aa3f","system_id":"levelo_inurba_marseille","lat":43.337444,"lon":5.374475,"is_reserved":false,"is_disabled":false,"rental_uris":{"android":"levelo://app?vid=94c07cb2-0943-4d24-99f2-97bdab47aa3f","ios":"levelo://app?vid=94c07cb2-0943-4d24-99f2-97bdab47aa3f"},"vehicle_type_id":"4","last_reported":1753038458,"current_range_meters":8000,"station_id":"","pricing_plan_id":"cebpf4jnsgd1na2vs0mg"},{"bike_id":"e34cd4ff-d439-4ec3-a672-9975c6b894e4","system_id":"levelo_inurba_marseille","lat":43.29593,"lon":5.3772,"is_reserved":false,"is_disabled":false,"rental_uris":{"android":"levelo://app?vid=e34cd4ff-d439-4ec3-a672-9975c6b894e4","ios":"levelo://app?vid=e34cd4ff-d439-4ec3-a672-9975c6b894e4"},"vehicle_type_id":"4","last_reported":1753038458,"current_range_meters":8400,"station_id":"ce4bgi92rcd13ifvqb90","pricing_plan_id":"cebpf4jnsgd1na2vs0mg"},{"bike_id":"dbe3f53f-5cf1-428e-b135-1e976ecdd9e1","system_id":"levelo_inurba_marseille","lat":43.229295,"lon":5.353761,"is_reserved":false,"is_disabled":true,"rental_uris":{"android":"levelo://app?vid=dbe3f53f-5cf1-428e-b135-1e976ecdd9e1","ios":"levelo://app?vid=dbe3f53f-5cf1-428e-b135-1e976ecdd9e1"},"vehicle_type_id":"4","last_reported":1753038458,"current_range_meters":8400,"station_id":"","pricing_plan_id":"cebpf4jnsgd1na2vs0mg"},{"bike_id":"606613f1-c535-41c5-800f-f97ed12c3b7c","system_id":"levelo_inurba_marseille","lat":43.28152,"lon":5.42643,"is_reserved":false,"is_disabled":false,"rental_uris":{"android":"levelo://app?vid=606613f1-c535-41c5-800f-f97ed12c3b7c","ios":"levelo://app?vid=606613f1-c535-41c5-800f-f97ed12c3b7c"},"vehicle_type_id":"4","last_reported":1753038458,"current_range_meters":8800,"station_id":"ce4bhnh2rcd13ifvqgug","pricing_plan_id":"cebpf4jnsgd1na2vs0mg"},{"bike_id":"712b2c19-dff5-49aa-b43e-5783a98f2ef5","system_id":"levelo_inurba_marseille","lat":43.28977,"lon":5.37836,"is_reserved":false,"is_disabled":false,"rental_uris":{"android":"levelo://app?vid=712b2c19-dff5-49aa-b43e-5783a98f2ef5","ios":"levelo://app?vid=712b2c19-dff5-49aa-b43e-5783a98f2ef5"},"vehicle_type_id":"4","last_reported":1753038458,"current_range_meters":8800,"station_id":"ce4bh9p2rcd13ifvqed0","pricing_plan_id":"cebpf4jnsgd1na2vs0mg"},{"bike_id":"0fd02cf6-67fb-4589-807f-241dd50b7e1a","system_id":"levelo_inurba_marseille","lat":43.29907,"lon":5.43681,"is_reserved":false,"is_disabled":true,"rental_uris":{"android":"levelo://app?vid=0fd02cf6-67fb-4589-807f-241dd50b7e1a","ios":"levelo://app?vid=0fd02cf6-67fb-4589-807f-241dd50b7e1a"},"vehicle_type_id":"4","last_reported":1753038458,"current_range_meters":9200,"station_id":"ce4bhpp2rcd13ifvqhfg","pricing_plan_id":"cebpf4jnsgd1na2vs0mg"},{"bike_id":"08bb38f6-f7af-4a4a-9ad9-5eedf7d613b9","system_id":"levelo_inurba_marseille","lat":43.27378,"lon":5.36268,"is_reserved":false,"is_disabled":false,"rental_uris":{"android":"levelo://app?vid=08bb38f6-f7af-4a4a-9ad9-5eedf7d613b9","ios":"levelo://app?vid=08bb38f6-f7af-4a4a-9ad9-5eedf7d613b9"},"vehicle_type_id":"4","last_reported":1753038458,"current_range_meters":9200,"station_id":"ce4bhbh2rcd13ifvqeo0","pricing_plan_id":"cebpf4jnsgd1na2vs0mg"},{"bike_id":"7fd0f704-9bf7-4ba2-9dbb-e032101022de","system_id":"levelo_inurba_marseille","lat":43.294359,"lon":5.386011,"is_reserved":false,"is_disabled":false,"rental_uris":{"android":"levelo://app?vid=7fd0f704-9bf7-4ba2-9dbb-e032101022de","ios":"levelo://app?vid=7fd0f704-9bf7-4ba2-9dbb-e032101022de"},"vehicle_type_id":"4","last_reported":1753038458,"current_range_meters":9200,"station_id":"ce4bh2h2rcd13ifvqdh0","pricing_plan_id":"cebpf4jnsgd1na2vs0mg"},{"bike_id":"672c778c-4619-4193-ab96-ac78550b5e8b","system_id":"levelo_inurba_marseille","lat":43.255501,"lon":5.38219,"is_reserved":false,"is_disabled":false,"rental_uris":{"android":"levelo://app?vid=672c778c-4619-4193-ab96-ac78550b5e8b","ios":"levelo://app?vid=672c778c-4619-4193-ab96-ac78550b5e8b"},"vehicle_type_id":"4","last_reported":1753038458,"current_range_meters":9200,"station_id":"ce4bhih2rcd13ifvqfs0","pricing_plan_id":"cebpf4jnsgd1na2vs0mg"},{"bike_id":"9294cfb8-91ef-48e7-ac1c-e24628dfb55e","system_id":"levelo_inurba_marseille","lat":43.29578,"lon":5.37512,"is_reserved":false,"is_disabled":false,"rental_uris":{"android":"levelo://app?vid=9294cfb8-91ef-48e7-ac1c-e24628dfb55e","ios":"levelo://app?vid=9294cfb8-91ef-48e7-ac1c-e24628dfb55e"},"vehicle_type_id":"4","last_reported":1753038458,"current_range_meters":9200,"station_id":"ce4bgh92rcd13ifvqb50","pricing_plan_id":"cebpf4jnsgd1na2vs0mg"},{"bike_id":"25ba3407-5a3a-4241-bff3-f1bbd1fc5162","system_id":"levelo_inurba_marseille","lat":43.29252,"lon":5.40907,"is_reserved":false,"is_disabled":false,"rental_uris":{"android":"levelo://app?vid=25ba3407-5a3a-4241-bff3-f1bbd1fc5162","ios":"levelo://app?vid=25ba3407-5a3a-4241-bff3-f1bbd1fc5162"},"vehicle_type_id":"4","last_reported":1753038458,"current_range_meters":9600,"station_id":"ce4bh192rcd13ifvqdc0","pricing_plan_id":"cebpf4jnsgd1na2vs0mg"},{"bike_id":"cf9f7b6f-b252-45aa-bd41-e7b8a5947e88","system_id":"levelo_inurba_marseille","lat":43.26937,"lon":5.40284,"is_reserved":false,"is_disabled":true,"rental_uris":{"android":"levelo://app?vid=cf9f7b6f-b252-45aa-bd41-e7b8a5947e88","ios":"levelo://app?vid=cf9f7b6f-b252-45aa-bd41-e7b8a5947e88"},"vehicle_type_id":"4","last_reported":1753038458,"current_range_meters":9600,"station_id":"cjm6bp8fraef2m0cb0m0","pricing_plan_id":"cebpf4jnsgd1na2vs0mg"},{"bike_id":"2f7b9cdf-b6c7-4492-81a2-2bd894f35745","system_id":"levelo_inurba_marseille","lat":43.23054,"lon":5.35481,"is_reserved":false,"is_disabled":true,"rental_uris":{"android":"levelo://app?vid=2f7b9cdf-b6c7-4492-81a2-2bd894f35745","ios":"levelo://app?vid=2f7b9cdf-b6c7-4492-81a2-2bd894f35745"},"vehicle_type_id":"4","last_reported":1753038458,"current_range_meters":9600,"station_id":"cpo3342slgdg3j2ifvpg","pricing_plan_id":"cebpf4jnsgd1na2vs0mg"},{"bike_id":"ac141403-2eff-454e-8bd1-3d400d40ed2b","system_id":"levelo_inurba_marseille","lat":43.33104,"lon":5.39996,"is_reserved":false,"is_disabled":false,"rental_uris":{"android":"levelo://app?vid=ac141403-2eff-454e-8bd1-3d400d40ed2b","ios":"levelo://app?vid=ac141403-2eff-454e-8bd1-3d400d40ed2b"},"vehicle_type_id":"4","last_reported":1753038458,"current_range_meters":9600,"station_id":"","pricing_plan_id":"cebpf4jnsgd1na2vs0mg"},{"bike_id":"cbd7089c-9d2d-42db-a268-faaaa69d7343","system_id":"levelo_inurba_marseille","lat":43.26217,"lon":5.37446,"is_reserved":false,"is_disabled":true,"rental_uris":{"android":"levelo://app?vid=cbd7089c-9d2d-42db-a268-faaaa69d7343","ios":"levelo://app?vid=cbd7089c-9d2d-42db-a268-faaaa69d7343"},"vehicle_type_id":"4","last_reported":1753038458,"current_range_meters":9600,"station_id":"ce4bhgp2rcd13ifvqfc0","pricing_plan_id":"cebpf4jnsgd1na2vs0mg"},{"bike_id":"53202536-8656-4e1e-a284-69931d31e00b","system_id":"levelo_inurba_marseille","lat":43.22927,"lon":5.35376,"is_reserved":false,"is_disabled":false,"rental_uris":{"android":"levelo://app?vid=53202536-8656-4e1e-a284-69931d31e00b","ios":"levelo://app?vid=53202536-8656-4e1e-a284-69931d31e00b"},"vehicle_type_id":"4","last_reported":1753038458,"current_range_meters":9600,"station_id":"cpo3532slgdg3j2ikp40","pricing_plan_id":"cebpf4jnsgd1na2vs0mg"},{"bike_id":"d7e728ac-e7db-4856-bd50-0f75e83c57e5","system_id":"levelo_inurba_marseille","lat":43.27905,"lon":5.3959,"is_reserved":false,"is_disabled":false,"rental_uris":{"android":"levelo://app?vid=d7e728ac-e7db-4856-bd50-0f75e83c57e5","ios":"levelo://app?vid=d7e728ac-e7db-4856-bd50-0f75e83c57e5"},"vehicle_type_id":"4","last_reported":1753038458,"current_range_meters":9600,"station_id":"ce4bhf92rcd13ifvqf40","pricing_plan_id":"cebpf4jnsgd1na2vs0mg"},{"bike_id":"c05c2d43-3640-46c8-8c24-553607c82bfb","system_id":"levelo_inurba_marseille","lat":43.29624,"lon":5.37152,"is_reserved":false,"is_disabled":false,"rental_uris":{"android":"levelo://app?vid=c05c2d43-3640-46c8-8c24-553607c82bfb","ios":"levelo://app?vid=c05c2d43-3640-46c8-8c24-553607c82bfb"},"vehicle_type_id":"4","last_reported":1753038458,"current_range_meters":10000,"station_id":"","pricing_plan_id":"cebpf4jnsgd1na2vs0mg"},{"bike_id":"ae6ef1f0-2b2e-431e-af77-b08c94a38bfc","system_id":"levelo_inurba_marseille","lat":43.29605,"lon":5.38621,"is_reserved":false,"is_disabled":false,"rental_uris":{"android":"levelo://app?vid=ae6ef1f0-2b2e-431e-af77-b08c94a38bfc","ios":"levelo://app?vid=ae6ef1f0-2b2e-431e-af77-b08c94a38bfc"},"vehicle_type_id":"4","last_reported":1753038458,"current_range_meters":10000,"station_id":"","pricing_plan_id":"cebpf4jnsgd1na2vs0mg"},{"bike_id":"5dbe0c9f-cf3a-4281-8b2c-a6d732b03b09","system_id":"levelo_inurba_marseille","lat":43.28606,"lon":5.37067,"is_reserved":false,"is_disabled":false,"rental_uris":{"android":"levelo://app?vid=5dbe0c9f-cf3a-4281-8b2c-a6d732b03b09","ios":"levelo://app?vid=5dbe0c9f-cf3a-4281-8b2c-a6d732b03b09"},"vehicle_type_id":"4","last_reported":1753038458,"current_range_meters":10000,"station_id":"ce4bht12rcd13ifvqi60","pricing_plan_id":"cebpf4jnsgd1na2vs0mg"},{"bike_id":"3581e735-186c-4f7c-a905-f7969175be88","system_id":"levelo_inurba_marseille","lat":43.32292,"lon":5.38278,"is_reserved":false,"is_disabled":false,"rental_uris":{"android":"levelo://app?vid=3581e735-186c-4f7c-a905-f7969175be88","ios":"levelo://app?vid=3581e735-186c-4f7c-a905-f7969175be88"},"vehicle_type_id":"4","last_reported":1753038458,"current_range_meters":10000,"station_id":"ce4bhr12rcd13ifvqhqg","pricing_plan_id":"cebpf4jnsgd1na2vs0mg"},{"bike_id":"9e379ffe-078a-4e89-996d-18a5e63bc2df","system_id":"levelo_inurba_marseille","lat":43.29631,"lon":5.37142,"is_reserved":false,"is_disabled":false,"rental_uris":{"android":"levelo://app?vid=9e379ffe-078a-4e89-996d-18a5e63bc2df","ios":"levelo://app?vid=9e379ffe-078a-4e89-996d-18a5e63bc2df"},"vehicle_type_id":"4","last_reported":1753038458,"current_range_meters":10000,"station_id":"ce4bgk12rcd13ifvqbj0","pricing_plan_id":"cebpf4jnsgd1na2vs0mg"},{"bike_id":"ab8c511a-6481-4d3a-8469-191a883191ab","system_id":"levelo_inurba_marseille","lat":43.28406,"lon":5.37524,"is_reserved":false,"is_disabled":false,"rental_uris":{"android":"levelo://app?vid=ab8c511a-6481-4d3a-8469-191a883191ab","ios":"levelo://app?vid=ab8c511a-6481-4d3a-8469-191a883191ab"},"vehicle_type_id":"4","last_reported":1753038458,"current_range_meters":10000,"station_id":"ce4bh412rcd13ifvqds0","pricing_plan_id":"cebpf4jnsgd1na2vs0mg"},{"bike_id":"892e06aa-05f6-415f-96f6-13455b0802de","system_id":"levelo_inurba_marseille","lat":43.295733,"lon":5.37506,"is_reserved":false,"is_disabled":true,"rental_uris":{"android":"levelo://app?vid=892e06aa-05f6-415f-96f6-13455b0802de","ios":"levelo://app?vid=892e06aa-05f6-415f-96f6-13455b0802de"},"vehicle_type_id":"4","last_reported":1753038458,"current_range_meters":10000,"station_id":"ce4bgh92rcd13ifvqb50","pricing_plan_id":"cebpf4jnsgd1na2vs0mg"},{"bike_id":"4268961c-8e3c-4bac-891f-a8846cba533f","system_id":"levelo_inurba_marseille","lat":43.32423,"lon":5.36576,"is_reserved":false,"is_disabled":false,"rental_uris":{"android":"levelo://app?vid=4268961c-8e3c-4bac-891f-a8846cba533f","ios":"levelo://app?vid=4268961c-8e3c-4bac-891f-a8846cba533f"},"vehicle_type_id":"4","last_reported":1753038458,"current_range_meters":10800,"station_id":"","pricing_plan_id":"cebpf4jnsgd1na2vs0mg"},{"bike_id":"325a9bd4-689b-40d4-ac71-6046cd4890a5","system_id":"levelo_inurba_marseille","lat":43.28934,"lon":5.36398,"is_reserved":false,"is_disabled":true,"rental_uris":{"android":"levelo://app?vid=325a9bd4-689b-40d4-ac71-6046cd4890a5","ios":"levelo://app?vid=325a9bd4-689b-40d4-ac71-6046cd4890a5"},"vehicle_type_id":"4","last_reported":1753038458,"current_range_meters":10000,"station_id":"ce4bhc92rcd13ifvqetg","pricing_plan_id":"cebpf4jnsgd1na2vs0mg"},{"bike_id":"2c5ddb33-4cc8-4122-8dea-005c4069864d","system_id":"levelo_inurba_marseille","lat":43.2962,"lon":5.3715,"is_reserved":false,"is_disabled":false,"rental_uris":{"android":"levelo://app?vid=2c5ddb33-4cc8-4122-8dea-005c4069864d","ios":"levelo://app?vid=2c5ddb33-4cc8-4122-8dea-005c4069864d"},"vehicle_type_id":"4","last_reported":1753038458,"current_range_meters":10800,"station_id":"","pricing_plan_id":"cebpf4jnsgd1na2vs0mg"},{"bike_id":"a6de290b-5c15-427b-bc37-8301607e1735","system_id":"levelo_inurba_marseille","lat":43.337444,"lon":5.374475,"is_reserved":false,"is_disabled":false,"rental_uris":{"android":"levelo://app?vid=a6de290b-5c15-427b-bc37-8301607e1735","ios":"levelo://app?vid=a6de290b-5c15-427b-bc37-8301607e1735"},"vehicle_type_id":"4","last_reported":1753038458,"current_range_meters":10800,"station_id":"","pricing_plan_id":"cebpf4jnsgd1na2vs0mg"},{"bike_id":"ed415a14-b4b4-4caf-8a06-7fd1c907bac5","system_id":"levelo_inurba_marseille","lat":43.217436,"lon":5.346034,"is_reserved":false,"is_disabled":false,"rental_uris":{"android":"levelo://app?vid=ed415a14-b4b4-4caf-8a06-7fd1c907bac5","ios":"levelo://app?vid=ed415a14-b4b4-4caf-8a06-7fd1c907bac5"},"vehicle_type_id":"4","last_reported":1753038458,"current_range_meters":10800,"station_id":"st_cvj6r9ubvosntc0bgbag","pricing_plan_id":"cebpf4jnsgd1na2vs0mg"},{"bike_id":"386d72cf-db57-4a92-97d6-7579d8b04383","system_id":"levelo_inurba_marseille","lat":43.29913,"lon":5.36504,"is_reserved":false,"is_disabled":false,"rental_uris":{"android":"levelo://app?vid=386d72cf-db57-4a92-97d6-7579d8b04383","ios":"levelo://app?vid=386d72cf-db57-4a92-97d6-7579d8b04383"},"vehicle_type_id":"4","last_reported":1753038458,"current_range_meters":10800,"station_id":"ce4bgm92rcd13ifvqbr0","pricing_plan_id":"cebpf4jnsgd1na2vs0mg"},{"bike_id":"93d88ba9-9cc8-4c82-9669-62f3756a8012","system_id":"levelo_inurba_marseille","lat":43.3089,"lon":5.37187,"is_reserved":false,"is_disabled":false,"rental_uris":{"android":"levelo://app?vid=93d88ba9-9cc8-4c82-9669-62f3756a8012","ios":"levelo://app?vid=93d88ba9-9cc8-4c82-9669-62f3756a8012"},"vehicle_type_id":"4","last_reported":1753038458,"current_range_meters":10800,"station_id":"ce4bguh2rcd13ifvqckg","pricing_plan_id":"cebpf4jnsgd1na2vs0mg"},{"bike_id":"ad9a0bec-cce1-4296-b8e7-8f0973f6d6e2","system_id":"levelo_inurba_marseille","lat":43.25576,"lon":5.38228,"is_reserved":false,"is_disabled":false,"rental_uris":{"android":"levelo://app?vid=ad9a0bec-cce1-4296-b8e7-8f0973f6d6e2","ios":"levelo://app?vid=ad9a0bec-cce1-4296-b8e7-8f0973f6d6e2"},"vehicle_type_id":"4","last_reported":1753038458,"current_range_meters":10800,"station_id":"ce4bhih2rcd13ifvqfs0","pricing_plan_id":"cebpf4jnsgd1na2vs0mg"},{"bike_id":"f18952d9-de72-4b00-ac50-ca46d1bc16b9","system_id":"levelo_inurba_marseille","lat":43.21193,"lon":5.35067,"is_reserved":false,"is_disabled":false,"rental_uris":{"android":"levelo://app?vid=f18952d9-de72-4b00-ac50-ca46d1bc16b9","ios":"levelo://app?vid=f18952d9-de72-4b00-ac50-ca46d1bc16b9"},"vehicle_type_id":"4","last_reported":1753038458,"current_range_meters":10800,"station_id":"st_cvj6sg6p6f1abm77japg","pricing_plan_id":"cebpf4jnsgd1na2vs0mg"},{"bike_id":"bdd969c3-9e0a-4f25-9eb0-adc05f5732c3","system_id":"levelo_inurba_marseille","lat":43.26192,"lon":5.37449,"is_reserved":false,"is_disabled":true,"rental_uris":{"android":"levelo://app?vid=bdd969c3-9e0a-4f25-9eb0-adc05f5732c3","ios":"levelo://app?vid=bdd969c3-9e0a-4f25-9eb0-adc05f5732c3"},"vehicle_type_id":"4","last_reported":1753038458,"current_range_meters":10800,"station_id":"ce4bhgp2rcd13ifvqfc0","pricing_plan_id":"cebpf4jnsgd1na2vs0mg"},{"bike_id":"d25b3b74-1eb0-48d4-998a-10d14228da57","system_id":"levelo_inurba_marseille","lat":43.29692,"lon":5.36602,"is_reserved":false,"is_disabled":true,"rental_uris":{"android":"levelo://app?vid=d25b3b74-1eb0-48d4-998a-10d14228da57","ios":"levelo://app?vid=d25b3b74-1eb0-48d4-998a-10d14228da57"},"vehicle_type_id":"4","last_reported":1753038458,"current_range_meters":11200,"station_id":"ce4bgn12rcd13ifvqbt0","pricing_plan_id":"cebpf4jnsgd1na2vs0mg"},{"bike_id":"32598bc4-3f00-45c5-9678-1520285fe26f","system_id":"levelo_inurba_marseille","lat":43.30255,"lon":5.40067,"is_reserved":false,"is_disabled":false,"rental_uris":{"android":"levelo://app?vid=32598bc4-3f00-45c5-9678-1520285fe26f","ios":"levelo://app?vid=32598bc4-3f00-45c5-9678-1520285fe26f"},"vehicle_type_id":"4","last_reported":1753038458,"current_range_meters":10800,"station_id":"ce4bgvh2rcd13ifvqcs0","pricing_plan_id":"cebpf4jnsgd1na2vs0mg"},{"bike_id":"1fce7f3b-0145-4c9c-add0-cdc9fb13a339","system_id":"levelo_inurba_marseille","lat":43.27805,"lon":5.40713,"is_reserved":false,"is_disabled":false,"rental_uris":{"android":"levelo://app?vid=1fce7f3b-0145-4c9c-add0-cdc9fb13a339","ios":"levelo://app?vid=1fce7f3b-0145-4c9c-add0-cdc9fb13a339"},"vehicle_type_id":"4","last_reported":1753038458,"current_range_meters":11200,"station_id":"ce4bhnh2rcd13ifvqgtg","pricing_plan_id":"cebpf4jnsgd1na2vs0mg"},{"bike_id":"7a2e1cf8-de90-4b24-ade1-9d8b3a17f052","system_id":"levelo_inurba_marseille","lat":43.251861,"lon":5.375767,"is_reserved":false,"is_disabled":false,"rental_uris":{"android":"levelo://app?vid=7a2e1cf8-de90-4b24-ade1-9d8b3a17f052","ios":"levelo://app?vid=7a2e1cf8-de90-4b24-ade1-9d8b3a17f052"},"vehicle_type_id":"4","last_reported":1753038458,"current_range_meters":11200,"station_id":"","pricing_plan_id":"cebpf4jnsgd1na2vs0mg"},{"bike_id":"b9d2f6b1-2316-4e08-a5d8-0d15d3bb3c6d","system_id":"levelo_inurba_marseille","lat":43.27417,"lon":5.38828,"is_reserved":false,"is_disabled":false,"rental_uris":{"android":"levelo://app?vid=b9d2f6b1-2316-4e08-a5d8-0d15d3bb3c6d","ios":"levelo://app?vid=b9d2f6b1-2316-4e08-a5d8-0d15d3bb3c6d"},"vehicle_type_id":"4","last_reported":1753038458,"current_range_meters":11200,"station_id":"","pricing_plan_id":"cebpf4jnsgd1na2vs0mg"},{"bike_id":"6a3d7c78-79a9-459d-9300-696e7920ae8c","system_id":"levelo_inurba_marseille","lat":43.2956,"lon":5.42281,"is_reserved":false,"is_disabled":false,"rental_uris":{"android":"levelo://app?vid=6a3d7c78-79a9-459d-9300-696e7920ae8c","ios":"levelo://app?vid=6a3d7c78-79a9-459d-9300-696e7920ae8c"},"vehicle_type_id":"4","last_reported":1753038458,"current_range_meters":11200,"station_id":"ce4bhph2rcd13ifvqhdg","pricing_plan_id":"cebpf4jnsgd1na2vs0mg"},{"bike_id":"1c5e6924-a093-4bc6-8015-ca4661610941","system_id":"levelo_inurba_marseille","lat":43.2797,"lon":5.3874,"is_reserved":false,"is_disabled":false,"rental_uris":{"android":"levelo://app?vid=1c5e6924-a093-4bc6-8015-ca4661610941","ios":"levelo://app?vid=1c5e6924-a093-4bc6-8015-ca4661610941"},"vehicle_type_id":"4","last_reported":1753038458,"current_range_meters":11200,"station_id":"ce4bhg12rcd13ifvqf80","pricing_plan_id":"cebpf4jnsgd1na2vs0mg"},{"bike_id":"e00ce506-3076-474d-93bd-071948f431ca","system_id":"levelo_inurba_marseille","lat":43.28105,"lon":5.37844,"is_reserved":false,"is_disabled":false,"rental_uris":{"android":"levelo://app?vid=e00ce506-3076-474d-93bd-071948f431ca","ios":"levelo://app?vid=e00ce506-3076-474d-93bd-071948f431ca"},"vehicle_type_id":"4","last_reported":1753038458,"current_range_meters":11600,"station_id":"ce4bha12rcd13ifvqee0","pricing_plan_id":"cebpf4jnsgd1na2vs0mg"},{"bike_id":"20597f8e-6c1b-4a51-9e3f-8ecf88381375","system_id":"levelo_inurba_marseille","lat":43.30308,"lon":5.39201,"is_reserved":false,"is_disabled":true,"rental_uris":{"android":"levelo://app?vid=20597f8e-6c1b-4a51-9e3f-8ecf88381375","ios":"levelo://app?vid=20597f8e-6c1b-4a51-9e3f-8ecf88381375"},"vehicle_type_id":"4","last_reported":1753038458,"current_range_meters":11600,"station_id":"ce4bgkh2rcd13ifvqbk0","pricing_plan_id":"cebpf4jnsgd1na2vs0mg"},{"bike_id":"1c73d57b-8ea1-45cf-89cf-c6c96315b119","system_id":"levelo_inurba_marseille","lat":43.2295,"lon":5.35362,"is_reserved":false,"is_disabled":false,"rental_uris":{"android":"levelo://app?vid=1c73d57b-8ea1-45cf-89cf-c6c96315b119","ios":"levelo://app?vid=1c73d57b-8ea1-45cf-89cf-c6c96315b119"},"vehicle_type_id":"4","last_reported":1753038458,"current_range_meters":11600,"station_id":"cpo3532slgdg3j2ikp40","pricing_plan_id":"cebpf4jnsgd1na2vs0mg"},{"bike_id":"590f4077-86f6-403a-9813-b406512a7a2d","system_id":"levelo_inurba_marseille","lat":43.29784,"lon":5.37104,"is_reserved":false,"is_disabled":false,"rental_uris":{"android":"levelo://app?vid=590f4077-86f6-403a-9813-b406512a7a2d","ios":"levelo://app?vid=590f4077-86f6-403a-9813-b406512a7a2d"},"vehicle_type_id":"4","last_reported":1753038458,"current_range_meters":11600,"station_id":"ce4bgop2rcd13ifvqc1g","pricing_plan_id":"cebpf4jnsgd1na2vs0mg"},{"bike_id":"747a9921-9b97-445c-9bab-2721d1fdcbc0","system_id":"levelo_inurba_marseille","lat":43.28716,"lon":5.37957,"is_reserved":false,"is_disabled":false,"rental_uris":{"android":"levelo://app?vid=747a9921-9b97-445c-9bab-2721d1fdcbc0","ios":"levelo://app?vid=747a9921-9b97-445c-9bab-2721d1fdcbc0"},"vehicle_type_id":"4","last_reported":1753038458,"current_range_meters":11600,"station_id":"ce4bh9p2rcd13ifvqec0","pricing_plan_id":"cebpf4jnsgd1na2vs0mg"},{"bike_id":"91b5ab4f-1f58-43a2-8db9-93c240732132","system_id":"levelo_inurba_marseille","lat":43.30885,"lon":5.37197,"is_reserved":false,"is_disabled":false,"rental_uris":{"android":"levelo://app?vid=91b5ab4f-1f58-43a2-8db9-93c240732132","ios":"levelo://app?vid=91b5ab4f-1f58-43a2-8db9-93c240732132"},"vehicle_type_id":"4","last_reported":1753038458,"current_range_meters":11600,"station_id":"ce4bguh2rcd13ifvqckg","pricing_plan_id":"cebpf4jnsgd1na2vs0mg"},{"bike_id":"86c4d92b-5346-4cfa-81cc-65ef9c7289cf","system_id":"levelo_inurba_marseille","lat":43.29372,"lon":5.37835,"is_reserved":false,"is_disabled":false,"rental_uris":{"android":"levelo://app?vid=86c4d92b-5346-4cfa-81cc-65ef9c7289cf","ios":"levelo://app?vid=86c4d92b-5346-4cfa-81cc-65ef9c7289cf"},"vehicle_type_id":"4","last_reported":1753038458,"current_range_meters":11600,"station_id":"ce4bgjh2rcd13ifvqbf0","pricing_plan_id":"cebpf4jnsgd1na2vs0mg"},{"bike_id":"fa06e38c-58b9-4aea-bcf5-74a645703fd3","system_id":"levelo_inurba_marseille","lat":43.28716,"lon":5.39979,"is_reserved":false,"is_disabled":true,"rental_uris":{"android":"levelo://app?vid=fa06e38c-58b9-4aea-bcf5-74a645703fd3","ios":"levelo://app?vid=fa06e38c-58b9-4aea-bcf5-74a645703fd3"},"vehicle_type_id":"4","last_reported":1753038458,"current_range_meters":12000,"station_id":"ce4bho92rcd13ifvqh3g","pricing_plan_id":"cebpf4jnsgd1na2vs0mg"},{"bike_id":"beb14892-a851-4f8e-b873-cbd3d15ad0a9","system_id":"levelo_inurba_marseille","lat":43.23788,"lon":5.36187,"is_reserved":false,"is_disabled":false,"rental_uris":{"android":"levelo://app?vid=beb14892-a851-4f8e-b873-cbd3d15ad0a9","ios":"levelo://app?vid=beb14892-a851-4f8e-b873-cbd3d15ad0a9"},"vehicle_type_id":"4","last_reported":1753038458,"current_range_meters":12000,"station_id":"","pricing_plan_id":"cebpf4jnsgd1na2vs0mg"},{"bike_id":"859bbbbb-ac6b-4840-8501-f9115b910af9","system_id":"levelo_inurba_marseille","lat":43.29712,"lon":5.36618,"is_reserved":false,"is_disabled":false,"rental_uris":{"android":"levelo://app?vid=859bbbbb-ac6b-4840-8501-f9115b910af9","ios":"levelo://app?vid=859bbbbb-ac6b-4840-8501-f9115b910af9"},"vehicle_type_id":"4","last_reported":1753038458,"current_range_meters":12000,"station_id":"ce4bgn12rcd13ifvqbt0","pricing_plan_id":"cebpf4jnsgd1na2vs0mg"},{"bike_id":"1e8b1880-264c-4b77-bf82-6c996a6dc688","system_id":"levelo_inurba_marseille","lat":43.21178,"lon":5.35056,"is_reserved":false,"is_disabled":false,"rental_uris":{"android":"levelo://app?vid=1e8b1880-264c-4b77-bf82-6c996a6dc688","ios":"levelo://app?vid=1e8b1880-264c-4b77-bf82-6c996a6dc688"},"vehicle_type_id":"4","last_reported":1753038458,"current_range_meters":12000,"station_id":"st_cvj6sg6p6f1abm77japg","pricing_plan_id":"cebpf4jnsgd1na2vs0mg"},{"bike_id":"cb4631f5-029e-43db-8f28-7810932f9e33","system_id":"levelo_inurba_marseille","lat":43.29529,"lon":5.3904,"is_reserved":false,"is_disabled":false,"rental_uris":{"android":"levelo://app?vid=cb4631f5-029e-43db-8f28-7810932f9e33","ios":"levelo://app?vid=cb4631f5-029e-43db-8f28-7810932f9e33"},"vehicle_type_id":"4","last_reported":1753038458,"current_range_meters":12000,"station_id":"ce4bh3p2rcd13ifvqdp0","pricing_plan_id":"cebpf4jnsgd1na2vs0mg"},{"bike_id":"95b5bcfa-54af-48c0-bd18-8f73f959ce2b","system_id":"levelo_inurba_marseille","lat":43.31935,"lon":5.37313,"is_reserved":false,"is_disabled":true,"rental_uris":{"android":"levelo://app?vid=95b5bcfa-54af-48c0-bd18-8f73f959ce2b","ios":"levelo://app?vid=95b5bcfa-54af-48c0-bd18-8f73f959ce2b"},"vehicle_type_id":"4","last_reported":1753038458,"current_range_meters":12000,"station_id":"","pricing_plan_id":"cebpf4jnsgd1na2vs0mg"},{"bike_id":"9cc371a2-7c5d-4315-8fb5-724e3f50e0e8","system_id":"levelo_inurba_marseille","lat":43.23069,"lon":5.35426,"is_reserved":false,"is_disabled":false,"rental_uris":{"android":"levelo://app?vid=9cc371a2-7c5d-4315-8fb5-724e3f50e0e8","ios":"levelo://app?vid=9cc371a2-7c5d-4315-8fb5-724e3f50e0e8"},"vehicle_type_id":"4","last_reported":1753038458,"current_range_meters":12000,"station_id":"","pricing_plan_id":"cebpf4jnsgd1na2vs0mg"},{"bike_id":"218a227e-c64f-4f98-8a22-59cb1cdfd846","system_id":"levelo_inurba_marseille","lat":43.2406,"lon":5.37725,"is_reserved":false,"is_disabled":true,"rental_uris":{"android":"levelo://app?vid=218a227e-c64f-4f98-8a22-59cb1cdfd846","ios":"levelo://app?vid=218a227e-c64f-4f98-8a22-59cb1cdfd846"},"vehicle_type_id":"4","last_reported":1753038458,"current_range_meters":12400,"station_id":"ce4bhnp2rcd13ifvqgvg","pricing_plan_id":"cebpf4jnsgd1na2vs0mg"},{"bike_id":"ec56498c-7315-46d2-8779-4f1d12c61dba","system_id":"levelo_inurba_marseille","lat":43.26739,"lon":5.37845,"is_reserved":false,"is_disabled":false,"rental_uris":{"android":"levelo://app?vid=ec56498c-7315-46d2-8779-4f1d12c61dba","ios":"levelo://app?vid=ec56498c-7315-46d2-8779-4f1d12c61dba"},"vehicle_type_id":"4","last_reported":1753038458,"current_range_meters":12400,"station_id":"","pricing_plan_id":"cebpf4jnsgd1na2vs0mg"},{"bike_id":"cc4e356b-4436-43cd-bc61-2dfa513bf305","system_id":"levelo_inurba_marseille","lat":43.3025,"lon":5.40068,"is_reserved":false,"is_disabled":false,"rental_uris":{"android":"levelo://app?vid=cc4e356b-4436-43cd-bc61-2dfa513bf305","ios":"levelo://app?vid=cc4e356b-4436-43cd-bc61-2dfa513bf305"},"vehicle_type_id":"4","last_reported":1753038458,"current_range_meters":12000,"station_id":"ce4bgvh2rcd13ifvqcs0","pricing_plan_id":"cebpf4jnsgd1na2vs0mg"},{"bike_id":"07fb1559-bb03-4902-a00a-f9dcbdfe6cfb","system_id":"levelo_inurba_marseille","lat":43.28696,"lon":5.37382,"is_reserved":false,"is_disabled":false,"rental_uris":{"android":"levelo://app?vid=07fb1559-bb03-4902-a00a-f9dcbdfe6cfb","ios":"levelo://app?vid=07fb1559-bb03-4902-a00a-f9dcbdfe6cfb"},"vehicle_type_id":"4","last_reported":1753038458,"current_range_meters":12800,"station_id":"ce4bh3p2rcd13ifvqdq0","pricing_plan_id":"cebpf4jnsgd1na2vs0mg"},{"bike_id":"299ec8a6-d5a7-41ea-8121-1c7f792257d2","system_id":"levelo_inurba_marseille","lat":43.27372,"lon":5.36252,"is_reserved":false,"is_disabled":true,"rental_uris":{"android":"levelo://app?vid=299ec8a6-d5a7-41ea-8121-1c7f792257d2","ios":"levelo://app?vid=299ec8a6-d5a7-41ea-8121-1c7f792257d2"},"vehicle_type_id":"4","last_reported":1753038458,"current_range_meters":12800,"station_id":"ce4bhbh2rcd13ifvqeo0","pricing_plan_id":"cebpf4jnsgd1na2vs0mg"},{"bike_id":"3c612d33-b46b-45b5-9dc2-3d6c81b25914","system_id":"levelo_inurba_marseille","lat":43.29253,"lon":5.38452,"is_reserved":false,"is_disabled":false,"rental_uris":{"android":"levelo://app?vid=3c612d33-b46b-45b5-9dc2-3d6c81b25914","ios":"levelo://app?vid=3c612d33-b46b-45b5-9dc2-3d6c81b25914"},"vehicle_type_id":"4","last_reported":1753038458,"current_range_meters":12800,"station_id":"ce4bh692rcd13ifvqea0","pricing_plan_id":"cebpf4jnsgd1na2vs0mg"},{"bike_id":"554efc6b-52f3-455d-809a-bb2ab2876e05","system_id":"levelo_inurba_marseille","lat":43.29027,"lon":5.38655,"is_reserved":false,"is_disabled":false,"rental_uris":{"android":"levelo://app?vid=554efc6b-52f3-455d-809a-bb2ab2876e05","ios":"levelo://app?vid=554efc6b-52f3-455d-809a-bb2ab2876e05"},"vehicle_type_id":"4","last_reported":1753038458,"current_range_meters":12800,"station_id":"ce4bh4p2rcd13ifvqe0g","pricing_plan_id":"cebpf4jnsgd1na2vs0mg"},{"bike_id":"96793585-b370-4499-97b5-55297e845c8f","system_id":"levelo_inurba_marseille","lat":43.21761,"lon":5.34567,"is_reserved":false,"is_disabled":true,"rental_uris":{"android":"levelo://app?vid=96793585-b370-4499-97b5-55297e845c8f","ios":"levelo://app?vid=96793585-b370-4499-97b5-55297e845c8f"},"vehicle_type_id":"4","last_reported":1753038458,"current_range_meters":12800,"station_id":"st_cvj6r9ubvosntc0bgbag","pricing_plan_id":"cebpf4jnsgd1na2vs0mg"},{"bike_id":"7988183c-a382-4df8-bfe0-44c34ab63148","system_id":"levelo_inurba_marseille","lat":43.2468,"lon":5.38124,"is_reserved":false,"is_disabled":false,"rental_uris":{"android":"levelo://app?vid=7988183c-a382-4df8-bfe0-44c34ab63148","ios":"levelo://app?vid=7988183c-a382-4df8-bfe0-44c34ab63148"},"vehicle_type_id":"4","last_reported":1753038458,"current_range_meters":12800,"station_id":"ce4bhih2rcd13ifvqfr0","pricing_plan_id":"cebpf4jnsgd1na2vs0mg"},{"bike_id":"df54404b-6828-4248-853b-9bba0f372a64","system_id":"levelo_inurba_marseille","lat":43.26547,"lon":5.37289,"is_reserved":false,"is_disabled":false,"rental_uris":{"android":"levelo://app?vid=df54404b-6828-4248-853b-9bba0f372a64","ios":"levelo://app?vid=df54404b-6828-4248-853b-9bba0f372a64"},"vehicle_type_id":"4","last_reported":1753038458,"current_range_meters":12800,"station_id":"ce4bhg12rcd13ifvqf70","pricing_plan_id":"cebpf4jnsgd1na2vs0mg"},{"bike_id":"1702f72d-252a-456b-98b9-77851b3274a9","system_id":"levelo_inurba_marseille","lat":43.293004,"lon":5.374591,"is_reserved":false,"is_disabled":false,"rental_uris":{"android":"levelo://app?vid=1702f72d-252a-456b-98b9-77851b3274a9","ios":"levelo://app?vid=1702f72d-252a-456b-98b9-77851b3274a9"},"vehicle_type_id":"4","last_reported":1753038458,"current_range_meters":12800,"station_id":"ce4bgn92rcd13ifvqbvg","pricing_plan_id":"cebpf4jnsgd1na2vs0mg"},{"bike_id":"c2a98b6f-85de-4f6b-b170-57c1c77a6f39","system_id":"levelo_inurba_marseille","lat":43.32036,"lon":5.41588,"is_reserved":false,"is_disabled":false,"rental_uris":{"android":"levelo://app?vid=c2a98b6f-85de-4f6b-b170-57c1c77a6f39","ios":"levelo://app?vid=c2a98b6f-85de-4f6b-b170-57c1c77a6f39"},"vehicle_type_id":"4","last_reported":1753038458,"current_range_meters":12000,"station_id":"ce4bhq92rcd13ifvqhkg","pricing_plan_id":"cebpf4jnsgd1na2vs0mg"},{"bike_id":"dee6628b-f370-478a-a4db-32c84542aee7","system_id":"levelo_inurba_marseille","lat":43.33317,"lon":5.38962,"is_reserved":false,"is_disabled":false,"rental_uris":{"android":"levelo://app?vid=dee6628b-f370-478a-a4db-32c84542aee7","ios":"levelo://app?vid=dee6628b-f370-478a-a4db-32c84542aee7"},"vehicle_type_id":"4","last_reported":1753038458,"current_range_meters":12800,"station_id":"","pricing_plan_id":"cebpf4jnsgd1na2vs0mg"},{"bike_id":"95326a82-0166-4d5c-993a-ce1a8fcd3a8b","system_id":"levelo_inurba_marseille","lat":43.300001,"lon":5.374226,"is_reserved":false,"is_disabled":false,"rental_uris":{"android":"levelo://app?vid=95326a82-0166-4d5c-993a-ce1a8fcd3a8b","ios":"levelo://app?vid=95326a82-0166-4d5c-993a-ce1a8fcd3a8b"},"vehicle_type_id":"4","last_reported":1753038458,"current_range_meters":13600,"station_id":"ce4bgs92rcd13ifvqcc0","pricing_plan_id":"cebpf4jnsgd1na2vs0mg"},{"bike_id":"8606d0fa-a3fd-4454-aa6a-5d3ce204aad0","system_id":"levelo_inurba_marseille","lat":43.29576,"lon":5.38105,"is_reserved":false,"is_disabled":false,"rental_uris":{"android":"levelo://app?vid=8606d0fa-a3fd-4454-aa6a-5d3ce204aad0","ios":"levelo://app?vid=8606d0fa-a3fd-4454-aa6a-5d3ce204aad0"},"vehicle_type_id":"4","last_reported":1753038458,"current_range_meters":13600,"station_id":"ce4bgl12rcd13ifvqbo0","pricing_plan_id":"cebpf4jnsgd1na2vs0mg"},{"bike_id":"bdc1fd4b-3be2-43ec-8490-24512b54e93c","system_id":"levelo_inurba_marseille","lat":43.28847,"lon":5.39327,"is_reserved":false,"is_disabled":false,"rental_uris":{"android":"levelo://app?vid=bdc1fd4b-3be2-43ec-8490-24512b54e93c","ios":"levelo://app?vid=bdc1fd4b-3be2-43ec-8490-24512b54e93c"},"vehicle_type_id":"4","last_reported":1753038458,"current_range_meters":13600,"station_id":"ce4bh2p2rcd13ifvqdi0","pricing_plan_id":"cebpf4jnsgd1na2vs0mg"},{"bike_id":"86c3422c-5828-4ec9-8c82-7bec17ac3699","system_id":"levelo_inurba_marseille","lat":43.23193,"lon":5.39938,"is_reserved":false,"is_disabled":false,"rental_uris":{"android":"levelo://app?vid=86c3422c-5828-4ec9-8c82-7bec17ac3699","ios":"levelo://app?vid=86c3422c-5828-4ec9-8c82-7bec17ac3699"},"vehicle_type_id":"4","last_reported":1753038458,"current_range_meters":13600,"station_id":"","pricing_plan_id":"cebpf4jnsgd1na2vs0mg"},{"bike_id":"b2535ca9-0989-4930-a4cb-5aab2a2703aa","system_id":"levelo_inurba_marseille","lat":43.24992,"lon":5.38932,"is_reserved":false,"is_disabled":false,"rental_uris":{"android":"levelo://app?vid=b2535ca9-0989-4930-a4cb-5aab2a2703aa","ios":"levelo://app?vid=b2535ca9-0989-4930-a4cb-5aab2a2703aa"},"vehicle_type_id":"4","last_reported":1753038458,"current_range_meters":13600,"station_id":"ce4bhgp2rcd13ifvqfd0","pricing_plan_id":"cebpf4jnsgd1na2vs0mg"},{"bike_id":"537f4e25-685d-477d-93e7-af3ae2a2e01d","system_id":"levelo_inurba_marseille","lat":43.303536,"lon":5.3935,"is_reserved":false,"is_disabled":false,"rental_uris":{"android":"levelo://app?vid=537f4e25-685d-477d-93e7-af3ae2a2e01d","ios":"levelo://app?vid=537f4e25-685d-477d-93e7-af3ae2a2e01d"},"vehicle_type_id":"4","last_reported":1753038458,"current_range_meters":13600,"station_id":"ce4bh312rcd13ifvqdj0","pricing_plan_id":"cebpf4jnsgd1na2vs0mg"},{"bike_id":"d3aca52a-4e64-461a-8fd1-e9a035bafbdf","system_id":"levelo_inurba_marseille","lat":43.257213,"lon":5.411019,"is_reserved":false,"is_disabled":false,"rental_uris":{"android":"levelo://app?vid=d3aca52a-4e64-461a-8fd1-e9a035bafbdf","ios":"levelo://app?vid=d3aca52a-4e64-461a-8fd1-e9a035bafbdf"},"vehicle_type_id":"4","last_reported":1753038458,"current_range_meters":13600,"station_id":"","pricing_plan_id":"cebpf4jnsgd1na2vs0mg"},{"bike_id":"c9695da4-3048-4cfc-83f0-62c3fac1ccbe","system_id":"levelo_inurba_marseille","lat":43.23051,"lon":5.35488,"is_reserved":false,"is_disabled":true,"rental_uris":{"android":"levelo://app?vid=c9695da4-3048-4cfc-83f0-62c3fac1ccbe","ios":"levelo://app?vid=c9695da4-3048-4cfc-83f0-62c3fac1ccbe"},"vehicle_type_id":"4","last_reported":1753038458,"current_range_meters":14000,"station_id":"cpo3342slgdg3j2ifvpg","pricing_plan_id":"cebpf4jnsgd1na2vs0mg"},{"bike_id":"02c734a1-449a-4577-93cf-d6c608c78150","system_id":"levelo_inurba_marseille","lat":43.28718,"lon":5.37947,"is_reserved":false,"is_disabled":false,"rental_uris":{"android":"levelo://app?vid=02c734a1-449a-4577-93cf-d6c608c78150","ios":"levelo://app?vid=02c734a1-449a-4577-93cf-d6c608c78150"},"vehicle_type_id":"4","last_reported":1753038458,"current_range_meters":14000,"station_id":"ce4bh9p2rcd13ifvqec0","pricing_plan_id":"cebpf4jnsgd1na2vs0mg"},{"bike_id":"b2309b38-e3d9-4fdb-b8bf-7c915393c6be","system_id":"levelo_inurba_marseille","lat":43.29534,"lon":5.39388,"is_reserved":false,"is_disabled":false,"rental_uris":{"android":"levelo://app?vid=b2309b38-e3d9-4fdb-b8bf-7c915393c6be","ios":"levelo://app?vid=b2309b38-e3d9-4fdb-b8bf-7c915393c6be"},"vehicle_type_id":"4","last_reported":1753038458,"current_range_meters":14000,"station_id":"ce4bh292rcd13ifvqdf0","pricing_plan_id":"cebpf4jnsgd1na2vs0mg"},{"bike_id":"03635c92-c916-417c-a6f6-78b349df6203","system_id":"levelo_inurba_marseille","lat":43.29938,"lon":5.36552,"is_reserved":false,"is_disabled":false,"rental_uris":{"android":"levelo://app?vid=03635c92-c916-417c-a6f6-78b349df6203","ios":"levelo://app?vid=03635c92-c916-417c-a6f6-78b349df6203"},"vehicle_type_id":"4","last_reported":1753038458,"current_range_meters":14000,"station_id":"ce4bgm92rcd13ifvqbr0","pricing_plan_id":"cebpf4jnsgd1na2vs0mg"},{"bike_id":"e65cb55f-ab1c-4b5c-8e21-3f4ef28917f3","system_id":"levelo_inurba_marseille","lat":43.24804,"lon":5.37456,"is_reserved":false,"is_disabled":false,"rental_uris":{"android":"levelo://app?vid=e65cb55f-ab1c-4b5c-8e21-3f4ef28917f3","ios":"levelo://app?vid=e65cb55f-ab1c-4b5c-8e21-3f4ef28917f3"},"vehicle_type_id":"4","last_reported":1753038458,"current_range_meters":13600,"station_id":"ce4bhgh2rcd13ifvqfb0","pricing_plan_id":"cebpf4jnsgd1na2vs0mg"},{"bike_id":"0cb2c80a-7457-4a4a-ad92-f0361b5225d6","system_id":"levelo_inurba_marseille","lat":43.24404,"lon":5.37413,"is_reserved":false,"is_disabled":false,"rental_uris":{"android":"levelo://app?vid=0cb2c80a-7457-4a4a-ad92-f0361b5225d6","ios":"levelo://app?vid=0cb2c80a-7457-4a4a-ad92-f0361b5225d6"},"vehicle_type_id":"4","last_reported":1753038458,"current_range_meters":14000,"station_id":"","pricing_plan_id":"cebpf4jnsgd1na2vs0mg"},{"bike_id":"40db5599-157d-4c23-9c8b-cea380cea975","system_id":"levelo_inurba_marseille","lat":43.29079,"lon":5.37169,"is_reserved":false,"is_disabled":false,"rental_uris":{"android":"levelo://app?vid=40db5599-157d-4c23-9c8b-cea380cea975","ios":"levelo://app?vid=40db5599-157d-4c23-9c8b-cea380cea975"},"vehicle_type_id":"4","last_reported":1753038458,"current_range_meters":13600,"station_id":"ce4bh5p2rcd13ifvqe4g","pricing_plan_id":"cebpf4jnsgd1na2vs0mg"},{"bike_id":"053762ef-2967-4c03-83aa-9c21c06b9aed","system_id":"levelo_inurba_marseille","lat":43.24101,"lon":5.37738,"is_reserved":false,"is_disabled":false,"rental_uris":{"android":"levelo://app?vid=053762ef-2967-4c03-83aa-9c21c06b9aed","ios":"levelo://app?vid=053762ef-2967-4c03-83aa-9c21c06b9aed"},"vehicle_type_id":"4","last_reported":1753038458,"current_range_meters":14000,"station_id":"ce4bhnp2rcd13ifvqgvg","pricing_plan_id":"cebpf4jnsgd1na2vs0mg"},{"bike_id":"d9ffc317-5093-4b79-a3ac-b6a04220854f","system_id":"levelo_inurba_marseille","lat":43.28709,"lon":5.37943,"is_reserved":false,"is_disabled":false,"rental_uris":{"android":"levelo://app?vid=d9ffc317-5093-4b79-a3ac-b6a04220854f","ios":"levelo://app?vid=d9ffc317-5093-4b79-a3ac-b6a04220854f"},"vehicle_type_id":"4","last_reported":1753038458,"current_range_meters":14000,"station_id":"ce4bh9p2rcd13ifvqec0","pricing_plan_id":"cebpf4jnsgd1na2vs0mg"},{"bike_id":"74ae3ded-cf36-4f39-8bf0-f43940ebdf10","system_id":"levelo_inurba_marseille","lat":43.28862,"lon":5.35855,"is_reserved":false,"is_disabled":false,"rental_uris":{"android":"levelo://app?vid=74ae3ded-cf36-4f39-8bf0-f43940ebdf10","ios":"levelo://app?vid=74ae3ded-cf36-4f39-8bf0-f43940ebdf10"},"vehicle_type_id":"4","last_reported":1753038458,"current_range_meters":14000,"station_id":"ce4bhb12rcd13ifvqem0","pricing_plan_id":"cebpf4jnsgd1na2vs0mg"},{"bike_id":"b8770ee5-6932-449a-a0a4-494e3fb105e9","system_id":"levelo_inurba_marseille","lat":43.23195,"lon":5.35542,"is_reserved":false,"is_disabled":false,"rental_uris":{"android":"levelo://app?vid=b8770ee5-6932-449a-a0a4-494e3fb105e9","ios":"levelo://app?vid=b8770ee5-6932-449a-a0a4-494e3fb105e9"},"vehicle_type_id":"4","last_reported":1753038458,"current_range_meters":14400,"station_id":"ce4bhu92rcd13ifvqi70","pricing_plan_id":"cebpf4jnsgd1na2vs0mg"},{"bike_id":"a61dcce2-1eb3-444f-8c30-fdb609e21138","system_id":"levelo_inurba_marseille","lat":43.23578,"lon":5.36136,"is_reserved":false,"is_disabled":false,"rental_uris":{"android":"levelo://app?vid=a61dcce2-1eb3-444f-8c30-fdb609e21138","ios":"levelo://app?vid=a61dcce2-1eb3-444f-8c30-fdb609e21138"},"vehicle_type_id":"4","last_reported":1753038458,"current_range_meters":14400,"station_id":"","pricing_plan_id":"cebpf4jnsgd1na2vs0mg"},{"bike_id":"99c28872-e1e4-4d0b-9181-33d1940bf0da","system_id":"levelo_inurba_marseille","lat":43.270931,"lon":5.363332,"is_reserved":false,"is_disabled":false,"rental_uris":{"android":"levelo://app?vid=99c28872-e1e4-4d0b-9181-33d1940bf0da","ios":"levelo://app?vid=99c28872-e1e4-4d0b-9181-33d1940bf0da"},"vehicle_type_id":"4","last_reported":1753038458,"current_range_meters":14400,"station_id":"ce4bgj12rcd13ifvqbc0","pricing_plan_id":"cebpf4jnsgd1na2vs0mg"},{"bike_id":"d1d1aa17-c4c4-4c7b-a028-7ba34458fe3f","system_id":"levelo_inurba_marseille","lat":43.25356,"lon":5.37481,"is_reserved":false,"is_disabled":false,"rental_uris":{"android":"levelo://app?vid=d1d1aa17-c4c4-4c7b-a028-7ba34458fe3f","ios":"levelo://app?vid=d1d1aa17-c4c4-4c7b-a028-7ba34458fe3f"},"vehicle_type_id":"4","last_reported":1753038458,"current_range_meters":14400,"station_id":"","pricing_plan_id":"cebpf4jnsgd1na2vs0mg"},{"bike_id":"33780747-b8a1-4c91-a821-537e8213a91e","system_id":"levelo_inurba_marseille","lat":43.289441,"lon":5.36399,"is_reserved":false,"is_disabled":false,"rental_uris":{"android":"levelo://app?vid=33780747-b8a1-4c91-a821-537e8213a91e","ios":"levelo://app?vid=33780747-b8a1-4c91-a821-537e8213a91e"},"vehicle_type_id":"4","last_reported":1753038458,"current_range_meters":14400,"station_id":"ce4bhc92rcd13ifvqetg","pricing_plan_id":"cebpf4jnsgd1na2vs0mg"},{"bike_id":"ff2c165e-5b5b-40b7-9ef9-0c664fd09a94","system_id":"levelo_inurba_marseille","lat":43.29026,"lon":5.38639,"is_reserved":false,"is_disabled":true,"rental_uris":{"android":"levelo://app?vid=ff2c165e-5b5b-40b7-9ef9-0c664fd09a94","ios":"levelo://app?vid=ff2c165e-5b5b-40b7-9ef9-0c664fd09a94"},"vehicle_type_id":"4","last_reported":1753038458,"current_range_meters":14400,"station_id":"ce4bh4p2rcd13ifvqe0g","pricing_plan_id":"cebpf4jnsgd1na2vs0mg"},{"bike_id":"e7789d1c-4eae-4083-8210-16bdf8536f7a","system_id":"levelo_inurba_marseille","lat":43.29265,"lon":5.38443,"is_reserved":false,"is_disabled":false,"rental_uris":{"android":"levelo://app?vid=e7789d1c-4eae-4083-8210-16bdf8536f7a","ios":"levelo://app?vid=e7789d1c-4eae-4083-8210-16bdf8536f7a"},"vehicle_type_id":"4","last_reported":1753038458,"current_range_meters":14800,"station_id":"ce4bh692rcd13ifvqea0","pricing_plan_id":"cebpf4jnsgd1na2vs0mg"},{"bike_id":"f335eb8b-f2b0-48df-963c-2425602f9038","system_id":"levelo_inurba_marseille","lat":43.270044,"lon":5.401204,"is_reserved":false,"is_disabled":true,"rental_uris":{"android":"levelo://app?vid=f335eb8b-f2b0-48df-963c-2425602f9038","ios":"levelo://app?vid=f335eb8b-f2b0-48df-963c-2425602f9038"},"vehicle_type_id":"4","last_reported":1753038458,"current_range_meters":14800,"station_id":"","pricing_plan_id":"cebpf4jnsgd1na2vs0mg"},{"bike_id":"90069cb2-15b9-4680-beec-5595efd98fd6","system_id":"levelo_inurba_marseille","lat":43.30949,"lon":5.39053,"is_reserved":false,"is_disabled":false,"rental_uris":{"android":"levelo://app?vid=90069cb2-15b9-4680-beec-5595efd98fd6","ios":"levelo://app?vid=90069cb2-15b9-4680-beec-5595efd98fd6"},"vehicle_type_id":"4","last_reported":1753038458,"current_range_meters":14800,"station_id":"ce4bgup2rcd13ifvqco0","pricing_plan_id":"cebpf4jnsgd1na2vs0mg"},{"bike_id":"521cc881-78b8-42a4-86eb-2379c8ae8df1","system_id":"levelo_inurba_marseille","lat":43.27906,"lon":5.38011,"is_reserved":false,"is_disabled":false,"rental_uris":{"android":"levelo://app?vid=521cc881-78b8-42a4-86eb-2379c8ae8df1","ios":"levelo://app?vid=521cc881-78b8-42a4-86eb-2379c8ae8df1"},"vehicle_type_id":"4","last_reported":1753038458,"current_range_meters":14800,"station_id":"ce4bhf92rcd13ifvqf50","pricing_plan_id":"cebpf4jnsgd1na2vs0mg"},{"bike_id":"eb240428-00e7-472b-91f5-4bf4c52fb633","system_id":"levelo_inurba_marseille","lat":43.26199,"lon":5.37925,"is_reserved":false,"is_disabled":true,"rental_uris":{"android":"levelo://app?vid=eb240428-00e7-472b-91f5-4bf4c52fb633","ios":"levelo://app?vid=eb240428-00e7-472b-91f5-4bf4c52fb633"},"vehicle_type_id":"4","last_reported":1753038458,"current_range_meters":15200,"station_id":"ce4bhjp2rcd13ifvqg90","pricing_plan_id":"cebpf4jnsgd1na2vs0mg"},{"bike_id":"ff304561-c8ce-4ac1-9008-9c7fa7a2d85b","system_id":"levelo_inurba_marseille","lat":43.29274,"lon":5.38447,"is_reserved":false,"is_disabled":true,"rental_uris":{"android":"levelo://app?vid=ff304561-c8ce-4ac1-9008-9c7fa7a2d85b","ios":"levelo://app?vid=ff304561-c8ce-4ac1-9008-9c7fa7a2d85b"},"vehicle_type_id":"4","last_reported":1753038458,"current_range_meters":15200,"station_id":"ce4bh692rcd13ifvqea0","pricing_plan_id":"cebpf4jnsgd1na2vs0mg"},{"bike_id":"c1e6057c-ff5a-4477-a9f1-93444a633642","system_id":"levelo_inurba_marseille","lat":43.27228,"lon":5.39075,"is_reserved":false,"is_disabled":false,"rental_uris":{"android":"levelo://app?vid=c1e6057c-ff5a-4477-a9f1-93444a633642","ios":"levelo://app?vid=c1e6057c-ff5a-4477-a9f1-93444a633642"},"vehicle_type_id":"4","last_reported":1753038458,"current_range_meters":15200,"station_id":"","pricing_plan_id":"cebpf4jnsgd1na2vs0mg"},{"bike_id":"aa7039ed-31a0-4747-a640-e94f3558d15e","system_id":"levelo_inurba_marseille","lat":43.22503,"lon":5.34774,"is_reserved":false,"is_disabled":true,"rental_uris":{"android":"levelo://app?vid=aa7039ed-31a0-4747-a640-e94f3558d15e","ios":"levelo://app?vid=aa7039ed-31a0-4747-a640-e94f3558d15e"},"vehicle_type_id":"4","last_reported":1753038458,"current_range_meters":15200,"station_id":"","pricing_plan_id":"cebpf4jnsgd1na2vs0mg"},{"bike_id":"cb331a89-56a6-4651-9865-7241cd4ca587","system_id":"levelo_inurba_marseille","lat":43.3248,"lon":5.36577,"is_reserved":false,"is_disabled":false,"rental_uris":{"android":"levelo://app?vid=cb331a89-56a6-4651-9865-7241cd4ca587","ios":"levelo://app?vid=cb331a89-56a6-4651-9865-7241cd4ca587"},"vehicle_type_id":"4","last_reported":1753038458,"current_range_meters":15200,"station_id":"ce4bhs12rcd13ifvqhvg","pricing_plan_id":"cebpf4jnsgd1na2vs0mg"},{"bike_id":"d1c5e122-f7ed-4ccf-84b4-6c6c26666058","system_id":"levelo_inurba_marseille","lat":43.29977,"lon":5.3847,"is_reserved":false,"is_disabled":false,"rental_uris":{"android":"levelo://app?vid=d1c5e122-f7ed-4ccf-84b4-6c6c26666058","ios":"levelo://app?vid=d1c5e122-f7ed-4ccf-84b4-6c6c26666058"},"vehicle_type_id":"4","last_reported":1753038458,"current_range_meters":15200,"station_id":"ce4bgj92rcd13ifvqbd0","pricing_plan_id":"cebpf4jnsgd1na2vs0mg"},{"bike_id":"39067531-b2ef-4493-814e-680b565e639e","system_id":"levelo_inurba_marseille","lat":43.29439,"lon":5.39748,"is_reserved":false,"is_disabled":false,"rental_uris":{"android":"levelo://app?vid=39067531-b2ef-4493-814e-680b565e639e","ios":"levelo://app?vid=39067531-b2ef-4493-814e-680b565e639e"},"vehicle_type_id":"4","last_reported":1753038458,"current_range_meters":15200,"station_id":"ce4bh3h2rcd13ifvqdo0","pricing_plan_id":"cebpf4jnsgd1na2vs0mg"},{"bike_id":"5ccf6fcb-646f-4acf-9fbc-c7f16de7c973","system_id":"levelo_inurba_marseille","lat":43.326533,"lon":5.42332,"is_reserved":false,"is_disabled":false,"rental_uris":{"android":"levelo://app?vid=5ccf6fcb-646f-4acf-9fbc-c7f16de7c973","ios":"levelo://app?vid=5ccf6fcb-646f-4acf-9fbc-c7f16de7c973"},"vehicle_type_id":"4","last_reported":1753038458,"current_range_meters":15200,"station_id":"","pricing_plan_id":"cebpf4jnsgd1na2vs0mg"},{"bike_id":"8b70e333-db95-4dad-9f25-3f58617e52f2","system_id":"levelo_inurba_marseille","lat":43.29912,"lon":5.43673,"is_reserved":false,"is_disabled":false,"rental_uris":{"android":"levelo://app?vid=8b70e333-db95-4dad-9f25-3f58617e52f2","ios":"levelo://app?vid=8b70e333-db95-4dad-9f25-3f58617e52f2"},"vehicle_type_id":"4","last_reported":1753038458,"current_range_meters":15200,"station_id":"ce4bhpp2rcd13ifvqhfg","pricing_plan_id":"cebpf4jnsgd1na2vs0mg"},{"bike_id":"467330b1-db29-4f7c-9996-7d9d9b90c877","system_id":"levelo_inurba_marseille","lat":43.29021,"lon":5.38133,"is_reserved":false,"is_disabled":false,"rental_uris":{"android":"levelo://app?vid=467330b1-db29-4f7c-9996-7d9d9b90c877","ios":"levelo://app?vid=467330b1-db29-4f7c-9996-7d9d9b90c877"},"vehicle_type_id":"4","last_reported":1753038458,"current_range_meters":15200,"station_id":"ce4bh4p2rcd13ifvqe1g","pricing_plan_id":"cebpf4jnsgd1na2vs0mg"},{"bike_id":"0fb0df74-35f9-48db-b1d6-58764a59d903","system_id":"levelo_inurba_marseille","lat":43.27961,"lon":5.38759,"is_reserved":false,"is_disabled":false,"rental_uris":{"android":"levelo://app?vid=0fb0df74-35f9-48db-b1d6-58764a59d903","ios":"levelo://app?vid=0fb0df74-35f9-48db-b1d6-58764a59d903"},"vehicle_type_id":"4","last_reported":1753038458,"current_range_meters":15200,"station_id":"ce4bhg12rcd13ifvqf80","pricing_plan_id":"cebpf4jnsgd1na2vs0mg"},{"bike_id":"5f6cb7dd-c406-446b-aab4-05895d56be0d","system_id":"levelo_inurba_marseille","lat":43.29587,"lon":5.38102,"is_reserved":false,"is_disabled":false,"rental_uris":{"android":"levelo://app?vid=5f6cb7dd-c406-446b-aab4-05895d56be0d","ios":"levelo://app?vid=5f6cb7dd-c406-446b-aab4-05895d56be0d"},"vehicle_type_id":"4","last_reported":1753038458,"current_range_meters":14800,"station_id":"ce4bgl12rcd13ifvqbo0","pricing_plan_id":"cebpf4jnsgd1na2vs0mg"},{"bike_id":"ad674045-c558-4b18-b761-f099f838d9a4","system_id":"levelo_inurba_marseille","lat":43.26803,"lon":5.40266,"is_reserved":false,"is_disabled":false,"rental_uris":{"android":"levelo://app?vid=ad674045-c558-4b18-b761-f099f838d9a4","ios":"levelo://app?vid=ad674045-c558-4b18-b761-f099f838d9a4"},"vehicle_type_id":"4","last_reported":1753038458,"current_range_meters":15200,"station_id":"ce501612rcd8frsf0b60","pricing_plan_id":"cebpf4jnsgd1na2vs0mg"},{"bike_id":"3484ae10-901c-4d4e-b004-1ca6c2a47c86","system_id":"levelo_inurba_marseille","lat":43.309503,"lon":5.390237,"is_reserved":false,"is_disabled":false,"rental_uris":{"android":"levelo://app?vid=3484ae10-901c-4d4e-b004-1ca6c2a47c86","ios":"levelo://app?vid=3484ae10-901c-4d4e-b004-1ca6c2a47c86"},"vehicle_type_id":"4","last_reported":1753038458,"current_range_meters":16000,"station_id":"ce4bgup2rcd13ifvqco0","pricing_plan_id":"cebpf4jnsgd1na2vs0mg"},{"bike_id":"341eec4e-ddcf-4f75-95c6-ecd84ef432ec","system_id":"levelo_inurba_marseille","lat":43.22937,"lon":5.35374,"is_reserved":false,"is_disabled":false,"rental_uris":{"android":"levelo://app?vid=341eec4e-ddcf-4f75-95c6-ecd84ef432ec","ios":"levelo://app?vid=341eec4e-ddcf-4f75-95c6-ecd84ef432ec"},"vehicle_type_id":"4","last_reported":1753038458,"current_range_meters":16000,"station_id":"cpo3532slgdg3j2ikp40","pricing_plan_id":"cebpf4jnsgd1na2vs0mg"},{"bike_id":"f623a653-26f7-4060-be0b-830f7472fa69","system_id":"levelo_inurba_marseille","lat":43.295311,"lon":5.385429,"is_reserved":false,"is_disabled":false,"rental_uris":{"android":"levelo://app?vid=f623a653-26f7-4060-be0b-830f7472fa69","ios":"levelo://app?vid=f623a653-26f7-4060-be0b-830f7472fa69"},"vehicle_type_id":"4","last_reported":1753038458,"current_range_meters":16000,"station_id":"ce4bgih2rcd13ifvqba0","pricing_plan_id":"cebpf4jnsgd1na2vs0mg"},{"bike_id":"4c8283f7-9214-4f90-b93f-b371d5ff3abb","system_id":"levelo_inurba_marseille","lat":43.2119,"lon":5.35071,"is_reserved":false,"is_disabled":false,"rental_uris":{"android":"levelo://app?vid=4c8283f7-9214-4f90-b93f-b371d5ff3abb","ios":"levelo://app?vid=4c8283f7-9214-4f90-b93f-b371d5ff3abb"},"vehicle_type_id":"4","last_reported":1753038458,"current_range_meters":16000,"station_id":"st_cvj6sg6p6f1abm77japg","pricing_plan_id":"cebpf4jnsgd1na2vs0mg"},{"bike_id":"0ffd3c7b-1067-403b-97b9-abb83be40727","system_id":"levelo_inurba_marseille","lat":43.29447,"lon":5.39752,"is_reserved":false,"is_disabled":false,"rental_uris":{"android":"levelo://app?vid=0ffd3c7b-1067-403b-97b9-abb83be40727","ios":"levelo://app?vid=0ffd3c7b-1067-403b-97b9-abb83be40727"},"vehicle_type_id":"4","last_reported":1753038458,"current_range_meters":16000,"station_id":"ce4bh3h2rcd13ifvqdo0","pricing_plan_id":"cebpf4jnsgd1na2vs0mg"},{"bike_id":"53cb4f43-b1af-4efe-9f40-e0338804f4d4","system_id":"levelo_inurba_marseille","lat":43.31288,"lon":5.390175,"is_reserved":false,"is_disabled":false,"rental_uris":{"android":"levelo://app?vid=53cb4f43-b1af-4efe-9f40-e0338804f4d4","ios":"levelo://app?vid=53cb4f43-b1af-4efe-9f40-e0338804f4d4"},"vehicle_type_id":"4","last_reported":1753038458,"current_range_meters":16000,"station_id":"","pricing_plan_id":"cebpf4jnsgd1na2vs0mg"},{"bike_id":"07cdfafc-f31d-475e-b196-66c066928703","system_id":"levelo_inurba_marseille","lat":43.25578,"lon":5.38217,"is_reserved":false,"is_disabled":false,"rental_uris":{"android":"levelo://app?vid=07cdfafc-f31d-475e-b196-66c066928703","ios":"levelo://app?vid=07cdfafc-f31d-475e-b196-66c066928703"},"vehicle_type_id":"4","last_reported":1753038458,"current_range_meters":16000,"station_id":"ce4bhih2rcd13ifvqfs0","pricing_plan_id":"cebpf4jnsgd1na2vs0mg"},{"bike_id":"38b9a480-3be9-4648-9d75-b6780b0842f6","system_id":"levelo_inurba_marseille","lat":43.24079,"lon":5.37751,"is_reserved":false,"is_disabled":false,"rental_uris":{"android":"levelo://app?vid=38b9a480-3be9-4648-9d75-b6780b0842f6","ios":"levelo://app?vid=38b9a480-3be9-4648-9d75-b6780b0842f6"},"vehicle_type_id":"4","last_reported":1753038458,"current_range_meters":16000,"station_id":"ce4bhnp2rcd13ifvqgvg","pricing_plan_id":"cebpf4jnsgd1na2vs0mg"},{"bike_id":"dc2f79d4-9ff2-4e7a-8956-a7c2db6bd99b","system_id":"levelo_inurba_marseille","lat":43.31172,"lon":5.38724,"is_reserved":false,"is_disabled":false,"rental_uris":{"android":"levelo://app?vid=dc2f79d4-9ff2-4e7a-8956-a7c2db6bd99b","ios":"levelo://app?vid=dc2f79d4-9ff2-4e7a-8956-a7c2db6bd99b"},"vehicle_type_id":"4","last_reported":1753038458,"current_range_meters":15200,"station_id":"ce4bgv12rcd13ifvqcp0","pricing_plan_id":"cebpf4jnsgd1na2vs0mg"},{"bike_id":"ba9815c4-5695-4fc1-a95a-7701dcba1dc3","system_id":"levelo_inurba_marseille","lat":43.311784,"lon":5.387144,"is_reserved":false,"is_disabled":false,"rental_uris":{"android":"levelo://app?vid=ba9815c4-5695-4fc1-a95a-7701dcba1dc3","ios":"levelo://app?vid=ba9815c4-5695-4fc1-a95a-7701dcba1dc3"},"vehicle_type_id":"4","last_reported":1753038458,"current_range_meters":16000,"station_id":"ce4bgv12rcd13ifvqcp0","pricing_plan_id":"cebpf4jnsgd1na2vs0mg"},{"bike_id":"7230cb4d-8cd2-4957-9d99-c27265ab6ce1","system_id":"levelo_inurba_marseille","lat":43.29299,"lon":5.37168,"is_reserved":false,"is_disabled":false,"rental_uris":{"android":"levelo://app?vid=7230cb4d-8cd2-4957-9d99-c27265ab6ce1","ios":"levelo://app?vid=7230cb4d-8cd2-4957-9d99-c27265ab6ce1"},"vehicle_type_id":"4","last_reported":1753038458,"current_range_meters":16000,"station_id":"","pricing_plan_id":"cebpf4jnsgd1na2vs0mg"},{"bike_id":"38188964-4978-44c1-8278-3d99d01337ed","system_id":"levelo_inurba_marseille","lat":43.292917,"lon":5.383424,"is_reserved":false,"is_disabled":false,"rental_uris":{"android":"levelo://app?vid=38188964-4978-44c1-8278-3d99d01337ed","ios":"levelo://app?vid=38188964-4978-44c1-8278-3d99d01337ed"},"vehicle_type_id":"4","last_reported":1753038458,"current_range_meters":16000,"station_id":"","pricing_plan_id":"cebpf4jnsgd1na2vs0mg"},{"bike_id":"4e5823ac-9313-4e20-81da-720a18c2dac7","system_id":"levelo_inurba_marseille","lat":43.321113,"lon":5.3677,"is_reserved":false,"is_disabled":false,"rental_uris":{"android":"levelo://app?vid=4e5823ac-9313-4e20-81da-720a18c2dac7","ios":"levelo://app?vid=4e5823ac-9313-4e20-81da-720a18c2dac7"},"vehicle_type_id":"4","last_reported":1753038458,"current_range_meters":16000,"station_id":"ce4bhrh2rcd13ifvqhug","pricing_plan_id":"cebpf4jnsgd1na2vs0mg"},{"bike_id":"37d8cb1b-1988-4390-9e4c-4eca73c82c19","system_id":"levelo_inurba_marseille","lat":43.26192,"lon":5.37448,"is_reserved":false,"is_disabled":true,"rental_uris":{"android":"levelo://app?vid=37d8cb1b-1988-4390-9e4c-4eca73c82c19","ios":"levelo://app?vid=37d8cb1b-1988-4390-9e4c-4eca73c82c19"},"vehicle_type_id":"4","last_reported":1753038458,"current_range_meters":16000,"station_id":"ce4bhgp2rcd13ifvqfc0","pricing_plan_id":"cebpf4jnsgd1na2vs0mg"},{"bike_id":"63b0b856-af33-4970-b22e-c07117f2395e","system_id":"levelo_inurba_marseille","lat":43.212,"lon":5.35083,"is_reserved":false,"is_disabled":false,"rental_uris":{"android":"levelo://app?vid=63b0b856-af33-4970-b22e-c07117f2395e","ios":"levelo://app?vid=63b0b856-af33-4970-b22e-c07117f2395e"},"vehicle_type_id":"4","last_reported":1753038458,"current_range_meters":16000,"station_id":"st_cvj6sg6p6f1abm77japg","pricing_plan_id":"cebpf4jnsgd1na2vs0mg"},{"bike_id":"03772b11-05f4-48cd-b352-479340b3f53c","system_id":"levelo_inurba_marseille","lat":43.28468,"lon":5.38414,"is_reserved":false,"is_disabled":true,"rental_uris":{"android":"levelo://app?vid=03772b11-05f4-48cd-b352-479340b3f53c","ios":"levelo://app?vid=03772b11-05f4-48cd-b352-479340b3f53c"},"vehicle_type_id":"4","last_reported":1753038458,"current_range_meters":16000,"station_id":"ce4bh512rcd13ifvqe3g","pricing_plan_id":"cebpf4jnsgd1na2vs0mg"},{"bike_id":"42752829-3ee2-4e84-849d-429017304915","system_id":"levelo_inurba_marseille","lat":43.28453,"lon":5.35853,"is_reserved":false,"is_disabled":true,"rental_uris":{"android":"levelo://app?vid=42752829-3ee2-4e84-849d-429017304915","ios":"levelo://app?vid=42752829-3ee2-4e84-849d-429017304915"},"vehicle_type_id":"4","last_reported":1753038458,"current_range_meters":16000,"station_id":"ce4bhah2rcd13ifvqei0","pricing_plan_id":"cebpf4jnsgd1na2vs0mg"},{"bike_id":"3a0ad0b3-730c-4b6f-afc8-d25401cb7d69","system_id":"levelo_inurba_marseille","lat":43.24674,"lon":5.3816,"is_reserved":false,"is_disabled":false,"rental_uris":{"android":"levelo://app?vid=3a0ad0b3-730c-4b6f-afc8-d25401cb7d69","ios":"levelo://app?vid=3a0ad0b3-730c-4b6f-afc8-d25401cb7d69"},"vehicle_type_id":"4","last_reported":1753038458,"current_range_meters":16000,"station_id":"ce4bhih2rcd13ifvqfr0","pricing_plan_id":"cebpf4jnsgd1na2vs0mg"},{"bike_id":"4825f572-5606-4699-8c58-8ed13b8f359f","system_id":"levelo_inurba_marseille","lat":43.2417,"lon":5.36406,"is_reserved":false,"is_disabled":true,"rental_uris":{"android":"levelo://app?vid=4825f572-5606-4699-8c58-8ed13b8f359f","ios":"levelo://app?vid=4825f572-5606-4699-8c58-8ed13b8f359f"},"vehicle_type_id":"4","last_reported":1753038458,"current_range_meters":16400,"station_id":"cpo36qri1sfpv3e86is0","pricing_plan_id":"cebpf4jnsgd1na2vs0mg"},{"bike_id":"4355836e-ae99-4039-b85f-c4e239c9dca5","system_id":"levelo_inurba_marseille","lat":43.2989,"lon":5.43644,"is_reserved":false,"is_disabled":false,"rental_uris":{"android":"levelo://app?vid=4355836e-ae99-4039-b85f-c4e239c9dca5","ios":"levelo://app?vid=4355836e-ae99-4039-b85f-c4e239c9dca5"},"vehicle_type_id":"4","last_reported":1753038458,"current_range_meters":16400,"station_id":"ce4bhpp2rcd13ifvqhfg","pricing_plan_id":"cebpf4jnsgd1na2vs0mg"},{"bike_id":"6e9a1427-dc9c-43d9-92e2-3c03a7d4d52f","system_id":"levelo_inurba_marseille","lat":43.33142,"lon":5.3817,"is_reserved":false,"is_disabled":false,"rental_uris":{"android":"levelo://app?vid=6e9a1427-dc9c-43d9-92e2-3c03a7d4d52f","ios":"levelo://app?vid=6e9a1427-dc9c-43d9-92e2-3c03a7d4d52f"},"vehicle_type_id":"4","last_reported":1753038458,"current_range_meters":16400,"station_id":"","pricing_plan_id":"cebpf4jnsgd1na2vs0mg"},{"bike_id":"8c6eb2ef-2493-42b9-8725-60e34b12f468","system_id":"levelo_inurba_marseille","lat":43.28402,"lon":5.37517,"is_reserved":false,"is_disabled":false,"rental_uris":{"android":"levelo://app?vid=8c6eb2ef-2493-42b9-8725-60e34b12f468","ios":"levelo://app?vid=8c6eb2ef-2493-42b9-8725-60e34b12f468"},"vehicle_type_id":"4","last_reported":1753038458,"current_range_meters":16000,"station_id":"ce4bh412rcd13ifvqds0","pricing_plan_id":"cebpf4jnsgd1na2vs0mg"},{"bike_id":"f3f581c3-7fd6-46b6-b25c-df950de01306","system_id":"levelo_inurba_marseille","lat":43.2872,"lon":5.40016,"is_reserved":false,"is_disabled":true,"rental_uris":{"android":"levelo://app?vid=f3f581c3-7fd6-46b6-b25c-df950de01306","ios":"levelo://app?vid=f3f581c3-7fd6-46b6-b25c-df950de01306"},"vehicle_type_id":"4","last_reported":1753038458,"current_range_meters":16400,"station_id":"ce4bho92rcd13ifvqh3g","pricing_plan_id":"cebpf4jnsgd1na2vs0mg"},{"bike_id":"0371eaaa-0466-4716-b5b0-badbc92b0a62","system_id":"levelo_inurba_marseille","lat":43.29367,"lon":5.37852,"is_reserved":false,"is_disabled":false,"rental_uris":{"android":"levelo://app?vid=0371eaaa-0466-4716-b5b0-badbc92b0a62","ios":"levelo://app?vid=0371eaaa-0466-4716-b5b0-badbc92b0a62"},"vehicle_type_id":"4","last_reported":1753038458,"current_range_meters":16400,"station_id":"ce4bgjh2rcd13ifvqbf0","pricing_plan_id":"cebpf4jnsgd1na2vs0mg"},{"bike_id":"8979afbb-d831-492b-8bd1-2b5d774796f7","system_id":"levelo_inurba_marseille","lat":43.27065,"lon":5.42267,"is_reserved":false,"is_disabled":false,"rental_uris":{"android":"levelo://app?vid=8979afbb-d831-492b-8bd1-2b5d774796f7","ios":"levelo://app?vid=8979afbb-d831-492b-8bd1-2b5d774796f7"},"vehicle_type_id":"4","last_reported":1753038458,"current_range_meters":16400,"station_id":"ce4bhk92rcd13ifvqgb0","pricing_plan_id":"cebpf4jnsgd1na2vs0mg"},{"bike_id":"4c40b2af-d959-403d-a695-e22d3976eddc","system_id":"levelo_inurba_marseille","lat":43.273697,"lon":5.362559,"is_reserved":false,"is_disabled":false,"rental_uris":{"android":"levelo://app?vid=4c40b2af-d959-403d-a695-e22d3976eddc","ios":"levelo://app?vid=4c40b2af-d959-403d-a695-e22d3976eddc"},"vehicle_type_id":"4","last_reported":1753038458,"current_range_meters":16400,"station_id":"ce4bhbh2rcd13ifvqeo0","pricing_plan_id":"cebpf4jnsgd1na2vs0mg"},{"bike_id":"be986fb3-fc53-417d-ab1b-065a992fbe78","system_id":"levelo_inurba_marseille","lat":43.270747,"lon":5.422829,"is_reserved":false,"is_disabled":false,"rental_uris":{"android":"levelo://app?vid=be986fb3-fc53-417d-ab1b-065a992fbe78","ios":"levelo://app?vid=be986fb3-fc53-417d-ab1b-065a992fbe78"},"vehicle_type_id":"4","last_reported":1753038458,"current_range_meters":16400,"station_id":"ce4bhk92rcd13ifvqgb0","pricing_plan_id":"cebpf4jnsgd1na2vs0mg"},{"bike_id":"45f484f7-f884-4bb2-b999-0e689bd9e672","system_id":"levelo_inurba_marseille","lat":43.273809,"lon":5.362528,"is_reserved":false,"is_disabled":false,"rental_uris":{"android":"levelo://app?vid=45f484f7-f884-4bb2-b999-0e689bd9e672","ios":"levelo://app?vid=45f484f7-f884-4bb2-b999-0e689bd9e672"},"vehicle_type_id":"4","last_reported":1753038458,"current_range_meters":16400,"station_id":"ce4bhbh2rcd13ifvqeo0","pricing_plan_id":"cebpf4jnsgd1na2vs0mg"},{"bike_id":"4797b53c-861e-41c8-8ae5-ad2306261fb8","system_id":"levelo_inurba_marseille","lat":43.29507,"lon":5.3751,"is_reserved":false,"is_disabled":false,"rental_uris":{"android":"levelo://app?vid=4797b53c-861e-41c8-8ae5-ad2306261fb8","ios":"levelo://app?vid=4797b53c-861e-41c8-8ae5-ad2306261fb8"},"vehicle_type_id":"4","last_reported":1753038458,"current_range_meters":16400,"station_id":"ce4bgkp2rcd13ifvqbmg","pricing_plan_id":"cebpf4jnsgd1na2vs0mg"},{"bike_id":"850c3be7-ab5c-4785-93f3-f6b9726cb79f","system_id":"levelo_inurba_marseille","lat":43.29677,"lon":5.37296,"is_reserved":false,"is_disabled":false,"rental_uris":{"android":"levelo://app?vid=850c3be7-ab5c-4785-93f3-f6b9726cb79f","ios":"levelo://app?vid=850c3be7-ab5c-4785-93f3-f6b9726cb79f"},"vehicle_type_id":"4","last_reported":1753038458,"current_range_meters":16400,"station_id":"ce4bgk12rcd13ifvqbj0","pricing_plan_id":"cebpf4jnsgd1na2vs0mg"},{"bike_id":"6a6b2ff3-cee3-4205-bb5e-82a0645ef825","system_id":"levelo_inurba_marseille","lat":43.29879,"lon":5.39716,"is_reserved":false,"is_disabled":false,"rental_uris":{"android":"levelo://app?vid=6a6b2ff3-cee3-4205-bb5e-82a0645ef825","ios":"levelo://app?vid=6a6b2ff3-cee3-4205-bb5e-82a0645ef825"},"vehicle_type_id":"4","last_reported":1753038458,"current_range_meters":16800,"station_id":"ce4bh0h2rcd13ifvqd50","pricing_plan_id":"cebpf4jnsgd1na2vs0mg"},{"bike_id":"01ef6f38-0cb9-4831-9c9a-0f76f326e484","system_id":"levelo_inurba_marseille","lat":43.290054,"lon":5.356121,"is_reserved":false,"is_disabled":true,"rental_uris":{"android":"levelo://app?vid=01ef6f38-0cb9-4831-9c9a-0f76f326e484","ios":"levelo://app?vid=01ef6f38-0cb9-4831-9c9a-0f76f326e484"},"vehicle_type_id":"4","last_reported":1753038458,"current_range_meters":16800,"station_id":"ce4bhb92rcd13ifvqen0","pricing_plan_id":"cebpf4jnsgd1na2vs0mg"},{"bike_id":"3d36c590-bfb3-4f3d-a821-3b0275041fa7","system_id":"levelo_inurba_marseille","lat":43.30426,"lon":5.41229,"is_reserved":false,"is_disabled":false,"rental_uris":{"android":"levelo://app?vid=3d36c590-bfb3-4f3d-a821-3b0275041fa7","ios":"levelo://app?vid=3d36c590-bfb3-4f3d-a821-3b0275041fa7"},"vehicle_type_id":"4","last_reported":1753038458,"current_range_meters":16800,"station_id":"","pricing_plan_id":"cebpf4jnsgd1na2vs0mg"},{"bike_id":"dbdb1cb6-deab-4cf3-be81-aae4753dd0bd","system_id":"levelo_inurba_marseille","lat":43.225067,"lon":5.347819,"is_reserved":false,"is_disabled":false,"rental_uris":{"android":"levelo://app?vid=dbdb1cb6-deab-4cf3-be81-aae4753dd0bd","ios":"levelo://app?vid=dbdb1cb6-deab-4cf3-be81-aae4753dd0bd"},"vehicle_type_id":"4","last_reported":1753038458,"current_range_meters":16800,"station_id":"st_cvj5dfep6f1abm77gieg","pricing_plan_id":"cebpf4jnsgd1na2vs0mg"},{"bike_id":"d2a9ef2a-3ecf-454e-ac8d-c81b3a196753","system_id":"levelo_inurba_marseille","lat":43.28623,"lon":5.3822,"is_reserved":false,"is_disabled":false,"rental_uris":{"android":"levelo://app?vid=d2a9ef2a-3ecf-454e-ac8d-c81b3a196753","ios":"levelo://app?vid=d2a9ef2a-3ecf-454e-ac8d-c81b3a196753"},"vehicle_type_id":"4","last_reported":1753038458,"current_range_meters":16800,"station_id":"","pricing_plan_id":"cebpf4jnsgd1na2vs0mg"},{"bike_id":"841226dc-d800-4af0-adb4-d3fc7c7cf8e8","system_id":"levelo_inurba_marseille","lat":43.29552,"lon":5.42298,"is_reserved":false,"is_disabled":true,"rental_uris":{"android":"levelo://app?vid=841226dc-d800-4af0-adb4-d3fc7c7cf8e8","ios":"levelo://app?vid=841226dc-d800-4af0-adb4-d3fc7c7cf8e8"},"vehicle_type_id":"4","last_reported":1753038458,"current_range_meters":16800,"station_id":"ce4bhph2rcd13ifvqhdg","pricing_plan_id":"cebpf4jnsgd1na2vs0mg"},{"bike_id":"1705f469-72b3-4b6b-a3ab-684dfcba22ca","system_id":"levelo_inurba_marseille","lat":43.26573,"lon":5.39009,"is_reserved":false,"is_disabled":true,"rental_uris":{"android":"levelo://app?vid=1705f469-72b3-4b6b-a3ab-684dfcba22ca","ios":"levelo://app?vid=1705f469-72b3-4b6b-a3ab-684dfcba22ca"},"vehicle_type_id":"4","last_reported":1753038458,"current_range_meters":16800,"station_id":"ce4bhe12rcd13ifvqf30","pricing_plan_id":"cebpf4jnsgd1na2vs0mg"},{"bike_id":"43e703c6-9907-49a0-ac06-2809026f4383","system_id":"levelo_inurba_marseille","lat":43.22499,"lon":5.34777,"is_reserved":false,"is_disabled":false,"rental_uris":{"android":"levelo://app?vid=43e703c6-9907-49a0-ac06-2809026f4383","ios":"levelo://app?vid=43e703c6-9907-49a0-ac06-2809026f4383"},"vehicle_type_id":"4","last_reported":1753038458,"current_range_meters":16800,"station_id":"st_cvj5dfep6f1abm77gieg","pricing_plan_id":"cebpf4jnsgd1na2vs0mg"},{"bike_id":"d293dfff-03f9-4cd5-b7d5-cd21a5b6f4de","system_id":"levelo_inurba_marseille","lat":43.30952,"lon":5.39037,"is_reserved":false,"is_disabled":false,"rental_uris":{"android":"levelo://app?vid=d293dfff-03f9-4cd5-b7d5-cd21a5b6f4de","ios":"levelo://app?vid=d293dfff-03f9-4cd5-b7d5-cd21a5b6f4de"},"vehicle_type_id":"4","last_reported":1753038458,"current_range_meters":17200,"station_id":"ce4bgup2rcd13ifvqco0","pricing_plan_id":"cebpf4jnsgd1na2vs0mg"},{"bike_id":"9122425b-c5cf-427e-9633-739726b096af","system_id":"levelo_inurba_marseille","lat":43.29422,"lon":5.386006,"is_reserved":false,"is_disabled":false,"rental_uris":{"android":"levelo://app?vid=9122425b-c5cf-427e-9633-739726b096af","ios":"levelo://app?vid=9122425b-c5cf-427e-9633-739726b096af"},"vehicle_type_id":"4","last_reported":1753038458,"current_range_meters":17200,"station_id":"ce4bho92rcd13ifvqh3g","pricing_plan_id":"cebpf4jnsgd1na2vs0mg"},{"bike_id":"52fc553f-1e8c-4701-a604-31e90c76b1d4","system_id":"levelo_inurba_marseille","lat":43.3149,"lon":5.37258,"is_reserved":false,"is_disabled":false,"rental_uris":{"android":"levelo://app?vid=52fc553f-1e8c-4701-a604-31e90c76b1d4","ios":"levelo://app?vid=52fc553f-1e8c-4701-a604-31e90c76b1d4"},"vehicle_type_id":"4","last_reported":1753038458,"current_range_meters":17200,"station_id":"ce4bgt12rcd13ifvqcd0","pricing_plan_id":"cebpf4jnsgd1na2vs0mg"},{"bike_id":"bed4303f-eaeb-480e-a542-e5ad252f5798","system_id":"levelo_inurba_marseille","lat":43.27371,"lon":5.36253,"is_reserved":false,"is_disabled":false,"rental_uris":{"android":"levelo://app?vid=bed4303f-eaeb-480e-a542-e5ad252f5798","ios":"levelo://app?vid=bed4303f-eaeb-480e-a542-e5ad252f5798"},"vehicle_type_id":"4","last_reported":1753038458,"current_range_meters":17200,"station_id":"ce4bhbh2rcd13ifvqeo0","pricing_plan_id":"cebpf4jnsgd1na2vs0mg"},{"bike_id":"4d3b0a03-d059-417b-91dd-9a483be69e9d","system_id":"levelo_inurba_marseille","lat":43.29785,"lon":5.3709,"is_reserved":false,"is_disabled":false,"rental_uris":{"android":"levelo://app?vid=4d3b0a03-d059-417b-91dd-9a483be69e9d","ios":"levelo://app?vid=4d3b0a03-d059-417b-91dd-9a483be69e9d"},"vehicle_type_id":"4","last_reported":1753038458,"current_range_meters":17200,"station_id":"ce4bgop2rcd13ifvqc1g","pricing_plan_id":"cebpf4jnsgd1na2vs0mg"},{"bike_id":"7f36bae9-f635-4459-ae82-7f1900343f71","system_id":"levelo_inurba_marseille","lat":43.29963,"lon":5.3718,"is_reserved":false,"is_disabled":false,"rental_uris":{"android":"levelo://app?vid=7f36bae9-f635-4459-ae82-7f1900343f71","ios":"levelo://app?vid=7f36bae9-f635-4459-ae82-7f1900343f71"},"vehicle_type_id":"4","last_reported":1753038458,"current_range_meters":17200,"station_id":"ce4bgr92rcd13ifvqc7g","pricing_plan_id":"cebpf4jnsgd1na2vs0mg"},{"bike_id":"135dcd67-832f-4c1b-8613-cc8efe17c874","system_id":"levelo_inurba_marseille","lat":43.23183,"lon":5.39986,"is_reserved":false,"is_disabled":false,"rental_uris":{"android":"levelo://app?vid=135dcd67-832f-4c1b-8613-cc8efe17c874","ios":"levelo://app?vid=135dcd67-832f-4c1b-8613-cc8efe17c874"},"vehicle_type_id":"4","last_reported":1753038458,"current_range_meters":16800,"station_id":"ce4bhn12rcd13ifvqgqg","pricing_plan_id":"cebpf4jnsgd1na2vs0mg"},{"bike_id":"787a3890-afb8-4675-acb6-69dc65ef815a","system_id":"levelo_inurba_marseille","lat":43.25007,"lon":5.38919,"is_reserved":false,"is_disabled":false,"rental_uris":{"android":"levelo://app?vid=787a3890-afb8-4675-acb6-69dc65ef815a","ios":"levelo://app?vid=787a3890-afb8-4675-acb6-69dc65ef815a"},"vehicle_type_id":"4","last_reported":1753038458,"current_range_meters":16800,"station_id":"ce4bhgp2rcd13ifvqfd0","pricing_plan_id":"cebpf4jnsgd1na2vs0mg"},{"bike_id":"a500829a-0327-4b9e-908c-a1a350c1ed23","system_id":"levelo_inurba_marseille","lat":43.29269,"lon":5.38443,"is_reserved":false,"is_disabled":false,"rental_uris":{"android":"levelo://app?vid=a500829a-0327-4b9e-908c-a1a350c1ed23","ios":"levelo://app?vid=a500829a-0327-4b9e-908c-a1a350c1ed23"},"vehicle_type_id":"4","last_reported":1753038458,"current_range_meters":17200,"station_id":"ce4bh692rcd13ifvqea0","pricing_plan_id":"cebpf4jnsgd1na2vs0mg"},{"bike_id":"f0ca9a61-7475-48b2-9965-fc450f523d05","system_id":"levelo_inurba_marseille","lat":43.32333,"lon":5.40624,"is_reserved":false,"is_disabled":false,"rental_uris":{"android":"levelo://app?vid=f0ca9a61-7475-48b2-9965-fc450f523d05","ios":"levelo://app?vid=f0ca9a61-7475-48b2-9965-fc450f523d05"},"vehicle_type_id":"4","last_reported":1753038458,"current_range_meters":17200,"station_id":"ce4bhq92rcd13ifvqhjg","pricing_plan_id":"cebpf4jnsgd1na2vs0mg"},{"bike_id":"730b33a7-fc15-4896-9d82-e3ffc8e37908","system_id":"levelo_inurba_marseille","lat":43.22505,"lon":5.34769,"is_reserved":false,"is_disabled":false,"rental_uris":{"android":"levelo://app?vid=730b33a7-fc15-4896-9d82-e3ffc8e37908","ios":"levelo://app?vid=730b33a7-fc15-4896-9d82-e3ffc8e37908"},"vehicle_type_id":"4","last_reported":1753038458,"current_range_meters":17600,"station_id":"st_cvj5dfep6f1abm77gieg","pricing_plan_id":"cebpf4jnsgd1na2vs0mg"},{"bike_id":"c6f13c59-2793-4a1e-87aa-6f0d71252623","system_id":"levelo_inurba_marseille","lat":43.29913,"lon":5.43632,"is_reserved":false,"is_disabled":false,"rental_uris":{"android":"levelo://app?vid=c6f13c59-2793-4a1e-87aa-6f0d71252623","ios":"levelo://app?vid=c6f13c59-2793-4a1e-87aa-6f0d71252623"},"vehicle_type_id":"4","last_reported":1753038458,"current_range_meters":17600,"station_id":"ce4bhpp2rcd13ifvqhfg","pricing_plan_id":"cebpf4jnsgd1na2vs0mg"},{"bike_id":"bb1cd7a1-464c-4c8c-b894-6306d52075e4","system_id":"levelo_inurba_marseille","lat":43.3099,"lon":5.3859,"is_reserved":false,"is_disabled":false,"rental_uris":{"android":"levelo://app?vid=bb1cd7a1-464c-4c8c-b894-6306d52075e4","ios":"levelo://app?vid=bb1cd7a1-464c-4c8c-b894-6306d52075e4"},"vehicle_type_id":"4","last_reported":1753038458,"current_range_meters":17600,"station_id":"","pricing_plan_id":"cebpf4jnsgd1na2vs0mg"},{"bike_id":"d2de94d4-e1d9-4df2-81f3-4cc2123ddefc","system_id":"levelo_inurba_marseille","lat":43.28707,"lon":5.37934,"is_reserved":false,"is_disabled":false,"rental_uris":{"android":"levelo://app?vid=d2de94d4-e1d9-4df2-81f3-4cc2123ddefc","ios":"levelo://app?vid=d2de94d4-e1d9-4df2-81f3-4cc2123ddefc"},"vehicle_type_id":"4","last_reported":1753038458,"current_range_meters":17600,"station_id":"ce4bh9p2rcd13ifvqec0","pricing_plan_id":"cebpf4jnsgd1na2vs0mg"},{"bike_id":"736c363b-3641-43dd-b890-bd43d8fd5283","system_id":"levelo_inurba_marseille","lat":43.21188,"lon":5.35072,"is_reserved":false,"is_disabled":false,"rental_uris":{"android":"levelo://app?vid=736c363b-3641-43dd-b890-bd43d8fd5283","ios":"levelo://app?vid=736c363b-3641-43dd-b890-bd43d8fd5283"},"vehicle_type_id":"4","last_reported":1753038458,"current_range_meters":17600,"station_id":"st_cvj6sg6p6f1abm77japg","pricing_plan_id":"cebpf4jnsgd1na2vs0mg"},{"bike_id":"9806d8d8-8fe6-44a9-953b-982f15d31d63","system_id":"levelo_inurba_marseille","lat":43.30947,"lon":5.39035,"is_reserved":false,"is_disabled":false,"rental_uris":{"android":"levelo://app?vid=9806d8d8-8fe6-44a9-953b-982f15d31d63","ios":"levelo://app?vid=9806d8d8-8fe6-44a9-953b-982f15d31d63"},"vehicle_type_id":"4","last_reported":1753038458,"current_range_meters":17600,"station_id":"ce4bgup2rcd13ifvqco0","pricing_plan_id":"cebpf4jnsgd1na2vs0mg"},{"bike_id":"1c37a6c0-7fed-49e2-8fd4-2d775c26b7b0","system_id":"levelo_inurba_marseille","lat":43.231945,"lon":5.355325,"is_reserved":false,"is_disabled":false,"rental_uris":{"android":"levelo://app?vid=1c37a6c0-7fed-49e2-8fd4-2d775c26b7b0","ios":"levelo://app?vid=1c37a6c0-7fed-49e2-8fd4-2d775c26b7b0"},"vehicle_type_id":"4","last_reported":1753038458,"current_range_meters":17600,"station_id":"ce4bhu92rcd13ifvqi70","pricing_plan_id":"cebpf4jnsgd1na2vs0mg"},{"bike_id":"474ac65d-bd8b-4629-a217-92eff3842408","system_id":"levelo_inurba_marseille","lat":43.29378,"lon":5.37843,"is_reserved":false,"is_disabled":true,"rental_uris":{"android":"levelo://app?vid=474ac65d-bd8b-4629-a217-92eff3842408","ios":"levelo://app?vid=474ac65d-bd8b-4629-a217-92eff3842408"},"vehicle_type_id":"4","last_reported":1753038458,"current_range_meters":17600,"station_id":"ce4bgjh2rcd13ifvqbf0","pricing_plan_id":"cebpf4jnsgd1na2vs0mg"},{"bike_id":"ba8e384e-d6ab-4488-8163-58521a7b44f4","system_id":"levelo_inurba_marseille","lat":43.29849,"lon":5.36282,"is_reserved":false,"is_disabled":false,"rental_uris":{"android":"levelo://app?vid=ba8e384e-d6ab-4488-8163-58521a7b44f4","ios":"levelo://app?vid=ba8e384e-d6ab-4488-8163-58521a7b44f4"},"vehicle_type_id":"4","last_reported":1753038458,"current_range_meters":17600,"station_id":"ce4bgpp2rcd13ifvqc3g","pricing_plan_id":"cebpf4jnsgd1na2vs0mg"},{"bike_id":"bd17c5e2-df8a-4e58-83d8-5143938829aa","system_id":"levelo_inurba_marseille","lat":43.29788,"lon":5.37108,"is_reserved":false,"is_disabled":false,"rental_uris":{"android":"levelo://app?vid=bd17c5e2-df8a-4e58-83d8-5143938829aa","ios":"levelo://app?vid=bd17c5e2-df8a-4e58-83d8-5143938829aa"},"vehicle_type_id":"4","last_reported":1753038458,"current_range_meters":17600,"station_id":"ce4bgop2rcd13ifvqc1g","pricing_plan_id":"cebpf4jnsgd1na2vs0mg"},{"bike_id":"d100812f-9e77-4b3a-a11b-18211b570584","system_id":"levelo_inurba_marseille","lat":43.32433,"lon":5.36616,"is_reserved":false,"is_disabled":false,"rental_uris":{"android":"levelo://app?vid=d100812f-9e77-4b3a-a11b-18211b570584","ios":"levelo://app?vid=d100812f-9e77-4b3a-a11b-18211b570584"},"vehicle_type_id":"4","last_reported":1753038458,"current_range_meters":17600,"station_id":"","pricing_plan_id":"cebpf4jnsgd1na2vs0mg"},{"bike_id":"311c76cd-f13c-47e5-90ab-1faf25cf3458","system_id":"levelo_inurba_marseille","lat":43.301452,"lon":5.37374,"is_reserved":false,"is_disabled":false,"rental_uris":{"android":"levelo://app?vid=311c76cd-f13c-47e5-90ab-1faf25cf3458","ios":"levelo://app?vid=311c76cd-f13c-47e5-90ab-1faf25cf3458"},"vehicle_type_id":"4","last_reported":1753038458,"current_range_meters":17600,"station_id":"ce4bgs92rcd13ifvqcc0","pricing_plan_id":"cebpf4jnsgd1na2vs0mg"},{"bike_id":"3527e5ec-8e88-4544-ab6a-55654224d928","system_id":"levelo_inurba_marseille","lat":43.23067,"lon":5.35451,"is_reserved":false,"is_disabled":false,"rental_uris":{"android":"levelo://app?vid=3527e5ec-8e88-4544-ab6a-55654224d928","ios":"levelo://app?vid=3527e5ec-8e88-4544-ab6a-55654224d928"},"vehicle_type_id":"4","last_reported":1753038458,"current_range_meters":17600,"station_id":"cpo3342slgdg3j2ifvpg","pricing_plan_id":"cebpf4jnsgd1na2vs0mg"},{"bike_id":"b60a91bd-616d-43f1-8577-6addec7b47b1","system_id":"levelo_inurba_marseille","lat":43.25815,"lon":5.39443,"is_reserved":false,"is_disabled":false,"rental_uris":{"android":"levelo://app?vid=b60a91bd-616d-43f1-8577-6addec7b47b1","ios":"levelo://app?vid=b60a91bd-616d-43f1-8577-6addec7b47b1"},"vehicle_type_id":"4","last_reported":1753038458,"current_range_meters":17600,"station_id":"ce4bhip2rcd13ifvqft0","pricing_plan_id":"cebpf4jnsgd1na2vs0mg"},{"bike_id":"c47c4612-aa9a-40e0-9a78-5da247b20688","system_id":"levelo_inurba_marseille","lat":43.22505,"lon":5.34779,"is_reserved":false,"is_disabled":false,"rental_uris":{"android":"levelo://app?vid=c47c4612-aa9a-40e0-9a78-5da247b20688","ios":"levelo://app?vid=c47c4612-aa9a-40e0-9a78-5da247b20688"},"vehicle_type_id":"4","last_reported":1753038458,"current_range_meters":17600,"station_id":"st_cvj5dfep6f1abm77gieg","pricing_plan_id":"cebpf4jnsgd1na2vs0mg"},{"bike_id":"1bff2a07-f5ea-43a5-9113-6ab29a6a6cf8","system_id":"levelo_inurba_marseille","lat":43.31281,"lon":5.40163,"is_reserved":false,"is_disabled":false,"rental_uris":{"android":"levelo://app?vid=1bff2a07-f5ea-43a5-9113-6ab29a6a6cf8","ios":"levelo://app?vid=1bff2a07-f5ea-43a5-9113-6ab29a6a6cf8"},"vehicle_type_id":"4","last_reported":1753038458,"current_range_meters":18000,"station_id":"ce4bh092rcd13ifvqd30","pricing_plan_id":"cebpf4jnsgd1na2vs0mg"},{"bike_id":"ff5bba57-6d14-4f97-bab2-4d71c3e63161","system_id":"levelo_inurba_marseille","lat":43.21194,"lon":5.35071,"is_reserved":false,"is_disabled":false,"rental_uris":{"android":"levelo://app?vid=ff5bba57-6d14-4f97-bab2-4d71c3e63161","ios":"levelo://app?vid=ff5bba57-6d14-4f97-bab2-4d71c3e63161"},"vehicle_type_id":"4","last_reported":1753038458,"current_range_meters":18000,"station_id":"st_cvj6sg6p6f1abm77japg","pricing_plan_id":"cebpf4jnsgd1na2vs0mg"},{"bike_id":"201bb768-1802-4639-8866-4793794de5c0","system_id":"levelo_inurba_marseille","lat":43.31991,"lon":5.38166,"is_reserved":false,"is_disabled":false,"rental_uris":{"android":"levelo://app?vid=201bb768-1802-4639-8866-4793794de5c0","ios":"levelo://app?vid=201bb768-1802-4639-8866-4793794de5c0"},"vehicle_type_id":"4","last_reported":1753038458,"current_range_meters":18800,"station_id":"ce4bhr12rcd13ifvqhpg","pricing_plan_id":"cebpf4jnsgd1na2vs0mg"},{"bike_id":"5c7cfd38-807b-4bef-9c5d-c2f0c95ce8df","system_id":"levelo_inurba_marseille","lat":43.23063,"lon":5.35484,"is_reserved":false,"is_disabled":false,"rental_uris":{"android":"levelo://app?vid=5c7cfd38-807b-4bef-9c5d-c2f0c95ce8df","ios":"levelo://app?vid=5c7cfd38-807b-4bef-9c5d-c2f0c95ce8df"},"vehicle_type_id":"4","last_reported":1753038458,"current_range_meters":18000,"station_id":"cpo3342slgdg3j2ifvpg","pricing_plan_id":"cebpf4jnsgd1na2vs0mg"},{"bike_id":"b456876d-88a5-419f-91d5-7ff0369393e2","system_id":"levelo_inurba_marseille","lat":43.22506,"lon":5.34774,"is_reserved":false,"is_disabled":false,"rental_uris":{"android":"levelo://app?vid=b456876d-88a5-419f-91d5-7ff0369393e2","ios":"levelo://app?vid=b456876d-88a5-419f-91d5-7ff0369393e2"},"vehicle_type_id":"4","last_reported":1753038458,"current_range_meters":18000,"station_id":"st_cvj5dfep6f1abm77gieg","pricing_plan_id":"cebpf4jnsgd1na2vs0mg"},