{"last_updated":1744110488,"ttl":60,"version":"2.2","data":{"bikes":[{"bike_id":"b36be9d4-8e1d-416b-b82c-593a246a17e5","system_id":"levelo_inurba_marseille","lat":43.28717,"lon":5.37931,"is_reserved":false,"is_disabled":false,"rental_uris":{"android":"levelo://app?vid=b36be9d4-8e1d-416b-b82c-593a246a17e5","ios":"levelo://app?vid=b36be9d4-8e1d-416b-b82c-593a246a17e5"},"vehicle_type_id":"4","last_reported":1744110488,"current_range_meters":2800,"station_id":"ce4bh9p2rcd13ifvqec0","pricing_plan_id":"cebpf4jnsgd1na2vs0mg"},{"bike_id":"e89b5c3a-b4c2-454e-8d42-f553a67bb2fd","system_id":"levelo_inurba_marseille","lat":43.27954,"lon":5.41044,"is_reserved":false,"is_disabled":false,"rental_uris":{"android":"levelo://app?vid=e89b5c3a-b4c2-454e-8d42-f553a67bb2fd","ios":"levelo://app?vid=e89b5c3a-b4c2-454e-8d42-f553a67bb2fd"},"vehicle_type_id":"4","last_reported":1744110488,"current_range_meters":2800,"station_id":"ce4bhnp2rcd13ifvqh0g","pricing_plan_id":"cebpf4jnsgd1na2vs0mg"},{"bike_id":"4a42ad38-8d16-4557-83e8-7f4fc976925a","system_id":"levelo_inurba_marseille","lat":43.3061,"lon":5.37227,"is_reserved":false,"is_disabled":false,"rental_uris":{"android":"levelo://app?vid=4a42ad38-8d16-4557-83e8-7f4fc976925a","ios":"levelo://app?vid=4a42ad38-8d16-4557-83e8-7f4fc976925a"},"vehicle_type_id":"4","last_reported":1744110488,"current_range_meters":2800,"station_id":"ce4bgqh2rcd13ifvqc4g","pricing_plan_id":"cebpf4jnsgd1na2vs0mg"},{"bike_id":"e9eff685-27cc-44a7-a0e4-68990c6801aa","system_id":"levelo_inurba_marseille","lat":43.29707,"lon":5.37695,"is_reserved":false,"is_disabled":false,"rental_uris":{"android":"levelo://app?vid=e9eff685-27cc-44a7-a0e4-68990c6801aa","ios":"levelo://app?vid=e9eff685-27cc-44a7-a0e4-68990c6801aa"},"vehicle_type_id":"4","last_reported":1744110488,"current_range_meters":3200,"station_id":"ce4bgkh2rcd13ifvqbl0","pricing_plan_id":"cebpf4jnsgd1na2vs0mg"},{"bike_id":"ae054624-1517-405d-b5fe-4a682448fdb8","system_id":"levelo_inurba_marseille","lat":43.24167,"lon":5.36397,"is_reserved":false,"is_disabled":false,"rental_uris":{"android":"levelo://app?vid=ae054624-1517-405d-b5fe-4a682448fdb8","ios":"levelo://app?vid=ae054624-1517-405d-b5fe-4a682448fdb8"},"vehicle_type_id":"4","last_reported":1744110488,"current_range_meters":3200,"station_id":"cpo36qri1sfpv3e86is0","pricing_plan_id":"cebpf4jnsgd1na2vs0mg"},{"bike_id":"bf54f3b1-ebd3-4fa1-88b6-b2b038dfa73c","system_id":"levelo_inurba_marseille","lat":43.25499,"lon":5.37661,"is_reserved":false,"is_disabled":false,"rental_uris":{"android":"levelo://app?vid=bf54f3b1-ebd3-4fa1-88b6-b2b038dfa73c","ios":"levelo://app?vid=bf54f3b1-ebd3-4fa1-88b6-b2b038dfa73c"},"vehicle_type_id":"4","last_reported":1744110488,"current_range_meters":3600,"station_id":"ce4bhh12rcd13ifvqff0","pricing_plan_id":"cebpf4jnsgd1na2vs0mg"},{"bike_id":"6137fddc-8579-495c-a7e3-2db8c916e931","system_id":"levelo_inurba_marseille","lat":43.26952,"lon":5.38629,"is_reserved":false,"is_disabled":false,"rental_uris":{"android":"levelo://app?vid=6137fddc-8579-495c-a7e3-2db8c916e931","ios":"levelo://app?vid=6137fddc-8579-495c-a7e3-2db8c916e931"},"vehicle_type_id":"4","last_reported":1744110488,"current_range_meters":3600,"station_id":"ce4bhh92rcd13ifvqfh0","pricing_plan_id":"cebpf4jnsgd1na2vs0mg"},{"bike_id":"6e1dd146-b778-480c-bda9-88f5c92e6968","system_id":"levelo_inurba_marseille","lat":43.29572,"lon":5.37511,"is_reserved":false,"is_disabled":false,"rental_uris":{"android":"levelo://app?vid=6e1dd146-b778-480c-bda9-88f5c92e6968","ios":"levelo://app?vid=6e1dd146-b778-480c-bda9-88f5c92e6968"},"vehicle_type_id":"4","last_reported":1744110488,"current_range_meters":3600,"station_id":"ce4bgh92rcd13ifvqb50","pricing_plan_id":"cebpf4jnsgd1na2vs0mg"},{"bike_id":"351b921a-1463-4cf6-859d-ca5bd51a6e76","system_id":"levelo_inurba_marseille","lat":43.31778,"lon":5.36861,"is_reserved":false,"is_disabled":false,"rental_uris":{"android":"levelo://app?vid=351b921a-1463-4cf6-859d-ca5bd51a6e76","ios":"levelo://app?vid=351b921a-1463-4cf6-859d-ca5bd51a6e76"},"vehicle_type_id":"4","last_reported":1744110488,"current_range_meters":3600,"station_id":"","pricing_plan_id":"cebpf4jnsgd1na2vs0mg"},{"bike_id":"d6f076dd-f0b2-4771-9bdd-76298a0d82e5","system_id":"levelo_inurba_marseille","lat":43.31998,"lon":5.38133,"is_reserved":false,"is_disabled":false,"rental_uris":{"android":"levelo://app?vid=d6f076dd-f0b2-4771-9bdd-76298a0d82e5","ios":"levelo://app?vid=d6f076dd-f0b2-4771-9bdd-76298a0d82e5"},"vehicle_type_id":"4","last_reported":1744110488,"current_range_meters":3600,"station_id":"ce4bhr12rcd13ifvqhpg","pricing_plan_id":"cebpf4jnsgd1na2vs0mg"},{"bike_id":"25f19322-3940-48f6-9994-30b1cf35b098","system_id":"levelo_inurba_marseille","lat":43.28615,"lon":5.35106,"is_reserved":false,"is_disabled":false,"rental_uris":{"android":"levelo://app?vid=25f19322-3940-48f6-9994-30b1cf35b098","ios":"levelo://app?vid=25f19322-3940-48f6-9994-30b1cf35b098"},"vehicle_type_id":"4","last_reported":1744110488,"current_range_meters":4000,"station_id":"ce4bhch2rcd13ifvqeug","pricing_plan_id":"cebpf4jnsgd1na2vs0mg"},{"bike_id":"19224d95-e048-4cbb-8884-43e0e6b3db9b","system_id":"levelo_inurba_marseille","lat":43.29883,"lon":5.39733,"is_reserved":false,"is_disabled":true,"rental_uris":{"android":"levelo://app?vid=19224d95-e048-4cbb-8884-43e0e6b3db9b","ios":"levelo://app?vid=19224d95-e048-4cbb-8884-43e0e6b3db9b"},"vehicle_type_id":"4","last_reported":1744110488,"current_range_meters":4000,"station_id":"ce4bh0h2rcd13ifvqd50","pricing_plan_id":"cebpf4jnsgd1na2vs0mg"},{"bike_id":"3c531fc9-2872-4f1c-a1ac-3256d60b9aea","system_id":"levelo_inurba_marseille","lat":43.22504,"lon":5.34785,"is_reserved":false,"is_disabled":false,"rental_uris":{"android":"levelo://app?vid=3c531fc9-2872-4f1c-a1ac-3256d60b9aea","ios":"levelo://app?vid=3c531fc9-2872-4f1c-a1ac-3256d60b9aea"},"vehicle_type_id":"4","last_reported":1744110488,"current_range_meters":8800,"station_id":"st_cvj5dfep6f1abm77gieg","pricing_plan_id":"cebpf4jnsgd1na2vs0mg"},{"bike_id":"a959694d-18ce-4d80-917f-23c91ed81065","system_id":"levelo_inurba_marseille","lat":43.299,"lon":5.43673,"is_reserved":false,"is_disabled":true,"rental_uris":{"android":"levelo://app?vid=a959694d-18ce-4d80-917f-23c91ed81065","ios":"levelo://app?vid=a959694d-18ce-4d80-917f-23c91ed81065"},"vehicle_type_id":"4","last_reported":1744110488,"current_range_meters":4400,"station_id":"ce4bhpp2rcd13ifvqhfg","pricing_plan_id":"cebpf4jnsgd1na2vs0mg"},{"bike_id":"e456684f-34c7-4e02-a44b-2c4a15648fab","system_id":"levelo_inurba_marseille","lat":43.26791,"lon":5.39405,"is_reserved":false,"is_disabled":false,"rental_uris":{"android":"levelo://app?vid=e456684f-34c7-4e02-a44b-2c4a15648fab","ios":"levelo://app?vid=e456684f-34c7-4e02-a44b-2c4a15648fab"},"vehicle_type_id":"4","last_reported":1744110488,"current_range_meters":4800,"station_id":"ce4bhh12rcd13ifvqfg0","pricing_plan_id":"cebpf4jnsgd1na2vs0mg"},{"bike_id":"e0bc9414-6ecc-467a-b5f8-081b5b911718","system_id":"levelo_inurba_marseille","lat":43.29193,"lon":5.39347,"is_reserved":false,"is_disabled":false,"rental_uris":{"android":"levelo://app?vid=e0bc9414-6ecc-467a-b5f8-081b5b911718","ios":"levelo://app?vid=e0bc9414-6ecc-467a-b5f8-081b5b911718"},"vehicle_type_id":"4","last_reported":1744110488,"current_range_meters":4800,"station_id":"ce4bh192rcd13ifvqdd0","pricing_plan_id":"cebpf4jnsgd1na2vs0mg"},{"bike_id":"94398b1b-be4b-4151-b6a3-9d81ccd36db8","system_id":"levelo_inurba_marseille","lat":43.23154,"lon":5.43709,"is_reserved":false,"is_disabled":false,"rental_uris":{"android":"levelo://app?vid=94398b1b-be4b-4151-b6a3-9d81ccd36db8","ios":"levelo://app?vid=94398b1b-be4b-4151-b6a3-9d81ccd36db8"},"vehicle_type_id":"4","last_reported":1744110488,"current_range_meters":4800,"station_id":"ce4bhmp2rcd13ifvqgog","pricing_plan_id":"cebpf4jnsgd1na2vs0mg"},{"bike_id":"f45d5135-5694-4d8c-9ee2-bc1353df5e01","system_id":"levelo_inurba_marseille","lat":43.28268,"lon":5.35062,"is_reserved":false,"is_disabled":false,"rental_uris":{"android":"levelo://app?vid=f45d5135-5694-4d8c-9ee2-bc1353df5e01","ios":"levelo://app?vid=f45d5135-5694-4d8c-9ee2-bc1353df5e01"},"vehicle_type_id":"4","last_reported":1744110488,"current_range_meters":4800,"station_id":"ce4bhbp2rcd13ifvqerg","pricing_plan_id":"cebpf4jnsgd1na2vs0mg"},{"bike_id":"8a38320c-a733-4cf5-8c8e-152497fe8f8f","system_id":"levelo_inurba_marseille","lat":43.28156,"lon":5.42626,"is_reserved":false,"is_disabled":false,"rental_uris":{"android":"levelo://app?vid=8a38320c-a733-4cf5-8c8e-152497fe8f8f","ios":"levelo://app?vid=8a38320c-a733-4cf5-8c8e-152497fe8f8f"},"vehicle_type_id":"4","last_reported":1744110488,"current_range_meters":5600,"station_id":"ce4bhnh2rcd13ifvqgug","pricing_plan_id":"cebpf4jnsgd1na2vs0mg"},{"bike_id":"f3b83e8a-c65f-4f5d-8899-2b84c089f530","system_id":"levelo_inurba_marseille","lat":43.32087,"lon":5.36809,"is_reserved":false,"is_disabled":false,"rental_uris":{"android":"levelo://app?vid=f3b83e8a-c65f-4f5d-8899-2b84c089f530","ios":"levelo://app?vid=f3b83e8a-c65f-4f5d-8899-2b84c089f530"},"vehicle_type_id":"4","last_reported":1744110488,"current_range_meters":5600,"station_id":"ce4bhrh2rcd13ifvqhug","pricing_plan_id":"cebpf4jnsgd1na2vs0mg"},{"bike_id":"e4a07207-fed0-4e37-8539-48386b90c7e5","system_id":"levelo_inurba_marseille","lat":43.32545,"lon":5.41495,"is_reserved":false,"is_disabled":false,"rental_uris":{"android":"levelo://app?vid=e4a07207-fed0-4e37-8539-48386b90c7e5","ios":"levelo://app?vid=e4a07207-fed0-4e37-8539-48386b90c7e5"},"vehicle_type_id":"4","last_reported":1744110488,"current_range_meters":5600,"station_id":"","pricing_plan_id":"cebpf4jnsgd1na2vs0mg"},{"bike_id":"339f6759-3db1-4059-9f2e-fe102f328331","system_id":"levelo_inurba_marseille","lat":43.26799,"lon":5.40269,"is_reserved":false,"is_disabled":false,"rental_uris":{"android":"levelo://app?vid=339f6759-3db1-4059-9f2e-fe102f328331","ios":"levelo://app?vid=339f6759-3db1-4059-9f2e-fe102f328331"},"vehicle_type_id":"4","last_reported":1744110488,"current_range_meters":6000,"station_id":"ce501612rcd8frsf0b60","pricing_plan_id":"cebpf4jnsgd1na2vs0mg"},{"bike_id":"73276e73-379c-4215-bfe8-0a4cdf26f8fb","system_id":"levelo_inurba_marseille","lat":43.27373,"lon":5.36259,"is_reserved":false,"is_disabled":false,"rental_uris":{"android":"levelo://app?vid=73276e73-379c-4215-bfe8-0a4cdf26f8fb","ios":"levelo://app?vid=73276e73-379c-4215-bfe8-0a4cdf26f8fb"},"vehicle_type_id":"4","last_reported":1744110488,"current_range_meters":6000,"station_id":"ce4bhbh2rcd13ifvqeo0","pricing_plan_id":"cebpf4jnsgd1na2vs0mg"},{"bike_id":"f72f75a5-43f0-45ff-942a-fd3cc84b7d49","system_id":"levelo_inurba_marseille","lat":43.273804,"lon":5.362486,"is_reserved":false,"is_disabled":false,"rental_uris":{"android":"levelo://app?vid=f72f75a5-43f0-45ff-942a-fd3cc84b7d49","ios":"levelo://app?vid=f72f75a5-43f0-45ff-942a-fd3cc84b7d49"},"vehicle_type_id":"4","last_reported":1744110488,"current_range_meters":6000,"station_id":"ce4bhbh2rcd13ifvqeo0","pricing_plan_id":"cebpf4jnsgd1na2vs0mg"},{"bike_id":"d46e5bcc-bebe-4e68-85ae-1b5c7bda16d2","system_id":"levelo_inurba_marseille","lat":43.25497,"lon":5.37649,"is_reserved":false,"is_disabled":false,"rental_uris":{"android":"levelo://app?vid=d46e5bcc-bebe-4e68-85ae-1b5c7bda16d2","ios":"levelo://app?vid=d46e5bcc-bebe-4e68-85ae-1b5c7bda16d2"},"vehicle_type_id":"4","last_reported":1744110488,"current_range_meters":6400,"station_id":"ce4bhh12rcd13ifvqff0","pricing_plan_id":"cebpf4jnsgd1na2vs0mg"},{"bike_id":"abf828e0-bebc-4654-bc93-1d92f449deee","system_id":"levelo_inurba_marseille","lat":43.32306,"lon":5.36763,"is_reserved":false,"is_disabled":false,"rental_uris":{"android":"levelo://app?vid=abf828e0-bebc-4654-bc93-1d92f449deee","ios":"levelo://app?vid=abf828e0-bebc-4654-bc93-1d92f449deee"},"vehicle_type_id":"4","last_reported":1744110488,"current_range_meters":6400,"station_id":"ce4bhsh2rcd13ifvqi2g","pricing_plan_id":"cebpf4jnsgd1na2vs0mg"},{"bike_id":"06d8c071-c15f-4628-bdf9-94c609b910a0","system_id":"levelo_inurba_marseille","lat":43.33615,"lon":5.41032,"is_reserved":false,"is_disabled":false,"rental_uris":{"android":"levelo://app?vid=06d8c071-c15f-4628-bdf9-94c609b910a0","ios":"levelo://app?vid=06d8c071-c15f-4628-bdf9-94c609b910a0"},"vehicle_type_id":"4","last_reported":1744110488,"current_range_meters":6400,"station_id":"ce4bhqh2rcd13ifvqhmg","pricing_plan_id":"cebpf4jnsgd1na2vs0mg"},{"bike_id":"1405f02f-caee-48fd-aba4-8d87a96853df","system_id":"levelo_inurba_marseille","lat":43.27608,"lon":5.3612,"is_reserved":false,"is_disabled":false,"rental_uris":{"android":"levelo://app?vid=1405f02f-caee-48fd-aba4-8d87a96853df","ios":"levelo://app?vid=1405f02f-caee-48fd-aba4-8d87a96853df"},"vehicle_type_id":"4","last_reported":1744110488,"current_range_meters":6400,"station_id":"ce4bgj92rcd13ifvqbe0","pricing_plan_id":"cebpf4jnsgd1na2vs0mg"},{"bike_id":"78e4640a-8cde-4e05-8de9-b575fb4826db","system_id":"levelo_inurba_marseille","lat":43.291917,"lon":5.357957,"is_reserved":false,"is_disabled":false,"rental_uris":{"android":"levelo://app?vid=78e4640a-8cde-4e05-8de9-b575fb4826db","ios":"levelo://app?vid=78e4640a-8cde-4e05-8de9-b575fb4826db"},"vehicle_type_id":"4","last_reported":1744110488,"current_range_meters":6800,"station_id":"ce4bhb12rcd13ifvqel0","pricing_plan_id":"cebpf4jnsgd1na2vs0mg"},{"bike_id":"9fd9afcf-8606-4db3-b765-345a62705d71","system_id":"levelo_inurba_marseille","lat":43.27384,"lon":5.36275,"is_reserved":false,"is_disabled":false,"rental_uris":{"android":"levelo://app?vid=9fd9afcf-8606-4db3-b765-345a62705d71","ios":"levelo://app?vid=9fd9afcf-8606-4db3-b765-345a62705d71"},"vehicle_type_id":"4","last_reported":1744110488,"current_range_meters":6800,"station_id":"ce4bhbh2rcd13ifvqeo0","pricing_plan_id":"cebpf4jnsgd1na2vs0mg"},{"bike_id":"87bda883-ac94-49fc-94c2-3a86e52b4f97","system_id":"levelo_inurba_marseille","lat":43.307216,"lon":5.383443,"is_reserved":false,"is_disabled":false,"rental_uris":{"android":"levelo://app?vid=87bda883-ac94-49fc-94c2-3a86e52b4f97","ios":"levelo://app?vid=87bda883-ac94-49fc-94c2-3a86e52b4f97"},"vehicle_type_id":"4","last_reported":1744110488,"current_range_meters":6800,"station_id":"","pricing_plan_id":"cebpf4jnsgd1na2vs0mg"},{"bike_id":"f39d576e-d22e-4369-8649-d935355e0052","system_id":"levelo_inurba_marseille","lat":43.265689,"lon":5.390092,"is_reserved":false,"is_disabled":false,"rental_uris":{"android":"levelo://app?vid=f39d576e-d22e-4369-8649-d935355e0052","ios":"levelo://app?vid=f39d576e-d22e-4369-8649-d935355e0052"},"vehicle_type_id":"4","last_reported":1744110488,"current_range_meters":6800,"station_id":"ce4bhe12rcd13ifvqf30","pricing_plan_id":"cebpf4jnsgd1na2vs0mg"},{"bike_id":"7ae1c95c-1e2c-400a-8efd-618212ebe707","system_id":"levelo_inurba_marseille","lat":43.31672,"lon":5.38199,"is_reserved":false,"is_disabled":false,"rental_uris":{"android":"levelo://app?vid=7ae1c95c-1e2c-400a-8efd-618212ebe707","ios":"levelo://app?vid=7ae1c95c-1e2c-400a-8efd-618212ebe707"},"vehicle_type_id":"4","last_reported":1744110488,"current_range_meters":6800,"station_id":"","pricing_plan_id":"cebpf4jnsgd1na2vs0mg"},{"bike_id":"afd7aaab-3b4e-43e2-81d4-2513b86843a6","system_id":"levelo_inurba_marseille","lat":43.272106,"lon":5.39177,"is_reserved":false,"is_disabled":false,"rental_uris":{"android":"levelo://app?vid=afd7aaab-3b4e-43e2-81d4-2513b86843a6","ios":"levelo://app?vid=afd7aaab-3b4e-43e2-81d4-2513b86843a6"},"vehicle_type_id":"4","last_reported":1744110488,"current_range_meters":6400,"station_id":"ce4bhih2rcd13ifvqfr0","pricing_plan_id":"cebpf4jnsgd1na2vs0mg"},{"bike_id":"cc057f14-b1e1-4dee-b107-8741c01c5964","system_id":"levelo_inurba_marseille","lat":43.32164,"lon":5.36723,"is_reserved":false,"is_disabled":true,"rental_uris":{"android":"levelo://app?vid=cc057f14-b1e1-4dee-b107-8741c01c5964","ios":"levelo://app?vid=cc057f14-b1e1-4dee-b107-8741c01c5964"},"vehicle_type_id":"4","last_reported":1744110488,"current_range_meters":6800,"station_id":"ce4bhrh2rcd13ifvqhug","pricing_plan_id":"cebpf4jnsgd1na2vs0mg"},{"bike_id":"4f4f8eef-fb69-41d7-83b7-b12c5900024b","system_id":"levelo_inurba_marseille","lat":43.29276,"lon":5.36844,"is_reserved":false,"is_disabled":false,"rental_uris":{"android":"levelo://app?vid=4f4f8eef-fb69-41d7-83b7-b12c5900024b","ios":"levelo://app?vid=4f4f8eef-fb69-41d7-83b7-b12c5900024b"},"vehicle_type_id":"4","last_reported":1744110488,"current_range_meters":7200,"station_id":"ce4bhbp2rcd13ifvqesg","pricing_plan_id":"cebpf4jnsgd1na2vs0mg"},{"bike_id":"bd19f7b7-3ef4-4321-bc2d-15ee8af9184a","system_id":"levelo_inurba_marseille","lat":43.27495,"lon":5.4246,"is_reserved":false,"is_disabled":false,"rental_uris":{"android":"levelo://app?vid=bd19f7b7-3ef4-4321-bc2d-15ee8af9184a","ios":"levelo://app?vid=bd19f7b7-3ef4-4321-bc2d-15ee8af9184a"},"vehicle_type_id":"4","last_reported":1744110488,"current_range_meters":7200,"station_id":"ce4bhn92rcd13ifvqgrg","pricing_plan_id":"cebpf4jnsgd1na2vs0mg"},{"bike_id":"97165a79-a197-4914-b36e-d1b35339b5c1","system_id":"levelo_inurba_marseille","lat":43.30137,"lon":5.37416,"is_reserved":false,"is_disabled":false,"rental_uris":{"android":"levelo://app?vid=97165a79-a197-4914-b36e-d1b35339b5c1","ios":"levelo://app?vid=97165a79-a197-4914-b36e-d1b35339b5c1"},"vehicle_type_id":"4","last_reported":1744110488,"current_range_meters":7200,"station_id":"ce4bgs92rcd13ifvqcc0","pricing_plan_id":"cebpf4jnsgd1na2vs0mg"},{"bike_id":"bec659b1-2ddb-41bf-9e2d-39084f6c1a4a","system_id":"levelo_inurba_marseille","lat":43.31714,"lon":5.424,"is_reserved":false,"is_disabled":false,"rental_uris":{"android":"levelo://app?vid=bec659b1-2ddb-41bf-9e2d-39084f6c1a4a","ios":"levelo://app?vid=bec659b1-2ddb-41bf-9e2d-39084f6c1a4a"},"vehicle_type_id":"4","last_reported":1744110488,"current_range_meters":7200,"station_id":"ce4bhp92rcd13ifvqhbg","pricing_plan_id":"cebpf4jnsgd1na2vs0mg"},{"bike_id":"cd577a70-1285-4212-be14-c738c01c14c9","system_id":"levelo_inurba_marseille","lat":43.33781,"lon":5.39188,"is_reserved":false,"is_disabled":false,"rental_uris":{"android":"levelo://app?vid=cd577a70-1285-4212-be14-c738c01c14c9","ios":"levelo://app?vid=cd577a70-1285-4212-be14-c738c01c14c9"},"vehicle_type_id":"4","last_reported":1744110488,"current_range_meters":7200,"station_id":"ce4bhr92rcd13ifvqhsg","pricing_plan_id":"cebpf4jnsgd1na2vs0mg"},{"bike_id":"576f30ac-a525-434a-83bb-ed2535749002","system_id":"levelo_inurba_marseille","lat":43.267822,"lon":5.394101,"is_reserved":false,"is_disabled":false,"rental_uris":{"android":"levelo://app?vid=576f30ac-a525-434a-83bb-ed2535749002","ios":"levelo://app?vid=576f30ac-a525-434a-83bb-ed2535749002"},"vehicle_type_id":"4","last_reported":1744110488,"current_range_meters":7200,"station_id":"ce4bhh12rcd13ifvqff0","pricing_plan_id":"cebpf4jnsgd1na2vs0mg"},{"bike_id":"9972aee6-4470-443a-8e14-c2078bb91c0d","system_id":"levelo_inurba_marseille","lat":43.31233,"lon":5.37078,"is_reserved":false,"is_disabled":false,"rental_uris":{"android":"levelo://app?vid=9972aee6-4470-443a-8e14-c2078bb91c0d","ios":"levelo://app?vid=9972aee6-4470-443a-8e14-c2078bb91c0d"},"vehicle_type_id":"4","last_reported":1744110488,"current_range_meters":7200,"station_id":"","pricing_plan_id":"cebpf4jnsgd1na2vs0mg"},{"bike_id":"9f58fe17-7445-4171-ab8a-b7da8864df25","system_id":"levelo_inurba_marseille","lat":43.298991,"lon":5.436597,"is_reserved":false,"is_disabled":false,"rental_uris":{"android":"levelo://app?vid=9f58fe17-7445-4171-ab8a-b7da8864df25","ios":"levelo://app?vid=9f58fe17-7445-4171-ab8a-b7da8864df25"},"vehicle_type_id":"4","last_reported":1744110488,"current_range_meters":7200,"station_id":"ce4bhpp2rcd13ifvqhfg","pricing_plan_id":"cebpf4jnsgd1na2vs0mg"},{"bike_id":"e1e3e4d7-821d-4134-a13a-280ec3f9cbaa","system_id":"levelo_inurba_marseille","lat":43.32365,"lon":5.3676,"is_reserved":false,"is_disabled":false,"rental_uris":{"android":"levelo://app?vid=e1e3e4d7-821d-4134-a13a-280ec3f9cbaa","ios":"levelo://app?vid=e1e3e4d7-821d-4134-a13a-280ec3f9cbaa"},"vehicle_type_id":"4","last_reported":1744110488,"current_range_meters":7200,"station_id":"ce4bhsh2rcd13ifvqi2g","pricing_plan_id":"cebpf4jnsgd1na2vs0mg"},{"bike_id":"97d41e8a-8ecb-456a-9dd0-bfdc05b678c5","system_id":"levelo_inurba_marseille","lat":43.30596,"lon":5.39351,"is_reserved":false,"is_disabled":false,"rental_uris":{"android":"levelo://app?vid=97d41e8a-8ecb-456a-9dd0-bfdc05b678c5","ios":"levelo://app?vid=97d41e8a-8ecb-456a-9dd0-bfdc05b678c5"},"vehicle_type_id":"4","last_reported":1744110488,"current_range_meters":7200,"station_id":"ce4bh0p2rcd13ifvqd80","pricing_plan_id":"cebpf4jnsgd1na2vs0mg"},{"bike_id":"49951698-8f30-4126-b4d6-b9e08e220437","system_id":"levelo_inurba_marseille","lat":43.297097,"lon":5.376908,"is_reserved":false,"is_disabled":false,"rental_uris":{"android":"levelo://app?vid=49951698-8f30-4126-b4d6-b9e08e220437","ios":"levelo://app?vid=49951698-8f30-4126-b4d6-b9e08e220437"},"vehicle_type_id":"4","last_reported":1744110488,"current_range_meters":7200,"station_id":"ce4bgkh2rcd13ifvqbl0","pricing_plan_id":"cebpf4jnsgd1na2vs0mg"},{"bike_id":"42a2a0dd-e073-46d3-a004-33e2e45e3038","system_id":"levelo_inurba_marseille","lat":43.34143,"lon":5.40909,"is_reserved":false,"is_disabled":false,"rental_uris":{"android":"levelo://app?vid=42a2a0dd-e073-46d3-a004-33e2e45e3038","ios":"levelo://app?vid=42a2a0dd-e073-46d3-a004-33e2e45e3038"},"vehicle_type_id":"4","last_reported":1744110488,"current_range_meters":8000,"station_id":"ce4bhqh2rcd13ifvqhlg","pricing_plan_id":"cebpf4jnsgd1na2vs0mg"},{"bike_id":"750bc9c2-8244-4f27-a571-77c62d7d6b92","system_id":"levelo_inurba_marseille","lat":43.31274,"lon":5.37763,"is_reserved":false,"is_disabled":false,"rental_uris":{"android":"levelo://app?vid=750bc9c2-8244-4f27-a571-77c62d7d6b92","ios":"levelo://app?vid=750bc9c2-8244-4f27-a571-77c62d7d6b92"},"vehicle_type_id":"4","last_reported":1744110488,"current_range_meters":8000,"station_id":"","pricing_plan_id":"cebpf4jnsgd1na2vs0mg"},{"bike_id":"db77aa95-72db-470c-9c43-5322da612de8","system_id":"levelo_inurba_marseille","lat":43.31799,"lon":5.40189,"is_reserved":false,"is_disabled":false,"rental_uris":{"android":"levelo://app?vid=db77aa95-72db-470c-9c43-5322da612de8","ios":"levelo://app?vid=db77aa95-72db-470c-9c43-5322da612de8"},"vehicle_type_id":"4","last_reported":1744110488,"current_range_meters":8000,"station_id":"","pricing_plan_id":"cebpf4jnsgd1na2vs0mg"},{"bike_id":"56107475-b6f5-45df-af6e-67473b50b255","system_id":"levelo_inurba_marseille","lat":43.2318,"lon":5.39985,"is_reserved":false,"is_disabled":false,"rental_uris":{"android":"levelo://app?vid=56107475-b6f5-45df-af6e-67473b50b255","ios":"levelo://app?vid=56107475-b6f5-45df-af6e-67473b50b255"},"vehicle_type_id":"4","last_reported":1744110488,"current_range_meters":8000,"station_id":"ce4bhn12rcd13ifvqgqg","pricing_plan_id":"cebpf4jnsgd1na2vs0mg"},{"bike_id":"cf350222-2d93-4318-a820-870a23d03c0c","system_id":"levelo_inurba_marseille","lat":43.30371,"lon":5.42486,"is_reserved":false,"is_disabled":false,"rental_uris":{"android":"levelo://app?vid=cf350222-2d93-4318-a820-870a23d03c0c","ios":"levelo://app?vid=cf350222-2d93-4318-a820-870a23d03c0c"},"vehicle_type_id":"4","last_reported":1744110488,"current_range_meters":8000,"station_id":"ce4bhoh2rcd13ifvqh6g","pricing_plan_id":"cebpf4jnsgd1na2vs0mg"},{"bike_id":"942c09e5-0be1-43d3-b7d1-47d796ba81a0","system_id":"levelo_inurba_marseille","lat":43.29411,"lon":5.38633,"is_reserved":false,"is_disabled":false,"rental_uris":{"android":"levelo://app?vid=942c09e5-0be1-43d3-b7d1-47d796ba81a0","ios":"levelo://app?vid=942c09e5-0be1-43d3-b7d1-47d796ba81a0"},"vehicle_type_id":"4","last_reported":1744110488,"current_range_meters":7200,"station_id":"ce4bh2h2rcd13ifvqdh0","pricing_plan_id":"cebpf4jnsgd1na2vs0mg"},{"bike_id":"717e4a2b-312c-4c87-b19d-4ea15e0c33cc","system_id":"levelo_inurba_marseille","lat":43.3131,"lon":5.36776,"is_reserved":false,"is_disabled":true,"rental_uris":{"android":"levelo://app?vid=717e4a2b-312c-4c87-b19d-4ea15e0c33cc","ios":"levelo://app?vid=717e4a2b-312c-4c87-b19d-4ea15e0c33cc"},"vehicle_type_id":"4","last_reported":1744110488,"current_range_meters":8000,"station_id":"","pricing_plan_id":"cebpf4jnsgd1na2vs0mg"},{"bike_id":"3cbad1fb-d71d-4e4f-90fa-c1465f9f9b65","system_id":"levelo_inurba_marseille","lat":43.21193,"lon":5.35074,"is_reserved":false,"is_disabled":true,"rental_uris":{"android":"levelo://app?vid=3cbad1fb-d71d-4e4f-90fa-c1465f9f9b65","ios":"levelo://app?vid=3cbad1fb-d71d-4e4f-90fa-c1465f9f9b65"},"vehicle_type_id":"4","last_reported":1744110488,"current_range_meters":8000,"station_id":"st_cvj6sg6p6f1abm77japg","pricing_plan_id":"cebpf4jnsgd1na2vs0mg"},{"bike_id":"4fe21798-e4d1-4985-bc15-6a7a89cb6541","system_id":"levelo_inurba_marseille","lat":43.212,"lon":5.35068,"is_reserved":false,"is_disabled":false,"rental_uris":{"android":"levelo://app?vid=4fe21798-e4d1-4985-bc15-6a7a89cb6541","ios":"levelo://app?vid=4fe21798-e4d1-4985-bc15-6a7a89cb6541"},"vehicle_type_id":"4","last_reported":1744110488,"current_range_meters":8000,"station_id":"st_cvj6sg6p6f1abm77japg","pricing_plan_id":"cebpf4jnsgd1na2vs0mg"},{"bike_id":"a7acf872-c544-4ae8-9474-b65bc81ef53c","system_id":"levelo_inurba_marseille","lat":43.29037,"lon":5.37567,"is_reserved":false,"is_disabled":false,"rental_uris":{"android":"levelo://app?vid=a7acf872-c544-4ae8-9474-b65bc81ef53c","ios":"levelo://app?vid=a7acf872-c544-4ae8-9474-b65bc81ef53c"},"vehicle_type_id":"4","last_reported":1744110488,"current_range_meters":7200,"station_id":"ce4bh692rcd13ifvqe90","pricing_plan_id":"cebpf4jnsgd1na2vs0mg"},{"bike_id":"7b3646e0-cbf2-40de-92a8-c829ec618775","system_id":"levelo_inurba_marseille","lat":43.31994,"lon":5.38143,"is_reserved":false,"is_disabled":true,"rental_uris":{"android":"levelo://app?vid=7b3646e0-cbf2-40de-92a8-c829ec618775","ios":"levelo://app?vid=7b3646e0-cbf2-40de-92a8-c829ec618775"},"vehicle_type_id":"4","last_reported":1744110488,"current_range_meters":8400,"station_id":"ce4bhr12rcd13ifvqhpg","pricing_plan_id":"cebpf4jnsgd1na2vs0mg"},{"bike_id":"444a5f07-09c5-40f5-8d58-60f1f25c67b9","system_id":"levelo_inurba_marseille","lat":43.319905,"lon":5.381521,"is_reserved":false,"is_disabled":false,"rental_uris":{"android":"levelo://app?vid=444a5f07-09c5-40f5-8d58-60f1f25c67b9","ios":"levelo://app?vid=444a5f07-09c5-40f5-8d58-60f1f25c67b9"},"vehicle_type_id":"4","last_reported":1744110488,"current_range_meters":8400,"station_id":"ce4bhr12rcd13ifvqhpg","pricing_plan_id":"cebpf4jnsgd1na2vs0mg"},{"bike_id":"f2de6b4f-54cd-4c55-a204-7a4c71da8fac","system_id":"levelo_inurba_marseille","lat":43.297082,"lon":5.376818,"is_reserved":false,"is_disabled":false,"rental_uris":{"android":"levelo://app?vid=f2de6b4f-54cd-4c55-a204-7a4c71da8fac","ios":"levelo://app?vid=f2de6b4f-54cd-4c55-a204-7a4c71da8fac"},"vehicle_type_id":"4","last_reported":1744110488,"current_range_meters":8400,"station_id":"ce4bgkh2rcd13ifvqbl0","pricing_plan_id":"cebpf4jnsgd1na2vs0mg"},{"bike_id":"485f24a3-8ba6-4caa-8780-8392668d8f6b","system_id":"levelo_inurba_marseille","lat":43.317159,"lon":5.377798,"is_reserved":false,"is_disabled":true,"rental_uris":{"android":"levelo://app?vid=485f24a3-8ba6-4caa-8780-8392668d8f6b","ios":"levelo://app?vid=485f24a3-8ba6-4caa-8780-8392668d8f6b"},"vehicle_type_id":"4","last_reported":1744110488,"current_range_meters":8800,"station_id":"ce4bgth2rcd13ifvqch0","pricing_plan_id":"cebpf4jnsgd1na2vs0mg"},{"bike_id":"f39be6f5-2f69-4c37-b021-559d20b299a4","system_id":"levelo_inurba_marseille","lat":43.30023,"lon":5.37642,"is_reserved":false,"is_disabled":false,"rental_uris":{"android":"levelo://app?vid=f39be6f5-2f69-4c37-b021-559d20b299a4","ios":"levelo://app?vid=f39be6f5-2f69-4c37-b021-559d20b299a4"},"vehicle_type_id":"4","last_reported":1744110488,"current_range_meters":8800,"station_id":"","pricing_plan_id":"cebpf4jnsgd1na2vs0mg"},{"bike_id":"f54ed993-fedb-455c-8329-424ac8299963","system_id":"levelo_inurba_marseille","lat":43.3237,"lon":5.36786,"is_reserved":false,"is_disabled":false,"rental_uris":{"android":"levelo://app?vid=f54ed993-fedb-455c-8329-424ac8299963","ios":"levelo://app?vid=f54ed993-fedb-455c-8329-424ac8299963"},"vehicle_type_id":"4","last_reported":1744110488,"current_range_meters":8800,"station_id":"ce4bhsh2rcd13ifvqi2g","pricing_plan_id":"cebpf4jnsgd1na2vs0mg"},{"bike_id":"2e9000dc-6400-4918-a994-dd60039ca96d","system_id":"levelo_inurba_marseille","lat":43.31982,"lon":5.38191,"is_reserved":false,"is_disabled":true,"rental_uris":{"android":"levelo://app?vid=2e9000dc-6400-4918-a994-dd60039ca96d","ios":"levelo://app?vid=2e9000dc-6400-4918-a994-dd60039ca96d"},"vehicle_type_id":"4","last_reported":1744110488,"current_range_meters":8800,"station_id":"ce4bhr12rcd13ifvqhpg","pricing_plan_id":"cebpf4jnsgd1na2vs0mg"},{"bike_id":"d1789c99-5c7c-4e88-9d29-ce771e783c08","system_id":"levelo_inurba_marseille","lat":43.3101,"lon":5.3773,"is_reserved":false,"is_disabled":false,"rental_uris":{"android":"levelo://app?vid=d1789c99-5c7c-4e88-9d29-ce771e783c08","ios":"levelo://app?vid=d1789c99-5c7c-4e88-9d29-ce771e783c08"},"vehicle_type_id":"4","last_reported":1744110488,"current_range_meters":9200,"station_id":"","pricing_plan_id":"cebpf4jnsgd1na2vs0mg"},{"bike_id":"3576b946-70b3-456f-a60a-d98e227f015c","system_id":"levelo_inurba_marseille","lat":43.30102,"lon":5.38223,"is_reserved":false,"is_disabled":false,"rental_uris":{"android":"levelo://app?vid=3576b946-70b3-456f-a60a-d98e227f015c","ios":"levelo://app?vid=3576b946-70b3-456f-a60a-d98e227f015c"},"vehicle_type_id":"4","last_reported":1744110488,"current_range_meters":9200,"station_id":"ce4bgup2rcd13ifvqcn0","pricing_plan_id":"cebpf4jnsgd1na2vs0mg"},{"bike_id":"84f4fc32-7e9b-4a70-987c-b7c292cb0494","system_id":"levelo_inurba_marseille","lat":43.29005,"lon":5.35616,"is_reserved":false,"is_disabled":false,"rental_uris":{"android":"levelo://app?vid=84f4fc32-7e9b-4a70-987c-b7c292cb0494","ios":"levelo://app?vid=84f4fc32-7e9b-4a70-987c-b7c292cb0494"},"vehicle_type_id":"4","last_reported":1744110488,"current_range_meters":9200,"station_id":"ce4bhb92rcd13ifvqen0","pricing_plan_id":"cebpf4jnsgd1na2vs0mg"},{"bike_id":"dff0c398-5457-4c82-99b9-071db8607d47","system_id":"levelo_inurba_marseille","lat":43.256866,"lon":5.419185,"is_reserved":false,"is_disabled":false,"rental_uris":{"android":"levelo://app?vid=dff0c398-5457-4c82-99b9-071db8607d47","ios":"levelo://app?vid=dff0c398-5457-4c82-99b9-071db8607d47"},"vehicle_type_id":"4","last_reported":1744110488,"current_range_meters":9600,"station_id":"","pricing_plan_id":"cebpf4jnsgd1na2vs0mg"},{"bike_id":"88e9ffa1-b1ad-4c58-8b1d-75e9dfcce5ae","system_id":"levelo_inurba_marseille","lat":43.27069,"lon":5.42287,"is_reserved":false,"is_disabled":false,"rental_uris":{"android":"levelo://app?vid=88e9ffa1-b1ad-4c58-8b1d-75e9dfcce5ae","ios":"levelo://app?vid=88e9ffa1-b1ad-4c58-8b1d-75e9dfcce5ae"},"vehicle_type_id":"4","last_reported":1744110488,"current_range_meters":9200,"station_id":"ce4bhk92rcd13ifvqgb0","pricing_plan_id":"cebpf4jnsgd1na2vs0mg"},{"bike_id":"f17ce36f-e80a-4732-89e2-7a7dfab19d87","system_id":"levelo_inurba_marseille","lat":43.29894,"lon":5.43677,"is_reserved":false,"is_disabled":false,"rental_uris":{"android":"levelo://app?vid=f17ce36f-e80a-4732-89e2-7a7dfab19d87","ios":"levelo://app?vid=f17ce36f-e80a-4732-89e2-7a7dfab19d87"},"vehicle_type_id":"4","last_reported":1744110488,"current_range_meters":9600,"station_id":"ce4bhpp2rcd13ifvqhfg","pricing_plan_id":"cebpf4jnsgd1na2vs0mg"},{"bike_id":"82f28cf6-556c-431d-a12b-bd3ce5fc2f28","system_id":"levelo_inurba_marseille","lat":43.27501,"lon":5.37789,"is_reserved":false,"is_disabled":false,"rental_uris":{"android":"levelo://app?vid=82f28cf6-556c-431d-a12b-bd3ce5fc2f28","ios":"levelo://app?vid=82f28cf6-556c-431d-a12b-bd3ce5fc2f28"},"vehicle_type_id":"4","last_reported":1744110488,"current_range_meters":9600,"station_id":"","pricing_plan_id":"cebpf4jnsgd1na2vs0mg"},{"bike_id":"bf4fbbc2-4042-4d3d-bb50-6ff46a7108f3","system_id":"levelo_inurba_marseille","lat":43.28412,"lon":5.34967,"is_reserved":false,"is_disabled":false,"rental_uris":{"android":"levelo://app?vid=bf4fbbc2-4042-4d3d-bb50-6ff46a7108f3","ios":"levelo://app?vid=bf4fbbc2-4042-4d3d-bb50-6ff46a7108f3"},"vehicle_type_id":"4","last_reported":1744110488,"current_range_meters":9600,"station_id":"ce4bhbh2rcd13ifvqepg","pricing_plan_id":"cebpf4jnsgd1na2vs0mg"},{"bike_id":"99a6a75e-eaea-44bc-8a64-878e7edc2729","system_id":"levelo_inurba_marseille","lat":43.30169,"lon":5.37383,"is_reserved":false,"is_disabled":false,"rental_uris":{"android":"levelo://app?vid=99a6a75e-eaea-44bc-8a64-878e7edc2729","ios":"levelo://app?vid=99a6a75e-eaea-44bc-8a64-878e7edc2729"},"vehicle_type_id":"4","last_reported":1744110488,"current_range_meters":9600,"station_id":"ce4bgs92rcd13ifvqcc0","pricing_plan_id":"cebpf4jnsgd1na2vs0mg"},{"bike_id":"91af7c49-4122-4f83-a08d-fc084211eb7b","system_id":"levelo_inurba_marseille","lat":43.3137,"lon":5.36735,"is_reserved":false,"is_disabled":false,"rental_uris":{"android":"levelo://app?vid=91af7c49-4122-4f83-a08d-fc084211eb7b","ios":"levelo://app?vid=91af7c49-4122-4f83-a08d-fc084211eb7b"},"vehicle_type_id":"4","last_reported":1744110488,"current_range_meters":9600,"station_id":"ce4bgr92rcd13ifvqc6g","pricing_plan_id":"cebpf4jnsgd1na2vs0mg"},{"bike_id":"70810d3e-9936-4863-b211-84f880613e88","system_id":"levelo_inurba_marseille","lat":43.31293,"lon":5.37319,"is_reserved":false,"is_disabled":false,"rental_uris":{"android":"levelo://app?vid=70810d3e-9936-4863-b211-84f880613e88","ios":"levelo://app?vid=70810d3e-9936-4863-b211-84f880613e88"},"vehicle_type_id":"4","last_reported":1744110488,"current_range_meters":9600,"station_id":"","pricing_plan_id":"cebpf4jnsgd1na2vs0mg"},{"bike_id":"91280ebd-28ba-47b5-bd60-b9f91a82422d","system_id":"levelo_inurba_marseille","lat":43.32345,"lon":5.36775,"is_reserved":false,"is_disabled":false,"rental_uris":{"android":"levelo://app?vid=91280ebd-28ba-47b5-bd60-b9f91a82422d","ios":"levelo://app?vid=91280ebd-28ba-47b5-bd60-b9f91a82422d"},"vehicle_type_id":"4","last_reported":1744110488,"current_range_meters":9600,"station_id":"ce4bhsh2rcd13ifvqi2g","pricing_plan_id":"cebpf4jnsgd1na2vs0mg"},{"bike_id":"91e1debd-97d2-42fc-99e1-25ce957871f6","system_id":"levelo_inurba_marseille","lat":43.3015,"lon":5.37413,"is_reserved":false,"is_disabled":false,"rental_uris":{"android":"levelo://app?vid=91e1debd-97d2-42fc-99e1-25ce957871f6","ios":"levelo://app?vid=91e1debd-97d2-42fc-99e1-25ce957871f6"},"vehicle_type_id":"4","last_reported":1744110488,"current_range_meters":10000,"station_id":"ce4bgs92rcd13ifvqcc0","pricing_plan_id":"cebpf4jnsgd1na2vs0mg"},{"bike_id":"c201bb3e-7742-4cdc-8187-7920a829e235","system_id":"levelo_inurba_marseille","lat":43.29715,"lon":5.377,"is_reserved":false,"is_disabled":false,"rental_uris":{"android":"levelo://app?vid=c201bb3e-7742-4cdc-8187-7920a829e235","ios":"levelo://app?vid=c201bb3e-7742-4cdc-8187-7920a829e235"},"vehicle_type_id":"4","last_reported":1744110488,"current_range_meters":10000,"station_id":"ce4bgkh2rcd13ifvqbl0","pricing_plan_id":"cebpf4jnsgd1na2vs0mg"},{"bike_id":"0e8fbedf-c94f-4e26-b59b-f5ac3d03fbfd","system_id":"levelo_inurba_marseille","lat":43.31717,"lon":5.37735,"is_reserved":false,"is_disabled":false,"rental_uris":{"android":"levelo://app?vid=0e8fbedf-c94f-4e26-b59b-f5ac3d03fbfd","ios":"levelo://app?vid=0e8fbedf-c94f-4e26-b59b-f5ac3d03fbfd"},"vehicle_type_id":"4","last_reported":1744110488,"current_range_meters":9600,"station_id":"ce4bgth2rcd13ifvqch0","pricing_plan_id":"cebpf4jnsgd1na2vs0mg"},{"bike_id":"89771962-fe60-4144-a8a6-39dd0f7b9fb3","system_id":"levelo_inurba_marseille","lat":43.21221,"lon":5.35076,"is_reserved":false,"is_disabled":false,"rental_uris":{"android":"levelo://app?vid=89771962-fe60-4144-a8a6-39dd0f7b9fb3","ios":"levelo://app?vid=89771962-fe60-4144-a8a6-39dd0f7b9fb3"},"vehicle_type_id":"4","last_reported":1744110488,"current_range_meters":10000,"station_id":"st_cvj6sg6p6f1abm77japg","pricing_plan_id":"cebpf4jnsgd1na2vs0mg"},{"bike_id":"02d5d5db-7c18-478a-99b1-e5cb8ffe0138","system_id":"levelo_inurba_marseille","lat":43.30538,"lon":5.36552,"is_reserved":false,"is_disabled":false,"rental_uris":{"android":"levelo://app?vid=02d5d5db-7c18-478a-99b1-e5cb8ffe0138","ios":"levelo://app?vid=02d5d5db-7c18-478a-99b1-e5cb8ffe0138"},"vehicle_type_id":"4","last_reported":1744110488,"current_range_meters":10000,"station_id":"ce4bgs12rcd13ifvqcag","pricing_plan_id":"cebpf4jnsgd1na2vs0mg"},{"bike_id":"f2f8031e-8acf-441f-a6b8-4b845409031c","system_id":"levelo_inurba_marseille","lat":43.27368,"lon":5.36246,"is_reserved":false,"is_disabled":false,"rental_uris":{"android":"levelo://app?vid=f2f8031e-8acf-441f-a6b8-4b845409031c","ios":"levelo://app?vid=f2f8031e-8acf-441f-a6b8-4b845409031c"},"vehicle_type_id":"4","last_reported":1744110488,"current_range_meters":10800,"station_id":"ce4bhbh2rcd13ifvqeo0","pricing_plan_id":"cebpf4jnsgd1na2vs0mg"},{"bike_id":"913009fc-8592-4ed4-b957-fc1b0b0a5fe7","system_id":"levelo_inurba_marseille","lat":43.30141,"lon":5.37421,"is_reserved":false,"is_disabled":false,"rental_uris":{"android":"levelo://app?vid=913009fc-8592-4ed4-b957-fc1b0b0a5fe7","ios":"levelo://app?vid=913009fc-8592-4ed4-b957-fc1b0b0a5fe7"},"vehicle_type_id":"4","last_reported":1744110488,"current_range_meters":10800,"station_id":"ce4bgs92rcd13ifvqcc0","pricing_plan_id":"cebpf4jnsgd1na2vs0mg"},{"bike_id":"57c4e6e8-026a-4350-b996-12df6b497807","system_id":"levelo_inurba_marseille","lat":43.29599,"lon":5.37709,"is_reserved":false,"is_disabled":true,"rental_uris":{"android":"levelo://app?vid=57c4e6e8-026a-4350-b996-12df6b497807","ios":"levelo://app?vid=57c4e6e8-026a-4350-b996-12df6b497807"},"vehicle_type_id":"4","last_reported":1744110488,"current_range_meters":11200,"station_id":"ce4bgi92rcd13ifvqb90","pricing_plan_id":"cebpf4jnsgd1na2vs0mg"},{"bike_id":"5b76e7b8-bbb9-404a-8218-efeecbc6b7f2","system_id":"levelo_inurba_marseille","lat":43.24165,"lon":5.39725,"is_reserved":false,"is_disabled":false,"rental_uris":{"android":"levelo://app?vid=5b76e7b8-bbb9-404a-8218-efeecbc6b7f2","ios":"levelo://app?vid=5b76e7b8-bbb9-404a-8218-efeecbc6b7f2"},"vehicle_type_id":"4","last_reported":1744110488,"current_range_meters":11200,"station_id":"ce4bhn12rcd13ifvqgpg","pricing_plan_id":"cebpf4jnsgd1na2vs0mg"},{"bike_id":"fb2df288-61ad-4587-a224-25cb44c5d20c","system_id":"levelo_inurba_marseille","lat":43.24674,"lon":5.38148,"is_reserved":false,"is_disabled":false,"rental_uris":{"android":"levelo://app?vid=fb2df288-61ad-4587-a224-25cb44c5d20c","ios":"levelo://app?vid=fb2df288-61ad-4587-a224-25cb44c5d20c"},"vehicle_type_id":"4","last_reported":1744110488,"current_range_meters":11200,"station_id":"ce4bhih2rcd13ifvqfr0","pricing_plan_id":"cebpf4jnsgd1na2vs0mg"},{"bike_id":"a613de97-0090-4415-bf45-b9a7dfc2a534","system_id":"levelo_inurba_marseille","lat":43.24167,"lon":5.36403,"is_reserved":false,"is_disabled":false,"rental_uris":{"android":"levelo://app?vid=a613de97-0090-4415-bf45-b9a7dfc2a534","ios":"levelo://app?vid=a613de97-0090-4415-bf45-b9a7dfc2a534"},"vehicle_type_id":"4","last_reported":1744110488,"current_range_meters":11200,"station_id":"cpo36qri1sfpv3e86is0","pricing_plan_id":"cebpf4jnsgd1na2vs0mg"},{"bike_id":"98e10081-25f1-4efa-987e-503f572ac2ee","system_id":"levelo_inurba_marseille","lat":43.23154,"lon":5.43725,"is_reserved":false,"is_disabled":false,"rental_uris":{"android":"levelo://app?vid=98e10081-25f1-4efa-987e-503f572ac2ee","ios":"levelo://app?vid=98e10081-25f1-4efa-987e-503f572ac2ee"},"vehicle_type_id":"4","last_reported":1744110488,"current_range_meters":11200,"station_id":"ce4bhmp2rcd13ifvqgog","pricing_plan_id":"cebpf4jnsgd1na2vs0mg"},{"bike_id":"4a225dfb-dc70-4132-9a63-9c1a654bd0ed","system_id":"levelo_inurba_marseille","lat":43.2885,"lon":5.39303,"is_reserved":false,"is_disabled":false,"rental_uris":{"android":"levelo://app?vid=4a225dfb-dc70-4132-9a63-9c1a654bd0ed","ios":"levelo://app?vid=4a225dfb-dc70-4132-9a63-9c1a654bd0ed"},"vehicle_type_id":"4","last_reported":1744110488,"current_range_meters":11200,"station_id":"ce4bh2p2rcd13ifvqdi0","pricing_plan_id":"cebpf4jnsgd1na2vs0mg"},{"bike_id":"0afed779-407d-455d-a0b7-f04caa260d0f","system_id":"levelo_inurba_marseille","lat":43.31714,"lon":5.43718,"is_reserved":false,"is_disabled":true,"rental_uris":{"android":"levelo://app?vid=0afed779-407d-455d-a0b7-f04caa260d0f","ios":"levelo://app?vid=0afed779-407d-455d-a0b7-f04caa260d0f"},"vehicle_type_id":"4","last_reported":1744110488,"current_range_meters":11600,"station_id":"ce4bhp92rcd13ifvqhcg","pricing_plan_id":"cebpf4jnsgd1na2vs0mg"},{"bike_id":"73886fa4-f2c6-4d10-9fc9-9049c6845aa7","system_id":"levelo_inurba_marseille","lat":43.25494,"lon":5.3765,"is_reserved":false,"is_disabled":false,"rental_uris":{"android":"levelo://app?vid=73886fa4-f2c6-4d10-9fc9-9049c6845aa7","ios":"levelo://app?vid=73886fa4-f2c6-4d10-9fc9-9049c6845aa7"},"vehicle_type_id":"4","last_reported":1744110488,"current_range_meters":11600,"station_id":"ce4bhh12rcd13ifvqff0","pricing_plan_id":"cebpf4jnsgd1na2vs0mg"},{"bike_id":"0748ce16-1dbb-4683-afb9-eabebbdfd5a5","system_id":"levelo_inurba_marseille","lat":43.29226,"lon":5.40028,"is_reserved":false,"is_disabled":false,"rental_uris":{"android":"levelo://app?vid=0748ce16-1dbb-4683-afb9-eabebbdfd5a5","ios":"levelo://app?vid=0748ce16-1dbb-4683-afb9-eabebbdfd5a5"},"vehicle_type_id":"4","last_reported":1744110488,"current_range_meters":11600,"station_id":"","pricing_plan_id":"cebpf4jnsgd1na2vs0mg"},{"bike_id":"65fcbb35-f94c-4eda-8aae-880ee014924c","system_id":"levelo_inurba_marseille","lat":43.2314,"lon":5.43739,"is_reserved":false,"is_disabled":false,"rental_uris":{"android":"levelo://app?vid=65fcbb35-f94c-4eda-8aae-880ee014924c","ios":"levelo://app?vid=65fcbb35-f94c-4eda-8aae-880ee014924c"},"vehicle_type_id":"4","last_reported":1744110488,"current_range_meters":11600,"station_id":"ce4bhmp2rcd13ifvqgog","pricing_plan_id":"cebpf4jnsgd1na2vs0mg"},{"bike_id":"00d5e003-60dd-4fe9-aa11-23619ad9b533","system_id":"levelo_inurba_marseille","lat":43.29419,"lon":5.3862,"is_reserved":false,"is_disabled":false,"rental_uris":{"android":"levelo://app?vid=00d5e003-60dd-4fe9-aa11-23619ad9b533","ios":"levelo://app?vid=00d5e003-60dd-4fe9-aa11-23619ad9b533"},"vehicle_type_id":"4","last_reported":1744110488,"current_range_meters":11600,"station_id":"ce4bh2h2rcd13ifvqdh0","pricing_plan_id":"cebpf4jnsgd1na2vs0mg"},{"bike_id":"68d1cc33-0218-451e-8e10-d32225c21263","system_id":"levelo_inurba_marseille","lat":43.23155,"lon":5.43745,"is_reserved":false,"is_disabled":true,"rental_uris":{"android":"levelo://app?vid=68d1cc33-0218-451e-8e10-d32225c21263","ios":"levelo://app?vid=68d1cc33-0218-451e-8e10-d32225c21263"},"vehicle_type_id":"4","last_reported":1744110488,"current_range_meters":11600,"station_id":"ce4bhmp2rcd13ifvqgog","pricing_plan_id":"cebpf4jnsgd1na2vs0mg"},{"bike_id":"cf1ff944-6ec6-45c5-ad6f-1a6c9a1154b0","system_id":"levelo_inurba_marseille","lat":43.30909,"lon":5.36868,"is_reserved":false,"is_disabled":false,"rental_uris":{"android":"levelo://app?vid=cf1ff944-6ec6-45c5-ad6f-1a6c9a1154b0","ios":"levelo://app?vid=cf1ff944-6ec6-45c5-ad6f-1a6c9a1154b0"},"vehicle_type_id":"4","last_reported":1744110488,"current_range_meters":11600,"station_id":"ce4bgn92rcd13ifvqbvg","pricing_plan_id":"cebpf4jnsgd1na2vs0mg"},{"bike_id":"4bacdaaa-7fb4-452a-b873-94dd24624c9a","system_id":"levelo_inurba_marseille","lat":43.313893,"lon":5.366986,"is_reserved":false,"is_disabled":false,"rental_uris":{"android":"levelo://app?vid=4bacdaaa-7fb4-452a-b873-94dd24624c9a","ios":"levelo://app?vid=4bacdaaa-7fb4-452a-b873-94dd24624c9a"},"vehicle_type_id":"4","last_reported":1744110488,"current_range_meters":11600,"station_id":"","pricing_plan_id":"cebpf4jnsgd1na2vs0mg"},{"bike_id":"93e3fd92-d65f-4f36-ba40-a3e5476ebc87","system_id":"levelo_inurba_marseille","lat":43.30701,"lon":5.36547,"is_reserved":false,"is_disabled":false,"rental_uris":{"android":"levelo://app?vid=93e3fd92-d65f-4f36-ba40-a3e5476ebc87","ios":"levelo://app?vid=93e3fd92-d65f-4f36-ba40-a3e5476ebc87"},"vehicle_type_id":"4","last_reported":1744110488,"current_range_meters":12000,"station_id":"","pricing_plan_id":"cebpf4jnsgd1na2vs0mg"},{"bike_id":"583aff7a-d1eb-475d-b0a5-743049ce2944","system_id":"levelo_inurba_marseille","lat":43.29193,"lon":5.3579,"is_reserved":false,"is_disabled":false,"rental_uris":{"android":"levelo://app?vid=583aff7a-d1eb-475d-b0a5-743049ce2944","ios":"levelo://app?vid=583aff7a-d1eb-475d-b0a5-743049ce2944"},"vehicle_type_id":"4","last_reported":1744110488,"current_range_meters":12000,"station_id":"ce4bhb12rcd13ifvqel0","pricing_plan_id":"cebpf4jnsgd1na2vs0mg"},{"bike_id":"5b808185-0a5a-48a8-8a34-81f7ce536aa8","system_id":"levelo_inurba_marseille","lat":43.28427,"lon":5.35001,"is_reserved":false,"is_disabled":false,"rental_uris":{"android":"levelo://app?vid=5b808185-0a5a-48a8-8a34-81f7ce536aa8","ios":"levelo://app?vid=5b808185-0a5a-48a8-8a34-81f7ce536aa8"},"vehicle_type_id":"4","last_reported":1744110488,"current_range_meters":12000,"station_id":"ce4bhbh2rcd13ifvqepg","pricing_plan_id":"cebpf4jnsgd1na2vs0mg"},{"bike_id":"0aa02c49-cbb3-4907-a588-f754056f3ba8","system_id":"levelo_inurba_marseille","lat":43.3081,"lon":5.38132,"is_reserved":false,"is_disabled":true,"rental_uris":{"android":"levelo://app?vid=0aa02c49-cbb3-4907-a588-f754056f3ba8","ios":"levelo://app?vid=0aa02c49-cbb3-4907-a588-f754056f3ba8"},"vehicle_type_id":"4","last_reported":1744110488,"current_range_meters":12000,"station_id":"ce4bgt12rcd13ifvqce0","pricing_plan_id":"cebpf4jnsgd1na2vs0mg"},{"bike_id":"e369bf82-6cc6-437c-90e2-7dde304cbc2f","system_id":"levelo_inurba_marseille","lat":43.24164,"lon":5.36394,"is_reserved":false,"is_disabled":false,"rental_uris":{"android":"levelo://app?vid=e369bf82-6cc6-437c-90e2-7dde304cbc2f","ios":"levelo://app?vid=e369bf82-6cc6-437c-90e2-7dde304cbc2f"},"vehicle_type_id":"4","last_reported":1744110488,"current_range_meters":12000,"station_id":"cpo36qri1sfpv3e86is0","pricing_plan_id":"cebpf4jnsgd1na2vs0mg"},{"bike_id":"20fc5042-1d35-4e78-b5b4-05f75cbe7b93","system_id":"levelo_inurba_marseille","lat":43.30909,"lon":5.36851,"is_reserved":false,"is_disabled":false,"rental_uris":{"android":"levelo://app?vid=20fc5042-1d35-4e78-b5b4-05f75cbe7b93","ios":"levelo://app?vid=20fc5042-1d35-4e78-b5b4-05f75cbe7b93"},"vehicle_type_id":"4","last_reported":1744110488,"current_range_meters":12000,"station_id":"ce4bgn92rcd13ifvqbvg","pricing_plan_id":"cebpf4jnsgd1na2vs0mg"},{"bike_id":"a2b55975-55e4-4a3f-8af7-2c27ff45ed68","system_id":"levelo_inurba_marseille","lat":43.281521,"lon":5.426378,"is_reserved":false,"is_disabled":true,"rental_uris":{"android":"levelo://app?vid=a2b55975-55e4-4a3f-8af7-2c27ff45ed68","ios":"levelo://app?vid=a2b55975-55e4-4a3f-8af7-2c27ff45ed68"},"vehicle_type_id":"4","last_reported":1744110488,"current_range_meters":12400,"station_id":"ce4bhnh2rcd13ifvqgug","pricing_plan_id":"cebpf4jnsgd1na2vs0mg"},{"bike_id":"c25cebe9-0724-4d96-8a8d-d22a0b8c00a4","system_id":"levelo_inurba_marseille","lat":43.2459,"lon":5.41575,"is_reserved":false,"is_disabled":false,"rental_uris":{"android":"levelo://app?vid=c25cebe9-0724-4d96-8a8d-d22a0b8c00a4","ios":"levelo://app?vid=c25cebe9-0724-4d96-8a8d-d22a0b8c00a4"},"vehicle_type_id":"4","last_reported":1744110488,"current_range_meters":12400,"station_id":"","pricing_plan_id":"cebpf4jnsgd1na2vs0mg"},{"bike_id":"c100526d-4d35-4657-a255-97c7221f1c44","system_id":"levelo_inurba_marseille","lat":43.2901,"lon":5.37563,"is_reserved":false,"is_disabled":true,"rental_uris":{"android":"levelo://app?vid=c100526d-4d35-4657-a255-97c7221f1c44","ios":"levelo://app?vid=c100526d-4d35-4657-a255-97c7221f1c44"},"vehicle_type_id":"4","last_reported":1744110488,"current_range_meters":12400,"station_id":"ce4bh692rcd13ifvqe90","pricing_plan_id":"cebpf4jnsgd1na2vs0mg"},{"bike_id":"b08a3433-b6aa-4d2e-8717-52e457548622","system_id":"levelo_inurba_marseille","lat":43.2808,"lon":5.39669,"is_reserved":false,"is_disabled":false,"rental_uris":{"android":"levelo://app?vid=b08a3433-b6aa-4d2e-8717-52e457548622","ios":"levelo://app?vid=b08a3433-b6aa-4d2e-8717-52e457548622"},"vehicle_type_id":"4","last_reported":1744110488,"current_range_meters":12000,"station_id":"ce4bho12rcd13ifvqh2g","pricing_plan_id":"cebpf4jnsgd1na2vs0mg"},{"bike_id":"853caf2c-8afb-4255-8fa5-88e65400319e","system_id":"levelo_inurba_marseille","lat":43.29893,"lon":5.38906,"is_reserved":false,"is_disabled":false,"rental_uris":{"android":"levelo://app?vid=853caf2c-8afb-4255-8fa5-88e65400319e","ios":"levelo://app?vid=853caf2c-8afb-4255-8fa5-88e65400319e"},"vehicle_type_id":"4","last_reported":1744110488,"current_range_meters":12000,"station_id":"ce4bh392rcd13ifvqdl0","pricing_plan_id":"cebpf4jnsgd1na2vs0mg"},{"bike_id":"5b6be73e-e697-452c-8046-980c42a9b685","system_id":"levelo_inurba_marseille","lat":43.32471,"lon":5.36548,"is_reserved":false,"is_disabled":false,"rental_uris":{"android":"levelo://app?vid=5b6be73e-e697-452c-8046-980c42a9b685","ios":"levelo://app?vid=5b6be73e-e697-452c-8046-980c42a9b685"},"vehicle_type_id":"4","last_reported":1744110488,"current_range_meters":12400,"station_id":"ce4bhs12rcd13ifvqhvg","pricing_plan_id":"cebpf4jnsgd1na2vs0mg"},{"bike_id":"2be8794b-32c2-4e4f-bbca-101f9461c413","system_id":"levelo_inurba_marseille","lat":43.30932,"lon":5.40145,"is_reserved":false,"is_disabled":false,"rental_uris":{"android":"levelo://app?vid=2be8794b-32c2-4e4f-bbca-101f9461c413","ios":"levelo://app?vid=2be8794b-32c2-4e4f-bbca-101f9461c413"},"vehicle_type_id":"4","last_reported":1744110488,"current_range_meters":12400,"station_id":"ce4bgvp2rcd13ifvqct0","pricing_plan_id":"cebpf4jnsgd1na2vs0mg"},{"bike_id":"f143ff2e-721e-493c-bcdc-a7d2cc09ad81","system_id":"levelo_inurba_marseille","lat":43.31019,"lon":5.37726,"is_reserved":false,"is_disabled":true,"rental_uris":{"android":"levelo://app?vid=f143ff2e-721e-493c-bcdc-a7d2cc09ad81","ios":"levelo://app?vid=f143ff2e-721e-493c-bcdc-a7d2cc09ad81"},"vehicle_type_id":"4","last_reported":1744110488,"current_range_meters":12400,"station_id":"","pricing_plan_id":"cebpf4jnsgd1na2vs0mg"},{"bike_id":"311ffc55-dc15-4f2b-8075-3136d92a3444","system_id":"levelo_inurba_marseille","lat":43.21187,"lon":5.35076,"is_reserved":false,"is_disabled":false,"rental_uris":{"android":"levelo://app?vid=311ffc55-dc15-4f2b-8075-3136d92a3444","ios":"levelo://app?vid=311ffc55-dc15-4f2b-8075-3136d92a3444"},"vehicle_type_id":"4","last_reported":1744110488,"current_range_meters":12800,"station_id":"st_cvj6sg6p6f1abm77japg","pricing_plan_id":"cebpf4jnsgd1na2vs0mg"},{"bike_id":"1ca7d0c4-b7aa-4350-ad9f-4e24c2ba029a","system_id":"levelo_inurba_marseille","lat":43.30376,"lon":5.42484,"is_reserved":false,"is_disabled":true,"rental_uris":{"android":"levelo://app?vid=1ca7d0c4-b7aa-4350-ad9f-4e24c2ba029a","ios":"levelo://app?vid=1ca7d0c4-b7aa-4350-ad9f-4e24c2ba029a"},"vehicle_type_id":"4","last_reported":1744110488,"current_range_meters":12800,"station_id":"ce4bhoh2rcd13ifvqh6g","pricing_plan_id":"cebpf4jnsgd1na2vs0mg"},{"bike_id":"ee22328b-554a-4b1a-b84c-e86b9e5143a2","system_id":"levelo_inurba_marseille","lat":43.2737,"lon":5.36247,"is_reserved":false,"is_disabled":false,"rental_uris":{"android":"levelo://app?vid=ee22328b-554a-4b1a-b84c-e86b9e5143a2","ios":"levelo://app?vid=ee22328b-554a-4b1a-b84c-e86b9e5143a2"},"vehicle_type_id":"4","last_reported":1744110488,"current_range_meters":12800,"station_id":"ce4bhbh2rcd13ifvqeo0","pricing_plan_id":"cebpf4jnsgd1na2vs0mg"},{"bike_id":"79f7c742-7a07-41c2-8d72-e26332499f67","system_id":"levelo_inurba_marseille","lat":43.28413,"lon":5.3498,"is_reserved":false,"is_disabled":false,"rental_uris":{"android":"levelo://app?vid=79f7c742-7a07-41c2-8d72-e26332499f67","ios":"levelo://app?vid=79f7c742-7a07-41c2-8d72-e26332499f67"},"vehicle_type_id":"4","last_reported":1744110488,"current_range_meters":12800,"station_id":"ce4bhbh2rcd13ifvqepg","pricing_plan_id":"cebpf4jnsgd1na2vs0mg"},{"bike_id":"4ab8bcb3-8baa-4569-8931-fe048664aa3d","system_id":"levelo_inurba_marseille","lat":43.23204,"lon":5.35553,"is_reserved":false,"is_disabled":false,"rental_uris":{"android":"levelo://app?vid=4ab8bcb3-8baa-4569-8931-fe048664aa3d","ios":"levelo://app?vid=4ab8bcb3-8baa-4569-8931-fe048664aa3d"},"vehicle_type_id":"4","last_reported":1744110488,"current_range_meters":12800,"station_id":"ce4bhu92rcd13ifvqi70","pricing_plan_id":"cebpf4jnsgd1na2vs0mg"},{"bike_id":"e706ac65-c185-49a4-9d60-5289c9053bdc","system_id":"levelo_inurba_marseille","lat":43.31753,"lon":5.39027,"is_reserved":false,"is_disabled":false,"rental_uris":{"android":"levelo://app?vid=e706ac65-c185-49a4-9d60-5289c9053bdc","ios":"levelo://app?vid=e706ac65-c185-49a4-9d60-5289c9053bdc"},"vehicle_type_id":"4","last_reported":1744110488,"current_range_meters":12800,"station_id":"ce4bhqp2rcd13ifvqhng","pricing_plan_id":"cebpf4jnsgd1na2vs0mg"},{"bike_id":"37956fe4-5744-431d-afa2-d35a2b0e9346","system_id":"levelo_inurba_marseille","lat":43.31377,"lon":5.36695,"is_reserved":false,"is_disabled":false,"rental_uris":{"android":"levelo://app?vid=37956fe4-5744-431d-afa2-d35a2b0e9346","ios":"levelo://app?vid=37956fe4-5744-431d-afa2-d35a2b0e9346"},"vehicle_type_id":"4","last_reported":1744110488,"current_range_meters":13600,"station_id":"ce4bgr92rcd13ifvqc6g","pricing_plan_id":"cebpf4jnsgd1na2vs0mg"},{"bike_id":"73ed6f16-ce99-4c16-912b-31eaf097cf39","system_id":"levelo_inurba_marseille","lat":43.312805,"lon":5.401825,"is_reserved":false,"is_disabled":false,"rental_uris":{"android":"levelo://app?vid=73ed6f16-ce99-4c16-912b-31eaf097cf39","ios":"levelo://app?vid=73ed6f16-ce99-4c16-912b-31eaf097cf39"},"vehicle_type_id":"4","last_reported":1744110488,"current_range_meters":13600,"station_id":"ce4bh092rcd13ifvqd30","pricing_plan_id":"cebpf4jnsgd1na2vs0mg"},{"bike_id":"b397701f-0d3d-44bf-ab3e-3ccc7e74fb2e","system_id":"levelo_inurba_marseille","lat":43.26418,"lon":5.42286,"is_reserved":false,"is_disabled":false,"rental_uris":{"android":"levelo://app?vid=b397701f-0d3d-44bf-ab3e-3ccc7e74fb2e","ios":"levelo://app?vid=b397701f-0d3d-44bf-ab3e-3ccc7e74fb2e"},"vehicle_type_id":"4","last_reported":1744110488,"current_range_meters":13600,"station_id":"","pricing_plan_id":"cebpf4jnsgd1na2vs0mg"},{"bike_id":"1c7e1f5f-8828-45aa-b11d-0e764ac8ffbd","system_id":"levelo_inurba_marseille","lat":43.27488,"lon":5.42455,"is_reserved":false,"is_disabled":false,"rental_uris":{"android":"levelo://app?vid=1c7e1f5f-8828-45aa-b11d-0e764ac8ffbd","ios":"levelo://app?vid=1c7e1f5f-8828-45aa-b11d-0e764ac8ffbd"},"vehicle_type_id":"4","last_reported":1744110488,"current_range_meters":14000,"station_id":"ce4bhn92rcd13ifvqgrg","pricing_plan_id":"cebpf4jnsgd1na2vs0mg"},{"bike_id":"92509f34-53b5-4f1f-8191-e5e69a4f88fa","system_id":"levelo_inurba_marseille","lat":43.29283,"lon":5.37471,"is_reserved":false,"is_disabled":false,"rental_uris":{"android":"levelo://app?vid=92509f34-53b5-4f1f-8191-e5e69a4f88fa","ios":"levelo://app?vid=92509f34-53b5-4f1f-8191-e5e69a4f88fa"},"vehicle_type_id":"4","last_reported":1744110488,"current_range_meters":14000,"station_id":"ce4bgi12rcd13ifvqb70","pricing_plan_id":"cebpf4jnsgd1na2vs0mg"},{"bike_id":"67f5402e-84ba-4cca-bae1-1308d8bfce95","system_id":"levelo_inurba_marseille","lat":43.32371,"lon":5.367563,"is_reserved":false,"is_disabled":true,"rental_uris":{"android":"levelo://app?vid=67f5402e-84ba-4cca-bae1-1308d8bfce95","ios":"levelo://app?vid=67f5402e-84ba-4cca-bae1-1308d8bfce95"},"vehicle_type_id":"4","last_reported":1744110488,"current_range_meters":14000,"station_id":"ce4bhsh2rcd13ifvqi2g","pricing_plan_id":"cebpf4jnsgd1na2vs0mg"},{"bike_id":"c688c6ba-dad8-4890-9be8-51126f4424d3","system_id":"levelo_inurba_marseille","lat":43.29259,"lon":5.40908,"is_reserved":false,"is_disabled":false,"rental_uris":{"android":"levelo://app?vid=c688c6ba-dad8-4890-9be8-51126f4424d3","ios":"levelo://app?vid=c688c6ba-dad8-4890-9be8-51126f4424d3"},"vehicle_type_id":"4","last_reported":1744110488,"current_range_meters":13600,"station_id":"ce4bh192rcd13ifvqdc0","pricing_plan_id":"cebpf4jnsgd1na2vs0mg"},{"bike_id":"ec85c5fe-deaf-4f23-be84-fc84bbce0ff8","system_id":"levelo_inurba_marseille","lat":43.29611,"lon":5.37722,"is_reserved":false,"is_disabled":false,"rental_uris":{"android":"levelo://app?vid=ec85c5fe-deaf-4f23-be84-fc84bbce0ff8","ios":"levelo://app?vid=ec85c5fe-deaf-4f23-be84-fc84bbce0ff8"},"vehicle_type_id":"4","last_reported":1744110488,"current_range_meters":14400,"station_id":"ce4bgi92rcd13ifvqb90","pricing_plan_id":"cebpf4jnsgd1na2vs0mg"},{"bike_id":"ce5ed1c9-72dc-47d4-b09c-55d7645e4525","system_id":"levelo_inurba_marseille","lat":43.25108,"lon":5.40326,"is_reserved":false,"is_disabled":false,"rental_uris":{"android":"levelo://app?vid=ce5ed1c9-72dc-47d4-b09c-55d7645e4525","ios":"levelo://app?vid=ce5ed1c9-72dc-47d4-b09c-55d7645e4525"},"vehicle_type_id":"4","last_reported":1744110488,"current_range_meters":14400,"station_id":"ce4bhlh2rcd13ifvqgig","pricing_plan_id":"cebpf4jnsgd1na2vs0mg"},{"bike_id":"fb48a705-30de-407f-97ed-93b0cb05d459","system_id":"levelo_inurba_marseille","lat":43.32009,"lon":5.38152,"is_reserved":false,"is_disabled":false,"rental_uris":{"android":"levelo://app?vid=fb48a705-30de-407f-97ed-93b0cb05d459","ios":"levelo://app?vid=fb48a705-30de-407f-97ed-93b0cb05d459"},"vehicle_type_id":"4","last_reported":1744110488,"current_range_meters":14400,"station_id":"ce4bhr12rcd13ifvqhpg","pricing_plan_id":"cebpf4jnsgd1na2vs0mg"},{"bike_id":"980b4909-06e8-4961-a7b7-ea7871482c8f","system_id":"levelo_inurba_marseille","lat":43.31374,"lon":5.36746,"is_reserved":false,"is_disabled":false,"rental_uris":{"android":"levelo://app?vid=980b4909-06e8-4961-a7b7-ea7871482c8f","ios":"levelo://app?vid=980b4909-06e8-4961-a7b7-ea7871482c8f"},"vehicle_type_id":"4","last_reported":1744110488,"current_range_meters":14400,"station_id":"ce4bgr92rcd13ifvqc6g","pricing_plan_id":"cebpf4jnsgd1na2vs0mg"},{"bike_id":"0754f691-59a4-401c-9083-b4e834c6ef3b","system_id":"levelo_inurba_marseille","lat":43.29008,"lon":5.35611,"is_reserved":false,"is_disabled":false,"rental_uris":{"android":"levelo://app?vid=0754f691-59a4-401c-9083-b4e834c6ef3b","ios":"levelo://app?vid=0754f691-59a4-401c-9083-b4e834c6ef3b"},"vehicle_type_id":"4","last_reported":1744110488,"current_range_meters":14800,"station_id":"ce4bhb92rcd13ifvqen0","pricing_plan_id":"cebpf4jnsgd1na2vs0mg"},{"bike_id":"852819f8-8577-46de-b1fa-432b264e47e4","system_id":"levelo_inurba_marseille","lat":43.24167,"lon":5.39714,"is_reserved":false,"is_disabled":false,"rental_uris":{"android":"levelo://app?vid=852819f8-8577-46de-b1fa-432b264e47e4","ios":"levelo://app?vid=852819f8-8577-46de-b1fa-432b264e47e4"},"vehicle_type_id":"4","last_reported":1744110488,"current_range_meters":15200,"station_id":"ce4bhn12rcd13ifvqgpg","pricing_plan_id":"cebpf4jnsgd1na2vs0mg"},{"bike_id":"9f95d6ec-6f52-48f3-9293-aa794a3fceb5","system_id":"levelo_inurba_marseille","lat":43.31272,"lon":5.40169,"is_reserved":false,"is_disabled":false,"rental_uris":{"android":"levelo://app?vid=9f95d6ec-6f52-48f3-9293-aa794a3fceb5","ios":"levelo://app?vid=9f95d6ec-6f52-48f3-9293-aa794a3fceb5"},"vehicle_type_id":"4","last_reported":1744110488,"current_range_meters":15200,"station_id":"ce4bh092rcd13ifvqd30","pricing_plan_id":"cebpf4jnsgd1na2vs0mg"},{"bike_id":"2aff3da0-1529-4960-a86c-d64b02e2b8cd","system_id":"levelo_inurba_marseille","lat":43.230753,"lon":5.35473,"is_reserved":false,"is_disabled":false,"rental_uris":{"android":"levelo://app?vid=2aff3da0-1529-4960-a86c-d64b02e2b8cd","ios":"levelo://app?vid=2aff3da0-1529-4960-a86c-d64b02e2b8cd"},"vehicle_type_id":"4","last_reported":1744110488,"current_range_meters":15200,"station_id":"cpo3342slgdg3j2ifvpg","pricing_plan_id":"cebpf4jnsgd1na2vs0mg"},{"bike_id":"14157366-836f-4112-aba3-2196ae7ca30f","system_id":"levelo_inurba_marseille","lat":43.27315,"lon":5.39117,"is_reserved":false,"is_disabled":false,"rental_uris":{"android":"levelo://app?vid=14157366-836f-4112-aba3-2196ae7ca30f","ios":"levelo://app?vid=14157366-836f-4112-aba3-2196ae7ca30f"},"vehicle_type_id":"4","last_reported":1744110488,"current_range_meters":14800,"station_id":"ce4bhgp2rcd13ifvqfe0","pricing_plan_id":"cebpf4jnsgd1na2vs0mg"},{"bike_id":"92c27663-ae8c-41d1-8f0e-01d009b1a56a","system_id":"levelo_inurba_marseille","lat":43.29889,"lon":5.38896,"is_reserved":false,"is_disabled":false,"rental_uris":{"android":"levelo://app?vid=92c27663-ae8c-41d1-8f0e-01d009b1a56a","ios":"levelo://app?vid=92c27663-ae8c-41d1-8f0e-01d009b1a56a"},"vehicle_type_id":"4","last_reported":1744110488,"current_range_meters":15200,"station_id":"ce4bh392rcd13ifvqdl0","pricing_plan_id":"cebpf4jnsgd1na2vs0mg"},{"bike_id":"32dbcce2-e279-4fc7-805e-923e60849e23","system_id":"levelo_inurba_marseille","lat":43.28367,"lon":5.38649,"is_reserved":false,"is_disabled":false,"rental_uris":{"android":"levelo://app?vid=32dbcce2-e279-4fc7-805e-923e60849e23","ios":"levelo://app?vid=32dbcce2-e279-4fc7-805e-923e60849e23"},"vehicle_type_id":"4","last_reported":1744110488,"current_range_meters":15200,"station_id":"ce4bh492rcd13ifvqdvg","pricing_plan_id":"cebpf4jnsgd1na2vs0mg"},{"bike_id":"83ba10f2-9817-469e-906b-cfd1ec8030b7","system_id":"levelo_inurba_marseille","lat":43.28268,"lon":5.35066,"is_reserved":false,"is_disabled":false,"rental_uris":{"android":"levelo://app?vid=83ba10f2-9817-469e-906b-cfd1ec8030b7","ios":"levelo://app?vid=83ba10f2-9817-469e-906b-cfd1ec8030b7"},"vehicle_type_id":"4","last_reported":1744110488,"current_range_meters":15200,"station_id":"ce4bhbp2rcd13ifvqerg","pricing_plan_id":"cebpf4jnsgd1na2vs0mg"},{"bike_id":"639b3c18-1642-4bcf-ae84-5c286e961332","system_id":"levelo_inurba_marseille","lat":43.28267,"lon":5.35069,"is_reserved":false,"is_disabled":false,"rental_uris":{"android":"levelo://app?vid=639b3c18-1642-4bcf-ae84-5c286e961332","ios":"levelo://app?vid=639b3c18-1642-4bcf-ae84-5c286e961332"},"vehicle_type_id":"4","last_reported":1744110488,"current_range_meters":16000,"station_id":"ce4bhbp2rcd13ifvqerg","pricing_plan_id":"cebpf4jnsgd1na2vs0mg"},{"bike_id":"5d526258-067d-448b-9447-953fa80c6e55","system_id":"levelo_inurba_marseille","lat":43.27967,"lon":5.38736,"is_reserved":false,"is_disabled":false,"rental_uris":{"android":"levelo://app?vid=5d526258-067d-448b-9447-953fa80c6e55","ios":"levelo://app?vid=5d526258-067d-448b-9447-953fa80c6e55"},"vehicle_type_id":"4","last_reported":1744110488,"current_range_meters":16000,"station_id":"ce4bhg12rcd13ifvqf80","pricing_plan_id":"cebpf4jnsgd1na2vs0mg"},{"bike_id":"a2905b9f-4c92-4ffe-b595-17e3c8468bc5","system_id":"levelo_inurba_marseille","lat":43.30555,"lon":5.36527,"is_reserved":false,"is_disabled":false,"rental_uris":{"android":"levelo://app?vid=a2905b9f-4c92-4ffe-b595-17e3c8468bc5","ios":"levelo://app?vid=a2905b9f-4c92-4ffe-b595-17e3c8468bc5"},"vehicle_type_id":"4","last_reported":1744110488,"current_range_meters":16000,"station_id":"ce4bgs12rcd13ifvqcag","pricing_plan_id":"cebpf4jnsgd1na2vs0mg"},{"bike_id":"b9431eef-d7e2-4f75-96fa-11dfb4e9c2e3","system_id":"levelo_inurba_marseille","lat":43.28416,"lon":5.34978,"is_reserved":false,"is_disabled":false,"rental_uris":{"android":"levelo://app?vid=b9431eef-d7e2-4f75-96fa-11dfb4e9c2e3","ios":"levelo://app?vid=b9431eef-d7e2-4f75-96fa-11dfb4e9c2e3"},"vehicle_type_id":"4","last_reported":1744110488,"current_range_meters":16000,"station_id":"","pricing_plan_id":"cebpf4jnsgd1na2vs0mg"},{"bike_id":"f803935a-7a8a-4d2b-826e-9d542705b391","system_id":"levelo_inurba_marseille","lat":43.28411,"lon":5.34982,"is_reserved":false,"is_disabled":false,"rental_uris":{"android":"levelo://app?vid=f803935a-7a8a-4d2b-826e-9d542705b391","ios":"levelo://app?vid=f803935a-7a8a-4d2b-826e-9d542705b391"},"vehicle_type_id":"4","last_reported":1744110488,"current_range_meters":16000,"station_id":"ce4bhbh2rcd13ifvqepg","pricing_plan_id":"cebpf4jnsgd1na2vs0mg"},{"bike_id":"d220da27-bb5e-4ca4-b262-16736cac0246","system_id":"levelo_inurba_marseille","lat":43.28414,"lon":5.34996,"is_reserved":false,"is_disabled":false,"rental_uris":{"android":"levelo://app?vid=d220da27-bb5e-4ca4-b262-16736cac0246","ios":"levelo://app?vid=d220da27-bb5e-4ca4-b262-16736cac0246"},"vehicle_type_id":"4","last_reported":1744110488,"current_range_meters":16400,"station_id":"ce4bhbh2rcd13ifvqepg","pricing_plan_id":"cebpf4jnsgd1na2vs0mg"},{"bike_id":"041b8078-8b97-4975-8fe1-8e41e4454f1d","system_id":"levelo_inurba_marseille","lat":43.29979,"lon":5.38487,"is_reserved":false,"is_disabled":false,"rental_uris":{"android":"levelo://app?vid=041b8078-8b97-4975-8fe1-8e41e4454f1d","ios":"levelo://app?vid=041b8078-8b97-4975-8fe1-8e41e4454f1d"},"vehicle_type_id":"4","last_reported":1744110488,"current_range_meters":16400,"station_id":"ce4bgj92rcd13ifvqbd0","pricing_plan_id":"cebpf4jnsgd1na2vs0mg"},{"bike_id":"da68898f-513e-4562-9685-4c6284864d89","system_id":"levelo_inurba_marseille","lat":43.27973,"lon":5.41028,"is_reserved":false,"is_disabled":true,"rental_uris":{"android":"levelo://app?vid=da68898f-513e-4562-9685-4c6284864d89","ios":"levelo://app?vid=da68898f-513e-4562-9685-4c6284864d89"},"vehicle_type_id":"4","last_reported":1744110488,"current_range_meters":16400,"station_id":"ce4bhnp2rcd13ifvqh0g","pricing_plan_id":"cebpf4jnsgd1na2vs0mg"},{"bike_id":"e41e3d45-5795-4963-8a5e-14be782be993","system_id":"levelo_inurba_marseille","lat":43.30583,"lon":5.36535,"is_reserved":false,"is_disabled":false,"rental_uris":{"android":"levelo://app?vid=e41e3d45-5795-4963-8a5e-14be782be993","ios":"levelo://app?vid=e41e3d45-5795-4963-8a5e-14be782be993"},"vehicle_type_id":"4","last_reported":1744110488,"current_range_meters":16400,"station_id":"ce4bgs12rcd13ifvqcag","pricing_plan_id":"cebpf4jnsgd1na2vs0mg"},{"bike_id":"b3eaef5b-dac9-4f1e-aa7e-dd808d1ba556","system_id":"levelo_inurba_marseille","lat":43.31402,"lon":5.36716,"is_reserved":false,"is_disabled":false,"rental_uris":{"android":"levelo://app?vid=b3eaef5b-dac9-4f1e-aa7e-dd808d1ba556","ios":"levelo://app?vid=b3eaef5b-dac9-4f1e-aa7e-dd808d1ba556"},"vehicle_type_id":"4","last_reported":1744110488,"current_range_meters":16400,"station_id":"","pricing_plan_id":"cebpf4jnsgd1na2vs0mg"},{"bike_id":"e550d74a-e830-4a4b-91fb-45079a405831","system_id":"levelo_inurba_marseille","lat":43.33016,"lon":5.39055,"is_reserved":false,"is_disabled":false,"rental_uris":{"android":"levelo://app?vid=e550d74a-e830-4a4b-91fb-45079a405831","ios":"levelo://app?vid=e550d74a-e830-4a4b-91fb-45079a405831"},"vehicle_type_id":"4","last_reported":1744110488,"current_range_meters":16800,"station_id":"ce4bhr92rcd13ifvqhrg","pricing_plan_id":"cebpf4jnsgd1na2vs0mg"},{"bike_id":"ffd23061-d90c-47a4-89fb-f1646bcdff1c","system_id":"levelo_inurba_marseille","lat":43.27097,"lon":5.42271,"is_reserved":false,"is_disabled":true,"rental_uris":{"android":"levelo://app?vid=ffd23061-d90c-47a4-89fb-f1646bcdff1c","ios":"levelo://app?vid=ffd23061-d90c-47a4-89fb-f1646bcdff1c"},"vehicle_type_id":"4","last_reported":1744110488,"current_range_meters":16800,"station_id":"ce4bhk92rcd13ifvqgb0","pricing_plan_id":"cebpf4jnsgd1na2vs0mg"},{"bike_id":"92c822fe-ff9f-4023-a7a2-fe479a6e58f0","system_id":"levelo_inurba_marseille","lat":43.3055,"lon":5.36541,"is_reserved":false,"is_disabled":false,"rental_uris":{"android":"levelo://app?vid=92c822fe-ff9f-4023-a7a2-fe479a6e58f0","ios":"levelo://app?vid=92c822fe-ff9f-4023-a7a2-fe479a6e58f0"},"vehicle_type_id":"4","last_reported":1744110488,"current_range_meters":16800,"station_id":"ce4bgs12rcd13ifvqcag","pricing_plan_id":"cebpf4jnsgd1na2vs0mg"},{"bike_id":"e24c6fd3-f9cb-40c7-9e57-dd2c20540e9b","system_id":"levelo_inurba_marseille","lat":43.33367,"lon":5.38308,"is_reserved":false,"is_disabled":false,"rental_uris":{"android":"levelo://app?vid=e24c6fd3-f9cb-40c7-9e57-dd2c20540e9b","ios":"levelo://app?vid=e24c6fd3-f9cb-40c7-9e57-dd2c20540e9b"},"vehicle_type_id":"4","last_reported":1744110488,"current_range_meters":16800,"station_id":"","pricing_plan_id":"cebpf4jnsgd1na2vs0mg"},{"bike_id":"0d1776f6-f9f6-45d1-ae37-01d28d8d5ac8","system_id":"levelo_inurba_marseille","lat":43.287431,"lon":5.352043,"is_reserved":false,"is_disabled":false,"rental_uris":{"android":"levelo://app?vid=0d1776f6-f9f6-45d1-ae37-01d28d8d5ac8","ios":"levelo://app?vid=0d1776f6-f9f6-45d1-ae37-01d28d8d5ac8"},"vehicle_type_id":"4","last_reported":1744110488,"current_range_meters":16800,"station_id":"ce4bgj92rcd13ifvqbe0","pricing_plan_id":"cebpf4jnsgd1na2vs0mg"},{"bike_id":"c2f2b791-1271-4818-b90c-9335f6093c5d","system_id":"levelo_inurba_marseille","lat":43.29272,"lon":5.37634,"is_reserved":false,"is_disabled":false,"rental_uris":{"android":"levelo://app?vid=c2f2b791-1271-4818-b90c-9335f6093c5d","ios":"levelo://app?vid=c2f2b791-1271-4818-b90c-9335f6093c5d"},"vehicle_type_id":"4","last_reported":1744110488,"current_range_meters":16800,"station_id":"ce4bgi12rcd13ifvqb80","pricing_plan_id":"cebpf4jnsgd1na2vs0mg"},{"bike_id":"b05f7dc6-8cdb-4775-a0e6-f3a6862c6f3f","system_id":"levelo_inurba_marseille","lat":43.29196,"lon":5.35805,"is_reserved":false,"is_disabled":false,"rental_uris":{"android":"levelo://app?vid=b05f7dc6-8cdb-4775-a0e6-f3a6862c6f3f","ios":"levelo://app?vid=b05f7dc6-8cdb-4775-a0e6-f3a6862c6f3f"},"vehicle_type_id":"4","last_reported":1744110488,"current_range_meters":16800,"station_id":"ce4bhb12rcd13ifvqel0","pricing_plan_id":"cebpf4jnsgd1na2vs0mg"},{"bike_id":"50a52b92-e062-4c6d-8a0d-a8d91804b92d","system_id":"levelo_inurba_marseille","lat":43.29012,"lon":5.35609,"is_reserved":false,"is_disabled":false,"rental_uris":{"android":"levelo://app?vid=50a52b92-e062-4c6d-8a0d-a8d91804b92d","ios":"levelo://app?vid=50a52b92-e062-4c6d-8a0d-a8d91804b92d"},"vehicle_type_id":"4","last_reported":1744110488,"current_range_meters":16800,"station_id":"ce4bhb92rcd13ifvqen0","pricing_plan_id":"cebpf4jnsgd1na2vs0mg"},{"bike_id":"645610ae-61b9-43da-9245-7511d8e83d18","system_id":"levelo_inurba_marseille","lat":43.29894,"lon":5.4367,"is_reserved":false,"is_disabled":false,"rental_uris":{"android":"levelo://app?vid=645610ae-61b9-43da-9245-7511d8e83d18","ios":"levelo://app?vid=645610ae-61b9-43da-9245-7511d8e83d18"},"vehicle_type_id":"4","last_reported":1744110488,"current_range_meters":17200,"station_id":"ce4bhpp2rcd13ifvqhfg","pricing_plan_id":"cebpf4jnsgd1na2vs0mg"},{"bike_id":"f90b6243-fc10-4c56-b85d-5e997476e46c","system_id":"levelo_inurba_marseille","lat":43.30275,"lon":5.37706,"is_reserved":false,"is_disabled":false,"rental_uris":{"android":"levelo://app?vid=f90b6243-fc10-4c56-b85d-5e997476e46c","ios":"levelo://app?vid=f90b6243-fc10-4c56-b85d-5e997476e46c"},"vehicle_type_id":"4","last_reported":1744110488,"current_range_meters":17200,"station_id":"ce4bguh2rcd13ifvqcj0","pricing_plan_id":"cebpf4jnsgd1na2vs0mg"},{"bike_id":"5d6a83e7-f4a0-4973-b8f4-d2f6279506b6","system_id":"levelo_inurba_marseille","lat":43.297459,"lon":5.384552,"is_reserved":false,"is_disabled":false,"rental_uris":{"android":"levelo://app?vid=5d6a83e7-f4a0-4973-b8f4-d2f6279506b6","ios":"levelo://app?vid=5d6a83e7-f4a0-4973-b8f4-d2f6279506b6"},"vehicle_type_id":"4","last_reported":1744110488,"current_range_meters":17600,"station_id":"ce4bh0p2rcd13ifvqd70","pricing_plan_id":"cebpf4jnsgd1na2vs0mg"},{"bike_id":"352b037a-6a36-4b8f-b552-9506635a2593","system_id":"levelo_inurba_marseille","lat":43.23962,"lon":5.36634,"is_reserved":false,"is_disabled":false,"rental_uris":{"android":"levelo://app?vid=352b037a-6a36-4b8f-b552-9506635a2593","ios":"levelo://app?vid=352b037a-6a36-4b8f-b552-9506635a2593"},"vehicle_type_id":"4","last_reported":1744110488,"current_range_meters":16800,"station_id":"ce4bhi12rcd13ifvqfp0","pricing_plan_id":"cebpf4jnsgd1na2vs0mg"},{"bike_id":"2c569879-7ee1-4c62-ab10-70f687bcad63","system_id":"levelo_inurba_marseille","lat":43.272036,"lon":5.391691,"is_reserved":false,"is_disabled":false,"rental_uris":{"android":"levelo://app?vid=2c569879-7ee1-4c62-ab10-70f687bcad63","ios":"levelo://app?vid=2c569879-7ee1-4c62-ab10-70f687bcad63"},"vehicle_type_id":"4","last_reported":1744110488,"current_range_meters":17200,"station_id":"ce4bhoh2rcd13ifvqh5g","pricing_plan_id":"cebpf4jnsgd1na2vs0mg"},{"bike_id":"79ef5d27-1a7c-4110-b660-341d9503c5cb","system_id":"levelo_inurba_marseille","lat":43.23154,"lon":5.437125,"is_reserved":false,"is_disabled":false,"rental_uris":{"android":"levelo://app?vid=79ef5d27-1a7c-4110-b660-341d9503c5cb","ios":"levelo://app?vid=79ef5d27-1a7c-4110-b660-341d9503c5cb"},"vehicle_type_id":"4","last_reported":1744110488,"current_range_meters":17200,"station_id":"ce4bhmp2rcd13ifvqgog","pricing_plan_id":"cebpf4jnsgd1na2vs0mg"},{"bike_id":"382715ea-090b-4475-a93b-c6754dd06b29","system_id":"levelo_inurba_marseille","lat":43.286835,"lon":5.373956,"is_reserved":false,"is_disabled":false,"rental_uris":{"android":"levelo://app?vid=382715ea-090b-4475-a93b-c6754dd06b29","ios":"levelo://app?vid=382715ea-090b-4475-a93b-c6754dd06b29"},"vehicle_type_id":"4","last_reported":1744110488,"current_range_meters":17600,"station_id":"ce4bh3p2rcd13ifvqdq0","pricing_plan_id":"cebpf4jnsgd1na2vs0mg"},{"bike_id":"3656c20c-eb1e-4ae4-9294-cf1933f151b7","system_id":"levelo_inurba_marseille","lat":43.24169,"lon":5.39715,"is_reserved":false,"is_disabled":false,"rental_uris":{"android":"levelo://app?vid=3656c20c-eb1e-4ae4-9294-cf1933f151b7","ios":"levelo://app?vid=3656c20c-eb1e-4ae4-9294-cf1933f151b7"},"vehicle_type_id":"4","last_reported":1744110488,"current_range_meters":17600,"station_id":"ce4bhn12rcd13ifvqgpg","pricing_plan_id":"cebpf4jnsgd1na2vs0mg"},{"bike_id":"1edd2665-f50f-435b-a34f-c7437f4120a9","system_id":"levelo_inurba_marseille","lat":43.27836,"lon":5.39215,"is_reserved":false,"is_disabled":false,"rental_uris":{"android":"levelo://app?vid=1edd2665-f50f-435b-a34f-c7437f4120a9","ios":"levelo://app?vid=1edd2665-f50f-435b-a34f-c7437f4120a9"},"vehicle_type_id":"4","last_reported":1744110488,"current_range_meters":17200,"station_id":"ce4bhjp2rcd13ifvqga0","pricing_plan_id":"cebpf4jnsgd1na2vs0mg"},{"bike_id":"475d89c8-2fd3-4f6e-b571-b353f42a2134","system_id":"levelo_inurba_marseille","lat":43.29003,"lon":5.35612,"is_reserved":false,"is_disabled":false,"rental_uris":{"android":"levelo://app?vid=475d89c8-2fd3-4f6e-b571-b353f42a2134","ios":"levelo://app?vid=475d89c8-2fd3-4f6e-b571-b353f42a2134"},"vehicle_type_id":"4","last_reported":1744110488,"current_range_meters":17200,"station_id":"ce4bhb92rcd13ifvqen0","pricing_plan_id":"cebpf4jnsgd1na2vs0mg"},{"bike_id":"86c1db0b-896c-4a92-a98c-9b2db961a8db","system_id":"levelo_inurba_marseille","lat":43.27375,"lon":5.36269,"is_reserved":false,"is_disabled":false,"rental_uris":{"android":"levelo://app?vid=86c1db0b-896c-4a92-a98c-9b2db961a8db","ios":"levelo://app?vid=86c1db0b-896c-4a92-a98c-9b2db961a8db"},"vehicle_type_id":"4","last_reported":1744110488,"current_range_meters":17600,"station_id":"ce4bhbh2rcd13ifvqeo0","pricing_plan_id":"cebpf4jnsgd1na2vs0mg"},{"bike_id":"dbfa32e4-24da-4d08-a578-195394b3cd2f","system_id":"levelo_inurba_marseille","lat":43.32346,"lon":5.36722,"is_reserved":false,"is_disabled":false,"rental_uris":{"android":"levelo://app?vid=dbfa32e4-24da-4d08-a578-195394b3cd2f","ios":"levelo://app?vid=dbfa32e4-24da-4d08-a578-195394b3cd2f"},"vehicle_type_id":"4","last_reported":1744110488,"current_range_meters":17600,"station_id":"ce4bhsh2rcd13ifvqi2g","pricing_plan_id":"cebpf4jnsgd1na2vs0mg"},{"bike_id":"fa4f2432-d2f6-4e0e-848e-49312c1f747f","system_id":"levelo_inurba_marseille","lat":43.2868,"lon":5.38687,"is_reserved":false,"is_disabled":false,"rental_uris":{"android":"levelo://app?vid=fa4f2432-d2f6-4e0e-848e-49312c1f747f","ios":"levelo://app?vid=fa4f2432-d2f6-4e0e-848e-49312c1f747f"},"vehicle_type_id":"4","last_reported":1744110488,"current_range_meters":17600,"station_id":"ce4bh492rcd13ifvqdug","pricing_plan_id":"cebpf4jnsgd1na2vs0mg"},{"bike_id":"5273534c-3473-4abd-9c4b-e677a5c1499a","system_id":"levelo_inurba_marseille","lat":43.29046,"lon":5.3696,"is_reserved":false,"is_disabled":false,"rental_uris":{"android":"levelo://app?vid=5273534c-3473-4abd-9c4b-e677a5c1499a","ios":"levelo://app?vid=5273534c-3473-4abd-9c4b-e677a5c1499a"},"vehicle_type_id":"4","last_reported":1744110488,"current_range_meters":17600,"station_id":"","pricing_plan_id":"cebpf4jnsgd1na2vs0mg"},{"bike_id":"1e099cf5-9456-4ac3-8d36-9153ce8a87f2","system_id":"levelo_inurba_marseille","lat":43.29546,"lon":5.39931,"is_reserved":false,"is_disabled":true,"rental_uris":{"android":"levelo://app?vid=1e099cf5-9456-4ac3-8d36-9153ce8a87f2","ios":"levelo://app?vid=1e099cf5-9456-4ac3-8d36-9153ce8a87f2"},"vehicle_type_id":"4","last_reported":1744110488,"current_range_meters":18000,"station_id":"ce4bh312rcd13ifvqdj0","pricing_plan_id":"cebpf4jnsgd1na2vs0mg"},{"bike_id":"f619c15e-1941-443d-8ef4-21a7cd257551","system_id":"levelo_inurba_marseille","lat":43.30547,"lon":5.36673,"is_reserved":false,"is_disabled":false,"rental_uris":{"android":"levelo://app?vid=f619c15e-1941-443d-8ef4-21a7cd257551","ios":"levelo://app?vid=f619c15e-1941-443d-8ef4-21a7cd257551"},"vehicle_type_id":"4","last_reported":1744110488,"current_range_meters":18000,"station_id":"","pricing_plan_id":"cebpf4jnsgd1na2vs0mg"},{"bike_id":"656bc011-f369-4a8b-b342-d606d868a448","system_id":"levelo_inurba_marseille","lat":43.27496,"lon":5.42453,"is_reserved":false,"is_disabled":false,"rental_uris":{"android":"levelo://app?vid=656bc011-f369-4a8b-b342-d606d868a448","ios":"levelo://app?vid=656bc011-f369-4a8b-b342-d606d868a448"},"vehicle_type_id":"4","last_reported":1744110488,"current_range_meters":17600,"station_id":"ce4bhn92rcd13ifvqgrg","pricing_plan_id":"cebpf4jnsgd1na2vs0mg"},{"bike_id":"166e9c56-dde4-4e52-b151-9d752f291a4d","system_id":"levelo_inurba_marseille","lat":43.291553,"lon":5.358904,"is_reserved":false,"is_disabled":false,"rental_uris":{"android":"levelo://app?vid=166e9c56-dde4-4e52-b151-9d752f291a4d","ios":"levelo://app?vid=166e9c56-dde4-4e52-b151-9d752f291a4d"},"vehicle_type_id":"4","last_reported":1744110488,"current_range_meters":18000,"station_id":"ce4bhb12rcd13ifvqel0","pricing_plan_id":"cebpf4jnsgd1na2vs0mg"},{"bike_id":"27768073-dde6-48e9-bf13-e40e2934834a","system_id":"levelo_inurba_marseille","lat":43.24179,"lon":5.39729,"is_reserved":false,"is_disabled":false,"rental_uris":{"android":"levelo://app?vid=27768073-dde6-48e9-bf13-e40e2934834a","ios":"levelo://app?vid=27768073-dde6-48e9-bf13-e40e2934834a"},"vehicle_type_id":"4","last_reported":1744110488,"current_range_meters":18000,"station_id":"ce4bhn12rcd13ifvqgpg","pricing_plan_id":"cebpf4jnsgd1na2vs0mg"},{"bike_id":"a9ce02d2-2081-43e3-b401-9fedc6f7b84a","system_id":"levelo_inurba_marseille","lat":43.28989,"lon":5.35633,"is_reserved":false,"is_disabled":false,"rental_uris":{"android":"levelo://app?vid=a9ce02d2-2081-43e3-b401-9fedc6f7b84a","ios":"levelo://app?vid=a9ce02d2-2081-43e3-b401-9fedc6f7b84a"},"vehicle_type_id":"4","last_reported":1744110488,"current_range_meters":18000,"station_id":"ce4bhb92rcd13ifvqen0","pricing_plan_id":"cebpf4jnsgd1na2vs0mg"},{"bike_id":"ad0ffa71-34fe-45a7-bf4c-e33cb25ec4af","system_id":"levelo_inurba_marseille","lat":43.30534,"lon":5.3671,"is_reserved":false,"is_disabled":false,"rental_uris":{"android":"levelo://app?vid=ad0ffa71-34fe-45a7-bf4c-e33cb25ec4af","ios":"levelo://app?vid=ad0ffa71-34fe-45a7-bf4c-e33cb25ec4af"},"vehicle_type_id":"4","last_reported":1744110488,"current_range_meters":18000,"station_id":"ce4bgrp2rcd13ifvqc9g","pricing_plan_id":"cebpf4jnsgd1na2vs0mg"},{"bike_id":"52dfef30-eef0-4dd6-a138-a48c8dcc2c3a","system_id":"levelo_inurba_marseille","lat":43.30401,"lon":5.42761,"is_reserved":false,"is_disabled":true,"rental_uris":{"android":"levelo://app?vid=52dfef30-eef0-4dd6-a138-a48c8dcc2c3a","ios":"levelo://app?vid=52dfef30-eef0-4dd6-a138-a48c8dcc2c3a"},"vehicle_type_id":"4","last_reported":1744110488,"current_range_meters":18000,"station_id":"","pricing_plan_id":"cebpf4jnsgd1na2vs0mg"},{"bike_id":"d255f828-f05c-401b-bc0c-464476b96953","system_id":"levelo_inurba_marseille","lat":43.29225,"lon":5.36059,"is_reserved":false,"is_disabled":false,"rental_uris":{"android":"levelo://app?vid=d255f828-f05c-401b-bc0c-464476b96953","ios":"levelo://app?vid=d255f828-f05c-401b-bc0c-464476b96953"},"vehicle_type_id":"4","last_reported":1744110488,"current_range_meters":18000,"station_id":"ce4bhbh2rcd13ifvqeqg","pricing_plan_id":"cebpf4jnsgd1na2vs0mg"},{"bike_id":"d5c0918c-4021-4f5a-a2cb-a74b493b3636","system_id":"levelo_inurba_marseille","lat":43.24167,"lon":5.36395,"is_reserved":false,"is_disabled":false,"rental_uris":{"android":"levelo://app?vid=d5c0918c-4021-4f5a-a2cb-a74b493b3636","ios":"levelo://app?vid=d5c0918c-4021-4f5a-a2cb-a74b493b3636"},"vehicle_type_id":"4","last_reported":1744110488,"current_range_meters":18000,"station_id":"cpo36qri1sfpv3e86is0","pricing_plan_id":"cebpf4jnsgd1na2vs0mg"},{"bike_id":"7a58fb89-6e65-4644-991a-d7e4fcad8cbb","system_id":"levelo_inurba_marseille","lat":43.28683,"lon":5.38667,"is_reserved":false,"is_disabled":false,"rental_uris":{"android":"levelo://app?vid=7a58fb89-6e65-4644-991a-d7e4fcad8cbb","ios":"levelo://app?vid=7a58fb89-6e65-4644-991a-d7e4fcad8cbb"},"vehicle_type_id":"4","last_reported":1744110488,"current_range_meters":18000,"station_id":"ce4bh492rcd13ifvqdug","pricing_plan_id":"cebpf4jnsgd1na2vs0mg"},{"bike_id":"b4d2e54e-8ac0-449e-86b7-7ebc4a63feeb","system_id":"levelo_inurba_marseille","lat":43.30605,"lon":5.37231,"is_reserved":false,"is_disabled":false,"rental_uris":{"android":"levelo://app?vid=b4d2e54e-8ac0-449e-86b7-7ebc4a63feeb","ios":"levelo://app?vid=b4d2e54e-8ac0-449e-86b7-7ebc4a63feeb"},"vehicle_type_id":"4","last_reported":1744110488,"current_range_meters":18000,"station_id":"ce4bgqh2rcd13ifvqc4g","pricing_plan_id":"cebpf4jnsgd1na2vs0mg"},{"bike_id":"4826f43d-e9c9-4f38-80ae-a0c48d22fbc2","system_id":"levelo_inurba_marseille","lat":43.26555,"lon":5.3729,"is_reserved":false,"is_disabled":false,"rental_uris":{"android":"levelo://app?vid=4826f43d-e9c9-4f38-80ae-a0c48d22fbc2","ios":"levelo://app?vid=4826f43d-e9c9-4f38-80ae-a0c48d22fbc2"},"vehicle_type_id":"4","last_reported":1744110488,"current_range_meters":18800,"station_id":"ce4bhg12rcd13ifvqf70","pricing_plan_id":"cebpf4jnsgd1na2vs0mg"},{"bike_id":"43ed5023-a257-41e8-b41a-68256079b152","system_id":"levelo_inurba_marseille","lat":43.30599,"lon":5.37228,"is_reserved":false,"is_disabled":false,"rental_uris":{"android":"levelo://app?vid=43ed5023-a257-41e8-b41a-68256079b152","ios":"levelo://app?vid=43ed5023-a257-41e8-b41a-68256079b152"},"vehicle_type_id":"4","last_reported":1744110488,"current_range_meters":18800,"station_id":"ce4bgqh2rcd13ifvqc4g","pricing_plan_id":"cebpf4jnsgd1na2vs0mg"},{"bike_id":"6092e952-6e53-4621-8dfa-a686656fb26b","system_id":"levelo_inurba_marseille","lat":43.27999,"lon":5.40009,"is_reserved":false,"is_disabled":false,"rental_uris":{"android":"levelo://app?vid=6092e952-6e53-4621-8dfa-a686656fb26b","ios":"levelo://app?vid=6092e952-6e53-4621-8dfa-a686656fb26b"},"vehicle_type_id":"4","last_reported":1744110488,"current_range_meters":18800,"station_id":"ce4bho92rcd13ifvqh4g","pricing_plan_id":"cebpf4jnsgd1na2vs0mg"},{"bike_id":"b37944fb-f9c1-4c8e-ac3a-9da227afb433","system_id":"levelo_inurba_marseille","lat":43.30808,"lon":5.38155,"is_reserved":false,"is_disabled":true,"rental_uris":{"android":"levelo://app?vid=b37944fb-f9c1-4c8e-ac3a-9da227afb433","ios":"levelo://app?vid=b37944fb-f9c1-4c8e-ac3a-9da227afb433"},"vehicle_type_id":"4","last_reported":1744110488,"current_range_meters":18800,"station_id":"ce4bgt12rcd13ifvqce0","pricing_plan_id":"cebpf4jnsgd1na2vs0mg"},{"bike_id":"baed40af-d6b1-41eb-89dd-0b3094293b82","system_id":"levelo_inurba_marseille","lat":43.23968,"lon":5.36628,"is_reserved":false,"is_disabled":false,"rental_uris":{"android":"levelo://app?vid=baed40af-d6b1-41eb-89dd-0b3094293b82","ios":"levelo://app?vid=baed40af-d6b1-41eb-89dd-0b3094293b82"},"vehicle_type_id":"4","last_reported":1744110488,"current_range_meters":18000,"station_id":"ce4bhi12rcd13ifvqfp0","pricing_plan_id":"cebpf4jnsgd1na2vs0mg"},{"bike_id":"9b037c0e-68e8-413d-9e6f-c325a966579e","system_id":"levelo_inurba_marseille","lat":43.30538,"lon":5.36542,"is_reserved":false,"is_disabled":false,"rental_uris":{"android":"levelo://app?vid=9b037c0e-68e8-413d-9e6f-c325a966579e","ios":"levelo://app?vid=9b037c0e-68e8-413d-9e6f-c325a966579e"},"vehicle_type_id":"4","last_reported":1744110488,"current_range_meters":19200,"station_id":"ce4bgs12rcd13ifvqcag","pricing_plan_id":"cebpf4jnsgd1na2vs0mg"},{"bike_id":"6b68cb44-2214-4363-bbfb-6597cc95cf8e","system_id":"levelo_inurba_marseille","lat":43.27369,"lon":5.36258,"is_reserved":false,"is_disabled":false,"rental_uris":{"android":"levelo://app?vid=6b68cb44-2214-4363-bbfb-6597cc95cf8e","ios":"levelo://app?vid=6b68cb44-2214-4363-bbfb-6597cc95cf8e"},"vehicle_type_id":"4","last_reported":1744110488,"current_range_meters":19200,"station_id":"ce4bhbh2rcd13ifvqeo0","pricing_plan_id":"cebpf4jnsgd1na2vs0mg"},{"bike_id":"6456fbea-b7d9-400b-ab6c-9a3eddaba4c7","system_id":"levelo_inurba_marseille","lat":43.29039,"lon":5.35584,"is_reserved":false,"is_disabled":false,"rental_uris":{"android":"levelo://app?vid=6456fbea-b7d9-400b-ab6c-9a3eddaba4c7","ios":"levelo://app?vid=6456fbea-b7d9-400b-ab6c-9a3eddaba4c7"},"vehicle_type_id":"4","last_reported":1744110488,"current_range_meters":19200,"station_id":"ce4bhb92rcd13ifvqen0","pricing_plan_id":"cebpf4jnsgd1na2vs0mg"},{"bike_id":"d74c5dfd-1608-4b8b-95a4-21a557673848","system_id":"levelo_inurba_marseille","lat":43.28419,"lon":5.35,"is_reserved":false,"is_disabled":false,"rental_uris":{"android":"levelo://app?vid=d74c5dfd-1608-4b8b-95a4-21a557673848","ios":"levelo://app?vid=d74c5dfd-1608-4b8b-95a4-21a557673848"},"vehicle_type_id":"4","last_reported":1744110488,"current_range_meters":19200,"station_id":"ce4bhbh2rcd13ifvqepg","pricing_plan_id":"cebpf4jnsgd1na2vs0mg"},{"bike_id":"c22d8741-dec3-4006-a19c-a13d5f7ca6ba","system_id":"levelo_inurba_marseille","lat":43.23138,"lon":5.43706,"is_reserved":false,"is_disabled":false,"rental_uris":{"android":"levelo://app?vid=c22d8741-dec3-4006-a19c-a13d5f7ca6ba","ios":"levelo://app?vid=c22d8741-dec3-4006-a19c-a13d5f7ca6ba"},"vehicle_type_id":"4","last_reported":1744110488,"current_range_meters":19200,"station_id":"ce4bhmp2rcd13ifvqgog","pricing_plan_id":"cebpf4jnsgd1na2vs0mg"},{"bike_id":"d1ab4a48-3ebf-4448-991f-741c70a9cfa1","system_id":"levelo_inurba_marseille","lat":43.28417,"lon":5.34989,"is_reserved":false,"is_disabled":false,"rental_uris":{"android":"levelo://app?vid=d1ab4a48-3ebf-4448-991f-741c70a9cfa1","ios":"levelo://app?vid=d1ab4a48-3ebf-4448-991f-741c70a9cfa1"},"vehicle_type_id":"4","last_reported":1744110488,"current_range_meters":19200,"station_id":"ce4bhbh2rcd13ifvqepg","pricing_plan_id":"cebpf4jnsgd1na2vs0mg"},{"bike_id":"fd01154a-ddc7-451e-9556-ddff3941912b","system_id":"levelo_inurba_marseille","lat":43.313399,"lon":5.406814,"is_reserved":false,"is_disabled":false,"rental_uris":{"android":"levelo://app?vid=fd01154a-ddc7-451e-9556-ddff3941912b","ios":"levelo://app?vid=fd01154a-ddc7-451e-9556-ddff3941912b"},"vehicle_type_id":"4","last_reported":1744110488,"current_range_meters":19600,"station_id":"ce4bh012rcd13ifvqd00","pricing_plan_id":"cebpf4jnsgd1na2vs0mg"},{"bike_id":"38b03778-2636-482f-ac62-cc8db61a3e3d","system_id":"levelo_inurba_marseille","lat":43.30132,"lon":5.38784,"is_reserved":false,"is_disabled":false,"rental_uris":{"android":"levelo://app?vid=38b03778-2636-482f-ac62-cc8db61a3e3d","ios":"levelo://app?vid=38b03778-2636-482f-ac62-cc8db61a3e3d"},"vehicle_type_id":"4","last_reported":1744110488,"current_range_meters":19600,"station_id":"ce4bghh2rcd13ifvqb60","pricing_plan_id":"cebpf4jnsgd1na2vs0mg"},{"bike_id":"8d36fc1c-62a5-4a8b-b1cd-74668b1f2dec","system_id":"levelo_inurba_marseille","lat":43.292694,"lon":5.36839,"is_reserved":false,"is_disabled":false,"rental_uris":{"android":"levelo://app?vid=8d36fc1c-62a5-4a8b-b1cd-74668b1f2dec","ios":"levelo://app?vid=8d36fc1c-62a5-4a8b-b1cd-74668b1f2dec"},"vehicle_type_id":"4","last_reported":1744110488,"current_range_meters":19600,"station_id":"ce4bgkp2rcd13ifvqbmg","pricing_plan_id":"cebpf4jnsgd1na2vs0mg"},{"bike_id":"7a556b76-4922-4e07-8669-640d4ee7325c","system_id":"levelo_inurba_marseille","lat":43.30537,"lon":5.36547,"is_reserved":false,"is_disabled":false,"rental_uris":{"android":"levelo://app?vid=7a556b76-4922-4e07-8669-640d4ee7325c","ios":"levelo://app?vid=7a556b76-4922-4e07-8669-640d4ee7325c"},"vehicle_type_id":"4","last_reported":1744110488,"current_range_meters":19600,"station_id":"ce4bgs12rcd13ifvqcag","pricing_plan_id":"cebpf4jnsgd1na2vs0mg"},{"bike_id":"c1c63035-c83b-4419-8cbf-133778d95125","system_id":"levelo_inurba_marseille","lat":43.297856,"lon":5.393572,"is_reserved":false,"is_disabled":true,"rental_uris":{"android":"levelo://app?vid=c1c63035-c83b-4419-8cbf-133778d95125","ios":"levelo://app?vid=c1c63035-c83b-4419-8cbf-133778d95125"},"vehicle_type_id":"4","last_reported":1744110488,"current_range_meters":19600,"station_id":"chh1huq6cuj3fo74tm60","pricing_plan_id":"cebpf4jnsgd1na2vs0mg"},{"bike_id":"6278194a-3064-41bd-8565-b8ff44b1552d","system_id":"levelo_inurba_marseille","lat":43.295289,"lon":5.385485,"is_reserved":false,"is_disabled":true,"rental_uris":{"android":"levelo://app?vid=6278194a-3064-41bd-8565-b8ff44b1552d","ios":"levelo://app?vid=6278194a-3064-41bd-8565-b8ff44b1552d"},"vehicle_type_id":"4","last_reported":1744110488,"current_range_meters":19600,"station_id":"ce4bgih2rcd13ifvqba0","pricing_plan_id":"cebpf4jnsgd1na2vs0mg"},{"bike_id":"d7b2134e-575c-40f1-9b3b-0ad40ab4b220","system_id":"levelo_inurba_marseille","lat":43.29845,"lon":5.43675,"is_reserved":false,"is_disabled":false,"rental_uris":{"android":"levelo://app?vid=d7b2134e-575c-40f1-9b3b-0ad40ab4b220","ios":"levelo://app?vid=d7b2134e-575c-40f1-9b3b-0ad40ab4b220"},"vehicle_type_id":"4","last_reported":1744110488,"current_range_meters":19600,"station_id":"ce4bhpp2rcd13ifvqhfg","pricing_plan_id":"cebpf4jnsgd1na2vs0mg"},{"bike_id":"44e2b4cc-2614-4a64-a3f3-b89bd988d8a9","system_id":"levelo_inurba_marseille","lat":43.30436,"lon":5.38879,"is_reserved":false,"is_disabled":false,"rental_uris":{"android":"levelo://app?vid=44e2b4cc-2614-4a64-a3f3-b89bd988d8a9","ios":"levelo://app?vid=44e2b4cc-2614-4a64-a3f3-b89bd988d8a9"},"vehicle_type_id":"4","last_reported":1744110488,"current_range_meters":19600,"station_id":"ce4bgk12rcd13ifvqbi0","pricing_plan_id":"cebpf4jnsgd1na2vs0mg"},{"bike_id":"d30858f1-d6b3-4205-9f04-57f92b97b5fc","system_id":"levelo_inurba_marseille","lat":43.31994,"lon":5.38163,"is_reserved":false,"is_disabled":false,"rental_uris":{"android":"levelo://app?vid=d30858f1-d6b3-4205-9f04-57f92b97b5fc","ios":"levelo://app?vid=d30858f1-d6b3-4205-9f04-57f92b97b5fc"},"vehicle_type_id":"4","last_reported":1744110488,"current_range_meters":20000,"station_id":"ce4bhr12rcd13ifvqhpg","pricing_plan_id":"cebpf4jnsgd1na2vs0mg"},{"bike_id":"6e5ac126-c372-4a39-b836-bcab5ad1f2e7","system_id":"levelo_inurba_marseille","lat":43.24169,"lon":5.36416,"is_reserved":false,"is_disabled":false,"rental_uris":{"android":"levelo://app?vid=6e5ac126-c372-4a39-b836-bcab5ad1f2e7","ios":"levelo://app?vid=6e5ac126-c372-4a39-b836-bcab5ad1f2e7"},"vehicle_type_id":"4","last_reported":1744110488,"current_range_meters":20000,"station_id":"cpo36qri1sfpv3e86is0","pricing_plan_id":"cebpf4jnsgd1na2vs0mg"},{"bike_id":"a66ab50a-647e-4bf4-951d-51ad7d42760b","system_id":"levelo_inurba_marseille","lat":43.2991,"lon":5.37477,"is_reserved":false,"is_disabled":false,"rental_uris":{"android":"levelo://app?vid=a66ab50a-647e-4bf4-951d-51ad7d42760b","ios":"levelo://app?vid=a66ab50a-647e-4bf4-951d-51ad7d42760b"},"vehicle_type_id":"4","last_reported":1744110488,"current_range_meters":20000,"station_id":"ce4bgjh2rcd13ifvqbg0","pricing_plan_id":"cebpf4jnsgd1na2vs0mg"},{"bike_id":"81aa83b4-e755-4b1b-858e-3fd6e99e9c2e","system_id":"levelo_inurba_marseille","lat":43.29271,"lon":5.36847,"is_reserved":false,"is_disabled":false,"rental_uris":{"android":"levelo://app?vid=81aa83b4-e755-4b1b-858e-3fd6e99e9c2e","ios":"levelo://app?vid=81aa83b4-e755-4b1b-858e-3fd6e99e9c2e"},"vehicle_type_id":"4","last_reported":1744110488,"current_range_meters":20000,"station_id":"ce4bhbp2rcd13ifvqesg","pricing_plan_id":"cebpf4jnsgd1na2vs0mg"},{"bike_id":"9ee5656a-df1d-4839-b38c-c0b1a4b43753","system_id":"levelo_inurba_marseille","lat":43.23973,"lon":5.36622,"is_reserved":false,"is_disabled":false,"rental_uris":{"android":"levelo://app?vid=9ee5656a-df1d-4839-b38c-c0b1a4b43753","ios":"levelo://app?vid=9ee5656a-df1d-4839-b38c-c0b1a4b43753"},"vehicle_type_id":"4","last_reported":1744110488,"current_range_meters":20000,"station_id":"ce4bhi12rcd13ifvqfp0","pricing_plan_id":"cebpf4jnsgd1na2vs0mg"},{"bike_id":"b9e128b1-4ab9-4d57-876f-fda59385bd83","system_id":"levelo_inurba_marseille","lat":43.29976,"lon":5.37179,"is_reserved":false,"is_disabled":false,"rental_uris":{"android":"levelo://app?vid=b9e128b1-4ab9-4d57-876f-fda59385bd83","ios":"levelo://app?vid=b9e128b1-4ab9-4d57-876f-fda59385bd83"},"vehicle_type_id":"4","last_reported":1744110488,"current_range_meters":19600,"station_id":"ce4bgr92rcd13ifvqc7g","pricing_plan_id":"cebpf4jnsgd1na2vs0mg"},{"bike_id":"83d71aae-c276-4581-b045-e01e481a11b6","system_id":"levelo_inurba_marseille","lat":43.21779,"lon":5.34572,"is_reserved":false,"is_disabled":false,"rental_uris":{"android":"levelo://app?vid=83d71aae-c276-4581-b045-e01e481a11b6","ios":"levelo://app?vid=83d71aae-c276-4581-b045-e01e481a11b6"},"vehicle_type_id":"4","last_reported":1744110488,"current_range_meters":20000,"station_id":"st_cvj6r9ubvosntc0bgbag","pricing_plan_id":"cebpf4jnsgd1na2vs0mg"},{"bike_id":"fd07d6de-a218-43d3-8caa-eaba2cec3dca","system_id":"levelo_inurba_marseille","lat":43.27952,"lon":5.41058,"is_reserved":false,"is_disabled":false,"rental_uris":{"android":"levelo://app?vid=fd07d6de-a218-43d3-8caa-eaba2cec3dca","ios":"levelo://app?vid=fd07d6de-a218-43d3-8caa-eaba2cec3dca"},"vehicle_type_id":"4","last_reported":1744110488,"current_range_meters":20000,"station_id":"ce4bhnp2rcd13ifvqh0g","pricing_plan_id":"cebpf4jnsgd1na2vs0mg"},{"bike_id":"3b4e1299-1e40-4aec-ad7e-7eb21543e414","system_id":"levelo_inurba_marseille","lat":43.31221,"lon":5.36871,"is_reserved":false,"is_disabled":false,"rental_uris":{"android":"levelo://app?vid=3b4e1299-1e40-4aec-ad7e-7eb21543e414","ios":"levelo://app?vid=3b4e1299-1e40-4aec-ad7e-7eb21543e414"},"vehicle_type_id":"4","last_reported":1744110488,"current_range_meters":20400,"station_id":"ce4bgl92rcd13ifvqbq0","pricing_plan_id":"cebpf4jnsgd1na2vs0mg"},{"bike_id":"4b9af391-c7ce-423f-a949-55b9b55e833c","system_id":"levelo_inurba_marseille","lat":43.30374,"lon":5.42487,"is_reserved":false,"is_disabled":false,"rental_uris":{"android":"levelo://app?vid=4b9af391-c7ce-423f-a949-55b9b55e833c","ios":"levelo://app?vid=4b9af391-c7ce-423f-a949-55b9b55e833c"},"vehicle_type_id":"4","last_reported":1744110488,"current_range_meters":20400,"station_id":"ce4bhoh2rcd13ifvqh6g","pricing_plan_id":"cebpf4jnsgd1na2vs0mg"},{"bike_id":"ea17cff3-d70d-42f8-aa47-a008aa49abda","system_id":"levelo_inurba_marseille","lat":43.28147,"lon":5.42664,"is_reserved":false,"is_disabled":false,"rental_uris":{"android":"levelo://app?vid=ea17cff3-d70d-42f8-aa47-a008aa49abda","ios":"levelo://app?vid=ea17cff3-d70d-42f8-aa47-a008aa49abda"},"vehicle_type_id":"4","last_reported":1744110488,"current_range_meters":20400,"station_id":"ce4bhnh2rcd13ifvqgug","pricing_plan_id":"cebpf4jnsgd1na2vs0mg"},{"bike_id":"5ae552f2-c7e7-4db8-9fdd-1ef98996ee67","system_id":"levelo_inurba_marseille","lat":43.29849,"lon":5.36285,"is_reserved":false,"is_disabled":false,"rental_uris":{"android":"levelo://app?vid=5ae552f2-c7e7-4db8-9fdd-1ef98996ee67","ios":"levelo://app?vid=5ae552f2-c7e7-4db8-9fdd-1ef98996ee67"},"vehicle_type_id":"4","last_reported":1744110488,"current_range_meters":20400,"station_id":"ce4bgpp2rcd13ifvqc3g","pricing_plan_id":"cebpf4jnsgd1na2vs0mg"},{"bike_id":"d89a8b9b-b697-4ebb-ad1f-05c07afaf8bd","system_id":"levelo_inurba_marseille","lat":43.29697,"lon":5.36589,"is_reserved":false,"is_disabled":false,"rental_uris":{"android":"levelo://app?vid=d89a8b9b-b697-4ebb-ad1f-05c07afaf8bd","ios":"levelo://app?vid=d89a8b9b-b697-4ebb-ad1f-05c07afaf8bd"},"vehicle_type_id":"4","last_reported":1744110488,"current_range_meters":20400,"station_id":"ce4bgn12rcd13ifvqbt0","pricing_plan_id":"cebpf4jnsgd1na2vs0mg"},{"bike_id":"5b5ffd5f-ff47-4b19-8c4c-94dc4ce8cd40","system_id":"levelo_inurba_marseille","lat":43.31211,"lon":5.36872,"is_reserved":false,"is_disabled":false,"rental_uris":{"android":"levelo://app?vid=5b5ffd5f-ff47-4b19-8c4c-94dc4ce8cd40","ios":"levelo://app?vid=5b5ffd5f-ff47-4b19-8c4c-94dc4ce8cd40"},"vehicle_type_id":"4","last_reported":1744110488,"current_range_meters":20400,"station_id":"ce4bgl92rcd13ifvqbq0","pricing_plan_id":"cebpf4jnsgd1na2vs0mg"},{"bike_id":"04c4fa38-7802-4d3d-a372-28a7204a0469","system_id":"levelo_inurba_marseille","lat":43.304634,"lon":5.367411,"is_reserved":false,"is_disabled":false,"rental_uris":{"android":"levelo://app?vid=04c4fa38-7802-4d3d-a372-28a7204a0469","ios":"levelo://app?vid=04c4fa38-7802-4d3d-a372-28a7204a0469"},"vehicle_type_id":"4","last_reported":1744110488,"current_range_meters":20400,"station_id":"ce4bgrp2rcd13ifvqc9g","pricing_plan_id":"cebpf4jnsgd1na2vs0mg"},{"bike_id":"9d277bc7-de39-4db5-a6bd-0c41eeda7ec1","system_id":"levelo_inurba_marseille","lat":43.30456,"lon":5.379,"is_reserved":false,"is_disabled":false,"rental_uris":{"android":"levelo://app?vid=9d277bc7-de39-4db5-a6bd-0c41eeda7ec1","ios":"levelo://app?vid=9d277bc7-de39-4db5-a6bd-0c41eeda7ec1"},"vehicle_type_id":"4","last_reported":1744110488,"current_range_meters":20800,"station_id":"ce4bgup2rcd13ifvqcn0","pricing_plan_id":"cebpf4jnsgd1na2vs0mg"},{"bike_id":"41e3cb5b-4166-4817-b060-4d4507919104","system_id":"levelo_inurba_marseille","lat":43.2737,"lon":5.36258,"is_reserved":false,"is_disabled":false,"rental_uris":{"android":"levelo://app?vid=41e3cb5b-4166-4817-b060-4d4507919104","ios":"levelo://app?vid=41e3cb5b-4166-4817-b060-4d4507919104"},"vehicle_type_id":"4","last_reported":1744110488,"current_range_meters":20800,"station_id":"ce4bhbh2rcd13ifvqeo0","pricing_plan_id":"cebpf4jnsgd1na2vs0mg"},{"bike_id":"3cc85643-35f3-4919-a9aa-813f6697ef96","system_id":"levelo_inurba_marseille","lat":43.31695,"lon":5.40464,"is_reserved":false,"is_disabled":false,"rental_uris":{"android":"levelo://app?vid=3cc85643-35f3-4919-a9aa-813f6697ef96","ios":"levelo://app?vid=3cc85643-35f3-4919-a9aa-813f6697ef96"},"vehicle_type_id":"4","last_reported":1744110488,"current_range_meters":20800,"station_id":"ce4bh012rcd13ifvqd00","pricing_plan_id":"cebpf4jnsgd1na2vs0mg"},{"bike_id":"168b3bd3-4d4f-4d90-a7bd-a1d4012eca2c","system_id":"levelo_inurba_marseille","lat":43.28417,"lon":5.34988,"is_reserved":false,"is_disabled":false,"rental_uris":{"android":"levelo://app?vid=168b3bd3-4d4f-4d90-a7bd-a1d4012eca2c","ios":"levelo://app?vid=168b3bd3-4d4f-4d90-a7bd-a1d4012eca2c"},"vehicle_type_id":"4","last_reported":1744110488,"current_range_meters":20800,"station_id":"ce4bhbh2rcd13ifvqepg","pricing_plan_id":"cebpf4jnsgd1na2vs0mg"},{"bike_id":"8ccac867-b5f4-44f0-a1df-b1aa55bbde36","system_id":"levelo_inurba_marseille","lat":43.25502,"lon":5.37651,"is_reserved":false,"is_disabled":false,"rental_uris":{"android":"levelo://app?vid=8ccac867-b5f4-44f0-a1df-b1aa55bbde36","ios":"levelo://app?vid=8ccac867-b5f4-44f0-a1df-b1aa55bbde36"},"vehicle_type_id":"4","last_reported":1744110488,"current_range_meters":20800,"station_id":"ce4bhh12rcd13ifvqff0","pricing_plan_id":"cebpf4jnsgd1na2vs0mg"},{"bike_id":"57d54396-ece4-4d66-bbde-32d7da346a35","system_id":"levelo_inurba_marseille","lat":43.27318,"lon":5.39084,"is_reserved":false,"is_disabled":false,"rental_uris":{"android":"levelo://app?vid=57d54396-ece4-4d66-bbde-32d7da346a35","ios":"levelo://app?vid=57d54396-ece4-4d66-bbde-32d7da346a35"},"vehicle_type_id":"4","last_reported":1744110488,"current_range_meters":21600,"station_id":"ce4bhgp2rcd13ifvqfe0","pricing_plan_id":"cebpf4jnsgd1na2vs0mg"},{"bike_id":"6dfada21-b39c-4599-b258-8c48ee671eeb","system_id":"levelo_inurba_marseille","lat":43.2416,"lon":5.39729,"is_reserved":false,"is_disabled":false,"rental_uris":{"android":"levelo://app?vid=6dfada21-b39c-4599-b258-8c48ee671eeb","ios":"levelo://app?vid=6dfada21-b39c-4599-b258-8c48ee671eeb"},