{"last_updated":1740481653,"ttl":60,"version":"2.2","data":{"bikes":[{"bike_id":"8835ae88-88d7-4ba2-9524-ab133f0799a5","system_id":"levelo_inurba_marseille","lat":43.33601,"lon":5.41029,"is_reserved":false,"is_disabled":false,"rental_uris":{"android":"levelo://app?vid=8835ae88-88d7-4ba2-9524-ab133f0799a5","ios":"levelo://app?vid=8835ae88-88d7-4ba2-9524-ab133f0799a5"},"vehicle_type_id":"4","last_reported":1740481654,"current_range_meters":2800,"station_id":"ce4bhqh2rcd13ifvqhmg","pricing_plan_id":"cebpf4jnsgd1na2vs0mg"},{"bike_id":"16a64962-c840-403e-8215-260ce50518b7","system_id":"levelo_inurba_marseille","lat":43.281487,"lon":5.426457,"is_reserved":false,"is_disabled":true,"rental_uris":{"android":"levelo://app?vid=16a64962-c840-403e-8215-260ce50518b7","ios":"levelo://app?vid=16a64962-c840-403e-8215-260ce50518b7"},"vehicle_type_id":"4","last_reported":1740481654,"current_range_meters":3200,"station_id":"ce4bhnh2rcd13ifvqgug","pricing_plan_id":"cebpf4jnsgd1na2vs0mg"},{"bike_id":"f4eda2df-f46e-4671-bec6-a5a262873381","system_id":"levelo_inurba_marseille","lat":43.25606,"lon":5.38265,"is_reserved":false,"is_disabled":false,"rental_uris":{"android":"levelo://app?vid=f4eda2df-f46e-4671-bec6-a5a262873381","ios":"levelo://app?vid=f4eda2df-f46e-4671-bec6-a5a262873381"},"vehicle_type_id":"4","last_reported":1740481654,"current_range_meters":3200,"station_id":"ce4bhih2rcd13ifvqfs0","pricing_plan_id":"cebpf4jnsgd1na2vs0mg"},{"bike_id":"8e94af45-7e59-4486-b3bd-363f14848521","system_id":"levelo_inurba_marseille","lat":43.28478,"lon":5.38412,"is_reserved":false,"is_disabled":false,"rental_uris":{"android":"levelo://app?vid=8e94af45-7e59-4486-b3bd-363f14848521","ios":"levelo://app?vid=8e94af45-7e59-4486-b3bd-363f14848521"},"vehicle_type_id":"4","last_reported":1740481654,"current_range_meters":2800,"station_id":"ce4bh512rcd13ifvqe3g","pricing_plan_id":"cebpf4jnsgd1na2vs0mg"},{"bike_id":"abb80f97-7e30-4951-a6a2-67864cfad8bd","system_id":"levelo_inurba_marseille","lat":43.2582,"lon":5.39445,"is_reserved":false,"is_disabled":false,"rental_uris":{"android":"levelo://app?vid=abb80f97-7e30-4951-a6a2-67864cfad8bd","ios":"levelo://app?vid=abb80f97-7e30-4951-a6a2-67864cfad8bd"},"vehicle_type_id":"4","last_reported":1740481654,"current_range_meters":4000,"station_id":"ce4bhh92rcd13ifvqfh0","pricing_plan_id":"cebpf4jnsgd1na2vs0mg"},{"bike_id":"db29ab0a-60d6-4bfa-9201-46260261a3af","system_id":"levelo_inurba_marseille","lat":43.32546,"lon":5.36564,"is_reserved":false,"is_disabled":false,"rental_uris":{"android":"levelo://app?vid=db29ab0a-60d6-4bfa-9201-46260261a3af","ios":"levelo://app?vid=db29ab0a-60d6-4bfa-9201-46260261a3af"},"vehicle_type_id":"4","last_reported":1740481654,"current_range_meters":4000,"station_id":"ce4bhs12rcd13ifvqhvg","pricing_plan_id":"cebpf4jnsgd1na2vs0mg"},{"bike_id":"cd7f9416-9607-4932-a4e2-17ca9a1f339f","system_id":"levelo_inurba_marseille","lat":43.30602,"lon":5.37213,"is_reserved":false,"is_disabled":false,"rental_uris":{"android":"levelo://app?vid=cd7f9416-9607-4932-a4e2-17ca9a1f339f","ios":"levelo://app?vid=cd7f9416-9607-4932-a4e2-17ca9a1f339f"},"vehicle_type_id":"4","last_reported":1740481654,"current_range_meters":4800,"station_id":"ce4bgqh2rcd13ifvqc4g","pricing_plan_id":"cebpf4jnsgd1na2vs0mg"},{"bike_id":"bddf8e7b-3da7-4773-b7ae-9c6dd1337414","system_id":"levelo_inurba_marseille","lat":43.28152,"lon":5.42648,"is_reserved":false,"is_disabled":true,"rental_uris":{"android":"levelo://app?vid=bddf8e7b-3da7-4773-b7ae-9c6dd1337414","ios":"levelo://app?vid=bddf8e7b-3da7-4773-b7ae-9c6dd1337414"},"vehicle_type_id":"4","last_reported":1740481654,"current_range_meters":4800,"station_id":"ce4bhnh2rcd13ifvqgug","pricing_plan_id":"cebpf4jnsgd1na2vs0mg"},{"bike_id":"bd1c9204-109d-453d-a655-cc2878aad0c5","system_id":"levelo_inurba_marseille","lat":43.29898,"lon":5.43677,"is_reserved":false,"is_disabled":false,"rental_uris":{"android":"levelo://app?vid=bd1c9204-109d-453d-a655-cc2878aad0c5","ios":"levelo://app?vid=bd1c9204-109d-453d-a655-cc2878aad0c5"},"vehicle_type_id":"4","last_reported":1740481654,"current_range_meters":5600,"station_id":"ce4bhpp2rcd13ifvqhfg","pricing_plan_id":"cebpf4jnsgd1na2vs0mg"},{"bike_id":"6f499a83-4117-496e-9b3d-1b11e94175e3","system_id":"levelo_inurba_marseille","lat":43.28656,"lon":5.363541,"is_reserved":false,"is_disabled":false,"rental_uris":{"android":"levelo://app?vid=6f499a83-4117-496e-9b3d-1b11e94175e3","ios":"levelo://app?vid=6f499a83-4117-496e-9b3d-1b11e94175e3"},"vehicle_type_id":"4","last_reported":1740481654,"current_range_meters":6000,"station_id":"ce4bhah2rcd13ifvqej0","pricing_plan_id":"cebpf4jnsgd1na2vs0mg"},{"bike_id":"e06dc531-9c22-424f-b62a-378f089ec997","system_id":"levelo_inurba_marseille","lat":43.29006,"lon":5.35615,"is_reserved":false,"is_disabled":false,"rental_uris":{"android":"levelo://app?vid=e06dc531-9c22-424f-b62a-378f089ec997","ios":"levelo://app?vid=e06dc531-9c22-424f-b62a-378f089ec997"},"vehicle_type_id":"4","last_reported":1740481654,"current_range_meters":5600,"station_id":"ce4bhb92rcd13ifvqen0","pricing_plan_id":"cebpf4jnsgd1na2vs0mg"},{"bike_id":"87bbda1f-0db0-4d79-a046-a87b5e94995a","system_id":"levelo_inurba_marseille","lat":43.24164,"lon":5.36408,"is_reserved":false,"is_disabled":false,"rental_uris":{"android":"levelo://app?vid=87bbda1f-0db0-4d79-a046-a87b5e94995a","ios":"levelo://app?vid=87bbda1f-0db0-4d79-a046-a87b5e94995a"},"vehicle_type_id":"4","last_reported":1740481654,"current_range_meters":6800,"station_id":"cpo36qri1sfpv3e86is0","pricing_plan_id":"cebpf4jnsgd1na2vs0mg"},{"bike_id":"bce4ea7c-5a6a-4261-a26d-4c33210b1a39","system_id":"levelo_inurba_marseille","lat":43.30657,"lon":5.40089,"is_reserved":false,"is_disabled":false,"rental_uris":{"android":"levelo://app?vid=bce4ea7c-5a6a-4261-a26d-4c33210b1a39","ios":"levelo://app?vid=bce4ea7c-5a6a-4261-a26d-4c33210b1a39"},"vehicle_type_id":"4","last_reported":1740481654,"current_range_meters":6000,"station_id":"ce4bh112rcd13ifvqda0","pricing_plan_id":"cebpf4jnsgd1na2vs0mg"},{"bike_id":"9573858b-e206-49f2-a648-0ae2bb06901f","system_id":"levelo_inurba_marseille","lat":43.29369,"lon":5.37837,"is_reserved":false,"is_disabled":false,"rental_uris":{"android":"levelo://app?vid=9573858b-e206-49f2-a648-0ae2bb06901f","ios":"levelo://app?vid=9573858b-e206-49f2-a648-0ae2bb06901f"},"vehicle_type_id":"4","last_reported":1740481654,"current_range_meters":6400,"station_id":"ce4bgjh2rcd13ifvqbf0","pricing_plan_id":"cebpf4jnsgd1na2vs0mg"},{"bike_id":"71f606a5-4879-4b26-9ccd-1543fb1a6ec7","system_id":"levelo_inurba_marseille","lat":43.28373,"lon":5.39031,"is_reserved":false,"is_disabled":false,"rental_uris":{"android":"levelo://app?vid=71f606a5-4879-4b26-9ccd-1543fb1a6ec7","ios":"levelo://app?vid=71f606a5-4879-4b26-9ccd-1543fb1a6ec7"},"vehicle_type_id":"4","last_reported":1740481654,"current_range_meters":6400,"station_id":"","pricing_plan_id":"cebpf4jnsgd1na2vs0mg"},{"bike_id":"026e5f46-92db-457a-b929-c29c368d5abc","system_id":"levelo_inurba_marseille","lat":43.27841,"lon":5.4073,"is_reserved":false,"is_disabled":false,"rental_uris":{"android":"levelo://app?vid=026e5f46-92db-457a-b929-c29c368d5abc","ios":"levelo://app?vid=026e5f46-92db-457a-b929-c29c368d5abc"},"vehicle_type_id":"4","last_reported":1740481654,"current_range_meters":6800,"station_id":"ce4bhnh2rcd13ifvqgtg","pricing_plan_id":"cebpf4jnsgd1na2vs0mg"},{"bike_id":"15d63c41-d467-4e01-ab9d-1a4d98399eb8","system_id":"levelo_inurba_marseille","lat":43.2808,"lon":5.39673,"is_reserved":false,"is_disabled":true,"rental_uris":{"android":"levelo://app?vid=15d63c41-d467-4e01-ab9d-1a4d98399eb8","ios":"levelo://app?vid=15d63c41-d467-4e01-ab9d-1a4d98399eb8"},"vehicle_type_id":"4","last_reported":1740481654,"current_range_meters":6800,"station_id":"ce4bho12rcd13ifvqh2g","pricing_plan_id":"cebpf4jnsgd1na2vs0mg"},{"bike_id":"c878d813-fcab-466d-b9ce-71b8cf3bc851","system_id":"levelo_inurba_marseille","lat":43.23964,"lon":5.36641,"is_reserved":false,"is_disabled":false,"rental_uris":{"android":"levelo://app?vid=c878d813-fcab-466d-b9ce-71b8cf3bc851","ios":"levelo://app?vid=c878d813-fcab-466d-b9ce-71b8cf3bc851"},"vehicle_type_id":"4","last_reported":1740481654,"current_range_meters":11600,"station_id":"ce4bhi12rcd13ifvqfp0","pricing_plan_id":"cebpf4jnsgd1na2vs0mg"},{"bike_id":"64f19e97-1970-49ed-b78f-e068b7019e1e","system_id":"levelo_inurba_marseille","lat":43.3079,"lon":5.36833,"is_reserved":false,"is_disabled":false,"rental_uris":{"android":"levelo://app?vid=64f19e97-1970-49ed-b78f-e068b7019e1e","ios":"levelo://app?vid=64f19e97-1970-49ed-b78f-e068b7019e1e"},"vehicle_type_id":"4","last_reported":1740481654,"current_range_meters":6800,"station_id":"","pricing_plan_id":"cebpf4jnsgd1na2vs0mg"},{"bike_id":"f3e2d31b-bf16-4d93-8358-e1b5fc69cdb1","system_id":"levelo_inurba_marseille","lat":43.28078,"lon":5.39918,"is_reserved":false,"is_disabled":false,"rental_uris":{"android":"levelo://app?vid=f3e2d31b-bf16-4d93-8358-e1b5fc69cdb1","ios":"levelo://app?vid=f3e2d31b-bf16-4d93-8358-e1b5fc69cdb1"},"vehicle_type_id":"4","last_reported":1740481654,"current_range_meters":6800,"station_id":"","pricing_plan_id":"cebpf4jnsgd1na2vs0mg"},{"bike_id":"17da1feb-9abe-4e1d-9544-5a842d8f1b8a","system_id":"levelo_inurba_marseille","lat":43.27803,"lon":5.40736,"is_reserved":false,"is_disabled":false,"rental_uris":{"android":"levelo://app?vid=17da1feb-9abe-4e1d-9544-5a842d8f1b8a","ios":"levelo://app?vid=17da1feb-9abe-4e1d-9544-5a842d8f1b8a"},"vehicle_type_id":"4","last_reported":1740481654,"current_range_meters":6800,"station_id":"ce4bhnh2rcd13ifvqgtg","pricing_plan_id":"cebpf4jnsgd1na2vs0mg"},{"bike_id":"f94d5532-075a-45cb-8030-de4c87c137a2","system_id":"levelo_inurba_marseille","lat":43.29794,"lon":5.38114,"is_reserved":false,"is_disabled":false,"rental_uris":{"android":"levelo://app?vid=f94d5532-075a-45cb-8030-de4c87c137a2","ios":"levelo://app?vid=f94d5532-075a-45cb-8030-de4c87c137a2"},"vehicle_type_id":"4","last_reported":1740481654,"current_range_meters":8000,"station_id":"ce4bgip2rcd13ifvqbb0","pricing_plan_id":"cebpf4jnsgd1na2vs0mg"},{"bike_id":"c93a81cd-6f4d-4858-87d2-9289cc072b8d","system_id":"levelo_inurba_marseille","lat":43.241648,"lon":5.397386,"is_reserved":false,"is_disabled":true,"rental_uris":{"android":"levelo://app?vid=c93a81cd-6f4d-4858-87d2-9289cc072b8d","ios":"levelo://app?vid=c93a81cd-6f4d-4858-87d2-9289cc072b8d"},"vehicle_type_id":"4","last_reported":1740481654,"current_range_meters":8000,"station_id":"ce4bh9p2rcd13ifvqec0","pricing_plan_id":"cebpf4jnsgd1na2vs0mg"},{"bike_id":"a1d0c79f-a9cc-4bcf-94d8-1eb4a81836d3","system_id":"levelo_inurba_marseille","lat":43.27441,"lon":5.39418,"is_reserved":false,"is_disabled":false,"rental_uris":{"android":"levelo://app?vid=a1d0c79f-a9cc-4bcf-94d8-1eb4a81836d3","ios":"levelo://app?vid=a1d0c79f-a9cc-4bcf-94d8-1eb4a81836d3"},"vehicle_type_id":"4","last_reported":1740481654,"current_range_meters":8400,"station_id":"ce4bhdp2rcd13ifvqf20","pricing_plan_id":"cebpf4jnsgd1na2vs0mg"},{"bike_id":"ea185eba-e25c-4ee2-9b93-91ac7b163c23","system_id":"levelo_inurba_marseille","lat":43.29912,"lon":5.37496,"is_reserved":false,"is_disabled":false,"rental_uris":{"android":"levelo://app?vid=ea185eba-e25c-4ee2-9b93-91ac7b163c23","ios":"levelo://app?vid=ea185eba-e25c-4ee2-9b93-91ac7b163c23"},"vehicle_type_id":"4","last_reported":1740481654,"current_range_meters":8400,"station_id":"ce4bgjh2rcd13ifvqbg0","pricing_plan_id":"cebpf4jnsgd1na2vs0mg"},{"bike_id":"ec17ff6a-26f9-4514-bd43-4ec7017c0b01","system_id":"levelo_inurba_marseille","lat":43.29314,"lon":5.37663,"is_reserved":false,"is_disabled":false,"rental_uris":{"android":"levelo://app?vid=ec17ff6a-26f9-4514-bd43-4ec7017c0b01","ios":"levelo://app?vid=ec17ff6a-26f9-4514-bd43-4ec7017c0b01"},"vehicle_type_id":"4","last_reported":1740481654,"current_range_meters":8400,"station_id":"","pricing_plan_id":"cebpf4jnsgd1na2vs0mg"},{"bike_id":"48e01062-9406-48f6-be63-eefc05b88fd8","system_id":"levelo_inurba_marseille","lat":43.30947,"lon":5.39035,"is_reserved":false,"is_disabled":false,"rental_uris":{"android":"levelo://app?vid=48e01062-9406-48f6-be63-eefc05b88fd8","ios":"levelo://app?vid=48e01062-9406-48f6-be63-eefc05b88fd8"},"vehicle_type_id":"4","last_reported":1740481654,"current_range_meters":8400,"station_id":"ce4bgup2rcd13ifvqco0","pricing_plan_id":"cebpf4jnsgd1na2vs0mg"},{"bike_id":"5162c2ce-a731-4d3b-a21a-a1c8cb63150f","system_id":"levelo_inurba_marseille","lat":43.31716,"lon":5.43697,"is_reserved":false,"is_disabled":false,"rental_uris":{"android":"levelo://app?vid=5162c2ce-a731-4d3b-a21a-a1c8cb63150f","ios":"levelo://app?vid=5162c2ce-a731-4d3b-a21a-a1c8cb63150f"},"vehicle_type_id":"4","last_reported":1740481654,"current_range_meters":8400,"station_id":"ce4bhp92rcd13ifvqhcg","pricing_plan_id":"cebpf4jnsgd1na2vs0mg"},{"bike_id":"62d6dfac-3678-46c2-bb6d-52ac1ce7e615","system_id":"levelo_inurba_marseille","lat":43.25851,"lon":5.3946,"is_reserved":false,"is_disabled":false,"rental_uris":{"android":"levelo://app?vid=62d6dfac-3678-46c2-bb6d-52ac1ce7e615","ios":"levelo://app?vid=62d6dfac-3678-46c2-bb6d-52ac1ce7e615"},"vehicle_type_id":"4","last_reported":1740481654,"current_range_meters":8800,"station_id":"ce4bhip2rcd13ifvqft0","pricing_plan_id":"cebpf4jnsgd1na2vs0mg"},{"bike_id":"134e832a-aa90-4ef3-8ba6-b68c12ac5055","system_id":"levelo_inurba_marseille","lat":43.31314,"lon":5.39718,"is_reserved":false,"is_disabled":false,"rental_uris":{"android":"levelo://app?vid=134e832a-aa90-4ef3-8ba6-b68c12ac5055","ios":"levelo://app?vid=134e832a-aa90-4ef3-8ba6-b68c12ac5055"},"vehicle_type_id":"4","last_reported":1740481654,"current_range_meters":8800,"station_id":"ce4bgvp2rcd13ifvqcu0","pricing_plan_id":"cebpf4jnsgd1na2vs0mg"},{"bike_id":"7deaf953-0f73-4d03-80c3-69818dfef8bd","system_id":"levelo_inurba_marseille","lat":43.24193,"lon":5.39732,"is_reserved":false,"is_disabled":false,"rental_uris":{"android":"levelo://app?vid=7deaf953-0f73-4d03-80c3-69818dfef8bd","ios":"levelo://app?vid=7deaf953-0f73-4d03-80c3-69818dfef8bd"},"vehicle_type_id":"4","last_reported":1740481654,"current_range_meters":8800,"station_id":"ce4bhn12rcd13ifvqgpg","pricing_plan_id":"cebpf4jnsgd1na2vs0mg"},{"bike_id":"446313c8-37fc-4f36-b9c3-a1d481dfb62b","system_id":"levelo_inurba_marseille","lat":43.26817,"lon":5.41104,"is_reserved":false,"is_disabled":false,"rental_uris":{"android":"levelo://app?vid=446313c8-37fc-4f36-b9c3-a1d481dfb62b","ios":"levelo://app?vid=446313c8-37fc-4f36-b9c3-a1d481dfb62b"},"vehicle_type_id":"4","last_reported":1740481654,"current_range_meters":8800,"station_id":"","pricing_plan_id":"cebpf4jnsgd1na2vs0mg"},{"bike_id":"1002a0af-eef7-42ff-bae6-2a0746a23063","system_id":"levelo_inurba_marseille","lat":43.29092,"lon":5.38136,"is_reserved":false,"is_disabled":false,"rental_uris":{"android":"levelo://app?vid=1002a0af-eef7-42ff-bae6-2a0746a23063","ios":"levelo://app?vid=1002a0af-eef7-42ff-bae6-2a0746a23063"},"vehicle_type_id":"4","last_reported":1740481654,"current_range_meters":8800,"station_id":"ce4bh512rcd13ifvqe2g","pricing_plan_id":"cebpf4jnsgd1na2vs0mg"},{"bike_id":"f2dbab99-4a58-4ed3-b426-52788c0f6774","system_id":"levelo_inurba_marseille","lat":43.301473,"lon":5.398597,"is_reserved":false,"is_disabled":false,"rental_uris":{"android":"levelo://app?vid=f2dbab99-4a58-4ed3-b426-52788c0f6774","ios":"levelo://app?vid=f2dbab99-4a58-4ed3-b426-52788c0f6774"},"vehicle_type_id":"4","last_reported":1740481654,"current_range_meters":8800,"station_id":"ce4bh0h2rcd13ifvqd40","pricing_plan_id":"cebpf4jnsgd1na2vs0mg"},{"bike_id":"ce08e129-3210-4784-8e00-3661099c392d","system_id":"levelo_inurba_marseille","lat":43.29913,"lon":5.43669,"is_reserved":false,"is_disabled":false,"rental_uris":{"android":"levelo://app?vid=ce08e129-3210-4784-8e00-3661099c392d","ios":"levelo://app?vid=ce08e129-3210-4784-8e00-3661099c392d"},"vehicle_type_id":"4","last_reported":1740481654,"current_range_meters":9200,"station_id":"ce4bhpp2rcd13ifvqhfg","pricing_plan_id":"cebpf4jnsgd1na2vs0mg"},{"bike_id":"e4dc582f-9a60-4d49-b51a-c833916c5b8e","system_id":"levelo_inurba_marseille","lat":43.29791,"lon":5.38107,"is_reserved":false,"is_disabled":false,"rental_uris":{"android":"levelo://app?vid=e4dc582f-9a60-4d49-b51a-c833916c5b8e","ios":"levelo://app?vid=e4dc582f-9a60-4d49-b51a-c833916c5b8e"},"vehicle_type_id":"4","last_reported":1740481654,"current_range_meters":11200,"station_id":"ce4bgip2rcd13ifvqbb0","pricing_plan_id":"cebpf4jnsgd1na2vs0mg"},{"bike_id":"18d39a22-d51d-46b7-9d34-c7373e10f190","system_id":"levelo_inurba_marseille","lat":43.25122,"lon":5.40319,"is_reserved":false,"is_disabled":false,"rental_uris":{"android":"levelo://app?vid=18d39a22-d51d-46b7-9d34-c7373e10f190","ios":"levelo://app?vid=18d39a22-d51d-46b7-9d34-c7373e10f190"},"vehicle_type_id":"4","last_reported":1740481654,"current_range_meters":12800,"station_id":"ce4bhlh2rcd13ifvqgig","pricing_plan_id":"cebpf4jnsgd1na2vs0mg"},{"bike_id":"2d9f0777-5b96-4c1e-80c5-10449636aa92","system_id":"levelo_inurba_marseille","lat":43.32367,"lon":5.38901,"is_reserved":false,"is_disabled":false,"rental_uris":{"android":"levelo://app?vid=2d9f0777-5b96-4c1e-80c5-10449636aa92","ios":"levelo://app?vid=2d9f0777-5b96-4c1e-80c5-10449636aa92"},"vehicle_type_id":"4","last_reported":1740481654,"current_range_meters":9200,"station_id":"ce4bhqp2rcd13ifvqhog","pricing_plan_id":"cebpf4jnsgd1na2vs0mg"},{"bike_id":"d469ae70-b06c-49f4-b9c4-a41e0d165d26","system_id":"levelo_inurba_marseille","lat":43.24168,"lon":5.36369,"is_reserved":false,"is_disabled":false,"rental_uris":{"android":"levelo://app?vid=d469ae70-b06c-49f4-b9c4-a41e0d165d26","ios":"levelo://app?vid=d469ae70-b06c-49f4-b9c4-a41e0d165d26"},"vehicle_type_id":"4","last_reported":1740481654,"current_range_meters":9600,"station_id":"cpo36qri1sfpv3e86is0","pricing_plan_id":"cebpf4jnsgd1na2vs0mg"},{"bike_id":"84725830-65c0-4278-b88d-cd4e479db3f6","system_id":"levelo_inurba_marseille","lat":43.29796,"lon":5.38107,"is_reserved":false,"is_disabled":false,"rental_uris":{"android":"levelo://app?vid=84725830-65c0-4278-b88d-cd4e479db3f6","ios":"levelo://app?vid=84725830-65c0-4278-b88d-cd4e479db3f6"},"vehicle_type_id":"4","last_reported":1740481654,"current_range_meters":9600,"station_id":"ce4bgip2rcd13ifvqbb0","pricing_plan_id":"cebpf4jnsgd1na2vs0mg"},{"bike_id":"5436e6b9-f68e-4779-9791-4b9021fab323","system_id":"levelo_inurba_marseille","lat":43.30557,"lon":5.36717,"is_reserved":false,"is_disabled":false,"rental_uris":{"android":"levelo://app?vid=5436e6b9-f68e-4779-9791-4b9021fab323","ios":"levelo://app?vid=5436e6b9-f68e-4779-9791-4b9021fab323"},"vehicle_type_id":"4","last_reported":1740481654,"current_range_meters":9600,"station_id":"ce4bgrp2rcd13ifvqc9g","pricing_plan_id":"cebpf4jnsgd1na2vs0mg"},{"bike_id":"351aaf2f-a80d-4593-8e45-cd887990f69e","system_id":"levelo_inurba_marseille","lat":43.33028,"lon":5.39044,"is_reserved":false,"is_disabled":false,"rental_uris":{"android":"levelo://app?vid=351aaf2f-a80d-4593-8e45-cd887990f69e","ios":"levelo://app?vid=351aaf2f-a80d-4593-8e45-cd887990f69e"},"vehicle_type_id":"4","last_reported":1740481654,"current_range_meters":9600,"station_id":"ce4bhr92rcd13ifvqhrg","pricing_plan_id":"cebpf4jnsgd1na2vs0mg"},{"bike_id":"0b28019f-314c-4d42-a4b0-74ff09599aca","system_id":"levelo_inurba_marseille","lat":43.26944,"lon":5.40255,"is_reserved":false,"is_disabled":false,"rental_uris":{"android":"levelo://app?vid=0b28019f-314c-4d42-a4b0-74ff09599aca","ios":"levelo://app?vid=0b28019f-314c-4d42-a4b0-74ff09599aca"},"vehicle_type_id":"4","last_reported":1740481654,"current_range_meters":9200,"station_id":"cjm6bp8fraef2m0cb0m0","pricing_plan_id":"cebpf4jnsgd1na2vs0mg"},{"bike_id":"c67397b0-23f5-4ab1-b6e8-82f41d0f970c","system_id":"levelo_inurba_marseille","lat":43.29573,"lon":5.3997,"is_reserved":false,"is_disabled":false,"rental_uris":{"android":"levelo://app?vid=c67397b0-23f5-4ab1-b6e8-82f41d0f970c","ios":"levelo://app?vid=c67397b0-23f5-4ab1-b6e8-82f41d0f970c"},"vehicle_type_id":"4","last_reported":1740481654,"current_range_meters":10000,"station_id":"ce4bh312rcd13ifvqdj0","pricing_plan_id":"cebpf4jnsgd1na2vs0mg"},{"bike_id":"cc671b23-66f3-4d83-9181-a15cc478460b","system_id":"levelo_inurba_marseille","lat":43.31533,"lon":5.398049,"is_reserved":false,"is_disabled":false,"rental_uris":{"android":"levelo://app?vid=cc671b23-66f3-4d83-9181-a15cc478460b","ios":"levelo://app?vid=cc671b23-66f3-4d83-9181-a15cc478460b"},"vehicle_type_id":"4","last_reported":1740481654,"current_range_meters":9600,"station_id":"ce4bgvp2rcd13ifvqct0","pricing_plan_id":"cebpf4jnsgd1na2vs0mg"},{"bike_id":"e5c275a2-a964-47d8-9489-ed1126cf4cef","system_id":"levelo_inurba_marseille","lat":43.29624,"lon":5.37956,"is_reserved":false,"is_disabled":false,"rental_uris":{"android":"levelo://app?vid=e5c275a2-a964-47d8-9489-ed1126cf4cef","ios":"levelo://app?vid=e5c275a2-a964-47d8-9489-ed1126cf4cef"},"vehicle_type_id":"4","last_reported":1740481654,"current_range_meters":10800,"station_id":"","pricing_plan_id":"cebpf4jnsgd1na2vs0mg"},{"bike_id":"32539051-701a-43d4-870d-0627192d3ef3","system_id":"levelo_inurba_marseille","lat":43.25028,"lon":5.38918,"is_reserved":false,"is_disabled":false,"rental_uris":{"android":"levelo://app?vid=32539051-701a-43d4-870d-0627192d3ef3","ios":"levelo://app?vid=32539051-701a-43d4-870d-0627192d3ef3"},"vehicle_type_id":"4","last_reported":1740481654,"current_range_meters":10800,"station_id":"ce4bhgp2rcd13ifvqfd0","pricing_plan_id":"cebpf4jnsgd1na2vs0mg"},{"bike_id":"d2ab12bb-168c-415c-8878-1b5c914ca656","system_id":"levelo_inurba_marseille","lat":43.283112,"lon":5.374775,"is_reserved":false,"is_disabled":false,"rental_uris":{"android":"levelo://app?vid=d2ab12bb-168c-415c-8878-1b5c914ca656","ios":"levelo://app?vid=d2ab12bb-168c-415c-8878-1b5c914ca656"},"vehicle_type_id":"4","last_reported":1740481654,"current_range_meters":10800,"station_id":"ce4bh412rcd13ifvqds0","pricing_plan_id":"cebpf4jnsgd1na2vs0mg"},{"bike_id":"65e3dbf5-cb43-4afc-9f8b-0026fd886e1f","system_id":"levelo_inurba_marseille","lat":43.32478,"lon":5.36569,"is_reserved":false,"is_disabled":false,"rental_uris":{"android":"levelo://app?vid=65e3dbf5-cb43-4afc-9f8b-0026fd886e1f","ios":"levelo://app?vid=65e3dbf5-cb43-4afc-9f8b-0026fd886e1f"},"vehicle_type_id":"4","last_reported":1740481654,"current_range_meters":11200,"station_id":"ce4bhs12rcd13ifvqhvg","pricing_plan_id":"cebpf4jnsgd1na2vs0mg"},{"bike_id":"41c45514-78ef-4437-b6cf-da857a9e58ef","system_id":"levelo_inurba_marseille","lat":43.25829,"lon":5.39441,"is_reserved":false,"is_disabled":false,"rental_uris":{"android":"levelo://app?vid=41c45514-78ef-4437-b6cf-da857a9e58ef","ios":"levelo://app?vid=41c45514-78ef-4437-b6cf-da857a9e58ef"},"vehicle_type_id":"4","last_reported":1740481654,"current_range_meters":4000,"station_id":"ce4bhip2rcd13ifvqft0","pricing_plan_id":"cebpf4jnsgd1na2vs0mg"},{"bike_id":"c53ed6e7-916e-40f4-9e84-94eccc7a73ea","system_id":"levelo_inurba_marseille","lat":43.23142,"lon":5.43728,"is_reserved":false,"is_disabled":false,"rental_uris":{"android":"levelo://app?vid=c53ed6e7-916e-40f4-9e84-94eccc7a73ea","ios":"levelo://app?vid=c53ed6e7-916e-40f4-9e84-94eccc7a73ea"},"vehicle_type_id":"4","last_reported":1740481654,"current_range_meters":12000,"station_id":"ce4bhmp2rcd13ifvqgog","pricing_plan_id":"cebpf4jnsgd1na2vs0mg"},{"bike_id":"b7b50359-cb51-4e43-a028-77da97c0e984","system_id":"levelo_inurba_marseille","lat":43.30422,"lon":5.41295,"is_reserved":false,"is_disabled":false,"rental_uris":{"android":"levelo://app?vid=b7b50359-cb51-4e43-a028-77da97c0e984","ios":"levelo://app?vid=b7b50359-cb51-4e43-a028-77da97c0e984"},"vehicle_type_id":"4","last_reported":1740481654,"current_range_meters":11200,"station_id":"ce4bhop2rcd13ifvqh8g","pricing_plan_id":"cebpf4jnsgd1na2vs0mg"},{"bike_id":"1349a08a-530a-4ab4-8d00-c4ceb5e3464b","system_id":"levelo_inurba_marseille","lat":43.29318,"lon":5.3682,"is_reserved":false,"is_disabled":false,"rental_uris":{"android":"levelo://app?vid=1349a08a-530a-4ab4-8d00-c4ceb5e3464b","ios":"levelo://app?vid=1349a08a-530a-4ab4-8d00-c4ceb5e3464b"},"vehicle_type_id":"4","last_reported":1740481654,"current_range_meters":12000,"station_id":"ce4bhbp2rcd13ifvqesg","pricing_plan_id":"cebpf4jnsgd1na2vs0mg"},{"bike_id":"05f51bd6-bf8c-4b6c-ba2f-d7bf7cec3006","system_id":"levelo_inurba_marseille","lat":43.23202,"lon":5.35614,"is_reserved":false,"is_disabled":false,"rental_uris":{"android":"levelo://app?vid=05f51bd6-bf8c-4b6c-ba2f-d7bf7cec3006","ios":"levelo://app?vid=05f51bd6-bf8c-4b6c-ba2f-d7bf7cec3006"},"vehicle_type_id":"4","last_reported":1740481654,"current_range_meters":12400,"station_id":"","pricing_plan_id":"cebpf4jnsgd1na2vs0mg"},{"bike_id":"2a447e54-08b0-45f4-b9ed-e4179486df28","system_id":"levelo_inurba_marseille","lat":43.26744,"lon":5.39436,"is_reserved":false,"is_disabled":true,"rental_uris":{"android":"levelo://app?vid=2a447e54-08b0-45f4-b9ed-e4179486df28","ios":"levelo://app?vid=2a447e54-08b0-45f4-b9ed-e4179486df28"},"vehicle_type_id":"4","last_reported":1740481654,"current_range_meters":12000,"station_id":"","pricing_plan_id":"cebpf4jnsgd1na2vs0mg"},{"bike_id":"6bb7a600-4627-48d6-a6ba-24a72f10b0e3","system_id":"levelo_inurba_marseille","lat":43.23148,"lon":5.4374,"is_reserved":false,"is_disabled":false,"rental_uris":{"android":"levelo://app?vid=6bb7a600-4627-48d6-a6ba-24a72f10b0e3","ios":"levelo://app?vid=6bb7a600-4627-48d6-a6ba-24a72f10b0e3"},"vehicle_type_id":"4","last_reported":1740481654,"current_range_meters":12800,"station_id":"ce4bhmp2rcd13ifvqgog","pricing_plan_id":"cebpf4jnsgd1na2vs0mg"},{"bike_id":"1c2f3bdc-68fa-40a8-b99e-fcf41f32f9e4","system_id":"levelo_inurba_marseille","lat":43.2921,"lon":5.40535,"is_reserved":false,"is_disabled":false,"rental_uris":{"android":"levelo://app?vid=1c2f3bdc-68fa-40a8-b99e-fcf41f32f9e4","ios":"levelo://app?vid=1c2f3bdc-68fa-40a8-b99e-fcf41f32f9e4"},"vehicle_type_id":"4","last_reported":1740481654,"current_range_meters":13600,"station_id":"","pricing_plan_id":"cebpf4jnsgd1na2vs0mg"},{"bike_id":"2c6aa15b-58eb-4bde-b5e7-6dddcb92f95e","system_id":"levelo_inurba_marseille","lat":43.28578,"lon":5.395,"is_reserved":false,"is_disabled":false,"rental_uris":{"android":"levelo://app?vid=2c6aa15b-58eb-4bde-b5e7-6dddcb92f95e","ios":"levelo://app?vid=2c6aa15b-58eb-4bde-b5e7-6dddcb92f95e"},"vehicle_type_id":"4","last_reported":1740481654,"current_range_meters":14000,"station_id":"ce4bh292rcd13ifvqdg0","pricing_plan_id":"cebpf4jnsgd1na2vs0mg"},{"bike_id":"ef717b3d-1d38-4555-b4ee-841a243f50de","system_id":"levelo_inurba_marseille","lat":43.32554,"lon":5.41478,"is_reserved":false,"is_disabled":false,"rental_uris":{"android":"levelo://app?vid=ef717b3d-1d38-4555-b4ee-841a243f50de","ios":"levelo://app?vid=ef717b3d-1d38-4555-b4ee-841a243f50de"},"vehicle_type_id":"4","last_reported":1740481654,"current_range_meters":13600,"station_id":"ce4bhq12rcd13ifvqhhg","pricing_plan_id":"cebpf4jnsgd1na2vs0mg"},{"bike_id":"65c14da8-5902-45f7-b88e-fb5f96fcc6f0","system_id":"levelo_inurba_marseille","lat":43.32113,"lon":5.36773,"is_reserved":false,"is_disabled":false,"rental_uris":{"android":"levelo://app?vid=65c14da8-5902-45f7-b88e-fb5f96fcc6f0","ios":"levelo://app?vid=65c14da8-5902-45f7-b88e-fb5f96fcc6f0"},"vehicle_type_id":"4","last_reported":1740481654,"current_range_meters":13600,"station_id":"ce4bhrh2rcd13ifvqhug","pricing_plan_id":"cebpf4jnsgd1na2vs0mg"},{"bike_id":"01470a8d-74cf-4e59-a836-8774dbb84f90","system_id":"levelo_inurba_marseille","lat":43.30277,"lon":5.37704,"is_reserved":false,"is_disabled":false,"rental_uris":{"android":"levelo://app?vid=01470a8d-74cf-4e59-a836-8774dbb84f90","ios":"levelo://app?vid=01470a8d-74cf-4e59-a836-8774dbb84f90"},"vehicle_type_id":"4","last_reported":1740481654,"current_range_meters":14000,"station_id":"ce4bguh2rcd13ifvqcj0","pricing_plan_id":"cebpf4jnsgd1na2vs0mg"},{"bike_id":"9062f7b6-9c81-49b8-a1bd-5df58202afcd","system_id":"levelo_inurba_marseille","lat":43.31708,"lon":5.43709,"is_reserved":false,"is_disabled":false,"rental_uris":{"android":"levelo://app?vid=9062f7b6-9c81-49b8-a1bd-5df58202afcd","ios":"levelo://app?vid=9062f7b6-9c81-49b8-a1bd-5df58202afcd"},"vehicle_type_id":"4","last_reported":1740481654,"current_range_meters":14000,"station_id":"ce4bhp92rcd13ifvqhcg","pricing_plan_id":"cebpf4jnsgd1na2vs0mg"},{"bike_id":"ee35d3d0-027c-4930-8283-d8dcb5890355","system_id":"levelo_inurba_marseille","lat":43.31763,"lon":5.38816,"is_reserved":false,"is_disabled":false,"rental_uris":{"android":"levelo://app?vid=ee35d3d0-027c-4930-8283-d8dcb5890355","ios":"levelo://app?vid=ee35d3d0-027c-4930-8283-d8dcb5890355"},"vehicle_type_id":"4","last_reported":1740481654,"current_range_meters":14000,"station_id":"","pricing_plan_id":"cebpf4jnsgd1na2vs0mg"},{"bike_id":"36427cee-8fdc-4a4f-9ac9-c2ae0b53a1e7","system_id":"levelo_inurba_marseille","lat":43.3238,"lon":5.38871,"is_reserved":false,"is_disabled":false,"rental_uris":{"android":"levelo://app?vid=36427cee-8fdc-4a4f-9ac9-c2ae0b53a1e7","ios":"levelo://app?vid=36427cee-8fdc-4a4f-9ac9-c2ae0b53a1e7"},"vehicle_type_id":"4","last_reported":1740481654,"current_range_meters":14400,"station_id":"ce4bhqp2rcd13ifvqhog","pricing_plan_id":"cebpf4jnsgd1na2vs0mg"},{"bike_id":"ac086d2c-719c-4a2a-a013-aaa6081de137","system_id":"levelo_inurba_marseille","lat":43.29029,"lon":5.38656,"is_reserved":false,"is_disabled":false,"rental_uris":{"android":"levelo://app?vid=ac086d2c-719c-4a2a-a013-aaa6081de137","ios":"levelo://app?vid=ac086d2c-719c-4a2a-a013-aaa6081de137"},"vehicle_type_id":"4","last_reported":1740481654,"current_range_meters":14000,"station_id":"ce4bh4p2rcd13ifvqe0g","pricing_plan_id":"cebpf4jnsgd1na2vs0mg"},{"bike_id":"3ca12e5b-bc10-471e-b621-aa59335cc3bb","system_id":"levelo_inurba_marseille","lat":43.29548,"lon":5.40795,"is_reserved":false,"is_disabled":false,"rental_uris":{"android":"levelo://app?vid=3ca12e5b-bc10-471e-b621-aa59335cc3bb","ios":"levelo://app?vid=3ca12e5b-bc10-471e-b621-aa59335cc3bb"},"vehicle_type_id":"4","last_reported":1740481654,"current_range_meters":14400,"station_id":"","pricing_plan_id":"cebpf4jnsgd1na2vs0mg"},{"bike_id":"0032a1aa-e9eb-4e54-a538-e616211bd91a","system_id":"levelo_inurba_marseille","lat":43.27499,"lon":5.42454,"is_reserved":false,"is_disabled":false,"rental_uris":{"android":"levelo://app?vid=0032a1aa-e9eb-4e54-a538-e616211bd91a","ios":"levelo://app?vid=0032a1aa-e9eb-4e54-a538-e616211bd91a"},"vehicle_type_id":"4","last_reported":1740481654,"current_range_meters":14400,"station_id":"ce4bhn92rcd13ifvqgrg","pricing_plan_id":"cebpf4jnsgd1na2vs0mg"},{"bike_id":"7c45866a-bd99-4c12-9747-66203f12a96e","system_id":"levelo_inurba_marseille","lat":43.23137,"lon":5.35503,"is_reserved":false,"is_disabled":false,"rental_uris":{"android":"levelo://app?vid=7c45866a-bd99-4c12-9747-66203f12a96e","ios":"levelo://app?vid=7c45866a-bd99-4c12-9747-66203f12a96e"},"vehicle_type_id":"4","last_reported":1740481654,"current_range_meters":14400,"station_id":"","pricing_plan_id":"cebpf4jnsgd1na2vs0mg"},{"bike_id":"d9cd0b24-d8d3-4c55-90c0-4ef5893eee0c","system_id":"levelo_inurba_marseille","lat":43.24998,"lon":5.38933,"is_reserved":false,"is_disabled":false,"rental_uris":{"android":"levelo://app?vid=d9cd0b24-d8d3-4c55-90c0-4ef5893eee0c","ios":"levelo://app?vid=d9cd0b24-d8d3-4c55-90c0-4ef5893eee0c"},"vehicle_type_id":"4","last_reported":1740481654,"current_range_meters":14800,"station_id":"ce4bhgp2rcd13ifvqfd0","pricing_plan_id":"cebpf4jnsgd1na2vs0mg"},{"bike_id":"02fcc866-efc5-4897-9781-04ee90587508","system_id":"levelo_inurba_marseille","lat":43.3176,"lon":5.39016,"is_reserved":false,"is_disabled":false,"rental_uris":{"android":"levelo://app?vid=02fcc866-efc5-4897-9781-04ee90587508","ios":"levelo://app?vid=02fcc866-efc5-4897-9781-04ee90587508"},"vehicle_type_id":"4","last_reported":1740481654,"current_range_meters":16000,"station_id":"ce4bhqp2rcd13ifvqhng","pricing_plan_id":"cebpf4jnsgd1na2vs0mg"},{"bike_id":"2884fb18-b950-45b0-a7f3-afa94368f0cf","system_id":"levelo_inurba_marseille","lat":43.303,"lon":5.39215,"is_reserved":false,"is_disabled":false,"rental_uris":{"android":"levelo://app?vid=2884fb18-b950-45b0-a7f3-afa94368f0cf","ios":"levelo://app?vid=2884fb18-b950-45b0-a7f3-afa94368f0cf"},"vehicle_type_id":"4","last_reported":1740481654,"current_range_meters":15200,"station_id":"ce4bgkh2rcd13ifvqbk0","pricing_plan_id":"cebpf4jnsgd1na2vs0mg"},{"bike_id":"c58fc0e9-9971-41b8-937a-6b071647b02e","system_id":"levelo_inurba_marseille","lat":43.27177,"lon":5.41003,"is_reserved":false,"is_disabled":false,"rental_uris":{"android":"levelo://app?vid=c58fc0e9-9971-41b8-937a-6b071647b02e","ios":"levelo://app?vid=c58fc0e9-9971-41b8-937a-6b071647b02e"},"vehicle_type_id":"4","last_reported":1740481654,"current_range_meters":9600,"station_id":"ce4bhl12rcd13ifvqgf0","pricing_plan_id":"cebpf4jnsgd1na2vs0mg"},{"bike_id":"6fe475fd-06c5-454f-b2b4-f6f7ee196956","system_id":"levelo_inurba_marseille","lat":43.23204,"lon":5.39979,"is_reserved":false,"is_disabled":false,"rental_uris":{"android":"levelo://app?vid=6fe475fd-06c5-454f-b2b4-f6f7ee196956","ios":"levelo://app?vid=6fe475fd-06c5-454f-b2b4-f6f7ee196956"},"vehicle_type_id":"4","last_reported":1740481654,"current_range_meters":16000,"station_id":"ce4bhn12rcd13ifvqgqg","pricing_plan_id":"cebpf4jnsgd1na2vs0mg"},{"bike_id":"fdeb3441-6563-4600-a3c1-eae18a289cb9","system_id":"levelo_inurba_marseille","lat":43.29624,"lon":5.37718,"is_reserved":false,"is_disabled":false,"rental_uris":{"android":"levelo://app?vid=fdeb3441-6563-4600-a3c1-eae18a289cb9","ios":"levelo://app?vid=fdeb3441-6563-4600-a3c1-eae18a289cb9"},"vehicle_type_id":"4","last_reported":1740481654,"current_range_meters":16000,"station_id":"ce4bgi92rcd13ifvqb90","pricing_plan_id":"cebpf4jnsgd1na2vs0mg"},{"bike_id":"ee689e57-a6a5-4a2a-ad27-e890e8dae2ce","system_id":"levelo_inurba_marseille","lat":43.30533,"lon":5.3654,"is_reserved":false,"is_disabled":false,"rental_uris":{"android":"levelo://app?vid=ee689e57-a6a5-4a2a-ad27-e890e8dae2ce","ios":"levelo://app?vid=ee689e57-a6a5-4a2a-ad27-e890e8dae2ce"},"vehicle_type_id":"4","last_reported":1740481654,"current_range_meters":15200,"station_id":"ce4bgs12rcd13ifvqcag","pricing_plan_id":"cebpf4jnsgd1na2vs0mg"},{"bike_id":"6a2aa712-d570-4a50-aa17-3ced782e6ff4","system_id":"levelo_inurba_marseille","lat":43.31092,"lon":5.42422,"is_reserved":false,"is_disabled":false,"rental_uris":{"android":"levelo://app?vid=6a2aa712-d570-4a50-aa17-3ced782e6ff4","ios":"levelo://app?vid=6a2aa712-d570-4a50-aa17-3ced782e6ff4"},"vehicle_type_id":"4","last_reported":1740481654,"current_range_meters":16400,"station_id":"ce4bhp92rcd13ifvqhag","pricing_plan_id":"cebpf4jnsgd1na2vs0mg"},{"bike_id":"a55940c1-ba72-427a-80fe-76dc4266bf66","system_id":"levelo_inurba_marseille","lat":43.27941,"lon":5.3872,"is_reserved":false,"is_disabled":false,"rental_uris":{"android":"levelo://app?vid=a55940c1-ba72-427a-80fe-76dc4266bf66","ios":"levelo://app?vid=a55940c1-ba72-427a-80fe-76dc4266bf66"},"vehicle_type_id":"4","last_reported":1740481654,"current_range_meters":16400,"station_id":"ce4bhg12rcd13ifvqf80","pricing_plan_id":"cebpf4jnsgd1na2vs0mg"},{"bike_id":"4312604a-0ad6-4307-abca-818da99ede7e","system_id":"levelo_inurba_marseille","lat":43.30196,"lon":5.36631,"is_reserved":false,"is_disabled":false,"rental_uris":{"android":"levelo://app?vid=4312604a-0ad6-4307-abca-818da99ede7e","ios":"levelo://app?vid=4312604a-0ad6-4307-abca-818da99ede7e"},"vehicle_type_id":"4","last_reported":1740481654,"current_range_meters":14400,"station_id":"ce4bgrh2rcd13ifvqc8g","pricing_plan_id":"cebpf4jnsgd1na2vs0mg"},{"bike_id":"a0ef3366-6f01-4273-864d-81f214e98d30","system_id":"levelo_inurba_marseille","lat":43.3255,"lon":5.41468,"is_reserved":false,"is_disabled":false,"rental_uris":{"android":"levelo://app?vid=a0ef3366-6f01-4273-864d-81f214e98d30","ios":"levelo://app?vid=a0ef3366-6f01-4273-864d-81f214e98d30"},"vehicle_type_id":"4","last_reported":1740481654,"current_range_meters":16400,"station_id":"ce4bhq12rcd13ifvqhhg","pricing_plan_id":"cebpf4jnsgd1na2vs0mg"},{"bike_id":"bb5979ca-5e71-468d-bc94-7cb6d205fa81","system_id":"levelo_inurba_marseille","lat":43.27944,"lon":5.41051,"is_reserved":false,"is_disabled":false,"rental_uris":{"android":"levelo://app?vid=bb5979ca-5e71-468d-bc94-7cb6d205fa81","ios":"levelo://app?vid=bb5979ca-5e71-468d-bc94-7cb6d205fa81"},"vehicle_type_id":"4","last_reported":1740481654,"current_range_meters":17600,"station_id":"ce4bhnp2rcd13ifvqh0g","pricing_plan_id":"cebpf4jnsgd1na2vs0mg"},{"bike_id":"8b12f3dd-d3ac-4793-ac1c-9f637dd7dde2","system_id":"levelo_inurba_marseille","lat":43.30959,"lon":5.3905,"is_reserved":false,"is_disabled":false,"rental_uris":{"android":"levelo://app?vid=8b12f3dd-d3ac-4793-ac1c-9f637dd7dde2","ios":"levelo://app?vid=8b12f3dd-d3ac-4793-ac1c-9f637dd7dde2"},"vehicle_type_id":"4","last_reported":1740481654,"current_range_meters":16800,"station_id":"ce4bgup2rcd13ifvqco0","pricing_plan_id":"cebpf4jnsgd1na2vs0mg"},{"bike_id":"78ad93b1-ddb0-4f91-9cc9-14c1c395425a","system_id":"levelo_inurba_marseille","lat":43.25939,"lon":5.4091,"is_reserved":false,"is_disabled":false,"rental_uris":{"android":"levelo://app?vid=78ad93b1-ddb0-4f91-9cc9-14c1c395425a","ios":"levelo://app?vid=78ad93b1-ddb0-4f91-9cc9-14c1c395425a"},"vehicle_type_id":"4","last_reported":1740481654,"current_range_meters":17200,"station_id":"ce4bhm92rcd13ifvqglg","pricing_plan_id":"cebpf4jnsgd1na2vs0mg"},{"bike_id":"18748449-5ce8-4807-99c7-7ca555136f4b","system_id":"levelo_inurba_marseille","lat":43.29688,"lon":5.37716,"is_reserved":false,"is_disabled":false,"rental_uris":{"android":"levelo://app?vid=18748449-5ce8-4807-99c7-7ca555136f4b","ios":"levelo://app?vid=18748449-5ce8-4807-99c7-7ca555136f4b"},"vehicle_type_id":"4","last_reported":1740481654,"current_range_meters":18000,"station_id":"ce4bgkh2rcd13ifvqbl0","pricing_plan_id":"cebpf4jnsgd1na2vs0mg"},{"bike_id":"451ee27c-3053-4dad-97f9-30aa721d9def","system_id":"levelo_inurba_marseille","lat":43.27989,"lon":5.40025,"is_reserved":false,"is_disabled":false,"rental_uris":{"android":"levelo://app?vid=451ee27c-3053-4dad-97f9-30aa721d9def","ios":"levelo://app?vid=451ee27c-3053-4dad-97f9-30aa721d9def"},"vehicle_type_id":"4","last_reported":1740481654,"current_range_meters":18000,"station_id":"ce4bho92rcd13ifvqh4g","pricing_plan_id":"cebpf4jnsgd1na2vs0mg"},{"bike_id":"99ecdcac-415f-4765-98a3-24c1718bdda8","system_id":"levelo_inurba_marseille","lat":43.30535,"lon":5.36709,"is_reserved":false,"is_disabled":false,"rental_uris":{"android":"levelo://app?vid=99ecdcac-415f-4765-98a3-24c1718bdda8","ios":"levelo://app?vid=99ecdcac-415f-4765-98a3-24c1718bdda8"},"vehicle_type_id":"4","last_reported":1740481654,"current_range_meters":17600,"station_id":"","pricing_plan_id":"cebpf4jnsgd1na2vs0mg"},{"bike_id":"38ecdfe3-7fe7-4f80-b678-4ee7f7d81296","system_id":"levelo_inurba_marseille","lat":43.24642,"lon":5.38908,"is_reserved":false,"is_disabled":false,"rental_uris":{"android":"levelo://app?vid=38ecdfe3-7fe7-4f80-b678-4ee7f7d81296","ios":"levelo://app?vid=38ecdfe3-7fe7-4f80-b678-4ee7f7d81296"},"vehicle_type_id":"4","last_reported":1740481654,"current_range_meters":17600,"station_id":"ce4bhg12rcd13ifvqf60","pricing_plan_id":"cebpf4jnsgd1na2vs0mg"},{"bike_id":"4e8ad639-e542-4bda-a46f-51c1367f20bf","system_id":"levelo_inurba_marseille","lat":43.29368,"lon":5.37843,"is_reserved":false,"is_disabled":false,"rental_uris":{"android":"levelo://app?vid=4e8ad639-e542-4bda-a46f-51c1367f20bf","ios":"levelo://app?vid=4e8ad639-e542-4bda-a46f-51c1367f20bf"},"vehicle_type_id":"4","last_reported":1740481654,"current_range_meters":17600,"station_id":"ce4bgjh2rcd13ifvqbf0","pricing_plan_id":"cebpf4jnsgd1na2vs0mg"},{"bike_id":"c3d0fefa-5db4-49bd-a964-1a22da440d36","system_id":"levelo_inurba_marseille","lat":43.269559,"lon":5.386313,"is_reserved":false,"is_disabled":true,"rental_uris":{"android":"levelo://app?vid=c3d0fefa-5db4-49bd-a964-1a22da440d36","ios":"levelo://app?vid=c3d0fefa-5db4-49bd-a964-1a22da440d36"},"vehicle_type_id":"4","last_reported":1740481654,"current_range_meters":17600,"station_id":"","pricing_plan_id":"cebpf4jnsgd1na2vs0mg"},{"bike_id":"3d3f344d-a16b-4227-836c-7187b227c368","system_id":"levelo_inurba_marseille","lat":43.28162,"lon":5.4263,"is_reserved":false,"is_disabled":false,"rental_uris":{"android":"levelo://app?vid=3d3f344d-a16b-4227-836c-7187b227c368","ios":"levelo://app?vid=3d3f344d-a16b-4227-836c-7187b227c368"},"vehicle_type_id":"4","last_reported":1740481654,"current_range_meters":18000,"station_id":"ce4bhnh2rcd13ifvqgug","pricing_plan_id":"cebpf4jnsgd1na2vs0mg"},{"bike_id":"08b1cc8a-3978-4c90-8d38-4eaaf3a607b5","system_id":"levelo_inurba_marseille","lat":43.29679,"lon":5.37298,"is_reserved":false,"is_disabled":false,"rental_uris":{"android":"levelo://app?vid=08b1cc8a-3978-4c90-8d38-4eaaf3a607b5","ios":"levelo://app?vid=08b1cc8a-3978-4c90-8d38-4eaaf3a607b5"},"vehicle_type_id":"4","last_reported":1740481654,"current_range_meters":17600,"station_id":"ce4bgk12rcd13ifvqbj0","pricing_plan_id":"cebpf4jnsgd1na2vs0mg"},{"bike_id":"2af234c6-d5f4-4caa-80f0-4594b9f346fc","system_id":"levelo_inurba_marseille","lat":43.25945,"lon":5.40902,"is_reserved":false,"is_disabled":false,"rental_uris":{"android":"levelo://app?vid=2af234c6-d5f4-4caa-80f0-4594b9f346fc","ios":"levelo://app?vid=2af234c6-d5f4-4caa-80f0-4594b9f346fc"},"vehicle_type_id":"4","last_reported":1740481654,"current_range_meters":18000,"station_id":"ce4bhm92rcd13ifvqglg","pricing_plan_id":"cebpf4jnsgd1na2vs0mg"},{"bike_id":"9bcb6e74-9384-4520-a191-6ca3da24e600","system_id":"levelo_inurba_marseille","lat":43.24158,"lon":5.36404,"is_reserved":false,"is_disabled":false,"rental_uris":{"android":"levelo://app?vid=9bcb6e74-9384-4520-a191-6ca3da24e600","ios":"levelo://app?vid=9bcb6e74-9384-4520-a191-6ca3da24e600"},"vehicle_type_id":"4","last_reported":1740481654,"current_range_meters":18800,"station_id":"cpo36qri1sfpv3e86is0","pricing_plan_id":"cebpf4jnsgd1na2vs0mg"},{"bike_id":"d3103336-2d71-4742-bf9a-d557baf6d26c","system_id":"levelo_inurba_marseille","lat":43.27494,"lon":5.42476,"is_reserved":false,"is_disabled":false,"rental_uris":{"android":"levelo://app?vid=d3103336-2d71-4742-bf9a-d557baf6d26c","ios":"levelo://app?vid=d3103336-2d71-4742-bf9a-d557baf6d26c"},"vehicle_type_id":"4","last_reported":1740481654,"current_range_meters":18000,"station_id":"ce4bhn92rcd13ifvqgrg","pricing_plan_id":"cebpf4jnsgd1na2vs0mg"},{"bike_id":"8514fc45-931a-4d33-8ebd-119ca23a33dc","system_id":"levelo_inurba_marseille","lat":43.27802,"lon":5.40743,"is_reserved":false,"is_disabled":false,"rental_uris":{"android":"levelo://app?vid=8514fc45-931a-4d33-8ebd-119ca23a33dc","ios":"levelo://app?vid=8514fc45-931a-4d33-8ebd-119ca23a33dc"},"vehicle_type_id":"4","last_reported":1740481654,"current_range_meters":18000,"station_id":"ce4bhnh2rcd13ifvqgtg","pricing_plan_id":"cebpf4jnsgd1na2vs0mg"},{"bike_id":"2df0ff4b-59c7-42c3-926f-88a4e49cc388","system_id":"levelo_inurba_marseille","lat":43.28936,"lon":5.3639,"is_reserved":false,"is_disabled":false,"rental_uris":{"android":"levelo://app?vid=2df0ff4b-59c7-42c3-926f-88a4e49cc388","ios":"levelo://app?vid=2df0ff4b-59c7-42c3-926f-88a4e49cc388"},"vehicle_type_id":"4","last_reported":1740481654,"current_range_meters":20000,"station_id":"ce4bhc92rcd13ifvqetg","pricing_plan_id":"cebpf4jnsgd1na2vs0mg"},{"bike_id":"6fa61dd4-e1b7-4904-8f2e-d59b996e269d","system_id":"levelo_inurba_marseille","lat":43.25832,"lon":5.39438,"is_reserved":false,"is_disabled":false,"rental_uris":{"android":"levelo://app?vid=6fa61dd4-e1b7-4904-8f2e-d59b996e269d","ios":"levelo://app?vid=6fa61dd4-e1b7-4904-8f2e-d59b996e269d"},"vehicle_type_id":"4","last_reported":1740481654,"current_range_meters":18000,"station_id":"ce4bhip2rcd13ifvqft0","pricing_plan_id":"cebpf4jnsgd1na2vs0mg"},{"bike_id":"fd0761a2-be25-4e28-a89f-bda3cde9d408","system_id":"levelo_inurba_marseille","lat":43.27064,"lon":5.42245,"is_reserved":false,"is_disabled":false,"rental_uris":{"android":"levelo://app?vid=fd0761a2-be25-4e28-a89f-bda3cde9d408","ios":"levelo://app?vid=fd0761a2-be25-4e28-a89f-bda3cde9d408"},"vehicle_type_id":"4","last_reported":1740481654,"current_range_meters":18800,"station_id":"ce4bhk92rcd13ifvqgb0","pricing_plan_id":"cebpf4jnsgd1na2vs0mg"},{"bike_id":"bdc613c7-83f0-4c01-80f0-e646a6207b59","system_id":"levelo_inurba_marseille","lat":43.30423,"lon":5.412861,"is_reserved":false,"is_disabled":false,"rental_uris":{"android":"levelo://app?vid=bdc613c7-83f0-4c01-80f0-e646a6207b59","ios":"levelo://app?vid=bdc613c7-83f0-4c01-80f0-e646a6207b59"},"vehicle_type_id":"4","last_reported":1740481654,"current_range_meters":18800,"station_id":"","pricing_plan_id":"cebpf4jnsgd1na2vs0mg"},{"bike_id":"6761faac-925f-4801-9ca2-56f3ba4b1538","system_id":"levelo_inurba_marseille","lat":43.30309,"lon":5.36887,"is_reserved":false,"is_disabled":false,"rental_uris":{"android":"levelo://app?vid=6761faac-925f-4801-9ca2-56f3ba4b1538","ios":"levelo://app?vid=6761faac-925f-4801-9ca2-56f3ba4b1538"},"vehicle_type_id":"4","last_reported":1740481654,"current_range_meters":18800,"station_id":"ce4bgqh2rcd13ifvqc5g","pricing_plan_id":"cebpf4jnsgd1na2vs0mg"},{"bike_id":"7fce72d7-3782-4e5e-ad86-612c83fd9c4b","system_id":"levelo_inurba_marseille","lat":43.29931,"lon":5.37481,"is_reserved":false,"is_disabled":false,"rental_uris":{"android":"levelo://app?vid=7fce72d7-3782-4e5e-ad86-612c83fd9c4b","ios":"levelo://app?vid=7fce72d7-3782-4e5e-ad86-612c83fd9c4b"},"vehicle_type_id":"4","last_reported":1740481654,"current_range_meters":18800,"station_id":"ce4bgjh2rcd13ifvqbg0","pricing_plan_id":"cebpf4jnsgd1na2vs0mg"},{"bike_id":"2ad574ab-a84b-4194-be7b-5d19750113c3","system_id":"levelo_inurba_marseille","lat":43.3237,"lon":5.38869,"is_reserved":false,"is_disabled":false,"rental_uris":{"android":"levelo://app?vid=2ad574ab-a84b-4194-be7b-5d19750113c3","ios":"levelo://app?vid=2ad574ab-a84b-4194-be7b-5d19750113c3"},"vehicle_type_id":"4","last_reported":1740481654,"current_range_meters":19200,"station_id":"ce4bhqp2rcd13ifvqhog","pricing_plan_id":"cebpf4jnsgd1na2vs0mg"},{"bike_id":"27c05106-1ef2-4235-b864-518f3bb3c2ee","system_id":"levelo_inurba_marseille","lat":43.28848,"lon":5.35858,"is_reserved":false,"is_disabled":false,"rental_uris":{"android":"levelo://app?vid=27c05106-1ef2-4235-b864-518f3bb3c2ee","ios":"levelo://app?vid=27c05106-1ef2-4235-b864-518f3bb3c2ee"},"vehicle_type_id":"4","last_reported":1740481654,"current_range_meters":19200,"station_id":"ce4bhb12rcd13ifvqem0","pricing_plan_id":"cebpf4jnsgd1na2vs0mg"},{"bike_id":"1d3906d2-32ca-4126-a406-351e214284b2","system_id":"levelo_inurba_marseille","lat":43.29263,"lon":5.40904,"is_reserved":false,"is_disabled":false,"rental_uris":{"android":"levelo://app?vid=1d3906d2-32ca-4126-a406-351e214284b2","ios":"levelo://app?vid=1d3906d2-32ca-4126-a406-351e214284b2"},"vehicle_type_id":"4","last_reported":1740481654,"current_range_meters":19200,"station_id":"ce4bh192rcd13ifvqdc0","pricing_plan_id":"cebpf4jnsgd1na2vs0mg"},{"bike_id":"76cc6d20-bca4-42cb-909f-8e8b2ee33cf8","system_id":"levelo_inurba_marseille","lat":43.28931,"lon":5.39617,"is_reserved":false,"is_disabled":false,"rental_uris":{"android":"levelo://app?vid=76cc6d20-bca4-42cb-909f-8e8b2ee33cf8","ios":"levelo://app?vid=76cc6d20-bca4-42cb-909f-8e8b2ee33cf8"},"vehicle_type_id":"4","last_reported":1740481654,"current_range_meters":20000,"station_id":"ce4bh3h2rcd13ifvqdn0","pricing_plan_id":"cebpf4jnsgd1na2vs0mg"},{"bike_id":"a24aacda-a179-4b8c-8100-457e585cdb63","system_id":"levelo_inurba_marseille","lat":43.269346,"lon":5.402522,"is_reserved":false,"is_disabled":false,"rental_uris":{"android":"levelo://app?vid=a24aacda-a179-4b8c-8100-457e585cdb63","ios":"levelo://app?vid=a24aacda-a179-4b8c-8100-457e585cdb63"},"vehicle_type_id":"4","last_reported":1740481654,"current_range_meters":27600,"station_id":"cjm6bp8fraef2m0cb0m0","pricing_plan_id":"cebpf4jnsgd1na2vs0mg"},{"bike_id":"73bf0b1c-4af1-4739-aa3d-e444440930e2","system_id":"levelo_inurba_marseille","lat":43.30162,"lon":5.38096,"is_reserved":false,"is_disabled":false,"rental_uris":{"android":"levelo://app?vid=73bf0b1c-4af1-4739-aa3d-e444440930e2","ios":"levelo://app?vid=73bf0b1c-4af1-4739-aa3d-e444440930e2"},"vehicle_type_id":"4","last_reported":1740481654,"current_range_meters":20000,"station_id":"ce4bgjp2rcd13ifvqbh0","pricing_plan_id":"cebpf4jnsgd1na2vs0mg"},{"bike_id":"25411262-23d1-41bb-a382-a545d4af1ec3","system_id":"levelo_inurba_marseille","lat":43.25123,"lon":5.40348,"is_reserved":false,"is_disabled":false,"rental_uris":{"android":"levelo://app?vid=25411262-23d1-41bb-a382-a545d4af1ec3","ios":"levelo://app?vid=25411262-23d1-41bb-a382-a545d4af1ec3"},"vehicle_type_id":"4","last_reported":1740481654,"current_range_meters":20000,"station_id":"ce4bhlh2rcd13ifvqgig","pricing_plan_id":"cebpf4jnsgd1na2vs0mg"},{"bike_id":"3008a3ff-2a57-4fd1-8a0d-9185814fb510","system_id":"levelo_inurba_marseille","lat":43.29619,"lon":5.37731,"is_reserved":false,"is_disabled":false,"rental_uris":{"android":"levelo://app?vid=3008a3ff-2a57-4fd1-8a0d-9185814fb510","ios":"levelo://app?vid=3008a3ff-2a57-4fd1-8a0d-9185814fb510"},"vehicle_type_id":"4","last_reported":1740481654,"current_range_meters":20000,"station_id":"ce4bgi92rcd13ifvqb90","pricing_plan_id":"cebpf4jnsgd1na2vs0mg"},{"bike_id":"7a284752-a6da-443d-b9aa-90d8c956665b","system_id":"levelo_inurba_marseille","lat":43.29906,"lon":5.37479,"is_reserved":false,"is_disabled":false,"rental_uris":{"android":"levelo://app?vid=7a284752-a6da-443d-b9aa-90d8c956665b","ios":"levelo://app?vid=7a284752-a6da-443d-b9aa-90d8c956665b"},"vehicle_type_id":"4","last_reported":1740481654,"current_range_meters":20000,"station_id":"ce4bgjh2rcd13ifvqbg0","pricing_plan_id":"cebpf4jnsgd1na2vs0mg"},{"bike_id":"39ce8b65-ca4b-4232-ae4c-8ac7ddae9d47","system_id":"levelo_inurba_marseille","lat":43.29516,"lon":5.37505,"is_reserved":false,"is_disabled":false,"rental_uris":{"android":"levelo://app?vid=39ce8b65-ca4b-4232-ae4c-8ac7ddae9d47","ios":"levelo://app?vid=39ce8b65-ca4b-4232-ae4c-8ac7ddae9d47"},"vehicle_type_id":"4","last_reported":1740481654,"current_range_meters":21600,"station_id":"ce4bgkp2rcd13ifvqbmg","pricing_plan_id":"cebpf4jnsgd1na2vs0mg"},{"bike_id":"e4b61e67-5c22-4221-873e-01cee989859c","system_id":"levelo_inurba_marseille","lat":43.29889,"lon":5.43675,"is_reserved":false,"is_disabled":false,"rental_uris":{"android":"levelo://app?vid=e4b61e67-5c22-4221-873e-01cee989859c","ios":"levelo://app?vid=e4b61e67-5c22-4221-873e-01cee989859c"},"vehicle_type_id":"4","last_reported":1740481654,"current_range_meters":20000,"station_id":"ce4bhpp2rcd13ifvqhfg","pricing_plan_id":"cebpf4jnsgd1na2vs0mg"},{"bike_id":"198c7f48-2ef4-46c0-b27a-f66e54d352af","system_id":"levelo_inurba_marseille","lat":43.30603,"lon":5.39348,"is_reserved":false,"is_disabled":false,"rental_uris":{"android":"levelo://app?vid=198c7f48-2ef4-46c0-b27a-f66e54d352af","ios":"levelo://app?vid=198c7f48-2ef4-46c0-b27a-f66e54d352af"},"vehicle_type_id":"4","last_reported":1740481654,"current_range_meters":20000,"station_id":"ce4bh0p2rcd13ifvqd80","pricing_plan_id":"cebpf4jnsgd1na2vs0mg"},{"bike_id":"45127abe-699f-4c02-9aab-c9892981149b","system_id":"levelo_inurba_marseille","lat":43.27183,"lon":5.40985,"is_reserved":false,"is_disabled":false,"rental_uris":{"android":"levelo://app?vid=45127abe-699f-4c02-9aab-c9892981149b","ios":"levelo://app?vid=45127abe-699f-4c02-9aab-c9892981149b"},"vehicle_type_id":"4","last_reported":1740481654,"current_range_meters":20400,"station_id":"ce4bhl12rcd13ifvqgf0","pricing_plan_id":"cebpf4jnsgd1na2vs0mg"},{"bike_id":"1df32ffb-b6d0-42f0-8856-8dbb268b7110","system_id":"levelo_inurba_marseille","lat":43.31667,"lon":5.4371,"is_reserved":false,"is_disabled":false,"rental_uris":{"android":"levelo://app?vid=1df32ffb-b6d0-42f0-8856-8dbb268b7110","ios":"levelo://app?vid=1df32ffb-b6d0-42f0-8856-8dbb268b7110"},"vehicle_type_id":"4","last_reported":1740481654,"current_range_meters":20400,"station_id":"ce4bhp92rcd13ifvqhcg","pricing_plan_id":"cebpf4jnsgd1na2vs0mg"},{"bike_id":"c7134665-361d-4413-9691-6e2b2e543e7a","system_id":"levelo_inurba_marseille","lat":43.30528,"lon":5.36702,"is_reserved":false,"is_disabled":false,"rental_uris":{"android":"levelo://app?vid=c7134665-361d-4413-9691-6e2b2e543e7a","ios":"levelo://app?vid=c7134665-361d-4413-9691-6e2b2e543e7a"},"vehicle_type_id":"4","last_reported":1740481654,"current_range_meters":20400,"station_id":"ce4bgrp2rcd13ifvqc9g","pricing_plan_id":"cebpf4jnsgd1na2vs0mg"},{"bike_id":"37af628d-33d0-4b05-b606-bfda41106950","system_id":"levelo_inurba_marseille","lat":43.27172,"lon":5.40993,"is_reserved":false,"is_disabled":false,"rental_uris":{"android":"levelo://app?vid=37af628d-33d0-4b05-b606-bfda41106950","ios":"levelo://app?vid=37af628d-33d0-4b05-b606-bfda41106950"},"vehicle_type_id":"4","last_reported":1740481654,"current_range_meters":20400,"station_id":"ce4bhl12rcd13ifvqgf0","pricing_plan_id":"cebpf4jnsgd1na2vs0mg"},{"bike_id":"9cae26cf-a2fc-4e9c-92e8-f854f5e4fb45","system_id":"levelo_inurba_marseille","lat":43.32481,"lon":5.36568,"is_reserved":false,"is_disabled":false,"rental_uris":{"android":"levelo://app?vid=9cae26cf-a2fc-4e9c-92e8-f854f5e4fb45","ios":"levelo://app?vid=9cae26cf-a2fc-4e9c-92e8-f854f5e4fb45"},"vehicle_type_id":"4","last_reported":1740481654,"current_range_meters":20400,"station_id":"ce4bhs12rcd13ifvqhvg","pricing_plan_id":"cebpf4jnsgd1na2vs0mg"},{"bike_id":"7d33242a-6d2f-4d8b-9db8-b29116c9f4eb","system_id":"levelo_inurba_marseille","lat":43.27066,"lon":5.40287,"is_reserved":false,"is_disabled":false,"rental_uris":{"android":"levelo://app?vid=7d33242a-6d2f-4d8b-9db8-b29116c9f4eb","ios":"levelo://app?vid=7d33242a-6d2f-4d8b-9db8-b29116c9f4eb"},"vehicle_type_id":"4","last_reported":1740481654,"current_range_meters":20800,"station_id":"ce4bhk92rcd13ifvqgc0","pricing_plan_id":"cebpf4jnsgd1na2vs0mg"},{"bike_id":"146aebc9-098b-47c2-b26e-46c1350561bc","system_id":"levelo_inurba_marseille","lat":43.29093,"lon":5.37213,"is_reserved":false,"is_disabled":false,"rental_uris":{"android":"levelo://app?vid=146aebc9-098b-47c2-b26e-46c1350561bc","ios":"levelo://app?vid=146aebc9-098b-47c2-b26e-46c1350561bc"},"vehicle_type_id":"4","last_reported":1740481654,"current_range_meters":20800,"station_id":"","pricing_plan_id":"cebpf4jnsgd1na2vs0mg"},{"bike_id":"1ca663ad-0d5e-4853-8390-9eb213c60bd7","system_id":"levelo_inurba_marseille","lat":43.3021,"lon":5.39466,"is_reserved":false,"is_disabled":true,"rental_uris":{"android":"levelo://app?vid=1ca663ad-0d5e-4853-8390-9eb213c60bd7","ios":"levelo://app?vid=1ca663ad-0d5e-4853-8390-9eb213c60bd7"},"vehicle_type_id":"4","last_reported":1740481654,"current_range_meters":21600,"station_id":"ce4bh0p2rcd13ifvqd70","pricing_plan_id":"cebpf4jnsgd1na2vs0mg"},{"bike_id":"3142f017-c4b6-483e-aa73-b65aa0cf64a2","system_id":"levelo_inurba_marseille","lat":43.28036,"lon":5.36956,"is_reserved":false,"is_disabled":true,"rental_uris":{"android":"levelo://app?vid=3142f017-c4b6-483e-aa73-b65aa0cf64a2","ios":"levelo://app?vid=3142f017-c4b6-483e-aa73-b65aa0cf64a2"},"vehicle_type_id":"4","last_reported":1740481654,"current_range_meters":20800,"station_id":"ce4bha12rcd13ifvqef0","pricing_plan_id":"cebpf4jnsgd1na2vs0mg"},{"bike_id":"a6bb982f-0b37-44e2-9199-50ef6e054c60","system_id":"levelo_inurba_marseille","lat":43.28002,"lon":5.40015,"is_reserved":false,"is_disabled":false,"rental_uris":{"android":"levelo://app?vid=a6bb982f-0b37-44e2-9199-50ef6e054c60","ios":"levelo://app?vid=a6bb982f-0b37-44e2-9199-50ef6e054c60"},"vehicle_type_id":"4","last_reported":1740481654,"current_range_meters":20800,"station_id":"ce4bho92rcd13ifvqh4g","pricing_plan_id":"cebpf4jnsgd1na2vs0mg"},{"bike_id":"3a4c6368-74bf-4765-aa51-ec0b29f359d5","system_id":"levelo_inurba_marseille","lat":43.24178,"lon":5.39739,"is_reserved":false,"is_disabled":false,"rental_uris":{"android":"levelo://app?vid=3a4c6368-74bf-4765-aa51-ec0b29f359d5","ios":"levelo://app?vid=3a4c6368-74bf-4765-aa51-ec0b29f359d5"},"vehicle_type_id":"4","last_reported":1740481654,"current_range_meters":21600,"station_id":"ce4bhn12rcd13ifvqgpg","pricing_plan_id":"cebpf4jnsgd1na2vs0mg"},{"bike_id":"1015abbd-7082-4ba1-86ea-5a0ad2804113","system_id":"levelo_inurba_marseille","lat":43.29905,"lon":5.43652,"is_reserved":false,"is_disabled":false,"rental_uris":{"android":"levelo://app?vid=1015abbd-7082-4ba1-86ea-5a0ad2804113","ios":"levelo://app?vid=1015abbd-7082-4ba1-86ea-5a0ad2804113"},"vehicle_type_id":"4","last_reported":1740481654,"current_range_meters":21600,"station_id":"ce4bhpp2rcd13ifvqhfg","pricing_plan_id":"cebpf4jnsgd1na2vs0mg"},{"bike_id":"34f9a6a6-be42-4b5d-8a2f-9cef6dc96d56","system_id":"levelo_inurba_marseille","lat":43.27898,"lon":5.38016,"is_reserved":false,"is_disabled":false,"rental_uris":{"android":"levelo://app?vid=34f9a6a6-be42-4b5d-8a2f-9cef6dc96d56","ios":"levelo://app?vid=34f9a6a6-be42-4b5d-8a2f-9cef6dc96d56"},"vehicle_type_id":"4","last_reported":1740481654,"current_range_meters":21600,"station_id":"ce4bhf92rcd13ifvqf50","pricing_plan_id":"cebpf4jnsgd1na2vs0mg"},{"bike_id":"7014fbd2-e0cd-4396-b74c-daa9836bda7f","system_id":"levelo_inurba_marseille","lat":43.28345,"lon":5.38108,"is_reserved":false,"is_disabled":false,"rental_uris":{"android":"levelo://app?vid=7014fbd2-e0cd-4396-b74c-daa9836bda7f","ios":"levelo://app?vid=7014fbd2-e0cd-4396-b74c-daa9836bda7f"},"vehicle_type_id":"4","last_reported":1740481654,"current_range_meters":22800,"station_id":"ce4bh412rcd13ifvqdr0","pricing_plan_id":"cebpf4jnsgd1na2vs0mg"},{"bike_id":"aa1a0c25-41b8-4038-b10a-cd3742e9be0a","system_id":"levelo_inurba_marseille","lat":43.30204,"lon":5.39483,"is_reserved":false,"is_disabled":false,"rental_uris":{"android":"levelo://app?vid=aa1a0c25-41b8-4038-b10a-cd3742e9be0a","ios":"levelo://app?vid=aa1a0c25-41b8-4038-b10a-cd3742e9be0a"},"vehicle_type_id":"4","last_reported":1740481654,"current_range_meters":22000,"station_id":"ce4bh0p2rcd13ifvqd70","pricing_plan_id":"cebpf4jnsgd1na2vs0mg"},{"bike_id":"3651e190-9e71-4594-86c8-c04a7aab2a88","system_id":"levelo_inurba_marseille","lat":43.28844,"lon":5.39322,"is_reserved":false,"is_disabled":false,"rental_uris":{"android":"levelo://app?vid=3651e190-9e71-4594-86c8-c04a7aab2a88","ios":"levelo://app?vid=3651e190-9e71-4594-86c8-c04a7aab2a88"},"vehicle_type_id":"4","last_reported":1740481654,"current_range_meters":22000,"station_id":"ce4bh2p2rcd13ifvqdi0","pricing_plan_id":"cebpf4jnsgd1na2vs0mg"},{"bike_id":"70783bb8-fc40-4fc3-8a74-42f162f82a99","system_id":"levelo_inurba_marseille","lat":43.32302,"lon":5.38873,"is_reserved":false,"is_disabled":false,"rental_uris":{"android":"levelo://app?vid=70783bb8-fc40-4fc3-8a74-42f162f82a99","ios":"levelo://app?vid=70783bb8-fc40-4fc3-8a74-42f162f82a99"},"vehicle_type_id":"4","last_reported":1740481654,"current_range_meters":22000,"station_id":"","pricing_plan_id":"cebpf4jnsgd1na2vs0mg"},{"bike_id":"490eafd4-6511-4abe-b60e-145d53b269a5","system_id":"levelo_inurba_marseille","lat":43.28441,"lon":5.3751,"is_reserved":false,"is_disabled":false,"rental_uris":{"android":"levelo://app?vid=490eafd4-6511-4abe-b60e-145d53b269a5","ios":"levelo://app?vid=490eafd4-6511-4abe-b60e-145d53b269a5"},"vehicle_type_id":"4","last_reported":1740481654,"current_range_meters":22400,"station_id":"ce4bh412rcd13ifvqds0","pricing_plan_id":"cebpf4jnsgd1na2vs0mg"},{"bike_id":"168f0a2c-9a49-4a76-9c69-5a35df7ba2fc","system_id":"levelo_inurba_marseille","lat":43.29255,"lon":5.38449,"is_reserved":false,"is_disabled":false,"rental_uris":{"android":"levelo://app?vid=168f0a2c-9a49-4a76-9c69-5a35df7ba2fc","ios":"levelo://app?vid=168f0a2c-9a49-4a76-9c69-5a35df7ba2fc"},"vehicle_type_id":"4","last_reported":1740481654,"current_range_meters":20000,"station_id":"ce4bh692rcd13ifvqea0","pricing_plan_id":"cebpf4jnsgd1na2vs0mg"},{"bike_id":"fe6617a9-ee28-47b3-be78-1c985e373d8d","system_id":"levelo_inurba_marseille","lat":43.25836,"lon":5.39412,"is_reserved":false,"is_disabled":false,"rental_uris":{"android":"levelo://app?vid=fe6617a9-ee28-47b3-be78-1c985e373d8d","ios":"levelo://app?vid=fe6617a9-ee28-47b3-be78-1c985e373d8d"},"vehicle_type_id":"4","last_reported":1740481654,"current_range_meters":22400,"station_id":"ce4bhip2rcd13ifvqft0","pricing_plan_id":"cebpf4jnsgd1na2vs0mg"},{"bike_id":"ce6c3a57-2472-4142-ab26-fc6dee861395","system_id":"levelo_inurba_marseille","lat":43.30241,"lon":5.375362,"is_reserved":false,"is_disabled":false,"rental_uris":{"android":"levelo://app?vid=ce6c3a57-2472-4142-ab26-fc6dee861395","ios":"levelo://app?vid=ce6c3a57-2472-4142-ab26-fc6dee861395"},"vehicle_type_id":"4","last_reported":1740481654,"current_range_meters":22800,"station_id":"","pricing_plan_id":"cebpf4jnsgd1na2vs0mg"},{"bike_id":"5eff5ae1-4bb0-461f-b0bd-45acef884444","system_id":"levelo_inurba_marseille","lat":43.30886,"lon":5.372,"is_reserved":false,"is_disabled":false,"rental_uris":{"android":"levelo://app?vid=5eff5ae1-4bb0-461f-b0bd-45acef884444","ios":"levelo://app?vid=5eff5ae1-4bb0-461f-b0bd-45acef884444"},"vehicle_type_id":"4","last_reported":1740481654,"current_range_meters":22800,"station_id":"","pricing_plan_id":"cebpf4jnsgd1na2vs0mg"},{"bike_id":"0edf3a85-0e12-4f65-a670-900a1988fcf3","system_id":"levelo_inurba_marseille","lat":43.30365,"lon":5.41313,"is_reserved":false,"is_disabled":true,"rental_uris":{"android":"levelo://app?vid=0edf3a85-0e12-4f65-a670-900a1988fcf3","ios":"levelo://app?vid=0edf3a85-0e12-4f65-a670-900a1988fcf3"},"vehicle_type_id":"4","last_reported":1740481654,"current_range_meters":22400,"station_id":"ce4bhop2rcd13ifvqh8g","pricing_plan_id":"cebpf4jnsgd1na2vs0mg"},{"bike_id":"95f05b6e-2c2a-4940-b7cb-ec4781dfe40c","system_id":"levelo_inurba_marseille","lat":43.25921,"lon":5.409,"is_reserved":false,"is_disabled":false,"rental_uris":{"android":"levelo://app?vid=95f05b6e-2c2a-4940-b7cb-ec4781dfe40c","ios":"levelo://app?vid=95f05b6e-2c2a-4940-b7cb-ec4781dfe40c"},"vehicle_type_id":"4","last_reported":1740481654,"current_range_meters":22800,"station_id":"ce4bhm92rcd13ifvqglg","pricing_plan_id":"cebpf4jnsgd1na2vs0mg"},{"bike_id":"3a1c8744-4cb0-4125-89e8-c732273330c3","system_id":"levelo_inurba_marseille","lat":43.28267,"lon":5.3506,"is_reserved":false,"is_disabled":false,"rental_uris":{"android":"levelo://app?vid=3a1c8744-4cb0-4125-89e8-c732273330c3","ios":"levelo://app?vid=3a1c8744-4cb0-4125-89e8-c732273330c3"},"vehicle_type_id":"4","last_reported":1740481654,"current_range_meters":22400,"station_id":"ce4bhbp2rcd13ifvqerg","pricing_plan_id":"cebpf4jnsgd1na2vs0mg"},{"bike_id":"83e544a0-45a3-4548-ba5f-042122fac9c7","system_id":"levelo_inurba_marseille","lat":43.23062,"lon":5.35493,"is_reserved":false,"is_disabled":false,"rental_uris":{"android":"levelo://app?vid=83e544a0-45a3-4548-ba5f-042122fac9c7","ios":"levelo://app?vid=83e544a0-45a3-4548-ba5f-042122fac9c7"},"vehicle_type_id":"4","last_reported":1740481654,"current_range_meters":35600,"station_id":"cpo3342slgdg3j2ifvpg","pricing_plan_id":"cebpf4jnsgd1na2vs0mg"},{"bike_id":"9eb10ab9-ef97-459e-a893-bed63e589588","system_id":"levelo_inurba_marseille","lat":43.25014,"lon":5.38919,"is_reserved":false,"is_disabled":false,"rental_uris":{"android":"levelo://app?vid=9eb10ab9-ef97-459e-a893-bed63e589588","ios":"levelo://app?vid=9eb10ab9-ef97-459e-a893-bed63e589588"},"vehicle_type_id":"4","last_reported":1740481654,"current_range_meters":22800,"station_id":"ce4bhgp2rcd13ifvqfd0","pricing_plan_id":"cebpf4jnsgd1na2vs0mg"},{"bike_id":"5764cfdb-98f9-4612-8c9f-b65ef77086fc","system_id":"levelo_inurba_marseille","lat":43.337444,"lon":5.374475,"is_reserved":false,"is_disabled":false,"rental_uris":{"android":"levelo://app?vid=5764cfdb-98f9-4612-8c9f-b65ef77086fc","ios":"levelo://app?vid=5764cfdb-98f9-4612-8c9f-b65ef77086fc"},"vehicle_type_id":"4","last_reported":1740481654,"current_range_meters":22800,"station_id":"","pricing_plan_id":"cebpf4jnsgd1na2vs0mg"},{"bike_id":"a05cf3fa-8762-4acd-90e3-5ecd2f612d3e","system_id":"levelo_inurba_marseille","lat":43.30428,"lon":5.39757,"is_reserved":false,"is_disabled":false,"rental_uris":{"android":"levelo://app?vid=a05cf3fa-8762-4acd-90e3-5ecd2f612d3e","ios":"levelo://app?vid=a05cf3fa-8762-4acd-90e3-5ecd2f612d3e"},"vehicle_type_id":"4","last_reported":1740481654,"current_range_meters":22800,"station_id":"ce4bh092rcd13ifvqd20","pricing_plan_id":"cebpf4jnsgd1na2vs0mg"},{"bike_id":"fe464bd8-38c8-4a2e-b2a1-a5fc7b036b71","system_id":"levelo_inurba_marseille","lat":43.25585,"lon":5.38244,"is_reserved":false,"is_disabled":false,"rental_uris":{"android":"levelo://app?vid=fe464bd8-38c8-4a2e-b2a1-a5fc7b036b71","ios":"levelo://app?vid=fe464bd8-38c8-4a2e-b2a1-a5fc7b036b71"},"vehicle_type_id":"4","last_reported":1740481654,"current_range_meters":22800,"station_id":"ce4bhih2rcd13ifvqfs0","pricing_plan_id":"cebpf4jnsgd1na2vs0mg"},{"bike_id":"58ac87e1-4a83-40b0-b2c0-15c6bf94c841","system_id":"levelo_inurba_marseille","lat":43.30977,"lon":5.39042,"is_reserved":false,"is_disabled":false,"rental_uris":{"android":"levelo://app?vid=58ac87e1-4a83-40b0-b2c0-15c6bf94c841","ios":"levelo://app?vid=58ac87e1-4a83-40b0-b2c0-15c6bf94c841"},"vehicle_type_id":"4","last_reported":1740481654,"current_range_meters":22800,"station_id":"ce4bgup2rcd13ifvqco0","pricing_plan_id":"cebpf4jnsgd1na2vs0mg"},{"bike_id":"63ecf096-3677-414e-b092-f10e1a6488a4","system_id":"levelo_inurba_marseille","lat":43.3129,"lon":5.36826,"is_reserved":false,"is_disabled":false,"rental_uris":{"android":"levelo://app?vid=63ecf096-3677-414e-b092-f10e1a6488a4","ios":"levelo://app?vid=63ecf096-3677-414e-b092-f10e1a6488a4"},"vehicle_type_id":"4","last_reported":1740481654,"current_range_meters":22800,"station_id":"","pricing_plan_id":"cebpf4jnsgd1na2vs0mg"},{"bike_id":"52523529-fae7-4c8a-8269-6204c062d67e","system_id":"levelo_inurba_marseille","lat":43.27069,"lon":5.42283,"is_reserved":false,"is_disabled":false,"rental_uris":{"android":"levelo://app?vid=52523529-fae7-4c8a-8269-6204c062d67e","ios":"levelo://app?vid=52523529-fae7-4c8a-8269-6204c062d67e"},"vehicle_type_id":"4","last_reported":1740481654,"current_range_meters":23200,"station_id":"ce4bhk92rcd13ifvqgb0","pricing_plan_id":"cebpf4jnsgd1na2vs0mg"},{"bike_id":"da4b2efa-6f65-4240-8eec-7387b3ce0743","system_id":"levelo_inurba_marseille","lat":43.28659,"lon":5.3635,"is_reserved":false,"is_disabled":false,"rental_uris":{"android":"levelo://app?vid=da4b2efa-6f65-4240-8eec-7387b3ce0743","ios":"levelo://app?vid=da4b2efa-6f65-4240-8eec-7387b3ce0743"},"vehicle_type_id":"4","last_reported":1740481654,"current_range_meters":23200,"station_id":"ce4bhah2rcd13ifvqej0","pricing_plan_id":"cebpf4jnsgd1na2vs0mg"},{"bike_id":"c66043a9-4683-43d0-9e2b-3748e47a791d","system_id":"levelo_inurba_marseille","lat":43.25875,"lon":5.39923,"is_reserved":false,"is_disabled":false,"rental_uris":{"android":"levelo://app?vid=c66043a9-4683-43d0-9e2b-3748e47a791d","ios":"levelo://app?vid=c66043a9-4683-43d0-9e2b-3748e47a791d"},"vehicle_type_id":"4","last_reported":1740481654,"current_range_meters":23200,"station_id":"ce4bhl92rcd13ifvqghg","pricing_plan_id":"cebpf4jnsgd1na2vs0mg"},{"bike_id":"245c9ee4-a552-4737-8cda-71747db953a0","system_id":"levelo_inurba_marseille","lat":43.25011,"lon":5.38933,"is_reserved":false,"is_disabled":false,"rental_uris":{"android":"levelo://app?vid=245c9ee4-a552-4737-8cda-71747db953a0","ios":"levelo://app?vid=245c9ee4-a552-4737-8cda-71747db953a0"},"vehicle_type_id":"4","last_reported":1740481654,"current_range_meters":24000,"station_id":"ce4bhgp2rcd13ifvqfd0","pricing_plan_id":"cebpf4jnsgd1na2vs0mg"},{"bike_id":"08c0e386-18a3-4f4d-ad63-faa98867e70f","system_id":"levelo_inurba_marseille","lat":43.27497,"lon":5.42454,"is_reserved":false,"is_disabled":false,"rental_uris":{"android":"levelo://app?vid=08c0e386-18a3-4f4d-ad63-faa98867e70f","ios":"levelo://app?vid=08c0e386-18a3-4f4d-ad63-faa98867e70f"},"vehicle_type_id":"4","last_reported":1740481654,"current_range_meters":23200,"station_id":"ce4bhn92rcd13ifvqgrg","pricing_plan_id":"cebpf4jnsgd1na2vs0mg"},{"bike_id":"b69d2ca7-a48b-4651-a829-0793f0051084","system_id":"levelo_inurba_marseille","lat":43.28643,"lon":5.38676,"is_reserved":false,"is_disabled":false,"rental_uris":{"android":"levelo://app?vid=b69d2ca7-a48b-4651-a829-0793f0051084","ios":"levelo://app?vid=b69d2ca7-a48b-4651-a829-0793f0051084"},"vehicle_type_id":"4","last_reported":1740481654,"current_range_meters":23200,"station_id":"ce4bh492rcd13ifvqdug","pricing_plan_id":"cebpf4jnsgd1na2vs0mg"},{"bike_id":"3d622227-2880-4506-9748-800bd8bcf064","system_id":"levelo_inurba_marseille","lat":43.28403,"lon":5.37533,"is_reserved":false,"is_disabled":false,"rental_uris":{"android":"levelo://app?vid=3d622227-2880-4506-9748-800bd8bcf064","ios":"levelo://app?vid=3d622227-2880-4506-9748-800bd8bcf064"},"vehicle_type_id":"4","last_reported":1740481654,"current_range_meters":23200,"station_id":"ce4bh412rcd13ifvqds0","pricing_plan_id":"cebpf4jnsgd1na2vs0mg"},{"bike_id":"84dab917-91b0-4ec0-91be-f2a3df20c635","system_id":"levelo_inurba_marseille","lat":43.30531,"lon":5.36706,"is_reserved":false,"is_disabled":false,"rental_uris":{"android":"levelo://app?vid=84dab917-91b0-4ec0-91be-f2a3df20c635","ios":"levelo://app?vid=84dab917-91b0-4ec0-91be-f2a3df20c635"},"vehicle_type_id":"4","last_reported":1740481654,"current_range_meters":24000,"station_id":"ce4bgrp2rcd13ifvqc9g","pricing_plan_id":"cebpf4jnsgd1na2vs0mg"},{"bike_id":"220837e6-44d1-411a-aaca-6e3d59340904","system_id":"levelo_inurba_marseille","lat":43.301318,"lon":5.387765,"is_reserved":false,"is_disabled":true,"rental_uris":{"android":"levelo://app?vid=220837e6-44d1-411a-aaca-6e3d59340904","ios":"levelo://app?vid=220837e6-44d1-411a-aaca-6e3d59340904"},"vehicle_type_id":"4","last_reported":1740481654,"current_range_meters":24000,"station_id":"","pricing_plan_id":"cebpf4jnsgd1na2vs0mg"},{"bike_id":"2ed15423-a868-4573-bacd-df9288b94cc4","system_id":"levelo_inurba_marseille","lat":43.30607,"lon":5.3935,"is_reserved":false,"is_disabled":true,"rental_uris":{"android":"levelo://app?vid=2ed15423-a868-4573-bacd-df9288b94cc4","ios":"levelo://app?vid=2ed15423-a868-4573-bacd-df9288b94cc4"},"vehicle_type_id":"4","last_reported":1740481654,"current_range_meters":24000,"station_id":"ce4bh0p2rcd13ifvqd80","pricing_plan_id":"cebpf4jnsgd1na2vs0mg"},{"bike_id":"22024997-5501-4e32-b8e1-c104766be3eb","system_id":"levelo_inurba_marseille","lat":43.29873,"lon":5.38908,"is_reserved":false,"is_disabled":false,"rental_uris":{"android":"levelo://app?vid=22024997-5501-4e32-b8e1-c104766be3eb","ios":"levelo://app?vid=22024997-5501-4e32-b8e1-c104766be3eb"},"vehicle_type_id":"4","last_reported":1740481654,"current_range_meters":23200,"station_id":"ce4bh392rcd13ifvqdl0","pricing_plan_id":"cebpf4jnsgd1na2vs0mg"},{"bike_id":"4ae7dddc-893b-4fb1-a57f-81cfb3aff9f4","system_id":"levelo_inurba_marseille","lat":43.32356,"lon":5.38892,"is_reserved":false,"is_disabled":false,"rental_uris":{"android":"levelo://app?vid=4ae7dddc-893b-4fb1-a57f-81cfb3aff9f4","ios":"levelo://app?vid=4ae7dddc-893b-4fb1-a57f-81cfb3aff9f4"},"vehicle_type_id":"4","last_reported":1740481654,"current_range_meters":24000,"station_id":"ce4bhqp2rcd13ifvqhog","pricing_plan_id":"cebpf4jnsgd1na2vs0mg"},{"bike_id":"6766db22-a068-45b2-b668-6c8054fc29b4","system_id":"levelo_inurba_marseille","lat":43.26034,"lon":5.37557,"is_reserved":false,"is_disabled":false,"rental_uris":{"android":"levelo://app?vid=6766db22-a068-45b2-b668-6c8054fc29b4","ios":"levelo://app?vid=6766db22-a068-45b2-b668-6c8054fc29b4"},"vehicle_type_id":"4","last_reported":1740481654,"current_range_meters":24400,"station_id":"ce4bhgh2rcd13ifvqfa0","pricing_plan_id":"cebpf4jnsgd1na2vs0mg"},{"bike_id":"f5b47a40-5471-4781-a5e3-80f16ed5b3e4","system_id":"levelo_inurba_marseille","lat":43.27812,"lon":5.40711,"is_reserved":false,"is_disabled":false,"rental_uris":{"android":"levelo://app?vid=f5b47a40-5471-4781-a5e3-80f16ed5b3e4","ios":"levelo://app?vid=f5b47a40-5471-4781-a5e3-80f16ed5b3e4"},"vehicle_type_id":"4","last_reported":1740481654,"current_range_meters":24400,"station_id":"","pricing_plan_id":"cebpf4jnsgd1na2vs0mg"},{"bike_id":"4ea509d1-9385-4191-ba4f-426601ab6e3d","system_id":"levelo_inurba_marseille","lat":43.25085,"lon":5.39534,"is_reserved":false,"is_disabled":false,"rental_uris":{"android":"levelo://app?vid=4ea509d1-9385-4191-ba4f-426601ab6e3d","ios":"levelo://app?vid=4ea509d1-9385-4191-ba4f-426601ab6e3d"},"vehicle_type_id":"4","last_reported":1740481654,"current_range_meters":24400,"station_id":"ce4bhm12rcd13ifvqgkg","pricing_plan_id":"cebpf4jnsgd1na2vs0mg"},{"bike_id":"b597206e-3344-4293-895e-fd9a2b396685","system_id":"levelo_inurba_marseille","lat":43.30416,"lon":5.41285,"is_reserved":false,"is_disabled":true,"rental_uris":{"android":"levelo://app?vid=b597206e-3344-4293-895e-fd9a2b396685","ios":"levelo://app?vid=b597206e-3344-4293-895e-fd9a2b396685"},"vehicle_type_id":"4","last_reported":1740481654,"current_range_meters":24400,"station_id":"ce4bhop2rcd13ifvqh8g","pricing_plan_id":"cebpf4jnsgd1na2vs0mg"},{"bike_id":"207e0213-fbcf-4c1c-9ca3-aea4e512cf52","system_id":"levelo_inurba_marseille","lat":43.30534,"lon":5.36711,"is_reserved":false,"is_disabled":false,"rental_uris":{"android":"levelo://app?vid=207e0213-fbcf-4c1c-9ca3-aea4e512cf52","ios":"levelo://app?vid=207e0213-fbcf-4c1c-9ca3-aea4e512cf52"},"vehicle_type_id":"4","last_reported":1740481654,"current_range_meters":24400,"station_id":"ce4bgrp2rcd13ifvqc9g","pricing_plan_id":"cebpf4jnsgd1na2vs0mg"},{"bike_id":"5d30670b-2124-495c-96f9-8a192a28e96c","system_id":"levelo_inurba_marseille","lat":43.2961,"lon":5.37728,"is_reserved":false,"is_disabled":false,"rental_uris":{"android":"levelo://app?vid=5d30670b-2124-495c-96f9-8a192a28e96c","ios":"levelo://app?vid=5d30670b-2124-495c-96f9-8a192a28e96c"},"vehicle_type_id":"4","last_reported":1740481654,"current_range_meters":24400,"station_id":"ce4bgi92rcd13ifvqb90","pricing_plan_id":"cebpf4jnsgd1na2vs0mg"},{"bike_id":"3de9aeda-1f9a-4bbc-8b90-e02a49e56ca9","system_id":"levelo_inurba_marseille","lat":43.23187,"lon":5.35562,"is_reserved":false,"is_disabled":false,"rental_uris":{"android":"levelo://app?vid=3de9aeda-1f9a-4bbc-8b90-e02a49e56ca9","ios":"levelo://app?vid=3de9aeda-1f9a-4bbc-8b90-e02a49e56ca9"},"vehicle_type_id":"4","last_reported":1740481654,"current_range_meters":24400,"station_id":"ce4bhu92rcd13ifvqi70","pricing_plan_id":"cebpf4jnsgd1na2vs0mg"},{"bike_id":"b9e434e4-3db4-421e-9a82-4952960baf10","system_id":"levelo_inurba_marseille","lat":43.26932,"lon":5.3892,"is_reserved":false,"is_disabled":false,"rental_uris":{"android":"levelo://app?vid=b9e434e4-3db4-421e-9a82-4952960baf10","ios":"levelo://app?vid=b9e434e4-3db4-421e-9a82-4952960baf10"},"vehicle_type_id":"4","last_reported":1740481654,"current_range_meters":25200,"station_id":"ce4bhhh2rcd13ifvqfl0","pricing_plan_id":"cebpf4jnsgd1na2vs0mg"},{"bike_id":"c7e50638-fa15-4dfc-b492-1bc030058c3c","system_id":"levelo_inurba_marseille","lat":43.32364,"lon":5.38896,"is_reserved":false,"is_disabled":false,"rental_uris":{"android":"levelo://app?vid=c7e50638-fa15-4dfc-b492-1bc030058c3c","ios":"levelo://app?vid=c7e50638-fa15-4dfc-b492-1bc030058c3c"},"vehicle_type_id":"4","last_reported":1740481654,"current_range_meters":25200,"station_id":"ce4bhqp2rcd13ifvqhog","pricing_plan_id":"cebpf4jnsgd1na2vs0mg"},{"bike_id":"60dff205-c9f5-4d5b-93e4-02e8f8caaa4a","system_id":"levelo_inurba_marseille","lat":43.24179,"lon":5.3973,"is_reserved":false,"is_disabled":false,"rental_uris":{"android":"levelo://app?vid=60dff205-c9f5-4d5b-93e4-02e8f8caaa4a","ios":"levelo://app?vid=60dff205-c9f5-4d5b-93e4-02e8f8caaa4a"},"vehicle_type_id":"4","last_reported":1740481654,"current_range_meters":24800,"station_id":"ce4bhn12rcd13ifvqgpg","pricing_plan_id":"cebpf4jnsgd1na2vs0mg"},{"bike_id":"455bad32-7dcb-49f0-835d-d9a752c22845","system_id":"levelo_inurba_marseille","lat":43.27561,"lon":5.38423,"is_reserved":false,"is_disabled":false,"rental_uris":{"android":"levelo://app?vid=455bad32-7dcb-49f0-835d-d9a752c22845","ios":"levelo://app?vid=455bad32-7dcb-49f0-835d-d9a752c22845"},"vehicle_type_id":"4","last_reported":1740481654,"current_range_meters":24800,"station_id":"ce4bhh92rcd13ifvqfi0","pricing_plan_id":"cebpf4jnsgd1na2vs0mg"},{"bike_id":"681d3eb7-8a56-452d-929b-1fb5b43ae417","system_id":"levelo_inurba_marseille","lat":43.32475,"lon":5.36535,"is_reserved":false,"is_disabled":false,"rental_uris":{"android":"levelo://app?vid=681d3eb7-8a56-452d-929b-1fb5b43ae417","ios":"levelo://app?vid=681d3eb7-8a56-452d-929b-1fb5b43ae417"},"vehicle_type_id":"4","last_reported":1740481654,"current_range_meters":24800,"station_id":"ce4bhs12rcd13ifvqhvg","pricing_plan_id":"cebpf4jnsgd1na2vs0mg"},{"bike_id":"d293c4a3-172f-45a4-af23-feef431f6f99","system_id":"levelo_inurba_marseille","lat":43.30565,"lon":5.36726,"is_reserved":false,"is_disabled":false,"rental_uris":{"android":"levelo://app?vid=d293c4a3-172f-45a4-af23-feef431f6f99","ios":"levelo://app?vid=d293c4a3-172f-45a4-af23-feef431f6f99"},"vehicle_type_id":"4","last_reported":1740481654,"current_range_meters":24800,"station_id":"ce4bgrp2rcd13ifvqc9g","pricing_plan_id":"cebpf4jnsgd1na2vs0mg"},{"bike_id":"20f116b0-23be-4896-aac8-d3f645cdeee9","system_id":"levelo_inurba_marseille","lat":43.304823,"lon":5.367255,"is_reserved":false,"is_disabled":false,"rental_uris":{"android":"levelo://app?vid=20f116b0-23be-4896-aac8-d3f645cdeee9","ios":"levelo://app?vid=20f116b0-23be-4896-aac8-d3f645cdeee9"},"vehicle_type_id":"4","last_reported":1740481654,"current_range_meters":24800,"station_id":"ce4bgrp2rcd13ifvqc9g","pricing_plan_id":"cebpf4jnsgd1na2vs0mg"},{"bike_id":"e2e21eda-9306-49b1-8086-ec051cbc4afc","system_id":"levelo_inurba_marseille","lat":43.31408,"lon":5.36692,"is_reserved":false,"is_disabled":false,"rental_uris":{"android":"levelo://app?vid=e2e21eda-9306-49b1-8086-ec051cbc4afc","ios":"levelo://app?vid=e2e21eda-9306-49b1-8086-ec051cbc4afc"},"vehicle_type_id":"4","last_reported":1740481654,"current_range_meters":25200,"station_id":"ce4bgr92rcd13ifvqc6g","pricing_plan_id":"cebpf4jnsgd1na2vs0mg"},{"bike_id":"2fae66bc-dca7-41a3-9bda-f29f2649ec09","system_id":"levelo_inurba_marseille","lat":43.27424,"lon":5.39425,"is_reserved":false,"is_disabled":false,"rental_uris":{"android":"levelo://app?vid=2fae66bc-dca7-41a3-9bda-f29f2649ec09","ios":"levelo://app?vid=2fae66bc-dca7-41a3-9bda-f29f2649ec09"},"vehicle_type_id":"4","last_reported":1740481654,"current_range_meters":25200,"station_id":"ce4bhdp2rcd13ifvqf20","pricing_plan_id":"cebpf4jnsgd1na2vs0mg"},{"bike_id":"020b97ed-1154-4a80-9c3b-31524e91461c","system_id":"levelo_inurba_marseille","lat":43.25585,"lon":5.38237,"is_reserved":false,"is_disabled":false,"rental_uris":{"android":"levelo://app?vid=020b97ed-1154-4a80-9c3b-31524e91461c","ios":"levelo://app?vid=020b97ed-1154-4a80-9c3b-31524e91461c"},"vehicle_type_id":"4","last_reported":1740481654,"current_range_meters":25200,"station_id":"ce4bhih2rcd13ifvqfs0","pricing_plan_id":"cebpf4jnsgd1na2vs0mg"},{"bike_id":"9f2ed4f1-2485-4d7f-8cd9-aa6e53cb7ed5","system_id":"levelo_inurba_marseille","lat":43.25744,"lon":5.4111,"is_reserved":false,"is_disabled":false,"rental_uris":{"android":"levelo://app?vid=9f2ed4f1-2485-4d7f-8cd9-aa6e53cb7ed5","ios":"levelo://app?vid=9f2ed4f1-2485-4d7f-8cd9-aa6e53cb7ed5"},"vehicle_type_id":"4","last_reported":1740481654,"current_range_meters":25200,"station_id":"ce4bhkp2rcd13ifvqgd0","pricing_plan_id":"cebpf4jnsgd1na2vs0mg"},{"bike_id":"03768ead-78bb-4471-a1c1-0d66edb8c677","system_id":"levelo_inurba_marseille","lat":43.2708,"lon":5.40257,"is_reserved":false,"is_disabled":false,"rental_uris":{"android":"levelo://app?vid=03768ead-78bb-4471-a1c1-0d66edb8c677","ios":"levelo://app?vid=03768ead-78bb-4471-a1c1-0d66edb8c677"},"vehicle_type_id":"4","last_reported":1740481654,"current_range_meters":25600,"station_id":"ce4bhk92rcd13ifvqgc0","pricing_plan_id":"cebpf4jnsgd1na2vs0mg"},{"bike_id":"065ac53e-c6ae-4cfa-ba1c-c3b26d7af1e2","system_id":"levelo_inurba_marseille","lat":43.26128,"lon":5.406212,"is_reserved":false,"is_disabled":false,"rental_uris":{"android":"levelo://app?vid=065ac53e-c6ae-4cfa-ba1c-c3b26d7af1e2","ios":"levelo://app?vid=065ac53e-c6ae-4cfa-ba1c-c3b26d7af1e2"},"vehicle_type_id":"4","last_reported":1740481654,"current_range_meters":25600,"station_id":"","pricing_plan_id":"cebpf4jnsgd1na2vs0mg"},{"bike_id":"e8d3ccf1-4a3f-4bc7-9296-87fce189fba3","system_id":"levelo_inurba_marseille","lat":43.24076,"lon":5.377639,"is_reserved":false,"is_disabled":false,"rental_uris":{"android":"levelo://app?vid=e8d3ccf1-4a3f-4bc7-9296-87fce189fba3","ios":"levelo://app?vid=e8d3ccf1-4a3f-4bc7-9296-87fce189fba3"},"vehicle_type_id":"4","last_reported":1740481654,"current_range_meters":25600,"station_id":"ce4bhnp2rcd13ifvqgvg","pricing_plan_id":"cebpf4jnsgd1na2vs0mg"},{"bike_id":"a2ab6c14-5a62-4d48-869b-4e658a0ce1ba","system_id":"levelo_inurba_marseille","lat":43.30524,"lon":5.36709,"is_reserved":false,"is_disabled":false,"rental_uris":{"android":"levelo://app?vid=a2ab6c14-5a62-4d48-869b-4e658a0ce1ba","ios":"levelo://app?vid=a2ab6c14-5a62-4d48-869b-4e658a0ce1ba"},"vehicle_type_id":"4","last_reported":1740481654,"current_range_meters":25600,"station_id":"ce4bgrp2rcd13ifvqc9g","pricing_plan_id":"cebpf4jnsgd1na2vs0mg"},{"bike_id":"43d6aa6f-20c7-4a1b-bcb8-31b660876567","system_id":"levelo_inurba_marseille","lat":43.26559,"lon":5.37286,"is_reserved":false,"is_disabled":false,"rental_uris":{"android":"levelo://app?vid=43d6aa6f-20c7-4a1b-bcb8-31b660876567","ios":"levelo://app?vid=43d6aa6f-20c7-4a1b-bcb8-31b660876567"},"vehicle_type_id":"4","last_reported":1740481654,"current_range_meters":25600,"station_id":"ce4bhg12rcd13ifvqf70","pricing_plan_id":"cebpf4jnsgd1na2vs0mg"},{"bike_id":"4a6e4dab-77e7-4727-9943-ddb1faa90067","system_id":"levelo_inurba_marseille","lat":43.299,"lon":5.43673,"is_reserved":false,"is_disabled":false,"rental_uris":{"android":"levelo://app?vid=4a6e4dab-77e7-4727-9943-ddb1faa90067","ios":"levelo://app?vid=4a6e4dab-77e7-4727-9943-ddb1faa90067"},"vehicle_type_id":"4","last_reported":1740481654,"current_range_meters":26000,"station_id":"ce4bhpp2rcd13ifvqhfg","pricing_plan_id":"cebpf4jnsgd1na2vs0mg"},{"bike_id":"8cc61963-f40b-4ef5-bd50-c4bb1a62daa2","system_id":"levelo_inurba_marseille","lat":43.28438,"lon":5.37545,"is_reserved":false,"is_disabled":false,"rental_uris":{"android":"levelo://app?vid=8cc61963-f40b-4ef5-bd50-c4bb1a62daa2","ios":"levelo://app?vid=8cc61963-f40b-4ef5-bd50-c4bb1a62daa2"},"vehicle_type_id":"4","last_reported":1740481654,"current_range_meters":25600,"station_id":"ce4bh412rcd13ifvqds0","pricing_plan_id":"cebpf4jnsgd1na2vs0mg"},{"bike_id":"71add696-cf7d-4c2d-ae9d-49100602a0c4","system_id":"levelo_inurba_marseille","lat":43.30417,"lon":5.39763,"is_reserved":false,"is_disabled":false,"rental_uris":{"android":"levelo://app?vid=71add696-cf7d-4c2d-ae9d-49100602a0c4","ios":"levelo://app?vid=71add696-cf7d-4c2d-ae9d-49100602a0c4"},"vehicle_type_id":"4","last_reported":1740481654,"current_range_meters":25600,"station_id":"ce4bh092rcd13ifvqd20","pricing_plan_id":"cebpf4jnsgd1na2vs0mg"},{"bike_id":"a7698dc8-b803-410d-b560-49098d8ebe43","system_id":"levelo_inurba_marseille","lat":43.29894,"lon":5.43663,"is_reserved":false,"is_disabled":false,"rental_uris":{"android":"levelo://app?vid=a7698dc8-b803-410d-b560-49098d8ebe43","ios":"levelo://app?vid=a7698dc8-b803-410d-b560-49098d8ebe43"},"vehicle_type_id":"4","last_reported":1740481654,"current_range_meters":26000,"station_id":"ce4bhpp2rcd13ifvqhfg","pricing_plan_id":"cebpf4jnsgd1na2vs0mg"},{"bike_id":"2f9effee-546a-4da7-a5e1-f04afc3e0cdf","system_id":"levelo_inurba_marseille","lat":43.30561,"lon":5.36695,"is_reserved":false,"is_disabled":false,"rental_uris":{"android":"levelo://app?vid=2f9effee-546a-4da7-a5e1-f04afc3e0cdf","ios":"levelo://app?vid=2f9effee-546a-4da7-a5e1-f04afc3e0cdf"},"vehicle_type_id":"4","last_reported":1740481654,"current_range_meters":26000,"station_id":"ce4bgrp2rcd13ifvqc9g","pricing_plan_id":"cebpf4jnsgd1na2vs0mg"},{"bike_id":"053426f9-0a2a-4c46-926d-8af0fef5ae1a","system_id":"levelo_inurba_marseille","lat":43.32371,"lon":5.36783,"is_reserved":false,"is_disabled":false,"rental_uris":{"android":"levelo://app?vid=053426f9-0a2a-4c46-926d-8af0fef5ae1a","ios":"levelo://app?vid=053426f9-0a2a-4c46-926d-8af0fef5ae1a"},"vehicle_type_id":"4","last_reported":1740481654,"current_range_meters":26000,"station_id":"ce4bhsh2rcd13ifvqi2g","pricing_plan_id":"cebpf4jnsgd1na2vs0mg"},{"bike_id":"48943d9f-6739-4d1b-abd8-db867d1fd829","system_id":"levelo_inurba_marseille","lat":43.30646,"lon":5.40108,"is_reserved":false,"is_disabled":false,"rental_uris":{"android":"levelo://app?vid=48943d9f-6739-4d1b-abd8-db867d1fd829","ios":"levelo://app?vid=48943d9f-6739-4d1b-abd8-db867d1fd829"},"vehicle_type_id":"4","last_reported":1740481654,"current_range_meters":25600,"station_id":"ce4bh112rcd13ifvqda0","pricing_plan_id":"cebpf4jnsgd1na2vs0mg"},{"bike_id":"dced32e1-336b-483b-b24c-3e001ab56393","system_id":"levelo_inurba_marseille","lat":43.29047,"lon":5.38637,"is_reserved":false,"is_disabled":false,"rental_uris":{"android":"levelo://app?vid=dced32e1-336b-483b-b24c-3e001ab56393","ios":"levelo://app?vid=dced32e1-336b-483b-b24c-3e001ab56393"},"vehicle_type_id":"4","last_reported":1740481654,"current_range_meters":26000,"station_id":"ce4bh4p2rcd13ifvqe0g","pricing_plan_id":"cebpf4jnsgd1na2vs0mg"},{"bike_id":"74432482-3f10-4bb7-8760-e496c86cf6f0","system_id":"levelo_inurba_marseille","lat":43.30141,"lon":5.3742,"is_reserved":false,"is_disabled":false,"rental_uris":{"android":"levelo://app?vid=74432482-3f10-4bb7-8760-e496c86cf6f0","ios":"levelo://app?vid=74432482-3f10-4bb7-8760-e496c86cf6f0"},"vehicle_type_id":"4","last_reported":1740481654,"current_range_meters":26000,"station_id":"ce4bgs92rcd13ifvqcc0","pricing_plan_id":"cebpf4jnsgd1na2vs0mg"},{"bike_id":"8f26f210-d0bc-47f5-b398-b64d4e9d7381","system_id":"levelo_inurba_marseille","lat":43.26028,"lon":5.37546,"is_reserved":false,"is_disabled":false,"rental_uris":{"android":"levelo://app?vid=8f26f210-d0bc-47f5-b398-b64d4e9d7381","ios":"levelo://app?vid=8f26f210-d0bc-47f5-b398-b64d4e9d7381"},"vehicle_type_id":"4","last_reported":1740481654,"current_range_meters":26000,"station_id":"ce4bhgh2rcd13ifvqfa0","pricing_plan_id":"cebpf4jnsgd1na2vs0mg"},{"bike_id":"65e623cd-fcc4-42e1-8726-6f34c2eb528f","system_id":"levelo_inurba_marseille","lat":43.30884,"lon":5.36871,"is_reserved":false,"is_disabled":false,"rental_uris":{"android":"levelo://app?vid=65e623cd-fcc4-42e1-8726-6f34c2eb528f","ios":"levelo://app?vid=65e623cd-fcc4-42e1-8726-6f34c2eb528f"},"vehicle_type_id":"4","last_reported":1740481654,"current_range_meters":26000,"station_id":"ce4bgn92rcd13ifvqbvg","pricing_plan_id":"cebpf4jnsgd1na2vs0mg"},{"bike_id":"aec95a41-3506-4bda-b738-eb52197be6cf","system_id":"levelo_inurba_marseille","lat":43.29625,"lon":5.37718,"is_reserved":false,"is_disabled":false,"rental_uris":{"android":"levelo://app?vid=aec95a41-3506-4bda-b738-eb52197be6cf","ios":"levelo://app?vid=aec95a41-3506-4bda-b738-eb52197be6cf"},"vehicle_type_id":"4","last_reported":1740481654,"current_range_meters":26000,"station_id":"ce4bgi92rcd13ifvqb90","pricing_plan_id":"cebpf4jnsgd1na2vs0mg"},{"bike_id":"9054665d-3081-4473-810c-d45752486de3","system_id":"levelo_inurba_marseille","lat":43.28499,"lon":5.3945,"is_reserved":false,"is_disabled":false,"rental_uris":{"android":"levelo://app?vid=9054665d-3081-4473-810c-d45752486de3","ios":"levelo://app?vid=9054665d-3081-4473-810c-d45752486de3"},"vehicle_type_id":"4","last_reported":1740481654,"current_range_meters":26000,"station_id":"","pricing_plan_id":"cebpf4jnsgd1na2vs0mg"},{"bike_id":"de835b33-12ed-447d-9f13-894bd13aa73f","system_id":"levelo_inurba_marseille","lat":43.23185,"lon":5.39981,"is_reserved":false,"is_disabled":false,"rental_uris":{"android":"levelo://app?vid=de835b33-12ed-447d-9f13-894bd13aa73f","ios":"levelo://app?vid=de835b33-12ed-447d-9f13-894bd13aa73f"},"vehicle_type_id":"4","last_reported":1740481654,"current_range_meters":26000,"station_id":"ce4bhn12rcd13ifvqgqg","pricing_plan_id":"cebpf4jnsgd1na2vs0mg"},{"bike_id":"b271c7bc-2ab7-461b-a9b2-93874a742356","system_id":"levelo_inurba_marseille","lat":43.3236,"lon":5.36763,"is_reserved":false,"is_disabled":false,"rental_uris":{"android":"levelo://app?vid=b271c7bc-2ab7-461b-a9b2-93874a742356","ios":"levelo://app?vid=b271c7bc-2ab7-461b-a9b2-93874a742356"},"vehicle_type_id":"4","last_reported":1740481654,"current_range_meters":26000,"station_id":"ce4bhsh2rcd13ifvqi2g","pricing_plan_id":"cebpf4jnsgd1na2vs0mg"},{"bike_id":"3a95be8f-96b4-49b3-a8ae-711f367c0cc5","system_id":"levelo_inurba_marseille","lat":43.24663,"lon":5.38168,"is_reserved":false,"is_disabled":false,"rental_uris":{"android":"levelo://app?vid=3a95be8f-96b4-49b3-a8ae-711f367c0cc5","ios":"levelo://app?vid=3a95be8f-96b4-49b3-a8ae-711f367c0cc5"},"vehicle_type_id":"4","last_reported":1740481654,"current_range_meters":26000,"station_id":"ce4bhih2rcd13ifvqfr0","pricing_plan_id":"cebpf4jnsgd1na2vs0mg"},{"bike_id":"72b119e9-41e8-48ac-b3d6-37cd6ccf25c1","system_id":"levelo_inurba_marseille","lat":43.306138,"lon":5.37233,"is_reserved":false,"is_disabled":false,"rental_uris":{"android":"levelo://app?vid=72b119e9-41e8-48ac-b3d6-37cd6ccf25c1","ios":"levelo://app?vid=72b119e9-41e8-48ac-b3d6-37cd6ccf25c1"},"vehicle_type_id":"4","last_reported":1740481654,"current_range_meters":26800,"station_id":"ce4bgqh2rcd13ifvqc4g","pricing_plan_id":"cebpf4jnsgd1na2vs0mg"},{"bike_id":"bce7e1e9-7bb2-490b-957c-afadd703be42","system_id":"levelo_inurba_marseille","lat":43.2705,"lon":5.40277,"is_reserved":false,"is_disabled":false,"rental_uris":{"android":"levelo://app?vid=bce7e1e9-7bb2-490b-957c-afadd703be42","ios":"levelo://app?vid=bce7e1e9-7bb2-490b-957c-afadd703be42"},"vehicle_type_id":"4","last_reported":1740481654,"current_range_meters":26800,"station_id":"ce4bhk92rcd13ifvqgc0","pricing_plan_id":"cebpf4jnsgd1na2vs0mg"},{"bike_id":"84b803e7-7910-4ba5-824d-35c0c94092cd","system_id":"levelo_inurba_marseille","lat":43.28488,"lon":5.38406,"is_reserved":false,"is_disabled":false,"rental_uris":{"android":"levelo://app?vid=84b803e7-7910-4ba5-824d-35c0c94092cd","ios":"levelo://app?vid=84b803e7-7910-4ba5-824d-35c0c94092cd"},"vehicle_type_id":"4","last_reported":1740481654,"current_range_meters":26000,"station_id":"ce4bh512rcd13ifvqe3g","pricing_plan_id":"cebpf4jnsgd1na2vs0mg"},{"bike_id":"bbb5b944-71d3-4e8f-8b40-694dc2d679cb","system_id":"levelo_inurba_marseille","lat":43.23143,"lon":5.43713,"is_reserved":false,"is_disabled":false,"rental_uris":{"android":"levelo://app?vid=bbb5b944-71d3-4e8f-8b40-694dc2d679cb","ios":"levelo://app?vid=bbb5b944-71d3-4e8f-8b40-694dc2d679cb"},"vehicle_type_id":"4","last_reported":1740481654,"current_range_meters":26000,"station_id":"ce4bhmp2rcd13ifvqgog","pricing_plan_id":"cebpf4jnsgd1na2vs0mg"},{"bike_id":"ab583f67-d3f4-4901-ba72-19c321c942c9","system_id":"levelo_inurba_marseille","lat":43.25859,"lon":5.39902,"is_reserved":false,"is_disabled":false,"rental_uris":{"android":"levelo://app?vid=ab583f67-d3f4-4901-ba72-19c321c942c9","ios":"levelo://app?vid=ab583f67-d3f4-4901-ba72-19c321c942c9"},"vehicle_type_id":"4","last_reported":1740481654,"current_range_meters":27200,"station_id":"ce4bhl92rcd13ifvqghg","pricing_plan_id":"cebpf4jnsgd1na2vs0mg"},{"bike_id":"85641fcc-3a04-4ffd-a1e8-299fc85804c4","system_id":"levelo_inurba_marseille","lat":43.32109,"lon":5.36769,"is_reserved":false,"is_disabled":false,"rental_uris":{"android":"levelo://app?vid=85641fcc-3a04-4ffd-a1e8-299fc85804c4","ios":"levelo://app?vid=85641fcc-3a04-4ffd-a1e8-299fc85804c4"},"vehicle_type_id":"4","last_reported":1740481654,"current_range_meters":26800,"station_id":"ce4bhrh2rcd13ifvqhug","pricing_plan_id":"cebpf4jnsgd1na2vs0mg"},{"bike_id":"b9c6876a-e24c-43fa-8a67-095ea82687ee","system_id":"levelo_inurba_marseille","lat":43.230681,"lon":5.355012,"is_reserved":false,"is_disabled":false,"rental_uris":{"android":"levelo://app?vid=b9c6876a-e24c-43fa-8a67-095ea82687ee","ios":"levelo://app?vid=b9c6876a-e24c-43fa-8a67-095ea82687ee"},"vehicle_type_id":"4","last_reported":1740481654,"current_range_meters":26800,"station_id":"cpo3342slgdg3j2ifvpg","pricing_plan_id":"cebpf4jnsgd1na2vs0mg"},{"bike_id":"ee3d0466-02bb-4d1c-844e-9fe8258b7a82","system_id":"levelo_inurba_marseille","lat":43.29795,"lon":5.38108,"is_reserved":false,"is_disabled":false,"rental_uris":{"android":"levelo://app?vid=ee3d0466-02bb-4d1c-844e-9fe8258b7a82","ios":"levelo://app?vid=ee3d0466-02bb-4d1c-844e-9fe8258b7a82"},"vehicle_type_id":"4","last_reported":1740481654,"current_range_meters":26800,"station_id":"ce4bgip2rcd13ifvqbb0","pricing_plan_id":"cebpf4jnsgd1na2vs0mg"},{"bike_id":"93e3476c-2f46-4b53-9e5a-65158234fec0","system_id":"levelo_inurba_marseille","lat":43.24662,"lon":5.3817,"is_reserved":false,"is_disabled":false,"rental_uris":{"android":"levelo://app?vid=93e3476c-2f46-4b53-9e5a-65158234fec0","ios":"levelo://app?vid=93e3476c-2f46-4b53-9e5a-65158234fec0"},"vehicle_type_id":"4","last_reported":1740481654,"current_range_meters":26800,"station_id":"ce4bhih2rcd13ifvqfr0","pricing_plan_id":"cebpf4jnsgd1na2vs0mg"},{"bike_id":"2b06bf3e-1439-4d8c-9c28-543b267386f1","system_id":"levelo_inurba_marseille","lat":43.3031,"lon":5.36901,"is_reserved":false,"is_disabled":false,"rental_uris":{"android":"levelo://app?vid=2b06bf3e-1439-4d8c-9c28-543b267386f1","ios":"levelo://app?vid=2b06bf3e-1439-4d8c-9c28-543b267386f1"},"vehicle_type_id":"4","last_reported":1740481654,"current_range_meters":27200,"station_id":"ce4bgqh2rcd13ifvqc5g","pricing_plan_id":"cebpf4jnsgd1na2vs0mg"},{"bike_id":"9c579158-1458-40cb-9d12-74b6cd9d0b45","system_id":"levelo_inurba_marseille","lat":43.25089,"lon":5.39531,"is_reserved":false,"is_disabled":false,"rental_uris":{"android":"levelo://app?vid=9c579158-1458-40cb-9d12-74b6cd9d0b45","ios":"levelo://app?vid=9c579158-1458-40cb-9d12-74b6cd9d0b45"},"vehicle_type_id":"4","last_reported":1740481654,"current_range_meters":27200,"station_id":"ce4bhm12rcd13ifvqgkg","pricing_plan_id":"cebpf4jnsgd1na2vs0mg"},{"bike_id":"4f86aa69-915b-4617-b114-124751728922","system_id":"levelo_inurba_marseille","lat":43.31227,"lon":5.36861,"is_reserved":false,"is_disabled":false,"rental_uris":{"android":"levelo://app?vid=4f86aa69-915b-4617-b114-124751728922","ios":"levelo://app?vid=4f86aa69-915b-4617-b114-124751728922"},"vehicle_type_id":"4","last_reported":1740481654,"current_range_meters":27200,"station_id":"ce4bgl92rcd13ifvqbq0","pricing_plan_id":"cebpf4jnsgd1na2vs0mg"},{"bike_id":"b4bf404a-221e-4b13-bb74-da51cd0d5ff2","system_id":"levelo_inurba_marseille","lat":43.291048,"lon":5.381343,"is_reserved":false,"is_disabled":false,"rental_uris":{"android":"levelo://app?vid=b4bf404a-221e-4b13-bb74-da51cd0d5ff2","ios":"levelo://app?vid=b4bf404a-221e-4b13-bb74-da51cd0d5ff2"},"vehicle_type_id":"4","last_reported":1740481654,"current_range_meters":26800,"station_id":"ce4bh192rcd13ifvqdb0","pricing_plan_id":"cebpf4jnsgd1na2vs0mg"},{"bike_id":"20b81223-de1f-4d6d-8deb-d193946c3c99","system_id":"levelo_inurba_marseille","lat":43.27064,"lon":5.42281,"is_reserved":false,"is_disabled":false,"rental_uris":{"android":"levelo://app?vid=20b81223-de1f-4d6d-8deb-d193946c3c99","ios":"levelo://app?vid=20b81223-de1f-4d6d-8deb-d193946c3c99"},"vehicle_type_id":"4","last_reported":1740481654,"current_range_meters":27200,"station_id":"ce4bhk92rcd13ifvqgb0","pricing_plan_id":"cebpf4jnsgd1na2vs0mg"},{"bike_id":"00fecee1-225d-48b2-9fa1-4d98aeb63c80","system_id":"levelo_inurba_marseille","lat":43.31712,"lon":5.43701,"is_reserved":false,"is_disabled":false,"rental_uris":{"android":"levelo://app?vid=00fecee1-225d-48b2-9fa1-4d98aeb63c80","ios":"levelo://app?vid=00fecee1-225d-48b2-9fa1-4d98aeb63c80"},"vehicle_type_id":"4","last_reported":1740481654,"current_range_meters":27200,"station_id":"ce4bhp92rcd13ifvqhcg","pricing_plan_id":"cebpf4jnsgd1na2vs0mg"},{"bike_id":"217aa7df-78ef-414c-92ad-007a55f3db8f","system_id":"levelo_inurba_marseille","lat":43.23188,"lon":5.39996,"is_reserved":false,"is_disabled":false,"rental_uris":{"android":"levelo://app?vid=217aa7df-78ef-414c-92ad-007a55f3db8f","ios":"levelo://app?vid=217aa7df-78ef-414c-92ad-007a55f3db8f"},"vehicle_type_id":"4","last_reported":1740481654,"current_range_meters":27200,"station_id":"ce4bhn12rcd13ifvqgqg","pricing_plan_id":"cebpf4jnsgd1na2vs0mg"},{"bike_id":"666263bf-fd45-4846-9eae-73fc631a53d6","system_id":"levelo_inurba_marseille","lat":43.28456,"lon":5.3591,"is_reserved":false,"is_disabled":false,"rental_uris":{"android":"levelo://app?vid=666263bf-fd45-4846-9eae-73fc631a53d6","ios":"levelo://app?vid=666263bf-fd45-4846-9eae-73fc631a53d6"},"vehicle_type_id":"4","last_reported":1740481654,"current_range_meters":27200,"station_id":"ce4bhah2rcd13ifvqei0","pricing_plan_id":"cebpf4jnsgd1na2vs0mg"},{"bike_id":"dbb45d58-1f73-4ba8-8d21-918926680ac0","system_id":"levelo_inurba_marseille","lat":43.296374,"lon":5.372866,"is_reserved":false,"is_disabled":false,"rental_uris":{"android":"levelo://app?vid=dbb45d58-1f73-4ba8-8d21-918926680ac0","ios":"levelo://app?vid=dbb45d58-1f73-4ba8-8d21-918926680ac0"},"vehicle_type_id":"4","last_reported":1740481654,"current_range_meters":27600,"station_id":"","pricing_plan_id":"cebpf4jnsgd1na2vs0mg"},{"bike_id":"c2392fb3-cd34-404d-986b-882d44465de2","system_id":"levelo_inurba_marseille","lat":43.298998,"lon":5.436705,"is_reserved":false,"is_disabled":false,"rental_uris":{"android":"levelo://app?vid=c2392fb3-cd34-404d-986b-882d44465de2","ios":"levelo://app?vid=c2392fb3-cd34-404d-986b-882d44465de2"},"vehicle_type_id":"4","last_reported":1740481654,"current_range_meters":27200,"station_id":"ce4bhpp2rcd13ifvqhfg","pricing_plan_id":"cebpf4jnsgd1na2vs0mg"},{"bike_id":"4d3883f6-2de8-4cd2-af3e-bc0e0bc875cb","system_id":"levelo_inurba_marseille","lat":43.2749,"lon":5.4245,"is_reserved":false,"is_disabled":false,"rental_uris":{"android":"levelo://app?vid=4d3883f6-2de8-4cd2-af3e-bc0e0bc875cb","ios":"levelo://app?vid=4d3883f6-2de8-4cd2-af3e-bc0e0bc875cb"},"vehicle_type_id":"4","last_reported":1740481654,"current_range_meters":27200,"station_id":"ce4bhn92rcd13ifvqgrg","pricing_plan_id":"cebpf4jnsgd1na2vs0mg"},{"bike_id":"65207ee6-164c-423f-83be-c89356168b7e","system_id":"levelo_inurba_marseille","lat":43.29791,"lon":5.38094,"is_reserved":false,"is_disabled":false,"rental_uris":{"android":"levelo://app?vid=65207ee6-164c-423f-83be-c89356168b7e","ios":"levelo://app?vid=65207ee6-164c-423f-83be-c89356168b7e"},"vehicle_type_id":"4","last_reported":1740481654,"current_range_meters":27600,"station_id":"","pricing_plan_id":"cebpf4jnsgd1na2vs0mg"},{"bike_id":"1c3a0f97-a118-413e-81b9-4c633193a493","system_id":"levelo_inurba_marseille","lat":43.29592,"lon":5.3751,"is_reserved":false,"is_disabled":false,"rental_uris":{"android":"levelo://app?vid=1c3a0f97-a118-413e-81b9-4c633193a493","ios":"levelo://app?vid=1c3a0f97-a118-413e-81b9-4c633193a493"},"vehicle_type_id":"4","last_reported":1740481654,"current_range_meters":27200,"station_id":"ce4bgh92rcd13ifvqb50","pricing_plan_id":"cebpf4jnsgd1na2vs0mg"},{"bike_id":"4dcdb5a8-45ed-4b20-9b9f-60c3e7e590c8","system_id":"levelo_inurba_marseille","lat":43.28849,"lon":5.35847,"is_reserved":false,"is_disabled":false,"rental_uris":{"android":"levelo://app?vid=4dcdb5a8-45ed-4b20-9b9f-60c3e7e590c8","ios":"levelo://app?vid=4dcdb5a8-45ed-4b20-9b9f-60c3e7e590c8"},"vehicle_type_id":"4","last_reported":1740481654,"current_range_meters":28000,"station_id":"ce4bhb12rcd13ifvqem0","pricing_plan_id":"cebpf4jnsgd1na2vs0mg"},{"bike_id":"033d81a9-a0d2-47b5-87cf-e4296c6268dc","system_id":"levelo_inurba_marseille","lat":43.25014,"lon":5.38909,"is_reserved":false,"is_disabled":false,"rental_uris":{"android":"levelo://app?vid=033d81a9-a0d2-47b5-87cf-e4296c6268dc","ios":"levelo://app?vid=033d81a9-a0d2-47b5-87cf-e4296c6268dc"},"vehicle_type_id":"4","last_reported":1740481654,"current_range_meters":27600,"station_id":"ce4bhgp2rcd13ifvqfd0","pricing_plan_id":"cebpf4jnsgd1na2vs0mg"},{"bike_id":"06085228-5c53-4a26-84c3-537ccaa6e47d","system_id":"levelo_inurba_marseille","lat":43.28861,"lon":5.3576,"is_reserved":false,"is_disabled":true,"rental_uris":{"android":"levelo://app?vid=06085228-5c53-4a26-84c3-537ccaa6e47d","ios":"levelo://app?vid=06085228-5c53-4a26-84c3-537ccaa6e47d"},"vehicle_type_id":"4","last_reported":1740481654,"current_range_meters":28000,"station_id":"","pricing_plan_id":"cebpf4jnsgd1na2vs0mg"},