{"last_updated":1678655174,"ttl":30,"version":"2.2","data":{"bikes":[{"bike_id":"88d825bd-1084-41a2-8fcf-bb17e4c9bc74","system_id":"levelo_inurba_marseille","lat":43.31223,"lon":5.36854,"is_reserved":false,"is_disabled":false,"rental_uris":{"android":"levelo://app?vid=88d825bd-1084-41a2-8fcf-bb17e4c9bc74","ios":"levelo://app?vid=88d825bd-1084-41a2-8fcf-bb17e4c9bc74"},"vehicle_type_id":"4","last_reported":1678655175,"current_range_meters":0,"station_id":"ce4bgl92rcd13ifvqbq0","pricing_plan_id":"free"},{"bike_id":"d3b7500b-b7b5-4e02-a9b7-083c4c02fb64","system_id":"levelo_inurba_marseille","lat":43.30889,"lon":5.371927,"is_reserved":false,"is_disabled":false,"rental_uris":{"android":"levelo://app?vid=d3b7500b-b7b5-4e02-a9b7-083c4c02fb64","ios":"levelo://app?vid=d3b7500b-b7b5-4e02-a9b7-083c4c02fb64"},"vehicle_type_id":"4","last_reported":1678655175,"current_range_meters":21200,"station_id":"","pricing_plan_id":"free"},{"bike_id":"64be727c-dbf2-4197-8a2d-90feed1871c3","system_id":"levelo_inurba_marseille","lat":43.308614,"lon":5.372098,"is_reserved":false,"is_disabled":false,"rental_uris":{"android":"levelo://app?vid=64be727c-dbf2-4197-8a2d-90feed1871c3","ios":"levelo://app?vid=64be727c-dbf2-4197-8a2d-90feed1871c3"},"vehicle_type_id":"4","last_reported":1678655175,"current_range_meters":400,"station_id":"ce4bguh2rcd13ifvqckg","pricing_plan_id":"free"},{"bike_id":"f3ace9cc-c937-4870-8f6b-3d624cc6a846","system_id":"levelo_inurba_marseille","lat":43.30889,"lon":5.371987,"is_reserved":false,"is_disabled":false,"rental_uris":{"android":"levelo://app?vid=f3ace9cc-c937-4870-8f6b-3d624cc6a846","ios":"levelo://app?vid=f3ace9cc-c937-4870-8f6b-3d624cc6a846"},"vehicle_type_id":"4","last_reported":1678655175,"current_range_meters":29200,"station_id":"","pricing_plan_id":"free"},{"bike_id":"65c55a01-a358-4256-9a7a-fa9d1d91d343","system_id":"levelo_inurba_marseille","lat":43.317075,"lon":5.377367,"is_reserved":false,"is_disabled":false,"rental_uris":{"android":"levelo://app?vid=65c55a01-a358-4256-9a7a-fa9d1d91d343","ios":"levelo://app?vid=65c55a01-a358-4256-9a7a-fa9d1d91d343"},"vehicle_type_id":"4","last_reported":1678655175,"current_range_meters":2400,"station_id":"ce4bgth2rcd13ifvqch0","pricing_plan_id":"free"},{"bike_id":"c9fe639e-ea51-4057-92d6-ce33a5612b04","system_id":"levelo_inurba_marseille","lat":43.305989,"lon":5.37225,"is_reserved":false,"is_disabled":false,"rental_uris":{"android":"levelo://app?vid=c9fe639e-ea51-4057-92d6-ce33a5612b04","ios":"levelo://app?vid=c9fe639e-ea51-4057-92d6-ce33a5612b04"},"vehicle_type_id":"4","last_reported":1678655175,"current_range_meters":0,"station_id":"ce4bgqh2rcd13ifvqc4g","pricing_plan_id":"free"},{"bike_id":"5d28e191-68a2-4d9b-93f2-9df0ef9c4637","system_id":"levelo_inurba_marseille","lat":43.31709,"lon":5.37747,"is_reserved":false,"is_disabled":false,"rental_uris":{"android":"levelo://app?vid=5d28e191-68a2-4d9b-93f2-9df0ef9c4637","ios":"levelo://app?vid=5d28e191-68a2-4d9b-93f2-9df0ef9c4637"},"vehicle_type_id":"4","last_reported":1678655175,"current_range_meters":8000,"station_id":"","pricing_plan_id":"free"},{"bike_id":"d90fac98-62fd-41cc-947b-3496fb0495c1","system_id":"levelo_inurba_marseille","lat":43.30342,"lon":5.37255,"is_reserved":false,"is_disabled":false,"rental_uris":{"android":"levelo://app?vid=d90fac98-62fd-41cc-947b-3496fb0495c1","ios":"levelo://app?vid=d90fac98-62fd-41cc-947b-3496fb0495c1"},"vehicle_type_id":"4","last_reported":1678655175,"current_range_meters":0,"station_id":"","pricing_plan_id":"free"},{"bike_id":"1f199f43-2485-47a6-ba50-d4f8a8743855","system_id":"levelo_inurba_marseille","lat":43.301939,"lon":5.366286,"is_reserved":false,"is_disabled":false,"rental_uris":{"android":"levelo://app?vid=1f199f43-2485-47a6-ba50-d4f8a8743855","ios":"levelo://app?vid=1f199f43-2485-47a6-ba50-d4f8a8743855"},"vehicle_type_id":"4","last_reported":1678655175,"current_range_meters":11200,"station_id":"ce4bgrh2rcd13ifvqc8g","pricing_plan_id":"free"},{"bike_id":"1d2d0654-9613-43bb-9a00-736522048fee","system_id":"levelo_inurba_marseille","lat":43.3047,"lon":5.37905,"is_reserved":false,"is_disabled":false,"rental_uris":{"android":"levelo://app?vid=1d2d0654-9613-43bb-9a00-736522048fee","ios":"levelo://app?vid=1d2d0654-9613-43bb-9a00-736522048fee"},"vehicle_type_id":"4","last_reported":1678655175,"current_range_meters":6400,"station_id":"ce4bgup2rcd13ifvqcn0","pricing_plan_id":"free"},{"bike_id":"9979902c-a874-45e2-9f79-8e0c5b8a08f4","system_id":"levelo_inurba_marseille","lat":43.313571,"lon":5.384829,"is_reserved":false,"is_disabled":false,"rental_uris":{"android":"levelo://app?vid=9979902c-a874-45e2-9f79-8e0c5b8a08f4","ios":"levelo://app?vid=9979902c-a874-45e2-9f79-8e0c5b8a08f4"},"vehicle_type_id":"4","last_reported":1678655175,"current_range_meters":24400,"station_id":"ce4bgt92rcd13ifvqcf0","pricing_plan_id":"free"},{"bike_id":"aad19918-d929-4ad6-8493-923dd236651c","system_id":"levelo_inurba_marseille","lat":43.313571,"lon":5.384829,"is_reserved":false,"is_disabled":false,"rental_uris":{"android":"levelo://app?vid=aad19918-d929-4ad6-8493-923dd236651c","ios":"levelo://app?vid=aad19918-d929-4ad6-8493-923dd236651c"},"vehicle_type_id":"4","last_reported":1678655175,"current_range_meters":11600,"station_id":"ce4bgt92rcd13ifvqcf0","pricing_plan_id":"free"},{"bike_id":"e2ee1247-3ed7-4e87-a5c6-d7dc46f09e62","system_id":"levelo_inurba_marseille","lat":43.313571,"lon":5.384829,"is_reserved":false,"is_disabled":false,"rental_uris":{"android":"levelo://app?vid=e2ee1247-3ed7-4e87-a5c6-d7dc46f09e62","ios":"levelo://app?vid=e2ee1247-3ed7-4e87-a5c6-d7dc46f09e62"},"vehicle_type_id":"4","last_reported":1678655175,"current_range_meters":9200,"station_id":"ce4bgt92rcd13ifvqcf0","pricing_plan_id":"free"},{"bike_id":"0e65b366-b800-4614-a4f2-a9c098a81eb2","system_id":"levelo_inurba_marseille","lat":43.313571,"lon":5.384829,"is_reserved":false,"is_disabled":false,"rental_uris":{"android":"levelo://app?vid=0e65b366-b800-4614-a4f2-a9c098a81eb2","ios":"levelo://app?vid=0e65b366-b800-4614-a4f2-a9c098a81eb2"},"vehicle_type_id":"4","last_reported":1678655175,"current_range_meters":24400,"station_id":"ce4bgt92rcd13ifvqcf0","pricing_plan_id":"free"},{"bike_id":"d8d76e29-076d-4834-9040-78d28db49af6","system_id":"levelo_inurba_marseille","lat":43.298433,"lon":5.362774,"is_reserved":false,"is_disabled":false,"rental_uris":{"android":"levelo://app?vid=d8d76e29-076d-4834-9040-78d28db49af6","ios":"levelo://app?vid=d8d76e29-076d-4834-9040-78d28db49af6"},"vehicle_type_id":"4","last_reported":1678655175,"current_range_meters":8400,"station_id":"ce4bgpp2rcd13ifvqc3g","pricing_plan_id":"free"},{"bike_id":"e5b1a737-649e-4aa5-824a-2f994b60727c","system_id":"levelo_inurba_marseille","lat":43.311722,"lon":5.387247,"is_reserved":false,"is_disabled":false,"rental_uris":{"android":"levelo://app?vid=e5b1a737-649e-4aa5-824a-2f994b60727c","ios":"levelo://app?vid=e5b1a737-649e-4aa5-824a-2f994b60727c"},"vehicle_type_id":"4","last_reported":1678655175,"current_range_meters":14000,"station_id":"ce4bgv12rcd13ifvqcp0","pricing_plan_id":"free"},{"bike_id":"9cc133f7-327f-4994-8273-3a226184bf40","system_id":"levelo_inurba_marseille","lat":43.311692,"lon":5.38716,"is_reserved":false,"is_disabled":false,"rental_uris":{"android":"levelo://app?vid=9cc133f7-327f-4994-8273-3a226184bf40","ios":"levelo://app?vid=9cc133f7-327f-4994-8273-3a226184bf40"},"vehicle_type_id":"4","last_reported":1678655175,"current_range_meters":0,"station_id":"","pricing_plan_id":"free"},{"bike_id":"de4a2d43-6a9f-4970-afcc-f987a53efc04","system_id":"levelo_inurba_marseille","lat":43.311722,"lon":5.387247,"is_reserved":false,"is_disabled":false,"rental_uris":{"android":"levelo://app?vid=de4a2d43-6a9f-4970-afcc-f987a53efc04","ios":"levelo://app?vid=de4a2d43-6a9f-4970-afcc-f987a53efc04"},"vehicle_type_id":"4","last_reported":1678655175,"current_range_meters":28400,"station_id":"ce4bgv12rcd13ifvqcp0","pricing_plan_id":"free"},{"bike_id":"e9a9a892-9d80-432c-a9dd-992c3df74f98","system_id":"levelo_inurba_marseille","lat":43.311722,"lon":5.387247,"is_reserved":false,"is_disabled":false,"rental_uris":{"android":"levelo://app?vid=e9a9a892-9d80-432c-a9dd-992c3df74f98","ios":"levelo://app?vid=e9a9a892-9d80-432c-a9dd-992c3df74f98"},"vehicle_type_id":"4","last_reported":1678655175,"current_range_meters":19200,"station_id":"ce4bgv12rcd13ifvqcp0","pricing_plan_id":"free"},{"bike_id":"14648f7f-ed02-42a0-b115-fed06cf8dbf1","system_id":"levelo_inurba_marseille","lat":43.311722,"lon":5.387247,"is_reserved":false,"is_disabled":false,"rental_uris":{"android":"levelo://app?vid=14648f7f-ed02-42a0-b115-fed06cf8dbf1","ios":"levelo://app?vid=14648f7f-ed02-42a0-b115-fed06cf8dbf1"},"vehicle_type_id":"4","last_reported":1678655175,"current_range_meters":4000,"station_id":"ce4bgv12rcd13ifvqcp0","pricing_plan_id":"free"},{"bike_id":"1fe30448-3bdf-49de-aff0-8ded9c348ec8","system_id":"levelo_inurba_marseille","lat":43.32834,"lon":5.3669,"is_reserved":false,"is_disabled":false,"rental_uris":{"android":"levelo://app?vid=1fe30448-3bdf-49de-aff0-8ded9c348ec8","ios":"levelo://app?vid=1fe30448-3bdf-49de-aff0-8ded9c348ec8"},"vehicle_type_id":"4","last_reported":1678655175,"current_range_meters":0,"station_id":"ce4bhs92rcd13ifvqi0g","pricing_plan_id":"free"},{"bike_id":"31009286-c3ec-4f48-90b7-5c126cb222ef","system_id":"levelo_inurba_marseille","lat":43.328371,"lon":5.366909,"is_reserved":false,"is_disabled":false,"rental_uris":{"android":"levelo://app?vid=31009286-c3ec-4f48-90b7-5c126cb222ef","ios":"levelo://app?vid=31009286-c3ec-4f48-90b7-5c126cb222ef"},"vehicle_type_id":"4","last_reported":1678655175,"current_range_meters":800,"station_id":"ce4bhs92rcd13ifvqi0g","pricing_plan_id":"free"},{"bike_id":"936e86b4-d388-40fb-8755-0d9d8bdf4f5a","system_id":"levelo_inurba_marseille","lat":43.29582,"lon":5.367543,"is_reserved":false,"is_disabled":false,"rental_uris":{"android":"levelo://app?vid=936e86b4-d388-40fb-8755-0d9d8bdf4f5a","ios":"levelo://app?vid=936e86b4-d388-40fb-8755-0d9d8bdf4f5a"},"vehicle_type_id":"4","last_reported":1678655175,"current_range_meters":13200,"station_id":"ce4bgph2rcd13ifvqc2g","pricing_plan_id":"free"},{"bike_id":"c6319ee4-bb1d-4bed-942c-4ba248b86a60","system_id":"levelo_inurba_marseille","lat":43.297369,"lon":5.376702,"is_reserved":false,"is_disabled":false,"rental_uris":{"android":"levelo://app?vid=c6319ee4-bb1d-4bed-942c-4ba248b86a60","ios":"levelo://app?vid=c6319ee4-bb1d-4bed-942c-4ba248b86a60"},"vehicle_type_id":"4","last_reported":1678655175,"current_range_meters":0,"station_id":"","pricing_plan_id":"free"},{"bike_id":"044be6e2-b0a9-448f-a62d-00d44b3efd84","system_id":"levelo_inurba_marseille","lat":43.303205,"lon":5.38626,"is_reserved":false,"is_disabled":false,"rental_uris":{"android":"levelo://app?vid=044be6e2-b0a9-448f-a62d-00d44b3efd84","ios":"levelo://app?vid=044be6e2-b0a9-448f-a62d-00d44b3efd84"},"vehicle_type_id":"4","last_reported":1678655175,"current_range_meters":8000,"station_id":"","pricing_plan_id":"free"},{"bike_id":"4ec23835-47d2-4331-a61b-a9017fe0faee","system_id":"levelo_inurba_marseille","lat":43.299028,"lon":5.381509,"is_reserved":false,"is_disabled":false,"rental_uris":{"android":"levelo://app?vid=4ec23835-47d2-4331-a61b-a9017fe0faee","ios":"levelo://app?vid=4ec23835-47d2-4331-a61b-a9017fe0faee"},"vehicle_type_id":"4","last_reported":1678655175,"current_range_meters":16800,"station_id":"ce4bgj12rcd13ifvqbc0","pricing_plan_id":"free"},{"bike_id":"1674f8b6-33e1-4edc-bed3-f74dd8766953","system_id":"levelo_inurba_marseille","lat":43.30955,"lon":5.39037,"is_reserved":false,"is_disabled":false,"rental_uris":{"android":"levelo://app?vid=1674f8b6-33e1-4edc-bed3-f74dd8766953","ios":"levelo://app?vid=1674f8b6-33e1-4edc-bed3-f74dd8766953"},"vehicle_type_id":"4","last_reported":1678655175,"current_range_meters":24800,"station_id":"","pricing_plan_id":"free"},{"bike_id":"c925a46b-304c-48fd-970d-f1dfe031248f","system_id":"levelo_inurba_marseille","lat":43.29573,"lon":5.375005,"is_reserved":false,"is_disabled":false,"rental_uris":{"android":"levelo://app?vid=c925a46b-304c-48fd-970d-f1dfe031248f","ios":"levelo://app?vid=c925a46b-304c-48fd-970d-f1dfe031248f"},"vehicle_type_id":"4","last_reported":1678655175,"current_range_meters":0,"station_id":"","pricing_plan_id":"free"},{"bike_id":"d57938ba-8ac7-4bdf-81f6-f308d021fab4","system_id":"levelo_inurba_marseille","lat":43.29794,"lon":5.38115,"is_reserved":false,"is_disabled":false,"rental_uris":{"android":"levelo://app?vid=d57938ba-8ac7-4bdf-81f6-f308d021fab4","ios":"levelo://app?vid=d57938ba-8ac7-4bdf-81f6-f308d021fab4"},"vehicle_type_id":"4","last_reported":1678655175,"current_range_meters":0,"station_id":"ce4bgip2rcd13ifvqbb0","pricing_plan_id":"free"},{"bike_id":"4ef5ec1e-1177-44ac-a225-0ff4bfd021df","system_id":"levelo_inurba_marseille","lat":43.30427,"lon":5.38897,"is_reserved":false,"is_disabled":false,"rental_uris":{"android":"levelo://app?vid=4ef5ec1e-1177-44ac-a225-0ff4bfd021df","ios":"levelo://app?vid=4ef5ec1e-1177-44ac-a225-0ff4bfd021df"},"vehicle_type_id":"4","last_reported":1678655175,"current_range_meters":0,"station_id":"ce4bgk12rcd13ifvqbi0","pricing_plan_id":"free"},{"bike_id":"7ead2f8f-8ceb-410a-8b6e-66804465119e","system_id":"levelo_inurba_marseille","lat":43.2997,"lon":5.38498,"is_reserved":false,"is_disabled":false,"rental_uris":{"android":"levelo://app?vid=7ead2f8f-8ceb-410a-8b6e-66804465119e","ios":"levelo://app?vid=7ead2f8f-8ceb-410a-8b6e-66804465119e"},"vehicle_type_id":"4","last_reported":1678655175,"current_range_meters":1600,"station_id":"","pricing_plan_id":"free"},{"bike_id":"ca60361f-d177-4d93-844a-ab9c65ab860f","system_id":"levelo_inurba_marseille","lat":43.323697,"lon":5.388823,"is_reserved":false,"is_disabled":false,"rental_uris":{"android":"levelo://app?vid=ca60361f-d177-4d93-844a-ab9c65ab860f","ios":"levelo://app?vid=ca60361f-d177-4d93-844a-ab9c65ab860f"},"vehicle_type_id":"4","last_reported":1678655175,"current_range_meters":23600,"station_id":"ce4bhqp2rcd13ifvqhog","pricing_plan_id":"free"},{"bike_id":"b20c0648-4cf3-44fa-ba1a-61d9b53669a7","system_id":"levelo_inurba_marseille","lat":43.31282,"lon":5.39423,"is_reserved":false,"is_disabled":false,"rental_uris":{"android":"levelo://app?vid=b20c0648-4cf3-44fa-ba1a-61d9b53669a7","ios":"levelo://app?vid=b20c0648-4cf3-44fa-ba1a-61d9b53669a7"},"vehicle_type_id":"4","last_reported":1678655175,"current_range_meters":0,"station_id":"","pricing_plan_id":"free"},{"bike_id":"0bd586a3-10c8-491d-8feb-78e3000580b0","system_id":"levelo_inurba_marseille","lat":43.30069,"lon":5.39047,"is_reserved":false,"is_disabled":false,"rental_uris":{"android":"levelo://app?vid=0bd586a3-10c8-491d-8feb-78e3000580b0","ios":"levelo://app?vid=0bd586a3-10c8-491d-8feb-78e3000580b0"},"vehicle_type_id":"4","last_reported":1678655175,"current_range_meters":0,"station_id":"","pricing_plan_id":"free"},{"bike_id":"49763694-4aa0-4fb8-837c-d1ef044e5161","system_id":"levelo_inurba_marseille","lat":43.2988,"lon":5.38914,"is_reserved":false,"is_disabled":false,"rental_uris":{"android":"levelo://app?vid=49763694-4aa0-4fb8-837c-d1ef044e5161","ios":"levelo://app?vid=49763694-4aa0-4fb8-837c-d1ef044e5161"},"vehicle_type_id":"4","last_reported":1678655175,"current_range_meters":0,"station_id":"ce4bh392rcd13ifvqdl0","pricing_plan_id":"free"},{"bike_id":"3122a4c6-4d14-4f69-8a29-8e548ef87b52","system_id":"levelo_inurba_marseille","lat":43.3133,"lon":5.39693,"is_reserved":false,"is_disabled":false,"rental_uris":{"android":"levelo://app?vid=3122a4c6-4d14-4f69-8a29-8e548ef87b52","ios":"levelo://app?vid=3122a4c6-4d14-4f69-8a29-8e548ef87b52"},"vehicle_type_id":"4","last_reported":1678655175,"current_range_meters":21600,"station_id":"","pricing_plan_id":"free"},{"bike_id":"e637d885-ea85-4bc1-a5c3-d7510e1e280c","system_id":"levelo_inurba_marseille","lat":43.31331,"lon":5.39693,"is_reserved":false,"is_disabled":false,"rental_uris":{"android":"levelo://app?vid=e637d885-ea85-4bc1-a5c3-d7510e1e280c","ios":"levelo://app?vid=e637d885-ea85-4bc1-a5c3-d7510e1e280c"},"vehicle_type_id":"4","last_reported":1678655175,"current_range_meters":6000,"station_id":"","pricing_plan_id":"free"},{"bike_id":"e2223600-9271-41ab-860a-a127b8796444","system_id":"levelo_inurba_marseille","lat":43.290779,"lon":5.371482,"is_reserved":false,"is_disabled":false,"rental_uris":{"android":"levelo://app?vid=e2223600-9271-41ab-860a-a127b8796444","ios":"levelo://app?vid=e2223600-9271-41ab-860a-a127b8796444"},"vehicle_type_id":"4","last_reported":1678655175,"current_range_meters":28400,"station_id":"ce4bh5p2rcd13ifvqe4g","pricing_plan_id":"free"},{"bike_id":"914b5b8c-d2d1-4b3d-98d4-b40840205cbe","system_id":"levelo_inurba_marseille","lat":43.293795,"lon":5.383905,"is_reserved":false,"is_disabled":false,"rental_uris":{"android":"levelo://app?vid=914b5b8c-d2d1-4b3d-98d4-b40840205cbe","ios":"levelo://app?vid=914b5b8c-d2d1-4b3d-98d4-b40840205cbe"},"vehicle_type_id":"4","last_reported":1678655175,"current_range_meters":10000,"station_id":"","pricing_plan_id":"free"},{"bike_id":"4cb06b99-dcdb-4557-bcf3-93bcd687a177","system_id":"levelo_inurba_marseille","lat":43.302008,"lon":5.394694,"is_reserved":false,"is_disabled":false,"rental_uris":{"android":"levelo://app?vid=4cb06b99-dcdb-4557-bcf3-93bcd687a177","ios":"levelo://app?vid=4cb06b99-dcdb-4557-bcf3-93bcd687a177"},"vehicle_type_id":"4","last_reported":1678655175,"current_range_meters":20400,"station_id":"ce4bh0p2rcd13ifvqd70","pricing_plan_id":"free"},{"bike_id":"506ba8cd-dad0-45dd-81ff-12f10f1a6b8a","system_id":"levelo_inurba_marseille","lat":43.289184,"lon":5.366408,"is_reserved":false,"is_disabled":false,"rental_uris":{"android":"levelo://app?vid=506ba8cd-dad0-45dd-81ff-12f10f1a6b8a","ios":"levelo://app?vid=506ba8cd-dad0-45dd-81ff-12f10f1a6b8a"},"vehicle_type_id":"4","last_reported":1678655175,"current_range_meters":28400,"station_id":"ce4bhap2rcd13ifvqek0","pricing_plan_id":"free"},{"bike_id":"8aa44149-304c-474c-819a-8ad36cac9be2","system_id":"levelo_inurba_marseille","lat":43.289184,"lon":5.366408,"is_reserved":false,"is_disabled":false,"rental_uris":{"android":"levelo://app?vid=8aa44149-304c-474c-819a-8ad36cac9be2","ios":"levelo://app?vid=8aa44149-304c-474c-819a-8ad36cac9be2"},"vehicle_type_id":"4","last_reported":1678655175,"current_range_meters":0,"station_id":"ce4bhap2rcd13ifvqek0","pricing_plan_id":"free"},{"bike_id":"6adf67fe-983e-4c3b-b37a-2982cb10603b","system_id":"levelo_inurba_marseille","lat":43.289184,"lon":5.366408,"is_reserved":false,"is_disabled":false,"rental_uris":{"android":"levelo://app?vid=6adf67fe-983e-4c3b-b37a-2982cb10603b","ios":"levelo://app?vid=6adf67fe-983e-4c3b-b37a-2982cb10603b"},"vehicle_type_id":"4","last_reported":1678655175,"current_range_meters":28400,"station_id":"ce4bhap2rcd13ifvqek0","pricing_plan_id":"free"},{"bike_id":"fffbfebd-22c8-41a5-a730-6773fcc2771f","system_id":"levelo_inurba_marseille","lat":43.289468,"lon":5.363719,"is_reserved":false,"is_disabled":false,"rental_uris":{"android":"levelo://app?vid=fffbfebd-22c8-41a5-a730-6773fcc2771f","ios":"levelo://app?vid=fffbfebd-22c8-41a5-a730-6773fcc2771f"},"vehicle_type_id":"4","last_reported":1678655175,"current_range_meters":27200,"station_id":"ce4bhc92rcd13ifvqetg","pricing_plan_id":"free"},{"bike_id":"5e721613-92ec-4e26-b8a2-85fdaee1f49f","system_id":"levelo_inurba_marseille","lat":43.29278,"lon":5.38433,"is_reserved":false,"is_disabled":false,"rental_uris":{"android":"levelo://app?vid=5e721613-92ec-4e26-b8a2-85fdaee1f49f","ios":"levelo://app?vid=5e721613-92ec-4e26-b8a2-85fdaee1f49f"},"vehicle_type_id":"4","last_reported":1678655175,"current_range_meters":4400,"station_id":"ce4bh692rcd13ifvqea0","pricing_plan_id":"free"},{"bike_id":"0319246c-cdec-4ebb-af41-c5358a374d1b","system_id":"levelo_inurba_marseille","lat":43.292644,"lon":5.384257,"is_reserved":false,"is_disabled":false,"rental_uris":{"android":"levelo://app?vid=0319246c-cdec-4ebb-af41-c5358a374d1b","ios":"levelo://app?vid=0319246c-cdec-4ebb-af41-c5358a374d1b"},"vehicle_type_id":"4","last_reported":1678655175,"current_range_meters":10000,"station_id":"ce4bh692rcd13ifvqea0","pricing_plan_id":"free"},{"bike_id":"dc5ac6fb-8bbd-435e-8342-b8747265d7ba","system_id":"levelo_inurba_marseille","lat":43.304267,"lon":5.397447,"is_reserved":false,"is_disabled":false,"rental_uris":{"android":"levelo://app?vid=dc5ac6fb-8bbd-435e-8342-b8747265d7ba","ios":"levelo://app?vid=dc5ac6fb-8bbd-435e-8342-b8747265d7ba"},"vehicle_type_id":"4","last_reported":1678655175,"current_range_meters":0,"station_id":"","pricing_plan_id":"free"},{"bike_id":"6a355757-b73d-40ba-a8e5-381d9478a014","system_id":"levelo_inurba_marseille","lat":43.30425,"lon":5.39752,"is_reserved":false,"is_disabled":false,"rental_uris":{"android":"levelo://app?vid=6a355757-b73d-40ba-a8e5-381d9478a014","ios":"levelo://app?vid=6a355757-b73d-40ba-a8e5-381d9478a014"},"vehicle_type_id":"4","last_reported":1678655175,"current_range_meters":4000,"station_id":"","pricing_plan_id":"free"},{"bike_id":"117f2a25-f9fc-4f1d-aade-29d673483f61","system_id":"levelo_inurba_marseille","lat":43.330442,"lon":5.389148,"is_reserved":false,"is_disabled":false,"rental_uris":{"android":"levelo://app?vid=117f2a25-f9fc-4f1d-aade-29d673483f61","ios":"levelo://app?vid=117f2a25-f9fc-4f1d-aade-29d673483f61"},"vehicle_type_id":"4","last_reported":1678655175,"current_range_meters":3200,"station_id":"ce4bhr92rcd13ifvqhrg","pricing_plan_id":"free"},{"bike_id":"2346825f-7ab6-483f-b321-c6c5194ea13f","system_id":"levelo_inurba_marseille","lat":43.33046,"lon":5.38918,"is_reserved":false,"is_disabled":false,"rental_uris":{"android":"levelo://app?vid=2346825f-7ab6-483f-b321-c6c5194ea13f","ios":"levelo://app?vid=2346825f-7ab6-483f-b321-c6c5194ea13f"},"vehicle_type_id":"4","last_reported":1678655175,"current_range_meters":7200,"station_id":"","pricing_plan_id":"free"},{"bike_id":"5c542135-b9b7-4319-b13c-ce6b620b43d2","system_id":"levelo_inurba_marseille","lat":43.330442,"lon":5.389148,"is_reserved":false,"is_disabled":false,"rental_uris":{"android":"levelo://app?vid=5c542135-b9b7-4319-b13c-ce6b620b43d2","ios":"levelo://app?vid=5c542135-b9b7-4319-b13c-ce6b620b43d2"},"vehicle_type_id":"4","last_reported":1678655175,"current_range_meters":11200,"station_id":"ce4bhr92rcd13ifvqhrg","pricing_plan_id":"free"},{"bike_id":"962d5882-0756-47c3-9ed5-66b3463704b9","system_id":"levelo_inurba_marseille","lat":43.330442,"lon":5.389148,"is_reserved":false,"is_disabled":false,"rental_uris":{"android":"levelo://app?vid=962d5882-0756-47c3-9ed5-66b3463704b9","ios":"levelo://app?vid=962d5882-0756-47c3-9ed5-66b3463704b9"},"vehicle_type_id":"4","last_reported":1678655175,"current_range_meters":0,"station_id":"ce4bhr92rcd13ifvqhrg","pricing_plan_id":"free"},{"bike_id":"ec867014-d7c3-49d0-a94e-f547d31edc02","system_id":"levelo_inurba_marseille","lat":43.33046,"lon":5.3892,"is_reserved":false,"is_disabled":false,"rental_uris":{"android":"levelo://app?vid=ec867014-d7c3-49d0-a94e-f547d31edc02","ios":"levelo://app?vid=ec867014-d7c3-49d0-a94e-f547d31edc02"},"vehicle_type_id":"4","last_reported":1678655175,"current_range_meters":0,"station_id":"","pricing_plan_id":"free"},{"bike_id":"1a562bd8-3e0d-4de5-813c-5900e5a5230a","system_id":"levelo_inurba_marseille","lat":43.290988,"lon":5.381373,"is_reserved":false,"is_disabled":false,"rental_uris":{"android":"levelo://app?vid=1a562bd8-3e0d-4de5-813c-5900e5a5230a","ios":"levelo://app?vid=1a562bd8-3e0d-4de5-813c-5900e5a5230a"},"vehicle_type_id":"4","last_reported":1678655175,"current_range_meters":13600,"station_id":"ce4bh512rcd13ifvqe2g","pricing_plan_id":"free"},{"bike_id":"fb410497-0f63-480f-a217-04c1db5ae8e4","system_id":"levelo_inurba_marseille","lat":43.290953,"lon":5.381407,"is_reserved":false,"is_disabled":false,"rental_uris":{"android":"levelo://app?vid=fb410497-0f63-480f-a217-04c1db5ae8e4","ios":"levelo://app?vid=fb410497-0f63-480f-a217-04c1db5ae8e4"},"vehicle_type_id":"4","last_reported":1678655175,"current_range_meters":0,"station_id":"ce4bh512rcd13ifvqe2g","pricing_plan_id":"free"},{"bike_id":"2ff2ef3a-07d2-42ee-874d-ad1e13c7a30d","system_id":"levelo_inurba_marseille","lat":43.29095,"lon":5.381462,"is_reserved":false,"is_disabled":false,"rental_uris":{"android":"levelo://app?vid=2ff2ef3a-07d2-42ee-874d-ad1e13c7a30d","ios":"levelo://app?vid=2ff2ef3a-07d2-42ee-874d-ad1e13c7a30d"},"vehicle_type_id":"4","last_reported":1678655175,"current_range_meters":0,"station_id":"ce4bh512rcd13ifvqe2g","pricing_plan_id":"free"},{"bike_id":"3c5a2b77-eea9-4b72-8bd0-5483ae50962f","system_id":"levelo_inurba_marseille","lat":43.295169,"lon":5.390426,"is_reserved":false,"is_disabled":false,"rental_uris":{"android":"levelo://app?vid=3c5a2b77-eea9-4b72-8bd0-5483ae50962f","ios":"levelo://app?vid=3c5a2b77-eea9-4b72-8bd0-5483ae50962f"},"vehicle_type_id":"4","last_reported":1678655175,"current_range_meters":12800,"station_id":"ce4bh3p2rcd13ifvqdp0","pricing_plan_id":"free"},{"bike_id":"ce945cd0-d5c5-4376-9665-91a58638b8f9","system_id":"levelo_inurba_marseille","lat":43.295169,"lon":5.390426,"is_reserved":false,"is_disabled":false,"rental_uris":{"android":"levelo://app?vid=ce945cd0-d5c5-4376-9665-91a58638b8f9","ios":"levelo://app?vid=ce945cd0-d5c5-4376-9665-91a58638b8f9"},"vehicle_type_id":"4","last_reported":1678655175,"current_range_meters":7600,"station_id":"ce4bh3p2rcd13ifvqdp0","pricing_plan_id":"free"},{"bike_id":"de4540ac-e20c-4fc0-9f99-8f8d1c2a3c7f","system_id":"levelo_inurba_marseille","lat":43.295169,"lon":5.390426,"is_reserved":false,"is_disabled":false,"rental_uris":{"android":"levelo://app?vid=de4540ac-e20c-4fc0-9f99-8f8d1c2a3c7f","ios":"levelo://app?vid=de4540ac-e20c-4fc0-9f99-8f8d1c2a3c7f"},"vehicle_type_id":"4","last_reported":1678655175,"current_range_meters":23600,"station_id":"ce4bh3p2rcd13ifvqdp0","pricing_plan_id":"free"},{"bike_id":"14211f2b-4a5f-4680-bace-010d27d47cff","system_id":"levelo_inurba_marseille","lat":43.295169,"lon":5.390426,"is_reserved":false,"is_disabled":false,"rental_uris":{"android":"levelo://app?vid=14211f2b-4a5f-4680-bace-010d27d47cff","ios":"levelo://app?vid=14211f2b-4a5f-4680-bace-010d27d47cff"},"vehicle_type_id":"4","last_reported":1678655175,"current_range_meters":21200,"station_id":"ce4bh3p2rcd13ifvqdp0","pricing_plan_id":"free"},{"bike_id":"beb7f694-aff9-4bfd-a276-bef8cb87b233","system_id":"levelo_inurba_marseille","lat":43.295169,"lon":5.390426,"is_reserved":false,"is_disabled":false,"rental_uris":{"android":"levelo://app?vid=beb7f694-aff9-4bfd-a276-bef8cb87b233","ios":"levelo://app?vid=beb7f694-aff9-4bfd-a276-bef8cb87b233"},"vehicle_type_id":"4","last_reported":1678655175,"current_range_meters":32000,"station_id":"ce4bh3p2rcd13ifvqdp0","pricing_plan_id":"free"},{"bike_id":"4dc90ec2-a273-4bcd-ae7f-a09b944c838b","system_id":"levelo_inurba_marseille","lat":43.295169,"lon":5.390426,"is_reserved":false,"is_disabled":false,"rental_uris":{"android":"levelo://app?vid=4dc90ec2-a273-4bcd-ae7f-a09b944c838b","ios":"levelo://app?vid=4dc90ec2-a273-4bcd-ae7f-a09b944c838b"},"vehicle_type_id":"4","last_reported":1678655175,"current_range_meters":11600,"station_id":"ce4bh3p2rcd13ifvqdp0","pricing_plan_id":"free"},{"bike_id":"b24d323a-da65-4e78-aede-60e15c2276fc","system_id":"levelo_inurba_marseille","lat":43.29173,"lon":5.38491,"is_reserved":false,"is_disabled":false,"rental_uris":{"android":"levelo://app?vid=b24d323a-da65-4e78-aede-60e15c2276fc","ios":"levelo://app?vid=b24d323a-da65-4e78-aede-60e15c2276fc"},"vehicle_type_id":"4","last_reported":1678655175,"current_range_meters":13200,"station_id":"ce4bh4p2rcd13ifvqe0g","pricing_plan_id":"free"},{"bike_id":"7ec322c6-f8b9-4f82-ae38-798351da813c","system_id":"levelo_inurba_marseille","lat":43.28852,"lon":5.358483,"is_reserved":false,"is_disabled":false,"rental_uris":{"android":"levelo://app?vid=7ec322c6-f8b9-4f82-ae38-798351da813c","ios":"levelo://app?vid=7ec322c6-f8b9-4f82-ae38-798351da813c"},"vehicle_type_id":"4","last_reported":1678655175,"current_range_meters":5600,"station_id":"ce4bhb12rcd13ifvqem0","pricing_plan_id":"free"},{"bike_id":"548b4f4a-a347-4836-8374-6dc1df2c6e2d","system_id":"levelo_inurba_marseille","lat":43.28849,"lon":5.35847,"is_reserved":false,"is_disabled":false,"rental_uris":{"android":"levelo://app?vid=548b4f4a-a347-4836-8374-6dc1df2c6e2d","ios":"levelo://app?vid=548b4f4a-a347-4836-8374-6dc1df2c6e2d"},"vehicle_type_id":"4","last_reported":1678655175,"current_range_meters":15200,"station_id":"ce4bhb12rcd13ifvqem0","pricing_plan_id":"free"},{"bike_id":"660ea1e9-ea79-48e7-b374-e0c746811faa","system_id":"levelo_inurba_marseille","lat":43.28856,"lon":5.358371,"is_reserved":false,"is_disabled":false,"rental_uris":{"android":"levelo://app?vid=660ea1e9-ea79-48e7-b374-e0c746811faa","ios":"levelo://app?vid=660ea1e9-ea79-48e7-b374-e0c746811faa"},"vehicle_type_id":"4","last_reported":1678655175,"current_range_meters":3200,"station_id":"ce4bhb12rcd13ifvqem0","pricing_plan_id":"free"},{"bike_id":"6785c485-fde6-4128-b5fb-56d98af1442f","system_id":"levelo_inurba_marseille","lat":43.30642,"lon":5.401031,"is_reserved":false,"is_disabled":false,"rental_uris":{"android":"levelo://app?vid=6785c485-fde6-4128-b5fb-56d98af1442f","ios":"levelo://app?vid=6785c485-fde6-4128-b5fb-56d98af1442f"},"vehicle_type_id":"4","last_reported":1678655175,"current_range_meters":13200,"station_id":"ce4bh112rcd13ifvqda0","pricing_plan_id":"free"},{"bike_id":"fa8d4f2f-d4b7-4543-a4f8-a5dea8dec165","system_id":"levelo_inurba_marseille","lat":43.30642,"lon":5.401031,"is_reserved":false,"is_disabled":false,"rental_uris":{"android":"levelo://app?vid=fa8d4f2f-d4b7-4543-a4f8-a5dea8dec165","ios":"levelo://app?vid=fa8d4f2f-d4b7-4543-a4f8-a5dea8dec165"},"vehicle_type_id":"4","last_reported":1678655175,"current_range_meters":1200,"station_id":"ce4bh112rcd13ifvqda0","pricing_plan_id":"free"},{"bike_id":"668bfe00-daa4-4575-869a-2cdfaff24d6a","system_id":"levelo_inurba_marseille","lat":43.30642,"lon":5.401031,"is_reserved":false,"is_disabled":false,"rental_uris":{"android":"levelo://app?vid=668bfe00-daa4-4575-869a-2cdfaff24d6a","ios":"levelo://app?vid=668bfe00-daa4-4575-869a-2cdfaff24d6a"},"vehicle_type_id":"4","last_reported":1678655175,"current_range_meters":6800,"station_id":"ce4bh112rcd13ifvqda0","pricing_plan_id":"free"},{"bike_id":"f3cd1444-e7be-4cb4-85fc-0f0841a35afb","system_id":"levelo_inurba_marseille","lat":43.30642,"lon":5.401031,"is_reserved":false,"is_disabled":false,"rental_uris":{"android":"levelo://app?vid=f3cd1444-e7be-4cb4-85fc-0f0841a35afb","ios":"levelo://app?vid=f3cd1444-e7be-4cb4-85fc-0f0841a35afb"},"vehicle_type_id":"4","last_reported":1678655175,"current_range_meters":0,"station_id":"ce4bh112rcd13ifvqda0","pricing_plan_id":"free"},{"bike_id":"792cb8d7-ea82-4b36-8145-2020e1907930","system_id":"levelo_inurba_marseille","lat":43.30642,"lon":5.401031,"is_reserved":false,"is_disabled":false,"rental_uris":{"android":"levelo://app?vid=792cb8d7-ea82-4b36-8145-2020e1907930","ios":"levelo://app?vid=792cb8d7-ea82-4b36-8145-2020e1907930"},"vehicle_type_id":"4","last_reported":1678655175,"current_range_meters":5200,"station_id":"ce4bh112rcd13ifvqda0","pricing_plan_id":"free"},{"bike_id":"f759bb27-4162-4568-8260-e181267a6c55","system_id":"levelo_inurba_marseille","lat":43.301117,"lon":5.398795,"is_reserved":false,"is_disabled":false,"rental_uris":{"android":"levelo://app?vid=f759bb27-4162-4568-8260-e181267a6c55","ios":"levelo://app?vid=f759bb27-4162-4568-8260-e181267a6c55"},"vehicle_type_id":"4","last_reported":1678655175,"current_range_meters":14400,"station_id":"ce4bh0h2rcd13ifvqd40","pricing_plan_id":"free"},{"bike_id":"f0adb541-1343-4fcf-a961-58067645773a","system_id":"levelo_inurba_marseille","lat":43.286593,"lon":5.363346,"is_reserved":false,"is_disabled":false,"rental_uris":{"android":"levelo://app?vid=f0adb541-1343-4fcf-a961-58067645773a","ios":"levelo://app?vid=f0adb541-1343-4fcf-a961-58067645773a"},"vehicle_type_id":"4","last_reported":1678655175,"current_range_meters":800,"station_id":"ce4bhah2rcd13ifvqej0","pricing_plan_id":"free"},{"bike_id":"b65eead5-6de8-4edf-a837-cf8d0954dd58","system_id":"levelo_inurba_marseille","lat":43.286593,"lon":5.363346,"is_reserved":false,"is_disabled":false,"rental_uris":{"android":"levelo://app?vid=b65eead5-6de8-4edf-a837-cf8d0954dd58","ios":"levelo://app?vid=b65eead5-6de8-4edf-a837-cf8d0954dd58"},"vehicle_type_id":"4","last_reported":1678655175,"current_range_meters":0,"station_id":"ce4bhah2rcd13ifvqej0","pricing_plan_id":"free"},{"bike_id":"44bc1d77-8cdc-421f-b68a-c1fa10da1014","system_id":"levelo_inurba_marseille","lat":43.298681,"lon":5.397225,"is_reserved":false,"is_disabled":false,"rental_uris":{"android":"levelo://app?vid=44bc1d77-8cdc-421f-b68a-c1fa10da1014","ios":"levelo://app?vid=44bc1d77-8cdc-421f-b68a-c1fa10da1014"},"vehicle_type_id":"4","last_reported":1678655175,"current_range_meters":1200,"station_id":"ce4bh0h2rcd13ifvqd50","pricing_plan_id":"free"},{"bike_id":"4cb2f82e-9bf8-4dbe-acd3-284268f214fe","system_id":"levelo_inurba_marseille","lat":43.295157,"lon":5.39405,"is_reserved":false,"is_disabled":false,"rental_uris":{"android":"levelo://app?vid=4cb2f82e-9bf8-4dbe-acd3-284268f214fe","ios":"levelo://app?vid=4cb2f82e-9bf8-4dbe-acd3-284268f214fe"},"vehicle_type_id":"4","last_reported":1678655175,"current_range_meters":2000,"station_id":"ce4bh212rcd13ifvqde0","pricing_plan_id":"free"},{"bike_id":"5455623a-0782-4cc1-a753-c10cdd5279c8","system_id":"levelo_inurba_marseille","lat":43.29517,"lon":5.39416,"is_reserved":false,"is_disabled":false,"rental_uris":{"android":"levelo://app?vid=5455623a-0782-4cc1-a753-c10cdd5279c8","ios":"levelo://app?vid=5455623a-0782-4cc1-a753-c10cdd5279c8"},"vehicle_type_id":"4","last_reported":1678655175,"current_range_meters":20800,"station_id":"ce4bh212rcd13ifvqde0","pricing_plan_id":"free"},{"bike_id":"533dda80-4390-4abc-8166-fa703bc703a6","system_id":"levelo_inurba_marseille","lat":43.29036,"lon":5.38641,"is_reserved":false,"is_disabled":false,"rental_uris":{"android":"levelo://app?vid=533dda80-4390-4abc-8166-fa703bc703a6","ios":"levelo://app?vid=533dda80-4390-4abc-8166-fa703bc703a6"},"vehicle_type_id":"4","last_reported":1678655175,"current_range_meters":0,"station_id":"","pricing_plan_id":"free"},{"bike_id":"a14075bd-46c3-4a03-a85d-32dc25e1b64c","system_id":"levelo_inurba_marseille","lat":43.29038,"lon":5.386483,"is_reserved":false,"is_disabled":false,"rental_uris":{"android":"levelo://app?vid=a14075bd-46c3-4a03-a85d-32dc25e1b64c","ios":"levelo://app?vid=a14075bd-46c3-4a03-a85d-32dc25e1b64c"},"vehicle_type_id":"4","last_reported":1678655175,"current_range_meters":0,"station_id":"ce4bh4p2rcd13ifvqe0g","pricing_plan_id":"free"},{"bike_id":"6e439261-4db9-460c-8c38-cc2139739253","system_id":"levelo_inurba_marseille","lat":43.302759,"lon":5.400793,"is_reserved":false,"is_disabled":false,"rental_uris":{"android":"levelo://app?vid=6e439261-4db9-460c-8c38-cc2139739253","ios":"levelo://app?vid=6e439261-4db9-460c-8c38-cc2139739253"},"vehicle_type_id":"4","last_reported":1678655175,"current_range_meters":26000,"station_id":"ce4bgvh2rcd13ifvqcs0","pricing_plan_id":"free"},{"bike_id":"d5c10db3-12a4-4936-a340-ea7c637e400b","system_id":"levelo_inurba_marseille","lat":43.290313,"lon":5.386465,"is_reserved":false,"is_disabled":false,"rental_uris":{"android":"levelo://app?vid=d5c10db3-12a4-4936-a340-ea7c637e400b","ios":"levelo://app?vid=d5c10db3-12a4-4936-a340-ea7c637e400b"},"vehicle_type_id":"4","last_reported":1678655175,"current_range_meters":27200,"station_id":"ce4bh4p2rcd13ifvqe0g","pricing_plan_id":"free"},{"bike_id":"5325e597-6a87-4e68-9b46-9b3c8cc26742","system_id":"levelo_inurba_marseille","lat":43.302696,"lon":5.400742,"is_reserved":false,"is_disabled":false,"rental_uris":{"android":"levelo://app?vid=5325e597-6a87-4e68-9b46-9b3c8cc26742","ios":"levelo://app?vid=5325e597-6a87-4e68-9b46-9b3c8cc26742"},"vehicle_type_id":"4","last_reported":1678655175,"current_range_meters":18800,"station_id":"","pricing_plan_id":"free"},{"bike_id":"67a7ba44-7953-48b5-85af-9f3005e692ef","system_id":"levelo_inurba_marseille","lat":43.29027,"lon":5.38647,"is_reserved":false,"is_disabled":false,"rental_uris":{"android":"levelo://app?vid=67a7ba44-7953-48b5-85af-9f3005e692ef","ios":"levelo://app?vid=67a7ba44-7953-48b5-85af-9f3005e692ef"},"vehicle_type_id":"4","last_reported":1678655175,"current_range_meters":28800,"station_id":"ce4bh4p2rcd13ifvqe0g","pricing_plan_id":"free"},{"bike_id":"a1c2a6b7-054f-4bd4-b36b-3bd14bea6bcc","system_id":"levelo_inurba_marseille","lat":43.302759,"lon":5.400793,"is_reserved":false,"is_disabled":false,"rental_uris":{"android":"levelo://app?vid=a1c2a6b7-054f-4bd4-b36b-3bd14bea6bcc","ios":"levelo://app?vid=a1c2a6b7-054f-4bd4-b36b-3bd14bea6bcc"},"vehicle_type_id":"4","last_reported":1678655175,"current_range_meters":8400,"station_id":"ce4bgvh2rcd13ifvqcs0","pricing_plan_id":"free"},{"bike_id":"60bdbea3-859c-45b3-8592-7e4457723486","system_id":"levelo_inurba_marseille","lat":43.29021,"lon":5.38645,"is_reserved":false,"is_disabled":false,"rental_uris":{"android":"levelo://app?vid=60bdbea3-859c-45b3-8592-7e4457723486","ios":"levelo://app?vid=60bdbea3-859c-45b3-8592-7e4457723486"},"vehicle_type_id":"4","last_reported":1678655175,"current_range_meters":21600,"station_id":"ce4bh4p2rcd13ifvqe0g","pricing_plan_id":"free"},{"bike_id":"522b6ed9-5c94-430c-b396-6ce99ea00cf5","system_id":"levelo_inurba_marseille","lat":43.302759,"lon":5.400793,"is_reserved":false,"is_disabled":false,"rental_uris":{"android":"levelo://app?vid=522b6ed9-5c94-430c-b396-6ce99ea00cf5","ios":"levelo://app?vid=522b6ed9-5c94-430c-b396-6ce99ea00cf5"},"vehicle_type_id":"4","last_reported":1678655175,"current_range_meters":4000,"station_id":"ce4bgvh2rcd13ifvqcs0","pricing_plan_id":"free"},{"bike_id":"fac0a16e-ee50-4f09-a8b5-3f19285763af","system_id":"levelo_inurba_marseille","lat":43.286039,"lon":5.370681,"is_reserved":false,"is_disabled":false,"rental_uris":{"android":"levelo://app?vid=fac0a16e-ee50-4f09-a8b5-3f19285763af","ios":"levelo://app?vid=fac0a16e-ee50-4f09-a8b5-3f19285763af"},"vehicle_type_id":"4","last_reported":1678655175,"current_range_meters":0,"station_id":"ce4bht12rcd13ifvqi60","pricing_plan_id":"free"},{"bike_id":"da49e252-a807-4b3f-8e7a-89a8f7e80b16","system_id":"levelo_inurba_marseille","lat":43.316517,"lon":5.404375,"is_reserved":false,"is_disabled":false,"rental_uris":{"android":"levelo://app?vid=da49e252-a807-4b3f-8e7a-89a8f7e80b16","ios":"levelo://app?vid=da49e252-a807-4b3f-8e7a-89a8f7e80b16"},"vehicle_type_id":"4","last_reported":1678655175,"current_range_meters":0,"station_id":"ce4bh012rcd13ifvqd00","pricing_plan_id":"free"},{"bike_id":"b58f9477-0a69-46de-9892-5e2eec42e45c","system_id":"levelo_inurba_marseille","lat":43.286016,"lon":5.353368,"is_reserved":false,"is_disabled":false,"rental_uris":{"android":"levelo://app?vid=b58f9477-0a69-46de-9892-5e2eec42e45c","ios":"levelo://app?vid=b58f9477-0a69-46de-9892-5e2eec42e45c"},"vehicle_type_id":"4","last_reported":1678655175,"current_range_meters":0,"station_id":"","pricing_plan_id":"free"},{"bike_id":"3e2126ee-0211-4208-802b-f2fbad65e601","system_id":"levelo_inurba_marseille","lat":43.284534,"lon":5.358662,"is_reserved":false,"is_disabled":false,"rental_uris":{"android":"levelo://app?vid=3e2126ee-0211-4208-802b-f2fbad65e601","ios":"levelo://app?vid=3e2126ee-0211-4208-802b-f2fbad65e601"},"vehicle_type_id":"4","last_reported":1678655175,"current_range_meters":10400,"station_id":"ce4bhah2rcd13ifvqei0","pricing_plan_id":"free"},{"bike_id":"b1ef9f17-6a37-4609-9316-0d29903e6c7c","system_id":"levelo_inurba_marseille","lat":43.284534,"lon":5.358662,"is_reserved":false,"is_disabled":false,"rental_uris":{"android":"levelo://app?vid=b1ef9f17-6a37-4609-9316-0d29903e6c7c","ios":"levelo://app?vid=b1ef9f17-6a37-4609-9316-0d29903e6c7c"},"vehicle_type_id":"4","last_reported":1678655175,"current_range_meters":3600,"station_id":"ce4bhah2rcd13ifvqei0","pricing_plan_id":"free"},{"bike_id":"2c392f95-7b8e-4557-b0c0-b421da857efe","system_id":"levelo_inurba_marseille","lat":43.284534,"lon":5.358662,"is_reserved":false,"is_disabled":false,"rental_uris":{"android":"levelo://app?vid=2c392f95-7b8e-4557-b0c0-b421da857efe","ios":"levelo://app?vid=2c392f95-7b8e-4557-b0c0-b421da857efe"},"vehicle_type_id":"4","last_reported":1678655175,"current_range_meters":13600,"station_id":"ce4bhah2rcd13ifvqei0","pricing_plan_id":"free"},{"bike_id":"757265b1-f2f1-4ba0-a638-29463a108660","system_id":"levelo_inurba_marseille","lat":43.284621,"lon":5.358883,"is_reserved":false,"is_disabled":false,"rental_uris":{"android":"levelo://app?vid=757265b1-f2f1-4ba0-a638-29463a108660","ios":"levelo://app?vid=757265b1-f2f1-4ba0-a638-29463a108660"},"vehicle_type_id":"4","last_reported":1678655175,"current_range_meters":4400,"station_id":"ce4bhah2rcd13ifvqei0","pricing_plan_id":"free"},{"bike_id":"25bd2a49-275f-46bd-8b54-41baf0f1bd0a","system_id":"levelo_inurba_marseille","lat":43.29263,"lon":5.39867,"is_reserved":false,"is_disabled":false,"rental_uris":{"android":"levelo://app?vid=25bd2a49-275f-46bd-8b54-41baf0f1bd0a","ios":"levelo://app?vid=25bd2a49-275f-46bd-8b54-41baf0f1bd0a"},"vehicle_type_id":"4","last_reported":1678655175,"current_range_meters":21200,"station_id":"ce4bhh12rcd13ifvqfg0","pricing_plan_id":"free"},{"bike_id":"02a6ccb8-5282-4ed4-a5b4-a424c051515d","system_id":"levelo_inurba_marseille","lat":43.292724,"lon":5.401131,"is_reserved":false,"is_disabled":false,"rental_uris":{"android":"levelo://app?vid=02a6ccb8-5282-4ed4-a5b4-a424c051515d","ios":"levelo://app?vid=02a6ccb8-5282-4ed4-a5b4-a424c051515d"},"vehicle_type_id":"4","last_reported":1678655175,"current_range_meters":1600,"station_id":"ce4bh312rcd13ifvqdk0","pricing_plan_id":"free"},{"bike_id":"78198b20-3f66-4f63-9669-6e0a22505395","system_id":"levelo_inurba_marseille","lat":43.283502,"lon":5.386471,"is_reserved":false,"is_disabled":false,"rental_uris":{"android":"levelo://app?vid=78198b20-3f66-4f63-9669-6e0a22505395","ios":"levelo://app?vid=78198b20-3f66-4f63-9669-6e0a22505395"},"vehicle_type_id":"4","last_reported":1678655175,"current_range_meters":4400,"station_id":"ce4bh492rcd13ifvqdvg","pricing_plan_id":"free"},{"bike_id":"515ff452-ae9b-4050-b17f-41093d4b8871","system_id":"levelo_inurba_marseille","lat":43.28273,"lon":5.35059,"is_reserved":false,"is_disabled":false,"rental_uris":{"android":"levelo://app?vid=515ff452-ae9b-4050-b17f-41093d4b8871","ios":"levelo://app?vid=515ff452-ae9b-4050-b17f-41093d4b8871"},"vehicle_type_id":"4","last_reported":1678655175,"current_range_meters":14800,"station_id":"ce4bhbp2rcd13ifvqerg","pricing_plan_id":"free"},{"bike_id":"97f4ef61-194c-461a-8ed8-dd068d03ff1b","system_id":"levelo_inurba_marseille","lat":43.282744,"lon":5.350533,"is_reserved":false,"is_disabled":false,"rental_uris":{"android":"levelo://app?vid=97f4ef61-194c-461a-8ed8-dd068d03ff1b","ios":"levelo://app?vid=97f4ef61-194c-461a-8ed8-dd068d03ff1b"},"vehicle_type_id":"4","last_reported":1678655175,"current_range_meters":31200,"station_id":"ce4bhbp2rcd13ifvqerg","pricing_plan_id":"free"},{"bike_id":"8bdb4c29-b9e6-4b9e-9152-7de14c0eb705","system_id":"levelo_inurba_marseille","lat":43.28039,"lon":5.369297,"is_reserved":false,"is_disabled":false,"rental_uris":{"android":"levelo://app?vid=8bdb4c29-b9e6-4b9e-9152-7de14c0eb705","ios":"levelo://app?vid=8bdb4c29-b9e6-4b9e-9152-7de14c0eb705"},"vehicle_type_id":"4","last_reported":1678655175,"current_range_meters":22800,"station_id":"ce4bha12rcd13ifvqef0","pricing_plan_id":"free"},{"bike_id":"32da4d79-7e2e-452d-9fb2-2cf72e4506c1","system_id":"levelo_inurba_marseille","lat":43.280382,"lon":5.369291,"is_reserved":false,"is_disabled":false,"rental_uris":{"android":"levelo://app?vid=32da4d79-7e2e-452d-9fb2-2cf72e4506c1","ios":"levelo://app?vid=32da4d79-7e2e-452d-9fb2-2cf72e4506c1"},"vehicle_type_id":"4","last_reported":1678655175,"current_range_meters":400,"station_id":"ce4bha12rcd13ifvqef0","pricing_plan_id":"free"},{"bike_id":"2a9cc725-5c32-4876-98dd-4d58db195b68","system_id":"levelo_inurba_marseille","lat":43.29049,"lon":5.39962,"is_reserved":false,"is_disabled":false,"rental_uris":{"android":"levelo://app?vid=2a9cc725-5c32-4876-98dd-4d58db195b68","ios":"levelo://app?vid=2a9cc725-5c32-4876-98dd-4d58db195b68"},"vehicle_type_id":"4","last_reported":1678655175,"current_range_meters":1600,"station_id":"ce4bh392rcd13ifvqdm0","pricing_plan_id":"free"},{"bike_id":"5b7c8769-ff77-4ca8-8319-0dc70f192bb4","system_id":"levelo_inurba_marseille","lat":43.28107,"lon":5.37826,"is_reserved":false,"is_disabled":false,"rental_uris":{"android":"levelo://app?vid=5b7c8769-ff77-4ca8-8319-0dc70f192bb4","ios":"levelo://app?vid=5b7c8769-ff77-4ca8-8319-0dc70f192bb4"},"vehicle_type_id":"4","last_reported":1678655175,"current_range_meters":13600,"station_id":"ce4bha12rcd13ifvqee0","pricing_plan_id":"free"},{"bike_id":"37e09805-e12f-4d24-9ec9-152a8fc34efa","system_id":"levelo_inurba_marseille","lat":43.28108,"lon":5.37842,"is_reserved":false,"is_disabled":false,"rental_uris":{"android":"levelo://app?vid=37e09805-e12f-4d24-9ec9-152a8fc34efa","ios":"levelo://app?vid=37e09805-e12f-4d24-9ec9-152a8fc34efa"},"vehicle_type_id":"4","last_reported":1678655175,"current_range_meters":0,"station_id":"","pricing_plan_id":"free"},{"bike_id":"f43302ed-a77d-47db-b901-2a6e6f6449d4","system_id":"levelo_inurba_marseille","lat":43.28108,"lon":5.37847,"is_reserved":false,"is_disabled":false,"rental_uris":{"android":"levelo://app?vid=f43302ed-a77d-47db-b901-2a6e6f6449d4","ios":"levelo://app?vid=f43302ed-a77d-47db-b901-2a6e6f6449d4"},"vehicle_type_id":"4","last_reported":1678655175,"current_range_meters":6400,"station_id":"ce4bha12rcd13ifvqee0","pricing_plan_id":"free"},{"bike_id":"0cd36548-0cb8-4333-bc36-fb5b85c22d38","system_id":"levelo_inurba_marseille","lat":43.28106,"lon":5.37842,"is_reserved":false,"is_disabled":false,"rental_uris":{"android":"levelo://app?vid=0cd36548-0cb8-4333-bc36-fb5b85c22d38","ios":"levelo://app?vid=0cd36548-0cb8-4333-bc36-fb5b85c22d38"},"vehicle_type_id":"4","last_reported":1678655175,"current_range_meters":0,"station_id":"","pricing_plan_id":"free"},{"bike_id":"05c3e4d6-3a7c-4be0-a589-8659a05819a3","system_id":"levelo_inurba_marseille","lat":43.296263,"lon":5.40601,"is_reserved":false,"is_disabled":false,"rental_uris":{"android":"levelo://app?vid=05c3e4d6-3a7c-4be0-a589-8659a05819a3","ios":"levelo://app?vid=05c3e4d6-3a7c-4be0-a589-8659a05819a3"},"vehicle_type_id":"4","last_reported":1678655175,"current_range_meters":6800,"station_id":"ce4bh0h2rcd13ifvqd60","pricing_plan_id":"free"},{"bike_id":"d1270b0d-a04f-4ea1-bf54-d8c728217dd5","system_id":"levelo_inurba_marseille","lat":43.28106,"lon":5.37848,"is_reserved":false,"is_disabled":false,"rental_uris":{"android":"levelo://app?vid=d1270b0d-a04f-4ea1-bf54-d8c728217dd5","ios":"levelo://app?vid=d1270b0d-a04f-4ea1-bf54-d8c728217dd5"},"vehicle_type_id":"4","last_reported":1678655175,"current_range_meters":2000,"station_id":"","pricing_plan_id":"free"},{"bike_id":"dcddc113-e671-4ed1-9e83-8c8857f48f7c","system_id":"levelo_inurba_marseille","lat":43.281044,"lon":5.378308,"is_reserved":false,"is_disabled":false,"rental_uris":{"android":"levelo://app?vid=dcddc113-e671-4ed1-9e83-8c8857f48f7c","ios":"levelo://app?vid=dcddc113-e671-4ed1-9e83-8c8857f48f7c"},"vehicle_type_id":"4","last_reported":1678655175,"current_range_meters":7200,"station_id":"ce4bha12rcd13ifvqee0","pricing_plan_id":"free"},{"bike_id":"75cab41a-ebdb-4532-bb45-cfdf6145332a","system_id":"levelo_inurba_marseille","lat":43.296263,"lon":5.40601,"is_reserved":false,"is_disabled":false,"rental_uris":{"android":"levelo://app?vid=75cab41a-ebdb-4532-bb45-cfdf6145332a","ios":"levelo://app?vid=75cab41a-ebdb-4532-bb45-cfdf6145332a"},"vehicle_type_id":"4","last_reported":1678655175,"current_range_meters":4000,"station_id":"ce4bh0h2rcd13ifvqd60","pricing_plan_id":"free"},{"bike_id":"df2b700b-7bba-4568-8776-f5cf3e525c39","system_id":"levelo_inurba_marseille","lat":43.28448,"lon":5.39203,"is_reserved":false,"is_disabled":false,"rental_uris":{"android":"levelo://app?vid=df2b700b-7bba-4568-8776-f5cf3e525c39","ios":"levelo://app?vid=df2b700b-7bba-4568-8776-f5cf3e525c39"},"vehicle_type_id":"4","last_reported":1678655175,"current_range_meters":18800,"station_id":"ce4bhoh2rcd13ifvqh5g","pricing_plan_id":"free"},{"bike_id":"ecea2ae9-09c1-45ee-81f3-29bdfe7912a3","system_id":"levelo_inurba_marseille","lat":43.284462,"lon":5.392121,"is_reserved":false,"is_disabled":false,"rental_uris":{"android":"levelo://app?vid=ecea2ae9-09c1-45ee-81f3-29bdfe7912a3","ios":"levelo://app?vid=ecea2ae9-09c1-45ee-81f3-29bdfe7912a3"},"vehicle_type_id":"4","last_reported":1678655175,"current_range_meters":26800,"station_id":"ce4bhoh2rcd13ifvqh5g","pricing_plan_id":"free"},{"bike_id":"6392fec6-7ed0-457d-9ddf-5adbbee8be9c","system_id":"levelo_inurba_marseille","lat":43.30422,"lon":5.41287,"is_reserved":false,"is_disabled":false,"rental_uris":{"android":"levelo://app?vid=6392fec6-7ed0-457d-9ddf-5adbbee8be9c","ios":"levelo://app?vid=6392fec6-7ed0-457d-9ddf-5adbbee8be9c"},"vehicle_type_id":"4","last_reported":1678655175,"current_range_meters":2800,"station_id":"","pricing_plan_id":"free"},{"bike_id":"09a4ef4c-04df-4819-8f87-01776550ac7a","system_id":"levelo_inurba_marseille","lat":43.27976,"lon":5.38739,"is_reserved":false,"is_disabled":false,"rental_uris":{"android":"levelo://app?vid=09a4ef4c-04df-4819-8f87-01776550ac7a","ios":"levelo://app?vid=09a4ef4c-04df-4819-8f87-01776550ac7a"},"vehicle_type_id":"4","last_reported":1678655175,"current_range_meters":28800,"station_id":"","pricing_plan_id":"free"},{"bike_id":"f8f17234-bb4b-4d00-af03-f04d4622da05","system_id":"levelo_inurba_marseille","lat":43.320045,"lon":5.415048,"is_reserved":false,"is_disabled":false,"rental_uris":{"android":"levelo://app?vid=f8f17234-bb4b-4d00-af03-f04d4622da05","ios":"levelo://app?vid=f8f17234-bb4b-4d00-af03-f04d4622da05"},"vehicle_type_id":"4","last_reported":1678655175,"current_range_meters":0,"station_id":"ce4bhq92rcd13ifvqhkg","pricing_plan_id":"free"},{"bike_id":"8b15ab4a-9f26-40ee-b30a-7d1049be1f0b","system_id":"levelo_inurba_marseille","lat":43.292569,"lon":5.409107,"is_reserved":false,"is_disabled":false,"rental_uris":{"android":"levelo://app?vid=8b15ab4a-9f26-40ee-b30a-7d1049be1f0b","ios":"levelo://app?vid=8b15ab4a-9f26-40ee-b30a-7d1049be1f0b"},"vehicle_type_id":"4","last_reported":1678655175,"current_range_meters":23200,"station_id":"ce4bh192rcd13ifvqdc0","pricing_plan_id":"free"},{"bike_id":"95df217f-be48-4ded-87ff-33de22d94118","system_id":"levelo_inurba_marseille","lat":43.292569,"lon":5.409107,"is_reserved":false,"is_disabled":false,"rental_uris":{"android":"levelo://app?vid=95df217f-be48-4ded-87ff-33de22d94118","ios":"levelo://app?vid=95df217f-be48-4ded-87ff-33de22d94118"},"vehicle_type_id":"4","last_reported":1678655175,"current_range_meters":1600,"station_id":"ce4bh192rcd13ifvqdc0","pricing_plan_id":"free"},{"bike_id":"6a3b843b-b04b-4d5b-85eb-ea9ea1481fc5","system_id":"levelo_inurba_marseille","lat":43.292569,"lon":5.409107,"is_reserved":false,"is_disabled":false,"rental_uris":{"android":"levelo://app?vid=6a3b843b-b04b-4d5b-85eb-ea9ea1481fc5","ios":"levelo://app?vid=6a3b843b-b04b-4d5b-85eb-ea9ea1481fc5"},"vehicle_type_id":"4","last_reported":1678655175,"current_range_meters":6800,"station_id":"ce4bh192rcd13ifvqdc0","pricing_plan_id":"free"},{"bike_id":"168ab727-63d0-4118-a0df-08aa4433a039","system_id":"levelo_inurba_marseille","lat":43.292569,"lon":5.409107,"is_reserved":false,"is_disabled":false,"rental_uris":{"android":"levelo://app?vid=168ab727-63d0-4118-a0df-08aa4433a039","ios":"levelo://app?vid=168ab727-63d0-4118-a0df-08aa4433a039"},"vehicle_type_id":"4","last_reported":1678655175,"current_range_meters":1200,"station_id":"ce4bh192rcd13ifvqdc0","pricing_plan_id":"free"},{"bike_id":"cc341f43-f836-4396-a48e-30b0bce61b7f","system_id":"levelo_inurba_marseille","lat":43.325243,"lon":5.414326,"is_reserved":false,"is_disabled":false,"rental_uris":{"android":"levelo://app?vid=cc341f43-f836-4396-a48e-30b0bce61b7f","ios":"levelo://app?vid=cc341f43-f836-4396-a48e-30b0bce61b7f"},"vehicle_type_id":"4","last_reported":1678655175,"current_range_meters":16000,"station_id":"ce4bhq12rcd13ifvqhhg","pricing_plan_id":"free"},{"bike_id":"afd5f434-5135-405c-9971-08d68cd8384c","system_id":"levelo_inurba_marseille","lat":43.33516,"lon":5.41038,"is_reserved":false,"is_disabled":false,"rental_uris":{"android":"levelo://app?vid=afd5f434-5135-405c-9971-08d68cd8384c","ios":"levelo://app?vid=afd5f434-5135-405c-9971-08d68cd8384c"},"vehicle_type_id":"4","last_reported":1678655175,"current_range_meters":10400,"station_id":"","pricing_plan_id":"free"},{"bike_id":"52d7ccd7-01f8-4794-9316-01c5fa0c7385","system_id":"levelo_inurba_marseille","lat":43.27665,"lon":5.38862,"is_reserved":false,"is_disabled":false,"rental_uris":{"android":"levelo://app?vid=52d7ccd7-01f8-4794-9316-01c5fa0c7385","ios":"levelo://app?vid=52d7ccd7-01f8-4794-9316-01c5fa0c7385"},"vehicle_type_id":"4","last_reported":1678655175,"current_range_meters":31200,"station_id":"","pricing_plan_id":"free"},{"bike_id":"b544b3c7-5c76-4bed-81d8-94b5e645f108","system_id":"levelo_inurba_marseille","lat":43.27665,"lon":5.38877,"is_reserved":false,"is_disabled":false,"rental_uris":{"android":"levelo://app?vid=b544b3c7-5c76-4bed-81d8-94b5e645f108","ios":"levelo://app?vid=b544b3c7-5c76-4bed-81d8-94b5e645f108"},"vehicle_type_id":"4","last_reported":1678655175,"current_range_meters":4000,"station_id":"","pricing_plan_id":"free"},{"bike_id":"72573125-7a1e-4237-8011-233294fc93f7","system_id":"levelo_inurba_marseille","lat":43.29815,"lon":5.418,"is_reserved":false,"is_disabled":false,"rental_uris":{"android":"levelo://app?vid=72573125-7a1e-4237-8011-233294fc93f7","ios":"levelo://app?vid=72573125-7a1e-4237-8011-233294fc93f7"},"vehicle_type_id":"4","last_reported":1678655175,"current_range_meters":21200,"station_id":"","pricing_plan_id":"free"},{"bike_id":"06b475de-aeb0-43e5-9058-2847d8b61187","system_id":"levelo_inurba_marseille","lat":43.33477,"lon":5.41536,"is_reserved":false,"is_disabled":false,"rental_uris":{"android":"levelo://app?vid=06b475de-aeb0-43e5-9058-2847d8b61187","ios":"levelo://app?vid=06b475de-aeb0-43e5-9058-2847d8b61187"},"vehicle_type_id":"4","last_reported":1678655175,"current_range_meters":0,"station_id":"","pricing_plan_id":"free"},{"bike_id":"e02d7976-862a-4ea8-bbdd-e4266c905e02","system_id":"levelo_inurba_marseille","lat":43.31723,"lon":5.42396,"is_reserved":false,"is_disabled":false,"rental_uris":{"android":"levelo://app?vid=e02d7976-862a-4ea8-bbdd-e4266c905e02","ios":"levelo://app?vid=e02d7976-862a-4ea8-bbdd-e4266c905e02"},"vehicle_type_id":"4","last_reported":1678655175,"current_range_meters":2800,"station_id":"ce4bhp92rcd13ifvqhbg","pricing_plan_id":"free"},{"bike_id":"7e950919-70cd-49eb-88ef-a1aa9e3f473d","system_id":"levelo_inurba_marseille","lat":43.317121,"lon":5.423936,"is_reserved":false,"is_disabled":false,"rental_uris":{"android":"levelo://app?vid=7e950919-70cd-49eb-88ef-a1aa9e3f473d","ios":"levelo://app?vid=7e950919-70cd-49eb-88ef-a1aa9e3f473d"},"vehicle_type_id":"4","last_reported":1678655175,"current_range_meters":28000,"station_id":"ce4bhp92rcd13ifvqhbg","pricing_plan_id":"free"},{"bike_id":"d1ecd035-ad86-44f9-a0ca-9817e86b1643","system_id":"levelo_inurba_marseille","lat":43.27946,"lon":5.40432,"is_reserved":false,"is_disabled":false,"rental_uris":{"android":"levelo://app?vid=d1ecd035-ad86-44f9-a0ca-9817e86b1643","ios":"levelo://app?vid=d1ecd035-ad86-44f9-a0ca-9817e86b1643"},"vehicle_type_id":"4","last_reported":1678655175,"current_range_meters":17600,"station_id":"","pricing_plan_id":"free"},{"bike_id":"49d09dbf-d95c-4353-812b-9be45453d5cb","system_id":"levelo_inurba_marseille","lat":43.273125,"lon":5.390731,"is_reserved":false,"is_disabled":false,"rental_uris":{"android":"levelo://app?vid=49d09dbf-d95c-4353-812b-9be45453d5cb","ios":"levelo://app?vid=49d09dbf-d95c-4353-812b-9be45453d5cb"},"vehicle_type_id":"4","last_reported":1678655175,"current_range_meters":4400,"station_id":"ce4bhgp2rcd13ifvqfe0","pricing_plan_id":"free"},{"bike_id":"5cb6f945-d689-4374-910b-c2e7750db5c1","system_id":"levelo_inurba_marseille","lat":43.273125,"lon":5.390731,"is_reserved":false,"is_disabled":false,"rental_uris":{"android":"levelo://app?vid=5cb6f945-d689-4374-910b-c2e7750db5c1","ios":"levelo://app?vid=5cb6f945-d689-4374-910b-c2e7750db5c1"},"vehicle_type_id":"4","last_reported":1678655175,"current_range_meters":2800,"station_id":"ce4bhgp2rcd13ifvqfe0","pricing_plan_id":"free"},{"bike_id":"f0df274a-9ede-4afc-bece-70be2b7258ca","system_id":"levelo_inurba_marseille","lat":43.273183,"lon":5.390923,"is_reserved":false,"is_disabled":false,"rental_uris":{"android":"levelo://app?vid=f0df274a-9ede-4afc-bece-70be2b7258ca","ios":"levelo://app?vid=f0df274a-9ede-4afc-bece-70be2b7258ca"},"vehicle_type_id":"4","last_reported":1678655175,"current_range_meters":21600,"station_id":"","pricing_plan_id":"free"},{"bike_id":"366df649-dcd4-48d5-a554-baeb4357f08c","system_id":"levelo_inurba_marseille","lat":43.273147,"lon":5.39091,"is_reserved":false,"is_disabled":false,"rental_uris":{"android":"levelo://app?vid=366df649-dcd4-48d5-a554-baeb4357f08c","ios":"levelo://app?vid=366df649-dcd4-48d5-a554-baeb4357f08c"},"vehicle_type_id":"4","last_reported":1678655175,"current_range_meters":1200,"station_id":"","pricing_plan_id":"free"},{"bike_id":"63ff5044-02cb-4a37-bbc2-e6dbc3c2783c","system_id":"levelo_inurba_marseille","lat":43.27315,"lon":5.390953,"is_reserved":false,"is_disabled":false,"rental_uris":{"android":"levelo://app?vid=63ff5044-02cb-4a37-bbc2-e6dbc3c2783c","ios":"levelo://app?vid=63ff5044-02cb-4a37-bbc2-e6dbc3c2783c"},"vehicle_type_id":"4","last_reported":1678655175,"current_range_meters":6400,"station_id":"","pricing_plan_id":"free"},{"bike_id":"60981352-50a0-4f98-86ec-3f7f4a49b383","system_id":"levelo_inurba_marseille","lat":43.273153,"lon":5.39098,"is_reserved":false,"is_disabled":false,"rental_uris":{"android":"levelo://app?vid=60981352-50a0-4f98-86ec-3f7f4a49b383","ios":"levelo://app?vid=60981352-50a0-4f98-86ec-3f7f4a49b383"},"vehicle_type_id":"4","last_reported":1678655175,"current_range_meters":16000,"station_id":"","pricing_plan_id":"free"},{"bike_id":"d92dea5c-2770-4f5e-b78d-c1bce70279a9","system_id":"levelo_inurba_marseille","lat":43.27313,"lon":5.39092,"is_reserved":false,"is_disabled":false,"rental_uris":{"android":"levelo://app?vid=d92dea5c-2770-4f5e-b78d-c1bce70279a9","ios":"levelo://app?vid=d92dea5c-2770-4f5e-b78d-c1bce70279a9"},"vehicle_type_id":"4","last_reported":1678655175,"current_range_meters":2400,"station_id":"","pricing_plan_id":"free"},{"bike_id":"0138ac44-6a4b-43a4-8a0b-a324d03e370e","system_id":"levelo_inurba_marseille","lat":43.27312,"lon":5.39107,"is_reserved":false,"is_disabled":false,"rental_uris":{"android":"levelo://app?vid=0138ac44-6a4b-43a4-8a0b-a324d03e370e","ios":"levelo://app?vid=0138ac44-6a4b-43a4-8a0b-a324d03e370e"},"vehicle_type_id":"4","last_reported":1678655175,"current_range_meters":4400,"station_id":"","pricing_plan_id":"free"},{"bike_id":"dde78c3d-fcd5-46ca-9d74-a712e086117f","system_id":"levelo_inurba_marseille","lat":43.2731,"lon":5.39105,"is_reserved":false,"is_disabled":false,"rental_uris":{"android":"levelo://app?vid=dde78c3d-fcd5-46ca-9d74-a712e086117f","ios":"levelo://app?vid=dde78c3d-fcd5-46ca-9d74-a712e086117f"},"vehicle_type_id":"4","last_reported":1678655175,"current_range_meters":11200,"station_id":"","pricing_plan_id":"free"},{"bike_id":"d2223ce4-5d7f-49b5-9cd5-9199dbd3d671","system_id":"levelo_inurba_marseille","lat":43.304096,"lon":5.425385,"is_reserved":false,"is_disabled":false,"rental_uris":{"android":"levelo://app?vid=d2223ce4-5d7f-49b5-9cd5-9199dbd3d671","ios":"levelo://app?vid=d2223ce4-5d7f-49b5-9cd5-9199dbd3d671"},"vehicle_type_id":"4","last_reported":1678655175,"current_range_meters":13600,"station_id":"ce4bhoh2rcd13ifvqh6g","pricing_plan_id":"free"},{"bike_id":"09d1b7e1-107f-4e1f-993e-9bbf4b29caf5","system_id":"levelo_inurba_marseille","lat":43.295563,"lon":5.422817,"is_reserved":false,"is_disabled":false,"rental_uris":{"android":"levelo://app?vid=09d1b7e1-107f-4e1f-993e-9bbf4b29caf5","ios":"levelo://app?vid=09d1b7e1-107f-4e1f-993e-9bbf4b29caf5"},"vehicle_type_id":"4","last_reported":1678655175,"current_range_meters":26800,"station_id":"ce4bhph2rcd13ifvqhdg","pricing_plan_id":"free"},{"bike_id":"25c5a0cd-a2cd-4182-8cb5-43299ab1b8d6","system_id":"levelo_inurba_marseille","lat":43.29552,"lon":5.42282,"is_reserved":false,"is_disabled":false,"rental_uris":{"android":"levelo://app?vid=25c5a0cd-a2cd-4182-8cb5-43299ab1b8d6","ios":"levelo://app?vid=25c5a0cd-a2cd-4182-8cb5-43299ab1b8d6"},"vehicle_type_id":"4","last_reported":1678655175,"current_range_meters":5600,"station_id":"","pricing_plan_id":"free"},{"bike_id":"cdc0256b-b55e-4797-bd8e-442bc2063f0f","system_id":"levelo_inurba_marseille","lat":43.295523,"lon":5.422926,"is_reserved":false,"is_disabled":false,"rental_uris":{"android":"levelo://app?vid=cdc0256b-b55e-4797-bd8e-442bc2063f0f","ios":"levelo://app?vid=cdc0256b-b55e-4797-bd8e-442bc2063f0f"},"vehicle_type_id":"4","last_reported":1678655175,"current_range_meters":20400,"station_id":"ce4bhph2rcd13ifvqhdg","pricing_plan_id":"free"},{"bike_id":"0d59d3c1-4e2f-45c5-91da-86fa742ad0f6","system_id":"levelo_inurba_marseille","lat":43.29552,"lon":5.42283,"is_reserved":false,"is_disabled":false,"rental_uris":{"android":"levelo://app?vid=0d59d3c1-4e2f-45c5-91da-86fa742ad0f6","ios":"levelo://app?vid=0d59d3c1-4e2f-45c5-91da-86fa742ad0f6"},"vehicle_type_id":"4","last_reported":1678655175,"current_range_meters":25200,"station_id":"","pricing_plan_id":"free"},{"bike_id":"8bcee478-b047-4545-bc9a-f2ae418c9659","system_id":"levelo_inurba_marseille","lat":43.295523,"lon":5.422926,"is_reserved":false,"is_disabled":false,"rental_uris":{"android":"levelo://app?vid=8bcee478-b047-4545-bc9a-f2ae418c9659","ios":"levelo://app?vid=8bcee478-b047-4545-bc9a-f2ae418c9659"},"vehicle_type_id":"4","last_reported":1678655175,"current_range_meters":18800,"station_id":"ce4bhph2rcd13ifvqhdg","pricing_plan_id":"free"},{"bike_id":"2c293236-5ccd-462a-be3f-d68c4578fa49","system_id":"levelo_inurba_marseille","lat":43.29551,"lon":5.42285,"is_reserved":false,"is_disabled":false,"rental_uris":{"android":"levelo://app?vid=2c293236-5ccd-462a-be3f-d68c4578fa49","ios":"levelo://app?vid=2c293236-5ccd-462a-be3f-d68c4578fa49"},"vehicle_type_id":"4","last_reported":1678655175,"current_range_meters":22400,"station_id":"","pricing_plan_id":"free"},{"bike_id":"cb8fda6d-cd77-4bb1-9d8c-ccc580981c90","system_id":"levelo_inurba_marseille","lat":43.295523,"lon":5.422926,"is_reserved":false,"is_disabled":false,"rental_uris":{"android":"levelo://app?vid=cb8fda6d-cd77-4bb1-9d8c-ccc580981c90","ios":"levelo://app?vid=cb8fda6d-cd77-4bb1-9d8c-ccc580981c90"},"vehicle_type_id":"4","last_reported":1678655175,"current_range_meters":23200,"station_id":"ce4bhph2rcd13ifvqhdg","pricing_plan_id":"free"},{"bike_id":"67dc6dbb-1c34-4f73-8cd6-e42763cf071a","system_id":"levelo_inurba_marseille","lat":43.2955,"lon":5.42286,"is_reserved":false,"is_disabled":false,"rental_uris":{"android":"levelo://app?vid=67dc6dbb-1c34-4f73-8cd6-e42763cf071a","ios":"levelo://app?vid=67dc6dbb-1c34-4f73-8cd6-e42763cf071a"},"vehicle_type_id":"4","last_reported":1678655175,"current_range_meters":28000,"station_id":"ce4bhph2rcd13ifvqhdg","pricing_plan_id":"free"},{"bike_id":"4b240b52-d15a-4bed-9a52-9a61fd82c6a6","system_id":"levelo_inurba_marseille","lat":43.272124,"lon":5.391768,"is_reserved":false,"is_disabled":false,"rental_uris":{"android":"levelo://app?vid=4b240b52-d15a-4bed-9a52-9a61fd82c6a6","ios":"levelo://app?vid=4b240b52-d15a-4bed-9a52-9a61fd82c6a6"},"vehicle_type_id":"4","last_reported":1678655175,"current_range_meters":2400,"station_id":"ce4bhhp2rcd13ifvqfm0","pricing_plan_id":"free"},{"bike_id":"0cddfa29-913f-480b-b0ea-337fb2a81cde","system_id":"levelo_inurba_marseille","lat":43.272124,"lon":5.391768,"is_reserved":false,"is_disabled":false,"rental_uris":{"android":"levelo://app?vid=0cddfa29-913f-480b-b0ea-337fb2a81cde","ios":"levelo://app?vid=0cddfa29-913f-480b-b0ea-337fb2a81cde"},"vehicle_type_id":"4","last_reported":1678655175,"current_range_meters":30400,"station_id":"ce4bhhp2rcd13ifvqfm0","pricing_plan_id":"free"},{"bike_id":"3936826d-9a9a-4f4a-91c1-a1a432b77fe8","system_id":"levelo_inurba_marseille","lat":43.272124,"lon":5.391768,"is_reserved":false,"is_disabled":false,"rental_uris":{"android":"levelo://app?vid=3936826d-9a9a-4f4a-91c1-a1a432b77fe8","ios":"levelo://app?vid=3936826d-9a9a-4f4a-91c1-a1a432b77fe8"},"vehicle_type_id":"4","last_reported":1678655175,"current_range_meters":11600,"station_id":"ce4bhhp2rcd13ifvqfm0","pricing_plan_id":"free"},{"bike_id":"dcf023a5-ef26-472f-9473-a1596d84857c","system_id":"levelo_inurba_marseille","lat":43.272124,"lon":5.391768,"is_reserved":false,"is_disabled":false,"rental_uris":{"android":"levelo://app?vid=dcf023a5-ef26-472f-9473-a1596d84857c","ios":"levelo://app?vid=dcf023a5-ef26-472f-9473-a1596d84857c"},"vehicle_type_id":"4","last_reported":1678655175,"current_range_meters":11200,"station_id":"ce4bhhp2rcd13ifvqfm0","pricing_plan_id":"free"},{"bike_id":"0485cd4c-973a-40e1-97fd-5e9dbbe5848e","system_id":"levelo_inurba_marseille","lat":43.2721,"lon":5.39186,"is_reserved":false,"is_disabled":false,"rental_uris":{"android":"levelo://app?vid=0485cd4c-973a-40e1-97fd-5e9dbbe5848e","ios":"levelo://app?vid=0485cd4c-973a-40e1-97fd-5e9dbbe5848e"},"vehicle_type_id":"4","last_reported":1678655175,"current_range_meters":1200,"station_id":"","pricing_plan_id":"free"},{"bike_id":"aff93721-8e18-4b4e-964a-3ebcdaabcdff","system_id":"levelo_inurba_marseille","lat":43.27206,"lon":5.39185,"is_reserved":false,"is_disabled":false,"rental_uris":{"android":"levelo://app?vid=aff93721-8e18-4b4e-964a-3ebcdaabcdff","ios":"levelo://app?vid=aff93721-8e18-4b4e-964a-3ebcdaabcdff"},"vehicle_type_id":"4","last_reported":1678655175,"current_range_meters":2800,"station_id":"ce4bhhp2rcd13ifvqfm0","pricing_plan_id":"free"},{"bike_id":"318f620d-ae7d-4401-9674-7df2a2a8e103","system_id":"levelo_inurba_marseille","lat":43.272116,"lon":5.391763,"is_reserved":false,"is_disabled":false,"rental_uris":{"android":"levelo://app?vid=318f620d-ae7d-4401-9674-7df2a2a8e103","ios":"levelo://app?vid=318f620d-ae7d-4401-9674-7df2a2a8e103"},"vehicle_type_id":"4","last_reported":1678655175,"current_range_meters":0,"station_id":"ce4bhhp2rcd13ifvqfm0","pricing_plan_id":"free"},{"bike_id":"838345f2-2dd8-4916-bfc5-cf29f24e16cd","system_id":"levelo_inurba_marseille","lat":43.272124,"lon":5.391768,"is_reserved":false,"is_disabled":false,"rental_uris":{"android":"levelo://app?vid=838345f2-2dd8-4916-bfc5-cf29f24e16cd","ios":"levelo://app?vid=838345f2-2dd8-4916-bfc5-cf29f24e16cd"},"vehicle_type_id":"4","last_reported":1678655175,"current_range_meters":17200,"station_id":"ce4bhhp2rcd13ifvqfm0","pricing_plan_id":"free"},{"bike_id":"597c1a36-e238-480c-a336-d7d26ab880b8","system_id":"levelo_inurba_marseille","lat":43.278128,"lon":5.407195,"is_reserved":false,"is_disabled":false,"rental_uris":{"android":"levelo://app?vid=597c1a36-e238-480c-a336-d7d26ab880b8","ios":"levelo://app?vid=597c1a36-e238-480c-a336-d7d26ab880b8"},"vehicle_type_id":"4","last_reported":1678655175,"current_range_meters":9600,"station_id":"ce4bhnh2rcd13ifvqgtg","pricing_plan_id":"free"},{"bike_id":"ded4e221-c670-48f3-9240-d4d068e567b6","system_id":"levelo_inurba_marseille","lat":43.278128,"lon":5.407195,"is_reserved":false,"is_disabled":false,"rental_uris":{"android":"levelo://app?vid=ded4e221-c670-48f3-9240-d4d068e567b6","ios":"levelo://app?vid=ded4e221-c670-48f3-9240-d4d068e567b6"},"vehicle_type_id":"4","last_reported":1678655175,"current_range_meters":17200,"station_id":"ce4bhnh2rcd13ifvqgtg","pricing_plan_id":"free"},{"bike_id":"16baf159-8a0a-405d-8971-eface288ce91","system_id":"levelo_inurba_marseille","lat":43.278128,"lon":5.407195,"is_reserved":false,"is_disabled":false,"rental_uris":{"android":"levelo://app?vid=16baf159-8a0a-405d-8971-eface288ce91","ios":"levelo://app?vid=16baf159-8a0a-405d-8971-eface288ce91"},"vehicle_type_id":"4","last_reported":1678655175,"current_range_meters":31600,"station_id":"ce4bhnh2rcd13ifvqgtg","pricing_plan_id":"free"},{"bike_id":"6059926d-eba3-4de5-8062-4f0787686765","system_id":"levelo_inurba_marseille","lat":43.26686,"lon":5.3827,"is_reserved":false,"is_disabled":false,"rental_uris":{"android":"levelo://app?vid=6059926d-eba3-4de5-8062-4f0787686765","ios":"levelo://app?vid=6059926d-eba3-4de5-8062-4f0787686765"},"vehicle_type_id":"4","last_reported":1678655175,"current_range_meters":14000,"station_id":"ce4bhg92rcd13ifvqf90","pricing_plan_id":"free"},{"bike_id":"8ae42844-7bb9-480c-a38e-2a57d3bc4e68","system_id":"levelo_inurba_marseille","lat":43.26681,"lon":5.382694,"is_reserved":false,"is_disabled":false,"rental_uris":{"android":"levelo://app?vid=8ae42844-7bb9-480c-a38e-2a57d3bc4e68","ios":"levelo://app?vid=8ae42844-7bb9-480c-a38e-2a57d3bc4e68"},"vehicle_type_id":"4","last_reported":1678655175,"current_range_meters":18000,"station_id":"ce4bhg92rcd13ifvqf90","pricing_plan_id":"free"},{"bike_id":"24923b4d-a7cc-4f31-8b92-0996ae3f7914","system_id":"levelo_inurba_marseille","lat":43.26681,"lon":5.382694,"is_reserved":false,"is_disabled":false,"rental_uris":{"android":"levelo://app?vid=24923b4d-a7cc-4f31-8b92-0996ae3f7914","ios":"levelo://app?vid=24923b4d-a7cc-4f31-8b92-0996ae3f7914"},"vehicle_type_id":"4","last_reported":1678655175,"current_range_meters":10000,"station_id":"ce4bhg92rcd13ifvqf90","pricing_plan_id":"free"},{"bike_id":"fe2365bb-951f-4d09-b787-86b4b1522092","system_id":"levelo_inurba_marseille","lat":43.26551,"lon":5.37287,"is_reserved":false,"is_disabled":false,"rental_uris":{"android":"levelo://app?vid=fe2365bb-951f-4d09-b787-86b4b1522092","ios":"levelo://app?vid=fe2365bb-951f-4d09-b787-86b4b1522092"},"vehicle_type_id":"4","last_reported":1678655175,"current_range_meters":10800,"station_id":"ce4bhg12rcd13ifvqf70","pricing_plan_id":"free"},{"bike_id":"84bd6496-7a4b-4f42-afdb-9dbd91f37b53","system_id":"levelo_inurba_marseille","lat":43.27999,"lon":5.4166,"is_reserved":false,"is_disabled":false,"rental_uris":{"android":"levelo://app?vid=84bd6496-7a4b-4f42-afdb-9dbd91f37b53","ios":"levelo://app?vid=84bd6496-7a4b-4f42-afdb-9dbd91f37b53"},"vehicle_type_id":"4","last_reported":1678655175,"current_range_meters":27600,"station_id":"","pricing_plan_id":"free"},{"bike_id":"ce2ae1fc-0e03-459c-8133-6e1687f3cc71","system_id":"levelo_inurba_marseille","lat":43.27996,"lon":5.416624,"is_reserved":false,"is_disabled":false,"rental_uris":{"android":"levelo://app?vid=ce2ae1fc-0e03-459c-8133-6e1687f3cc71","ios":"levelo://app?vid=ce2ae1fc-0e03-459c-8133-6e1687f3cc71"},"vehicle_type_id":"4","last_reported":1678655175,"current_range_meters":7200,"station_id":"ce4bho12rcd13ifvqh1g","pricing_plan_id":"free"},{"bike_id":"7fad437e-5acf-494b-a3da-3c8b1f73d4ac","system_id":"levelo_inurba_marseille","lat":43.27996,"lon":5.416624,"is_reserved":false,"is_disabled":false,"rental_uris":{"android":"levelo://app?vid=7fad437e-5acf-494b-a3da-3c8b1f73d4ac","ios":"levelo://app?vid=7fad437e-5acf-494b-a3da-3c8b1f73d4ac"},"vehicle_type_id":"4","last_reported":1678655175,"current_range_meters":10400,"station_id":"ce4bho12rcd13ifvqh1g","pricing_plan_id":"free"},{"bike_id":"87472abf-01b2-4445-b22d-7054e8aa8d14","system_id":"levelo_inurba_marseille","lat":43.279898,"lon":5.416556,"is_reserved":false,"is_disabled":false,"rental_uris":{"android":"levelo://app?vid=87472abf-01b2-4445-b22d-7054e8aa8d14","ios":"levelo://app?vid=87472abf-01b2-4445-b22d-7054e8aa8d14"},"vehicle_type_id":"4","last_reported":1678655175,"current_range_meters":26800,"station_id":"ce4bho12rcd13ifvqh1g","pricing_plan_id":"free"},{"bike_id":"a1b0b731-caea-4580-b5c6-a31b045b415c","system_id":"levelo_inurba_marseille","lat":43.27996,"lon":5.416624,"is_reserved":false,"is_disabled":false,"rental_uris":{"android":"levelo://app?vid=a1b0b731-caea-4580-b5c6-a31b045b415c","ios":"levelo://app?vid=a1b0b731-caea-4580-b5c6-a31b045b415c"},"vehicle_type_id":"4","last_reported":1678655175,"current_range_meters":11600,"station_id":"ce4bho12rcd13ifvqh1g","pricing_plan_id":"free"},{"bike_id":"1424b4ec-7257-401c-9fcd-ebf407232e35","system_id":"levelo_inurba_marseille","lat":43.279878,"lon":5.416577,"is_reserved":false,"is_disabled":false,"rental_uris":{"android":"levelo://app?vid=1424b4ec-7257-401c-9fcd-ebf407232e35","ios":"levelo://app?vid=1424b4ec-7257-401c-9fcd-ebf407232e35"},"vehicle_type_id":"4","last_reported":1678655175,"current_range_meters":29200,"station_id":"ce4bho12rcd13ifvqh1g","pricing_plan_id":"free"},{"bike_id":"c13f31eb-b018-47eb-9416-3a8a57c3831e","system_id":"levelo_inurba_marseille","lat":43.27996,"lon":5.416624,"is_reserved":false,"is_disabled":false,"rental_uris":{"android":"levelo://app?vid=c13f31eb-b018-47eb-9416-3a8a57c3831e","ios":"levelo://app?vid=c13f31eb-b018-47eb-9416-3a8a57c3831e"},"vehicle_type_id":"4","last_reported":1678655175,"current_range_meters":6400,"station_id":"ce4bho12rcd13ifvqh1g","pricing_plan_id":"free"},{"bike_id":"0a98bea4-1dcf-4758-b988-0c2a1c0a0253","system_id":"levelo_inurba_marseille","lat":43.27993,"lon":5.41667,"is_reserved":false,"is_disabled":false,"rental_uris":{"android":"levelo://app?vid=0a98bea4-1dcf-4758-b988-0c2a1c0a0253","ios":"levelo://app?vid=0a98bea4-1dcf-4758-b988-0c2a1c0a0253"},"vehicle_type_id":"4","last_reported":1678655175,"current_range_meters":18800,"station_id":"ce4bho12rcd13ifvqh1g","pricing_plan_id":"free"},{"bike_id":"6722b8f4-a1b8-43d5-b1f6-fc13fef1039f","system_id":"levelo_inurba_marseille","lat":43.27996,"lon":5.416624,"is_reserved":false,"is_disabled":false,"rental_uris":{"android":"levelo://app?vid=6722b8f4-a1b8-43d5-b1f6-fc13fef1039f","ios":"levelo://app?vid=6722b8f4-a1b8-43d5-b1f6-fc13fef1039f"},"vehicle_type_id":"4","last_reported":1678655175,"current_range_meters":18000,"station_id":"ce4bho12rcd13ifvqh1g","pricing_plan_id":"free"},{"bike_id":"dd3e6a23-c5b3-4a8a-a776-93f235aa2f36","system_id":"levelo_inurba_marseille","lat":43.267966,"lon":5.393976,"is_reserved":false,"is_disabled":false,"rental_uris":{"android":"levelo://app?vid=dd3e6a23-c5b3-4a8a-a776-93f235aa2f36","ios":"levelo://app?vid=dd3e6a23-c5b3-4a8a-a776-93f235aa2f36"},"vehicle_type_id":"4","last_reported":1678655175,"current_range_meters":4800,"station_id":"ce4bhh12rcd13ifvqfg0","pricing_plan_id":"free"},{"bike_id":"7272ce6a-04c0-4d6f-afd2-ba82312c7de1","system_id":"levelo_inurba_marseille","lat":43.265569,"lon":5.390047,"is_reserved":false,"is_disabled":false,"rental_uris":{"android":"levelo://app?vid=7272ce6a-04c0-4d6f-afd2-ba82312c7de1","ios":"levelo://app?vid=7272ce6a-04c0-4d6f-afd2-ba82312c7de1"},"vehicle_type_id":"4","last_reported":1678655175,"current_range_meters":10000,"station_id":"ce4bhe12rcd13ifvqf30","pricing_plan_id":"free"},{"bike_id":"7452a54f-9512-404b-a470-e1f94f8c63a3","system_id":"levelo_inurba_marseille","lat":43.308051,"lon":5.43527,"is_reserved":false,"is_disabled":false,"rental_uris":{"android":"levelo://app?vid=7452a54f-9512-404b-a470-e1f94f8c63a3","ios":"levelo://app?vid=7452a54f-9512-404b-a470-e1f94f8c63a3"},"vehicle_type_id":"4","last_reported":1678655175,"current_range_meters":4000,"station_id":"ce4bhph2rcd13ifvqheg","pricing_plan_id":"free"},{"bike_id":"afcb7766-293c-4a38-988e-ed86ead18084","system_id":"levelo_inurba_marseille","lat":43.265571,"lon":5.390032,"is_reserved":false,"is_disabled":false,"rental_uris":{"android":"levelo://app?vid=afcb7766-293c-4a38-988e-ed86ead18084","ios":"levelo://app?vid=afcb7766-293c-4a38-988e-ed86ead18084"},"vehicle_type_id":"4","last_reported":1678655175,"current_range_meters":3200,"station_id":"ce4bhe12rcd13ifvqf30","pricing_plan_id":"free"},{"bike_id":"218e7a8f-194e-482c-a199-a59e13ae734b","system_id":"levelo_inurba_marseille","lat":43.265571,"lon":5.390032,"is_reserved":false,"is_disabled":false,"rental_uris":{"android":"levelo://app?vid=218e7a8f-194e-482c-a199-a59e13ae734b","ios":"levelo://app?vid=218e7a8f-194e-482c-a199-a59e13ae734b"},"vehicle_type_id":"4","last_reported":1678655175,"current_range_meters":19600,"station_id":"ce4bhe12rcd13ifvqf30","pricing_plan_id":"free"},{"bike_id":"bf4483bc-7c2c-4e2e-8052-2fc88be1a3af","system_id":"levelo_inurba_marseille","lat":43.265571,"lon":5.390032,"is_reserved":false,"is_disabled":false,"rental_uris":{"android":"levelo://app?vid=bf4483bc-7c2c-4e2e-8052-2fc88be1a3af","ios":"levelo://app?vid=bf4483bc-7c2c-4e2e-8052-2fc88be1a3af"},"vehicle_type_id":"4","last_reported":1678655175,"current_range_meters":2400,"station_id":"ce4bhe12rcd13ifvqf30","pricing_plan_id":"free"},{"bike_id":"b66f99aa-4974-432b-8b0c-1c21a0e8c20c","system_id":"levelo_inurba_marseille","lat":43.265653,"lon":5.390012,"is_reserved":false,"is_disabled":false,"rental_uris":{"android":"levelo://app?vid=b66f99aa-4974-432b-8b0c-1c21a0e8c20c","ios":"levelo://app?vid=b66f99aa-4974-432b-8b0c-1c21a0e8c20c"},"vehicle_type_id":"4","last_reported":1678655175,"current_range_meters":0,"station_id":"ce4bhe12rcd13ifvqf30","pricing_plan_id":"free"},{"bike_id":"6eb7da46-f3c3-4ce1-8746-6114206f23a7","system_id":"levelo_inurba_marseille","lat":43.261782,"lon":5.374515,"is_reserved":false,"is_disabled":false,"rental_uris":{"android":"levelo://app?vid=6eb7da46-f3c3-4ce1-8746-6114206f23a7","ios":"levelo://app?vid=6eb7da46-f3c3-4ce1-8746-6114206f23a7"},"vehicle_type_id":"4","last_reported":1678655175,"current_range_meters":7600,"station_id":"ce4bhgp2rcd13ifvqfc0","pricing_plan_id":"free"},{"bike_id":"4d5dbde2-b494-499e-96d8-f8febe9156c9","system_id":"levelo_inurba_marseille","lat":43.317104,"lon":5.436818,"is_reserved":false,"is_disabled":false,"rental_uris":{"android":"levelo://app?vid=4d5dbde2-b494-499e-96d8-f8febe9156c9","ios":"levelo://app?vid=4d5dbde2-b494-499e-96d8-f8febe9156c9"},"vehicle_type_id":"4","last_reported":1678655175,"current_range_meters":4800,"station_id":"ce4bhp92rcd13ifvqhcg","pricing_plan_id":"free"},{"bike_id":"4e2a87d4-bf65-438b-a3fa-e49ea097d41a","system_id":"levelo_inurba_marseille","lat":43.317104,"lon":5.436818,"is_reserved":false,"is_disabled":false,"rental_uris":{"android":"levelo://app?vid=4e2a87d4-bf65-438b-a3fa-e49ea097d41a","ios":"levelo://app?vid=4e2a87d4-bf65-438b-a3fa-e49ea097d41a"},"vehicle_type_id":"4","last_reported":1678655175,"current_range_meters":5600,"station_id":"ce4bhp92rcd13ifvqhcg","pricing_plan_id":"free"},{"bike_id":"5ce92140-64d1-4739-81d8-e978a68c68ee","system_id":"levelo_inurba_marseille","lat":43.317104,"lon":5.436818,"is_reserved":false,"is_disabled":false,"rental_uris":{"android":"levelo://app?vid=5ce92140-64d1-4739-81d8-e978a68c68ee","ios":"levelo://app?vid=5ce92140-64d1-4739-81d8-e978a68c68ee"},"vehicle_type_id":"4","last_reported":1678655175,"current_range_meters":18800,"station_id":"ce4bhp92rcd13ifvqhcg","pricing_plan_id":"free"},{"bike_id":"e68185ae-37f9-4f22-9254-720d19af31a5","system_id":"levelo_inurba_marseille","lat":43.317104,"lon":5.436818,"is_reserved":false,"is_disabled":false,"rental_uris":{"android":"levelo://app?vid=e68185ae-37f9-4f22-9254-720d19af31a5","ios":"levelo://app?vid=e68185ae-37f9-4f22-9254-720d19af31a5"},"vehicle_type_id":"4","last_reported":1678655175,"current_range_meters":23600,"station_id":"ce4bhp92rcd13ifvqhcg","pricing_plan_id":"free"},{"bike_id":"fcb2b9bc-0372-43d6-a7e5-85da4bfbfba0","system_id":"levelo_inurba_marseille","lat":43.317104,"lon":5.436818,"is_reserved":false,"is_disabled":false,"rental_uris":{"android":"levelo://app?vid=fcb2b9bc-0372-43d6-a7e5-85da4bfbfba0","ios":"levelo://app?vid=fcb2b9bc-0372-43d6-a7e5-85da4bfbfba0"},"vehicle_type_id":"4","last_reported":1678655175,"current_range_meters":0,"station_id":"ce4bhp92rcd13ifvqhcg","pricing_plan_id":"free"},{"bike_id":"f9149132-6897-4a6f-b43a-7470b39e95dc","system_id":"levelo_inurba_marseille","lat":43.26812,"lon":5.40259,"is_reserved":false,"is_disabled":false,"rental_uris":{"android":"levelo://app?vid=f9149132-6897-4a6f-b43a-7470b39e95dc","ios":"levelo://app?vid=f9149132-6897-4a6f-b43a-7470b39e95dc"},"vehicle_type_id":"4","last_reported":1678655175,"current_range_meters":17200,"station_id":"ce501612rcd8frsf0b60","pricing_plan_id":"free"},{"bike_id":"09c6bd83-e9ac-452f-b052-3045f5ea00a1","system_id":"levelo_inurba_marseille","lat":43.267959,"lon":5.402687,"is_reserved":false,"is_disabled":false,"rental_uris":{"android":"levelo://app?vid=09c6bd83-e9ac-452f-b052-3045f5ea00a1","ios":"levelo://app?vid=09c6bd83-e9ac-452f-b052-3045f5ea00a1"},"vehicle_type_id":"4","last_reported":1678655175,"current_range_meters":11200,"station_id":"ce501612rcd8frsf0b60","pricing_plan_id":"free"},{"bike_id":"95339843-8e3f-40f0-9d81-e0fedf3de136","system_id":"levelo_inurba_marseille","lat":43.268087,"lon":5.402653,"is_reserved":false,"is_disabled":false,"rental_uris":{"android":"levelo://app?vid=95339843-8e3f-40f0-9d81-e0fedf3de136","ios":"levelo://app?vid=95339843-8e3f-40f0-9d81-e0fedf3de136"},"vehicle_type_id":"4","last_reported":1678655175,"current_range_meters":4800,"station_id":"ce501612rcd8frsf0b60","pricing_plan_id":"free"},{"bike_id":"cb8d5368-3abe-4f79-9b42-44f2cb0f4bd5","system_id":"levelo_inurba_marseille","lat":43.267959,"lon":5.402687,"is_reserved":false,"is_disabled":false,"rental_uris":{"android":"levelo://app?vid=cb8d5368-3abe-4f79-9b42-44f2cb0f4bd5","ios":"levelo://app?vid=cb8d5368-3abe-4f79-9b42-44f2cb0f4bd5"},"vehicle_type_id":"4","last_reported":1678655175,"current_range_meters":15600,"station_id":"ce501612rcd8frsf0b60","pricing_plan_id":"free"},{"bike_id":"0d9f70d0-31ab-4609-84fe-b6ee1e9d328b","system_id":"levelo_inurba_marseille","lat":43.2681,"lon":5.40272,"is_reserved":false,"is_disabled":false,"rental_uris":{"android":"levelo://app?vid=0d9f70d0-31ab-4609-84fe-b6ee1e9d328b","ios":"levelo://app?vid=0d9f70d0-31ab-4609-84fe-b6ee1e9d328b"},"vehicle_type_id":"4","last_reported":1678655175,"current_range_meters":0,"station_id":"","pricing_plan_id":"free"},{"bike_id":"5c67badc-85e0-435c-9f10-93fbb165bec3","system_id":"levelo_inurba_marseille","lat":43.267959,"lon":5.402687,"is_reserved":false,"is_disabled":false,"rental_uris":{"android":"levelo://app?vid=5c67badc-85e0-435c-9f10-93fbb165bec3","ios":"levelo://app?vid=5c67badc-85e0-435c-9f10-93fbb165bec3"},"vehicle_type_id":"4","last_reported":1678655175,"current_range_meters":29600,"station_id":"ce501612rcd8frsf0b60","pricing_plan_id":"free"},{"bike_id":"f68a5334-8895-4a0a-8935-9ac81d460dbb","system_id":"levelo_inurba_marseille","lat":43.267959,"lon":5.402687,"is_reserved":false,"is_disabled":false,"rental_uris":{"android":"levelo://app?vid=f68a5334-8895-4a0a-8935-9ac81d460dbb","ios":"levelo://app?vid=f68a5334-8895-4a0a-8935-9ac81d460dbb"},"vehicle_type_id":"4","last_reported":1678655175,"current_range_meters":4000,"station_id":"ce501612rcd8frsf0b60","pricing_plan_id":"free"},{"bike_id":"213de05f-7e88-47a1-bce3-9d4f075c6d8f","system_id":"levelo_inurba_marseille","lat":43.267959,"lon":5.402687,"is_reserved":false,"is_disabled":false,"rental_uris":{"android":"levelo://app?vid=213de05f-7e88-47a1-bce3-9d4f075c6d8f","ios":"levelo://app?vid=213de05f-7e88-47a1-bce3-9d4f075c6d8f"},"vehicle_type_id":"4","last_reported":1678655175,"current_range_meters":27200,"station_id":"ce501612rcd8frsf0b60","pricing_plan_id":"free"},{"bike_id":"976c1399-f1ea-488d-92d4-6c6b7957c20a","system_id":"levelo_inurba_marseille","lat":43.26807,"lon":5.40269,"is_reserved":false,"is_disabled":false,"rental_uris":{"android":"levelo://app?vid=976c1399-f1ea-488d-92d4-6c6b7957c20a","ios":"levelo://app?vid=976c1399-f1ea-488d-92d4-6c6b7957c20a"},"vehicle_type_id":"4","last_reported":1678655175,"current_range_meters":0,"station_id":"ce501612rcd8frsf0b60","pricing_plan_id":"free"},{"bike_id":"7e8b1b44-1f0d-4c18-a70b-6f5142c1863f","system_id":"levelo_inurba_marseille","lat":43.267959,"lon":5.402687,"is_reserved":false,"is_disabled":false,"rental_uris":{"android":"levelo://app?vid=7e8b1b44-1f0d-4c18-a70b-6f5142c1863f","ios":"levelo://app?vid=7e8b1b44-1f0d-4c18-a70b-6f5142c1863f"},"vehicle_type_id":"4","last_reported":1678655175,"current_range_meters":3600,"station_id":"ce501612rcd8frsf0b60","pricing_plan_id":"free"},{"bike_id":"33837dcf-8c5f-49d6-809e-069b02113422","system_id":"levelo_inurba_marseille","lat":43.26807,"lon":5.40272,"is_reserved":false,"is_disabled":false,"rental_uris":{"android":"levelo://app?vid=33837dcf-8c5f-49d6-809e-069b02113422","ios":"levelo://app?vid=33837dcf-8c5f-49d6-809e-069b02113422"},"vehicle_type_id":"4","last_reported":1678655175,"current_range_meters":30000,"station_id":"","pricing_plan_id":"free"},{"bike_id":"5b792445-cd45-427c-96df-ccf7c3da7f60","system_id":"levelo_inurba_marseille","lat":43.26805,"lon":5.40268,"is_reserved":false,"is_disabled":false,"rental_uris":{"android":"levelo://app?vid=5b792445-cd45-427c-96df-ccf7c3da7f60","ios":"levelo://app?vid=5b792445-cd45-427c-96df-ccf7c3da7f60"},"vehicle_type_id":"4","last_reported":1678655175,"current_range_meters":12000,"station_id":"ce501612rcd8frsf0b60","pricing_plan_id":"free"},{"bike_id":"e172702b-f498-45f6-8052-5362d94c47c6","system_id":"levelo_inurba_marseille","lat":43.267959,"lon":5.402687,"is_reserved":false,"is_disabled":false,"rental_uris":{"android":"levelo://app?vid=e172702b-f498-45f6-8052-5362d94c47c6","ios":"levelo://app?vid=e172702b-f498-45f6-8052-5362d94c47c6"},"vehicle_type_id":"4","last_reported":1678655175,"current_range_meters":16800,"station_id":"ce501612rcd8frsf0b60","pricing_plan_id":"free"},{"bike_id":"958d4a55-b1ea-4f95-873d-20f8a6dbd1c7","system_id":"levelo_inurba_marseille","lat":43.267959,"lon":5.402687,"is_reserved":false,"is_disabled":false,"rental_uris":{"android":"levelo://app?vid=958d4a55-b1ea-4f95-873d-20f8a6dbd1c7","ios":"levelo://app?vid=958d4a55-b1ea-4f95-873d-20f8a6dbd1c7"},"vehicle_type_id":"4","last_reported":1678655175,"current_range_meters":11600,"station_id":"ce501612rcd8frsf0b60","pricing_plan_id":"free"},{"bike_id":"0f1d36aa-b49f-4b58-8e54-3e76c9a8a2f9","system_id":"levelo_inurba_marseille","lat":43.26805,"lon":5.40271,"is_reserved":false,"is_disabled":false,"rental_uris":{"android":"levelo://app?vid=0f1d36aa-b49f-4b58-8e54-3e76c9a8a2f9","ios":"levelo://app?vid=0f1d36aa-b49f-4b58-8e54-3e76c9a8a2f9"},"vehicle_type_id":"4","last_reported":1678655175,"current_range_meters":25200,"station_id":"ce501612rcd8frsf0b60","pricing_plan_id":"free"},{"bike_id":"8a97189a-2f07-4145-ad56-7b778313f606","system_id":"levelo_inurba_marseille","lat":43.267959,"lon":5.402687,"is_reserved":false,"is_disabled":false,"rental_uris":{"android":"levelo://app?vid=8a97189a-2f07-4145-ad56-7b778313f606","ios":"levelo://app?vid=8a97189a-2f07-4145-ad56-7b778313f606"},"vehicle_type_id":"4","last_reported":1678655175,"current_range_meters":12000,"station_id":"ce501612rcd8frsf0b60","pricing_plan_id":"free"},{"bike_id":"43c10d8a-4fc8-4f57-8d42-f135f001b064","system_id":"levelo_inurba_marseille","lat":43.267959,"lon":5.402685,"is_reserved":false,"is_disabled":false,"rental_uris":{"android":"levelo://app?vid=43c10d8a-4fc8-4f57-8d42-f135f001b064","ios":"levelo://app?vid=43c10d8a-4fc8-4f57-8d42-f135f001b064"},"vehicle_type_id":"4","last_reported":1678655175,"current_range_meters":18800,"station_id":"ce501612rcd8frsf0b60","pricing_plan_id":"free"},{"bike_id":"4817c48a-9694-4741-a3eb-886b9fc9019c","system_id":"levelo_inurba_marseille","lat":43.26804,"lon":5.40272,"is_reserved":false,"is_disabled":false,"rental_uris":{"android":"levelo://app?vid=4817c48a-9694-4741-a3eb-886b9fc9019c","ios":"levelo://app?vid=4817c48a-9694-4741-a3eb-886b9fc9019c"},"vehicle_type_id":"4","last_reported":1678655175,"current_range_meters":12800,"station_id":"ce501612rcd8frsf0b60","pricing_plan_id":"free"},{"bike_id":"9a3b3058-013c-4b8f-9e50-361a0800d736","system_id":"levelo_inurba_marseille","lat":43.267959,"lon":5.402685,"is_reserved":false,"is_disabled":false,"rental_uris":{"android":"levelo://app?vid=9a3b3058-013c-4b8f-9e50-361a0800d736","ios":"levelo://app?vid=9a3b3058-013c-4b8f-9e50-361a0800d736"},"vehicle_type_id":"4","last_reported":1678655175,"current_range_meters":30400,"station_id":"ce501612rcd8frsf0b60","pricing_plan_id":"free"},{"bike_id":"c2014529-8067-46a6-ad1c-2ef8c7a6b258","system_id":"levelo_inurba_marseille","lat":43.26799,"lon":5.40267,"is_reserved":false,"is_disabled":false,"rental_uris":{"android":"levelo://app?vid=c2014529-8067-46a6-ad1c-2ef8c7a6b258","ios":"levelo://app?vid=c2014529-8067-46a6-ad1c-2ef8c7a6b258"},"vehicle_type_id":"4","last_reported":1678655175,"current_range_meters":0,"station_id":"ce501612rcd8frsf0b60","pricing_plan_id":"free"},{"bike_id":"1f4d44be-17a2-4b1a-8c18-e8f18d7f7463","system_id":"levelo_inurba_marseille","lat":43.267959,"lon":5.402687,"is_reserved":false,"is_disabled":false,"rental_uris":{"android":"levelo://app?vid=1f4d44be-17a2-4b1a-8c18-e8f18d7f7463","ios":"levelo://app?vid=1f4d44be-17a2-4b1a-8c18-e8f18d7f7463"},"vehicle_type_id":"4","last_reported":1678655175,"current_range_meters":31600,"station_id":"ce501612rcd8frsf0b60","pricing_plan_id":"free"},{"bike_id":"589c5508-5b9a-4a05-87b3-67c478585e30","system_id":"levelo_inurba_marseille","lat":43.26794,"lon":5.40261,"is_reserved":false,"is_disabled":false,"rental_uris":{"android":"levelo://app?vid=589c5508-5b9a-4a05-87b3-67c478585e30","ios":"levelo://app?vid=589c5508-5b9a-4a05-87b3-67c478585e30"},"vehicle_type_id":"4","last_reported":1678655175,"current_range_meters":4800,"station_id":"ce501612rcd8frsf0b60","pricing_plan_id":"free"},{"bike_id":"4cf240eb-fc10-410f-973a-62f1f07a6fff","system_id":"levelo_inurba_marseille","lat":43.260219,"lon":5.37546,"is_reserved":false,"is_disabled":false,"rental_uris":{"android":"levelo://app?vid=4cf240eb-fc10-410f-973a-62f1f07a6fff","ios":"levelo://app?vid=4cf240eb-fc10-410f-973a-62f1f07a6fff"},"vehicle_type_id":"4","last_reported":1678655175,"current_range_meters":15200,"station_id":"ce4bhgh2rcd13ifvqfa0","pricing_plan_id":"free"},{"bike_id":"825cb316-a7bb-44fc-9675-33908465224f","system_id":"levelo_inurba_marseille","lat":43.260219,"lon":5.37546,"is_reserved":false,"is_disabled":false,"rental_uris":{"android":"levelo://app?vid=825cb316-a7bb-44fc-9675-33908465224f","ios":"levelo://app?vid=825cb316-a7bb-44fc-9675-33908465224f"},"vehicle_type_id":"4","last_reported":1678655175,"current_range_meters":7600,"station_id":"ce4bhgh2rcd13ifvqfa0","pricing_plan_id":"free"},{"bike_id":"c8253a52-37bc-411d-9252-a3eb1e92b451","system_id":"levelo_inurba_marseille","lat":43.260648,"lon":5.393888,"is_reserved":false,"is_disabled":false,"rental_uris":{"android":"levelo://app?vid=c8253a52-37bc-411d-9252-a3eb1e92b451","ios":"levelo://app?vid=c8253a52-37bc-411d-9252-a3eb1e92b451"},"vehicle_type_id":"4","last_reported":1678655175,"current_range_meters":0,"station_id":"","pricing_plan_id":"free"},{"bike_id":"7fddccf8-04b7-40da-963b-a48544790e8e","system_id":"levelo_inurba_marseille","lat":43.26066,"lon":5.39397,"is_reserved":false,"is_disabled":false,"rental_uris":{"android":"levelo://app?vid=7fddccf8-04b7-40da-963b-a48544790e8e","ios":"levelo://app?vid=7fddccf8-04b7-40da-963b-a48544790e8e"},"vehicle_type_id":"4","last_reported":1678655175,"current_range_meters":26800,"station_id":"ce4bhh92rcd13ifvqfj0","pricing_plan_id":"free"},{"bike_id":"792d5bac-bd65-4789-9564-e20ceab48421","system_id":"levelo_inurba_marseille","lat":43.260909,"lon":5.397591,"is_reserved":false,"is_disabled":false,"rental_uris":{"android":"levelo://app?vid=792d5bac-bd65-4789-9564-e20ceab48421","ios":"levelo://app?vid=792d5bac-bd65-4789-9564-e20ceab48421"},"vehicle_type_id":"4","last_reported":1678655175,"current_range_meters":10400,"station_id":"ce4bhi12rcd13ifvqfq0","pricing_plan_id":"free"},{"bike_id":"26e80a9a-36cd-423c-a3cb-995b2e63904c","system_id":"levelo_inurba_marseille","lat":43.255756,"lon":5.382303,"is_reserved":false,"is_disabled":false,"rental_uris":{"android":"levelo://app?vid=26e80a9a-36cd-423c-a3cb-995b2e63904c","ios":"levelo://app?vid=26e80a9a-36cd-423c-a3cb-995b2e63904c"},"vehicle_type_id":"4","last_reported":1678655175,"current_range_meters":4400,"station_id":"ce4bhih2rcd13ifvqfs0","pricing_plan_id":"free"},{"bike_id":"6a7b88e4-af62-471b-a004-f88c9153461b","system_id":"levelo_inurba_marseille","lat":43.255756,"lon":5.382303,"is_reserved":false,"is_disabled":false,"rental_uris":{"android":"levelo://app?vid=6a7b88e4-af62-471b-a004-f88c9153461b","ios":"levelo://app?vid=6a7b88e4-af62-471b-a004-f88c9153461b"},"vehicle_type_id":"4","last_reported":1678655175,"current_range_meters":10000,"station_id":"ce4bhih2rcd13ifvqfs0","pricing_plan_id":"free"},{"bike_id":"0beef71e-5964-45f7-91cb-b37e6365162a","system_id":"levelo_inurba_marseille","lat":43.270721,"lon":5.422764,"is_reserved":false,"is_disabled":false,"rental_uris":{"android":"levelo://app?vid=0beef71e-5964-45f7-91cb-b37e6365162a","ios":"levelo://app?vid=0beef71e-5964-45f7-91cb-b37e6365162a"},"vehicle_type_id":"4","last_reported":1678655175,"current_range_meters":0,"station_id":"ce4bhk92rcd13ifvqgb0","pricing_plan_id":"free"},{"bike_id":"7f00de8c-8367-4d4b-bab3-b4e74097f4e3","system_id":"levelo_inurba_marseille","lat":43.270721,"lon":5.422764,"is_reserved":false,"is_disabled":false,"rental_uris":{"android":"levelo://app?vid=7f00de8c-8367-4d4b-bab3-b4e74097f4e3","ios":"levelo://app?vid=7f00de8c-8367-4d4b-bab3-b4e74097f4e3"},"vehicle_type_id":"4","last_reported":1678655175,"current_range_meters":23200,"station_id":"ce4bhk92rcd13ifvqgb0","pricing_plan_id":"free"},{"bike_id":"45490877-4370-448a-9239-e85debfc83ff","system_id":"levelo_inurba_marseille","lat":43.270721,"lon":5.422764,"is_reserved":false,"is_disabled":false,"rental_uris":{"android":"levelo://app?vid=45490877-4370-448a-9239-e85debfc83ff","ios":"levelo://app?vid=45490877-4370-448a-9239-e85debfc83ff"},"vehicle_type_id":"4","last_reported":1678655175,"current_range_meters":20400,"station_id":"ce4bhk92rcd13ifvqgb0","pricing_plan_id":"free"},{"bike_id":"45f912ee-5b29-42fe-81ed-3e9fb3369dd0","system_id":"levelo_inurba_marseille","lat":43.270721,"lon":5.422764,"is_reserved":false,"is_disabled":false,"rental_uris":{"android":"levelo://app?vid=45f912ee-5b29-42fe-81ed-3e9fb3369dd0","ios":"levelo://app?vid=45f912ee-5b29-42fe-81ed-3e9fb3369dd0"},"vehicle_type_id":"4","last_reported":1678655175,"current_range_meters":18800,"station_id":"ce4bhk92rcd13ifvqgb0","pricing_plan_id":"free"},{"bike_id":"f41a01e9-01d5-4f02-a4b3-9346bd2ae727","system_id":"levelo_inurba_marseille","lat":43.29508,"lon":5.44409,"is_reserved":false,"is_disabled":false,"rental_uris":{"android":"levelo://app?vid=f41a01e9-01d5-4f02-a4b3-9346bd2ae727","ios":"levelo://app?vid=f41a01e9-01d5-4f02-a4b3-9346bd2ae727"},"vehicle_type_id":"4","last_reported":1678655175,"current_range_meters":3600,"station_id":"","pricing_plan_id":"free"},{"bike_id":"9f9eadba-a84e-4742-8c57-42345462b30f","system_id":"levelo_inurba_marseille","lat":43.24814,"lon":5.37462,"is_reserved":false,"is_disabled":false,"rental_uris":{"android":"levelo://app?vid=9f9eadba-a84e-4742-8c57-42345462b30f","ios":"levelo://app?vid=9f9eadba-a84e-4742-8c57-42345462b30f"},"vehicle_type_id":"4","last_reported":1678655175,"current_range_meters":30400,"station_id":"ce4bhgh2rcd13ifvqfb0","pricing_plan_id":"free"},{"bike_id":"5f0b4892-af08-4bd3-ba2a-fd3be7e38514","system_id":"levelo_inurba_marseille","lat":43.2479,"lon":5.374457,"is_reserved":false,"is_disabled":false,"rental_uris":{"android":"levelo://app?vid=5f0b4892-af08-4bd3-ba2a-fd3be7e38514","ios":"levelo://app?vid=5f0b4892-af08-4bd3-ba2a-fd3be7e38514"},"vehicle_type_id":"4","last_reported":1678655175,"current_range_meters":0,"station_id":"ce4bhgh2rcd13ifvqfb0","pricing_plan_id":"free"},{"bike_id":"24b5a86f-edfc-47b4-9de9-7be22d74ddd7","system_id":"levelo_inurba_marseille","lat":43.250966,"lon":5.395186,"is_reserved":false,"is_disabled":false,"rental_uris":{"android":"levelo://app?vid=24b5a86f-edfc-47b4-9de9-7be22d74ddd7","ios":"levelo://app?vid=24b5a86f-edfc-47b4-9de9-7be22d74ddd7"},"vehicle_type_id":"4","last_reported":1678655175,"current_range_meters":16400,"station_id":"ce4bhm12rcd13ifvqgkg","pricing_plan_id":"free"},{"bike_id":"cd654933-bcc6-4bca-add0-94bc9e334724","system_id":"levelo_inurba_marseille","lat":43.250966,"lon":5.395186,"is_reserved":false,"is_disabled":false,"rental_uris":{"android":"levelo://app?vid=cd654933-bcc6-4bca-add0-94bc9e334724","ios":"levelo://app?vid=cd654933-bcc6-4bca-add0-94bc9e334724"},"vehicle_type_id":"4","last_reported":1678655175,"current_range_meters":10000,"station_id":"ce4bhm12rcd13ifvqgkg","pricing_plan_id":"free"},{"bike_id":"919e3fb1-9703-4704-adb8-f90448cfe040","system_id":"levelo_inurba_marseille","lat":43.24693,"lon":5.382096,"is_reserved":false,"is_disabled":false,"rental_uris":{"android":"levelo://app?vid=919e3fb1-9703-4704-adb8-f90448cfe040","ios":"levelo://app?vid=919e3fb1-9703-4704-adb8-f90448cfe040"},"vehicle_type_id":"4","last_reported":1678655175,"current_range_meters":6800,"station_id":"ce4bhih2rcd13ifvqfr0","pricing_plan_id":"free"},{"bike_id":"35483b97-8ac9-42d1-a43c-21b0367a5ae2","system_id":"levelo_inurba_marseille","lat":43.25102,"lon":5.403214,"is_reserved":false,"is_disabled":false,"rental_uris":{"android":"levelo://app?vid=35483b97-8ac9-42d1-a43c-21b0367a5ae2","ios":"levelo://app?vid=35483b97-8ac9-42d1-a43c-21b0367a5ae2"},"vehicle_type_id":"4","last_reported":1678655175,"current_range_meters":15200,"station_id":"ce4bhlh2rcd13ifvqgig","pricing_plan_id":"free"},{"bike_id":"223b4ae0-24c1-4d5b-9807-42f0ec13826e","system_id":"levelo_inurba_marseille","lat":43.24693,"lon":5.382096,"is_reserved":false,"is_disabled":false,"rental_uris":{"android":"levelo://app?vid=223b4ae0-24c1-4d5b-9807-42f0ec13826e","ios":"levelo://app?vid=223b4ae0-24c1-4d5b-9807-42f0ec13826e"},"vehicle_type_id":"4","last_reported":1678655175,"current_range_meters":16800,"station_id":"ce4bhih2rcd13ifvqfr0","pricing_plan_id":"free"},{"bike_id":"eb96a0e7-dcc7-4ed8-bdb0-95594f69ee3a","system_id":"levelo_inurba_marseille","lat":43.25121,"lon":5.40318,"is_reserved":false,"is_disabled":false,"rental_uris":{"android":"levelo://app?vid=eb96a0e7-dcc7-4ed8-bdb0-95594f69ee3a","ios":"levelo://app?vid=eb96a0e7-dcc7-4ed8-bdb0-95594f69ee3a"},"vehicle_type_id":"4","last_reported":1678655175,"current_range_meters":20800,"station_id":"","pricing_plan_id":"free"},{"bike_id":"b9390e61-80e8-4f16-b426-70750fff31a7","system_id":"levelo_inurba_marseille","lat":43.25102,"lon":5.403214,"is_reserved":false,"is_disabled":false,"rental_uris":{"android":"levelo://app?vid=b9390e61-80e8-4f16-b426-70750fff31a7","ios":"levelo://app?vid=b9390e61-80e8-4f16-b426-70750fff31a7"},"vehicle_type_id":"4","last_reported":1678655175,"current_range_meters":11200,"station_id":"ce4bhlh2rcd13ifvqgig","pricing_plan_id":"free"},{"bike_id":"f8386ed7-fef6-4ff7-940c-4bb2a6bbcad0","system_id":"levelo_inurba_marseille","lat":43.24693,"lon":5.382096,"is_reserved":false,"is_disabled":false,"rental_uris":{"android":"levelo://app?vid=f8386ed7-fef6-4ff7-940c-4bb2a6bbcad0","ios":"levelo://app?vid=f8386ed7-fef6-4ff7-940c-4bb2a6bbcad0"},"vehicle_type_id":"4","last_reported":1678655175,"current_range_meters":14000,"station_id":"ce4bhih2rcd13ifvqfr0","pricing_plan_id":"free"},{"bike_id":"6aebd98b-6ca8-49d7-940a-2bb4242dea64","system_id":"levelo_inurba_marseille","lat":43.25102,"lon":5.403214,"is_reserved":false,"is_disabled":false,"rental_uris":{"android":"levelo://app?vid=6aebd98b-6ca8-49d7-940a-2bb4242dea64","ios":"levelo://app?vid=6aebd98b-6ca8-49d7-940a-2bb4242dea64"},"vehicle_type_id":"4","last_reported":1678655175,"current_range_meters":16400,"station_id":"ce4bhlh2rcd13ifvqgig","pricing_plan_id":"free"},{"bike_id":"75936009-089e-4726-94a9-93905cf903db","system_id":"levelo_inurba_marseille","lat":43.25102,"lon":5.403214,"is_reserved":false,"is_disabled":false,"rental_uris":{"android":"levelo://app?vid=75936009-089e-4726-94a9-93905cf903db","ios":"levelo://app?vid=75936009-089e-4726-94a9-93905cf903db"},"vehicle_type_id":"4","last_reported":1678655175,"current_range_meters":16400,"station_id":"ce4bhlh2rcd13ifvqgig","pricing_plan_id":"free"},{"bike_id":"028081c9-41c7-4211-bd40-d3e66fce686a","system_id":"levelo_inurba_marseille","lat":43.243884,"lon":5.370736,"is_reserved":false,"is_disabled":false,"rental_uris":{"android":"levelo://app?vid=028081c9-41c7-4211-bd40-d3e66fce686a","ios":"levelo://app?vid=028081c9-41c7-4211-bd40-d3e66fce686a"},