{"last_updated":1766257639,"ttl":60,"version":"2.2","data":{"bikes":[{"bike_id":"436e467e-3ef8-4484-b12e-82fd46509f97","system_id":"levelo_inurba_marseille","lat":43.23305,"lon":5.44381,"is_reserved":false,"is_disabled":false,"rental_uris":{"android":"levelo://app?vid=436e467e-3ef8-4484-b12e-82fd46509f97","ios":"levelo://app?vid=436e467e-3ef8-4484-b12e-82fd46509f97"},"vehicle_type_id":"4","last_reported":1766257640,"current_range_meters":2800,"station_id":"","pricing_plan_id":"cebpf4jnsgd1na2vs0mg"},{"bike_id":"4a614ce4-d61c-499d-8955-0569e02f377b","system_id":"levelo_inurba_marseille","lat":43.27519,"lon":5.37266,"is_reserved":false,"is_disabled":false,"rental_uris":{"android":"levelo://app?vid=4a614ce4-d61c-499d-8955-0569e02f377b","ios":"levelo://app?vid=4a614ce4-d61c-499d-8955-0569e02f377b"},"vehicle_type_id":"4","last_reported":1766257640,"current_range_meters":2800,"station_id":"","pricing_plan_id":"cebpf4jnsgd1na2vs0mg"},{"bike_id":"cb2ddf25-9953-4b95-8452-31ba7b49bd16","system_id":"levelo_inurba_marseille","lat":43.24651,"lon":5.38869,"is_reserved":false,"is_disabled":false,"rental_uris":{"android":"levelo://app?vid=cb2ddf25-9953-4b95-8452-31ba7b49bd16","ios":"levelo://app?vid=cb2ddf25-9953-4b95-8452-31ba7b49bd16"},"vehicle_type_id":"4","last_reported":1766257640,"current_range_meters":2800,"station_id":"ce4bhg12rcd13ifvqf60","pricing_plan_id":"cebpf4jnsgd1na2vs0mg"},{"bike_id":"63a7eb7a-1943-414e-a331-b26001e039d9","system_id":"levelo_inurba_marseille","lat":43.26565,"lon":5.39008,"is_reserved":false,"is_disabled":false,"rental_uris":{"android":"levelo://app?vid=63a7eb7a-1943-414e-a331-b26001e039d9","ios":"levelo://app?vid=63a7eb7a-1943-414e-a331-b26001e039d9"},"vehicle_type_id":"4","last_reported":1766257640,"current_range_meters":2800,"station_id":"ce4bhe12rcd13ifvqf30","pricing_plan_id":"cebpf4jnsgd1na2vs0mg"},{"bike_id":"5c82aa5d-e9af-478b-9ffa-e9de9eb19a05","system_id":"levelo_inurba_marseille","lat":43.24835,"lon":5.37463,"is_reserved":false,"is_disabled":true,"rental_uris":{"android":"levelo://app?vid=5c82aa5d-e9af-478b-9ffa-e9de9eb19a05","ios":"levelo://app?vid=5c82aa5d-e9af-478b-9ffa-e9de9eb19a05"},"vehicle_type_id":"4","last_reported":1766257640,"current_range_meters":2800,"station_id":"","pricing_plan_id":"cebpf4jnsgd1na2vs0mg"},{"bike_id":"5e93afe6-ae71-4960-ad86-f159bd5f0972","system_id":"levelo_inurba_marseille","lat":43.26366,"lon":5.41087,"is_reserved":false,"is_disabled":false,"rental_uris":{"android":"levelo://app?vid=5e93afe6-ae71-4960-ad86-f159bd5f0972","ios":"levelo://app?vid=5e93afe6-ae71-4960-ad86-f159bd5f0972"},"vehicle_type_id":"4","last_reported":1766257640,"current_range_meters":3200,"station_id":"st_d4e5ca6na9uc73bfl5fg","pricing_plan_id":"cebpf4jnsgd1na2vs0mg"},{"bike_id":"4f0446ec-0149-4c8f-b055-4358f0b72681","system_id":"levelo_inurba_marseille","lat":43.301894,"lon":5.380705,"is_reserved":false,"is_disabled":false,"rental_uris":{"android":"levelo://app?vid=4f0446ec-0149-4c8f-b055-4358f0b72681","ios":"levelo://app?vid=4f0446ec-0149-4c8f-b055-4358f0b72681"},"vehicle_type_id":"4","last_reported":1766257640,"current_range_meters":3200,"station_id":"ce4bgkp2rcd13ifvqbmg","pricing_plan_id":"cebpf4jnsgd1na2vs0mg"},{"bike_id":"ddf74a66-5f13-4abc-923d-8e4ee89432d9","system_id":"levelo_inurba_marseille","lat":43.29281,"lon":5.36837,"is_reserved":false,"is_disabled":false,"rental_uris":{"android":"levelo://app?vid=ddf74a66-5f13-4abc-923d-8e4ee89432d9","ios":"levelo://app?vid=ddf74a66-5f13-4abc-923d-8e4ee89432d9"},"vehicle_type_id":"4","last_reported":1766257640,"current_range_meters":3200,"station_id":"","pricing_plan_id":"cebpf4jnsgd1na2vs0mg"},{"bike_id":"447479ac-aa59-4855-9396-0aec0b9390a2","system_id":"levelo_inurba_marseille","lat":43.2971,"lon":5.36608,"is_reserved":false,"is_disabled":false,"rental_uris":{"android":"levelo://app?vid=447479ac-aa59-4855-9396-0aec0b9390a2","ios":"levelo://app?vid=447479ac-aa59-4855-9396-0aec0b9390a2"},"vehicle_type_id":"4","last_reported":1766257640,"current_range_meters":3200,"station_id":"ce4bgn12rcd13ifvqbt0","pricing_plan_id":"cebpf4jnsgd1na2vs0mg"},{"bike_id":"029475a7-9f24-4d01-b458-9ad480263b8e","system_id":"levelo_inurba_marseille","lat":43.292011,"lon":5.357978,"is_reserved":false,"is_disabled":false,"rental_uris":{"android":"levelo://app?vid=029475a7-9f24-4d01-b458-9ad480263b8e","ios":"levelo://app?vid=029475a7-9f24-4d01-b458-9ad480263b8e"},"vehicle_type_id":"4","last_reported":1766257640,"current_range_meters":3200,"station_id":"ce4bhb12rcd13ifvqel0","pricing_plan_id":"cebpf4jnsgd1na2vs0mg"},{"bike_id":"c5365846-c619-4f12-8c92-97c9f9725a15","system_id":"levelo_inurba_marseille","lat":43.29517,"lon":5.37926,"is_reserved":false,"is_disabled":false,"rental_uris":{"android":"levelo://app?vid=c5365846-c619-4f12-8c92-97c9f9725a15","ios":"levelo://app?vid=c5365846-c619-4f12-8c92-97c9f9725a15"},"vehicle_type_id":"4","last_reported":1766257640,"current_range_meters":3600,"station_id":"","pricing_plan_id":"cebpf4jnsgd1na2vs0mg"},{"bike_id":"e90ba3ac-db3d-47c3-b271-670878a2159c","system_id":"levelo_inurba_marseille","lat":43.291274,"lon":5.359215,"is_reserved":false,"is_disabled":false,"rental_uris":{"android":"levelo://app?vid=e90ba3ac-db3d-47c3-b271-670878a2159c","ios":"levelo://app?vid=e90ba3ac-db3d-47c3-b271-670878a2159c"},"vehicle_type_id":"4","last_reported":1766257640,"current_range_meters":3600,"station_id":"ce4bhb12rcd13ifvqel0","pricing_plan_id":"cebpf4jnsgd1na2vs0mg"},{"bike_id":"8d39978d-398c-4a12-b3b0-420f9b90fe47","system_id":"levelo_inurba_marseille","lat":43.27951,"lon":5.41047,"is_reserved":false,"is_disabled":false,"rental_uris":{"android":"levelo://app?vid=8d39978d-398c-4a12-b3b0-420f9b90fe47","ios":"levelo://app?vid=8d39978d-398c-4a12-b3b0-420f9b90fe47"},"vehicle_type_id":"4","last_reported":1766257640,"current_range_meters":4000,"station_id":"ce4bhnp2rcd13ifvqh0g","pricing_plan_id":"cebpf4jnsgd1na2vs0mg"},{"bike_id":"f3a4c2fd-c27a-4ca6-bbe5-3949d2a88808","system_id":"levelo_inurba_marseille","lat":43.28586,"lon":5.42994,"is_reserved":false,"is_disabled":false,"rental_uris":{"android":"levelo://app?vid=f3a4c2fd-c27a-4ca6-bbe5-3949d2a88808","ios":"levelo://app?vid=f3a4c2fd-c27a-4ca6-bbe5-3949d2a88808"},"vehicle_type_id":"4","last_reported":1766257640,"current_range_meters":4000,"station_id":"","pricing_plan_id":"cebpf4jnsgd1na2vs0mg"},{"bike_id":"ecd441b1-3403-4a3d-a288-681f4f14162e","system_id":"levelo_inurba_marseille","lat":43.28415,"lon":5.34979,"is_reserved":false,"is_disabled":false,"rental_uris":{"android":"levelo://app?vid=ecd441b1-3403-4a3d-a288-681f4f14162e","ios":"levelo://app?vid=ecd441b1-3403-4a3d-a288-681f4f14162e"},"vehicle_type_id":"4","last_reported":1766257640,"current_range_meters":4000,"station_id":"ce4bhbh2rcd13ifvqepg","pricing_plan_id":"cebpf4jnsgd1na2vs0mg"},{"bike_id":"b02f3014-7eb6-4e4a-bad2-d8227513da9b","system_id":"levelo_inurba_marseille","lat":43.30887,"lon":5.39628,"is_reserved":false,"is_disabled":false,"rental_uris":{"android":"levelo://app?vid=b02f3014-7eb6-4e4a-bad2-d8227513da9b","ios":"levelo://app?vid=b02f3014-7eb6-4e4a-bad2-d8227513da9b"},"vehicle_type_id":"4","last_reported":1766257640,"current_range_meters":4400,"station_id":"ce4bh012rcd13ifvqcv0","pricing_plan_id":"cebpf4jnsgd1na2vs0mg"},{"bike_id":"a82c9187-4021-485d-8c4d-885d88c633bd","system_id":"levelo_inurba_marseille","lat":43.330204,"lon":5.390197,"is_reserved":false,"is_disabled":false,"rental_uris":{"android":"levelo://app?vid=a82c9187-4021-485d-8c4d-885d88c633bd","ios":"levelo://app?vid=a82c9187-4021-485d-8c4d-885d88c633bd"},"vehicle_type_id":"4","last_reported":1766257640,"current_range_meters":4400,"station_id":"ce4bhr92rcd13ifvqhrg","pricing_plan_id":"cebpf4jnsgd1na2vs0mg"},{"bike_id":"c989796d-dcc1-4fc7-b147-6dbca1d74de3","system_id":"levelo_inurba_marseille","lat":43.281485,"lon":5.383311,"is_reserved":false,"is_disabled":false,"rental_uris":{"android":"levelo://app?vid=c989796d-dcc1-4fc7-b147-6dbca1d74de3","ios":"levelo://app?vid=c989796d-dcc1-4fc7-b147-6dbca1d74de3"},"vehicle_type_id":"4","last_reported":1766257640,"current_range_meters":4400,"station_id":"","pricing_plan_id":"cebpf4jnsgd1na2vs0mg"},{"bike_id":"4a51920c-f606-4dec-8a3d-4a4cbe2847a9","system_id":"levelo_inurba_marseille","lat":43.27913,"lon":5.39578,"is_reserved":false,"is_disabled":false,"rental_uris":{"android":"levelo://app?vid=4a51920c-f606-4dec-8a3d-4a4cbe2847a9","ios":"levelo://app?vid=4a51920c-f606-4dec-8a3d-4a4cbe2847a9"},"vehicle_type_id":"4","last_reported":1766257640,"current_range_meters":4800,"station_id":"ce4bhf92rcd13ifvqf40","pricing_plan_id":"cebpf4jnsgd1na2vs0mg"},{"bike_id":"e2a9b7ba-b45a-4a5a-9a89-a4fae3311d11","system_id":"levelo_inurba_marseille","lat":43.2551,"lon":5.37656,"is_reserved":false,"is_disabled":false,"rental_uris":{"android":"levelo://app?vid=e2a9b7ba-b45a-4a5a-9a89-a4fae3311d11","ios":"levelo://app?vid=e2a9b7ba-b45a-4a5a-9a89-a4fae3311d11"},"vehicle_type_id":"4","last_reported":1766257640,"current_range_meters":4800,"station_id":"ce4bhh12rcd13ifvqff0","pricing_plan_id":"cebpf4jnsgd1na2vs0mg"},{"bike_id":"342468fa-4c54-4cbb-aaac-c9cf0a7b3d62","system_id":"levelo_inurba_marseille","lat":43.29783,"lon":5.37102,"is_reserved":false,"is_disabled":false,"rental_uris":{"android":"levelo://app?vid=342468fa-4c54-4cbb-aaac-c9cf0a7b3d62","ios":"levelo://app?vid=342468fa-4c54-4cbb-aaac-c9cf0a7b3d62"},"vehicle_type_id":"4","last_reported":1766257640,"current_range_meters":4800,"station_id":"ce4bgop2rcd13ifvqc1g","pricing_plan_id":"cebpf4jnsgd1na2vs0mg"},{"bike_id":"48e30a46-3a61-4ed5-93c8-2b0ee8661bac","system_id":"levelo_inurba_marseille","lat":43.29817,"lon":5.37788,"is_reserved":false,"is_disabled":false,"rental_uris":{"android":"levelo://app?vid=48e30a46-3a61-4ed5-93c8-2b0ee8661bac","ios":"levelo://app?vid=48e30a46-3a61-4ed5-93c8-2b0ee8661bac"},"vehicle_type_id":"4","last_reported":1766257640,"current_range_meters":5600,"station_id":"","pricing_plan_id":"cebpf4jnsgd1na2vs0mg"},{"bike_id":"81ce12bb-d913-4e95-82bb-d4b0088cf271","system_id":"levelo_inurba_marseille","lat":43.24463,"lon":5.42536,"is_reserved":false,"is_disabled":false,"rental_uris":{"android":"levelo://app?vid=81ce12bb-d913-4e95-82bb-d4b0088cf271","ios":"levelo://app?vid=81ce12bb-d913-4e95-82bb-d4b0088cf271"},"vehicle_type_id":"4","last_reported":1766257640,"current_range_meters":5600,"station_id":"st_d4a3vfp97mjs738cd8kg","pricing_plan_id":"cebpf4jnsgd1na2vs0mg"},{"bike_id":"ca68e9dc-5017-4a64-9eed-a9a35d580d59","system_id":"levelo_inurba_marseille","lat":43.29727,"lon":5.37703,"is_reserved":false,"is_disabled":false,"rental_uris":{"android":"levelo://app?vid=ca68e9dc-5017-4a64-9eed-a9a35d580d59","ios":"levelo://app?vid=ca68e9dc-5017-4a64-9eed-a9a35d580d59"},"vehicle_type_id":"4","last_reported":1766257640,"current_range_meters":6000,"station_id":"ce4bgkh2rcd13ifvqbl0","pricing_plan_id":"cebpf4jnsgd1na2vs0mg"},{"bike_id":"cde75731-be94-4954-af76-b79651b240b9","system_id":"levelo_inurba_marseille","lat":43.29929,"lon":5.39357,"is_reserved":false,"is_disabled":false,"rental_uris":{"android":"levelo://app?vid=cde75731-be94-4954-af76-b79651b240b9","ios":"levelo://app?vid=cde75731-be94-4954-af76-b79651b240b9"},"vehicle_type_id":"4","last_reported":1766257640,"current_range_meters":6000,"station_id":"","pricing_plan_id":"cebpf4jnsgd1na2vs0mg"},{"bike_id":"700442f5-a082-454e-8bc7-ab3bbb77bfce","system_id":"levelo_inurba_marseille","lat":43.26649,"lon":5.37446,"is_reserved":false,"is_disabled":false,"rental_uris":{"android":"levelo://app?vid=700442f5-a082-454e-8bc7-ab3bbb77bfce","ios":"levelo://app?vid=700442f5-a082-454e-8bc7-ab3bbb77bfce"},"vehicle_type_id":"4","last_reported":1766257640,"current_range_meters":6000,"station_id":"","pricing_plan_id":"cebpf4jnsgd1na2vs0mg"},{"bike_id":"aeea8b8f-7017-4851-8498-538a913c28ac","system_id":"levelo_inurba_marseille","lat":43.29626,"lon":5.37749,"is_reserved":false,"is_disabled":false,"rental_uris":{"android":"levelo://app?vid=aeea8b8f-7017-4851-8498-538a913c28ac","ios":"levelo://app?vid=aeea8b8f-7017-4851-8498-538a913c28ac"},"vehicle_type_id":"4","last_reported":1766257640,"current_range_meters":6400,"station_id":"ce4bgi92rcd13ifvqb90","pricing_plan_id":"cebpf4jnsgd1na2vs0mg"},{"bike_id":"27e6ea58-5ccf-4902-ad2a-71b7ca4e77a1","system_id":"levelo_inurba_marseille","lat":43.28865,"lon":5.4252,"is_reserved":false,"is_disabled":false,"rental_uris":{"android":"levelo://app?vid=27e6ea58-5ccf-4902-ad2a-71b7ca4e77a1","ios":"levelo://app?vid=27e6ea58-5ccf-4902-ad2a-71b7ca4e77a1"},"vehicle_type_id":"4","last_reported":1766257640,"current_range_meters":6400,"station_id":"st_d3b462108ojc7389ooeg","pricing_plan_id":"cebpf4jnsgd1na2vs0mg"},{"bike_id":"128f68df-e6c8-471d-bf6e-3a9c347712de","system_id":"levelo_inurba_marseille","lat":43.29234,"lon":5.40898,"is_reserved":false,"is_disabled":false,"rental_uris":{"android":"levelo://app?vid=128f68df-e6c8-471d-bf6e-3a9c347712de","ios":"levelo://app?vid=128f68df-e6c8-471d-bf6e-3a9c347712de"},"vehicle_type_id":"4","last_reported":1766257640,"current_range_meters":6800,"station_id":"ce4bh192rcd13ifvqdc0","pricing_plan_id":"cebpf4jnsgd1na2vs0mg"},{"bike_id":"91c907dc-ce6a-4640-9c95-aece17d49ec3","system_id":"levelo_inurba_marseille","lat":43.29618,"lon":5.377206,"is_reserved":false,"is_disabled":false,"rental_uris":{"android":"levelo://app?vid=91c907dc-ce6a-4640-9c95-aece17d49ec3","ios":"levelo://app?vid=91c907dc-ce6a-4640-9c95-aece17d49ec3"},"vehicle_type_id":"4","last_reported":1766257640,"current_range_meters":6800,"station_id":"ce4bgi92rcd13ifvqb90","pricing_plan_id":"cebpf4jnsgd1na2vs0mg"},{"bike_id":"eaa0f977-2359-4dc4-86cd-5f33c0f5df50","system_id":"levelo_inurba_marseille","lat":43.24465,"lon":5.42509,"is_reserved":false,"is_disabled":false,"rental_uris":{"android":"levelo://app?vid=eaa0f977-2359-4dc4-86cd-5f33c0f5df50","ios":"levelo://app?vid=eaa0f977-2359-4dc4-86cd-5f33c0f5df50"},"vehicle_type_id":"4","last_reported":1766257640,"current_range_meters":6800,"station_id":"st_d4a3vfp97mjs738cd8kg","pricing_plan_id":"cebpf4jnsgd1na2vs0mg"},{"bike_id":"23b7dc61-d649-4a6e-befa-9945a43955dc","system_id":"levelo_inurba_marseille","lat":43.30374,"lon":5.42488,"is_reserved":false,"is_disabled":false,"rental_uris":{"android":"levelo://app?vid=23b7dc61-d649-4a6e-befa-9945a43955dc","ios":"levelo://app?vid=23b7dc61-d649-4a6e-befa-9945a43955dc"},"vehicle_type_id":"4","last_reported":1766257640,"current_range_meters":6800,"station_id":"ce4bhoh2rcd13ifvqh6g","pricing_plan_id":"cebpf4jnsgd1na2vs0mg"},{"bike_id":"538a2746-f60c-40bb-a9a4-46b37073187c","system_id":"levelo_inurba_marseille","lat":43.24465,"lon":5.42533,"is_reserved":false,"is_disabled":false,"rental_uris":{"android":"levelo://app?vid=538a2746-f60c-40bb-a9a4-46b37073187c","ios":"levelo://app?vid=538a2746-f60c-40bb-a9a4-46b37073187c"},"vehicle_type_id":"4","last_reported":1766257640,"current_range_meters":6800,"station_id":"st_d4a3vfp97mjs738cd8kg","pricing_plan_id":"cebpf4jnsgd1na2vs0mg"},{"bike_id":"b3a07bb8-ddcd-4e86-b746-e49da9fb6b2e","system_id":"levelo_inurba_marseille","lat":43.295125,"lon":5.37498,"is_reserved":false,"is_disabled":false,"rental_uris":{"android":"levelo://app?vid=b3a07bb8-ddcd-4e86-b746-e49da9fb6b2e","ios":"levelo://app?vid=b3a07bb8-ddcd-4e86-b746-e49da9fb6b2e"},"vehicle_type_id":"4","last_reported":1766257640,"current_range_meters":6800,"station_id":"ce4bgkp2rcd13ifvqbmg","pricing_plan_id":"cebpf4jnsgd1na2vs0mg"},{"bike_id":"fcd75001-1344-42ec-a013-2f4c6240ace8","system_id":"levelo_inurba_marseille","lat":43.29811,"lon":5.3864,"is_reserved":false,"is_disabled":false,"rental_uris":{"android":"levelo://app?vid=fcd75001-1344-42ec-a013-2f4c6240ace8","ios":"levelo://app?vid=fcd75001-1344-42ec-a013-2f4c6240ace8"},"vehicle_type_id":"4","last_reported":1766257640,"current_range_meters":7200,"station_id":"","pricing_plan_id":"cebpf4jnsgd1na2vs0mg"},{"bike_id":"41513d0e-2335-4d4e-8960-5702aa2bde38","system_id":"levelo_inurba_marseille","lat":43.29222,"lon":5.36051,"is_reserved":false,"is_disabled":false,"rental_uris":{"android":"levelo://app?vid=41513d0e-2335-4d4e-8960-5702aa2bde38","ios":"levelo://app?vid=41513d0e-2335-4d4e-8960-5702aa2bde38"},"vehicle_type_id":"4","last_reported":1766257640,"current_range_meters":7200,"station_id":"ce4bhbh2rcd13ifvqeqg","pricing_plan_id":"cebpf4jnsgd1na2vs0mg"},{"bike_id":"1c79eb29-135e-40c1-8651-901759d4aaa6","system_id":"levelo_inurba_marseille","lat":43.285736,"lon":5.352984,"is_reserved":false,"is_disabled":false,"rental_uris":{"android":"levelo://app?vid=1c79eb29-135e-40c1-8651-901759d4aaa6","ios":"levelo://app?vid=1c79eb29-135e-40c1-8651-901759d4aaa6"},"vehicle_type_id":"4","last_reported":1766257640,"current_range_meters":7200,"station_id":"","pricing_plan_id":"cebpf4jnsgd1na2vs0mg"},{"bike_id":"e2a210f7-f9e4-46b2-8130-164d2089975e","system_id":"levelo_inurba_marseille","lat":43.29714,"lon":5.37693,"is_reserved":false,"is_disabled":false,"rental_uris":{"android":"levelo://app?vid=e2a210f7-f9e4-46b2-8130-164d2089975e","ios":"levelo://app?vid=e2a210f7-f9e4-46b2-8130-164d2089975e"},"vehicle_type_id":"4","last_reported":1766257640,"current_range_meters":8000,"station_id":"ce4bgkh2rcd13ifvqbl0","pricing_plan_id":"cebpf4jnsgd1na2vs0mg"},{"bike_id":"296f3a57-d52a-496d-a4a5-e9f7a2920e64","system_id":"levelo_inurba_marseille","lat":43.2767,"lon":5.38881,"is_reserved":false,"is_disabled":false,"rental_uris":{"android":"levelo://app?vid=296f3a57-d52a-496d-a4a5-e9f7a2920e64","ios":"levelo://app?vid=296f3a57-d52a-496d-a4a5-e9f7a2920e64"},"vehicle_type_id":"4","last_reported":1766257640,"current_range_meters":8000,"station_id":"ce4bhi12rcd13ifvqfo0","pricing_plan_id":"cebpf4jnsgd1na2vs0mg"},{"bike_id":"46f6c635-a42f-42f7-979c-8e7dbaa711c6","system_id":"levelo_inurba_marseille","lat":43.27855,"lon":5.35469,"is_reserved":false,"is_disabled":false,"rental_uris":{"android":"levelo://app?vid=46f6c635-a42f-42f7-979c-8e7dbaa711c6","ios":"levelo://app?vid=46f6c635-a42f-42f7-979c-8e7dbaa711c6"},"vehicle_type_id":"4","last_reported":1766257640,"current_range_meters":8000,"station_id":"","pricing_plan_id":"cebpf4jnsgd1na2vs0mg"},{"bike_id":"26c78947-38c8-4fe2-9c04-b54c7806b0ba","system_id":"levelo_inurba_marseille","lat":43.27378,"lon":5.36254,"is_reserved":false,"is_disabled":true,"rental_uris":{"android":"levelo://app?vid=26c78947-38c8-4fe2-9c04-b54c7806b0ba","ios":"levelo://app?vid=26c78947-38c8-4fe2-9c04-b54c7806b0ba"},"vehicle_type_id":"4","last_reported":1766257640,"current_range_meters":8000,"station_id":"ce4bhbh2rcd13ifvqeo0","pricing_plan_id":"cebpf4jnsgd1na2vs0mg"},{"bike_id":"c1a195c7-c52c-4d8d-b89a-4878489b9584","system_id":"levelo_inurba_marseille","lat":43.265651,"lon":5.403263,"is_reserved":false,"is_disabled":false,"rental_uris":{"android":"levelo://app?vid=c1a195c7-c52c-4d8d-b89a-4878489b9584","ios":"levelo://app?vid=c1a195c7-c52c-4d8d-b89a-4878489b9584"},"vehicle_type_id":"4","last_reported":1766257640,"current_range_meters":8000,"station_id":"ce4bhmp2rcd13ifvqgng","pricing_plan_id":"cebpf4jnsgd1na2vs0mg"},{"bike_id":"7905ae8d-cc82-4f8d-9146-9561edff9060","system_id":"levelo_inurba_marseille","lat":43.29519,"lon":5.37499,"is_reserved":false,"is_disabled":false,"rental_uris":{"android":"levelo://app?vid=7905ae8d-cc82-4f8d-9146-9561edff9060","ios":"levelo://app?vid=7905ae8d-cc82-4f8d-9146-9561edff9060"},"vehicle_type_id":"4","last_reported":1766257640,"current_range_meters":8000,"station_id":"ce4bgkp2rcd13ifvqbmg","pricing_plan_id":"cebpf4jnsgd1na2vs0mg"},{"bike_id":"e473bd1d-bff8-4fb5-a794-d58a75d9821a","system_id":"levelo_inurba_marseille","lat":43.25334,"lon":5.42173,"is_reserved":false,"is_disabled":true,"rental_uris":{"android":"levelo://app?vid=e473bd1d-bff8-4fb5-a794-d58a75d9821a","ios":"levelo://app?vid=e473bd1d-bff8-4fb5-a794-d58a75d9821a"},"vehicle_type_id":"4","last_reported":1766257640,"current_range_meters":8000,"station_id":"st_d2m65c5bi1j21697t3ng","pricing_plan_id":"cebpf4jnsgd1na2vs0mg"},{"bike_id":"f577692b-beb9-462c-a948-ba15765380b7","system_id":"levelo_inurba_marseille","lat":43.30061,"lon":5.3865,"is_reserved":false,"is_disabled":false,"rental_uris":{"android":"levelo://app?vid=f577692b-beb9-462c-a948-ba15765380b7","ios":"levelo://app?vid=f577692b-beb9-462c-a948-ba15765380b7"},"vehicle_type_id":"4","last_reported":1766257640,"current_range_meters":8000,"station_id":"","pricing_plan_id":"cebpf4jnsgd1na2vs0mg"},{"bike_id":"12138612-a604-48fa-aed1-618503ec37b2","system_id":"levelo_inurba_marseille","lat":43.26183,"lon":5.39753,"is_reserved":false,"is_disabled":false,"rental_uris":{"android":"levelo://app?vid=12138612-a604-48fa-aed1-618503ec37b2","ios":"levelo://app?vid=12138612-a604-48fa-aed1-618503ec37b2"},"vehicle_type_id":"4","last_reported":1766257640,"current_range_meters":8000,"station_id":"","pricing_plan_id":"cebpf4jnsgd1na2vs0mg"},{"bike_id":"6ec9a6be-eed9-4adb-a34f-9a64c85ea37b","system_id":"levelo_inurba_marseille","lat":43.30635,"lon":5.37569,"is_reserved":false,"is_disabled":false,"rental_uris":{"android":"levelo://app?vid=6ec9a6be-eed9-4adb-a34f-9a64c85ea37b","ios":"levelo://app?vid=6ec9a6be-eed9-4adb-a34f-9a64c85ea37b"},"vehicle_type_id":"4","last_reported":1766257640,"current_range_meters":8000,"station_id":"","pricing_plan_id":"cebpf4jnsgd1na2vs0mg"},{"bike_id":"631c7a9a-8957-4f4f-af1b-c37ed06ca5d4","system_id":"levelo_inurba_marseille","lat":43.25337,"lon":5.42165,"is_reserved":false,"is_disabled":false,"rental_uris":{"android":"levelo://app?vid=631c7a9a-8957-4f4f-af1b-c37ed06ca5d4","ios":"levelo://app?vid=631c7a9a-8957-4f4f-af1b-c37ed06ca5d4"},"vehicle_type_id":"4","last_reported":1766257640,"current_range_meters":8000,"station_id":"st_d2m65c5bi1j21697t3ng","pricing_plan_id":"cebpf4jnsgd1na2vs0mg"},{"bike_id":"d6eef481-8da3-4fc0-be6e-4b6f06ca446b","system_id":"levelo_inurba_marseille","lat":43.27809,"lon":5.40719,"is_reserved":false,"is_disabled":false,"rental_uris":{"android":"levelo://app?vid=d6eef481-8da3-4fc0-be6e-4b6f06ca446b","ios":"levelo://app?vid=d6eef481-8da3-4fc0-be6e-4b6f06ca446b"},"vehicle_type_id":"4","last_reported":1766257640,"current_range_meters":8000,"station_id":"ce4bhnh2rcd13ifvqgtg","pricing_plan_id":"cebpf4jnsgd1na2vs0mg"},{"bike_id":"4f05c3ed-8bbc-43d1-bd3e-ea7806a310c4","system_id":"levelo_inurba_marseille","lat":43.2848,"lon":5.38547,"is_reserved":false,"is_disabled":false,"rental_uris":{"android":"levelo://app?vid=4f05c3ed-8bbc-43d1-bd3e-ea7806a310c4","ios":"levelo://app?vid=4f05c3ed-8bbc-43d1-bd3e-ea7806a310c4"},"vehicle_type_id":"4","last_reported":1766257640,"current_range_meters":8000,"station_id":"ce4bh8p2rcd13ifvqeb0","pricing_plan_id":"cebpf4jnsgd1na2vs0mg"},{"bike_id":"c918ccb2-84bc-4ec9-8d01-88b170b1e882","system_id":"levelo_inurba_marseille","lat":43.25868,"lon":5.39905,"is_reserved":false,"is_disabled":false,"rental_uris":{"android":"levelo://app?vid=c918ccb2-84bc-4ec9-8d01-88b170b1e882","ios":"levelo://app?vid=c918ccb2-84bc-4ec9-8d01-88b170b1e882"},"vehicle_type_id":"4","last_reported":1766257640,"current_range_meters":8000,"station_id":"ce4bhl92rcd13ifvqghg","pricing_plan_id":"cebpf4jnsgd1na2vs0mg"},{"bike_id":"c83d1f55-848c-49d2-a645-18db8b752e41","system_id":"levelo_inurba_marseille","lat":43.27997,"lon":5.41672,"is_reserved":false,"is_disabled":false,"rental_uris":{"android":"levelo://app?vid=c83d1f55-848c-49d2-a645-18db8b752e41","ios":"levelo://app?vid=c83d1f55-848c-49d2-a645-18db8b752e41"},"vehicle_type_id":"4","last_reported":1766257640,"current_range_meters":8400,"station_id":"ce4bho12rcd13ifvqh1g","pricing_plan_id":"cebpf4jnsgd1na2vs0mg"},{"bike_id":"ec00d8e8-414a-4095-9fde-32c571e8ceca","system_id":"levelo_inurba_marseille","lat":43.28924,"lon":5.38399,"is_reserved":false,"is_disabled":false,"rental_uris":{"android":"levelo://app?vid=ec00d8e8-414a-4095-9fde-32c571e8ceca","ios":"levelo://app?vid=ec00d8e8-414a-4095-9fde-32c571e8ceca"},"vehicle_type_id":"4","last_reported":1766257640,"current_range_meters":8400,"station_id":"ce4bh612rcd13ifvqe6g","pricing_plan_id":"cebpf4jnsgd1na2vs0mg"},{"bike_id":"c34a0d0c-b6ee-4639-ac83-df6020052bfb","system_id":"levelo_inurba_marseille","lat":43.30638,"lon":5.40089,"is_reserved":false,"is_disabled":false,"rental_uris":{"android":"levelo://app?vid=c34a0d0c-b6ee-4639-ac83-df6020052bfb","ios":"levelo://app?vid=c34a0d0c-b6ee-4639-ac83-df6020052bfb"},"vehicle_type_id":"4","last_reported":1766257640,"current_range_meters":8400,"station_id":"ce4bh112rcd13ifvqda0","pricing_plan_id":"cebpf4jnsgd1na2vs0mg"},{"bike_id":"207776d7-b88e-48a6-b74f-2b1aae5e54c7","system_id":"levelo_inurba_marseille","lat":43.268961,"lon":5.387159,"is_reserved":false,"is_disabled":true,"rental_uris":{"android":"levelo://app?vid=207776d7-b88e-48a6-b74f-2b1aae5e54c7","ios":"levelo://app?vid=207776d7-b88e-48a6-b74f-2b1aae5e54c7"},"vehicle_type_id":"4","last_reported":1766257640,"current_range_meters":8400,"station_id":"","pricing_plan_id":"cebpf4jnsgd1na2vs0mg"},{"bike_id":"8ddf5f0b-8638-4227-b0ee-efe27c023df6","system_id":"levelo_inurba_marseille","lat":43.308014,"lon":5.381433,"is_reserved":false,"is_disabled":true,"rental_uris":{"android":"levelo://app?vid=8ddf5f0b-8638-4227-b0ee-efe27c023df6","ios":"levelo://app?vid=8ddf5f0b-8638-4227-b0ee-efe27c023df6"},"vehicle_type_id":"4","last_reported":1766257640,"current_range_meters":8400,"station_id":"ce4bgjp2rcd13ifvqbh0","pricing_plan_id":"cebpf4jnsgd1na2vs0mg"},{"bike_id":"342f1aab-f383-4095-9af9-476f39ec27e6","system_id":"levelo_inurba_marseille","lat":43.22563,"lon":5.41627,"is_reserved":false,"is_disabled":false,"rental_uris":{"android":"levelo://app?vid=342f1aab-f383-4095-9af9-476f39ec27e6","ios":"levelo://app?vid=342f1aab-f383-4095-9af9-476f39ec27e6"},"vehicle_type_id":"4","last_reported":1766257640,"current_range_meters":8400,"station_id":"st_d2o4gvlbi1j2169b742g","pricing_plan_id":"cebpf4jnsgd1na2vs0mg"},{"bike_id":"657677ff-bd0f-45b9-a985-0cee09b5fde2","system_id":"levelo_inurba_marseille","lat":43.31721,"lon":5.43688,"is_reserved":false,"is_disabled":false,"rental_uris":{"android":"levelo://app?vid=657677ff-bd0f-45b9-a985-0cee09b5fde2","ios":"levelo://app?vid=657677ff-bd0f-45b9-a985-0cee09b5fde2"},"vehicle_type_id":"4","last_reported":1766257640,"current_range_meters":8400,"station_id":"ce4bhp92rcd13ifvqhcg","pricing_plan_id":"cebpf4jnsgd1na2vs0mg"},{"bike_id":"0f9cf49a-a542-457b-9bb8-7dbdc79e4286","system_id":"levelo_inurba_marseille","lat":43.28367,"lon":5.38633,"is_reserved":false,"is_disabled":false,"rental_uris":{"android":"levelo://app?vid=0f9cf49a-a542-457b-9bb8-7dbdc79e4286","ios":"levelo://app?vid=0f9cf49a-a542-457b-9bb8-7dbdc79e4286"},"vehicle_type_id":"4","last_reported":1766257640,"current_range_meters":8800,"station_id":"ce4bh492rcd13ifvqdvg","pricing_plan_id":"cebpf4jnsgd1na2vs0mg"},{"bike_id":"3fbe86d6-50aa-4dbb-b535-cf846f212f8d","system_id":"levelo_inurba_marseille","lat":43.212,"lon":5.35064,"is_reserved":false,"is_disabled":true,"rental_uris":{"android":"levelo://app?vid=3fbe86d6-50aa-4dbb-b535-cf846f212f8d","ios":"levelo://app?vid=3fbe86d6-50aa-4dbb-b535-cf846f212f8d"},"vehicle_type_id":"4","last_reported":1766257640,"current_range_meters":8800,"station_id":"","pricing_plan_id":"cebpf4jnsgd1na2vs0mg"},{"bike_id":"bbe6d64f-2cb1-409d-ba24-ff27de876e43","system_id":"levelo_inurba_marseille","lat":43.28524,"lon":5.44105,"is_reserved":false,"is_disabled":false,"rental_uris":{"android":"levelo://app?vid=bbe6d64f-2cb1-409d-ba24-ff27de876e43","ios":"levelo://app?vid=bbe6d64f-2cb1-409d-ba24-ff27de876e43"},"vehicle_type_id":"4","last_reported":1766257640,"current_range_meters":8800,"station_id":"st_d3j3df2ikq2c7380ej80","pricing_plan_id":"cebpf4jnsgd1na2vs0mg"},{"bike_id":"d5c2d554-5edd-4b1f-8bbf-acce17eb866f","system_id":"levelo_inurba_marseille","lat":43.29332,"lon":5.37548,"is_reserved":false,"is_disabled":true,"rental_uris":{"android":"levelo://app?vid=d5c2d554-5edd-4b1f-8bbf-acce17eb866f","ios":"levelo://app?vid=d5c2d554-5edd-4b1f-8bbf-acce17eb866f"},"vehicle_type_id":"4","last_reported":1766257640,"current_range_meters":8800,"station_id":"","pricing_plan_id":"cebpf4jnsgd1na2vs0mg"},{"bike_id":"f1c6ef30-df40-4531-b632-19b3b8de3f93","system_id":"levelo_inurba_marseille","lat":43.337444,"lon":5.374475,"is_reserved":false,"is_disabled":false,"rental_uris":{"android":"levelo://app?vid=f1c6ef30-df40-4531-b632-19b3b8de3f93","ios":"levelo://app?vid=f1c6ef30-df40-4531-b632-19b3b8de3f93"},"vehicle_type_id":"4","last_reported":1766257640,"current_range_meters":8800,"station_id":"","pricing_plan_id":"cebpf4jnsgd1na2vs0mg"},{"bike_id":"496c4dc9-2838-4bdf-bbab-23ff7f706f36","system_id":"levelo_inurba_marseille","lat":43.30681,"lon":5.395104,"is_reserved":false,"is_disabled":false,"rental_uris":{"android":"levelo://app?vid=496c4dc9-2838-4bdf-bbab-23ff7f706f36","ios":"levelo://app?vid=496c4dc9-2838-4bdf-bbab-23ff7f706f36"},"vehicle_type_id":"4","last_reported":1766257640,"current_range_meters":8800,"station_id":"ce4bh012rcd13ifvqcv0","pricing_plan_id":"cebpf4jnsgd1na2vs0mg"},{"bike_id":"3082ab75-2c15-422b-9739-f0cf65236f2d","system_id":"levelo_inurba_marseille","lat":43.24666,"lon":5.38197,"is_reserved":false,"is_disabled":false,"rental_uris":{"android":"levelo://app?vid=3082ab75-2c15-422b-9739-f0cf65236f2d","ios":"levelo://app?vid=3082ab75-2c15-422b-9739-f0cf65236f2d"},"vehicle_type_id":"4","last_reported":1766257640,"current_range_meters":8800,"station_id":"ce4bhih2rcd13ifvqfr0","pricing_plan_id":"cebpf4jnsgd1na2vs0mg"},{"bike_id":"342831ac-e927-49d6-8b43-22fa72e5bef8","system_id":"levelo_inurba_marseille","lat":43.28027,"lon":5.38753,"is_reserved":false,"is_disabled":false,"rental_uris":{"android":"levelo://app?vid=342831ac-e927-49d6-8b43-22fa72e5bef8","ios":"levelo://app?vid=342831ac-e927-49d6-8b43-22fa72e5bef8"},"vehicle_type_id":"4","last_reported":1766257640,"current_range_meters":8800,"station_id":"","pricing_plan_id":"cebpf4jnsgd1na2vs0mg"},{"bike_id":"ce9b0ccc-7bfd-4069-a59b-fd440a9983df","system_id":"levelo_inurba_marseille","lat":43.295186,"lon":5.375008,"is_reserved":false,"is_disabled":false,"rental_uris":{"android":"levelo://app?vid=ce9b0ccc-7bfd-4069-a59b-fd440a9983df","ios":"levelo://app?vid=ce9b0ccc-7bfd-4069-a59b-fd440a9983df"},"vehicle_type_id":"4","last_reported":1766257640,"current_range_meters":8800,"station_id":"ce4bgkp2rcd13ifvqbmg","pricing_plan_id":"cebpf4jnsgd1na2vs0mg"},{"bike_id":"2774eca9-c878-4033-8514-2330fd47f167","system_id":"levelo_inurba_marseille","lat":43.28477,"lon":5.48403,"is_reserved":false,"is_disabled":false,"rental_uris":{"android":"levelo://app?vid=2774eca9-c878-4033-8514-2330fd47f167","ios":"levelo://app?vid=2774eca9-c878-4033-8514-2330fd47f167"},"vehicle_type_id":"4","last_reported":1766257640,"current_range_meters":8800,"station_id":"","pricing_plan_id":"cebpf4jnsgd1na2vs0mg"},{"bike_id":"3d8062de-4bd0-49c7-86a6-7bf3b5df4845","system_id":"levelo_inurba_marseille","lat":43.28482,"lon":5.48404,"is_reserved":false,"is_disabled":false,"rental_uris":{"android":"levelo://app?vid=3d8062de-4bd0-49c7-86a6-7bf3b5df4845","ios":"levelo://app?vid=3d8062de-4bd0-49c7-86a6-7bf3b5df4845"},"vehicle_type_id":"4","last_reported":1766257640,"current_range_meters":8800,"station_id":"st_d3svhcjqgbts73a3dn0g","pricing_plan_id":"cebpf4jnsgd1na2vs0mg"},{"bike_id":"59aab69d-aa14-4a71-8d9b-0aa143ba58f2","system_id":"levelo_inurba_marseille","lat":43.2854,"lon":5.4409,"is_reserved":false,"is_disabled":false,"rental_uris":{"android":"levelo://app?vid=59aab69d-aa14-4a71-8d9b-0aa143ba58f2","ios":"levelo://app?vid=59aab69d-aa14-4a71-8d9b-0aa143ba58f2"},"vehicle_type_id":"4","last_reported":1766257640,"current_range_meters":8800,"station_id":"st_d3j3df2ikq2c7380ej80","pricing_plan_id":"cebpf4jnsgd1na2vs0mg"},{"bike_id":"025bcf3c-9127-4e0c-b7ed-8709d35ce958","system_id":"levelo_inurba_marseille","lat":43.317537,"lon":5.37216,"is_reserved":false,"is_disabled":false,"rental_uris":{"android":"levelo://app?vid=025bcf3c-9127-4e0c-b7ed-8709d35ce958","ios":"levelo://app?vid=025bcf3c-9127-4e0c-b7ed-8709d35ce958"},"vehicle_type_id":"4","last_reported":1766257640,"current_range_meters":9200,"station_id":"","pricing_plan_id":"cebpf4jnsgd1na2vs0mg"},{"bike_id":"e42ac7ed-f66a-44b4-b394-3418e57e1ec0","system_id":"levelo_inurba_marseille","lat":43.21196,"lon":5.35064,"is_reserved":false,"is_disabled":true,"rental_uris":{"android":"levelo://app?vid=e42ac7ed-f66a-44b4-b394-3418e57e1ec0","ios":"levelo://app?vid=e42ac7ed-f66a-44b4-b394-3418e57e1ec0"},"vehicle_type_id":"4","last_reported":1766257640,"current_range_meters":9200,"station_id":"st_cvj6sg6p6f1abm77japg","pricing_plan_id":"cebpf4jnsgd1na2vs0mg"},{"bike_id":"99ad97c1-5a83-4b1c-9cf1-08492f7d7210","system_id":"levelo_inurba_marseille","lat":43.29249,"lon":5.409,"is_reserved":false,"is_disabled":false,"rental_uris":{"android":"levelo://app?vid=99ad97c1-5a83-4b1c-9cf1-08492f7d7210","ios":"levelo://app?vid=99ad97c1-5a83-4b1c-9cf1-08492f7d7210"},"vehicle_type_id":"4","last_reported":1766257640,"current_range_meters":9200,"station_id":"ce4bh192rcd13ifvqdc0","pricing_plan_id":"cebpf4jnsgd1na2vs0mg"},{"bike_id":"bcb638ec-1f7a-45bb-913f-62a7a0a453a1","system_id":"levelo_inurba_marseille","lat":43.29835,"lon":5.38574,"is_reserved":false,"is_disabled":false,"rental_uris":{"android":"levelo://app?vid=bcb638ec-1f7a-45bb-913f-62a7a0a453a1","ios":"levelo://app?vid=bcb638ec-1f7a-45bb-913f-62a7a0a453a1"},"vehicle_type_id":"4","last_reported":1766257640,"current_range_meters":9200,"station_id":"","pricing_plan_id":"cebpf4jnsgd1na2vs0mg"},{"bike_id":"16cbd352-d293-4a94-96f0-eea08a192136","system_id":"levelo_inurba_marseille","lat":43.26467,"lon":5.3906,"is_reserved":false,"is_disabled":false,"rental_uris":{"android":"levelo://app?vid=16cbd352-d293-4a94-96f0-eea08a192136","ios":"levelo://app?vid=16cbd352-d293-4a94-96f0-eea08a192136"},"vehicle_type_id":"4","last_reported":1766257640,"current_range_meters":9200,"station_id":"","pricing_plan_id":"cebpf4jnsgd1na2vs0mg"},{"bike_id":"ad96ab35-147e-4b00-8b43-b29c4d85a4c0","system_id":"levelo_inurba_marseille","lat":43.29663,"lon":5.36943,"is_reserved":false,"is_disabled":false,"rental_uris":{"android":"levelo://app?vid=ad96ab35-147e-4b00-8b43-b29c4d85a4c0","ios":"levelo://app?vid=ad96ab35-147e-4b00-8b43-b29c4d85a4c0"},"vehicle_type_id":"4","last_reported":1766257640,"current_range_meters":9200,"station_id":"","pricing_plan_id":"cebpf4jnsgd1na2vs0mg"},{"bike_id":"156e61f2-3d75-4260-9924-a8b3ec92c21b","system_id":"levelo_inurba_marseille","lat":43.22563,"lon":5.41639,"is_reserved":false,"is_disabled":true,"rental_uris":{"android":"levelo://app?vid=156e61f2-3d75-4260-9924-a8b3ec92c21b","ios":"levelo://app?vid=156e61f2-3d75-4260-9924-a8b3ec92c21b"},"vehicle_type_id":"4","last_reported":1766257640,"current_range_meters":9200,"station_id":"st_d2o4gvlbi1j2169b742g","pricing_plan_id":"cebpf4jnsgd1na2vs0mg"},{"bike_id":"2308754b-8a18-4e71-b8a0-3b96bb00dc33","system_id":"levelo_inurba_marseille","lat":43.31117,"lon":5.37763,"is_reserved":false,"is_disabled":false,"rental_uris":{"android":"levelo://app?vid=2308754b-8a18-4e71-b8a0-3b96bb00dc33","ios":"levelo://app?vid=2308754b-8a18-4e71-b8a0-3b96bb00dc33"},"vehicle_type_id":"4","last_reported":1766257640,"current_range_meters":9200,"station_id":"ce4bgt92rcd13ifvqcg0","pricing_plan_id":"cebpf4jnsgd1na2vs0mg"},{"bike_id":"e18d88c4-447f-4613-ac8f-5a6e3bb9a21c","system_id":"levelo_inurba_marseille","lat":43.29809,"lon":5.44067,"is_reserved":false,"is_disabled":false,"rental_uris":{"android":"levelo://app?vid=e18d88c4-447f-4613-ac8f-5a6e3bb9a21c","ios":"levelo://app?vid=e18d88c4-447f-4613-ac8f-5a6e3bb9a21c"},"vehicle_type_id":"4","last_reported":1766257640,"current_range_meters":9200,"station_id":"st_d3jp68qikq2c7381ktn0","pricing_plan_id":"cebpf4jnsgd1na2vs0mg"},{"bike_id":"dc3689f5-e765-4c32-91f9-79dc71fe1c49","system_id":"levelo_inurba_marseille","lat":43.249476,"lon":5.404784,"is_reserved":false,"is_disabled":false,"rental_uris":{"android":"levelo://app?vid=dc3689f5-e765-4c32-91f9-79dc71fe1c49","ios":"levelo://app?vid=dc3689f5-e765-4c32-91f9-79dc71fe1c49"},"vehicle_type_id":"4","last_reported":1766257640,"current_range_meters":9200,"station_id":"st_d2ngiaodas8pm72gd1h0","pricing_plan_id":"cebpf4jnsgd1na2vs0mg"},{"bike_id":"a155df3e-4b60-4af2-bb99-ef9672812592","system_id":"levelo_inurba_marseille","lat":43.31187,"lon":5.38134,"is_reserved":false,"is_disabled":false,"rental_uris":{"android":"levelo://app?vid=a155df3e-4b60-4af2-bb99-ef9672812592","ios":"levelo://app?vid=a155df3e-4b60-4af2-bb99-ef9672812592"},"vehicle_type_id":"4","last_reported":1766257640,"current_range_meters":9200,"station_id":"","pricing_plan_id":"cebpf4jnsgd1na2vs0mg"},{"bike_id":"4c4369b8-27a8-4381-a3ee-cf1d7ba0ad4d","system_id":"levelo_inurba_marseille","lat":43.29717,"lon":5.36617,"is_reserved":false,"is_disabled":false,"rental_uris":{"android":"levelo://app?vid=4c4369b8-27a8-4381-a3ee-cf1d7ba0ad4d","ios":"levelo://app?vid=4c4369b8-27a8-4381-a3ee-cf1d7ba0ad4d"},"vehicle_type_id":"4","last_reported":1766257640,"current_range_meters":9200,"station_id":"ce4bgn12rcd13ifvqbt0","pricing_plan_id":"cebpf4jnsgd1na2vs0mg"},{"bike_id":"b09a94b6-0875-4bbe-a243-fd824c201a7e","system_id":"levelo_inurba_marseille","lat":43.2886,"lon":5.3586,"is_reserved":false,"is_disabled":false,"rental_uris":{"android":"levelo://app?vid=b09a94b6-0875-4bbe-a243-fd824c201a7e","ios":"levelo://app?vid=b09a94b6-0875-4bbe-a243-fd824c201a7e"},"vehicle_type_id":"4","last_reported":1766257640,"current_range_meters":9600,"station_id":"ce4bhb12rcd13ifvqem0","pricing_plan_id":"cebpf4jnsgd1na2vs0mg"},{"bike_id":"0c1f6896-cbd5-4c55-b68a-3cd9b92201dc","system_id":"levelo_inurba_marseille","lat":43.29895,"lon":5.43666,"is_reserved":false,"is_disabled":false,"rental_uris":{"android":"levelo://app?vid=0c1f6896-cbd5-4c55-b68a-3cd9b92201dc","ios":"levelo://app?vid=0c1f6896-cbd5-4c55-b68a-3cd9b92201dc"},"vehicle_type_id":"4","last_reported":1766257640,"current_range_meters":9600,"station_id":"ce4bhpp2rcd13ifvqhfg","pricing_plan_id":"cebpf4jnsgd1na2vs0mg"},{"bike_id":"20e9dd8e-ed66-4bff-9188-35cbfde59a24","system_id":"levelo_inurba_marseille","lat":43.32323,"lon":5.39369,"is_reserved":false,"is_disabled":true,"rental_uris":{"android":"levelo://app?vid=20e9dd8e-ed66-4bff-9188-35cbfde59a24","ios":"levelo://app?vid=20e9dd8e-ed66-4bff-9188-35cbfde59a24"},"vehicle_type_id":"4","last_reported":1766257640,"current_range_meters":9600,"station_id":"","pricing_plan_id":"cebpf4jnsgd1na2vs0mg"},{"bike_id":"af1f9193-90aa-4f34-b2c4-fb0bbaea183c","system_id":"levelo_inurba_marseille","lat":43.28641,"lon":5.48495,"is_reserved":false,"is_disabled":false,"rental_uris":{"android":"levelo://app?vid=af1f9193-90aa-4f34-b2c4-fb0bbaea183c","ios":"levelo://app?vid=af1f9193-90aa-4f34-b2c4-fb0bbaea183c"},"vehicle_type_id":"4","last_reported":1766257640,"current_range_meters":9600,"station_id":"st_d3svhcjqgbts73a3dn0g","pricing_plan_id":"cebpf4jnsgd1na2vs0mg"},{"bike_id":"28d36d66-e4d6-4e13-a6c5-33e9d81e47d2","system_id":"levelo_inurba_marseille","lat":43.29609,"lon":5.37716,"is_reserved":false,"is_disabled":false,"rental_uris":{"android":"levelo://app?vid=28d36d66-e4d6-4e13-a6c5-33e9d81e47d2","ios":"levelo://app?vid=28d36d66-e4d6-4e13-a6c5-33e9d81e47d2"},"vehicle_type_id":"4","last_reported":1766257640,"current_range_meters":10000,"station_id":"ce4bgi92rcd13ifvqb90","pricing_plan_id":"cebpf4jnsgd1na2vs0mg"},{"bike_id":"3fc67d56-5413-461c-a075-6fa7de5c1547","system_id":"levelo_inurba_marseille","lat":43.241773,"lon":5.397378,"is_reserved":false,"is_disabled":false,"rental_uris":{"android":"levelo://app?vid=3fc67d56-5413-461c-a075-6fa7de5c1547","ios":"levelo://app?vid=3fc67d56-5413-461c-a075-6fa7de5c1547"},"vehicle_type_id":"4","last_reported":1766257640,"current_range_meters":10000,"station_id":"ce4bhn12rcd13ifvqgpg","pricing_plan_id":"cebpf4jnsgd1na2vs0mg"},{"bike_id":"b93ee6cd-d46b-4d33-8313-23684a41a56c","system_id":"levelo_inurba_marseille","lat":43.23802,"lon":5.36615,"is_reserved":false,"is_disabled":false,"rental_uris":{"android":"levelo://app?vid=b93ee6cd-d46b-4d33-8313-23684a41a56c","ios":"levelo://app?vid=b93ee6cd-d46b-4d33-8313-23684a41a56c"},"vehicle_type_id":"4","last_reported":1766257640,"current_range_meters":10000,"station_id":"st_d3nk18o9ro0c73en2l3g","pricing_plan_id":"cebpf4jnsgd1na2vs0mg"},{"bike_id":"db3dd2e5-bfe5-4ef9-ac56-a9eab3a3f3f6","system_id":"levelo_inurba_marseille","lat":43.29277,"lon":5.36834,"is_reserved":false,"is_disabled":false,"rental_uris":{"android":"levelo://app?vid=db3dd2e5-bfe5-4ef9-ac56-a9eab3a3f3f6","ios":"levelo://app?vid=db3dd2e5-bfe5-4ef9-ac56-a9eab3a3f3f6"},"vehicle_type_id":"4","last_reported":1766257640,"current_range_meters":10000,"station_id":"","pricing_plan_id":"cebpf4jnsgd1na2vs0mg"},{"bike_id":"13510b18-4a9b-47d0-a954-6d7cdc2c118c","system_id":"levelo_inurba_marseille","lat":43.28479,"lon":5.48393,"is_reserved":false,"is_disabled":false,"rental_uris":{"android":"levelo://app?vid=13510b18-4a9b-47d0-a954-6d7cdc2c118c","ios":"levelo://app?vid=13510b18-4a9b-47d0-a954-6d7cdc2c118c"},"vehicle_type_id":"4","last_reported":1766257640,"current_range_meters":10000,"station_id":"","pricing_plan_id":"cebpf4jnsgd1na2vs0mg"},{"bike_id":"715d9561-8fa5-47bb-9c01-bb5405ae1ea0","system_id":"levelo_inurba_marseille","lat":43.29526,"lon":5.37487,"is_reserved":false,"is_disabled":false,"rental_uris":{"android":"levelo://app?vid=715d9561-8fa5-47bb-9c01-bb5405ae1ea0","ios":"levelo://app?vid=715d9561-8fa5-47bb-9c01-bb5405ae1ea0"},"vehicle_type_id":"4","last_reported":1766257640,"current_range_meters":10000,"station_id":"ce4bgkp2rcd13ifvqbmg","pricing_plan_id":"cebpf4jnsgd1na2vs0mg"},{"bike_id":"9ed2abc5-3eb4-46ee-9006-c9e3411abb84","system_id":"levelo_inurba_marseille","lat":43.26373,"lon":5.39913,"is_reserved":false,"is_disabled":false,"rental_uris":{"android":"levelo://app?vid=9ed2abc5-3eb4-46ee-9006-c9e3411abb84","ios":"levelo://app?vid=9ed2abc5-3eb4-46ee-9006-c9e3411abb84"},"vehicle_type_id":"4","last_reported":1766257640,"current_range_meters":10000,"station_id":"","pricing_plan_id":"cebpf4jnsgd1na2vs0mg"},{"bike_id":"58f87c76-b6e5-4c72-80ec-d697a05c9e28","system_id":"levelo_inurba_marseille","lat":43.25106,"lon":5.40327,"is_reserved":false,"is_disabled":false,"rental_uris":{"android":"levelo://app?vid=58f87c76-b6e5-4c72-80ec-d697a05c9e28","ios":"levelo://app?vid=58f87c76-b6e5-4c72-80ec-d697a05c9e28"},"vehicle_type_id":"4","last_reported":1766257640,"current_range_meters":10000,"station_id":"ce4bhlh2rcd13ifvqgig","pricing_plan_id":"cebpf4jnsgd1na2vs0mg"},{"bike_id":"e690c867-6f92-4878-bff7-a3243322d024","system_id":"levelo_inurba_marseille","lat":43.29494,"lon":5.42755,"is_reserved":false,"is_disabled":false,"rental_uris":{"android":"levelo://app?vid=e690c867-6f92-4878-bff7-a3243322d024","ios":"levelo://app?vid=e690c867-6f92-4878-bff7-a3243322d024"},"vehicle_type_id":"4","last_reported":1766257640,"current_range_meters":10000,"station_id":"","pricing_plan_id":"cebpf4jnsgd1na2vs0mg"},{"bike_id":"8c3bb80d-c85a-4921-aa94-9dd5cdc9e58a","system_id":"levelo_inurba_marseille","lat":43.29486,"lon":5.43295,"is_reserved":false,"is_disabled":false,"rental_uris":{"android":"levelo://app?vid=8c3bb80d-c85a-4921-aa94-9dd5cdc9e58a","ios":"levelo://app?vid=8c3bb80d-c85a-4921-aa94-9dd5cdc9e58a"},"vehicle_type_id":"4","last_reported":1766257640,"current_range_meters":10000,"station_id":"st_d3j5ugp08ojc73fj9d10","pricing_plan_id":"cebpf4jnsgd1na2vs0mg"},{"bike_id":"433682d4-03ed-43e6-ab83-135b037774e9","system_id":"levelo_inurba_marseille","lat":43.293047,"lon":5.371798,"is_reserved":false,"is_disabled":false,"rental_uris":{"android":"levelo://app?vid=433682d4-03ed-43e6-ab83-135b037774e9","ios":"levelo://app?vid=433682d4-03ed-43e6-ab83-135b037774e9"},"vehicle_type_id":"4","last_reported":1766257640,"current_range_meters":10000,"station_id":"ce4bgh92rcd13ifvqb40","pricing_plan_id":"cebpf4jnsgd1na2vs0mg"},{"bike_id":"4f2bc6c6-d63f-4e59-bdbf-91760def261d","system_id":"levelo_inurba_marseille","lat":43.28537,"lon":5.44121,"is_reserved":false,"is_disabled":false,"rental_uris":{"android":"levelo://app?vid=4f2bc6c6-d63f-4e59-bdbf-91760def261d","ios":"levelo://app?vid=4f2bc6c6-d63f-4e59-bdbf-91760def261d"},"vehicle_type_id":"4","last_reported":1766257640,"current_range_meters":10000,"station_id":"st_d3j3df2ikq2c7380ej80","pricing_plan_id":"cebpf4jnsgd1na2vs0mg"},{"bike_id":"b104b495-c225-471b-b213-7e4cd374e14e","system_id":"levelo_inurba_marseille","lat":43.23191,"lon":5.35552,"is_reserved":false,"is_disabled":false,"rental_uris":{"android":"levelo://app?vid=b104b495-c225-471b-b213-7e4cd374e14e","ios":"levelo://app?vid=b104b495-c225-471b-b213-7e4cd374e14e"},"vehicle_type_id":"4","last_reported":1766257640,"current_range_meters":10000,"station_id":"ce4bhu92rcd13ifvqi70","pricing_plan_id":"cebpf4jnsgd1na2vs0mg"},{"bike_id":"dfccbf41-a7cb-4727-b23d-1b76f2eb4f29","system_id":"levelo_inurba_marseille","lat":43.2953,"lon":5.37501,"is_reserved":false,"is_disabled":false,"rental_uris":{"android":"levelo://app?vid=dfccbf41-a7cb-4727-b23d-1b76f2eb4f29","ios":"levelo://app?vid=dfccbf41-a7cb-4727-b23d-1b76f2eb4f29"},"vehicle_type_id":"4","last_reported":1766257640,"current_range_meters":10000,"station_id":"ce4bgkp2rcd13ifvqbmg","pricing_plan_id":"cebpf4jnsgd1na2vs0mg"},{"bike_id":"b3c8f5a4-d9bf-4da3-88fa-e5be12bab517","system_id":"levelo_inurba_marseille","lat":43.23181,"lon":5.39992,"is_reserved":false,"is_disabled":false,"rental_uris":{"android":"levelo://app?vid=b3c8f5a4-d9bf-4da3-88fa-e5be12bab517","ios":"levelo://app?vid=b3c8f5a4-d9bf-4da3-88fa-e5be12bab517"},"vehicle_type_id":"4","last_reported":1766257640,"current_range_meters":10000,"station_id":"ce4bhn12rcd13ifvqgqg","pricing_plan_id":"cebpf4jnsgd1na2vs0mg"},{"bike_id":"0fb1c0c4-2d5d-4ee1-a5dc-0486b6ff1f0e","system_id":"levelo_inurba_marseille","lat":43.29569,"lon":5.37519,"is_reserved":false,"is_disabled":false,"rental_uris":{"android":"levelo://app?vid=0fb1c0c4-2d5d-4ee1-a5dc-0486b6ff1f0e","ios":"levelo://app?vid=0fb1c0c4-2d5d-4ee1-a5dc-0486b6ff1f0e"},"vehicle_type_id":"4","last_reported":1766257640,"current_range_meters":10000,"station_id":"ce4bgh92rcd13ifvqb50","pricing_plan_id":"cebpf4jnsgd1na2vs0mg"},{"bike_id":"90dac6f2-4e58-4623-b929-4f8d06ec1c31","system_id":"levelo_inurba_marseille","lat":43.28508,"lon":5.42543,"is_reserved":false,"is_disabled":false,"rental_uris":{"android":"levelo://app?vid=90dac6f2-4e58-4623-b929-4f8d06ec1c31","ios":"levelo://app?vid=90dac6f2-4e58-4623-b929-4f8d06ec1c31"},"vehicle_type_id":"4","last_reported":1766257640,"current_range_meters":10800,"station_id":"","pricing_plan_id":"cebpf4jnsgd1na2vs0mg"},{"bike_id":"3c6e115a-4e88-4ff0-a629-f9b030c94498","system_id":"levelo_inurba_marseille","lat":43.24685,"lon":5.38177,"is_reserved":false,"is_disabled":true,"rental_uris":{"android":"levelo://app?vid=3c6e115a-4e88-4ff0-a629-f9b030c94498","ios":"levelo://app?vid=3c6e115a-4e88-4ff0-a629-f9b030c94498"},"vehicle_type_id":"4","last_reported":1766257640,"current_range_meters":10800,"station_id":"ce4bhih2rcd13ifvqfr0","pricing_plan_id":"cebpf4jnsgd1na2vs0mg"},{"bike_id":"9288dce9-f7b9-4348-89e0-817fc8bdda7b","system_id":"levelo_inurba_marseille","lat":43.29579,"lon":5.37505,"is_reserved":false,"is_disabled":false,"rental_uris":{"android":"levelo://app?vid=9288dce9-f7b9-4348-89e0-817fc8bdda7b","ios":"levelo://app?vid=9288dce9-f7b9-4348-89e0-817fc8bdda7b"},"vehicle_type_id":"4","last_reported":1766257640,"current_range_meters":10800,"station_id":"ce4bgh92rcd13ifvqb50","pricing_plan_id":"cebpf4jnsgd1na2vs0mg"},{"bike_id":"d333f5c5-54f8-4cf5-940a-bb6a2ed8e5fd","system_id":"levelo_inurba_marseille","lat":43.30539,"lon":5.37623,"is_reserved":false,"is_disabled":false,"rental_uris":{"android":"levelo://app?vid=d333f5c5-54f8-4cf5-940a-bb6a2ed8e5fd","ios":"levelo://app?vid=d333f5c5-54f8-4cf5-940a-bb6a2ed8e5fd"},"vehicle_type_id":"4","last_reported":1766257640,"current_range_meters":10800,"station_id":"","pricing_plan_id":"cebpf4jnsgd1na2vs0mg"},{"bike_id":"82a22c69-4528-497e-a34e-a79f9053706d","system_id":"levelo_inurba_marseille","lat":43.21193,"lon":5.35074,"is_reserved":false,"is_disabled":false,"rental_uris":{"android":"levelo://app?vid=82a22c69-4528-497e-a34e-a79f9053706d","ios":"levelo://app?vid=82a22c69-4528-497e-a34e-a79f9053706d"},"vehicle_type_id":"4","last_reported":1766257640,"current_range_meters":10800,"station_id":"","pricing_plan_id":"cebpf4jnsgd1na2vs0mg"},{"bike_id":"f3718731-22e8-48f9-bdc9-85867161b03f","system_id":"levelo_inurba_marseille","lat":43.310668,"lon":5.400888,"is_reserved":false,"is_disabled":false,"rental_uris":{"android":"levelo://app?vid=f3718731-22e8-48f9-bdc9-85867161b03f","ios":"levelo://app?vid=f3718731-22e8-48f9-bdc9-85867161b03f"},"vehicle_type_id":"4","last_reported":1766257640,"current_range_meters":10800,"station_id":"","pricing_plan_id":"cebpf4jnsgd1na2vs0mg"},{"bike_id":"d3f1651b-1db9-4ddb-bac8-e76cd41fd0b9","system_id":"levelo_inurba_marseille","lat":43.32354,"lon":5.36757,"is_reserved":false,"is_disabled":false,"rental_uris":{"android":"levelo://app?vid=d3f1651b-1db9-4ddb-bac8-e76cd41fd0b9","ios":"levelo://app?vid=d3f1651b-1db9-4ddb-bac8-e76cd41fd0b9"},"vehicle_type_id":"4","last_reported":1766257640,"current_range_meters":10800,"station_id":"ce4bhsh2rcd13ifvqi2g","pricing_plan_id":"cebpf4jnsgd1na2vs0mg"},{"bike_id":"c84b8e47-5802-4c21-b1cc-1df47c4f26c2","system_id":"levelo_inurba_marseille","lat":43.2848,"lon":5.48388,"is_reserved":false,"is_disabled":false,"rental_uris":{"android":"levelo://app?vid=c84b8e47-5802-4c21-b1cc-1df47c4f26c2","ios":"levelo://app?vid=c84b8e47-5802-4c21-b1cc-1df47c4f26c2"},"vehicle_type_id":"4","last_reported":1766257640,"current_range_meters":10800,"station_id":"","pricing_plan_id":"cebpf4jnsgd1na2vs0mg"},{"bike_id":"7499da5f-3886-4695-baa2-d152c2099177","system_id":"levelo_inurba_marseille","lat":43.31367,"lon":5.38489,"is_reserved":false,"is_disabled":false,"rental_uris":{"android":"levelo://app?vid=7499da5f-3886-4695-baa2-d152c2099177","ios":"levelo://app?vid=7499da5f-3886-4695-baa2-d152c2099177"},"vehicle_type_id":"4","last_reported":1766257640,"current_range_meters":10800,"station_id":"ce4bgt92rcd13ifvqcf0","pricing_plan_id":"cebpf4jnsgd1na2vs0mg"},{"bike_id":"693daa65-f98e-49a9-8cb7-de40b16ccdc7","system_id":"levelo_inurba_marseille","lat":43.2256,"lon":5.41619,"is_reserved":false,"is_disabled":false,"rental_uris":{"android":"levelo://app?vid=693daa65-f98e-49a9-8cb7-de40b16ccdc7","ios":"levelo://app?vid=693daa65-f98e-49a9-8cb7-de40b16ccdc7"},"vehicle_type_id":"4","last_reported":1766257640,"current_range_meters":10800,"station_id":"st_d2o4gvlbi1j2169b742g","pricing_plan_id":"cebpf4jnsgd1na2vs0mg"},{"bike_id":"2a0b8521-e8c2-435f-ac2a-f305f0065e9f","system_id":"levelo_inurba_marseille","lat":43.21192,"lon":5.35079,"is_reserved":false,"is_disabled":false,"rental_uris":{"android":"levelo://app?vid=2a0b8521-e8c2-435f-ac2a-f305f0065e9f","ios":"levelo://app?vid=2a0b8521-e8c2-435f-ac2a-f305f0065e9f"},"vehicle_type_id":"4","last_reported":1766257640,"current_range_meters":11200,"station_id":"st_cvj6sg6p6f1abm77japg","pricing_plan_id":"cebpf4jnsgd1na2vs0mg"},{"bike_id":"070d0224-db8d-4af9-99c2-3f49b9847f70","system_id":"levelo_inurba_marseille","lat":43.304258,"lon":5.397406,"is_reserved":false,"is_disabled":false,"rental_uris":{"android":"levelo://app?vid=070d0224-db8d-4af9-99c2-3f49b9847f70","ios":"levelo://app?vid=070d0224-db8d-4af9-99c2-3f49b9847f70"},"vehicle_type_id":"4","last_reported":1766257640,"current_range_meters":11200,"station_id":"ce4bh092rcd13ifvqd20","pricing_plan_id":"cebpf4jnsgd1na2vs0mg"},{"bike_id":"ac69310b-48fc-4542-b776-5797f9034e72","system_id":"levelo_inurba_marseille","lat":43.29823,"lon":5.44067,"is_reserved":false,"is_disabled":false,"rental_uris":{"android":"levelo://app?vid=ac69310b-48fc-4542-b776-5797f9034e72","ios":"levelo://app?vid=ac69310b-48fc-4542-b776-5797f9034e72"},"vehicle_type_id":"4","last_reported":1766257640,"current_range_meters":11200,"station_id":"st_d3jp68qikq2c7381ktn0","pricing_plan_id":"cebpf4jnsgd1na2vs0mg"},{"bike_id":"cb4c3285-59f5-4ac3-85a1-3548d897ee8c","system_id":"levelo_inurba_marseille","lat":43.29204,"lon":5.35815,"is_reserved":false,"is_disabled":false,"rental_uris":{"android":"levelo://app?vid=cb4c3285-59f5-4ac3-85a1-3548d897ee8c","ios":"levelo://app?vid=cb4c3285-59f5-4ac3-85a1-3548d897ee8c"},"vehicle_type_id":"4","last_reported":1766257640,"current_range_meters":11200,"station_id":"ce4bhb12rcd13ifvqel0","pricing_plan_id":"cebpf4jnsgd1na2vs0mg"},{"bike_id":"8946ed89-1084-41ac-9051-51993bcbdd4f","system_id":"levelo_inurba_marseille","lat":43.29571,"lon":5.37492,"is_reserved":false,"is_disabled":false,"rental_uris":{"android":"levelo://app?vid=8946ed89-1084-41ac-9051-51993bcbdd4f","ios":"levelo://app?vid=8946ed89-1084-41ac-9051-51993bcbdd4f"},"vehicle_type_id":"4","last_reported":1766257640,"current_range_meters":11200,"station_id":"ce4bgh92rcd13ifvqb50","pricing_plan_id":"cebpf4jnsgd1na2vs0mg"},{"bike_id":"5cdf0c26-71fe-4230-ab4f-b50d47db508a","system_id":"levelo_inurba_marseille","lat":43.30124,"lon":5.39757,"is_reserved":false,"is_disabled":false,"rental_uris":{"android":"levelo://app?vid=5cdf0c26-71fe-4230-ab4f-b50d47db508a","ios":"levelo://app?vid=5cdf0c26-71fe-4230-ab4f-b50d47db508a"},"vehicle_type_id":"4","last_reported":1766257640,"current_range_meters":11200,"station_id":"","pricing_plan_id":"cebpf4jnsgd1na2vs0mg"},{"bike_id":"11072089-4b46-418b-8a56-7ed3428c06cc","system_id":"levelo_inurba_marseille","lat":43.30728,"lon":5.37088,"is_reserved":false,"is_disabled":false,"rental_uris":{"android":"levelo://app?vid=11072089-4b46-418b-8a56-7ed3428c06cc","ios":"levelo://app?vid=11072089-4b46-418b-8a56-7ed3428c06cc"},"vehicle_type_id":"4","last_reported":1766257640,"current_range_meters":11200,"station_id":"","pricing_plan_id":"cebpf4jnsgd1na2vs0mg"},{"bike_id":"628a75f3-7312-4f05-a812-11eaca59fded","system_id":"levelo_inurba_marseille","lat":43.28485,"lon":5.38576,"is_reserved":false,"is_disabled":false,"rental_uris":{"android":"levelo://app?vid=628a75f3-7312-4f05-a812-11eaca59fded","ios":"levelo://app?vid=628a75f3-7312-4f05-a812-11eaca59fded"},"vehicle_type_id":"4","last_reported":1766257640,"current_range_meters":11200,"station_id":"ce4bh8p2rcd13ifvqeb0","pricing_plan_id":"cebpf4jnsgd1na2vs0mg"},{"bike_id":"7805d77b-04d7-43bf-aba7-0ada439e7ea9","system_id":"levelo_inurba_marseille","lat":43.286942,"lon":5.373866,"is_reserved":false,"is_disabled":false,"rental_uris":{"android":"levelo://app?vid=7805d77b-04d7-43bf-aba7-0ada439e7ea9","ios":"levelo://app?vid=7805d77b-04d7-43bf-aba7-0ada439e7ea9"},"vehicle_type_id":"4","last_reported":1766257640,"current_range_meters":11200,"station_id":"ce4bh692rcd13ifvqea0","pricing_plan_id":"cebpf4jnsgd1na2vs0mg"},{"bike_id":"cc90e2c4-8295-441e-9856-0e38a6c7e045","system_id":"levelo_inurba_marseille","lat":43.29561,"lon":5.40637,"is_reserved":false,"is_disabled":false,"rental_uris":{"android":"levelo://app?vid=cc90e2c4-8295-441e-9856-0e38a6c7e045","ios":"levelo://app?vid=cc90e2c4-8295-441e-9856-0e38a6c7e045"},"vehicle_type_id":"4","last_reported":1766257640,"current_range_meters":11200,"station_id":"","pricing_plan_id":"cebpf4jnsgd1na2vs0mg"},{"bike_id":"740bf7bc-3b3e-46dd-b9c8-da67fb6cd66f","system_id":"levelo_inurba_marseille","lat":43.29227,"lon":5.36072,"is_reserved":false,"is_disabled":false,"rental_uris":{"android":"levelo://app?vid=740bf7bc-3b3e-46dd-b9c8-da67fb6cd66f","ios":"levelo://app?vid=740bf7bc-3b3e-46dd-b9c8-da67fb6cd66f"},"vehicle_type_id":"4","last_reported":1766257640,"current_range_meters":11200,"station_id":"ce4bhbh2rcd13ifvqeqg","pricing_plan_id":"cebpf4jnsgd1na2vs0mg"},{"bike_id":"ae977d6c-e9ef-41f7-b804-ef0e4fe2355a","system_id":"levelo_inurba_marseille","lat":43.27202,"lon":5.39182,"is_reserved":false,"is_disabled":false,"rental_uris":{"android":"levelo://app?vid=ae977d6c-e9ef-41f7-b804-ef0e4fe2355a","ios":"levelo://app?vid=ae977d6c-e9ef-41f7-b804-ef0e4fe2355a"},"vehicle_type_id":"4","last_reported":1766257640,"current_range_meters":11200,"station_id":"ce4bhhp2rcd13ifvqfm0","pricing_plan_id":"cebpf4jnsgd1na2vs0mg"},{"bike_id":"2d867c3d-a460-4764-ab61-1da2f9fb0b03","system_id":"levelo_inurba_marseille","lat":43.29223,"lon":5.36057,"is_reserved":false,"is_disabled":true,"rental_uris":{"android":"levelo://app?vid=2d867c3d-a460-4764-ab61-1da2f9fb0b03","ios":"levelo://app?vid=2d867c3d-a460-4764-ab61-1da2f9fb0b03"},"vehicle_type_id":"4","last_reported":1766257640,"current_range_meters":11200,"station_id":"ce4bhbh2rcd13ifvqeqg","pricing_plan_id":"cebpf4jnsgd1na2vs0mg"},{"bike_id":"f8f88285-b995-4dfb-84d3-bdd21c4c796d","system_id":"levelo_inurba_marseille","lat":43.28166,"lon":5.42652,"is_reserved":false,"is_disabled":false,"rental_uris":{"android":"levelo://app?vid=f8f88285-b995-4dfb-84d3-bdd21c4c796d","ios":"levelo://app?vid=f8f88285-b995-4dfb-84d3-bdd21c4c796d"},"vehicle_type_id":"4","last_reported":1766257640,"current_range_meters":11200,"station_id":"ce4bhnh2rcd13ifvqgug","pricing_plan_id":"cebpf4jnsgd1na2vs0mg"},{"bike_id":"7fb6c847-e6fc-49e0-aff6-7a502982bbde","system_id":"levelo_inurba_marseille","lat":43.3018,"lon":5.36609,"is_reserved":false,"is_disabled":false,"rental_uris":{"android":"levelo://app?vid=7fb6c847-e6fc-49e0-aff6-7a502982bbde","ios":"levelo://app?vid=7fb6c847-e6fc-49e0-aff6-7a502982bbde"},"vehicle_type_id":"4","last_reported":1766257640,"current_range_meters":11200,"station_id":"ce4bgrh2rcd13ifvqc8g","pricing_plan_id":"cebpf4jnsgd1na2vs0mg"},{"bike_id":"98c040ff-ac12-4358-bded-c79cb9358db9","system_id":"levelo_inurba_marseille","lat":43.31721,"lon":5.42397,"is_reserved":false,"is_disabled":false,"rental_uris":{"android":"levelo://app?vid=98c040ff-ac12-4358-bded-c79cb9358db9","ios":"levelo://app?vid=98c040ff-ac12-4358-bded-c79cb9358db9"},"vehicle_type_id":"4","last_reported":1766257640,"current_range_meters":11200,"station_id":"ce4bhp92rcd13ifvqhbg","pricing_plan_id":"cebpf4jnsgd1na2vs0mg"},{"bike_id":"1a399a16-62ed-47ae-ba1c-654e7762c033","system_id":"levelo_inurba_marseille","lat":43.30027,"lon":5.3801,"is_reserved":false,"is_disabled":false,"rental_uris":{"android":"levelo://app?vid=1a399a16-62ed-47ae-ba1c-654e7762c033","ios":"levelo://app?vid=1a399a16-62ed-47ae-ba1c-654e7762c033"},"vehicle_type_id":"4","last_reported":1766257640,"current_range_meters":11600,"station_id":"","pricing_plan_id":"cebpf4jnsgd1na2vs0mg"},{"bike_id":"06fae415-f45a-47d1-81b6-79d818bb9da0","system_id":"levelo_inurba_marseille","lat":43.29577,"lon":5.37524,"is_reserved":false,"is_disabled":false,"rental_uris":{"android":"levelo://app?vid=06fae415-f45a-47d1-81b6-79d818bb9da0","ios":"levelo://app?vid=06fae415-f45a-47d1-81b6-79d818bb9da0"},"vehicle_type_id":"4","last_reported":1766257640,"current_range_meters":11600,"station_id":"ce4bgh92rcd13ifvqb50","pricing_plan_id":"cebpf4jnsgd1na2vs0mg"},{"bike_id":"b7e8a2cf-8551-45bd-a474-430e2d79f4e7","system_id":"levelo_inurba_marseille","lat":43.29271,"lon":5.38436,"is_reserved":false,"is_disabled":false,"rental_uris":{"android":"levelo://app?vid=b7e8a2cf-8551-45bd-a474-430e2d79f4e7","ios":"levelo://app?vid=b7e8a2cf-8551-45bd-a474-430e2d79f4e7"},"vehicle_type_id":"4","last_reported":1766257640,"current_range_meters":11600,"station_id":"ce4bh692rcd13ifvqea0","pricing_plan_id":"cebpf4jnsgd1na2vs0mg"},{"bike_id":"40009ca7-653c-4ec5-9d63-44cc85c4497a","system_id":"levelo_inurba_marseille","lat":43.29528,"lon":5.37498,"is_reserved":false,"is_disabled":false,"rental_uris":{"android":"levelo://app?vid=40009ca7-653c-4ec5-9d63-44cc85c4497a","ios":"levelo://app?vid=40009ca7-653c-4ec5-9d63-44cc85c4497a"},"vehicle_type_id":"4","last_reported":1766257640,"current_range_meters":11600,"station_id":"ce4bgkp2rcd13ifvqbmg","pricing_plan_id":"cebpf4jnsgd1na2vs0mg"},{"bike_id":"6321fe57-59f4-4d15-83e3-f64320476ab2","system_id":"levelo_inurba_marseille","lat":43.21198,"lon":5.35074,"is_reserved":false,"is_disabled":false,"rental_uris":{"android":"levelo://app?vid=6321fe57-59f4-4d15-83e3-f64320476ab2","ios":"levelo://app?vid=6321fe57-59f4-4d15-83e3-f64320476ab2"},"vehicle_type_id":"4","last_reported":1766257640,"current_range_meters":11600,"station_id":"st_cvj6sg6p6f1abm77japg","pricing_plan_id":"cebpf4jnsgd1na2vs0mg"},{"bike_id":"220aff5d-2c09-4121-a94f-34ba8ddd6f6f","system_id":"levelo_inurba_marseille","lat":43.28542,"lon":5.44106,"is_reserved":false,"is_disabled":false,"rental_uris":{"android":"levelo://app?vid=220aff5d-2c09-4121-a94f-34ba8ddd6f6f","ios":"levelo://app?vid=220aff5d-2c09-4121-a94f-34ba8ddd6f6f"},"vehicle_type_id":"4","last_reported":1766257640,"current_range_meters":11600,"station_id":"st_d3j3df2ikq2c7380ej80","pricing_plan_id":"cebpf4jnsgd1na2vs0mg"},{"bike_id":"230dc5ba-2707-43d5-86c5-61ec01ad22f5","system_id":"levelo_inurba_marseille","lat":43.28468,"lon":5.35892,"is_reserved":false,"is_disabled":false,"rental_uris":{"android":"levelo://app?vid=230dc5ba-2707-43d5-86c5-61ec01ad22f5","ios":"levelo://app?vid=230dc5ba-2707-43d5-86c5-61ec01ad22f5"},"vehicle_type_id":"4","last_reported":1766257640,"current_range_meters":11600,"station_id":"ce4bhah2rcd13ifvqei0","pricing_plan_id":"cebpf4jnsgd1na2vs0mg"},{"bike_id":"c1259118-f1c1-4f39-a438-89ef8dc61bc6","system_id":"levelo_inurba_marseille","lat":43.26235,"lon":5.40449,"is_reserved":false,"is_disabled":false,"rental_uris":{"android":"levelo://app?vid=c1259118-f1c1-4f39-a438-89ef8dc61bc6","ios":"levelo://app?vid=c1259118-f1c1-4f39-a438-89ef8dc61bc6"},"vehicle_type_id":"4","last_reported":1766257640,"current_range_meters":11600,"station_id":"ce4bhmh2rcd13ifvqgmg","pricing_plan_id":"cebpf4jnsgd1na2vs0mg"},{"bike_id":"f247771e-2838-4c74-9387-68cb8feccb4e","system_id":"levelo_inurba_marseille","lat":43.28583,"lon":5.40468,"is_reserved":false,"is_disabled":false,"rental_uris":{"android":"levelo://app?vid=f247771e-2838-4c74-9387-68cb8feccb4e","ios":"levelo://app?vid=f247771e-2838-4c74-9387-68cb8feccb4e"},"vehicle_type_id":"4","last_reported":1766257640,"current_range_meters":11600,"station_id":"","pricing_plan_id":"cebpf4jnsgd1na2vs0mg"},{"bike_id":"ba985f25-dab9-4a64-b841-0ddda8893f2d","system_id":"levelo_inurba_marseille","lat":43.29298,"lon":5.37146,"is_reserved":false,"is_disabled":false,"rental_uris":{"android":"levelo://app?vid=ba985f25-dab9-4a64-b841-0ddda8893f2d","ios":"levelo://app?vid=ba985f25-dab9-4a64-b841-0ddda8893f2d"},"vehicle_type_id":"4","last_reported":1766257640,"current_range_meters":11600,"station_id":"ce4bgh92rcd13ifvqb40","pricing_plan_id":"cebpf4jnsgd1na2vs0mg"},{"bike_id":"44260141-4029-40fc-9c3d-97bb94516402","system_id":"levelo_inurba_marseille","lat":43.29309,"lon":5.37181,"is_reserved":false,"is_disabled":false,"rental_uris":{"android":"levelo://app?vid=44260141-4029-40fc-9c3d-97bb94516402","ios":"levelo://app?vid=44260141-4029-40fc-9c3d-97bb94516402"},"vehicle_type_id":"4","last_reported":1766257640,"current_range_meters":11600,"station_id":"ce4bgh92rcd13ifvqb40","pricing_plan_id":"cebpf4jnsgd1na2vs0mg"},{"bike_id":"98befae4-6145-464f-92ba-0731d9608f3d","system_id":"levelo_inurba_marseille","lat":43.29272,"lon":5.38446,"is_reserved":false,"is_disabled":false,"rental_uris":{"android":"levelo://app?vid=98befae4-6145-464f-92ba-0731d9608f3d","ios":"levelo://app?vid=98befae4-6145-464f-92ba-0731d9608f3d"},"vehicle_type_id":"4","last_reported":1766257640,"current_range_meters":11600,"station_id":"ce4bh692rcd13ifvqea0","pricing_plan_id":"cebpf4jnsgd1na2vs0mg"},{"bike_id":"de4957ca-9c93-409a-ae9b-9b8d86479fcf","system_id":"levelo_inurba_marseille","lat":43.29509,"lon":5.375,"is_reserved":false,"is_disabled":true,"rental_uris":{"android":"levelo://app?vid=de4957ca-9c93-409a-ae9b-9b8d86479fcf","ios":"levelo://app?vid=de4957ca-9c93-409a-ae9b-9b8d86479fcf"},"vehicle_type_id":"4","last_reported":1766257640,"current_range_meters":12000,"station_id":"ce4bgkp2rcd13ifvqbmg","pricing_plan_id":"cebpf4jnsgd1na2vs0mg"},{"bike_id":"3618912a-6b7a-47a3-ba45-021dff2d3cd9","system_id":"levelo_inurba_marseille","lat":43.29089,"lon":5.38121,"is_reserved":false,"is_disabled":false,"rental_uris":{"android":"levelo://app?vid=3618912a-6b7a-47a3-ba45-021dff2d3cd9","ios":"levelo://app?vid=3618912a-6b7a-47a3-ba45-021dff2d3cd9"},"vehicle_type_id":"4","last_reported":1766257640,"current_range_meters":12000,"station_id":"ce4bh512rcd13ifvqe2g","pricing_plan_id":"cebpf4jnsgd1na2vs0mg"},{"bike_id":"31cb218c-0614-4178-a38b-5b833618b7f5","system_id":"levelo_inurba_marseille","lat":43.29569,"lon":5.37524,"is_reserved":false,"is_disabled":false,"rental_uris":{"android":"levelo://app?vid=31cb218c-0614-4178-a38b-5b833618b7f5","ios":"levelo://app?vid=31cb218c-0614-4178-a38b-5b833618b7f5"},"vehicle_type_id":"4","last_reported":1766257640,"current_range_meters":12000,"station_id":"ce4bgh92rcd13ifvqb50","pricing_plan_id":"cebpf4jnsgd1na2vs0mg"},{"bike_id":"b4c06ecc-7a46-4aca-a09e-6e605e584bbd","system_id":"levelo_inurba_marseille","lat":43.29819,"lon":5.4405,"is_reserved":false,"is_disabled":false,"rental_uris":{"android":"levelo://app?vid=b4c06ecc-7a46-4aca-a09e-6e605e584bbd","ios":"levelo://app?vid=b4c06ecc-7a46-4aca-a09e-6e605e584bbd"},"vehicle_type_id":"4","last_reported":1766257640,"current_range_meters":12000,"station_id":"st_d3jp68qikq2c7381ktn0","pricing_plan_id":"cebpf4jnsgd1na2vs0mg"},{"bike_id":"167ff5eb-f7ec-4a9a-a389-047000be67d8","system_id":"levelo_inurba_marseille","lat":43.28176,"lon":5.42648,"is_reserved":false,"is_disabled":false,"rental_uris":{"android":"levelo://app?vid=167ff5eb-f7ec-4a9a-a389-047000be67d8","ios":"levelo://app?vid=167ff5eb-f7ec-4a9a-a389-047000be67d8"},"vehicle_type_id":"4","last_reported":1766257640,"current_range_meters":12000,"station_id":"ce4bhnh2rcd13ifvqgug","pricing_plan_id":"cebpf4jnsgd1na2vs0mg"},{"bike_id":"00a29bb1-88ca-440d-9219-07d673c689ed","system_id":"levelo_inurba_marseille","lat":43.29768,"lon":5.38489,"is_reserved":false,"is_disabled":false,"rental_uris":{"android":"levelo://app?vid=00a29bb1-88ca-440d-9219-07d673c689ed","ios":"levelo://app?vid=00a29bb1-88ca-440d-9219-07d673c689ed"},"vehicle_type_id":"4","last_reported":1766257640,"current_range_meters":12000,"station_id":"","pricing_plan_id":"cebpf4jnsgd1na2vs0mg"},{"bike_id":"fcf490ff-200d-4eba-bc70-18dc938592ed","system_id":"levelo_inurba_marseille","lat":43.26945,"lon":5.3863,"is_reserved":false,"is_disabled":false,"rental_uris":{"android":"levelo://app?vid=fcf490ff-200d-4eba-bc70-18dc938592ed","ios":"levelo://app?vid=fcf490ff-200d-4eba-bc70-18dc938592ed"},"vehicle_type_id":"4","last_reported":1766257640,"current_range_meters":12000,"station_id":"ce4bhh92rcd13ifvqfh0","pricing_plan_id":"cebpf4jnsgd1na2vs0mg"},{"bike_id":"4cd31c8b-e2bf-4aad-b061-09eb9872ab3f","system_id":"levelo_inurba_marseille","lat":43.30737,"lon":5.42441,"is_reserved":false,"is_disabled":false,"rental_uris":{"android":"levelo://app?vid=4cd31c8b-e2bf-4aad-b061-09eb9872ab3f","ios":"levelo://app?vid=4cd31c8b-e2bf-4aad-b061-09eb9872ab3f"},"vehicle_type_id":"4","last_reported":1766257640,"current_range_meters":12000,"station_id":"st_cvj6ca6bvosntc0bfgr0","pricing_plan_id":"cebpf4jnsgd1na2vs0mg"},{"bike_id":"c328caa6-418f-4ee3-ac4e-abe84a3a4470","system_id":"levelo_inurba_marseille","lat":43.296279,"lon":5.377172,"is_reserved":false,"is_disabled":false,"rental_uris":{"android":"levelo://app?vid=c328caa6-418f-4ee3-ac4e-abe84a3a4470","ios":"levelo://app?vid=c328caa6-418f-4ee3-ac4e-abe84a3a4470"},"vehicle_type_id":"4","last_reported":1766257640,"current_range_meters":12000,"station_id":"ce4bgi92rcd13ifvqb90","pricing_plan_id":"cebpf4jnsgd1na2vs0mg"},{"bike_id":"85f80c36-b01d-4148-8a0f-5ed00798dda8","system_id":"levelo_inurba_marseille","lat":43.301003,"lon":5.365158,"is_reserved":false,"is_disabled":false,"rental_uris":{"android":"levelo://app?vid=85f80c36-b01d-4148-8a0f-5ed00798dda8","ios":"levelo://app?vid=85f80c36-b01d-4148-8a0f-5ed00798dda8"},"vehicle_type_id":"4","last_reported":1766257640,"current_range_meters":12000,"station_id":"","pricing_plan_id":"cebpf4jnsgd1na2vs0mg"},{"bike_id":"28ad1a9a-391c-435e-96a8-1e7f1aea86aa","system_id":"levelo_inurba_marseille","lat":43.30136,"lon":5.43137,"is_reserved":false,"is_disabled":false,"rental_uris":{"android":"levelo://app?vid=28ad1a9a-391c-435e-96a8-1e7f1aea86aa","ios":"levelo://app?vid=28ad1a9a-391c-435e-96a8-1e7f1aea86aa"},"vehicle_type_id":"4","last_reported":1766257640,"current_range_meters":12400,"station_id":"st_d3js3co5814s73ftftug","pricing_plan_id":"cebpf4jnsgd1na2vs0mg"},{"bike_id":"69513943-5805-4a6d-9804-e00b3bf2236b","system_id":"levelo_inurba_marseille","lat":43.29292,"lon":5.3744,"is_reserved":false,"is_disabled":false,"rental_uris":{"android":"levelo://app?vid=69513943-5805-4a6d-9804-e00b3bf2236b","ios":"levelo://app?vid=69513943-5805-4a6d-9804-e00b3bf2236b"},"vehicle_type_id":"4","last_reported":1766257640,"current_range_meters":12400,"station_id":"ce4bgi12rcd13ifvqb70","pricing_plan_id":"cebpf4jnsgd1na2vs0mg"},{"bike_id":"f72b59c6-6c39-4032-a755-77cfdc86a361","system_id":"levelo_inurba_marseille","lat":43.26189,"lon":5.37914,"is_reserved":false,"is_disabled":false,"rental_uris":{"android":"levelo://app?vid=f72b59c6-6c39-4032-a755-77cfdc86a361","ios":"levelo://app?vid=f72b59c6-6c39-4032-a755-77cfdc86a361"},"vehicle_type_id":"4","last_reported":1766257640,"current_range_meters":12400,"station_id":"ce4bhjp2rcd13ifvqg90","pricing_plan_id":"cebpf4jnsgd1na2vs0mg"},{"bike_id":"7003f313-702d-4b1e-9579-528ba4d56198","system_id":"levelo_inurba_marseille","lat":43.30165,"lon":5.38092,"is_reserved":false,"is_disabled":false,"rental_uris":{"android":"levelo://app?vid=7003f313-702d-4b1e-9579-528ba4d56198","ios":"levelo://app?vid=7003f313-702d-4b1e-9579-528ba4d56198"},"vehicle_type_id":"4","last_reported":1766257640,"current_range_meters":12400,"station_id":"ce4bgjp2rcd13ifvqbh0","pricing_plan_id":"cebpf4jnsgd1na2vs0mg"},{"bike_id":"f1a91494-4ea9-498a-8b4d-c2877ea07d2f","system_id":"levelo_inurba_marseille","lat":43.33559,"lon":5.37481,"is_reserved":false,"is_disabled":false,"rental_uris":{"android":"levelo://app?vid=f1a91494-4ea9-498a-8b4d-c2877ea07d2f","ios":"levelo://app?vid=f1a91494-4ea9-498a-8b4d-c2877ea07d2f"},"vehicle_type_id":"4","last_reported":1766257640,"current_range_meters":12400,"station_id":"st_d46tts09ee8s73dlu43g","pricing_plan_id":"cebpf4jnsgd1na2vs0mg"},{"bike_id":"a8848b83-4516-4b82-bd01-22d44a0d2599","system_id":"levelo_inurba_marseille","lat":43.29029,"lon":5.38126,"is_reserved":false,"is_disabled":false,"rental_uris":{"android":"levelo://app?vid=a8848b83-4516-4b82-bd01-22d44a0d2599","ios":"levelo://app?vid=a8848b83-4516-4b82-bd01-22d44a0d2599"},"vehicle_type_id":"4","last_reported":1766257640,"current_range_meters":12400,"station_id":"ce4bh4p2rcd13ifvqe1g","pricing_plan_id":"cebpf4jnsgd1na2vs0mg"},{"bike_id":"c0fb8cc1-ebe9-4001-a3ec-0d3fc87db3d9","system_id":"levelo_inurba_marseille","lat":43.34378,"lon":5.3554,"is_reserved":false,"is_disabled":false,"rental_uris":{"android":"levelo://app?vid=c0fb8cc1-ebe9-4001-a3ec-0d3fc87db3d9","ios":"levelo://app?vid=c0fb8cc1-ebe9-4001-a3ec-0d3fc87db3d9"},"vehicle_type_id":"4","last_reported":1766257640,"current_range_meters":12400,"station_id":"","pricing_plan_id":"cebpf4jnsgd1na2vs0mg"},{"bike_id":"1297d7d4-6788-43a1-ac73-4fb6d116076e","system_id":"levelo_inurba_marseille","lat":43.29523,"lon":5.37493,"is_reserved":false,"is_disabled":true,"rental_uris":{"android":"levelo://app?vid=1297d7d4-6788-43a1-ac73-4fb6d116076e","ios":"levelo://app?vid=1297d7d4-6788-43a1-ac73-4fb6d116076e"},"vehicle_type_id":"4","last_reported":1766257640,"current_range_meters":12400,"station_id":"ce4bgkp2rcd13ifvqbmg","pricing_plan_id":"cebpf4jnsgd1na2vs0mg"},{"bike_id":"9d21dcb0-ce26-48db-a303-317550439f40","system_id":"levelo_inurba_marseille","lat":43.28488,"lon":5.48386,"is_reserved":false,"is_disabled":false,"rental_uris":{"android":"levelo://app?vid=9d21dcb0-ce26-48db-a303-317550439f40","ios":"levelo://app?vid=9d21dcb0-ce26-48db-a303-317550439f40"},"vehicle_type_id":"4","last_reported":1766257640,"current_range_meters":12400,"station_id":"st_d3svhcjqgbts73a3dn0g","pricing_plan_id":"cebpf4jnsgd1na2vs0mg"},{"bike_id":"fc16fa3f-3425-4b7f-a6ba-68ebea003e5c","system_id":"levelo_inurba_marseille","lat":43.269292,"lon":5.389265,"is_reserved":false,"is_disabled":false,"rental_uris":{"android":"levelo://app?vid=fc16fa3f-3425-4b7f-a6ba-68ebea003e5c","ios":"levelo://app?vid=fc16fa3f-3425-4b7f-a6ba-68ebea003e5c"},"vehicle_type_id":"4","last_reported":1766257640,"current_range_meters":12400,"station_id":"ce4bhhh2rcd13ifvqfl0","pricing_plan_id":"cebpf4jnsgd1na2vs0mg"},{"bike_id":"aa012364-4b1d-42f2-aabc-75dac469352c","system_id":"levelo_inurba_marseille","lat":43.2623,"lon":5.40447,"is_reserved":false,"is_disabled":false,"rental_uris":{"android":"levelo://app?vid=aa012364-4b1d-42f2-aabc-75dac469352c","ios":"levelo://app?vid=aa012364-4b1d-42f2-aabc-75dac469352c"},"vehicle_type_id":"4","last_reported":1766257640,"current_range_meters":12400,"station_id":"ce4bhmh2rcd13ifvqgmg","pricing_plan_id":"cebpf4jnsgd1na2vs0mg"},{"bike_id":"0c9b32cb-982e-4cfb-8098-15bfb9c320f6","system_id":"levelo_inurba_marseille","lat":43.29271,"lon":5.36832,"is_reserved":false,"is_disabled":false,"rental_uris":{"android":"levelo://app?vid=0c9b32cb-982e-4cfb-8098-15bfb9c320f6","ios":"levelo://app?vid=0c9b32cb-982e-4cfb-8098-15bfb9c320f6"},"vehicle_type_id":"4","last_reported":1766257640,"current_range_meters":12400,"station_id":"","pricing_plan_id":"cebpf4jnsgd1na2vs0mg"},{"bike_id":"5c4c256b-e0f5-4c24-aeb9-e03ccfe0d2bf","system_id":"levelo_inurba_marseille","lat":43.28543,"lon":5.44094,"is_reserved":false,"is_disabled":false,"rental_uris":{"android":"levelo://app?vid=5c4c256b-e0f5-4c24-aeb9-e03ccfe0d2bf","ios":"levelo://app?vid=5c4c256b-e0f5-4c24-aeb9-e03ccfe0d2bf"},"vehicle_type_id":"4","last_reported":1766257640,"current_range_meters":12400,"station_id":"st_d3j3df2ikq2c7380ej80","pricing_plan_id":"cebpf4jnsgd1na2vs0mg"},{"bike_id":"49b32667-a5b9-4886-84eb-14582b80721d","system_id":"levelo_inurba_marseille","lat":43.29762,"lon":5.37707,"is_reserved":false,"is_disabled":false,"rental_uris":{"android":"levelo://app?vid=49b32667-a5b9-4886-84eb-14582b80721d","ios":"levelo://app?vid=49b32667-a5b9-4886-84eb-14582b80721d"},"vehicle_type_id":"4","last_reported":1766257640,"current_range_meters":12400,"station_id":"","pricing_plan_id":"cebpf4jnsgd1na2vs0mg"},{"bike_id":"60104876-cfb4-4c08-831d-06fdc216973b","system_id":"levelo_inurba_marseille","lat":43.29969,"lon":5.38541,"is_reserved":false,"is_disabled":true,"rental_uris":{"android":"levelo://app?vid=60104876-cfb4-4c08-831d-06fdc216973b","ios":"levelo://app?vid=60104876-cfb4-4c08-831d-06fdc216973b"},"vehicle_type_id":"4","last_reported":1766257640,"current_range_meters":12400,"station_id":"ce4bgj92rcd13ifvqbd0","pricing_plan_id":"cebpf4jnsgd1na2vs0mg"},{"bike_id":"fbbad634-7602-41ae-82b3-fb9f94e109f1","system_id":"levelo_inurba_marseille","lat":43.301317,"lon":5.398558,"is_reserved":false,"is_disabled":true,"rental_uris":{"android":"levelo://app?vid=fbbad634-7602-41ae-82b3-fb9f94e109f1","ios":"levelo://app?vid=fbbad634-7602-41ae-82b3-fb9f94e109f1"},"vehicle_type_id":"4","last_reported":1766257640,"current_range_meters":12400,"station_id":"ce4bh0h2rcd13ifvqd40","pricing_plan_id":"cebpf4jnsgd1na2vs0mg"},{"bike_id":"f9df09a0-3737-4582-8136-0e0c747a0f9b","system_id":"levelo_inurba_marseille","lat":43.32357,"lon":5.36724,"is_reserved":false,"is_disabled":false,"rental_uris":{"android":"levelo://app?vid=f9df09a0-3737-4582-8136-0e0c747a0f9b","ios":"levelo://app?vid=f9df09a0-3737-4582-8136-0e0c747a0f9b"},"vehicle_type_id":"4","last_reported":1766257640,"current_range_meters":12400,"station_id":"ce4bhsh2rcd13ifvqi2g","pricing_plan_id":"cebpf4jnsgd1na2vs0mg"},{"bike_id":"e23c6908-1148-4542-b6eb-bf0b95251a99","system_id":"levelo_inurba_marseille","lat":43.295233,"lon":5.375255,"is_reserved":false,"is_disabled":false,"rental_uris":{"android":"levelo://app?vid=e23c6908-1148-4542-b6eb-bf0b95251a99","ios":"levelo://app?vid=e23c6908-1148-4542-b6eb-bf0b95251a99"},"vehicle_type_id":"4","last_reported":1766257640,"current_range_meters":12800,"station_id":"ce4bgkp2rcd13ifvqbmg","pricing_plan_id":"cebpf4jnsgd1na2vs0mg"},{"bike_id":"2154a936-f819-49ae-b7ae-2734365f2c42","system_id":"levelo_inurba_marseille","lat":43.335436,"lon":5.374693,"is_reserved":false,"is_disabled":false,"rental_uris":{"android":"levelo://app?vid=2154a936-f819-49ae-b7ae-2734365f2c42","ios":"levelo://app?vid=2154a936-f819-49ae-b7ae-2734365f2c42"},"vehicle_type_id":"4","last_reported":1766257640,"current_range_meters":12800,"station_id":"st_d46tts09ee8s73dlu43g","pricing_plan_id":"cebpf4jnsgd1na2vs0mg"},{"bike_id":"8bbcdc5d-1751-4d82-93eb-b68a7300128d","system_id":"levelo_inurba_marseille","lat":43.29519,"lon":5.37506,"is_reserved":false,"is_disabled":false,"rental_uris":{"android":"levelo://app?vid=8bbcdc5d-1751-4d82-93eb-b68a7300128d","ios":"levelo://app?vid=8bbcdc5d-1751-4d82-93eb-b68a7300128d"},"vehicle_type_id":"4","last_reported":1766257640,"current_range_meters":12800,"station_id":"ce4bgkp2rcd13ifvqbmg","pricing_plan_id":"cebpf4jnsgd1na2vs0mg"},{"bike_id":"88faa14e-1a0a-4d67-8915-3eda7601efcf","system_id":"levelo_inurba_marseille","lat":43.211923,"lon":5.35073,"is_reserved":false,"is_disabled":false,"rental_uris":{"android":"levelo://app?vid=88faa14e-1a0a-4d67-8915-3eda7601efcf","ios":"levelo://app?vid=88faa14e-1a0a-4d67-8915-3eda7601efcf"},"vehicle_type_id":"4","last_reported":1766257640,"current_range_meters":12800,"station_id":"","pricing_plan_id":"cebpf4jnsgd1na2vs0mg"},{"bike_id":"b5a98133-8267-4179-8e69-4caa1a3fdd3c","system_id":"levelo_inurba_marseille","lat":43.29298,"lon":5.37474,"is_reserved":false,"is_disabled":false,"rental_uris":{"android":"levelo://app?vid=b5a98133-8267-4179-8e69-4caa1a3fdd3c","ios":"levelo://app?vid=b5a98133-8267-4179-8e69-4caa1a3fdd3c"},"vehicle_type_id":"4","last_reported":1766257640,"current_range_meters":12800,"station_id":"ce4bgi12rcd13ifvqb70","pricing_plan_id":"cebpf4jnsgd1na2vs0mg"},{"bike_id":"f74f690a-ab44-4e9f-8a36-1702c27f53fd","system_id":"levelo_inurba_marseille","lat":43.29666,"lon":5.3704,"is_reserved":false,"is_disabled":false,"rental_uris":{"android":"levelo://app?vid=f74f690a-ab44-4e9f-8a36-1702c27f53fd","ios":"levelo://app?vid=f74f690a-ab44-4e9f-8a36-1702c27f53fd"},"vehicle_type_id":"4","last_reported":1766257640,"current_range_meters":12800,"station_id":"","pricing_plan_id":"cebpf4jnsgd1na2vs0mg"},{"bike_id":"fcadf7b5-5fd9-41d4-bd43-15a32cb8cec7","system_id":"levelo_inurba_marseille","lat":43.32371,"lon":5.38885,"is_reserved":false,"is_disabled":false,"rental_uris":{"android":"levelo://app?vid=fcadf7b5-5fd9-41d4-bd43-15a32cb8cec7","ios":"levelo://app?vid=fcadf7b5-5fd9-41d4-bd43-15a32cb8cec7"},"vehicle_type_id":"4","last_reported":1766257640,"current_range_meters":12800,"station_id":"ce4bhqp2rcd13ifvqhog","pricing_plan_id":"cebpf4jnsgd1na2vs0mg"},{"bike_id":"f3fdb73c-e2e3-4dd3-a99d-4f3e3986936b","system_id":"levelo_inurba_marseille","lat":43.22564,"lon":5.41642,"is_reserved":false,"is_disabled":false,"rental_uris":{"android":"levelo://app?vid=f3fdb73c-e2e3-4dd3-a99d-4f3e3986936b","ios":"levelo://app?vid=f3fdb73c-e2e3-4dd3-a99d-4f3e3986936b"},"vehicle_type_id":"4","last_reported":1766257640,"current_range_meters":12800,"station_id":"st_d2o4gvlbi1j2169b742g","pricing_plan_id":"cebpf4jnsgd1na2vs0mg"},{"bike_id":"a516ce71-740b-43b0-a57d-e49ede3f322e","system_id":"levelo_inurba_marseille","lat":43.27311,"lon":5.39099,"is_reserved":false,"is_disabled":false,"rental_uris":{"android":"levelo://app?vid=a516ce71-740b-43b0-a57d-e49ede3f322e","ios":"levelo://app?vid=a516ce71-740b-43b0-a57d-e49ede3f322e"},"vehicle_type_id":"4","last_reported":1766257640,"current_range_meters":13600,"station_id":"ce4bhgp2rcd13ifvqfe0","pricing_plan_id":"cebpf4jnsgd1na2vs0mg"},{"bike_id":"02dca226-0d6c-4674-9443-9248990445b8","system_id":"levelo_inurba_marseille","lat":43.28938,"lon":5.36637,"is_reserved":false,"is_disabled":false,"rental_uris":{"android":"levelo://app?vid=02dca226-0d6c-4674-9443-9248990445b8","ios":"levelo://app?vid=02dca226-0d6c-4674-9443-9248990445b8"},"vehicle_type_id":"4","last_reported":1766257640,"current_range_meters":13600,"station_id":"ce4bhap2rcd13ifvqek0","pricing_plan_id":"cebpf4jnsgd1na2vs0mg"},{"bike_id":"27c6cab6-027c-4350-9b9c-20490c10cfe9","system_id":"levelo_inurba_marseille","lat":43.32479,"lon":5.38282,"is_reserved":false,"is_disabled":false,"rental_uris":{"android":"levelo://app?vid=27c6cab6-027c-4350-9b9c-20490c10cfe9","ios":"levelo://app?vid=27c6cab6-027c-4350-9b9c-20490c10cfe9"},"vehicle_type_id":"4","last_reported":1766257640,"current_range_meters":13600,"station_id":"st_d4asgbiv49dc73anf9m0","pricing_plan_id":"cebpf4jnsgd1na2vs0mg"},{"bike_id":"5046e52c-2d03-4dab-83b5-0d9b216c15bd","system_id":"levelo_inurba_marseille","lat":43.30806,"lon":5.36992,"is_reserved":false,"is_disabled":false,"rental_uris":{"android":"levelo://app?vid=5046e52c-2d03-4dab-83b5-0d9b216c15bd","ios":"levelo://app?vid=5046e52c-2d03-4dab-83b5-0d9b216c15bd"},"vehicle_type_id":"4","last_reported":1766257640,"current_range_meters":13600,"station_id":"","pricing_plan_id":"cebpf4jnsgd1na2vs0mg"},{"bike_id":"b5c37b4c-5839-4b87-9c4d-cd6cceb26ce3","system_id":"levelo_inurba_marseille","lat":43.29282,"lon":5.36843,"is_reserved":false,"is_disabled":false,"rental_uris":{"android":"levelo://app?vid=b5c37b4c-5839-4b87-9c4d-cd6cceb26ce3","ios":"levelo://app?vid=b5c37b4c-5839-4b87-9c4d-cd6cceb26ce3"},"vehicle_type_id":"4","last_reported":1766257640,"current_range_meters":13600,"station_id":"","pricing_plan_id":"cebpf4jnsgd1na2vs0mg"},{"bike_id":"5549c5d4-40ee-4672-8eb6-d9e741467e36","system_id":"levelo_inurba_marseille","lat":43.29906,"lon":5.37469,"is_reserved":false,"is_disabled":true,"rental_uris":{"android":"levelo://app?vid=5549c5d4-40ee-4672-8eb6-d9e741467e36","ios":"levelo://app?vid=5549c5d4-40ee-4672-8eb6-d9e741467e36"},"vehicle_type_id":"4","last_reported":1766257640,"current_range_meters":13600,"station_id":"ce4bgjh2rcd13ifvqbg0","pricing_plan_id":"cebpf4jnsgd1na2vs0mg"},{"bike_id":"894b07af-2d2b-4e6f-add6-20e2189c2168","system_id":"levelo_inurba_marseille","lat":43.26951,"lon":5.38634,"is_reserved":false,"is_disabled":false,"rental_uris":{"android":"levelo://app?vid=894b07af-2d2b-4e6f-add6-20e2189c2168","ios":"levelo://app?vid=894b07af-2d2b-4e6f-add6-20e2189c2168"},"vehicle_type_id":"4","last_reported":1766257640,"current_range_meters":13600,"station_id":"ce4bhh92rcd13ifvqfh0","pricing_plan_id":"cebpf4jnsgd1na2vs0mg"},{"bike_id":"d4e12687-73c4-4f9e-bbf6-f4cb62632c79","system_id":"levelo_inurba_marseille","lat":43.27944,"lon":5.41038,"is_reserved":false,"is_disabled":false,"rental_uris":{"android":"levelo://app?vid=d4e12687-73c4-4f9e-bbf6-f4cb62632c79","ios":"levelo://app?vid=d4e12687-73c4-4f9e-bbf6-f4cb62632c79"},"vehicle_type_id":"4","last_reported":1766257640,"current_range_meters":13600,"station_id":"ce4bhnp2rcd13ifvqh0g","pricing_plan_id":"cebpf4jnsgd1na2vs0mg"},{"bike_id":"4201a005-0510-49fb-9274-a2028b8bb165","system_id":"levelo_inurba_marseille","lat":43.2886,"lon":5.35848,"is_reserved":false,"is_disabled":false,"rental_uris":{"android":"levelo://app?vid=4201a005-0510-49fb-9274-a2028b8bb165","ios":"levelo://app?vid=4201a005-0510-49fb-9274-a2028b8bb165"},"vehicle_type_id":"4","last_reported":1766257640,"current_range_meters":13600,"station_id":"ce4bhb12rcd13ifvqem0","pricing_plan_id":"cebpf4jnsgd1na2vs0mg"},{"bike_id":"ab337bae-f985-42ac-a822-8cc38b42992f","system_id":"levelo_inurba_marseille","lat":43.29794,"lon":5.38098,"is_reserved":false,"is_disabled":false,"rental_uris":{"android":"levelo://app?vid=ab337bae-f985-42ac-a822-8cc38b42992f","ios":"levelo://app?vid=ab337bae-f985-42ac-a822-8cc38b42992f"},"vehicle_type_id":"4","last_reported":1766257640,"current_range_meters":13600,"station_id":"ce4bgip2rcd13ifvqbb0","pricing_plan_id":"cebpf4jnsgd1na2vs0mg"},{"bike_id":"e1e0c5d5-d1ff-4328-abce-0032e41eb0b8","system_id":"levelo_inurba_marseille","lat":43.24633,"lon":5.43146,"is_reserved":false,"is_disabled":false,"rental_uris":{"android":"levelo://app?vid=e1e0c5d5-d1ff-4328-abce-0032e41eb0b8","ios":"levelo://app?vid=e1e0c5d5-d1ff-4328-abce-0032e41eb0b8"},"vehicle_type_id":"4","last_reported":1766257640,"current_range_meters":14000,"station_id":"st_d2m6c4gdas8pm72e190g","pricing_plan_id":"cebpf4jnsgd1na2vs0mg"},{"bike_id":"70d1a6fc-714c-4d28-90f5-0f0412ebb785","system_id":"levelo_inurba_marseille","lat":43.30431,"lon":5.39756,"is_reserved":false,"is_disabled":false,"rental_uris":{"android":"levelo://app?vid=70d1a6fc-714c-4d28-90f5-0f0412ebb785","ios":"levelo://app?vid=70d1a6fc-714c-4d28-90f5-0f0412ebb785"},"vehicle_type_id":"4","last_reported":1766257640,"current_range_meters":14000,"station_id":"ce4bh092rcd13ifvqd20","pricing_plan_id":"cebpf4jnsgd1na2vs0mg"},{"bike_id":"f05b1d45-099e-428c-8304-1aeb2bda8a9a","system_id":"levelo_inurba_marseille","lat":43.231893,"lon":5.355693,"is_reserved":false,"is_disabled":true,"rental_uris":{"android":"levelo://app?vid=f05b1d45-099e-428c-8304-1aeb2bda8a9a","ios":"levelo://app?vid=f05b1d45-099e-428c-8304-1aeb2bda8a9a"},"vehicle_type_id":"4","last_reported":1766257640,"current_range_meters":14000,"station_id":"ce4bhu92rcd13ifvqi70","pricing_plan_id":"cebpf4jnsgd1na2vs0mg"},{"bike_id":"2bbc71c7-bd58-41dd-b1bc-322a7159a69f","system_id":"levelo_inurba_marseille","lat":43.30149,"lon":5.38097,"is_reserved":false,"is_disabled":false,"rental_uris":{"android":"levelo://app?vid=2bbc71c7-bd58-41dd-b1bc-322a7159a69f","ios":"levelo://app?vid=2bbc71c7-bd58-41dd-b1bc-322a7159a69f"},"vehicle_type_id":"4","last_reported":1766257640,"current_range_meters":14000,"station_id":"ce4bgjp2rcd13ifvqbh0","pricing_plan_id":"cebpf4jnsgd1na2vs0mg"},{"bike_id":"785156da-0593-4b75-94f6-e2ccbbaee3ef","system_id":"levelo_inurba_marseille","lat":43.27414,"lon":5.39412,"is_reserved":false,"is_disabled":false,"rental_uris":{"android":"levelo://app?vid=785156da-0593-4b75-94f6-e2ccbbaee3ef","ios":"levelo://app?vid=785156da-0593-4b75-94f6-e2ccbbaee3ef"},"vehicle_type_id":"4","last_reported":1766257640,"current_range_meters":14000,"station_id":"ce4bhdp2rcd13ifvqf20","pricing_plan_id":"cebpf4jnsgd1na2vs0mg"},{"bike_id":"d25f24ab-f823-4841-8e66-0ee07bb012c7","system_id":"levelo_inurba_marseille","lat":43.29313,"lon":5.37425,"is_reserved":false,"is_disabled":false,"rental_uris":{"android":"levelo://app?vid=d25f24ab-f823-4841-8e66-0ee07bb012c7","ios":"levelo://app?vid=d25f24ab-f823-4841-8e66-0ee07bb012c7"},"vehicle_type_id":"4","last_reported":1766257640,"current_range_meters":14000,"station_id":"ce4bgi12rcd13ifvqb70","pricing_plan_id":"cebpf4jnsgd1na2vs0mg"},{"bike_id":"468b1521-1cc9-4756-8c4d-0fc33bf70730","system_id":"levelo_inurba_marseille","lat":43.297126,"lon":5.376928,"is_reserved":false,"is_disabled":false,"rental_uris":{"android":"levelo://app?vid=468b1521-1cc9-4756-8c4d-0fc33bf70730","ios":"levelo://app?vid=468b1521-1cc9-4756-8c4d-0fc33bf70730"},"vehicle_type_id":"4","last_reported":1766257640,"current_range_meters":14000,"station_id":"ce4bgkh2rcd13ifvqbl0","pricing_plan_id":"cebpf4jnsgd1na2vs0mg"},{"bike_id":"b54038a2-909c-416b-b201-a58c8e32d843","system_id":"levelo_inurba_marseille","lat":43.29534,"lon":5.38551,"is_reserved":false,"is_disabled":false,"rental_uris":{"android":"levelo://app?vid=b54038a2-909c-416b-b201-a58c8e32d843","ios":"levelo://app?vid=b54038a2-909c-416b-b201-a58c8e32d843"},"vehicle_type_id":"4","last_reported":1766257640,"current_range_meters":14000,"station_id":"ce4bgih2rcd13ifvqba0","pricing_plan_id":"cebpf4jnsgd1na2vs0mg"},{"bike_id":"611bb42d-81f1-42fc-b832-157e5dfb6bb7","system_id":"levelo_inurba_marseille","lat":43.28545,"lon":5.44095,"is_reserved":false,"is_disabled":false,"rental_uris":{"android":"levelo://app?vid=611bb42d-81f1-42fc-b832-157e5dfb6bb7","ios":"levelo://app?vid=611bb42d-81f1-42fc-b832-157e5dfb6bb7"},"vehicle_type_id":"4","last_reported":1766257640,"current_range_meters":14000,"station_id":"st_d3j3df2ikq2c7380ej80","pricing_plan_id":"cebpf4jnsgd1na2vs0mg"},{"bike_id":"49302437-6f32-4b67-a486-ae28561da399","system_id":"levelo_inurba_marseille","lat":43.27988,"lon":5.41657,"is_reserved":false,"is_disabled":false,"rental_uris":{"android":"levelo://app?vid=49302437-6f32-4b67-a486-ae28561da399","ios":"levelo://app?vid=49302437-6f32-4b67-a486-ae28561da399"},"vehicle_type_id":"4","last_reported":1766257640,"current_range_meters":14000,"station_id":"ce4bho12rcd13ifvqh1g","pricing_plan_id":"cebpf4jnsgd1na2vs0mg"},{"bike_id":"788c94de-1a40-4861-940f-f8c6403d139b","system_id":"levelo_inurba_marseille","lat":43.24813,"lon":5.37456,"is_reserved":false,"is_disabled":false,"rental_uris":{"android":"levelo://app?vid=788c94de-1a40-4861-940f-f8c6403d139b","ios":"levelo://app?vid=788c94de-1a40-4861-940f-f8c6403d139b"},"vehicle_type_id":"4","last_reported":1766257640,"current_range_meters":14000,"station_id":"ce4bhgh2rcd13ifvqfb0","pricing_plan_id":"cebpf4jnsgd1na2vs0mg"},{"bike_id":"1a80cb1e-f6c4-464e-b7b2-c93856f1b02c","system_id":"levelo_inurba_marseille","lat":43.29031,"lon":5.38133,"is_reserved":false,"is_disabled":false,"rental_uris":{"android":"levelo://app?vid=1a80cb1e-f6c4-464e-b7b2-c93856f1b02c","ios":"levelo://app?vid=1a80cb1e-f6c4-464e-b7b2-c93856f1b02c"},"vehicle_type_id":"4","last_reported":1766257640,"current_range_meters":14000,"station_id":"ce4bh4p2rcd13ifvqe1g","pricing_plan_id":"cebpf4jnsgd1na2vs0mg"},{"bike_id":"455016d2-5fbf-4a3e-85ba-1e7337979a51","system_id":"levelo_inurba_marseille","lat":43.23774,"lon":5.36632,"is_reserved":false,"is_disabled":false,"rental_uris":{"android":"levelo://app?vid=455016d2-5fbf-4a3e-85ba-1e7337979a51","ios":"levelo://app?vid=455016d2-5fbf-4a3e-85ba-1e7337979a51"},"vehicle_type_id":"4","last_reported":1766257640,"current_range_meters":14000,"station_id":"st_d3nk18o9ro0c73en2l3g","pricing_plan_id":"cebpf4jnsgd1na2vs0mg"},{"bike_id":"b0eb95b9-79ce-4691-a99c-e8e830cecad7","system_id":"levelo_inurba_marseille","lat":43.30369,"lon":5.42482,"is_reserved":false,"is_disabled":false,"rental_uris":{"android":"levelo://app?vid=b0eb95b9-79ce-4691-a99c-e8e830cecad7","ios":"levelo://app?vid=b0eb95b9-79ce-4691-a99c-e8e830cecad7"},"vehicle_type_id":"4","last_reported":1766257640,"current_range_meters":14000,"station_id":"ce4bhoh2rcd13ifvqh6g","pricing_plan_id":"cebpf4jnsgd1na2vs0mg"},{"bike_id":"d4b6e3bc-6079-4dd7-8620-5da486e8e3fa","system_id":"levelo_inurba_marseille","lat":43.31756,"lon":5.39014,"is_reserved":false,"is_disabled":false,"rental_uris":{"android":"levelo://app?vid=d4b6e3bc-6079-4dd7-8620-5da486e8e3fa","ios":"levelo://app?vid=d4b6e3bc-6079-4dd7-8620-5da486e8e3fa"},"vehicle_type_id":"4","last_reported":1766257640,"current_range_meters":14400,"station_id":"ce4bhqp2rcd13ifvqhng","pricing_plan_id":"cebpf4jnsgd1na2vs0mg"},{"bike_id":"2bede430-4250-4bb5-9cc1-2011ee04070d","system_id":"levelo_inurba_marseille","lat":43.28478,"lon":5.48394,"is_reserved":false,"is_disabled":false,"rental_uris":{"android":"levelo://app?vid=2bede430-4250-4bb5-9cc1-2011ee04070d","ios":"levelo://app?vid=2bede430-4250-4bb5-9cc1-2011ee04070d"},"vehicle_type_id":"4","last_reported":1766257640,"current_range_meters":14400,"station_id":"","pricing_plan_id":"cebpf4jnsgd1na2vs0mg"},{"bike_id":"be6edca5-cbaf-425d-ba3c-7981181dd2c6","system_id":"levelo_inurba_marseille","lat":43.283626,"lon":5.386419,"is_reserved":false,"is_disabled":true,"rental_uris":{"android":"levelo://app?vid=be6edca5-cbaf-425d-ba3c-7981181dd2c6","ios":"levelo://app?vid=be6edca5-cbaf-425d-ba3c-7981181dd2c6"},"vehicle_type_id":"4","last_reported":1766257640,"current_range_meters":14400,"station_id":"ce4bhi12rcd13ifvqfo0","pricing_plan_id":"cebpf4jnsgd1na2vs0mg"},{"bike_id":"ae6c1aeb-ea56-4930-8ca5-97f00c057268","system_id":"levelo_inurba_marseille","lat":43.24985,"lon":5.38901,"is_reserved":false,"is_disabled":false,"rental_uris":{"android":"levelo://app?vid=ae6c1aeb-ea56-4930-8ca5-97f00c057268","ios":"levelo://app?vid=ae6c1aeb-ea56-4930-8ca5-97f00c057268"},"vehicle_type_id":"4","last_reported":1766257640,"current_range_meters":14400,"station_id":"ce4bhgp2rcd13ifvqfd0","pricing_plan_id":"cebpf4jnsgd1na2vs0mg"},{"bike_id":"3086f0b2-3827-4c3e-a32b-6287484a2633","system_id":"levelo_inurba_marseille","lat":43.289985,"lon":5.356124,"is_reserved":false,"is_disabled":false,"rental_uris":{"android":"levelo://app?vid=3086f0b2-3827-4c3e-a32b-6287484a2633","ios":"levelo://app?vid=3086f0b2-3827-4c3e-a32b-6287484a2633"},"vehicle_type_id":"4","last_reported":1766257640,"current_range_meters":14400,"station_id":"ce4bhb92rcd13ifvqen0","pricing_plan_id":"cebpf4jnsgd1na2vs0mg"},{"bike_id":"2b865b81-8e0b-44c8-9263-6925783afa45","system_id":"levelo_inurba_marseille","lat":43.26223,"lon":5.37445,"is_reserved":false,"is_disabled":false,"rental_uris":{"android":"levelo://app?vid=2b865b81-8e0b-44c8-9263-6925783afa45","ios":"levelo://app?vid=2b865b81-8e0b-44c8-9263-6925783afa45"},"vehicle_type_id":"4","last_reported":1766257640,"current_range_meters":14400,"station_id":"","pricing_plan_id":"cebpf4jnsgd1na2vs0mg"},{"bike_id":"73e2925b-3961-4e27-be9f-277c3490deb8","system_id":"levelo_inurba_marseille","lat":43.29616,"lon":5.37753,"is_reserved":false,"is_disabled":false,"rental_uris":{"android":"levelo://app?vid=73e2925b-3961-4e27-be9f-277c3490deb8","ios":"levelo://app?vid=73e2925b-3961-4e27-be9f-277c3490deb8"},"vehicle_type_id":"4","last_reported":1766257640,"current_range_meters":14400,"station_id":"ce4bgi92rcd13ifvqb90","pricing_plan_id":"cebpf4jnsgd1na2vs0mg"},{"bike_id":"c9949e39-af79-4215-b9ac-686831c54432","system_id":"levelo_inurba_marseille","lat":43.296961,"lon":5.367659,"is_reserved":false,"is_disabled":false,"rental_uris":{"android":"levelo://app?vid=c9949e39-af79-4215-b9ac-686831c54432","ios":"levelo://app?vid=c9949e39-af79-4215-b9ac-686831c54432"},"vehicle_type_id":"4","last_reported":1766257640,"current_range_meters":14800,"station_id":"ce4bgn12rcd13ifvqbt0","pricing_plan_id":"cebpf4jnsgd1na2vs0mg"},{"bike_id":"ade91ab6-5e8a-4de3-9d82-ea6f467f1576","system_id":"levelo_inurba_marseille","lat":43.22933,"lon":5.35383,"is_reserved":false,"is_disabled":false,"rental_uris":{"android":"levelo://app?vid=ade91ab6-5e8a-4de3-9d82-ea6f467f1576","ios":"levelo://app?vid=ade91ab6-5e8a-4de3-9d82-ea6f467f1576"},"vehicle_type_id":"4","last_reported":1766257640,"current_range_meters":14800,"station_id":"cpo3532slgdg3j2ikp40","pricing_plan_id":"cebpf4jnsgd1na2vs0mg"},{"bike_id":"c3600c1e-1952-476d-9e4e-7c733aefa216","system_id":"levelo_inurba_marseille","lat":43.3064,"lon":5.40094,"is_reserved":false,"is_disabled":false,"rental_uris":{"android":"levelo://app?vid=c3600c1e-1952-476d-9e4e-7c733aefa216","ios":"levelo://app?vid=c3600c1e-1952-476d-9e4e-7c733aefa216"},"vehicle_type_id":"4","last_reported":1766257640,"current_range_meters":14800,"station_id":"ce4bh112rcd13ifvqda0","pricing_plan_id":"cebpf4jnsgd1na2vs0mg"},{"bike_id":"0bf09c92-c648-4fcc-8af4-5744e508d9fa","system_id":"levelo_inurba_marseille","lat":43.273373,"lon":5.392712,"is_reserved":false,"is_disabled":false,"rental_uris":{"android":"levelo://app?vid=0bf09c92-c648-4fcc-8af4-5744e508d9fa","ios":"levelo://app?vid=0bf09c92-c648-4fcc-8af4-5744e508d9fa"},"vehicle_type_id":"4","last_reported":1766257640,"current_range_meters":14800,"station_id":"ce4bhdp2rcd13ifvqf20","pricing_plan_id":"cebpf4jnsgd1na2vs0mg"},{"bike_id":"5051d93a-2df5-4ea3-bb8b-f70de774e1b4","system_id":"levelo_inurba_marseille","lat":43.29305,"lon":5.37149,"is_reserved":false,"is_disabled":false,"rental_uris":{"android":"levelo://app?vid=5051d93a-2df5-4ea3-bb8b-f70de774e1b4","ios":"levelo://app?vid=5051d93a-2df5-4ea3-bb8b-f70de774e1b4"},"vehicle_type_id":"4","last_reported":1766257640,"current_range_meters":14800,"station_id":"ce4bgh92rcd13ifvqb40","pricing_plan_id":"cebpf4jnsgd1na2vs0mg"},{"bike_id":"044a2f9f-6b80-44c8-9689-e0b10b111c9e","system_id":"levelo_inurba_marseille","lat":43.29686,"lon":5.37303,"is_reserved":false,"is_disabled":false,"rental_uris":{"android":"levelo://app?vid=044a2f9f-6b80-44c8-9689-e0b10b111c9e","ios":"levelo://app?vid=044a2f9f-6b80-44c8-9689-e0b10b111c9e"},"vehicle_type_id":"4","last_reported":1766257640,"current_range_meters":14800,"station_id":"ce4bgk12rcd13ifvqbj0","pricing_plan_id":"cebpf4jnsgd1na2vs0mg"},{"bike_id":"1686839b-0972-4d66-a949-1eae098c6a90","system_id":"levelo_inurba_marseille","lat":43.33542,"lon":5.3745,"is_reserved":false,"is_disabled":false,"rental_uris":{"android":"levelo://app?vid=1686839b-0972-4d66-a949-1eae098c6a90","ios":"levelo://app?vid=1686839b-0972-4d66-a949-1eae098c6a90"},"vehicle_type_id":"4","last_reported":1766257640,"current_range_meters":14800,"station_id":"st_d46tts09ee8s73dlu43g","pricing_plan_id":"cebpf4jnsgd1na2vs0mg"},{"bike_id":"50e991f6-2d38-438c-8336-363253871f9a","system_id":"levelo_inurba_marseille","lat":43.31279,"lon":5.3776,"is_reserved":false,"is_disabled":false,"rental_uris":{"android":"levelo://app?vid=50e991f6-2d38-438c-8336-363253871f9a","ios":"levelo://app?vid=50e991f6-2d38-438c-8336-363253871f9a"},"vehicle_type_id":"4","last_reported":1766257640,"current_range_meters":15200,"station_id":"","pricing_plan_id":"cebpf4jnsgd1na2vs0mg"},{"bike_id":"e5cf4f29-8329-4fd9-9c5a-2808ba57b37a","system_id":"levelo_inurba_marseille","lat":43.29741,"lon":5.36629,"is_reserved":false,"is_disabled":false,"rental_uris":{"android":"levelo://app?vid=e5cf4f29-8329-4fd9-9c5a-2808ba57b37a","ios":"levelo://app?vid=e5cf4f29-8329-4fd9-9c5a-2808ba57b37a"},"vehicle_type_id":"4","last_reported":1766257640,"current_range_meters":15200,"station_id":"ce4bgn12rcd13ifvqbt0","pricing_plan_id":"cebpf4jnsgd1na2vs0mg"},{"bike_id":"7a2810d9-a7a2-4f55-a626-e3338912c6bf","system_id":"levelo_inurba_marseille","lat":43.337586,"lon":5.3749,"is_reserved":false,"is_disabled":false,"rental_uris":{"android":"levelo://app?vid=7a2810d9-a7a2-4f55-a626-e3338912c6bf","ios":"levelo://app?vid=7a2810d9-a7a2-4f55-a626-e3338912c6bf"},"vehicle_type_id":"4","last_reported":1766257640,"current_range_meters":15200,"station_id":"","pricing_plan_id":"cebpf4jnsgd1na2vs0mg"},{"bike_id":"674911cf-1cfd-40f1-9e5e-f3941e7b6fc6","system_id":"levelo_inurba_marseille","lat":43.337444,"lon":5.374475,"is_reserved":false,"is_disabled":false,"rental_uris":{"android":"levelo://app?vid=674911cf-1cfd-40f1-9e5e-f3941e7b6fc6","ios":"levelo://app?vid=674911cf-1cfd-40f1-9e5e-f3941e7b6fc6"},"vehicle_type_id":"4","last_reported":1766257640,"current_range_meters":15200,"station_id":"","pricing_plan_id":"cebpf4jnsgd1na2vs0mg"},{"bike_id":"6c8e8f42-d745-4468-a186-046bf57622ae","system_id":"levelo_inurba_marseille","lat":43.30216,"lon":5.36436,"is_reserved":false,"is_disabled":false,"rental_uris":{"android":"levelo://app?vid=6c8e8f42-d745-4468-a186-046bf57622ae","ios":"levelo://app?vid=6c8e8f42-d745-4468-a186-046bf57622ae"},"vehicle_type_id":"4","last_reported":1766257640,"current_range_meters":15200,"station_id":"","pricing_plan_id":"cebpf4jnsgd1na2vs0mg"},{"bike_id":"2c46c7a5-389f-47fc-8086-ed2504307f23","system_id":"levelo_inurba_marseille","lat":43.27952,"lon":5.41051,"is_reserved":false,"is_disabled":false,"rental_uris":{"android":"levelo://app?vid=2c46c7a5-389f-47fc-8086-ed2504307f23","ios":"levelo://app?vid=2c46c7a5-389f-47fc-8086-ed2504307f23"},"vehicle_type_id":"4","last_reported":1766257640,"current_range_meters":15200,"station_id":"ce4bhnp2rcd13ifvqh0g","pricing_plan_id":"cebpf4jnsgd1na2vs0mg"},{"bike_id":"c0723a55-d0d0-493e-a4c5-9479bcaeff93","system_id":"levelo_inurba_marseille","lat":43.2848,"lon":5.48379,"is_reserved":false,"is_disabled":false,"rental_uris":{"android":"levelo://app?vid=c0723a55-d0d0-493e-a4c5-9479bcaeff93","ios":"levelo://app?vid=c0723a55-d0d0-493e-a4c5-9479bcaeff93"},"vehicle_type_id":"4","last_reported":1766257640,"current_range_meters":15200,"station_id":"st_d3svhcjqgbts73a3dn0g","pricing_plan_id":"cebpf4jnsgd1na2vs0mg"},{"bike_id":"b8c825ec-e9ef-4592-80b6-867fcf35a75f","system_id":"levelo_inurba_marseille","lat":43.28933,"lon":5.36643,"is_reserved":false,"is_disabled":false,"rental_uris":{"android":"levelo://app?vid=b8c825ec-e9ef-4592-80b6-867fcf35a75f","ios":"levelo://app?vid=b8c825ec-e9ef-4592-80b6-867fcf35a75f"},"vehicle_type_id":"4","last_reported":1766257640,"current_range_meters":15200,"station_id":"ce4bhap2rcd13ifvqek0","pricing_plan_id":"cebpf4jnsgd1na2vs0mg"},