{"last_updated":1738177574,"ttl":60,"version":"2.2","data":{"bikes":[{"bike_id":"cf3d8153-2335-4192-b582-9a68c2dc36c4","system_id":"levelo_inurba_marseille","lat":43.29021,"lon":5.38641,"is_reserved":false,"is_disabled":false,"rental_uris":{"android":"levelo://app?vid=cf3d8153-2335-4192-b582-9a68c2dc36c4","ios":"levelo://app?vid=cf3d8153-2335-4192-b582-9a68c2dc36c4"},"vehicle_type_id":"4","last_reported":1738177575,"current_range_meters":6800,"station_id":"ce4bh4p2rcd13ifvqe0g","pricing_plan_id":"cebpf4jnsgd1na2vs0mg"},{"bike_id":"f506a9e5-ac7d-4ec1-bc7d-dca336ec0ff0","system_id":"levelo_inurba_marseille","lat":43.30869,"lon":5.37792,"is_reserved":false,"is_disabled":false,"rental_uris":{"android":"levelo://app?vid=f506a9e5-ac7d-4ec1-bc7d-dca336ec0ff0","ios":"levelo://app?vid=f506a9e5-ac7d-4ec1-bc7d-dca336ec0ff0"},"vehicle_type_id":"4","last_reported":1738177575,"current_range_meters":30000,"station_id":"","pricing_plan_id":"cebpf4jnsgd1na2vs0mg"},{"bike_id":"bb645bb6-1ffd-4d52-b874-a82d359e4752","system_id":"levelo_inurba_marseille","lat":43.29501,"lon":5.39029,"is_reserved":false,"is_disabled":false,"rental_uris":{"android":"levelo://app?vid=bb645bb6-1ffd-4d52-b874-a82d359e4752","ios":"levelo://app?vid=bb645bb6-1ffd-4d52-b874-a82d359e4752"},"vehicle_type_id":"4","last_reported":1738177575,"current_range_meters":35600,"station_id":"ce4bh3p2rcd13ifvqdp0","pricing_plan_id":"cebpf4jnsgd1na2vs0mg"},{"bike_id":"9fd73913-dbae-4c44-9a9b-e393df78b1e9","system_id":"levelo_inurba_marseille","lat":43.25589,"lon":5.38236,"is_reserved":false,"is_disabled":true,"rental_uris":{"android":"levelo://app?vid=9fd73913-dbae-4c44-9a9b-e393df78b1e9","ios":"levelo://app?vid=9fd73913-dbae-4c44-9a9b-e393df78b1e9"},"vehicle_type_id":"4","last_reported":1738177575,"current_range_meters":2000,"station_id":"ce4bhih2rcd13ifvqfs0","pricing_plan_id":"cebpf4jnsgd1na2vs0mg"},{"bike_id":"5cea818e-cb3c-4d91-bcbe-0aa3dbd4b215","system_id":"levelo_inurba_marseille","lat":43.26213,"lon":5.3744,"is_reserved":false,"is_disabled":false,"rental_uris":{"android":"levelo://app?vid=5cea818e-cb3c-4d91-bcbe-0aa3dbd4b215","ios":"levelo://app?vid=5cea818e-cb3c-4d91-bcbe-0aa3dbd4b215"},"vehicle_type_id":"4","last_reported":1738177575,"current_range_meters":36800,"station_id":"ce4bhgp2rcd13ifvqfc0","pricing_plan_id":"cebpf4jnsgd1na2vs0mg"},{"bike_id":"0b60a033-bea6-4037-8fe0-a0069dc84ad6","system_id":"levelo_inurba_marseille","lat":43.27175,"lon":5.4099,"is_reserved":false,"is_disabled":false,"rental_uris":{"android":"levelo://app?vid=0b60a033-bea6-4037-8fe0-a0069dc84ad6","ios":"levelo://app?vid=0b60a033-bea6-4037-8fe0-a0069dc84ad6"},"vehicle_type_id":"4","last_reported":1738177575,"current_range_meters":30000,"station_id":"ce4bhl12rcd13ifvqgf0","pricing_plan_id":"cebpf4jnsgd1na2vs0mg"},{"bike_id":"e3dd9760-150c-4f3b-864b-f7f9a13c3ad1","system_id":"levelo_inurba_marseille","lat":43.30133,"lon":5.38762,"is_reserved":false,"is_disabled":false,"rental_uris":{"android":"levelo://app?vid=e3dd9760-150c-4f3b-864b-f7f9a13c3ad1","ios":"levelo://app?vid=e3dd9760-150c-4f3b-864b-f7f9a13c3ad1"},"vehicle_type_id":"4","last_reported":1738177575,"current_range_meters":30800,"station_id":"ce4bhoh2rcd13ifvqh6g","pricing_plan_id":"cebpf4jnsgd1na2vs0mg"},{"bike_id":"61db69aa-0f32-48f3-bc1e-91f693338465","system_id":"levelo_inurba_marseille","lat":43.29619,"lon":5.40596,"is_reserved":false,"is_disabled":false,"rental_uris":{"android":"levelo://app?vid=61db69aa-0f32-48f3-bc1e-91f693338465","ios":"levelo://app?vid=61db69aa-0f32-48f3-bc1e-91f693338465"},"vehicle_type_id":"4","last_reported":1738177575,"current_range_meters":6800,"station_id":"ce4bh0h2rcd13ifvqd60","pricing_plan_id":"cebpf4jnsgd1na2vs0mg"},{"bike_id":"f7f8117f-03ef-415e-85c6-2eeaf165e4f2","system_id":"levelo_inurba_marseille","lat":43.261957,"lon":5.404057,"is_reserved":false,"is_disabled":true,"rental_uris":{"android":"levelo://app?vid=f7f8117f-03ef-415e-85c6-2eeaf165e4f2","ios":"levelo://app?vid=f7f8117f-03ef-415e-85c6-2eeaf165e4f2"},"vehicle_type_id":"4","last_reported":1738177575,"current_range_meters":28000,"station_id":"ce4bhmh2rcd13ifvqgmg","pricing_plan_id":"cebpf4jnsgd1na2vs0mg"},{"bike_id":"57d45e97-d0ca-444a-9cf8-08675d4aa3e3","system_id":"levelo_inurba_marseille","lat":43.29038,"lon":5.35918,"is_reserved":false,"is_disabled":false,"rental_uris":{"android":"levelo://app?vid=57d45e97-d0ca-444a-9cf8-08675d4aa3e3","ios":"levelo://app?vid=57d45e97-d0ca-444a-9cf8-08675d4aa3e3"},"vehicle_type_id":"4","last_reported":1738177575,"current_range_meters":39200,"station_id":"ce4bha92rcd13ifvqeg0","pricing_plan_id":"cebpf4jnsgd1na2vs0mg"},{"bike_id":"41dd62a4-9c6c-4f22-8522-a74901e6ccce","system_id":"levelo_inurba_marseille","lat":43.29262,"lon":5.38448,"is_reserved":false,"is_disabled":false,"rental_uris":{"android":"levelo://app?vid=41dd62a4-9c6c-4f22-8522-a74901e6ccce","ios":"levelo://app?vid=41dd62a4-9c6c-4f22-8522-a74901e6ccce"},"vehicle_type_id":"4","last_reported":1738177575,"current_range_meters":24400,"station_id":"ce4bh692rcd13ifvqea0","pricing_plan_id":"cebpf4jnsgd1na2vs0mg"},{"bike_id":"95368096-d0f9-4c12-bf75-9f98ccb1b0a5","system_id":"levelo_inurba_marseille","lat":43.30932,"lon":5.40136,"is_reserved":false,"is_disabled":false,"rental_uris":{"android":"levelo://app?vid=95368096-d0f9-4c12-bf75-9f98ccb1b0a5","ios":"levelo://app?vid=95368096-d0f9-4c12-bf75-9f98ccb1b0a5"},"vehicle_type_id":"4","last_reported":1738177575,"current_range_meters":14800,"station_id":"ce4bgvp2rcd13ifvqct0","pricing_plan_id":"cebpf4jnsgd1na2vs0mg"},{"bike_id":"de1b162f-edfa-4b86-b016-f125f78b5cd4","system_id":"levelo_inurba_marseille","lat":43.31281,"lon":5.40154,"is_reserved":false,"is_disabled":false,"rental_uris":{"android":"levelo://app?vid=de1b162f-edfa-4b86-b016-f125f78b5cd4","ios":"levelo://app?vid=de1b162f-edfa-4b86-b016-f125f78b5cd4"},"vehicle_type_id":"4","last_reported":1738177575,"current_range_meters":27200,"station_id":"ce4bh092rcd13ifvqd30","pricing_plan_id":"cebpf4jnsgd1na2vs0mg"},{"bike_id":"11222545-ee94-4005-a43b-0c7602425dc4","system_id":"levelo_inurba_marseille","lat":43.28468,"lon":5.38416,"is_reserved":false,"is_disabled":false,"rental_uris":{"android":"levelo://app?vid=11222545-ee94-4005-a43b-0c7602425dc4","ios":"levelo://app?vid=11222545-ee94-4005-a43b-0c7602425dc4"},"vehicle_type_id":"4","last_reported":1738177575,"current_range_meters":38000,"station_id":"ce4bh512rcd13ifvqe3g","pricing_plan_id":"cebpf4jnsgd1na2vs0mg"},{"bike_id":"adc2855c-ce96-4ab1-9132-d4c82e18f627","system_id":"levelo_inurba_marseille","lat":43.26486,"lon":5.39558,"is_reserved":false,"is_disabled":false,"rental_uris":{"android":"levelo://app?vid=adc2855c-ce96-4ab1-9132-d4c82e18f627","ios":"levelo://app?vid=adc2855c-ce96-4ab1-9132-d4c82e18f627"},"vehicle_type_id":"4","last_reported":1738177575,"current_range_meters":32000,"station_id":"ce4bhi12rcd13ifvqfq0","pricing_plan_id":"cebpf4jnsgd1na2vs0mg"},{"bike_id":"7e471df6-cf6d-4a43-8b48-8e06f31bacef","system_id":"levelo_inurba_marseille","lat":43.26557,"lon":5.37281,"is_reserved":false,"is_disabled":false,"rental_uris":{"android":"levelo://app?vid=7e471df6-cf6d-4a43-8b48-8e06f31bacef","ios":"levelo://app?vid=7e471df6-cf6d-4a43-8b48-8e06f31bacef"},"vehicle_type_id":"4","last_reported":1738177575,"current_range_meters":8800,"station_id":"ce4bhg12rcd13ifvqf70","pricing_plan_id":"cebpf4jnsgd1na2vs0mg"},{"bike_id":"df517269-7978-40e7-92b9-aba0b6440d0d","system_id":"levelo_inurba_marseille","lat":43.27364,"lon":5.36236,"is_reserved":false,"is_disabled":false,"rental_uris":{"android":"levelo://app?vid=df517269-7978-40e7-92b9-aba0b6440d0d","ios":"levelo://app?vid=df517269-7978-40e7-92b9-aba0b6440d0d"},"vehicle_type_id":"4","last_reported":1738177575,"current_range_meters":26800,"station_id":"ce4bhbh2rcd13ifvqeo0","pricing_plan_id":"cebpf4jnsgd1na2vs0mg"},{"bike_id":"8c03f280-854f-4c8a-bcde-c7e733b88599","system_id":"levelo_inurba_marseille","lat":43.29185,"lon":5.3603,"is_reserved":false,"is_disabled":true,"rental_uris":{"android":"levelo://app?vid=8c03f280-854f-4c8a-bcde-c7e733b88599","ios":"levelo://app?vid=8c03f280-854f-4c8a-bcde-c7e733b88599"},"vehicle_type_id":"4","last_reported":1738177575,"current_range_meters":0,"station_id":"","pricing_plan_id":"cebpf4jnsgd1na2vs0mg"},{"bike_id":"f229f300-57ee-4773-929a-5a7a8c6ccb07","system_id":"levelo_inurba_marseille","lat":43.29198,"lon":5.39321,"is_reserved":false,"is_disabled":false,"rental_uris":{"android":"levelo://app?vid=f229f300-57ee-4773-929a-5a7a8c6ccb07","ios":"levelo://app?vid=f229f300-57ee-4773-929a-5a7a8c6ccb07"},"vehicle_type_id":"4","last_reported":1738177575,"current_range_meters":25600,"station_id":"ce4bh192rcd13ifvqdd0","pricing_plan_id":"cebpf4jnsgd1na2vs0mg"},{"bike_id":"79b7a714-6899-43f0-a0e6-1e9b5234e282","system_id":"levelo_inurba_marseille","lat":43.29553,"lon":5.42278,"is_reserved":false,"is_disabled":true,"rental_uris":{"android":"levelo://app?vid=79b7a714-6899-43f0-a0e6-1e9b5234e282","ios":"levelo://app?vid=79b7a714-6899-43f0-a0e6-1e9b5234e282"},"vehicle_type_id":"4","last_reported":1738177575,"current_range_meters":0,"station_id":"ce4bhph2rcd13ifvqhdg","pricing_plan_id":"cebpf4jnsgd1na2vs0mg"},{"bike_id":"fef603c9-e2f8-4f17-9592-e93f77412abb","system_id":"levelo_inurba_marseille","lat":43.300964,"lon":5.390873,"is_reserved":false,"is_disabled":false,"rental_uris":{"android":"levelo://app?vid=fef603c9-e2f8-4f17-9592-e93f77412abb","ios":"levelo://app?vid=fef603c9-e2f8-4f17-9592-e93f77412abb"},"vehicle_type_id":"4","last_reported":1738177575,"current_range_meters":36400,"station_id":"ce4bh192rcd13ifvqdb0","pricing_plan_id":"cebpf4jnsgd1na2vs0mg"},{"bike_id":"e05d3339-457c-46fa-9827-97d4d0e79dfd","system_id":"levelo_inurba_marseille","lat":43.25873,"lon":5.39896,"is_reserved":false,"is_disabled":false,"rental_uris":{"android":"levelo://app?vid=e05d3339-457c-46fa-9827-97d4d0e79dfd","ios":"levelo://app?vid=e05d3339-457c-46fa-9827-97d4d0e79dfd"},"vehicle_type_id":"4","last_reported":1738177575,"current_range_meters":39200,"station_id":"ce4bhl92rcd13ifvqghg","pricing_plan_id":"cebpf4jnsgd1na2vs0mg"},{"bike_id":"9bd21267-26f6-4122-9567-2f0b5d4f790f","system_id":"levelo_inurba_marseille","lat":43.32364,"lon":5.38902,"is_reserved":false,"is_disabled":false,"rental_uris":{"android":"levelo://app?vid=9bd21267-26f6-4122-9567-2f0b5d4f790f","ios":"levelo://app?vid=9bd21267-26f6-4122-9567-2f0b5d4f790f"},"vehicle_type_id":"4","last_reported":1738177575,"current_range_meters":8000,"station_id":"ce4bhqp2rcd13ifvqhog","pricing_plan_id":"cebpf4jnsgd1na2vs0mg"},{"bike_id":"883f004f-de79-405a-a8b2-65deefbed021","system_id":"levelo_inurba_marseille","lat":43.29261,"lon":5.3844,"is_reserved":false,"is_disabled":false,"rental_uris":{"android":"levelo://app?vid=883f004f-de79-405a-a8b2-65deefbed021","ios":"levelo://app?vid=883f004f-de79-405a-a8b2-65deefbed021"},"vehicle_type_id":"4","last_reported":1738177575,"current_range_meters":38800,"station_id":"ce4bh692rcd13ifvqea0","pricing_plan_id":"cebpf4jnsgd1na2vs0mg"},{"bike_id":"8bde1ebe-5abf-474a-84a7-7794fe44c931","system_id":"levelo_inurba_marseille","lat":43.33046,"lon":5.39052,"is_reserved":false,"is_disabled":false,"rental_uris":{"android":"levelo://app?vid=8bde1ebe-5abf-474a-84a7-7794fe44c931","ios":"levelo://app?vid=8bde1ebe-5abf-474a-84a7-7794fe44c931"},"vehicle_type_id":"4","last_reported":1738177575,"current_range_meters":38800,"station_id":"ce4bhr92rcd13ifvqhrg","pricing_plan_id":"cebpf4jnsgd1na2vs0mg"},{"bike_id":"c98aea08-4be0-4fe4-8ee6-bca40d6296f7","system_id":"levelo_inurba_marseille","lat":43.27987,"lon":5.4166,"is_reserved":false,"is_disabled":false,"rental_uris":{"android":"levelo://app?vid=c98aea08-4be0-4fe4-8ee6-bca40d6296f7","ios":"levelo://app?vid=c98aea08-4be0-4fe4-8ee6-bca40d6296f7"},"vehicle_type_id":"4","last_reported":1738177575,"current_range_meters":24000,"station_id":"ce4bho12rcd13ifvqh1g","pricing_plan_id":"cebpf4jnsgd1na2vs0mg"},{"bike_id":"1c63fa7b-8bb3-4da5-8267-9c40ab75cc0b","system_id":"levelo_inurba_marseille","lat":43.33724,"lon":5.39178,"is_reserved":false,"is_disabled":false,"rental_uris":{"android":"levelo://app?vid=1c63fa7b-8bb3-4da5-8267-9c40ab75cc0b","ios":"levelo://app?vid=1c63fa7b-8bb3-4da5-8267-9c40ab75cc0b"},"vehicle_type_id":"4","last_reported":1738177575,"current_range_meters":39200,"station_id":"ce4bhr92rcd13ifvqhsg","pricing_plan_id":"cebpf4jnsgd1na2vs0mg"},{"bike_id":"17af1dd2-4036-4414-a293-314fa19f63b0","system_id":"levelo_inurba_marseille","lat":43.29413,"lon":5.38615,"is_reserved":false,"is_disabled":true,"rental_uris":{"android":"levelo://app?vid=17af1dd2-4036-4414-a293-314fa19f63b0","ios":"levelo://app?vid=17af1dd2-4036-4414-a293-314fa19f63b0"},"vehicle_type_id":"4","last_reported":1738177575,"current_range_meters":400,"station_id":"ce4bh2h2rcd13ifvqdh0","pricing_plan_id":"cebpf4jnsgd1na2vs0mg"},{"bike_id":"fb57aee5-301b-407c-a9d0-c23dec2dfbec","system_id":"levelo_inurba_marseille","lat":43.273673,"lon":5.362523,"is_reserved":false,"is_disabled":false,"rental_uris":{"android":"levelo://app?vid=fb57aee5-301b-407c-a9d0-c23dec2dfbec","ios":"levelo://app?vid=fb57aee5-301b-407c-a9d0-c23dec2dfbec"},"vehicle_type_id":"4","last_reported":1738177575,"current_range_meters":29600,"station_id":"ce4bhbh2rcd13ifvqeo0","pricing_plan_id":"cebpf4jnsgd1na2vs0mg"},{"bike_id":"5d4915e0-4a9f-4c36-821a-8bde58abc3cd","system_id":"levelo_inurba_marseille","lat":43.25109,"lon":5.40328,"is_reserved":false,"is_disabled":true,"rental_uris":{"android":"levelo://app?vid=5d4915e0-4a9f-4c36-821a-8bde58abc3cd","ios":"levelo://app?vid=5d4915e0-4a9f-4c36-821a-8bde58abc3cd"},"vehicle_type_id":"4","last_reported":1738177575,"current_range_meters":38800,"station_id":"ce4bhlh2rcd13ifvqgig","pricing_plan_id":"cebpf4jnsgd1na2vs0mg"},{"bike_id":"71fe1c26-5853-405a-bd0a-7fc15a5f97c1","system_id":"levelo_inurba_marseille","lat":43.31372,"lon":5.36704,"is_reserved":false,"is_disabled":true,"rental_uris":{"android":"levelo://app?vid=71fe1c26-5853-405a-bd0a-7fc15a5f97c1","ios":"levelo://app?vid=71fe1c26-5853-405a-bd0a-7fc15a5f97c1"},"vehicle_type_id":"4","last_reported":1738177575,"current_range_meters":36400,"station_id":"ce4bgr92rcd13ifvqc6g","pricing_plan_id":"cebpf4jnsgd1na2vs0mg"},{"bike_id":"e13b7a82-8d03-471f-ac70-6a6d40fcbd32","system_id":"levelo_inurba_marseille","lat":43.28696,"lon":5.3831,"is_reserved":false,"is_disabled":true,"rental_uris":{"android":"levelo://app?vid=e13b7a82-8d03-471f-ac70-6a6d40fcbd32","ios":"levelo://app?vid=e13b7a82-8d03-471f-ac70-6a6d40fcbd32"},"vehicle_type_id":"4","last_reported":1738177575,"current_range_meters":1600,"station_id":"","pricing_plan_id":"cebpf4jnsgd1na2vs0mg"},{"bike_id":"3793d424-9581-4cb6-ae1c-22969714ef38","system_id":"levelo_inurba_marseille","lat":43.276609,"lon":5.388696,"is_reserved":false,"is_disabled":false,"rental_uris":{"android":"levelo://app?vid=3793d424-9581-4cb6-ae1c-22969714ef38","ios":"levelo://app?vid=3793d424-9581-4cb6-ae1c-22969714ef38"},"vehicle_type_id":"4","last_reported":1738177575,"current_range_meters":20400,"station_id":"ce4bhi12rcd13ifvqfo0","pricing_plan_id":"cebpf4jnsgd1na2vs0mg"},{"bike_id":"dcc0bffa-fb63-4b2f-8e90-ab8262f06669","system_id":"levelo_inurba_marseille","lat":43.30145,"lon":5.38771,"is_reserved":false,"is_disabled":false,"rental_uris":{"android":"levelo://app?vid=dcc0bffa-fb63-4b2f-8e90-ab8262f06669","ios":"levelo://app?vid=dcc0bffa-fb63-4b2f-8e90-ab8262f06669"},"vehicle_type_id":"4","last_reported":1738177575,"current_range_meters":36800,"station_id":"ce4bhoh2rcd13ifvqh6g","pricing_plan_id":"cebpf4jnsgd1na2vs0mg"},{"bike_id":"10d8361f-7304-4b98-a7da-1e8470473995","system_id":"levelo_inurba_marseille","lat":43.31726,"lon":5.42406,"is_reserved":false,"is_disabled":false,"rental_uris":{"android":"levelo://app?vid=10d8361f-7304-4b98-a7da-1e8470473995","ios":"levelo://app?vid=10d8361f-7304-4b98-a7da-1e8470473995"},"vehicle_type_id":"4","last_reported":1738177575,"current_range_meters":36000,"station_id":"ce4bhp92rcd13ifvqhbg","pricing_plan_id":"cebpf4jnsgd1na2vs0mg"},{"bike_id":"adc7b3d2-9b75-4fa7-b02f-9ff08028c0b7","system_id":"levelo_inurba_marseille","lat":43.31709,"lon":5.37744,"is_reserved":false,"is_disabled":false,"rental_uris":{"android":"levelo://app?vid=adc7b3d2-9b75-4fa7-b02f-9ff08028c0b7","ios":"levelo://app?vid=adc7b3d2-9b75-4fa7-b02f-9ff08028c0b7"},"vehicle_type_id":"4","last_reported":1738177575,"current_range_meters":37600,"station_id":"ce4bgth2rcd13ifvqch0","pricing_plan_id":"cebpf4jnsgd1na2vs0mg"},{"bike_id":"5eb90794-1bdf-4569-bb83-163f959d1121","system_id":"levelo_inurba_marseille","lat":43.29253,"lon":5.38448,"is_reserved":false,"is_disabled":false,"rental_uris":{"android":"levelo://app?vid=5eb90794-1bdf-4569-bb83-163f959d1121","ios":"levelo://app?vid=5eb90794-1bdf-4569-bb83-163f959d1121"},"vehicle_type_id":"4","last_reported":1738177575,"current_range_meters":30400,"station_id":"ce4bh692rcd13ifvqea0","pricing_plan_id":"cebpf4jnsgd1na2vs0mg"},{"bike_id":"ef57246d-5442-4abf-a5cf-157157c8db54","system_id":"levelo_inurba_marseille","lat":43.28937,"lon":5.39632,"is_reserved":false,"is_disabled":false,"rental_uris":{"android":"levelo://app?vid=ef57246d-5442-4abf-a5cf-157157c8db54","ios":"levelo://app?vid=ef57246d-5442-4abf-a5cf-157157c8db54"},"vehicle_type_id":"4","last_reported":1738177575,"current_range_meters":9600,"station_id":"ce4bh3h2rcd13ifvqdn0","pricing_plan_id":"cebpf4jnsgd1na2vs0mg"},{"bike_id":"cd6b76b1-5041-4a85-957d-ae81df735153","system_id":"levelo_inurba_marseille","lat":43.2926,"lon":5.36842,"is_reserved":false,"is_disabled":false,"rental_uris":{"android":"levelo://app?vid=cd6b76b1-5041-4a85-957d-ae81df735153","ios":"levelo://app?vid=cd6b76b1-5041-4a85-957d-ae81df735153"},"vehicle_type_id":"4","last_reported":1738177575,"current_range_meters":38400,"station_id":"ce4bhbp2rcd13ifvqesg","pricing_plan_id":"cebpf4jnsgd1na2vs0mg"},{"bike_id":"e24b0b00-1780-4162-aac0-9bb6ee5464a6","system_id":"levelo_inurba_marseille","lat":43.29047,"lon":5.37558,"is_reserved":false,"is_disabled":true,"rental_uris":{"android":"levelo://app?vid=e24b0b00-1780-4162-aac0-9bb6ee5464a6","ios":"levelo://app?vid=e24b0b00-1780-4162-aac0-9bb6ee5464a6"},"vehicle_type_id":"4","last_reported":1738177575,"current_range_meters":6400,"station_id":"ce4bh692rcd13ifvqe90","pricing_plan_id":"cebpf4jnsgd1na2vs0mg"},{"bike_id":"d6a3b64e-2610-4e3c-87bb-b17282c413d8","system_id":"levelo_inurba_marseille","lat":43.30318,"lon":5.4044,"is_reserved":false,"is_disabled":false,"rental_uris":{"android":"levelo://app?vid=d6a3b64e-2610-4e3c-87bb-b17282c413d8","ios":"levelo://app?vid=d6a3b64e-2610-4e3c-87bb-b17282c413d8"},"vehicle_type_id":"4","last_reported":1738177575,"current_range_meters":14000,"station_id":"ce4bh012rcd13ifvqd10","pricing_plan_id":"cebpf4jnsgd1na2vs0mg"},{"bike_id":"dd5c5c45-05d7-435f-b329-97ebdf5c921f","system_id":"levelo_inurba_marseille","lat":43.25115,"lon":5.40344,"is_reserved":false,"is_disabled":true,"rental_uris":{"android":"levelo://app?vid=dd5c5c45-05d7-435f-b329-97ebdf5c921f","ios":"levelo://app?vid=dd5c5c45-05d7-435f-b329-97ebdf5c921f"},"vehicle_type_id":"4","last_reported":1738177575,"current_range_meters":0,"station_id":"ce4bhlh2rcd13ifvqgig","pricing_plan_id":"cebpf4jnsgd1na2vs0mg"},{"bike_id":"c7bdc074-3c4f-4d2d-8b38-3436f976868d","system_id":"levelo_inurba_marseille","lat":43.30411,"lon":5.41287,"is_reserved":false,"is_disabled":true,"rental_uris":{"android":"levelo://app?vid=c7bdc074-3c4f-4d2d-8b38-3436f976868d","ios":"levelo://app?vid=c7bdc074-3c4f-4d2d-8b38-3436f976868d"},"vehicle_type_id":"4","last_reported":1738177575,"current_range_meters":0,"station_id":"ce4bhop2rcd13ifvqh8g","pricing_plan_id":"cebpf4jnsgd1na2vs0mg"},{"bike_id":"13cf75fe-f660-456c-ad9e-8c9251fee13a","system_id":"levelo_inurba_marseille","lat":43.2835,"lon":5.38622,"is_reserved":false,"is_disabled":false,"rental_uris":{"android":"levelo://app?vid=13cf75fe-f660-456c-ad9e-8c9251fee13a","ios":"levelo://app?vid=13cf75fe-f660-456c-ad9e-8c9251fee13a"},"vehicle_type_id":"4","last_reported":1738177575,"current_range_meters":2800,"station_id":"ce4bh492rcd13ifvqdvg","pricing_plan_id":"cebpf4jnsgd1na2vs0mg"},{"bike_id":"bf94b5cf-6e0a-4706-b635-1d348d1ff856","system_id":"levelo_inurba_marseille","lat":43.27948,"lon":5.41025,"is_reserved":false,"is_disabled":false,"rental_uris":{"android":"levelo://app?vid=bf94b5cf-6e0a-4706-b635-1d348d1ff856","ios":"levelo://app?vid=bf94b5cf-6e0a-4706-b635-1d348d1ff856"},"vehicle_type_id":"4","last_reported":1738177575,"current_range_meters":10800,"station_id":"ce4bhnp2rcd13ifvqh0g","pricing_plan_id":"cebpf4jnsgd1na2vs0mg"},{"bike_id":"9fc63388-ebeb-4916-bdf8-94a8a57af86f","system_id":"levelo_inurba_marseille","lat":43.27903,"lon":5.38005,"is_reserved":false,"is_disabled":false,"rental_uris":{"android":"levelo://app?vid=9fc63388-ebeb-4916-bdf8-94a8a57af86f","ios":"levelo://app?vid=9fc63388-ebeb-4916-bdf8-94a8a57af86f"},"vehicle_type_id":"4","last_reported":1738177575,"current_range_meters":19600,"station_id":"ce4bhf92rcd13ifvqf50","pricing_plan_id":"cebpf4jnsgd1na2vs0mg"},{"bike_id":"9f7cbc3c-6e0b-4442-8c70-64c0b2a1452e","system_id":"levelo_inurba_marseille","lat":43.23064,"lon":5.35494,"is_reserved":false,"is_disabled":false,"rental_uris":{"android":"levelo://app?vid=9f7cbc3c-6e0b-4442-8c70-64c0b2a1452e","ios":"levelo://app?vid=9f7cbc3c-6e0b-4442-8c70-64c0b2a1452e"},"vehicle_type_id":"4","last_reported":1738177575,"current_range_meters":16400,"station_id":"cpo3342slgdg3j2ifvpg","pricing_plan_id":"cebpf4jnsgd1na2vs0mg"},{"bike_id":"c8a3a0ed-dff2-4f3c-87dc-2e6b47b1ad28","system_id":"levelo_inurba_marseille","lat":43.337444,"lon":5.374475,"is_reserved":false,"is_disabled":true,"rental_uris":{"android":"levelo://app?vid=c8a3a0ed-dff2-4f3c-87dc-2e6b47b1ad28","ios":"levelo://app?vid=c8a3a0ed-dff2-4f3c-87dc-2e6b47b1ad28"},"vehicle_type_id":"4","last_reported":1738177575,"current_range_meters":0,"station_id":"","pricing_plan_id":"cebpf4jnsgd1na2vs0mg"},{"bike_id":"76009bdf-fe47-4c7b-b848-7fc36b4f5990","system_id":"levelo_inurba_marseille","lat":43.27567,"lon":5.38377,"is_reserved":false,"is_disabled":false,"rental_uris":{"android":"levelo://app?vid=76009bdf-fe47-4c7b-b848-7fc36b4f5990","ios":"levelo://app?vid=76009bdf-fe47-4c7b-b848-7fc36b4f5990"},"vehicle_type_id":"4","last_reported":1738177575,"current_range_meters":39200,"station_id":"ce4bhh92rcd13ifvqfi0","pricing_plan_id":"cebpf4jnsgd1na2vs0mg"},{"bike_id":"62c0a05a-8c99-422d-8d99-b615ce2d9639","system_id":"levelo_inurba_marseille","lat":43.27935,"lon":5.41042,"is_reserved":false,"is_disabled":false,"rental_uris":{"android":"levelo://app?vid=62c0a05a-8c99-422d-8d99-b615ce2d9639","ios":"levelo://app?vid=62c0a05a-8c99-422d-8d99-b615ce2d9639"},"vehicle_type_id":"4","last_reported":1738177575,"current_range_meters":20000,"station_id":"ce4bhnp2rcd13ifvqh0g","pricing_plan_id":"cebpf4jnsgd1na2vs0mg"},{"bike_id":"2b9d8f53-3d23-4ae7-9ce5-0da780c3a019","system_id":"levelo_inurba_marseille","lat":43.3139,"lon":5.38493,"is_reserved":false,"is_disabled":false,"rental_uris":{"android":"levelo://app?vid=2b9d8f53-3d23-4ae7-9ce5-0da780c3a019","ios":"levelo://app?vid=2b9d8f53-3d23-4ae7-9ce5-0da780c3a019"},"vehicle_type_id":"4","last_reported":1738177575,"current_range_meters":15200,"station_id":"ce4bgt92rcd13ifvqcf0","pricing_plan_id":"cebpf4jnsgd1na2vs0mg"},{"bike_id":"8e100111-c09e-4654-9f8f-948138e4e333","system_id":"levelo_inurba_marseille","lat":43.29272,"lon":5.38437,"is_reserved":false,"is_disabled":false,"rental_uris":{"android":"levelo://app?vid=8e100111-c09e-4654-9f8f-948138e4e333","ios":"levelo://app?vid=8e100111-c09e-4654-9f8f-948138e4e333"},"vehicle_type_id":"4","last_reported":1738177575,"current_range_meters":18000,"station_id":"ce4bh692rcd13ifvqea0","pricing_plan_id":"cebpf4jnsgd1na2vs0mg"},{"bike_id":"961d08c8-ceab-4a69-9f97-b77980bf8ef0","system_id":"levelo_inurba_marseille","lat":43.25937,"lon":5.40902,"is_reserved":false,"is_disabled":false,"rental_uris":{"android":"levelo://app?vid=961d08c8-ceab-4a69-9f97-b77980bf8ef0","ios":"levelo://app?vid=961d08c8-ceab-4a69-9f97-b77980bf8ef0"},"vehicle_type_id":"4","last_reported":1738177575,"current_range_meters":12800,"station_id":"ce4bhm92rcd13ifvqglg","pricing_plan_id":"cebpf4jnsgd1na2vs0mg"},{"bike_id":"c866f847-b446-40c6-87b4-6dc3be168564","system_id":"levelo_inurba_marseille","lat":43.29018,"lon":5.3865,"is_reserved":false,"is_disabled":false,"rental_uris":{"android":"levelo://app?vid=c866f847-b446-40c6-87b4-6dc3be168564","ios":"levelo://app?vid=c866f847-b446-40c6-87b4-6dc3be168564"},"vehicle_type_id":"4","last_reported":1738177575,"current_range_meters":38800,"station_id":"ce4bh4p2rcd13ifvqe0g","pricing_plan_id":"cebpf4jnsgd1na2vs0mg"},{"bike_id":"991e7465-9292-4d33-b4eb-9ae38338f8c0","system_id":"levelo_inurba_marseille","lat":43.25861,"lon":5.39902,"is_reserved":false,"is_disabled":false,"rental_uris":{"android":"levelo://app?vid=991e7465-9292-4d33-b4eb-9ae38338f8c0","ios":"levelo://app?vid=991e7465-9292-4d33-b4eb-9ae38338f8c0"},"vehicle_type_id":"4","last_reported":1738177575,"current_range_meters":38800,"station_id":"ce4bhl92rcd13ifvqghg","pricing_plan_id":"cebpf4jnsgd1na2vs0mg"},{"bike_id":"6811fcdd-0dd6-46b0-93c3-921932e8f90c","system_id":"levelo_inurba_marseille","lat":43.32546,"lon":5.41462,"is_reserved":false,"is_disabled":true,"rental_uris":{"android":"levelo://app?vid=6811fcdd-0dd6-46b0-93c3-921932e8f90c","ios":"levelo://app?vid=6811fcdd-0dd6-46b0-93c3-921932e8f90c"},"vehicle_type_id":"4","last_reported":1738177575,"current_range_meters":38800,"station_id":"ce4bhq12rcd13ifvqhhg","pricing_plan_id":"cebpf4jnsgd1na2vs0mg"},{"bike_id":"e80ea158-b19d-484f-b536-c2f57483be8c","system_id":"levelo_inurba_marseille","lat":43.28151,"lon":5.42637,"is_reserved":false,"is_disabled":false,"rental_uris":{"android":"levelo://app?vid=e80ea158-b19d-484f-b536-c2f57483be8c","ios":"levelo://app?vid=e80ea158-b19d-484f-b536-c2f57483be8c"},"vehicle_type_id":"4","last_reported":1738177575,"current_range_meters":14400,"station_id":"ce4bhnh2rcd13ifvqgug","pricing_plan_id":"cebpf4jnsgd1na2vs0mg"},{"bike_id":"830d62cb-e809-4968-bec3-869a7d4e085b","system_id":"levelo_inurba_marseille","lat":43.29009,"lon":5.38124,"is_reserved":false,"is_disabled":false,"rental_uris":{"android":"levelo://app?vid=830d62cb-e809-4968-bec3-869a7d4e085b","ios":"levelo://app?vid=830d62cb-e809-4968-bec3-869a7d4e085b"},"vehicle_type_id":"4","last_reported":1738177575,"current_range_meters":38800,"station_id":"ce4bh4p2rcd13ifvqe1g","pricing_plan_id":"cebpf4jnsgd1na2vs0mg"},{"bike_id":"ebb62ccf-3b30-4887-8c47-8865caf0c2fb","system_id":"levelo_inurba_marseille","lat":43.29889,"lon":5.38899,"is_reserved":false,"is_disabled":false,"rental_uris":{"android":"levelo://app?vid=ebb62ccf-3b30-4887-8c47-8865caf0c2fb","ios":"levelo://app?vid=ebb62ccf-3b30-4887-8c47-8865caf0c2fb"},"vehicle_type_id":"4","last_reported":1738177575,"current_range_meters":38800,"station_id":"ce4bh392rcd13ifvqdl0","pricing_plan_id":"cebpf4jnsgd1na2vs0mg"},{"bike_id":"96111419-020e-4b85-8005-96ab906d2273","system_id":"levelo_inurba_marseille","lat":43.28163,"lon":5.4265,"is_reserved":false,"is_disabled":false,"rental_uris":{"android":"levelo://app?vid=96111419-020e-4b85-8005-96ab906d2273","ios":"levelo://app?vid=96111419-020e-4b85-8005-96ab906d2273"},"vehicle_type_id":"4","last_reported":1738177575,"current_range_meters":38800,"station_id":"ce4bhnh2rcd13ifvqgug","pricing_plan_id":"cebpf4jnsgd1na2vs0mg"},{"bike_id":"90019280-d299-4399-ad7a-3b667c977a09","system_id":"levelo_inurba_marseille","lat":43.29532,"lon":5.37515,"is_reserved":false,"is_disabled":true,"rental_uris":{"android":"levelo://app?vid=90019280-d299-4399-ad7a-3b667c977a09","ios":"levelo://app?vid=90019280-d299-4399-ad7a-3b667c977a09"},"vehicle_type_id":"4","last_reported":1738177575,"current_range_meters":2000,"station_id":"ce4bgkp2rcd13ifvqbmg","pricing_plan_id":"cebpf4jnsgd1na2vs0mg"},{"bike_id":"9838cc78-2b53-49d3-ae13-82df62c4fd64","system_id":"levelo_inurba_marseille","lat":43.28412,"lon":5.40934,"is_reserved":false,"is_disabled":true,"rental_uris":{"android":"levelo://app?vid=9838cc78-2b53-49d3-ae13-82df62c4fd64","ios":"levelo://app?vid=9838cc78-2b53-49d3-ae13-82df62c4fd64"},"vehicle_type_id":"4","last_reported":1738177575,"current_range_meters":0,"station_id":"","pricing_plan_id":"cebpf4jnsgd1na2vs0mg"},{"bike_id":"a765fe06-018c-4a73-898c-2082c09f528c","system_id":"levelo_inurba_marseille","lat":43.27176,"lon":5.40995,"is_reserved":false,"is_disabled":false,"rental_uris":{"android":"levelo://app?vid=a765fe06-018c-4a73-898c-2082c09f528c","ios":"levelo://app?vid=a765fe06-018c-4a73-898c-2082c09f528c"},"vehicle_type_id":"4","last_reported":1738177575,"current_range_meters":26800,"station_id":"ce4bhl12rcd13ifvqgf0","pricing_plan_id":"cebpf4jnsgd1na2vs0mg"},{"bike_id":"0b1f4817-4c30-44b7-9201-5f8be66aeb19","system_id":"levelo_inurba_marseille","lat":43.280372,"lon":5.369491,"is_reserved":false,"is_disabled":false,"rental_uris":{"android":"levelo://app?vid=0b1f4817-4c30-44b7-9201-5f8be66aeb19","ios":"levelo://app?vid=0b1f4817-4c30-44b7-9201-5f8be66aeb19"},"vehicle_type_id":"4","last_reported":1738177575,"current_range_meters":4400,"station_id":"ce4bha12rcd13ifvqef0","pricing_plan_id":"cebpf4jnsgd1na2vs0mg"},{"bike_id":"c4b612cf-bd83-4c1a-9a6d-5ad5ed4741f9","system_id":"levelo_inurba_marseille","lat":43.27178,"lon":5.41017,"is_reserved":false,"is_disabled":false,"rental_uris":{"android":"levelo://app?vid=c4b612cf-bd83-4c1a-9a6d-5ad5ed4741f9","ios":"levelo://app?vid=c4b612cf-bd83-4c1a-9a6d-5ad5ed4741f9"},"vehicle_type_id":"4","last_reported":1738177575,"current_range_meters":38800,"station_id":"ce4bhl12rcd13ifvqgf0","pricing_plan_id":"cebpf4jnsgd1na2vs0mg"},{"bike_id":"cebc1cc3-2475-48cb-aa41-05d47858d44e","system_id":"levelo_inurba_marseille","lat":43.299016,"lon":5.436655,"is_reserved":false,"is_disabled":false,"rental_uris":{"android":"levelo://app?vid=cebc1cc3-2475-48cb-aa41-05d47858d44e","ios":"levelo://app?vid=cebc1cc3-2475-48cb-aa41-05d47858d44e"},"vehicle_type_id":"4","last_reported":1738177575,"current_range_meters":26800,"station_id":"ce4bhpp2rcd13ifvqhfg","pricing_plan_id":"cebpf4jnsgd1na2vs0mg"},{"bike_id":"c854bde6-3823-4924-a211-655b97685edf","system_id":"levelo_inurba_marseille","lat":43.27668,"lon":5.38883,"is_reserved":false,"is_disabled":true,"rental_uris":{"android":"levelo://app?vid=c854bde6-3823-4924-a211-655b97685edf","ios":"levelo://app?vid=c854bde6-3823-4924-a211-655b97685edf"},"vehicle_type_id":"4","last_reported":1738177575,"current_range_meters":0,"station_id":"ce4bhi12rcd13ifvqfo0","pricing_plan_id":"cebpf4jnsgd1na2vs0mg"},{"bike_id":"062fa843-16c7-44ce-b405-e100835283d1","system_id":"levelo_inurba_marseille","lat":43.2927,"lon":5.39154,"is_reserved":false,"is_disabled":false,"rental_uris":{"android":"levelo://app?vid=062fa843-16c7-44ce-b405-e100835283d1","ios":"levelo://app?vid=062fa843-16c7-44ce-b405-e100835283d1"},"vehicle_type_id":"4","last_reported":1738177575,"current_range_meters":7200,"station_id":"","pricing_plan_id":"cebpf4jnsgd1na2vs0mg"},{"bike_id":"4d09d5ea-076a-4a52-86a2-707cbfa36283","system_id":"levelo_inurba_marseille","lat":43.31489,"lon":5.37308,"is_reserved":false,"is_disabled":false,"rental_uris":{"android":"levelo://app?vid=4d09d5ea-076a-4a52-86a2-707cbfa36283","ios":"levelo://app?vid=4d09d5ea-076a-4a52-86a2-707cbfa36283"},"vehicle_type_id":"4","last_reported":1738177575,"current_range_meters":30400,"station_id":"ce4bgt12rcd13ifvqcd0","pricing_plan_id":"cebpf4jnsgd1na2vs0mg"},{"bike_id":"ed88b46a-d0b3-4087-a39c-582794290237","system_id":"levelo_inurba_marseille","lat":43.28711,"lon":5.3742,"is_reserved":false,"is_disabled":false,"rental_uris":{"android":"levelo://app?vid=ed88b46a-d0b3-4087-a39c-582794290237","ios":"levelo://app?vid=ed88b46a-d0b3-4087-a39c-582794290237"},"vehicle_type_id":"4","last_reported":1738177575,"current_range_meters":28000,"station_id":"ce4bh3p2rcd13ifvqdq0","pricing_plan_id":"cebpf4jnsgd1na2vs0mg"},{"bike_id":"060157b3-febc-4f7a-af96-fae1cece7b4a","system_id":"levelo_inurba_marseille","lat":43.25088,"lon":5.39517,"is_reserved":false,"is_disabled":false,"rental_uris":{"android":"levelo://app?vid=060157b3-febc-4f7a-af96-fae1cece7b4a","ios":"levelo://app?vid=060157b3-febc-4f7a-af96-fae1cece7b4a"},"vehicle_type_id":"4","last_reported":1738177575,"current_range_meters":3600,"station_id":"ce4bhm12rcd13ifvqgkg","pricing_plan_id":"cebpf4jnsgd1na2vs0mg"},{"bike_id":"8316cb10-023d-4bec-a7d1-c688e60191c8","system_id":"levelo_inurba_marseille","lat":43.28151,"lon":5.42639,"is_reserved":false,"is_disabled":false,"rental_uris":{"android":"levelo://app?vid=8316cb10-023d-4bec-a7d1-c688e60191c8","ios":"levelo://app?vid=8316cb10-023d-4bec-a7d1-c688e60191c8"},"vehicle_type_id":"4","last_reported":1738177575,"current_range_meters":14400,"station_id":"ce4bhnh2rcd13ifvqgug","pricing_plan_id":"cebpf4jnsgd1na2vs0mg"},{"bike_id":"d51bd018-b652-4e1d-9bf4-54de43279c9c","system_id":"levelo_inurba_marseille","lat":43.32283,"lon":5.38277,"is_reserved":false,"is_disabled":false,"rental_uris":{"android":"levelo://app?vid=d51bd018-b652-4e1d-9bf4-54de43279c9c","ios":"levelo://app?vid=d51bd018-b652-4e1d-9bf4-54de43279c9c"},"vehicle_type_id":"4","last_reported":1738177575,"current_range_meters":24800,"station_id":"ce4bhr12rcd13ifvqhqg","pricing_plan_id":"cebpf4jnsgd1na2vs0mg"},{"bike_id":"4ad67fee-8571-4fab-a34a-5f44c7802ceb","system_id":"levelo_inurba_marseille","lat":43.28729,"lon":5.36085,"is_reserved":false,"is_disabled":false,"rental_uris":{"android":"levelo://app?vid=4ad67fee-8571-4fab-a34a-5f44c7802ceb","ios":"levelo://app?vid=4ad67fee-8571-4fab-a34a-5f44c7802ceb"},"vehicle_type_id":"4","last_reported":1738177575,"current_range_meters":22000,"station_id":"cki0cbj6b192h4jlfktg","pricing_plan_id":"cebpf4jnsgd1na2vs0mg"},{"bike_id":"e616b313-df38-422a-b95a-06db009f6756","system_id":"levelo_inurba_marseille","lat":43.27196,"lon":5.40973,"is_reserved":false,"is_disabled":false,"rental_uris":{"android":"levelo://app?vid=e616b313-df38-422a-b95a-06db009f6756","ios":"levelo://app?vid=e616b313-df38-422a-b95a-06db009f6756"},"vehicle_type_id":"4","last_reported":1738177575,"current_range_meters":36400,"station_id":"ce4bhl12rcd13ifvqgf0","pricing_plan_id":"cebpf4jnsgd1na2vs0mg"},{"bike_id":"d979d8d2-ec65-47af-9229-e4270aab279a","system_id":"levelo_inurba_marseille","lat":43.23068,"lon":5.35492,"is_reserved":false,"is_disabled":false,"rental_uris":{"android":"levelo://app?vid=d979d8d2-ec65-47af-9229-e4270aab279a","ios":"levelo://app?vid=d979d8d2-ec65-47af-9229-e4270aab279a"},"vehicle_type_id":"4","last_reported":1738177575,"current_range_meters":17600,"station_id":"cpo3342slgdg3j2ifvpg","pricing_plan_id":"cebpf4jnsgd1na2vs0mg"},{"bike_id":"d3e0dde3-8423-4b65-9bd9-d1f668df0be7","system_id":"levelo_inurba_marseille","lat":43.28726,"lon":5.36068,"is_reserved":false,"is_disabled":false,"rental_uris":{"android":"levelo://app?vid=d3e0dde3-8423-4b65-9bd9-d1f668df0be7","ios":"levelo://app?vid=d3e0dde3-8423-4b65-9bd9-d1f668df0be7"},"vehicle_type_id":"4","last_reported":1738177575,"current_range_meters":30800,"station_id":"cki0cbj6b192h4jlfktg","pricing_plan_id":"cebpf4jnsgd1na2vs0mg"},{"bike_id":"4022c348-0a12-4ca9-b1a7-9ff470eab2bf","system_id":"levelo_inurba_marseille","lat":43.283515,"lon":5.38118,"is_reserved":false,"is_disabled":false,"rental_uris":{"android":"levelo://app?vid=4022c348-0a12-4ca9-b1a7-9ff470eab2bf","ios":"levelo://app?vid=4022c348-0a12-4ca9-b1a7-9ff470eab2bf"},"vehicle_type_id":"4","last_reported":1738177575,"current_range_meters":7200,"station_id":"ce4bh412rcd13ifvqdr0","pricing_plan_id":"cebpf4jnsgd1na2vs0mg"},{"bike_id":"8401c82e-2c7e-4101-98a2-b12f578674b6","system_id":"levelo_inurba_marseille","lat":43.28438,"lon":5.39185,"is_reserved":false,"is_disabled":false,"rental_uris":{"android":"levelo://app?vid=8401c82e-2c7e-4101-98a2-b12f578674b6","ios":"levelo://app?vid=8401c82e-2c7e-4101-98a2-b12f578674b6"},"vehicle_type_id":"4","last_reported":1738177575,"current_range_meters":38800,"station_id":"ce4bhoh2rcd13ifvqh5g","pricing_plan_id":"cebpf4jnsgd1na2vs0mg"},{"bike_id":"4b9d69a3-9df6-4088-b015-95b203e90966","system_id":"levelo_inurba_marseille","lat":43.2583,"lon":5.39431,"is_reserved":false,"is_disabled":false,"rental_uris":{"android":"levelo://app?vid=4b9d69a3-9df6-4088-b015-95b203e90966","ios":"levelo://app?vid=4b9d69a3-9df6-4088-b015-95b203e90966"},"vehicle_type_id":"4","last_reported":1738177575,"current_range_meters":29600,"station_id":"ce4bhip2rcd13ifvqft0","pricing_plan_id":"cebpf4jnsgd1na2vs0mg"},{"bike_id":"7d6260ec-6d8c-4d5b-8950-1a493871014c","system_id":"levelo_inurba_marseille","lat":43.29898,"lon":5.43652,"is_reserved":false,"is_disabled":false,"rental_uris":{"android":"levelo://app?vid=7d6260ec-6d8c-4d5b-8950-1a493871014c","ios":"levelo://app?vid=7d6260ec-6d8c-4d5b-8950-1a493871014c"},"vehicle_type_id":"4","last_reported":1738177575,"current_range_meters":36400,"station_id":"ce4bhpp2rcd13ifvqhfg","pricing_plan_id":"cebpf4jnsgd1na2vs0mg"},{"bike_id":"6391c701-9c0c-43a0-a77d-e2665bfc6fd3","system_id":"levelo_inurba_marseille","lat":43.2396,"lon":5.36639,"is_reserved":false,"is_disabled":false,"rental_uris":{"android":"levelo://app?vid=6391c701-9c0c-43a0-a77d-e2665bfc6fd3","ios":"levelo://app?vid=6391c701-9c0c-43a0-a77d-e2665bfc6fd3"},"vehicle_type_id":"4","last_reported":1738177575,"current_range_meters":28400,"station_id":"ce4bhi12rcd13ifvqfp0","pricing_plan_id":"cebpf4jnsgd1na2vs0mg"},{"bike_id":"8531a105-c117-474e-b069-6567179c8036","system_id":"levelo_inurba_marseille","lat":43.28659,"lon":5.36353,"is_reserved":false,"is_disabled":false,"rental_uris":{"android":"levelo://app?vid=8531a105-c117-474e-b069-6567179c8036","ios":"levelo://app?vid=8531a105-c117-474e-b069-6567179c8036"},"vehicle_type_id":"4","last_reported":1738177575,"current_range_meters":26000,"station_id":"ce4bhah2rcd13ifvqej0","pricing_plan_id":"cebpf4jnsgd1na2vs0mg"},{"bike_id":"3a44a603-1c3c-4d3d-9e74-63974292e3f7","system_id":"levelo_inurba_marseille","lat":43.33016,"lon":5.39053,"is_reserved":false,"is_disabled":false,"rental_uris":{"android":"levelo://app?vid=3a44a603-1c3c-4d3d-9e74-63974292e3f7","ios":"levelo://app?vid=3a44a603-1c3c-4d3d-9e74-63974292e3f7"},"vehicle_type_id":"4","last_reported":1738177575,"current_range_meters":17600,"station_id":"ce4bhr92rcd13ifvqhrg","pricing_plan_id":"cebpf4jnsgd1na2vs0mg"},{"bike_id":"18c22e71-b05e-4c30-8c64-0f917598502e","system_id":"levelo_inurba_marseille","lat":43.25,"lon":5.38922,"is_reserved":false,"is_disabled":false,"rental_uris":{"android":"levelo://app?vid=18c22e71-b05e-4c30-8c64-0f917598502e","ios":"levelo://app?vid=18c22e71-b05e-4c30-8c64-0f917598502e"},"vehicle_type_id":"4","last_reported":1738177575,"current_range_meters":8400,"station_id":"ce4bhgp2rcd13ifvqfd0","pricing_plan_id":"cebpf4jnsgd1na2vs0mg"},{"bike_id":"a7fa174b-9e7a-480f-96ea-d7b68ff91040","system_id":"levelo_inurba_marseille","lat":43.29969,"lon":5.38495,"is_reserved":false,"is_disabled":true,"rental_uris":{"android":"levelo://app?vid=a7fa174b-9e7a-480f-96ea-d7b68ff91040","ios":"levelo://app?vid=a7fa174b-9e7a-480f-96ea-d7b68ff91040"},"vehicle_type_id":"4","last_reported":1738177575,"current_range_meters":33200,"station_id":"ce4bgj92rcd13ifvqbd0","pricing_plan_id":"cebpf4jnsgd1na2vs0mg"},{"bike_id":"d8b1c3f9-ff6e-4179-8423-4ba0d2a2af0e","system_id":"levelo_inurba_marseille","lat":43.3373,"lon":5.39186,"is_reserved":false,"is_disabled":false,"rental_uris":{"android":"levelo://app?vid=d8b1c3f9-ff6e-4179-8423-4ba0d2a2af0e","ios":"levelo://app?vid=d8b1c3f9-ff6e-4179-8423-4ba0d2a2af0e"},"vehicle_type_id":"4","last_reported":1738177575,"current_range_meters":39200,"station_id":"ce4bhr92rcd13ifvqhsg","pricing_plan_id":"cebpf4jnsgd1na2vs0mg"},{"bike_id":"e24a026a-c0e3-4ed2-bec3-0ff2a9afc08f","system_id":"levelo_inurba_marseille","lat":43.33014,"lon":5.39041,"is_reserved":false,"is_disabled":false,"rental_uris":{"android":"levelo://app?vid=e24a026a-c0e3-4ed2-bec3-0ff2a9afc08f","ios":"levelo://app?vid=e24a026a-c0e3-4ed2-bec3-0ff2a9afc08f"},"vehicle_type_id":"4","last_reported":1738177575,"current_range_meters":38800,"station_id":"ce4bhr92rcd13ifvqhrg","pricing_plan_id":"cebpf4jnsgd1na2vs0mg"},{"bike_id":"ccb6318c-6994-46f1-b382-d420e97e4a87","system_id":"levelo_inurba_marseille","lat":43.27208,"lon":5.39187,"is_reserved":false,"is_disabled":true,"rental_uris":{"android":"levelo://app?vid=ccb6318c-6994-46f1-b382-d420e97e4a87","ios":"levelo://app?vid=ccb6318c-6994-46f1-b382-d420e97e4a87"},"vehicle_type_id":"4","last_reported":1738177575,"current_range_meters":37600,"station_id":"ce4bhhp2rcd13ifvqfm0","pricing_plan_id":"cebpf4jnsgd1na2vs0mg"},{"bike_id":"c6b22e63-3112-4b18-a4bd-a7ccda40bad7","system_id":"levelo_inurba_marseille","lat":43.29897,"lon":5.3813,"is_reserved":false,"is_disabled":true,"rental_uris":{"android":"levelo://app?vid=c6b22e63-3112-4b18-a4bd-a7ccda40bad7","ios":"levelo://app?vid=c6b22e63-3112-4b18-a4bd-a7ccda40bad7"},"vehicle_type_id":"4","last_reported":1738177575,"current_range_meters":28000,"station_id":"ce4bgj12rcd13ifvqbc0","pricing_plan_id":"cebpf4jnsgd1na2vs0mg"},{"bike_id":"e1a210fd-d08d-4fca-8357-6362e6fa420b","system_id":"levelo_inurba_marseille","lat":43.2898,"lon":5.37832,"is_reserved":false,"is_disabled":false,"rental_uris":{"android":"levelo://app?vid=e1a210fd-d08d-4fca-8357-6362e6fa420b","ios":"levelo://app?vid=e1a210fd-d08d-4fca-8357-6362e6fa420b"},"vehicle_type_id":"4","last_reported":1738177575,"current_range_meters":9600,"station_id":"ce4bh9p2rcd13ifvqed0","pricing_plan_id":"cebpf4jnsgd1na2vs0mg"},{"bike_id":"db485b6c-8b88-4d81-8773-059bd53ceb08","system_id":"levelo_inurba_marseille","lat":43.29292,"lon":5.37468,"is_reserved":false,"is_disabled":false,"rental_uris":{"android":"levelo://app?vid=db485b6c-8b88-4d81-8773-059bd53ceb08","ios":"levelo://app?vid=db485b6c-8b88-4d81-8773-059bd53ceb08"},"vehicle_type_id":"4","last_reported":1738177575,"current_range_meters":24000,"station_id":"ce4bgi12rcd13ifvqb70","pricing_plan_id":"cebpf4jnsgd1na2vs0mg"},{"bike_id":"3c9c9088-9c27-4609-bc62-8218c0dc2be8","system_id":"levelo_inurba_marseille","lat":43.231898,"lon":5.355628,"is_reserved":false,"is_disabled":false,"rental_uris":{"android":"levelo://app?vid=3c9c9088-9c27-4609-bc62-8218c0dc2be8","ios":"levelo://app?vid=3c9c9088-9c27-4609-bc62-8218c0dc2be8"},"vehicle_type_id":"4","last_reported":1738177575,"current_range_meters":39200,"station_id":"ce4bhu92rcd13ifvqi70","pricing_plan_id":"cebpf4jnsgd1na2vs0mg"},{"bike_id":"ee6cddcb-3675-46e7-b2e2-06e8f68994d8","system_id":"levelo_inurba_marseille","lat":43.29423,"lon":5.38622,"is_reserved":false,"is_disabled":false,"rental_uris":{"android":"levelo://app?vid=ee6cddcb-3675-46e7-b2e2-06e8f68994d8","ios":"levelo://app?vid=ee6cddcb-3675-46e7-b2e2-06e8f68994d8"},"vehicle_type_id":"4","last_reported":1738177575,"current_range_meters":15200,"station_id":"ce4bh2h2rcd13ifvqdh0","pricing_plan_id":"cebpf4jnsgd1na2vs0mg"},{"bike_id":"fa2f1c21-3bfc-46ef-bcba-588774df180a","system_id":"levelo_inurba_marseille","lat":43.25879,"lon":5.39895,"is_reserved":false,"is_disabled":false,"rental_uris":{"android":"levelo://app?vid=fa2f1c21-3bfc-46ef-bcba-588774df180a","ios":"levelo://app?vid=fa2f1c21-3bfc-46ef-bcba-588774df180a"},"vehicle_type_id":"4","last_reported":1738177575,"current_range_meters":19200,"station_id":"ce4bhl92rcd13ifvqghg","pricing_plan_id":"cebpf4jnsgd1na2vs0mg"},{"bike_id":"53fa82d1-eb43-4e19-8ac1-1347a372b80a","system_id":"levelo_inurba_marseille","lat":43.25867,"lon":5.39899,"is_reserved":false,"is_disabled":false,"rental_uris":{"android":"levelo://app?vid=53fa82d1-eb43-4e19-8ac1-1347a372b80a","ios":"levelo://app?vid=53fa82d1-eb43-4e19-8ac1-1347a372b80a"},"vehicle_type_id":"4","last_reported":1738177575,"current_range_meters":33200,"station_id":"ce4bhl92rcd13ifvqghg","pricing_plan_id":"cebpf4jnsgd1na2vs0mg"},{"bike_id":"796664c1-d207-429d-b5f8-272d4d89b86b","system_id":"levelo_inurba_marseille","lat":43.330244,"lon":5.390427,"is_reserved":false,"is_disabled":false,"rental_uris":{"android":"levelo://app?vid=796664c1-d207-429d-b5f8-272d4d89b86b","ios":"levelo://app?vid=796664c1-d207-429d-b5f8-272d4d89b86b"},"vehicle_type_id":"4","last_reported":1738177575,"current_range_meters":36400,"station_id":"ce4bhr92rcd13ifvqhrg","pricing_plan_id":"cebpf4jnsgd1na2vs0mg"},{"bike_id":"cef6cfaf-f15b-4d6c-a7bb-5bab1ed4d520","system_id":"levelo_inurba_marseille","lat":43.298465,"lon":5.362699,"is_reserved":false,"is_disabled":false,"rental_uris":{"android":"levelo://app?vid=cef6cfaf-f15b-4d6c-a7bb-5bab1ed4d520","ios":"levelo://app?vid=cef6cfaf-f15b-4d6c-a7bb-5bab1ed4d520"},"vehicle_type_id":"4","last_reported":1738177575,"current_range_meters":7200,"station_id":"ce4bgpp2rcd13ifvqc3g","pricing_plan_id":"cebpf4jnsgd1na2vs0mg"},{"bike_id":"665abbf0-616c-463a-ad6d-c8aea5acafef","system_id":"levelo_inurba_marseille","lat":43.28355,"lon":5.38118,"is_reserved":false,"is_disabled":false,"rental_uris":{"android":"levelo://app?vid=665abbf0-616c-463a-ad6d-c8aea5acafef","ios":"levelo://app?vid=665abbf0-616c-463a-ad6d-c8aea5acafef"},"vehicle_type_id":"4","last_reported":1738177575,"current_range_meters":10800,"station_id":"ce4bh412rcd13ifvqdr0","pricing_plan_id":"cebpf4jnsgd1na2vs0mg"},{"bike_id":"1e3bc1ac-75bb-44a1-8857-ef8f9e3ea1b0","system_id":"levelo_inurba_marseille","lat":43.32275,"lon":5.38278,"is_reserved":false,"is_disabled":false,"rental_uris":{"android":"levelo://app?vid=1e3bc1ac-75bb-44a1-8857-ef8f9e3ea1b0","ios":"levelo://app?vid=1e3bc1ac-75bb-44a1-8857-ef8f9e3ea1b0"},"vehicle_type_id":"4","last_reported":1738177575,"current_range_meters":36000,"station_id":"ce4bhr12rcd13ifvqhqg","pricing_plan_id":"cebpf4jnsgd1na2vs0mg"},{"bike_id":"b5b8cdb4-8aeb-4aa7-968d-abac927353b6","system_id":"levelo_inurba_marseille","lat":43.313657,"lon":5.384887,"is_reserved":false,"is_disabled":false,"rental_uris":{"android":"levelo://app?vid=b5b8cdb4-8aeb-4aa7-968d-abac927353b6","ios":"levelo://app?vid=b5b8cdb4-8aeb-4aa7-968d-abac927353b6"},"vehicle_type_id":"4","last_reported":1738177575,"current_range_meters":22000,"station_id":"ce4bgt92rcd13ifvqcf0","pricing_plan_id":"cebpf4jnsgd1na2vs0mg"},{"bike_id":"13977550-25d1-4013-b85d-23bae6bfbc59","system_id":"levelo_inurba_marseille","lat":43.29518,"lon":5.38996,"is_reserved":false,"is_disabled":false,"rental_uris":{"android":"levelo://app?vid=13977550-25d1-4013-b85d-23bae6bfbc59","ios":"levelo://app?vid=13977550-25d1-4013-b85d-23bae6bfbc59"},"vehicle_type_id":"4","last_reported":1738177575,"current_range_meters":16400,"station_id":"ce4bh3p2rcd13ifvqdp0","pricing_plan_id":"cebpf4jnsgd1na2vs0mg"},{"bike_id":"ed91be64-cef5-490b-8ec1-3351f1f0455f","system_id":"levelo_inurba_marseille","lat":43.30259,"lon":5.40059,"is_reserved":false,"is_disabled":false,"rental_uris":{"android":"levelo://app?vid=ed91be64-cef5-490b-8ec1-3351f1f0455f","ios":"levelo://app?vid=ed91be64-cef5-490b-8ec1-3351f1f0455f"},"vehicle_type_id":"4","last_reported":1738177575,"current_range_meters":30800,"station_id":"ce4bgvh2rcd13ifvqcs0","pricing_plan_id":"cebpf4jnsgd1na2vs0mg"},{"bike_id":"9061c30b-f0f7-46e3-8477-d3c2c36b1f53","system_id":"levelo_inurba_marseille","lat":43.28026,"lon":5.36952,"is_reserved":false,"is_disabled":false,"rental_uris":{"android":"levelo://app?vid=9061c30b-f0f7-46e3-8477-d3c2c36b1f53","ios":"levelo://app?vid=9061c30b-f0f7-46e3-8477-d3c2c36b1f53"},"vehicle_type_id":"4","last_reported":1738177575,"current_range_meters":38800,"station_id":"ce4bha12rcd13ifvqef0","pricing_plan_id":"cebpf4jnsgd1na2vs0mg"},{"bike_id":"f13d5aa8-c024-4fbb-8216-a7ef6ab1eff4","system_id":"levelo_inurba_marseille","lat":43.31889,"lon":5.40741,"is_reserved":false,"is_disabled":false,"rental_uris":{"android":"levelo://app?vid=f13d5aa8-c024-4fbb-8216-a7ef6ab1eff4","ios":"levelo://app?vid=f13d5aa8-c024-4fbb-8216-a7ef6ab1eff4"},"vehicle_type_id":"4","last_reported":1738177575,"current_range_meters":38400,"station_id":"ce4bhq12rcd13ifvqhig","pricing_plan_id":"cebpf4jnsgd1na2vs0mg"},{"bike_id":"39bd9e28-59f1-42e3-98fa-8269cd3a779a","system_id":"levelo_inurba_marseille","lat":43.28101,"lon":5.39664,"is_reserved":false,"is_disabled":false,"rental_uris":{"android":"levelo://app?vid=39bd9e28-59f1-42e3-98fa-8269cd3a779a","ios":"levelo://app?vid=39bd9e28-59f1-42e3-98fa-8269cd3a779a"},"vehicle_type_id":"4","last_reported":1738177575,"current_range_meters":38800,"station_id":"ce4bho12rcd13ifvqh2g","pricing_plan_id":"cebpf4jnsgd1na2vs0mg"},{"bike_id":"ab2c796a-c23b-4a3a-9534-777b873d6a05","system_id":"levelo_inurba_marseille","lat":43.24172,"lon":5.36401,"is_reserved":false,"is_disabled":false,"rental_uris":{"android":"levelo://app?vid=ab2c796a-c23b-4a3a-9534-777b873d6a05","ios":"levelo://app?vid=ab2c796a-c23b-4a3a-9534-777b873d6a05"},"vehicle_type_id":"4","last_reported":1738177575,"current_range_meters":14800,"station_id":"cpo36qri1sfpv3e86is0","pricing_plan_id":"cebpf4jnsgd1na2vs0mg"},{"bike_id":"a833db72-e176-47ed-b4fe-2c2e6afc478d","system_id":"levelo_inurba_marseille","lat":43.30322,"lon":5.40431,"is_reserved":false,"is_disabled":false,"rental_uris":{"android":"levelo://app?vid=a833db72-e176-47ed-b4fe-2c2e6afc478d","ios":"levelo://app?vid=a833db72-e176-47ed-b4fe-2c2e6afc478d"},"vehicle_type_id":"4","last_reported":1738177575,"current_range_meters":28000,"station_id":"ce4bh012rcd13ifvqd10","pricing_plan_id":"cebpf4jnsgd1na2vs0mg"},{"bike_id":"eca914c1-5c29-44d5-b3d0-f7b51a76a49b","system_id":"levelo_inurba_marseille","lat":43.26033,"lon":5.37548,"is_reserved":false,"is_disabled":false,"rental_uris":{"android":"levelo://app?vid=eca914c1-5c29-44d5-b3d0-f7b51a76a49b","ios":"levelo://app?vid=eca914c1-5c29-44d5-b3d0-f7b51a76a49b"},"vehicle_type_id":"4","last_reported":1738177575,"current_range_meters":31200,"station_id":"ce4bhgh2rcd13ifvqfa0","pricing_plan_id":"cebpf4jnsgd1na2vs0mg"},{"bike_id":"06127370-adf7-40cb-a103-53f58ffaf5ec","system_id":"levelo_inurba_marseille","lat":43.29045,"lon":5.39966,"is_reserved":false,"is_disabled":false,"rental_uris":{"android":"levelo://app?vid=06127370-adf7-40cb-a103-53f58ffaf5ec","ios":"levelo://app?vid=06127370-adf7-40cb-a103-53f58ffaf5ec"},"vehicle_type_id":"4","last_reported":1738177575,"current_range_meters":38800,"station_id":"ce4bh392rcd13ifvqdm0","pricing_plan_id":"cebpf4jnsgd1na2vs0mg"},{"bike_id":"0b3a30c8-9d61-46ef-b4be-10a28dc70ae6","system_id":"levelo_inurba_marseille","lat":43.28729,"lon":5.37576,"is_reserved":false,"is_disabled":false,"rental_uris":{"android":"levelo://app?vid=0b3a30c8-9d61-46ef-b4be-10a28dc70ae6","ios":"levelo://app?vid=0b3a30c8-9d61-46ef-b4be-10a28dc70ae6"},"vehicle_type_id":"4","last_reported":1738177575,"current_range_meters":22000,"station_id":"ce4bh3p2rcd13ifvqdq0","pricing_plan_id":"cebpf4jnsgd1na2vs0mg"},{"bike_id":"fa910578-4caa-4210-aa45-ea80af27e609","system_id":"levelo_inurba_marseille","lat":43.31723,"lon":5.42394,"is_reserved":false,"is_disabled":false,"rental_uris":{"android":"levelo://app?vid=fa910578-4caa-4210-aa45-ea80af27e609","ios":"levelo://app?vid=fa910578-4caa-4210-aa45-ea80af27e609"},"vehicle_type_id":"4","last_reported":1738177575,"current_range_meters":37600,"station_id":"ce4bhp92rcd13ifvqhbg","pricing_plan_id":"cebpf4jnsgd1na2vs0mg"},{"bike_id":"8aadf7de-3b4f-46b0-8200-de52d69e303c","system_id":"levelo_inurba_marseille","lat":43.27996,"lon":5.41659,"is_reserved":false,"is_disabled":false,"rental_uris":{"android":"levelo://app?vid=8aadf7de-3b4f-46b0-8200-de52d69e303c","ios":"levelo://app?vid=8aadf7de-3b4f-46b0-8200-de52d69e303c"},"vehicle_type_id":"4","last_reported":1738177575,"current_range_meters":27200,"station_id":"ce4bho12rcd13ifvqh1g","pricing_plan_id":"cebpf4jnsgd1na2vs0mg"},{"bike_id":"f0f07e84-01c4-443b-852b-4e00b882c1d8","system_id":"levelo_inurba_marseille","lat":43.30807,"lon":5.43514,"is_reserved":false,"is_disabled":false,"rental_uris":{"android":"levelo://app?vid=f0f07e84-01c4-443b-852b-4e00b882c1d8","ios":"levelo://app?vid=f0f07e84-01c4-443b-852b-4e00b882c1d8"},"vehicle_type_id":"4","last_reported":1738177575,"current_range_meters":38800,"station_id":"ce4bhph2rcd13ifvqheg","pricing_plan_id":"cebpf4jnsgd1na2vs0mg"},{"bike_id":"930b41f5-4b3e-440c-8867-be75228ec1b1","system_id":"levelo_inurba_marseille","lat":43.28356,"lon":5.38627,"is_reserved":false,"is_disabled":false,"rental_uris":{"android":"levelo://app?vid=930b41f5-4b3e-440c-8867-be75228ec1b1","ios":"levelo://app?vid=930b41f5-4b3e-440c-8867-be75228ec1b1"},"vehicle_type_id":"4","last_reported":1738177575,"current_range_meters":18000,"station_id":"ce4bh492rcd13ifvqdvg","pricing_plan_id":"cebpf4jnsgd1na2vs0mg"},{"bike_id":"615a0747-8d06-4fbf-b735-2ce44cc12594","system_id":"levelo_inurba_marseille","lat":43.3236,"lon":5.3889,"is_reserved":false,"is_disabled":false,"rental_uris":{"android":"levelo://app?vid=615a0747-8d06-4fbf-b735-2ce44cc12594","ios":"levelo://app?vid=615a0747-8d06-4fbf-b735-2ce44cc12594"},"vehicle_type_id":"4","last_reported":1738177575,"current_range_meters":19200,"station_id":"ce4bhqp2rcd13ifvqhog","pricing_plan_id":"cebpf4jnsgd1na2vs0mg"},{"bike_id":"4e331cde-9b58-436f-9288-d266e9017c62","system_id":"levelo_inurba_marseille","lat":43.24205,"lon":5.39682,"is_reserved":false,"is_disabled":false,"rental_uris":{"android":"levelo://app?vid=4e331cde-9b58-436f-9288-d266e9017c62","ios":"levelo://app?vid=4e331cde-9b58-436f-9288-d266e9017c62"},"vehicle_type_id":"4","last_reported":1738177575,"current_range_meters":10000,"station_id":"ce4bhn12rcd13ifvqgpg","pricing_plan_id":"cebpf4jnsgd1na2vs0mg"},{"bike_id":"59abceb4-3874-48b9-9e5a-0a19e10373dd","system_id":"levelo_inurba_marseille","lat":43.279388,"lon":5.410445,"is_reserved":false,"is_disabled":false,"rental_uris":{"android":"levelo://app?vid=59abceb4-3874-48b9-9e5a-0a19e10373dd","ios":"levelo://app?vid=59abceb4-3874-48b9-9e5a-0a19e10373dd"},"vehicle_type_id":"4","last_reported":1738177575,"current_range_meters":38400,"station_id":"ce4bhnp2rcd13ifvqh0g","pricing_plan_id":"cebpf4jnsgd1na2vs0mg"},{"bike_id":"3afe2907-14fe-40b0-8ce8-247215ed16c8","system_id":"levelo_inurba_marseille","lat":43.26937,"lon":5.38928,"is_reserved":false,"is_disabled":true,"rental_uris":{"android":"levelo://app?vid=3afe2907-14fe-40b0-8ce8-247215ed16c8","ios":"levelo://app?vid=3afe2907-14fe-40b0-8ce8-247215ed16c8"},"vehicle_type_id":"4","last_reported":1738177575,"current_range_meters":3200,"station_id":"ce4bhhh2rcd13ifvqfl0","pricing_plan_id":"cebpf4jnsgd1na2vs0mg"},{"bike_id":"e8e1f7c6-d773-4c38-bfcc-4a6d773355ce","system_id":"levelo_inurba_marseille","lat":43.22938,"lon":5.35348,"is_reserved":false,"is_disabled":false,"rental_uris":{"android":"levelo://app?vid=e8e1f7c6-d773-4c38-bfcc-4a6d773355ce","ios":"levelo://app?vid=e8e1f7c6-d773-4c38-bfcc-4a6d773355ce"},"vehicle_type_id":"4","last_reported":1738177575,"current_range_meters":39200,"station_id":"cpo3532slgdg3j2ikp40","pricing_plan_id":"cebpf4jnsgd1na2vs0mg"},{"bike_id":"f0ed3e26-8dad-4678-bee9-f6903412b754","system_id":"levelo_inurba_marseille","lat":43.28111,"lon":5.37839,"is_reserved":false,"is_disabled":false,"rental_uris":{"android":"levelo://app?vid=f0ed3e26-8dad-4678-bee9-f6903412b754","ios":"levelo://app?vid=f0ed3e26-8dad-4678-bee9-f6903412b754"},"vehicle_type_id":"4","last_reported":1738177575,"current_range_meters":37600,"station_id":"ce4bha12rcd13ifvqee0","pricing_plan_id":"cebpf4jnsgd1na2vs0mg"},{"bike_id":"021dcc3c-936d-4543-abfe-8e83065afdeb","system_id":"levelo_inurba_marseille","lat":43.2903,"lon":5.38644,"is_reserved":false,"is_disabled":false,"rental_uris":{"android":"levelo://app?vid=021dcc3c-936d-4543-abfe-8e83065afdeb","ios":"levelo://app?vid=021dcc3c-936d-4543-abfe-8e83065afdeb"},"vehicle_type_id":"4","last_reported":1738177575,"current_range_meters":13600,"station_id":"ce4bh4p2rcd13ifvqe0g","pricing_plan_id":"cebpf4jnsgd1na2vs0mg"},{"bike_id":"b9c67b31-5b70-486d-ab63-ac678ea85199","system_id":"levelo_inurba_marseille","lat":43.26183,"lon":5.37486,"is_reserved":false,"is_disabled":false,"rental_uris":{"android":"levelo://app?vid=b9c67b31-5b70-486d-ab63-ac678ea85199","ios":"levelo://app?vid=b9c67b31-5b70-486d-ab63-ac678ea85199"},"vehicle_type_id":"4","last_reported":1738177575,"current_range_meters":22800,"station_id":"ce4bhgp2rcd13ifvqfc0","pricing_plan_id":"cebpf4jnsgd1na2vs0mg"},{"bike_id":"13da3b75-536b-4260-bc06-acbd5c63dff9","system_id":"levelo_inurba_marseille","lat":43.23189,"lon":5.39986,"is_reserved":false,"is_disabled":false,"rental_uris":{"android":"levelo://app?vid=13da3b75-536b-4260-bc06-acbd5c63dff9","ios":"levelo://app?vid=13da3b75-536b-4260-bc06-acbd5c63dff9"},"vehicle_type_id":"4","last_reported":1738177575,"current_range_meters":39200,"station_id":"ce4bhn12rcd13ifvqgqg","pricing_plan_id":"cebpf4jnsgd1na2vs0mg"},{"bike_id":"c7d3cd14-c17e-40b6-ad28-95f8e7b23957","system_id":"levelo_inurba_marseille","lat":43.25735,"lon":5.41116,"is_reserved":false,"is_disabled":false,"rental_uris":{"android":"levelo://app?vid=c7d3cd14-c17e-40b6-ad28-95f8e7b23957","ios":"levelo://app?vid=c7d3cd14-c17e-40b6-ad28-95f8e7b23957"},"vehicle_type_id":"4","last_reported":1738177575,"current_range_meters":39200,"station_id":"ce4bhkp2rcd13ifvqgd0","pricing_plan_id":"cebpf4jnsgd1na2vs0mg"},{"bike_id":"494daf72-aa0d-46bb-bbaf-164361090b39","system_id":"levelo_inurba_marseille","lat":43.27171,"lon":5.40993,"is_reserved":false,"is_disabled":false,"rental_uris":{"android":"levelo://app?vid=494daf72-aa0d-46bb-bbaf-164361090b39","ios":"levelo://app?vid=494daf72-aa0d-46bb-bbaf-164361090b39"},"vehicle_type_id":"4","last_reported":1738177575,"current_range_meters":19200,"station_id":"ce4bhl12rcd13ifvqgf0","pricing_plan_id":"cebpf4jnsgd1na2vs0mg"},{"bike_id":"ba31f84e-cbe5-49e8-9983-339e553731ce","system_id":"levelo_inurba_marseille","lat":43.32659,"lon":5.40994,"is_reserved":false,"is_disabled":true,"rental_uris":{"android":"levelo://app?vid=ba31f84e-cbe5-49e8-9983-339e553731ce","ios":"levelo://app?vid=ba31f84e-cbe5-49e8-9983-339e553731ce"},"vehicle_type_id":"4","last_reported":1738177575,"current_range_meters":0,"station_id":"ce4bhpp2rcd13ifvqhgg","pricing_plan_id":"cebpf4jnsgd1na2vs0mg"},{"bike_id":"2e521d63-e09d-44b8-b0e9-5d974b341e93","system_id":"levelo_inurba_marseille","lat":43.27991,"lon":5.41658,"is_reserved":false,"is_disabled":false,"rental_uris":{"android":"levelo://app?vid=2e521d63-e09d-44b8-b0e9-5d974b341e93","ios":"levelo://app?vid=2e521d63-e09d-44b8-b0e9-5d974b341e93"},"vehicle_type_id":"4","last_reported":1738177575,"current_range_meters":14400,"station_id":"ce4bho12rcd13ifvqh1g","pricing_plan_id":"cebpf4jnsgd1na2vs0mg"},{"bike_id":"dd195832-ff3f-4763-a260-74003ef7ff4c","system_id":"levelo_inurba_marseille","lat":43.29201,"lon":5.3604,"is_reserved":false,"is_disabled":false,"rental_uris":{"android":"levelo://app?vid=dd195832-ff3f-4763-a260-74003ef7ff4c","ios":"levelo://app?vid=dd195832-ff3f-4763-a260-74003ef7ff4c"},"vehicle_type_id":"4","last_reported":1738177575,"current_range_meters":32800,"station_id":"ce4bhbh2rcd13ifvqeqg","pricing_plan_id":"cebpf4jnsgd1na2vs0mg"},{"bike_id":"078ce1de-fdde-4b25-8006-9875d485872a","system_id":"levelo_inurba_marseille","lat":43.31754,"lon":5.39014,"is_reserved":false,"is_disabled":false,"rental_uris":{"android":"levelo://app?vid=078ce1de-fdde-4b25-8006-9875d485872a","ios":"levelo://app?vid=078ce1de-fdde-4b25-8006-9875d485872a"},"vehicle_type_id":"4","last_reported":1738177575,"current_range_meters":19200,"station_id":"ce4bhqp2rcd13ifvqhng","pricing_plan_id":"cebpf4jnsgd1na2vs0mg"},{"bike_id":"ee757b3c-1b66-4688-957f-c178b479b260","system_id":"levelo_inurba_marseille","lat":43.28485,"lon":5.39157,"is_reserved":false,"is_disabled":false,"rental_uris":{"android":"levelo://app?vid=ee757b3c-1b66-4688-957f-c178b479b260","ios":"levelo://app?vid=ee757b3c-1b66-4688-957f-c178b479b260"},"vehicle_type_id":"4","last_reported":1738177575,"current_range_meters":28800,"station_id":"","pricing_plan_id":"cebpf4jnsgd1na2vs0mg"},{"bike_id":"7cbfc840-8be9-451b-83cd-cd2511b7a3d1","system_id":"levelo_inurba_marseille","lat":43.27569,"lon":5.38419,"is_reserved":false,"is_disabled":false,"rental_uris":{"android":"levelo://app?vid=7cbfc840-8be9-451b-83cd-cd2511b7a3d1","ios":"levelo://app?vid=7cbfc840-8be9-451b-83cd-cd2511b7a3d1"},"vehicle_type_id":"4","last_reported":1738177575,"current_range_meters":33200,"station_id":"ce4bhh92rcd13ifvqfi0","pricing_plan_id":"cebpf4jnsgd1na2vs0mg"},{"bike_id":"c1d1ce73-8f8f-42c4-8303-66858ad4f592","system_id":"levelo_inurba_marseille","lat":43.27492,"lon":5.42456,"is_reserved":false,"is_disabled":true,"rental_uris":{"android":"levelo://app?vid=c1d1ce73-8f8f-42c4-8303-66858ad4f592","ios":"levelo://app?vid=c1d1ce73-8f8f-42c4-8303-66858ad4f592"},"vehicle_type_id":"4","last_reported":1738177575,"current_range_meters":27200,"station_id":"ce4bhn92rcd13ifvqgrg","pricing_plan_id":"cebpf4jnsgd1na2vs0mg"},{"bike_id":"3a7c8af9-56e6-4b6f-98fd-d18f27c9e3b9","system_id":"levelo_inurba_marseille","lat":43.297007,"lon":5.365907,"is_reserved":false,"is_disabled":false,"rental_uris":{"android":"levelo://app?vid=3a7c8af9-56e6-4b6f-98fd-d18f27c9e3b9","ios":"levelo://app?vid=3a7c8af9-56e6-4b6f-98fd-d18f27c9e3b9"},"vehicle_type_id":"4","last_reported":1738177575,"current_range_meters":6400,"station_id":"ce4bgn12rcd13ifvqbt0","pricing_plan_id":"cebpf4jnsgd1na2vs0mg"},{"bike_id":"71f34f72-d3b7-46a5-9bd4-1fe057b3152f","system_id":"levelo_inurba_marseille","lat":43.22928,"lon":5.35364,"is_reserved":false,"is_disabled":false,"rental_uris":{"android":"levelo://app?vid=71f34f72-d3b7-46a5-9bd4-1fe057b3152f","ios":"levelo://app?vid=71f34f72-d3b7-46a5-9bd4-1fe057b3152f"},"vehicle_type_id":"4","last_reported":1738177575,"current_range_meters":39200,"station_id":"cpo3532slgdg3j2ikp40","pricing_plan_id":"cebpf4jnsgd1na2vs0mg"},{"bike_id":"66c12baa-9477-443c-ad62-ceeda86c1e58","system_id":"levelo_inurba_marseille","lat":43.25877,"lon":5.3989,"is_reserved":false,"is_disabled":false,"rental_uris":{"android":"levelo://app?vid=66c12baa-9477-443c-ad62-ceeda86c1e58","ios":"levelo://app?vid=66c12baa-9477-443c-ad62-ceeda86c1e58"},"vehicle_type_id":"4","last_reported":1738177575,"current_range_meters":6800,"station_id":"ce4bhl92rcd13ifvqghg","pricing_plan_id":"cebpf4jnsgd1na2vs0mg"},{"bike_id":"20029bdd-9f9c-4ff9-86e4-5ba6ed30f46a","system_id":"levelo_inurba_marseille","lat":43.23161,"lon":5.4372,"is_reserved":false,"is_disabled":true,"rental_uris":{"android":"levelo://app?vid=20029bdd-9f9c-4ff9-86e4-5ba6ed30f46a","ios":"levelo://app?vid=20029bdd-9f9c-4ff9-86e4-5ba6ed30f46a"},"vehicle_type_id":"4","last_reported":1738177575,"current_range_meters":0,"station_id":"ce4bhmp2rcd13ifvqgog","pricing_plan_id":"cebpf4jnsgd1na2vs0mg"},{"bike_id":"669de347-4793-46f9-b7aa-9822a4a7a353","system_id":"levelo_inurba_marseille","lat":43.25004,"lon":5.38927,"is_reserved":false,"is_disabled":false,"rental_uris":{"android":"levelo://app?vid=669de347-4793-46f9-b7aa-9822a4a7a353","ios":"levelo://app?vid=669de347-4793-46f9-b7aa-9822a4a7a353"},"vehicle_type_id":"4","last_reported":1738177575,"current_range_meters":38000,"station_id":"ce4bhgp2rcd13ifvqfd0","pricing_plan_id":"cebpf4jnsgd1na2vs0mg"},{"bike_id":"ecf6e76f-5faa-4cd6-aaac-ee69b01d2a2c","system_id":"levelo_inurba_marseille","lat":43.26195,"lon":5.37436,"is_reserved":false,"is_disabled":false,"rental_uris":{"android":"levelo://app?vid=ecf6e76f-5faa-4cd6-aaac-ee69b01d2a2c","ios":"levelo://app?vid=ecf6e76f-5faa-4cd6-aaac-ee69b01d2a2c"},"vehicle_type_id":"4","last_reported":1738177575,"current_range_meters":38800,"station_id":"ce4bhgp2rcd13ifvqfc0","pricing_plan_id":"cebpf4jnsgd1na2vs0mg"},{"bike_id":"7fb78ba5-08a7-454e-93df-0d02fed33bdc","system_id":"levelo_inurba_marseille","lat":43.24807,"lon":5.37457,"is_reserved":false,"is_disabled":false,"rental_uris":{"android":"levelo://app?vid=7fb78ba5-08a7-454e-93df-0d02fed33bdc","ios":"levelo://app?vid=7fb78ba5-08a7-454e-93df-0d02fed33bdc"},"vehicle_type_id":"4","last_reported":1738177575,"current_range_meters":22000,"station_id":"ce4bhgh2rcd13ifvqfb0","pricing_plan_id":"cebpf4jnsgd1na2vs0mg"},{"bike_id":"9cef6fa4-3ddb-412a-b91c-2ed6416e1e06","system_id":"levelo_inurba_marseille","lat":43.30312,"lon":5.4044,"is_reserved":false,"is_disabled":false,"rental_uris":{"android":"levelo://app?vid=9cef6fa4-3ddb-412a-b91c-2ed6416e1e06","ios":"levelo://app?vid=9cef6fa4-3ddb-412a-b91c-2ed6416e1e06"},"vehicle_type_id":"4","last_reported":1738177575,"current_range_meters":28400,"station_id":"ce4bh012rcd13ifvqd10","pricing_plan_id":"cebpf4jnsgd1na2vs0mg"},{"bike_id":"46f1f77e-98b6-4ba2-a396-1e36c4b255d1","system_id":"levelo_inurba_marseille","lat":43.28117,"lon":5.37838,"is_reserved":false,"is_disabled":false,"rental_uris":{"android":"levelo://app?vid=46f1f77e-98b6-4ba2-a396-1e36c4b255d1","ios":"levelo://app?vid=46f1f77e-98b6-4ba2-a396-1e36c4b255d1"},"vehicle_type_id":"4","last_reported":1738177575,"current_range_meters":17600,"station_id":"ce4bha12rcd13ifvqee0","pricing_plan_id":"cebpf4jnsgd1na2vs0mg"},{"bike_id":"67010c49-4067-40f8-abbe-e9abaf8588d1","system_id":"levelo_inurba_marseille","lat":43.26034,"lon":5.37542,"is_reserved":false,"is_disabled":false,"rental_uris":{"android":"levelo://app?vid=67010c49-4067-40f8-abbe-e9abaf8588d1","ios":"levelo://app?vid=67010c49-4067-40f8-abbe-e9abaf8588d1"},"vehicle_type_id":"4","last_reported":1738177575,"current_range_meters":38000,"station_id":"ce4bhgh2rcd13ifvqfa0","pricing_plan_id":"cebpf4jnsgd1na2vs0mg"},{"bike_id":"bee89fe1-75de-4aa4-8834-a29197d70af2","system_id":"levelo_inurba_marseille","lat":43.30911,"lon":5.37179,"is_reserved":false,"is_disabled":true,"rental_uris":{"android":"levelo://app?vid=bee89fe1-75de-4aa4-8834-a29197d70af2","ios":"levelo://app?vid=bee89fe1-75de-4aa4-8834-a29197d70af2"},"vehicle_type_id":"4","last_reported":1738177575,"current_range_meters":0,"station_id":"","pricing_plan_id":"cebpf4jnsgd1na2vs0mg"},{"bike_id":"2ec84c22-8666-467b-b9ab-b38e4ac8ff9f","system_id":"levelo_inurba_marseille","lat":43.29886,"lon":5.43648,"is_reserved":false,"is_disabled":true,"rental_uris":{"android":"levelo://app?vid=2ec84c22-8666-467b-b9ab-b38e4ac8ff9f","ios":"levelo://app?vid=2ec84c22-8666-467b-b9ab-b38e4ac8ff9f"},"vehicle_type_id":"4","last_reported":1738177575,"current_range_meters":32400,"station_id":"ce4bhpp2rcd13ifvqhfg","pricing_plan_id":"cebpf4jnsgd1na2vs0mg"},{"bike_id":"6168012a-0aa5-4e91-a32c-2e506aac2f21","system_id":"levelo_inurba_marseille","lat":43.28381,"lon":5.37502,"is_reserved":false,"is_disabled":false,"rental_uris":{"android":"levelo://app?vid=6168012a-0aa5-4e91-a32c-2e506aac2f21","ios":"levelo://app?vid=6168012a-0aa5-4e91-a32c-2e506aac2f21"},"vehicle_type_id":"4","last_reported":1738177575,"current_range_meters":9600,"station_id":"ce4bh412rcd13ifvqds0","pricing_plan_id":"cebpf4jnsgd1na2vs0mg"},{"bike_id":"9ea78203-8f98-4ce9-a46f-06802a5df390","system_id":"levelo_inurba_marseille","lat":43.23197,"lon":5.39972,"is_reserved":false,"is_disabled":false,"rental_uris":{"android":"levelo://app?vid=9ea78203-8f98-4ce9-a46f-06802a5df390","ios":"levelo://app?vid=9ea78203-8f98-4ce9-a46f-06802a5df390"},"vehicle_type_id":"4","last_reported":1738177575,"current_range_meters":12000,"station_id":"ce4bhn12rcd13ifvqgqg","pricing_plan_id":"cebpf4jnsgd1na2vs0mg"},{"bike_id":"a9eaae4d-3875-4425-8362-4de13abed7b5","system_id":"levelo_inurba_marseille","lat":43.24644,"lon":5.38899,"is_reserved":false,"is_disabled":false,"rental_uris":{"android":"levelo://app?vid=a9eaae4d-3875-4425-8362-4de13abed7b5","ios":"levelo://app?vid=a9eaae4d-3875-4425-8362-4de13abed7b5"},"vehicle_type_id":"4","last_reported":1738177575,"current_range_meters":35600,"station_id":"ce4bhg12rcd13ifvqf60","pricing_plan_id":"cebpf4jnsgd1na2vs0mg"},{"bike_id":"96b8e4ef-534c-4051-9f0e-c2158b65cb6c","system_id":"levelo_inurba_marseille","lat":43.27937,"lon":5.41056,"is_reserved":false,"is_disabled":false,"rental_uris":{"android":"levelo://app?vid=96b8e4ef-534c-4051-9f0e-c2158b65cb6c","ios":"levelo://app?vid=96b8e4ef-534c-4051-9f0e-c2158b65cb6c"},"vehicle_type_id":"4","last_reported":1738177575,"current_range_meters":27600,"station_id":"ce4bhnp2rcd13ifvqh0g","pricing_plan_id":"cebpf4jnsgd1na2vs0mg"},{"bike_id":"296acca2-a355-4830-bc97-a6939a85f573","system_id":"levelo_inurba_marseille","lat":43.25573,"lon":5.38242,"is_reserved":false,"is_disabled":false,"rental_uris":{"android":"levelo://app?vid=296acca2-a355-4830-bc97-a6939a85f573","ios":"levelo://app?vid=296acca2-a355-4830-bc97-a6939a85f573"},"vehicle_type_id":"4","last_reported":1738177575,"current_range_meters":23200,"station_id":"ce4bhih2rcd13ifvqfs0","pricing_plan_id":"cebpf4jnsgd1na2vs0mg"},{"bike_id":"a79b3a4a-2ffb-47d4-a0ed-c2ebdfbf34cb","system_id":"levelo_inurba_marseille","lat":43.29561,"lon":5.39068,"is_reserved":false,"is_disabled":false,"rental_uris":{"android":"levelo://app?vid=a79b3a4a-2ffb-47d4-a0ed-c2ebdfbf34cb","ios":"levelo://app?vid=a79b3a4a-2ffb-47d4-a0ed-c2ebdfbf34cb"},"vehicle_type_id":"4","last_reported":1738177575,"current_range_meters":38800,"station_id":"ce4bh3p2rcd13ifvqdp0","pricing_plan_id":"cebpf4jnsgd1na2vs0mg"},{"bike_id":"5f654e4e-95e6-426d-9211-44da09fb915e","system_id":"levelo_inurba_marseille","lat":43.27818,"lon":5.40697,"is_reserved":false,"is_disabled":false,"rental_uris":{"android":"levelo://app?vid=5f654e4e-95e6-426d-9211-44da09fb915e","ios":"levelo://app?vid=5f654e4e-95e6-426d-9211-44da09fb915e"},"vehicle_type_id":"4","last_reported":1738177575,"current_range_meters":16400,"station_id":"ce4bhnh2rcd13ifvqgtg","pricing_plan_id":"cebpf4jnsgd1na2vs0mg"},{"bike_id":"e8f6ee29-d98f-4b58-a9a2-330f39cb6448","system_id":"levelo_inurba_marseille","lat":43.29268,"lon":5.38442,"is_reserved":false,"is_disabled":false,"rental_uris":{"android":"levelo://app?vid=e8f6ee29-d98f-4b58-a9a2-330f39cb6448","ios":"levelo://app?vid=e8f6ee29-d98f-4b58-a9a2-330f39cb6448"},"vehicle_type_id":"4","last_reported":1738177575,"current_range_meters":6400,"station_id":"ce4bh692rcd13ifvqea0","pricing_plan_id":"cebpf4jnsgd1na2vs0mg"},{"bike_id":"0002070e-3794-4cb5-9dfa-5e512fa72331","system_id":"levelo_inurba_marseille","lat":43.27935,"lon":5.39591,"is_reserved":false,"is_disabled":true,"rental_uris":{"android":"levelo://app?vid=0002070e-3794-4cb5-9dfa-5e512fa72331","ios":"levelo://app?vid=0002070e-3794-4cb5-9dfa-5e512fa72331"},"vehicle_type_id":"4","last_reported":1738177575,"current_range_meters":1200,"station_id":"ce4bhf92rcd13ifvqf40","pricing_plan_id":"cebpf4jnsgd1na2vs0mg"},{"bike_id":"5e764e6c-cbe0-44c8-a979-c3be107983a5","system_id":"levelo_inurba_marseille","lat":43.29299,"lon":5.37454,"is_reserved":false,"is_disabled":false,"rental_uris":{"android":"levelo://app?vid=5e764e6c-cbe0-44c8-a979-c3be107983a5","ios":"levelo://app?vid=5e764e6c-cbe0-44c8-a979-c3be107983a5"},"vehicle_type_id":"4","last_reported":1738177575,"current_range_meters":19200,"station_id":"ce4bgi12rcd13ifvqb70","pricing_plan_id":"cebpf4jnsgd1na2vs0mg"},{"bike_id":"f49434c8-464b-4611-a913-29cc2b905667","system_id":"levelo_inurba_marseille","lat":43.27918,"lon":5.39579,"is_reserved":false,"is_disabled":true,"rental_uris":{"android":"levelo://app?vid=f49434c8-464b-4611-a913-29cc2b905667","ios":"levelo://app?vid=f49434c8-464b-4611-a913-29cc2b905667"},"vehicle_type_id":"4","last_reported":1738177575,"current_range_meters":400,"station_id":"ce4bhf92rcd13ifvqf40","pricing_plan_id":"cebpf4jnsgd1na2vs0mg"},{"bike_id":"35a5c402-13ca-468f-8a93-76197813b571","system_id":"levelo_inurba_marseille","lat":43.25916,"lon":5.40901,"is_reserved":false,"is_disabled":true,"rental_uris":{"android":"levelo://app?vid=35a5c402-13ca-468f-8a93-76197813b571","ios":"levelo://app?vid=35a5c402-13ca-468f-8a93-76197813b571"},"vehicle_type_id":"4","last_reported":1738177575,"current_range_meters":1200,"station_id":"ce4bhm92rcd13ifvqglg","pricing_plan_id":"cebpf4jnsgd1na2vs0mg"},{"bike_id":"b25ecd20-6597-4932-9038-93bb6ac07c3d","system_id":"levelo_inurba_marseille","lat":43.29232,"lon":5.35771,"is_reserved":false,"is_disabled":false,"rental_uris":{"android":"levelo://app?vid=b25ecd20-6597-4932-9038-93bb6ac07c3d","ios":"levelo://app?vid=b25ecd20-6597-4932-9038-93bb6ac07c3d"},"vehicle_type_id":"4","last_reported":1738177575,"current_range_meters":33600,"station_id":"ce4bhb12rcd13ifvqel0","pricing_plan_id":"cebpf4jnsgd1na2vs0mg"},{"bike_id":"e3c5a10e-948d-477c-91ce-8c835a7fe362","system_id":"levelo_inurba_marseille","lat":43.28058,"lon":5.39621,"is_reserved":false,"is_disabled":true,"rental_uris":{"android":"levelo://app?vid=e3c5a10e-948d-477c-91ce-8c835a7fe362","ios":"levelo://app?vid=e3c5a10e-948d-477c-91ce-8c835a7fe362"},"vehicle_type_id":"4","last_reported":1738177575,"current_range_meters":0,"station_id":"ce4bho12rcd13ifvqh2g","pricing_plan_id":"cebpf4jnsgd1na2vs0mg"},{"bike_id":"f9d35a32-65b2-4842-bd83-8cbe10324274","system_id":"levelo_inurba_marseille","lat":43.28609,"lon":5.35109,"is_reserved":false,"is_disabled":false,"rental_uris":{"android":"levelo://app?vid=f9d35a32-65b2-4842-bd83-8cbe10324274","ios":"levelo://app?vid=f9d35a32-65b2-4842-bd83-8cbe10324274"},"vehicle_type_id":"4","last_reported":1738177575,"current_range_meters":22000,"station_id":"ce4bhch2rcd13ifvqeug","pricing_plan_id":"cebpf4jnsgd1na2vs0mg"},{"bike_id":"b56744dd-c9e9-45e3-a372-031669fe5fab","system_id":"levelo_inurba_marseille","lat":43.29261,"lon":5.38439,"is_reserved":false,"is_disabled":true,"rental_uris":{"android":"levelo://app?vid=b56744dd-c9e9-45e3-a372-031669fe5fab","ios":"levelo://app?vid=b56744dd-c9e9-45e3-a372-031669fe5fab"},"vehicle_type_id":"4","last_reported":1738177575,"current_range_meters":0,"station_id":"ce4bh692rcd13ifvqea0","pricing_plan_id":"cebpf4jnsgd1na2vs0mg"},{"bike_id":"79e99809-e2d5-467c-aa72-b4d7c9afae9f","system_id":"levelo_inurba_marseille","lat":43.28086,"lon":5.39659,"is_reserved":false,"is_disabled":false,"rental_uris":{"android":"levelo://app?vid=79e99809-e2d5-467c-aa72-b4d7c9afae9f","ios":"levelo://app?vid=79e99809-e2d5-467c-aa72-b4d7c9afae9f"},"vehicle_type_id":"4","last_reported":1738177575,"current_range_meters":38800,"station_id":"ce4bho12rcd13ifvqh2g","pricing_plan_id":"cebpf4jnsgd1na2vs0mg"},{"bike_id":"f1641078-9146-47a8-a31e-efbe1f05180f","system_id":"levelo_inurba_marseille","lat":43.25003,"lon":5.38925,"is_reserved":false,"is_disabled":false,"rental_uris":{"android":"levelo://app?vid=f1641078-9146-47a8-a31e-efbe1f05180f","ios":"levelo://app?vid=f1641078-9146-47a8-a31e-efbe1f05180f"},"vehicle_type_id":"4","last_reported":1738177575,"current_range_meters":18800,"station_id":"ce4bhgp2rcd13ifvqfd0","pricing_plan_id":"cebpf4jnsgd1na2vs0mg"},{"bike_id":"140798a4-0859-451e-8806-eea5a65a068a","system_id":"levelo_inurba_marseille","lat":43.26055,"lon":5.39399,"is_reserved":false,"is_disabled":false,"rental_uris":{"android":"levelo://app?vid=140798a4-0859-451e-8806-eea5a65a068a","ios":"levelo://app?vid=140798a4-0859-451e-8806-eea5a65a068a"},"vehicle_type_id":"4","last_reported":1738177575,"current_range_meters":38000,"station_id":"ce4bhh92rcd13ifvqfj0","pricing_plan_id":"cebpf4jnsgd1na2vs0mg"},{"bike_id":"3f8f111c-9d13-4eb5-8754-e794af193a56","system_id":"levelo_inurba_marseille","lat":43.30132,"lon":5.39847,"is_reserved":false,"is_disabled":false,"rental_uris":{"android":"levelo://app?vid=3f8f111c-9d13-4eb5-8754-e794af193a56","ios":"levelo://app?vid=3f8f111c-9d13-4eb5-8754-e794af193a56"},"vehicle_type_id":"4","last_reported":1738177575,"current_range_meters":35600,"station_id":"ce4bh0h2rcd13ifvqd40","pricing_plan_id":"cebpf4jnsgd1na2vs0mg"},{"bike_id":"4745138a-9a5d-4811-ae8e-8a2d43b0ab6d","system_id":"levelo_inurba_marseille","lat":43.298767,"lon":5.389077,"is_reserved":false,"is_disabled":false,"rental_uris":{"android":"levelo://app?vid=4745138a-9a5d-4811-ae8e-8a2d43b0ab6d","ios":"levelo://app?vid=4745138a-9a5d-4811-ae8e-8a2d43b0ab6d"},"vehicle_type_id":"4","last_reported":1738177575,"current_range_meters":33600,"station_id":"ce4bh392rcd13ifvqdl0","pricing_plan_id":"cebpf4jnsgd1na2vs0mg"},{"bike_id":"434eceae-6401-484a-b36e-6a0447d8a308","system_id":"levelo_inurba_marseille","lat":43.30322,"lon":5.40434,"is_reserved":false,"is_disabled":false,"rental_uris":{"android":"levelo://app?vid=434eceae-6401-484a-b36e-6a0447d8a308","ios":"levelo://app?vid=434eceae-6401-484a-b36e-6a0447d8a308"},"vehicle_type_id":"4","last_reported":1738177575,"current_range_meters":24800,"station_id":"ce4bh012rcd13ifvqd10","pricing_plan_id":"cebpf4jnsgd1na2vs0mg"},{"bike_id":"337b4b52-74c3-4c30-a8a3-46cbfa460da4","system_id":"levelo_inurba_marseille","lat":43.29425,"lon":5.38616,"is_reserved":false,"is_disabled":false,"rental_uris":{"android":"levelo://app?vid=337b4b52-74c3-4c30-a8a3-46cbfa460da4","ios":"levelo://app?vid=337b4b52-74c3-4c30-a8a3-46cbfa460da4"},"vehicle_type_id":"4","last_reported":1738177575,"current_range_meters":29600,"station_id":"ce4bh2h2rcd13ifvqdh0","pricing_plan_id":"cebpf4jnsgd1na2vs0mg"},{"bike_id":"9f0fa4ed-8608-4cd0-8154-a30cca7a6936","system_id":"levelo_inurba_marseille","lat":43.27182,"lon":5.40997,"is_reserved":false,"is_disabled":false,"rental_uris":{"android":"levelo://app?vid=9f0fa4ed-8608-4cd0-8154-a30cca7a6936","ios":"levelo://app?vid=9f0fa4ed-8608-4cd0-8154-a30cca7a6936"},"vehicle_type_id":"4","last_reported":1738177575,"current_range_meters":38800,"station_id":"ce4bhl12rcd13ifvqgf0","pricing_plan_id":"cebpf4jnsgd1na2vs0mg"},{"bike_id":"724abe73-fee2-49e4-ac64-4993fbd92435","system_id":"levelo_inurba_marseille","lat":43.26572,"lon":5.38989,"is_reserved":false,"is_disabled":false,"rental_uris":{"android":"levelo://app?vid=724abe73-fee2-49e4-ac64-4993fbd92435","ios":"levelo://app?vid=724abe73-fee2-49e4-ac64-4993fbd92435"},"vehicle_type_id":"4","last_reported":1738177575,"current_range_meters":24400,"station_id":"ce4bhe12rcd13ifvqf30","pricing_plan_id":"cebpf4jnsgd1na2vs0mg"},{"bike_id":"ccebac2e-dd56-4f7c-af56-6e5473a29f80","system_id":"levelo_inurba_marseille","lat":43.27986,"lon":5.4165,"is_reserved":false,"is_disabled":false,"rental_uris":{"android":"levelo://app?vid=ccebac2e-dd56-4f7c-af56-6e5473a29f80","ios":"levelo://app?vid=ccebac2e-dd56-4f7c-af56-6e5473a29f80"},"vehicle_type_id":"4","last_reported":1738177575,"current_range_meters":4800,"station_id":"ce4bho12rcd13ifvqh1g","pricing_plan_id":"cebpf4jnsgd1na2vs0mg"},{"bike_id":"0a41ed65-fb70-41da-a817-88f7fe3391d5","system_id":"levelo_inurba_marseille","lat":43.29251,"lon":5.38433,"is_reserved":false,"is_disabled":false,"rental_uris":{"android":"levelo://app?vid=0a41ed65-fb70-41da-a817-88f7fe3391d5","ios":"levelo://app?vid=0a41ed65-fb70-41da-a817-88f7fe3391d5"},"vehicle_type_id":"4","last_reported":1738177575,"current_range_meters":9600,"station_id":"ce4bh692rcd13ifvqea0","pricing_plan_id":"cebpf4jnsgd1na2vs0mg"},{"bike_id":"8c69ea1e-2ad2-43c7-a69e-7814046ee1fc","system_id":"levelo_inurba_marseille","lat":43.28343,"lon":5.38103,"is_reserved":false,"is_disabled":false,"rental_uris":{"android":"levelo://app?vid=8c69ea1e-2ad2-43c7-a69e-7814046ee1fc","ios":"levelo://app?vid=8c69ea1e-2ad2-43c7-a69e-7814046ee1fc"},"vehicle_type_id":"4","last_reported":1738177575,"current_range_meters":8800,"station_id":"ce4bh412rcd13ifvqdr0","pricing_plan_id":"cebpf4jnsgd1na2vs0mg"},{"bike_id":"3ad10b32-c1b1-4c7a-9f3c-30dcc350bc0c","system_id":"levelo_inurba_marseille","lat":43.279498,"lon":5.410342,"is_reserved":false,"is_disabled":false,"rental_uris":{"android":"levelo://app?vid=3ad10b32-c1b1-4c7a-9f3c-30dcc350bc0c","ios":"levelo://app?vid=3ad10b32-c1b1-4c7a-9f3c-30dcc350bc0c"},"vehicle_type_id":"4","last_reported":1738177575,"current_range_meters":10000,"station_id":"ce4bhnp2rcd13ifvqh0g","pricing_plan_id":"cebpf4jnsgd1na2vs0mg"},{"bike_id":"c41cb691-6250-4c52-a233-ef6ba436c7eb","system_id":"levelo_inurba_marseille","lat":43.3093,"lon":5.40142,"is_reserved":false,"is_disabled":false,"rental_uris":{"android":"levelo://app?vid=c41cb691-6250-4c52-a233-ef6ba436c7eb","ios":"levelo://app?vid=c41cb691-6250-4c52-a233-ef6ba436c7eb"},"vehicle_type_id":"4","last_reported":1738177575,"current_range_meters":4400,"station_id":"ce4bgvp2rcd13ifvqct0","pricing_plan_id":"cebpf4jnsgd1na2vs0mg"},{"bike_id":"8382186f-0d25-40e6-beca-2632cc8590f2","system_id":"levelo_inurba_marseille","lat":43.29551,"lon":5.42267,"is_reserved":false,"is_disabled":true,"rental_uris":{"android":"levelo://app?vid=8382186f-0d25-40e6-beca-2632cc8590f2","ios":"levelo://app?vid=8382186f-0d25-40e6-beca-2632cc8590f2"},"vehicle_type_id":"4","last_reported":1738177575,"current_range_meters":11600,"station_id":"ce4bhph2rcd13ifvqhdg","pricing_plan_id":"cebpf4jnsgd1na2vs0mg"},{"bike_id":"5b6efb61-6a43-4c5a-bb36-26ebbe66159a","system_id":"levelo_inurba_marseille","lat":43.3029,"lon":5.36881,"is_reserved":false,"is_disabled":false,"rental_uris":{"android":"levelo://app?vid=5b6efb61-6a43-4c5a-bb36-26ebbe66159a","ios":"levelo://app?vid=5b6efb61-6a43-4c5a-bb36-26ebbe66159a"},"vehicle_type_id":"4","last_reported":1738177575,"current_range_meters":31200,"station_id":"ce4bgqh2rcd13ifvqc5g","pricing_plan_id":"cebpf4jnsgd1na2vs0mg"},{"bike_id":"70f0c963-8c36-418f-a110-4edb8ff73131","system_id":"levelo_inurba_marseille","lat":43.2951,"lon":5.39388,"is_reserved":false,"is_disabled":true,"rental_uris":{"android":"levelo://app?vid=70f0c963-8c36-418f-a110-4edb8ff73131","ios":"levelo://app?vid=70f0c963-8c36-418f-a110-4edb8ff73131"},"vehicle_type_id":"4","last_reported":1738177575,"current_range_meters":36400,"station_id":"ce4bh292rcd13ifvqdf0","pricing_plan_id":"cebpf4jnsgd1na2vs0mg"},{"bike_id":"b6a6b106-c0a9-4afa-ad24-a5822ef23f96","system_id":"levelo_inurba_marseille","lat":43.2829,"lon":5.3507,"is_reserved":false,"is_disabled":false,"rental_uris":{"android":"levelo://app?vid=b6a6b106-c0a9-4afa-ad24-a5822ef23f96","ios":"levelo://app?vid=b6a6b106-c0a9-4afa-ad24-a5822ef23f96"},"vehicle_type_id":"4","last_reported":1738177575,"current_range_meters":38800,"station_id":"ce4bhbp2rcd13ifvqerg","pricing_plan_id":"cebpf4jnsgd1na2vs0mg"},{"bike_id":"ad928643-4e1a-4130-a55d-d873565d63d1","system_id":"levelo_inurba_marseille","lat":43.28471,"lon":5.38565,"is_reserved":false,"is_disabled":true,"rental_uris":{"android":"levelo://app?vid=ad928643-4e1a-4130-a55d-d873565d63d1","ios":"levelo://app?vid=ad928643-4e1a-4130-a55d-d873565d63d1"},"vehicle_type_id":"4","last_reported":1738177575,"current_range_meters":1200,"station_id":"ce4bh8p2rcd13ifvqeb0","pricing_plan_id":"cebpf4jnsgd1na2vs0mg"},{"bike_id":"df7d8f6a-5b66-47de-b5fc-4c59f37d7e14","system_id":"levelo_inurba_marseille","lat":43.289893,"lon":5.359353,"is_reserved":false,"is_disabled":true,"rental_uris":{"android":"levelo://app?vid=df7d8f6a-5b66-47de-b5fc-4c59f37d7e14","ios":"levelo://app?vid=df7d8f6a-5b66-47de-b5fc-4c59f37d7e14"},"vehicle_type_id":"4","last_reported":1738177575,"current_range_meters":400,"station_id":"ce4bhb12rcd13ifvqel0","pricing_plan_id":"cebpf4jnsgd1na2vs0mg"},{"bike_id":"e2bea8e6-f3b7-466c-90bb-d9ccac093d4e","system_id":"levelo_inurba_marseille","lat":43.29254,"lon":5.38433,"is_reserved":false,"is_disabled":false,"rental_uris":{"android":"levelo://app?vid=e2bea8e6-f3b7-466c-90bb-d9ccac093d4e","ios":"levelo://app?vid=e2bea8e6-f3b7-466c-90bb-d9ccac093d4e"},"vehicle_type_id":"4","last_reported":1738177575,"current_range_meters":10000,"station_id":"ce4bh692rcd13ifvqea0","pricing_plan_id":"cebpf4jnsgd1na2vs0mg"},{"bike_id":"311fc619-a965-4a09-878d-09fc1104c429","system_id":"levelo_inurba_marseille","lat":43.29569,"lon":5.39971,"is_reserved":false,"is_disabled":false,"rental_uris":{"android":"levelo://app?vid=311fc619-a965-4a09-878d-09fc1104c429","ios":"levelo://app?vid=311fc619-a965-4a09-878d-09fc1104c429"},"vehicle_type_id":"4","last_reported":1738177575,"current_range_meters":2800,"station_id":"ce4bh312rcd13ifvqdj0","pricing_plan_id":"cebpf4jnsgd1na2vs0mg"},{"bike_id":"67d87e23-738b-42b4-a250-e369a902027c","system_id":"levelo_inurba_marseille","lat":43.24386,"lon":5.37054,"is_reserved":false,"is_disabled":false,"rental_uris":{"android":"levelo://app?vid=67d87e23-738b-42b4-a250-e369a902027c","ios":"levelo://app?vid=67d87e23-738b-42b4-a250-e369a902027c"},"vehicle_type_id":"4","last_reported":1738177575,"current_range_meters":32800,"station_id":"ce4bhhh2rcd13ifvqfk0","pricing_plan_id":"cebpf4jnsgd1na2vs0mg"},{"bike_id":"6bb46ab8-60a3-4be8-a81e-feec8da4259f","system_id":"levelo_inurba_marseille","lat":43.29041,"lon":5.35914,"is_reserved":false,"is_disabled":false,"rental_uris":{"android":"levelo://app?vid=6bb46ab8-60a3-4be8-a81e-feec8da4259f","ios":"levelo://app?vid=6bb46ab8-60a3-4be8-a81e-feec8da4259f"},"vehicle_type_id":"4","last_reported":1738177575,"current_range_meters":38800,"station_id":"ce4bha92rcd13ifvqeg0","pricing_plan_id":"cebpf4jnsgd1na2vs0mg"},{"bike_id":"f2cd1694-cbcf-4b6f-9463-8b28ee8d6f4b","system_id":"levelo_inurba_marseille","lat":43.23059,"lon":5.35487,"is_reserved":false,"is_disabled":false,"rental_uris":{"android":"levelo://app?vid=f2cd1694-cbcf-4b6f-9463-8b28ee8d6f4b","ios":"levelo://app?vid=f2cd1694-cbcf-4b6f-9463-8b28ee8d6f4b"},"vehicle_type_id":"4","last_reported":1738177575,"current_range_meters":20800,"station_id":"cpo3342slgdg3j2ifvpg","pricing_plan_id":"cebpf4jnsgd1na2vs0mg"},{"bike_id":"0a2fd205-d616-4064-aa75-d4d529957d90","system_id":"levelo_inurba_marseille","lat":43.23063,"lon":5.35478,"is_reserved":false,"is_disabled":false,"rental_uris":{"android":"levelo://app?vid=0a2fd205-d616-4064-aa75-d4d529957d90","ios":"levelo://app?vid=0a2fd205-d616-4064-aa75-d4d529957d90"},"vehicle_type_id":"4","last_reported":1738177575,"current_range_meters":27600,"station_id":"cpo3342slgdg3j2ifvpg","pricing_plan_id":"cebpf4jnsgd1na2vs0mg"},{"bike_id":"5a82add5-a4b4-4d4d-8ccf-99280ac3f9d6","system_id":"levelo_inurba_marseille","lat":43.29881,"lon":5.38902,"is_reserved":false,"is_disabled":false,"rental_uris":{"android":"levelo://app?vid=5a82add5-a4b4-4d4d-8ccf-99280ac3f9d6","ios":"levelo://app?vid=5a82add5-a4b4-4d4d-8ccf-99280ac3f9d6"},"vehicle_type_id":"4","last_reported":1738177575,"current_range_meters":38800,"station_id":"ce4bh392rcd13ifvqdl0","pricing_plan_id":"cebpf4jnsgd1na2vs0mg"},{"bike_id":"07c5fe4f-62a9-489d-ba2e-1729172292cf","system_id":"levelo_inurba_marseille","lat":43.28154,"lon":5.42643,"is_reserved":false,"is_disabled":false,"rental_uris":{"android":"levelo://app?vid=07c5fe4f-62a9-489d-ba2e-1729172292cf","ios":"levelo://app?vid=07c5fe4f-62a9-489d-ba2e-1729172292cf"},"vehicle_type_id":"4","last_reported":1738177575,"current_range_meters":30400,"station_id":"ce4bhnh2rcd13ifvqgug","pricing_plan_id":"cebpf4jnsgd1na2vs0mg"},{"bike_id":"7c78a755-c7f5-4f07-a96b-621451d47948","system_id":"levelo_inurba_marseille","lat":43.29902,"lon":5.43637,"is_reserved":false,"is_disabled":false,"rental_uris":{"android":"levelo://app?vid=7c78a755-c7f5-4f07-a96b-621451d47948","ios":"levelo://app?vid=7c78a755-c7f5-4f07-a96b-621451d47948"},"vehicle_type_id":"4","last_reported":1738177575,"current_range_meters":17200,"station_id":"ce4bhpp2rcd13ifvqhfg","pricing_plan_id":"cebpf4jnsgd1na2vs0mg"},{"bike_id":"131290dc-769c-4503-bd81-4aad78d0271d","system_id":"levelo_inurba_marseille","lat":43.29533,"lon":5.3903,"is_reserved":false,"is_disabled":false,"rental_uris":{"android":"levelo://app?vid=131290dc-769c-4503-bd81-4aad78d0271d","ios":"levelo://app?vid=131290dc-769c-4503-bd81-4aad78d0271d"},"vehicle_type_id":"4","last_reported":1738177575,"current_range_meters":18800,"station_id":"ce4bh3p2rcd13ifvqdp0","pricing_plan_id":"cebpf4jnsgd1na2vs0mg"},{"bike_id":"cc3968ec-db87-4d76-8f5b-72642836fe15","system_id":"levelo_inurba_marseille","lat":43.29525,"lon":5.3903,"is_reserved":false,"is_disabled":false,"rental_uris":{"android":"levelo://app?vid=cc3968ec-db87-4d76-8f5b-72642836fe15","ios":"levelo://app?vid=cc3968ec-db87-4d76-8f5b-72642836fe15"},"vehicle_type_id":"4","last_reported":1738177575,"current_range_meters":36800,"station_id":"ce4bh3p2rcd13ifvqdp0","pricing_plan_id":"cebpf4jnsgd1na2vs0mg"},{"bike_id":"289adfe2-276b-4295-ab7f-c5ae95d89aeb","system_id":"levelo_inurba_marseille","lat":43.32474,"lon":5.36558,"is_reserved":false,"is_disabled":false,"rental_uris":{"android":"levelo://app?vid=289adfe2-276b-4295-ab7f-c5ae95d89aeb","ios":"levelo://app?vid=289adfe2-276b-4295-ab7f-c5ae95d89aeb"},"vehicle_type_id":"4","last_reported":1738177575,"current_range_meters":27200,"station_id":"ce4bhs12rcd13ifvqhvg","pricing_plan_id":"cebpf4jnsgd1na2vs0mg"},{"bike_id":"eee19f47-252c-4823-9731-a950c178be22","system_id":"levelo_inurba_marseille","lat":43.27939,"lon":5.41038,"is_reserved":false,"is_disabled":false,"rental_uris":{"android":"levelo://app?vid=eee19f47-252c-4823-9731-a950c178be22","ios":"levelo://app?vid=eee19f47-252c-4823-9731-a950c178be22"},"vehicle_type_id":"4","last_reported":1738177575,"current_range_meters":30400,"station_id":"ce4bhnp2rcd13ifvqh0g","pricing_plan_id":"cebpf4jnsgd1na2vs0mg"},{"bike_id":"803e03d8-7d2e-4feb-ac46-774902d16dee","system_id":"levelo_inurba_marseille","lat":43.33731,"lon":5.37442,"is_reserved":false,"is_disabled":true,"rental_uris":{"android":"levelo://app?vid=803e03d8-7d2e-4feb-ac46-774902d16dee","ios":"levelo://app?vid=803e03d8-7d2e-4feb-ac46-774902d16dee"},"vehicle_type_id":"4","last_reported":1738177575,"current_range_meters":32400,"station_id":"","pricing_plan_id":"cebpf4jnsgd1na2vs0mg"},{"bike_id":"0367fa8e-91ab-4e14-b0b8-43c759ce0a3e","system_id":"levelo_inurba_marseille","lat":43.29157,"lon":5.37156,"is_reserved":false,"is_disabled":false,"rental_uris":{"android":"levelo://app?vid=0367fa8e-91ab-4e14-b0b8-43c759ce0a3e","ios":"levelo://app?vid=0367fa8e-91ab-4e14-b0b8-43c759ce0a3e"},"vehicle_type_id":"4","last_reported":1738177575,"current_range_meters":39200,"station_id":"ce4bha92rcd13ifvqeh0","pricing_plan_id":"cebpf4jnsgd1na2vs0mg"},{"bike_id":"358b7798-96df-4daa-a9bb-3cfe566b5d27","system_id":"levelo_inurba_marseille","lat":43.27685,"lon":5.38867,"is_reserved":false,"is_disabled":false,"rental_uris":{"android":"levelo://app?vid=358b7798-96df-4daa-a9bb-3cfe566b5d27","ios":"levelo://app?vid=358b7798-96df-4daa-a9bb-3cfe566b5d27"},"vehicle_type_id":"4","last_reported":1738177575,"current_range_meters":38000,"station_id":"ce4bhi12rcd13ifvqfo0","pricing_plan_id":"cebpf4jnsgd1na2vs0mg"},{"bike_id":"d0aba331-6b38-403c-a3de-3a3dd0a3963b","system_id":"levelo_inurba_marseille","lat":43.32499,"lon":5.36585,"is_reserved":false,"is_disabled":false,"rental_uris":{"android":"levelo://app?vid=d0aba331-6b38-403c-a3de-3a3dd0a3963b","ios":"levelo://app?vid=d0aba331-6b38-403c-a3de-3a3dd0a3963b"},"vehicle_type_id":"4","last_reported":1738177575,"current_range_meters":38800,"station_id":"ce4bhs12rcd13ifvqhvg","pricing_plan_id":"cebpf4jnsgd1na2vs0mg"},{"bike_id":"dd8504be-b7fa-4b6e-b65d-a5c8fed31c73","system_id":"levelo_inurba_marseille","lat":43.33025,"lon":5.39044,"is_reserved":false,"is_disabled":false,"rental_uris":{"android":"levelo://app?vid=dd8504be-b7fa-4b6e-b65d-a5c8fed31c73","ios":"levelo://app?vid=dd8504be-b7fa-4b6e-b65d-a5c8fed31c73"},"vehicle_type_id":"4","last_reported":1738177575,"current_range_meters":35600,"station_id":"ce4bhr92rcd13ifvqhrg","pricing_plan_id":"cebpf4jnsgd1na2vs0mg"},{"bike_id":"8ae780d0-751d-462d-b099-95f3f364afeb","system_id":"levelo_inurba_marseille","lat":43.28143,"lon":5.42641,"is_reserved":false,"is_disabled":false,"rental_uris":{"android":"levelo://app?vid=8ae780d0-751d-462d-b099-95f3f364afeb","ios":"levelo://app?vid=8ae780d0-751d-462d-b099-95f3f364afeb"},"vehicle_type_id":"4","last_reported":1738177575,"current_range_meters":34000,"station_id":"ce4bhnh2rcd13ifvqgug","pricing_plan_id":"cebpf4jnsgd1na2vs0mg"},{"bike_id":"eaef2861-89f9-4bba-82ed-0c18a26ab13c","system_id":"levelo_inurba_marseille","lat":43.29884,"lon":5.39738,"is_reserved":false,"is_disabled":false,"rental_uris":{"android":"levelo://app?vid=eaef2861-89f9-4bba-82ed-0c18a26ab13c","ios":"levelo://app?vid=eaef2861-89f9-4bba-82ed-0c18a26ab13c"},"vehicle_type_id":"4","last_reported":1738177575,"current_range_meters":39200,"station_id":"ce4bh0h2rcd13ifvqd50","pricing_plan_id":"cebpf4jnsgd1na2vs0mg"},{"bike_id":"1d1775b1-5871-41a8-a194-d385519df350","system_id":"levelo_inurba_marseille","lat":43.29585,"lon":5.39985,"is_reserved":false,"is_disabled":false,"rental_uris":{"android":"levelo://app?vid=1d1775b1-5871-41a8-a194-d385519df350","ios":"levelo://app?vid=1d1775b1-5871-41a8-a194-d385519df350"},"vehicle_type_id":"4","last_reported":1738177575,"current_range_meters":36800,"station_id":"ce4bh312rcd13ifvqdj0","pricing_plan_id":"cebpf4jnsgd1na2vs0mg"},{"bike_id":"1cb80b27-39fd-4949-b243-3c7c37b18b3d","system_id":"levelo_inurba_marseille","lat":43.29287,"lon":5.36841,"is_reserved":false,"is_disabled":false,"rental_uris":{"android":"levelo://app?vid=1cb80b27-39fd-4949-b243-3c7c37b18b3d","ios":"levelo://app?vid=1cb80b27-39fd-4949-b243-3c7c37b18b3d"},"vehicle_type_id":"4","last_reported":1738177575,"current_range_meters":8800,"station_id":"ce4bhbp2rcd13ifvqesg","pricing_plan_id":"cebpf4jnsgd1na2vs0mg"},{"bike_id":"3cab5ce9-fa36-4f37-a4fd-aa59591df4d1","system_id":"levelo_inurba_marseille","lat":43.28421,"lon":5.34966,"is_reserved":false,"is_disabled":true,"rental_uris":{"android":"levelo://app?vid=3cab5ce9-fa36-4f37-a4fd-aa59591df4d1","ios":"levelo://app?vid=3cab5ce9-fa36-4f37-a4fd-aa59591df4d1"},"vehicle_type_id":"4","last_reported":1738177575,"current_range_meters":29600,"station_id":"ce4bhbh2rcd13ifvqepg","pricing_plan_id":"cebpf4jnsgd1na2vs0mg"},{"bike_id":"f67ccf40-ec2d-445e-bba1-6c1e644d1f72","system_id":"levelo_inurba_marseille","lat":43.28694,"lon":5.37389,"is_reserved":false,"is_disabled":false,"rental_uris":{"android":"levelo://app?vid=f67ccf40-ec2d-445e-bba1-6c1e644d1f72","ios":"levelo://app?vid=f67ccf40-ec2d-445e-bba1-6c1e644d1f72"},"vehicle_type_id":"4","last_reported":1738177575,"current_range_meters":16000,"station_id":"ce4bh3p2rcd13ifvqdq0","pricing_plan_id":"cebpf4jnsgd1na2vs0mg"},{"bike_id":"85af6c92-372c-4cd2-84da-c4ec61fa470d","system_id":"levelo_inurba_marseille","lat":43.25723,"lon":5.41125,"is_reserved":false,"is_disabled":true,"rental_uris":{"android":"levelo://app?vid=85af6c92-372c-4cd2-84da-c4ec61fa470d","ios":"levelo://app?vid=85af6c92-372c-4cd2-84da-c4ec61fa470d"},"vehicle_type_id":"4","last_reported":1738177575,"current_range_meters":38800,"station_id":"ce4bhkp2rcd13ifvqgd0","pricing_plan_id":"cebpf4jnsgd1na2vs0mg"},{"bike_id":"911d971a-0124-498e-bf11-e1e6c7698135","system_id":"levelo_inurba_marseille","lat":43.29194,"lon":5.35808,"is_reserved":false,"is_disabled":false,"rental_uris":{"android":"levelo://app?vid=911d971a-0124-498e-bf11-e1e6c7698135","ios":"levelo://app?vid=911d971a-0124-498e-bf11-e1e6c7698135"},"vehicle_type_id":"4","last_reported":1738177575,"current_range_meters":30400,"station_id":"ce4bhb12rcd13ifvqel0","pricing_plan_id":"cebpf4jnsgd1na2vs0mg"},{"bike_id":"dccc580e-bca8-4350-af63-074caf293b38","system_id":"levelo_inurba_marseille","lat":43.31327,"lon":5.39689,"is_reserved":false,"is_disabled":true,"rental_uris":{"android":"levelo://app?vid=dccc580e-bca8-4350-af63-074caf293b38","ios":"levelo://app?vid=dccc580e-bca8-4350-af63-074caf293b38"},"vehicle_type_id":"4","last_reported":1738177575,"current_range_meters":1200,"station_id":"ce4bgvp2rcd13ifvqcu0","pricing_plan_id":"cebpf4jnsgd1na2vs0mg"},{"bike_id":"5a4a8346-6f89-4e28-8841-25738da5b081","system_id":"levelo_inurba_marseille","lat":43.29194,"lon":5.39331,"is_reserved":false,"is_disabled":false,"rental_uris":{"android":"levelo://app?vid=5a4a8346-6f89-4e28-8841-25738da5b081","ios":"levelo://app?vid=5a4a8346-6f89-4e28-8841-25738da5b081"},"vehicle_type_id":"4","last_reported":1738177575,"current_range_meters":23200,"station_id":"ce4bh192rcd13ifvqdd0","pricing_plan_id":"cebpf4jnsgd1na2vs0mg"},{"bike_id":"16869406-e8b2-430e-b02d-de8635e956ce","system_id":"levelo_inurba_marseille","lat":43.29307,"lon":5.37457,"is_reserved":false,"is_disabled":false,"rental_uris":{"android":"levelo://app?vid=16869406-e8b2-430e-b02d-de8635e956ce","ios":"levelo://app?vid=16869406-e8b2-430e-b02d-de8635e956ce"},"vehicle_type_id":"4","last_reported":1738177575,"current_range_meters":24000,"station_id":"ce4bgi12rcd13ifvqb70","pricing_plan_id":"cebpf4jnsgd1na2vs0mg"},{"bike_id":"c339e2b5-0e96-447d-9855-bf39b633c5f2","system_id":"levelo_inurba_marseille","lat":43.2622,"lon":5.37438,"is_reserved":false,"is_disabled":false,"rental_uris":{"android":"levelo://app?vid=c339e2b5-0e96-447d-9855-bf39b633c5f2","ios":"levelo://app?vid=c339e2b5-0e96-447d-9855-bf39b633c5f2"},"vehicle_type_id":"4","last_reported":1738177575,"current_range_meters":35600,"station_id":"ce4bhgp2rcd13ifvqfc0","pricing_plan_id":"cebpf4jnsgd1na2vs0mg"},{"bike_id":"86ce43e9-ad11-4554-bde2-2f5f10ea2de1","system_id":"levelo_inurba_marseille","lat":43.2926,"lon":5.40906,"is_reserved":false,"is_disabled":false,"rental_uris":{"android":"levelo://app?vid=86ce43e9-ad11-4554-bde2-2f5f10ea2de1","ios":"levelo://app?vid=86ce43e9-ad11-4554-bde2-2f5f10ea2de1"},"vehicle_type_id":"4","last_reported":1738177575,"current_range_meters":19600,"station_id":"ce4bh192rcd13ifvqdc0","pricing_plan_id":"cebpf4jnsgd1na2vs0mg"},{"bike_id":"184088f7-55e4-4411-bfca-10705137161d","system_id":"levelo_inurba_marseille","lat":43.28696,"lon":5.37385,"is_reserved":false,"is_disabled":false,"rental_uris":{"android":"levelo://app?vid=184088f7-55e4-4411-bfca-10705137161d","ios":"levelo://app?vid=184088f7-55e4-4411-bfca-10705137161d"},"vehicle_type_id":"4","last_reported":1738177575,"current_range_meters":38800,"station_id":"ce4bh3p2rcd13ifvqdq0","pricing_plan_id":"cebpf4jnsgd1na2vs0mg"},{"bike_id":"3d98c6ce-e80d-46e8-b577-648cd8c28632","system_id":"levelo_inurba_marseille","lat":43.34699,"lon":5.34741,"is_reserved":false,"is_disabled":true,"rental_uris":{"android":"levelo://app?vid=3d98c6ce-e80d-46e8-b577-648cd8c28632","ios":"levelo://app?vid=3d98c6ce-e80d-46e8-b577-648cd8c28632"},"vehicle_type_id":"4","last_reported":1738177575,"current_range_meters":0,"station_id":"","pricing_plan_id":"cebpf4jnsgd1na2vs0mg"},{"bike_id":"6f98862b-a882-42a8-976d-ac1c45b588e1","system_id":"levelo_inurba_marseille","lat":43.25488,"lon":5.3764,"is_reserved":false,"is_disabled":false,"rental_uris":{"android":"levelo://app?vid=6f98862b-a882-42a8-976d-ac1c45b588e1","ios":"levelo://app?vid=6f98862b-a882-42a8-976d-ac1c45b588e1"},"vehicle_type_id":"4","last_reported":1738177575,"current_range_meters":39200,"station_id":"ce4bhh12rcd13ifvqff0","pricing_plan_id":"cebpf4jnsgd1na2vs0mg"},{"bike_id":"d223a7c8-a47f-45eb-964f-391c66913c07","system_id":"levelo_inurba_marseille","lat":43.3032,"lon":5.40442,"is_reserved":false,"is_disabled":false,"rental_uris":{"android":"levelo://app?vid=d223a7c8-a47f-45eb-964f-391c66913c07","ios":"levelo://app?vid=d223a7c8-a47f-45eb-964f-391c66913c07"},"vehicle_type_id":"4","last_reported":1738177575,"current_range_meters":11600,"station_id":"ce4bh012rcd13ifvqd10","pricing_plan_id":"cebpf4jnsgd1na2vs0mg"},{"bike_id":"a1d06062-ea26-4b8c-a36a-ac911b2faa66","system_id":"levelo_inurba_marseille","lat":43.29261,"lon":5.36853,"is_reserved":false,"is_disabled":false,"rental_uris":{"android":"levelo://app?vid=a1d06062-ea26-4b8c-a36a-ac911b2faa66","ios":"levelo://app?vid=a1d06062-ea26-4b8c-a36a-ac911b2faa66"},"vehicle_type_id":"4","last_reported":1738177575,"current_range_meters":19600,"station_id":"ce4bhbp2rcd13ifvqesg","pricing_plan_id":"cebpf4jnsgd1na2vs0mg"},{"bike_id":"866c52a8-a260-4cb5-8f20-c7c6cf60401b","system_id":"levelo_inurba_marseille","lat":43.30095,"lon":5.39881,"is_reserved":false,"is_disabled":false,"rental_uris":{"android":"levelo://app?vid=866c52a8-a260-4cb5-8f20-c7c6cf60401b","ios":"levelo://app?vid=866c52a8-a260-4cb5-8f20-c7c6cf60401b"},"vehicle_type_id":"4","last_reported":1738177575,"current_range_meters":36000,"station_id":"ce4bh0h2rcd13ifvqd40","pricing_plan_id":"cebpf4jnsgd1na2vs0mg"},{"bike_id":"4cb57573-19b8-44b0-b556-66b13f757585","system_id":"levelo_inurba_marseille","lat":43.28627,"lon":5.35088,"is_reserved":false,"is_disabled":false,"rental_uris":{"android":"levelo://app?vid=4cb57573-19b8-44b0-b556-66b13f757585","ios":"levelo://app?vid=4cb57573-19b8-44b0-b556-66b13f757585"},"vehicle_type_id":"4","last_reported":1738177575,"current_range_meters":36400,"station_id":"ce4bhch2rcd13ifvqeug","pricing_plan_id":"cebpf4jnsgd1na2vs0mg"},