{"last_updated":1775151630,"ttl":60,"version":"2.2","data":{"bikes":[{"bike_id":"0351c064-b05d-45c2-9da9-5f6e70f5aa65","system_id":"levelo_inurba_marseille","lat":43.24169,"lon":5.36398,"is_reserved":false,"is_disabled":false,"rental_uris":{"android":"levelo://app?vid=0351c064-b05d-45c2-9da9-5f6e70f5aa65","ios":"levelo://app?vid=0351c064-b05d-45c2-9da9-5f6e70f5aa65"},"vehicle_type_id":"4","last_reported":1775151630,"current_range_meters":2800,"station_id":"cpo36qri1sfpv3e86is0","pricing_plan_id":"cebpf4jnsgd1na2vs0mg"},{"bike_id":"c49bccd8-1278-4ef4-a747-46f2a7c25563","system_id":"levelo_inurba_marseille","lat":43.24459,"lon":5.42531,"is_reserved":false,"is_disabled":false,"rental_uris":{"android":"levelo://app?vid=c49bccd8-1278-4ef4-a747-46f2a7c25563","ios":"levelo://app?vid=c49bccd8-1278-4ef4-a747-46f2a7c25563"},"vehicle_type_id":"4","last_reported":1775151630,"current_range_meters":2800,"station_id":"st_d4a3vfp97mjs738cd8kg","pricing_plan_id":"cebpf4jnsgd1na2vs0mg"},{"bike_id":"982951ba-d1eb-42d4-bb65-5d98050aa6ef","system_id":"levelo_inurba_marseille","lat":43.28479,"lon":5.48406,"is_reserved":false,"is_disabled":false,"rental_uris":{"android":"levelo://app?vid=982951ba-d1eb-42d4-bb65-5d98050aa6ef","ios":"levelo://app?vid=982951ba-d1eb-42d4-bb65-5d98050aa6ef"},"vehicle_type_id":"4","last_reported":1775151630,"current_range_meters":2800,"station_id":"","pricing_plan_id":"cebpf4jnsgd1na2vs0mg"},{"bike_id":"a582431e-7082-46c4-a07f-c42a4e68ad1b","system_id":"levelo_inurba_marseille","lat":43.26797,"lon":5.39423,"is_reserved":false,"is_disabled":false,"rental_uris":{"android":"levelo://app?vid=a582431e-7082-46c4-a07f-c42a4e68ad1b","ios":"levelo://app?vid=a582431e-7082-46c4-a07f-c42a4e68ad1b"},"vehicle_type_id":"4","last_reported":1775151630,"current_range_meters":2800,"station_id":"ce4bhh12rcd13ifvqfg0","pricing_plan_id":"cebpf4jnsgd1na2vs0mg"},{"bike_id":"3b00fc1e-e36b-481b-a2bc-3dac3c178dbc","system_id":"levelo_inurba_marseille","lat":43.2777,"lon":5.40639,"is_reserved":false,"is_disabled":true,"rental_uris":{"android":"levelo://app?vid=3b00fc1e-e36b-481b-a2bc-3dac3c178dbc","ios":"levelo://app?vid=3b00fc1e-e36b-481b-a2bc-3dac3c178dbc"},"vehicle_type_id":"4","last_reported":1775151630,"current_range_meters":2800,"station_id":"","pricing_plan_id":"cebpf4jnsgd1na2vs0mg"},{"bike_id":"54c2b8bb-7259-470c-a906-fdbbea78bb9c","system_id":"levelo_inurba_marseille","lat":43.28541,"lon":5.44108,"is_reserved":false,"is_disabled":false,"rental_uris":{"android":"levelo://app?vid=54c2b8bb-7259-470c-a906-fdbbea78bb9c","ios":"levelo://app?vid=54c2b8bb-7259-470c-a906-fdbbea78bb9c"},"vehicle_type_id":"4","last_reported":1775151630,"current_range_meters":2800,"station_id":"st_d3j3df2ikq2c7380ej80","pricing_plan_id":"cebpf4jnsgd1na2vs0mg"},{"bike_id":"a00a5098-b101-4d7b-a14f-c286bc96c33a","system_id":"levelo_inurba_marseille","lat":43.25504,"lon":5.37655,"is_reserved":false,"is_disabled":false,"rental_uris":{"android":"levelo://app?vid=a00a5098-b101-4d7b-a14f-c286bc96c33a","ios":"levelo://app?vid=a00a5098-b101-4d7b-a14f-c286bc96c33a"},"vehicle_type_id":"4","last_reported":1775151630,"current_range_meters":2800,"station_id":"ce4bhh12rcd13ifvqff0","pricing_plan_id":"cebpf4jnsgd1na2vs0mg"},{"bike_id":"6c3b2188-ad26-44f1-97bc-4de5c5fe5d74","system_id":"levelo_inurba_marseille","lat":43.28468,"lon":5.48374,"is_reserved":false,"is_disabled":false,"rental_uris":{"android":"levelo://app?vid=6c3b2188-ad26-44f1-97bc-4de5c5fe5d74","ios":"levelo://app?vid=6c3b2188-ad26-44f1-97bc-4de5c5fe5d74"},"vehicle_type_id":"4","last_reported":1775151630,"current_range_meters":2800,"station_id":"","pricing_plan_id":"cebpf4jnsgd1na2vs0mg"},{"bike_id":"a57e3fa4-a8fc-42db-a69f-71dedfdd46e7","system_id":"levelo_inurba_marseille","lat":43.27958,"lon":5.41017,"is_reserved":false,"is_disabled":true,"rental_uris":{"android":"levelo://app?vid=a57e3fa4-a8fc-42db-a69f-71dedfdd46e7","ios":"levelo://app?vid=a57e3fa4-a8fc-42db-a69f-71dedfdd46e7"},"vehicle_type_id":"4","last_reported":1775151630,"current_range_meters":2800,"station_id":"ce4bhnp2rcd13ifvqh0g","pricing_plan_id":"cebpf4jnsgd1na2vs0mg"},{"bike_id":"13939c9a-79c6-408a-92c2-421e5700fa9e","system_id":"levelo_inurba_marseille","lat":43.2842,"lon":5.37538,"is_reserved":false,"is_disabled":false,"rental_uris":{"android":"levelo://app?vid=13939c9a-79c6-408a-92c2-421e5700fa9e","ios":"levelo://app?vid=13939c9a-79c6-408a-92c2-421e5700fa9e"},"vehicle_type_id":"4","last_reported":1775151630,"current_range_meters":2800,"station_id":"ce4bh412rcd13ifvqds0","pricing_plan_id":"cebpf4jnsgd1na2vs0mg"},{"bike_id":"8bf2df37-47ef-433a-9bf0-7bc9cee76a6d","system_id":"levelo_inurba_marseille","lat":43.28927,"lon":5.36421,"is_reserved":false,"is_disabled":false,"rental_uris":{"android":"levelo://app?vid=8bf2df37-47ef-433a-9bf0-7bc9cee76a6d","ios":"levelo://app?vid=8bf2df37-47ef-433a-9bf0-7bc9cee76a6d"},"vehicle_type_id":"4","last_reported":1775151630,"current_range_meters":2800,"station_id":"ce4bhc92rcd13ifvqetg","pricing_plan_id":"cebpf4jnsgd1na2vs0mg"},{"bike_id":"69e98b77-bc93-4093-bef6-701b0cf62a48","system_id":"levelo_inurba_marseille","lat":43.2957,"lon":5.38572,"is_reserved":false,"is_disabled":false,"rental_uris":{"android":"levelo://app?vid=69e98b77-bc93-4093-bef6-701b0cf62a48","ios":"levelo://app?vid=69e98b77-bc93-4093-bef6-701b0cf62a48"},"vehicle_type_id":"4","last_reported":1775151630,"current_range_meters":2800,"station_id":"ce4bgih2rcd13ifvqba0","pricing_plan_id":"cebpf4jnsgd1na2vs0mg"},{"bike_id":"d0a923ac-75da-4205-9bd7-0a004a8fe4f8","system_id":"levelo_inurba_marseille","lat":43.28155,"lon":5.42593,"is_reserved":false,"is_disabled":false,"rental_uris":{"android":"levelo://app?vid=d0a923ac-75da-4205-9bd7-0a004a8fe4f8","ios":"levelo://app?vid=d0a923ac-75da-4205-9bd7-0a004a8fe4f8"},"vehicle_type_id":"4","last_reported":1775151630,"current_range_meters":2800,"station_id":"ce4bhnh2rcd13ifvqgug","pricing_plan_id":"cebpf4jnsgd1na2vs0mg"},{"bike_id":"7a4082f8-e5ad-4ce2-b5de-aacc7c196b4c","system_id":"levelo_inurba_marseille","lat":43.2917,"lon":5.37163,"is_reserved":false,"is_disabled":false,"rental_uris":{"android":"levelo://app?vid=7a4082f8-e5ad-4ce2-b5de-aacc7c196b4c","ios":"levelo://app?vid=7a4082f8-e5ad-4ce2-b5de-aacc7c196b4c"},"vehicle_type_id":"4","last_reported":1775151630,"current_range_meters":2800,"station_id":"ce4bha92rcd13ifvqeh0","pricing_plan_id":"cebpf4jnsgd1na2vs0mg"},{"bike_id":"5964971c-e1ab-416d-a7a5-9fa8eb127283","system_id":"levelo_inurba_marseille","lat":43.24371,"lon":5.43811,"is_reserved":false,"is_disabled":false,"rental_uris":{"android":"levelo://app?vid=5964971c-e1ab-416d-a7a5-9fa8eb127283","ios":"levelo://app?vid=5964971c-e1ab-416d-a7a5-9fa8eb127283"},"vehicle_type_id":"4","last_reported":1775151630,"current_range_meters":2800,"station_id":"","pricing_plan_id":"cebpf4jnsgd1na2vs0mg"},{"bike_id":"0a7fc5c4-47b6-4dc7-b8a8-63d2c60c1bc9","system_id":"levelo_inurba_marseille","lat":43.30925,"lon":5.40146,"is_reserved":false,"is_disabled":false,"rental_uris":{"android":"levelo://app?vid=0a7fc5c4-47b6-4dc7-b8a8-63d2c60c1bc9","ios":"levelo://app?vid=0a7fc5c4-47b6-4dc7-b8a8-63d2c60c1bc9"},"vehicle_type_id":"4","last_reported":1775151630,"current_range_meters":2800,"station_id":"ce4bgvp2rcd13ifvqct0","pricing_plan_id":"cebpf4jnsgd1na2vs0mg"},{"bike_id":"62bf82c9-a7d6-485f-b660-bbbb2d4f54e9","system_id":"levelo_inurba_marseille","lat":43.24392,"lon":5.37055,"is_reserved":false,"is_disabled":false,"rental_uris":{"android":"levelo://app?vid=62bf82c9-a7d6-485f-b660-bbbb2d4f54e9","ios":"levelo://app?vid=62bf82c9-a7d6-485f-b660-bbbb2d4f54e9"},"vehicle_type_id":"4","last_reported":1775151630,"current_range_meters":3200,"station_id":"ce4bhhh2rcd13ifvqfk0","pricing_plan_id":"cebpf4jnsgd1na2vs0mg"},{"bike_id":"b9a2dc0a-a78c-4ec1-b214-1ebc47ea2ab0","system_id":"levelo_inurba_marseille","lat":43.22548,"lon":5.41646,"is_reserved":false,"is_disabled":false,"rental_uris":{"android":"levelo://app?vid=b9a2dc0a-a78c-4ec1-b214-1ebc47ea2ab0","ios":"levelo://app?vid=b9a2dc0a-a78c-4ec1-b214-1ebc47ea2ab0"},"vehicle_type_id":"4","last_reported":1775151630,"current_range_meters":3200,"station_id":"st_d2o4gvlbi1j2169b742g","pricing_plan_id":"cebpf4jnsgd1na2vs0mg"},{"bike_id":"9e9ca659-8226-4e81-96f1-048e09530c8d","system_id":"levelo_inurba_marseille","lat":43.28941,"lon":5.38412,"is_reserved":false,"is_disabled":true,"rental_uris":{"android":"levelo://app?vid=9e9ca659-8226-4e81-96f1-048e09530c8d","ios":"levelo://app?vid=9e9ca659-8226-4e81-96f1-048e09530c8d"},"vehicle_type_id":"4","last_reported":1775151630,"current_range_meters":3200,"station_id":"ce4bh612rcd13ifvqe6g","pricing_plan_id":"cebpf4jnsgd1na2vs0mg"},{"bike_id":"26854858-9bf6-46b0-859c-3dcf957b5bb2","system_id":"levelo_inurba_marseille","lat":43.29195,"lon":5.35807,"is_reserved":false,"is_disabled":false,"rental_uris":{"android":"levelo://app?vid=26854858-9bf6-46b0-859c-3dcf957b5bb2","ios":"levelo://app?vid=26854858-9bf6-46b0-859c-3dcf957b5bb2"},"vehicle_type_id":"4","last_reported":1775151630,"current_range_meters":3200,"station_id":"ce4bhb12rcd13ifvqel0","pricing_plan_id":"cebpf4jnsgd1na2vs0mg"},{"bike_id":"7b9afc77-0e17-48ba-b360-a407675726ad","system_id":"levelo_inurba_marseille","lat":43.28857,"lon":5.42507,"is_reserved":false,"is_disabled":false,"rental_uris":{"android":"levelo://app?vid=7b9afc77-0e17-48ba-b360-a407675726ad","ios":"levelo://app?vid=7b9afc77-0e17-48ba-b360-a407675726ad"},"vehicle_type_id":"4","last_reported":1775151630,"current_range_meters":3200,"station_id":"st_d3b462108ojc7389ooeg","pricing_plan_id":"cebpf4jnsgd1na2vs0mg"},{"bike_id":"d41d5ff3-651c-4e70-8a12-e8a105b53c64","system_id":"levelo_inurba_marseille","lat":43.31558,"lon":5.44554,"is_reserved":false,"is_disabled":false,"rental_uris":{"android":"levelo://app?vid=d41d5ff3-651c-4e70-8a12-e8a105b53c64","ios":"levelo://app?vid=d41d5ff3-651c-4e70-8a12-e8a105b53c64"},"vehicle_type_id":"4","last_reported":1775151630,"current_range_meters":3200,"station_id":"","pricing_plan_id":"cebpf4jnsgd1na2vs0mg"},{"bike_id":"4be13dd8-6481-4bb7-826e-fda5d42a03d7","system_id":"levelo_inurba_marseille","lat":43.30184,"lon":5.36614,"is_reserved":false,"is_disabled":false,"rental_uris":{"android":"levelo://app?vid=4be13dd8-6481-4bb7-826e-fda5d42a03d7","ios":"levelo://app?vid=4be13dd8-6481-4bb7-826e-fda5d42a03d7"},"vehicle_type_id":"4","last_reported":1775151630,"current_range_meters":3200,"station_id":"ce4bgrh2rcd13ifvqc8g","pricing_plan_id":"cebpf4jnsgd1na2vs0mg"},{"bike_id":"c3dd942b-ed47-4c44-b470-aae5bc4c42ff","system_id":"levelo_inurba_marseille","lat":43.30887,"lon":5.39654,"is_reserved":false,"is_disabled":false,"rental_uris":{"android":"levelo://app?vid=c3dd942b-ed47-4c44-b470-aae5bc4c42ff","ios":"levelo://app?vid=c3dd942b-ed47-4c44-b470-aae5bc4c42ff"},"vehicle_type_id":"4","last_reported":1775151630,"current_range_meters":3200,"station_id":"ce4bh012rcd13ifvqcv0","pricing_plan_id":"cebpf4jnsgd1na2vs0mg"},{"bike_id":"de95d207-e4d6-4617-9c91-bef25a3ae988","system_id":"levelo_inurba_marseille","lat":43.29091,"lon":5.37189,"is_reserved":false,"is_disabled":false,"rental_uris":{"android":"levelo://app?vid=de95d207-e4d6-4617-9c91-bef25a3ae988","ios":"levelo://app?vid=de95d207-e4d6-4617-9c91-bef25a3ae988"},"vehicle_type_id":"4","last_reported":1775151630,"current_range_meters":3200,"station_id":"ce4bh5p2rcd13ifvqe4g","pricing_plan_id":"cebpf4jnsgd1na2vs0mg"},{"bike_id":"bed085cd-e643-4cf8-a83c-4e3f37218df7","system_id":"levelo_inurba_marseille","lat":43.23129,"lon":5.40196,"is_reserved":false,"is_disabled":false,"rental_uris":{"android":"levelo://app?vid=bed085cd-e643-4cf8-a83c-4e3f37218df7","ios":"levelo://app?vid=bed085cd-e643-4cf8-a83c-4e3f37218df7"},"vehicle_type_id":"4","last_reported":1775151630,"current_range_meters":3200,"station_id":"","pricing_plan_id":"cebpf4jnsgd1na2vs0mg"},{"bike_id":"c1cfedb7-b7c8-4dc4-9a0e-5fe22bb30e9e","system_id":"levelo_inurba_marseille","lat":43.30463,"lon":5.37913,"is_reserved":false,"is_disabled":false,"rental_uris":{"android":"levelo://app?vid=c1cfedb7-b7c8-4dc4-9a0e-5fe22bb30e9e","ios":"levelo://app?vid=c1cfedb7-b7c8-4dc4-9a0e-5fe22bb30e9e"},"vehicle_type_id":"4","last_reported":1775151630,"current_range_meters":3200,"station_id":"ce4bgup2rcd13ifvqcn0","pricing_plan_id":"cebpf4jnsgd1na2vs0mg"},{"bike_id":"2c78b9d7-6797-4c09-ad87-2e1c14443b34","system_id":"levelo_inurba_marseille","lat":43.28568,"lon":5.42936,"is_reserved":false,"is_disabled":false,"rental_uris":{"android":"levelo://app?vid=2c78b9d7-6797-4c09-ad87-2e1c14443b34","ios":"levelo://app?vid=2c78b9d7-6797-4c09-ad87-2e1c14443b34"},"vehicle_type_id":"4","last_reported":1775151630,"current_range_meters":3200,"station_id":"","pricing_plan_id":"cebpf4jnsgd1na2vs0mg"},{"bike_id":"1bee42d7-78ba-47e3-bd58-92d1cc350b3e","system_id":"levelo_inurba_marseille","lat":43.30065,"lon":5.3909,"is_reserved":false,"is_disabled":false,"rental_uris":{"android":"levelo://app?vid=1bee42d7-78ba-47e3-bd58-92d1cc350b3e","ios":"levelo://app?vid=1bee42d7-78ba-47e3-bd58-92d1cc350b3e"},"vehicle_type_id":"4","last_reported":1775151630,"current_range_meters":3200,"station_id":"ce4bh192rcd13ifvqdb0","pricing_plan_id":"cebpf4jnsgd1na2vs0mg"},{"bike_id":"2d883dd2-f192-477e-8933-6971b8ddee01","system_id":"levelo_inurba_marseille","lat":43.29985,"lon":5.37181,"is_reserved":false,"is_disabled":false,"rental_uris":{"android":"levelo://app?vid=2d883dd2-f192-477e-8933-6971b8ddee01","ios":"levelo://app?vid=2d883dd2-f192-477e-8933-6971b8ddee01"},"vehicle_type_id":"4","last_reported":1775151630,"current_range_meters":3600,"station_id":"ce4bgr92rcd13ifvqc7g","pricing_plan_id":"cebpf4jnsgd1na2vs0mg"},{"bike_id":"dbafccf7-0909-44bd-86f0-abe7aa0ed694","system_id":"levelo_inurba_marseille","lat":43.29376,"lon":5.43924,"is_reserved":false,"is_disabled":false,"rental_uris":{"android":"levelo://app?vid=dbafccf7-0909-44bd-86f0-abe7aa0ed694","ios":"levelo://app?vid=dbafccf7-0909-44bd-86f0-abe7aa0ed694"},"vehicle_type_id":"4","last_reported":1775151630,"current_range_meters":3600,"station_id":"","pricing_plan_id":"cebpf4jnsgd1na2vs0mg"},{"bike_id":"0b6c6387-d8b6-4bb8-b04c-d84bf5bfe001","system_id":"levelo_inurba_marseille","lat":43.31357,"lon":5.385,"is_reserved":false,"is_disabled":false,"rental_uris":{"android":"levelo://app?vid=0b6c6387-d8b6-4bb8-b04c-d84bf5bfe001","ios":"levelo://app?vid=0b6c6387-d8b6-4bb8-b04c-d84bf5bfe001"},"vehicle_type_id":"4","last_reported":1775151630,"current_range_meters":3600,"station_id":"ce4bgt92rcd13ifvqcf0","pricing_plan_id":"cebpf4jnsgd1na2vs0mg"},{"bike_id":"ffde6a95-5dec-426a-943f-3ce4b714e7dc","system_id":"levelo_inurba_marseille","lat":43.21766,"lon":5.34606,"is_reserved":false,"is_disabled":false,"rental_uris":{"android":"levelo://app?vid=ffde6a95-5dec-426a-943f-3ce4b714e7dc","ios":"levelo://app?vid=ffde6a95-5dec-426a-943f-3ce4b714e7dc"},"vehicle_type_id":"4","last_reported":1775151630,"current_range_meters":3600,"station_id":"st_cvj6r9ubvosntc0bgbag","pricing_plan_id":"cebpf4jnsgd1na2vs0mg"},{"bike_id":"e4956c66-fba0-45d5-a7d2-90ca01f34637","system_id":"levelo_inurba_marseille","lat":43.2174,"lon":5.34614,"is_reserved":false,"is_disabled":false,"rental_uris":{"android":"levelo://app?vid=e4956c66-fba0-45d5-a7d2-90ca01f34637","ios":"levelo://app?vid=e4956c66-fba0-45d5-a7d2-90ca01f34637"},"vehicle_type_id":"4","last_reported":1775151630,"current_range_meters":3600,"station_id":"st_cvj6r9ubvosntc0bgbag","pricing_plan_id":"cebpf4jnsgd1na2vs0mg"},{"bike_id":"68945dd7-fcc7-4d4c-a459-6c84a8a17358","system_id":"levelo_inurba_marseille","lat":43.23967,"lon":5.36663,"is_reserved":false,"is_disabled":false,"rental_uris":{"android":"levelo://app?vid=68945dd7-fcc7-4d4c-a459-6c84a8a17358","ios":"levelo://app?vid=68945dd7-fcc7-4d4c-a459-6c84a8a17358"},"vehicle_type_id":"4","last_reported":1775151630,"current_range_meters":3600,"station_id":"ce4bhi12rcd13ifvqfp0","pricing_plan_id":"cebpf4jnsgd1na2vs0mg"},{"bike_id":"da46a4c6-14ff-4547-851e-67aeaa7cd5b0","system_id":"levelo_inurba_marseille","lat":43.2485,"lon":5.37474,"is_reserved":false,"is_disabled":false,"rental_uris":{"android":"levelo://app?vid=da46a4c6-14ff-4547-851e-67aeaa7cd5b0","ios":"levelo://app?vid=da46a4c6-14ff-4547-851e-67aeaa7cd5b0"},"vehicle_type_id":"4","last_reported":1775151630,"current_range_meters":3600,"station_id":"","pricing_plan_id":"cebpf4jnsgd1na2vs0mg"},{"bike_id":"01600ae5-4d21-46ff-aa6a-11289a782c25","system_id":"levelo_inurba_marseille","lat":43.29513,"lon":5.3855,"is_reserved":false,"is_disabled":false,"rental_uris":{"android":"levelo://app?vid=01600ae5-4d21-46ff-aa6a-11289a782c25","ios":"levelo://app?vid=01600ae5-4d21-46ff-aa6a-11289a782c25"},"vehicle_type_id":"4","last_reported":1775151630,"current_range_meters":3600,"station_id":"ce4bgih2rcd13ifvqba0","pricing_plan_id":"cebpf4jnsgd1na2vs0mg"},{"bike_id":"a17dbbf9-2919-4aa7-a6bc-4d101b9dc30c","system_id":"levelo_inurba_marseille","lat":43.27509,"lon":5.40989,"is_reserved":false,"is_disabled":false,"rental_uris":{"android":"levelo://app?vid=a17dbbf9-2919-4aa7-a6bc-4d101b9dc30c","ios":"levelo://app?vid=a17dbbf9-2919-4aa7-a6bc-4d101b9dc30c"},"vehicle_type_id":"4","last_reported":1775151630,"current_range_meters":3600,"station_id":"","pricing_plan_id":"cebpf4jnsgd1na2vs0mg"},{"bike_id":"dae6d6f6-6be3-496a-8ad6-83e992e007a3","system_id":"levelo_inurba_marseille","lat":43.28277,"lon":5.35065,"is_reserved":false,"is_disabled":false,"rental_uris":{"android":"levelo://app?vid=dae6d6f6-6be3-496a-8ad6-83e992e007a3","ios":"levelo://app?vid=dae6d6f6-6be3-496a-8ad6-83e992e007a3"},"vehicle_type_id":"4","last_reported":1775151630,"current_range_meters":3600,"station_id":"ce4bhbp2rcd13ifvqerg","pricing_plan_id":"cebpf4jnsgd1na2vs0mg"},{"bike_id":"de826667-86cb-4e1f-86ad-b452c185d727","system_id":"levelo_inurba_marseille","lat":43.24808,"lon":5.37467,"is_reserved":false,"is_disabled":false,"rental_uris":{"android":"levelo://app?vid=de826667-86cb-4e1f-86ad-b452c185d727","ios":"levelo://app?vid=de826667-86cb-4e1f-86ad-b452c185d727"},"vehicle_type_id":"4","last_reported":1775151630,"current_range_meters":3600,"station_id":"ce4bhgh2rcd13ifvqfb0","pricing_plan_id":"cebpf4jnsgd1na2vs0mg"},{"bike_id":"8fb9e70a-d53a-4c20-b876-abede3bacb0d","system_id":"levelo_inurba_marseille","lat":43.29267,"lon":5.38453,"is_reserved":false,"is_disabled":false,"rental_uris":{"android":"levelo://app?vid=8fb9e70a-d53a-4c20-b876-abede3bacb0d","ios":"levelo://app?vid=8fb9e70a-d53a-4c20-b876-abede3bacb0d"},"vehicle_type_id":"4","last_reported":1775151630,"current_range_meters":3600,"station_id":"ce4bh692rcd13ifvqea0","pricing_plan_id":"cebpf4jnsgd1na2vs0mg"},{"bike_id":"aff3a8f4-453b-4c1e-bf21-fe08f5991bb0","system_id":"levelo_inurba_marseille","lat":43.29511,"lon":5.39403,"is_reserved":false,"is_disabled":false,"rental_uris":{"android":"levelo://app?vid=aff3a8f4-453b-4c1e-bf21-fe08f5991bb0","ios":"levelo://app?vid=aff3a8f4-453b-4c1e-bf21-fe08f5991bb0"},"vehicle_type_id":"4","last_reported":1775151630,"current_range_meters":3600,"station_id":"ce4bh292rcd13ifvqdf0","pricing_plan_id":"cebpf4jnsgd1na2vs0mg"},{"bike_id":"a97bb5fc-a1de-4358-bea3-8b9d363fa9b3","system_id":"levelo_inurba_marseille","lat":43.23807,"lon":5.36631,"is_reserved":false,"is_disabled":false,"rental_uris":{"android":"levelo://app?vid=a97bb5fc-a1de-4358-bea3-8b9d363fa9b3","ios":"levelo://app?vid=a97bb5fc-a1de-4358-bea3-8b9d363fa9b3"},"vehicle_type_id":"4","last_reported":1775151630,"current_range_meters":3600,"station_id":"st_d3nk18o9ro0c73en2l3g","pricing_plan_id":"cebpf4jnsgd1na2vs0mg"},{"bike_id":"c267eaf3-200a-4a1c-8074-fa1f1a8154c6","system_id":"levelo_inurba_marseille","lat":43.2174,"lon":5.34616,"is_reserved":false,"is_disabled":false,"rental_uris":{"android":"levelo://app?vid=c267eaf3-200a-4a1c-8074-fa1f1a8154c6","ios":"levelo://app?vid=c267eaf3-200a-4a1c-8074-fa1f1a8154c6"},"vehicle_type_id":"4","last_reported":1775151630,"current_range_meters":3600,"station_id":"st_cvj6r9ubvosntc0bgbag","pricing_plan_id":"cebpf4jnsgd1na2vs0mg"},{"bike_id":"1b89f2e1-0726-4a0a-ba7f-f4397fe41860","system_id":"levelo_inurba_marseille","lat":43.28624,"lon":5.38347,"is_reserved":false,"is_disabled":false,"rental_uris":{"android":"levelo://app?vid=1b89f2e1-0726-4a0a-ba7f-f4397fe41860","ios":"levelo://app?vid=1b89f2e1-0726-4a0a-ba7f-f4397fe41860"},"vehicle_type_id":"4","last_reported":1775151630,"current_range_meters":4000,"station_id":"","pricing_plan_id":"cebpf4jnsgd1na2vs0mg"},{"bike_id":"02fb68b9-c93a-47eb-8a33-25b94990a43a","system_id":"levelo_inurba_marseille","lat":43.25942,"lon":5.40929,"is_reserved":false,"is_disabled":false,"rental_uris":{"android":"levelo://app?vid=02fb68b9-c93a-47eb-8a33-25b94990a43a","ios":"levelo://app?vid=02fb68b9-c93a-47eb-8a33-25b94990a43a"},"vehicle_type_id":"4","last_reported":1775151630,"current_range_meters":4000,"station_id":"ce4bhm92rcd13ifvqglg","pricing_plan_id":"cebpf4jnsgd1na2vs0mg"},{"bike_id":"0da2cdd4-4395-4a48-b72d-e1ab5cca69fd","system_id":"levelo_inurba_marseille","lat":43.286149,"lon":5.351105,"is_reserved":false,"is_disabled":false,"rental_uris":{"android":"levelo://app?vid=0da2cdd4-4395-4a48-b72d-e1ab5cca69fd","ios":"levelo://app?vid=0da2cdd4-4395-4a48-b72d-e1ab5cca69fd"},"vehicle_type_id":"4","last_reported":1775151630,"current_range_meters":4000,"station_id":"ce4bhch2rcd13ifvqeug","pricing_plan_id":"cebpf4jnsgd1na2vs0mg"},{"bike_id":"d17c948a-67bf-41a5-a679-93280cb2daee","system_id":"levelo_inurba_marseille","lat":43.21197,"lon":5.35072,"is_reserved":false,"is_disabled":false,"rental_uris":{"android":"levelo://app?vid=d17c948a-67bf-41a5-a679-93280cb2daee","ios":"levelo://app?vid=d17c948a-67bf-41a5-a679-93280cb2daee"},"vehicle_type_id":"4","last_reported":1775151630,"current_range_meters":4000,"station_id":"st_cvj6sg6p6f1abm77japg","pricing_plan_id":"cebpf4jnsgd1na2vs0mg"},{"bike_id":"8a25ad46-e8e9-44a3-bc60-49fdfc963e07","system_id":"levelo_inurba_marseille","lat":43.287033,"lon":5.373824,"is_reserved":false,"is_disabled":false,"rental_uris":{"android":"levelo://app?vid=8a25ad46-e8e9-44a3-bc60-49fdfc963e07","ios":"levelo://app?vid=8a25ad46-e8e9-44a3-bc60-49fdfc963e07"},"vehicle_type_id":"4","last_reported":1775151630,"current_range_meters":4000,"station_id":"ce4bh3p2rcd13ifvqdq0","pricing_plan_id":"cebpf4jnsgd1na2vs0mg"},{"bike_id":"28902c85-2ce9-4ec9-adfe-51cf4064fa09","system_id":"levelo_inurba_marseille","lat":43.28443,"lon":5.39196,"is_reserved":false,"is_disabled":true,"rental_uris":{"android":"levelo://app?vid=28902c85-2ce9-4ec9-adfe-51cf4064fa09","ios":"levelo://app?vid=28902c85-2ce9-4ec9-adfe-51cf4064fa09"},"vehicle_type_id":"4","last_reported":1775151630,"current_range_meters":4000,"station_id":"ce4bhoh2rcd13ifvqh5g","pricing_plan_id":"cebpf4jnsgd1na2vs0mg"},{"bike_id":"f85c7c11-af91-47dc-9afe-a857e6209187","system_id":"levelo_inurba_marseille","lat":43.2623,"lon":5.40456,"is_reserved":false,"is_disabled":false,"rental_uris":{"android":"levelo://app?vid=f85c7c11-af91-47dc-9afe-a857e6209187","ios":"levelo://app?vid=f85c7c11-af91-47dc-9afe-a857e6209187"},"vehicle_type_id":"4","last_reported":1775151630,"current_range_meters":4000,"station_id":"ce4bhmh2rcd13ifvqgmg","pricing_plan_id":"cebpf4jnsgd1na2vs0mg"},{"bike_id":"32bbc785-7878-457c-9b63-c753cac045af","system_id":"levelo_inurba_marseille","lat":43.2174,"lon":5.34605,"is_reserved":false,"is_disabled":false,"rental_uris":{"android":"levelo://app?vid=32bbc785-7878-457c-9b63-c753cac045af","ios":"levelo://app?vid=32bbc785-7878-457c-9b63-c753cac045af"},"vehicle_type_id":"4","last_reported":1775151630,"current_range_meters":4000,"station_id":"st_cvj6r9ubvosntc0bgbag","pricing_plan_id":"cebpf4jnsgd1na2vs0mg"},{"bike_id":"6a3d94dd-5ab8-46ef-b0f6-3c30b4d2f944","system_id":"levelo_inurba_marseille","lat":43.2836,"lon":5.38649,"is_reserved":false,"is_disabled":false,"rental_uris":{"android":"levelo://app?vid=6a3d94dd-5ab8-46ef-b0f6-3c30b4d2f944","ios":"levelo://app?vid=6a3d94dd-5ab8-46ef-b0f6-3c30b4d2f944"},"vehicle_type_id":"4","last_reported":1775151630,"current_range_meters":4000,"station_id":"ce4bh492rcd13ifvqdvg","pricing_plan_id":"cebpf4jnsgd1na2vs0mg"},{"bike_id":"a472adc9-add7-4d12-838a-2acaf7533403","system_id":"levelo_inurba_marseille","lat":43.28118,"lon":5.37871,"is_reserved":false,"is_disabled":false,"rental_uris":{"android":"levelo://app?vid=a472adc9-add7-4d12-838a-2acaf7533403","ios":"levelo://app?vid=a472adc9-add7-4d12-838a-2acaf7533403"},"vehicle_type_id":"4","last_reported":1775151630,"current_range_meters":4000,"station_id":"ce4bha12rcd13ifvqee0","pricing_plan_id":"cebpf4jnsgd1na2vs0mg"},{"bike_id":"1bdbf982-d656-4173-91b1-d3055e78d6cd","system_id":"levelo_inurba_marseille","lat":43.22583,"lon":5.41642,"is_reserved":false,"is_disabled":false,"rental_uris":{"android":"levelo://app?vid=1bdbf982-d656-4173-91b1-d3055e78d6cd","ios":"levelo://app?vid=1bdbf982-d656-4173-91b1-d3055e78d6cd"},"vehicle_type_id":"4","last_reported":1775151630,"current_range_meters":4000,"station_id":"st_d2o4gvlbi1j2169b742g","pricing_plan_id":"cebpf4jnsgd1na2vs0mg"},{"bike_id":"7c3c48ba-5d7d-471c-8c9e-242914b33f6d","system_id":"levelo_inurba_marseille","lat":43.29535,"lon":5.37514,"is_reserved":false,"is_disabled":false,"rental_uris":{"android":"levelo://app?vid=7c3c48ba-5d7d-471c-8c9e-242914b33f6d","ios":"levelo://app?vid=7c3c48ba-5d7d-471c-8c9e-242914b33f6d"},"vehicle_type_id":"4","last_reported":1775151630,"current_range_meters":4000,"station_id":"ce4bgkp2rcd13ifvqbmg","pricing_plan_id":"cebpf4jnsgd1na2vs0mg"},{"bike_id":"4a9a41a6-553c-42b4-9a76-1207b16dcd78","system_id":"levelo_inurba_marseille","lat":43.33541,"lon":5.37474,"is_reserved":false,"is_disabled":false,"rental_uris":{"android":"levelo://app?vid=4a9a41a6-553c-42b4-9a76-1207b16dcd78","ios":"levelo://app?vid=4a9a41a6-553c-42b4-9a76-1207b16dcd78"},"vehicle_type_id":"4","last_reported":1775151630,"current_range_meters":4000,"station_id":"st_d46tts09ee8s73dlu43g","pricing_plan_id":"cebpf4jnsgd1na2vs0mg"},{"bike_id":"6c90a45f-963e-4e93-b3d7-fd93151c2238","system_id":"levelo_inurba_marseille","lat":43.29516,"lon":5.39399,"is_reserved":false,"is_disabled":false,"rental_uris":{"android":"levelo://app?vid=6c90a45f-963e-4e93-b3d7-fd93151c2238","ios":"levelo://app?vid=6c90a45f-963e-4e93-b3d7-fd93151c2238"},"vehicle_type_id":"4","last_reported":1775151630,"current_range_meters":4000,"station_id":"ce4bh292rcd13ifvqdf0","pricing_plan_id":"cebpf4jnsgd1na2vs0mg"},{"bike_id":"ef8d4fc8-6bc3-4a9f-a476-2d23d9d29968","system_id":"levelo_inurba_marseille","lat":43.29268,"lon":5.40102,"is_reserved":false,"is_disabled":true,"rental_uris":{"android":"levelo://app?vid=ef8d4fc8-6bc3-4a9f-a476-2d23d9d29968","ios":"levelo://app?vid=ef8d4fc8-6bc3-4a9f-a476-2d23d9d29968"},"vehicle_type_id":"4","last_reported":1775151630,"current_range_meters":4000,"station_id":"ce4bh312rcd13ifvqdk0","pricing_plan_id":"cebpf4jnsgd1na2vs0mg"},{"bike_id":"78151f0b-d096-4bc8-9d04-f28fec21246f","system_id":"levelo_inurba_marseille","lat":43.23186,"lon":5.39993,"is_reserved":false,"is_disabled":false,"rental_uris":{"android":"levelo://app?vid=78151f0b-d096-4bc8-9d04-f28fec21246f","ios":"levelo://app?vid=78151f0b-d096-4bc8-9d04-f28fec21246f"},"vehicle_type_id":"4","last_reported":1775151630,"current_range_meters":4400,"station_id":"ce4bhn12rcd13ifvqgqg","pricing_plan_id":"cebpf4jnsgd1na2vs0mg"},{"bike_id":"a877f7d8-cc46-418d-ad17-8c7c7864ae28","system_id":"levelo_inurba_marseille","lat":43.248879,"lon":5.386622,"is_reserved":false,"is_disabled":false,"rental_uris":{"android":"levelo://app?vid=a877f7d8-cc46-418d-ad17-8c7c7864ae28","ios":"levelo://app?vid=a877f7d8-cc46-418d-ad17-8c7c7864ae28"},"vehicle_type_id":"4","last_reported":1775151630,"current_range_meters":4400,"station_id":"ce4bhgp2rcd13ifvqfd0","pricing_plan_id":"cebpf4jnsgd1na2vs0mg"},{"bike_id":"fdce3c9f-b92d-420e-8b6d-717608afcf70","system_id":"levelo_inurba_marseille","lat":43.29267,"lon":5.37637,"is_reserved":false,"is_disabled":false,"rental_uris":{"android":"levelo://app?vid=fdce3c9f-b92d-420e-8b6d-717608afcf70","ios":"levelo://app?vid=fdce3c9f-b92d-420e-8b6d-717608afcf70"},"vehicle_type_id":"4","last_reported":1775151630,"current_range_meters":4400,"station_id":"ce4bgi12rcd13ifvqb80","pricing_plan_id":"cebpf4jnsgd1na2vs0mg"},{"bike_id":"87e1bf50-e432-4940-b9d8-3c0a254d9927","system_id":"levelo_inurba_marseille","lat":43.29275,"lon":5.3845,"is_reserved":false,"is_disabled":false,"rental_uris":{"android":"levelo://app?vid=87e1bf50-e432-4940-b9d8-3c0a254d9927","ios":"levelo://app?vid=87e1bf50-e432-4940-b9d8-3c0a254d9927"},"vehicle_type_id":"4","last_reported":1775151630,"current_range_meters":4400,"station_id":"ce4bh692rcd13ifvqea0","pricing_plan_id":"cebpf4jnsgd1na2vs0mg"},{"bike_id":"4b3c825a-c5e6-42c6-af30-700063fa913d","system_id":"levelo_inurba_marseille","lat":43.25981,"lon":5.37596,"is_reserved":false,"is_disabled":true,"rental_uris":{"android":"levelo://app?vid=4b3c825a-c5e6-42c6-af30-700063fa913d","ios":"levelo://app?vid=4b3c825a-c5e6-42c6-af30-700063fa913d"},"vehicle_type_id":"4","last_reported":1775151630,"current_range_meters":4400,"station_id":"","pricing_plan_id":"cebpf4jnsgd1na2vs0mg"},{"bike_id":"17b8fc26-3ba8-4cf9-a457-0b2cc0ec871e","system_id":"levelo_inurba_marseille","lat":43.27482,"lon":5.41679,"is_reserved":false,"is_disabled":false,"rental_uris":{"android":"levelo://app?vid=17b8fc26-3ba8-4cf9-a457-0b2cc0ec871e","ios":"levelo://app?vid=17b8fc26-3ba8-4cf9-a457-0b2cc0ec871e"},"vehicle_type_id":"4","last_reported":1775151630,"current_range_meters":4400,"station_id":"","pricing_plan_id":"cebpf4jnsgd1na2vs0mg"},{"bike_id":"e9b3f906-3c96-41d2-bde3-70019147dd95","system_id":"levelo_inurba_marseille","lat":43.2256,"lon":5.41636,"is_reserved":false,"is_disabled":false,"rental_uris":{"android":"levelo://app?vid=e9b3f906-3c96-41d2-bde3-70019147dd95","ios":"levelo://app?vid=e9b3f906-3c96-41d2-bde3-70019147dd95"},"vehicle_type_id":"4","last_reported":1775151630,"current_range_meters":4400,"station_id":"st_d2o4gvlbi1j2169b742g","pricing_plan_id":"cebpf4jnsgd1na2vs0mg"},{"bike_id":"3f05b0a9-4e41-48f2-9398-997860208415","system_id":"levelo_inurba_marseille","lat":43.30436,"lon":5.39742,"is_reserved":false,"is_disabled":false,"rental_uris":{"android":"levelo://app?vid=3f05b0a9-4e41-48f2-9398-997860208415","ios":"levelo://app?vid=3f05b0a9-4e41-48f2-9398-997860208415"},"vehicle_type_id":"4","last_reported":1775151630,"current_range_meters":4400,"station_id":"ce4bh092rcd13ifvqd20","pricing_plan_id":"cebpf4jnsgd1na2vs0mg"},{"bike_id":"2b176618-2114-4a94-bc43-fa6914887efb","system_id":"levelo_inurba_marseille","lat":43.33641,"lon":5.3744,"is_reserved":false,"is_disabled":false,"rental_uris":{"android":"levelo://app?vid=2b176618-2114-4a94-bc43-fa6914887efb","ios":"levelo://app?vid=2b176618-2114-4a94-bc43-fa6914887efb"},"vehicle_type_id":"4","last_reported":1775151630,"current_range_meters":4400,"station_id":"st_d46tts09ee8s73dlu43g","pricing_plan_id":"cebpf4jnsgd1na2vs0mg"},{"bike_id":"052f68eb-b3d2-4c29-a99d-37f9d3e34be6","system_id":"levelo_inurba_marseille","lat":43.24872,"lon":5.42667,"is_reserved":false,"is_disabled":false,"rental_uris":{"android":"levelo://app?vid=052f68eb-b3d2-4c29-a99d-37f9d3e34be6","ios":"levelo://app?vid=052f68eb-b3d2-4c29-a99d-37f9d3e34be6"},"vehicle_type_id":"4","last_reported":1775151630,"current_range_meters":4400,"station_id":"","pricing_plan_id":"cebpf4jnsgd1na2vs0mg"},{"bike_id":"751823b1-fecf-476f-a14d-b22ea92d3e4c","system_id":"levelo_inurba_marseille","lat":43.29108,"lon":5.4258,"is_reserved":false,"is_disabled":false,"rental_uris":{"android":"levelo://app?vid=751823b1-fecf-476f-a14d-b22ea92d3e4c","ios":"levelo://app?vid=751823b1-fecf-476f-a14d-b22ea92d3e4c"},"vehicle_type_id":"4","last_reported":1775151630,"current_range_meters":4400,"station_id":"","pricing_plan_id":"cebpf4jnsgd1na2vs0mg"},{"bike_id":"55ea869a-4e87-4404-9239-9f345ba0b528","system_id":"levelo_inurba_marseille","lat":43.28498,"lon":5.38576,"is_reserved":false,"is_disabled":false,"rental_uris":{"android":"levelo://app?vid=55ea869a-4e87-4404-9239-9f345ba0b528","ios":"levelo://app?vid=55ea869a-4e87-4404-9239-9f345ba0b528"},"vehicle_type_id":"4","last_reported":1775151630,"current_range_meters":4400,"station_id":"ce4bh8p2rcd13ifvqeb0","pricing_plan_id":"cebpf4jnsgd1na2vs0mg"},{"bike_id":"22376a81-6d03-432a-809a-be051d22bfa4","system_id":"levelo_inurba_marseille","lat":43.30547,"lon":5.38424,"is_reserved":false,"is_disabled":false,"rental_uris":{"android":"levelo://app?vid=22376a81-6d03-432a-809a-be051d22bfa4","ios":"levelo://app?vid=22376a81-6d03-432a-809a-be051d22bfa4"},"vehicle_type_id":"4","last_reported":1775151630,"current_range_meters":4400,"station_id":"ce4bgg92rcd13ifvqb30","pricing_plan_id":"cebpf4jnsgd1na2vs0mg"},{"bike_id":"fa52ce35-6ea9-4f46-bfd2-c8715437ce36","system_id":"levelo_inurba_marseille","lat":43.31049,"lon":5.37125,"is_reserved":false,"is_disabled":false,"rental_uris":{"android":"levelo://app?vid=fa52ce35-6ea9-4f46-bfd2-c8715437ce36","ios":"levelo://app?vid=fa52ce35-6ea9-4f46-bfd2-c8715437ce36"},"vehicle_type_id":"4","last_reported":1775151630,"current_range_meters":4800,"station_id":"st_d4kl2rp97mjs73e7tdfg","pricing_plan_id":"cebpf4jnsgd1na2vs0mg"},{"bike_id":"b0c7af6e-3d0b-4ab3-b18f-a89f14a0ad41","system_id":"levelo_inurba_marseille","lat":43.21193,"lon":5.35077,"is_reserved":false,"is_disabled":false,"rental_uris":{"android":"levelo://app?vid=b0c7af6e-3d0b-4ab3-b18f-a89f14a0ad41","ios":"levelo://app?vid=b0c7af6e-3d0b-4ab3-b18f-a89f14a0ad41"},"vehicle_type_id":"4","last_reported":1775151630,"current_range_meters":4800,"station_id":"st_cvj6sg6p6f1abm77japg","pricing_plan_id":"cebpf4jnsgd1na2vs0mg"},{"bike_id":"b97544d4-fc20-4746-a137-2d69f3584b87","system_id":"levelo_inurba_marseille","lat":43.22488,"lon":5.34839,"is_reserved":false,"is_disabled":false,"rental_uris":{"android":"levelo://app?vid=b97544d4-fc20-4746-a137-2d69f3584b87","ios":"levelo://app?vid=b97544d4-fc20-4746-a137-2d69f3584b87"},"vehicle_type_id":"4","last_reported":1775151630,"current_range_meters":4800,"station_id":"","pricing_plan_id":"cebpf4jnsgd1na2vs0mg"},{"bike_id":"8429f855-c4a0-4803-9ce7-0d1fb93dbfe8","system_id":"levelo_inurba_marseille","lat":43.28556,"lon":5.48336,"is_reserved":false,"is_disabled":false,"rental_uris":{"android":"levelo://app?vid=8429f855-c4a0-4803-9ce7-0d1fb93dbfe8","ios":"levelo://app?vid=8429f855-c4a0-4803-9ce7-0d1fb93dbfe8"},"vehicle_type_id":"4","last_reported":1775151630,"current_range_meters":4800,"station_id":"","pricing_plan_id":"cebpf4jnsgd1na2vs0mg"},{"bike_id":"c69f7b18-98a2-454c-bac1-287f873aa573","system_id":"levelo_inurba_marseille","lat":43.262123,"lon":5.374489,"is_reserved":false,"is_disabled":true,"rental_uris":{"android":"levelo://app?vid=c69f7b18-98a2-454c-bac1-287f873aa573","ios":"levelo://app?vid=c69f7b18-98a2-454c-bac1-287f873aa573"},"vehicle_type_id":"4","last_reported":1775151630,"current_range_meters":4800,"station_id":"ce4bhbh2rcd13ifvqepg","pricing_plan_id":"cebpf4jnsgd1na2vs0mg"},{"bike_id":"f7e9bcab-820c-4115-8085-a50415c59ff9","system_id":"levelo_inurba_marseille","lat":43.29014,"lon":5.35635,"is_reserved":false,"is_disabled":false,"rental_uris":{"android":"levelo://app?vid=f7e9bcab-820c-4115-8085-a50415c59ff9","ios":"levelo://app?vid=f7e9bcab-820c-4115-8085-a50415c59ff9"},"vehicle_type_id":"4","last_reported":1775151630,"current_range_meters":4800,"station_id":"ce4bhb92rcd13ifvqen0","pricing_plan_id":"cebpf4jnsgd1na2vs0mg"},{"bike_id":"2e1bb915-7cc1-480d-b6c9-2c6a093b50b8","system_id":"levelo_inurba_marseille","lat":43.25011,"lon":5.38944,"is_reserved":false,"is_disabled":false,"rental_uris":{"android":"levelo://app?vid=2e1bb915-7cc1-480d-b6c9-2c6a093b50b8","ios":"levelo://app?vid=2e1bb915-7cc1-480d-b6c9-2c6a093b50b8"},"vehicle_type_id":"4","last_reported":1775151630,"current_range_meters":4800,"station_id":"ce4bhgp2rcd13ifvqfd0","pricing_plan_id":"cebpf4jnsgd1na2vs0mg"},{"bike_id":"8157970c-1565-46f6-a773-911db026d3b8","system_id":"levelo_inurba_marseille","lat":43.28668,"lon":5.38681,"is_reserved":false,"is_disabled":false,"rental_uris":{"android":"levelo://app?vid=8157970c-1565-46f6-a773-911db026d3b8","ios":"levelo://app?vid=8157970c-1565-46f6-a773-911db026d3b8"},"vehicle_type_id":"4","last_reported":1775151630,"current_range_meters":4800,"station_id":"ce4bh492rcd13ifvqdug","pricing_plan_id":"cebpf4jnsgd1na2vs0mg"},{"bike_id":"cac3c55f-dcf5-4706-9051-185e14264ce9","system_id":"levelo_inurba_marseille","lat":43.26028,"lon":5.37556,"is_reserved":false,"is_disabled":false,"rental_uris":{"android":"levelo://app?vid=cac3c55f-dcf5-4706-9051-185e14264ce9","ios":"levelo://app?vid=cac3c55f-dcf5-4706-9051-185e14264ce9"},"vehicle_type_id":"4","last_reported":1775151630,"current_range_meters":4800,"station_id":"ce4bhgh2rcd13ifvqfa0","pricing_plan_id":"cebpf4jnsgd1na2vs0mg"},{"bike_id":"4eda720f-73b7-443c-86cf-cc7068097a32","system_id":"levelo_inurba_marseille","lat":43.32299,"lon":5.38298,"is_reserved":false,"is_disabled":false,"rental_uris":{"android":"levelo://app?vid=4eda720f-73b7-443c-86cf-cc7068097a32","ios":"levelo://app?vid=4eda720f-73b7-443c-86cf-cc7068097a32"},"vehicle_type_id":"4","last_reported":1775151630,"current_range_meters":4800,"station_id":"ce4bhr12rcd13ifvqhqg","pricing_plan_id":"cebpf4jnsgd1na2vs0mg"},{"bike_id":"f94f1725-bb70-4a4e-94e6-e6948ffcd79a","system_id":"levelo_inurba_marseille","lat":43.28535,"lon":5.44095,"is_reserved":false,"is_disabled":false,"rental_uris":{"android":"levelo://app?vid=f94f1725-bb70-4a4e-94e6-e6948ffcd79a","ios":"levelo://app?vid=f94f1725-bb70-4a4e-94e6-e6948ffcd79a"},"vehicle_type_id":"4","last_reported":1775151630,"current_range_meters":4800,"station_id":"st_d3j3df2ikq2c7380ej80","pricing_plan_id":"cebpf4jnsgd1na2vs0mg"},{"bike_id":"cce71867-af00-4efb-acca-1ad994ce58c1","system_id":"levelo_inurba_marseille","lat":43.33164,"lon":5.37696,"is_reserved":false,"is_disabled":false,"rental_uris":{"android":"levelo://app?vid=cce71867-af00-4efb-acca-1ad994ce58c1","ios":"levelo://app?vid=cce71867-af00-4efb-acca-1ad994ce58c1"},"vehicle_type_id":"4","last_reported":1775151630,"current_range_meters":4800,"station_id":"st_d46cu089ee8s73dldbu0","pricing_plan_id":"cebpf4jnsgd1na2vs0mg"},{"bike_id":"f372d9f4-8e34-46ec-ab5a-662e15346019","system_id":"levelo_inurba_marseille","lat":43.287035,"lon":5.37385,"is_reserved":false,"is_disabled":false,"rental_uris":{"android":"levelo://app?vid=f372d9f4-8e34-46ec-ab5a-662e15346019","ios":"levelo://app?vid=f372d9f4-8e34-46ec-ab5a-662e15346019"},"vehicle_type_id":"4","last_reported":1775151630,"current_range_meters":4800,"station_id":"ce4bh3p2rcd13ifvqdq0","pricing_plan_id":"cebpf4jnsgd1na2vs0mg"},{"bike_id":"8da39205-791e-42f4-8615-2f88ec00c282","system_id":"levelo_inurba_marseille","lat":43.25518,"lon":5.37644,"is_reserved":false,"is_disabled":false,"rental_uris":{"android":"levelo://app?vid=8da39205-791e-42f4-8615-2f88ec00c282","ios":"levelo://app?vid=8da39205-791e-42f4-8615-2f88ec00c282"},"vehicle_type_id":"4","last_reported":1775151630,"current_range_meters":4800,"station_id":"ce4bhh12rcd13ifvqff0","pricing_plan_id":"cebpf4jnsgd1na2vs0mg"},{"bike_id":"2e263689-cbf3-4035-a709-1cd24747d734","system_id":"levelo_inurba_marseille","lat":43.26563,"lon":5.4033,"is_reserved":false,"is_disabled":false,"rental_uris":{"android":"levelo://app?vid=2e263689-cbf3-4035-a709-1cd24747d734","ios":"levelo://app?vid=2e263689-cbf3-4035-a709-1cd24747d734"},"vehicle_type_id":"4","last_reported":1775151630,"current_range_meters":5600,"station_id":"ce4bhmp2rcd13ifvqgng","pricing_plan_id":"cebpf4jnsgd1na2vs0mg"},{"bike_id":"bd0ac768-7c9c-45a3-a37e-3f8f101dd4fa","system_id":"levelo_inurba_marseille","lat":43.22535,"lon":5.34808,"is_reserved":false,"is_disabled":false,"rental_uris":{"android":"levelo://app?vid=bd0ac768-7c9c-45a3-a37e-3f8f101dd4fa","ios":"levelo://app?vid=bd0ac768-7c9c-45a3-a37e-3f8f101dd4fa"},"vehicle_type_id":"4","last_reported":1775151630,"current_range_meters":5600,"station_id":"st_cvj5dfep6f1abm77gieg","pricing_plan_id":"cebpf4jnsgd1na2vs0mg"},{"bike_id":"11d19dab-7798-472d-a3cd-c1ff1cf623a6","system_id":"levelo_inurba_marseille","lat":43.25018,"lon":5.38919,"is_reserved":false,"is_disabled":false,"rental_uris":{"android":"levelo://app?vid=11d19dab-7798-472d-a3cd-c1ff1cf623a6","ios":"levelo://app?vid=11d19dab-7798-472d-a3cd-c1ff1cf623a6"},"vehicle_type_id":"4","last_reported":1775151630,"current_range_meters":5600,"station_id":"ce4bhgp2rcd13ifvqfd0","pricing_plan_id":"cebpf4jnsgd1na2vs0mg"},{"bike_id":"b149b05d-17dc-4174-91fd-6a2d9bb13c8f","system_id":"levelo_inurba_marseille","lat":43.3168,"lon":5.38089,"is_reserved":false,"is_disabled":false,"rental_uris":{"android":"levelo://app?vid=b149b05d-17dc-4174-91fd-6a2d9bb13c8f","ios":"levelo://app?vid=b149b05d-17dc-4174-91fd-6a2d9bb13c8f"},"vehicle_type_id":"4","last_reported":1775151630,"current_range_meters":5600,"station_id":"","pricing_plan_id":"cebpf4jnsgd1na2vs0mg"},{"bike_id":"c0d6180f-2235-4df0-a5d3-f4080e431e44","system_id":"levelo_inurba_marseille","lat":43.28617,"lon":5.35111,"is_reserved":false,"is_disabled":false,"rental_uris":{"android":"levelo://app?vid=c0d6180f-2235-4df0-a5d3-f4080e431e44","ios":"levelo://app?vid=c0d6180f-2235-4df0-a5d3-f4080e431e44"},"vehicle_type_id":"4","last_reported":1775151630,"current_range_meters":5600,"station_id":"ce4bhch2rcd13ifvqeug","pricing_plan_id":"cebpf4jnsgd1na2vs0mg"},{"bike_id":"62210ce0-a99a-4686-acce-34a5c68d8cfd","system_id":"levelo_inurba_marseille","lat":43.2402,"lon":5.3778,"is_reserved":false,"is_disabled":false,"rental_uris":{"android":"levelo://app?vid=62210ce0-a99a-4686-acce-34a5c68d8cfd","ios":"levelo://app?vid=62210ce0-a99a-4686-acce-34a5c68d8cfd"},"vehicle_type_id":"4","last_reported":1775151630,"current_range_meters":5600,"station_id":"","pricing_plan_id":"cebpf4jnsgd1na2vs0mg"},{"bike_id":"2be64f19-432b-4d07-98a7-6e9bfd23e981","system_id":"levelo_inurba_marseille","lat":43.29775,"lon":5.42812,"is_reserved":false,"is_disabled":false,"rental_uris":{"android":"levelo://app?vid=2be64f19-432b-4d07-98a7-6e9bfd23e981","ios":"levelo://app?vid=2be64f19-432b-4d07-98a7-6e9bfd23e981"},"vehicle_type_id":"4","last_reported":1775151630,"current_range_meters":5600,"station_id":"st_d3md5207bmas73dh9klg","pricing_plan_id":"cebpf4jnsgd1na2vs0mg"},{"bike_id":"d79043de-c8e5-4bdb-aecd-cc4044485d69","system_id":"levelo_inurba_marseille","lat":43.33182,"lon":5.37683,"is_reserved":false,"is_disabled":false,"rental_uris":{"android":"levelo://app?vid=d79043de-c8e5-4bdb-aecd-cc4044485d69","ios":"levelo://app?vid=d79043de-c8e5-4bdb-aecd-cc4044485d69"},"vehicle_type_id":"4","last_reported":1775151630,"current_range_meters":5600,"station_id":"st_d46cu089ee8s73dldbu0","pricing_plan_id":"cebpf4jnsgd1na2vs0mg"},{"bike_id":"bddf8fd1-7331-43a1-ac28-cb0a5768857b","system_id":"levelo_inurba_marseille","lat":43.25823,"lon":5.39413,"is_reserved":false,"is_disabled":false,"rental_uris":{"android":"levelo://app?vid=bddf8fd1-7331-43a1-ac28-cb0a5768857b","ios":"levelo://app?vid=bddf8fd1-7331-43a1-ac28-cb0a5768857b"},"vehicle_type_id":"4","last_reported":1775151630,"current_range_meters":5600,"station_id":"ce4bhip2rcd13ifvqft0","pricing_plan_id":"cebpf4jnsgd1na2vs0mg"},{"bike_id":"b071b856-4331-4600-953d-d9b6b87b58b1","system_id":"levelo_inurba_marseille","lat":43.28619,"lon":5.3511,"is_reserved":false,"is_disabled":false,"rental_uris":{"android":"levelo://app?vid=b071b856-4331-4600-953d-d9b6b87b58b1","ios":"levelo://app?vid=b071b856-4331-4600-953d-d9b6b87b58b1"},"vehicle_type_id":"4","last_reported":1775151630,"current_range_meters":5600,"station_id":"ce4bhch2rcd13ifvqeug","pricing_plan_id":"cebpf4jnsgd1na2vs0mg"},{"bike_id":"66ba8511-54dc-4970-b105-edbce7a19c3c","system_id":"levelo_inurba_marseille","lat":43.28571,"lon":5.39511,"is_reserved":false,"is_disabled":false,"rental_uris":{"android":"levelo://app?vid=66ba8511-54dc-4970-b105-edbce7a19c3c","ios":"levelo://app?vid=66ba8511-54dc-4970-b105-edbce7a19c3c"},"vehicle_type_id":"4","last_reported":1775151630,"current_range_meters":5600,"station_id":"ce4bh292rcd13ifvqdg0","pricing_plan_id":"cebpf4jnsgd1na2vs0mg"},{"bike_id":"1ddada69-e90e-42d5-84c6-ca6acdb9f7a2","system_id":"levelo_inurba_marseille","lat":43.30055,"lon":5.43892,"is_reserved":false,"is_disabled":false,"rental_uris":{"android":"levelo://app?vid=1ddada69-e90e-42d5-84c6-ca6acdb9f7a2","ios":"levelo://app?vid=1ddada69-e90e-42d5-84c6-ca6acdb9f7a2"},"vehicle_type_id":"4","last_reported":1775151630,"current_range_meters":6000,"station_id":"","pricing_plan_id":"cebpf4jnsgd1na2vs0mg"},{"bike_id":"b3c5d317-006e-4edb-82b5-4864bde26e42","system_id":"levelo_inurba_marseille","lat":43.27886,"lon":5.42601,"is_reserved":false,"is_disabled":false,"rental_uris":{"android":"levelo://app?vid=b3c5d317-006e-4edb-82b5-4864bde26e42","ios":"levelo://app?vid=b3c5d317-006e-4edb-82b5-4864bde26e42"},"vehicle_type_id":"4","last_reported":1775151630,"current_range_meters":6000,"station_id":"","pricing_plan_id":"cebpf4jnsgd1na2vs0mg"},{"bike_id":"58d91ae1-8063-4e7d-870c-f6392dad8fd9","system_id":"levelo_inurba_marseille","lat":43.28479,"lon":5.484,"is_reserved":false,"is_disabled":false,"rental_uris":{"android":"levelo://app?vid=58d91ae1-8063-4e7d-870c-f6392dad8fd9","ios":"levelo://app?vid=58d91ae1-8063-4e7d-870c-f6392dad8fd9"},"vehicle_type_id":"4","last_reported":1775151630,"current_range_meters":6000,"station_id":"","pricing_plan_id":"cebpf4jnsgd1na2vs0mg"},{"bike_id":"11a3575c-a967-4750-a89c-f077d62c5247","system_id":"levelo_inurba_marseille","lat":43.24663,"lon":5.38182,"is_reserved":false,"is_disabled":false,"rental_uris":{"android":"levelo://app?vid=11a3575c-a967-4750-a89c-f077d62c5247","ios":"levelo://app?vid=11a3575c-a967-4750-a89c-f077d62c5247"},"vehicle_type_id":"4","last_reported":1775151630,"current_range_meters":6000,"station_id":"ce4bhih2rcd13ifvqfr0","pricing_plan_id":"cebpf4jnsgd1na2vs0mg"},{"bike_id":"0bccd438-ccc6-4db5-a746-92db398465e4","system_id":"levelo_inurba_marseille","lat":43.3142,"lon":5.37016,"is_reserved":false,"is_disabled":false,"rental_uris":{"android":"levelo://app?vid=0bccd438-ccc6-4db5-a746-92db398465e4","ios":"levelo://app?vid=0bccd438-ccc6-4db5-a746-92db398465e4"},"vehicle_type_id":"4","last_reported":1775151630,"current_range_meters":6000,"station_id":"","pricing_plan_id":"cebpf4jnsgd1na2vs0mg"},{"bike_id":"4d5384d3-8484-4fd4-ab3e-42cf8d8ddb2b","system_id":"levelo_inurba_marseille","lat":43.28841,"lon":5.42489,"is_reserved":false,"is_disabled":false,"rental_uris":{"android":"levelo://app?vid=4d5384d3-8484-4fd4-ab3e-42cf8d8ddb2b","ios":"levelo://app?vid=4d5384d3-8484-4fd4-ab3e-42cf8d8ddb2b"},"vehicle_type_id":"4","last_reported":1775151630,"current_range_meters":6000,"station_id":"st_d3b462108ojc7389ooeg","pricing_plan_id":"cebpf4jnsgd1na2vs0mg"},{"bike_id":"da8c104f-af21-4b1d-9047-b79ca483b672","system_id":"levelo_inurba_marseille","lat":43.29808,"lon":5.42126,"is_reserved":false,"is_disabled":false,"rental_uris":{"android":"levelo://app?vid=da8c104f-af21-4b1d-9047-b79ca483b672","ios":"levelo://app?vid=da8c104f-af21-4b1d-9047-b79ca483b672"},"vehicle_type_id":"4","last_reported":1775151630,"current_range_meters":6000,"station_id":"","pricing_plan_id":"cebpf4jnsgd1na2vs0mg"},{"bike_id":"b4ace00c-2708-4228-9154-4b8bb7722c7f","system_id":"levelo_inurba_marseille","lat":43.23892,"lon":5.37459,"is_reserved":false,"is_disabled":false,"rental_uris":{"android":"levelo://app?vid=b4ace00c-2708-4228-9154-4b8bb7722c7f","ios":"levelo://app?vid=b4ace00c-2708-4228-9154-4b8bb7722c7f"},"vehicle_type_id":"4","last_reported":1775151630,"current_range_meters":6000,"station_id":"st_d6sm7csbq4hs73f8fpjg","pricing_plan_id":"cebpf4jnsgd1na2vs0mg"},{"bike_id":"9291dae7-b61f-4b45-8de8-0e850c2d1049","system_id":"levelo_inurba_marseille","lat":43.25553,"lon":5.38246,"is_reserved":false,"is_disabled":false,"rental_uris":{"android":"levelo://app?vid=9291dae7-b61f-4b45-8de8-0e850c2d1049","ios":"levelo://app?vid=9291dae7-b61f-4b45-8de8-0e850c2d1049"},"vehicle_type_id":"4","last_reported":1775151630,"current_range_meters":6000,"station_id":"ce4bhih2rcd13ifvqfs0","pricing_plan_id":"cebpf4jnsgd1na2vs0mg"},{"bike_id":"1a5c40fa-67a7-4eb1-a7da-42040f8caf4f","system_id":"levelo_inurba_marseille","lat":43.31267,"lon":5.40151,"is_reserved":false,"is_disabled":false,"rental_uris":{"android":"levelo://app?vid=1a5c40fa-67a7-4eb1-a7da-42040f8caf4f","ios":"levelo://app?vid=1a5c40fa-67a7-4eb1-a7da-42040f8caf4f"},"vehicle_type_id":"4","last_reported":1775151630,"current_range_meters":6000,"station_id":"ce4bh092rcd13ifvqd30","pricing_plan_id":"cebpf4jnsgd1na2vs0mg"},{"bike_id":"01aecd18-45d4-4eef-b486-94b6abd0cca9","system_id":"levelo_inurba_marseille","lat":43.25562,"lon":5.38256,"is_reserved":false,"is_disabled":false,"rental_uris":{"android":"levelo://app?vid=01aecd18-45d4-4eef-b486-94b6abd0cca9","ios":"levelo://app?vid=01aecd18-45d4-4eef-b486-94b6abd0cca9"},"vehicle_type_id":"4","last_reported":1775151630,"current_range_meters":6000,"station_id":"ce4bhih2rcd13ifvqfs0","pricing_plan_id":"cebpf4jnsgd1na2vs0mg"},{"bike_id":"93b54f12-6027-40ee-aaaf-52c4a5342eb2","system_id":"levelo_inurba_marseille","lat":43.21194,"lon":5.35083,"is_reserved":false,"is_disabled":false,"rental_uris":{"android":"levelo://app?vid=93b54f12-6027-40ee-aaaf-52c4a5342eb2","ios":"levelo://app?vid=93b54f12-6027-40ee-aaaf-52c4a5342eb2"},"vehicle_type_id":"4","last_reported":1775151630,"current_range_meters":6000,"station_id":"st_cvj6sg6p6f1abm77japg","pricing_plan_id":"cebpf4jnsgd1na2vs0mg"},{"bike_id":"be0b758a-34bf-4a1d-ac48-76f6f6c2a8c5","system_id":"levelo_inurba_marseille","lat":43.28957,"lon":5.3664,"is_reserved":false,"is_disabled":false,"rental_uris":{"android":"levelo://app?vid=be0b758a-34bf-4a1d-ac48-76f6f6c2a8c5","ios":"levelo://app?vid=be0b758a-34bf-4a1d-ac48-76f6f6c2a8c5"},"vehicle_type_id":"4","last_reported":1775151630,"current_range_meters":6000,"station_id":"ce4bhap2rcd13ifvqek0","pricing_plan_id":"cebpf4jnsgd1na2vs0mg"},{"bike_id":"19aa8ce1-e6d9-4173-b2ad-70d24b850e18","system_id":"levelo_inurba_marseille","lat":43.29073,"lon":5.3594,"is_reserved":false,"is_disabled":true,"rental_uris":{"android":"levelo://app?vid=19aa8ce1-e6d9-4173-b2ad-70d24b850e18","ios":"levelo://app?vid=19aa8ce1-e6d9-4173-b2ad-70d24b850e18"},"vehicle_type_id":"4","last_reported":1775151630,"current_range_meters":6000,"station_id":"ce4bha92rcd13ifvqeg0","pricing_plan_id":"cebpf4jnsgd1na2vs0mg"},{"bike_id":"922a8619-df87-4e6f-a3d8-5984f3e4353f","system_id":"levelo_inurba_marseille","lat":43.24391,"lon":5.37058,"is_reserved":false,"is_disabled":false,"rental_uris":{"android":"levelo://app?vid=922a8619-df87-4e6f-a3d8-5984f3e4353f","ios":"levelo://app?vid=922a8619-df87-4e6f-a3d8-5984f3e4353f"},"vehicle_type_id":"4","last_reported":1775151630,"current_range_meters":6000,"station_id":"ce4bhhh2rcd13ifvqfk0","pricing_plan_id":"cebpf4jnsgd1na2vs0mg"},{"bike_id":"d6349826-5510-4834-ae61-5f416883040f","system_id":"levelo_inurba_marseille","lat":43.21749,"lon":5.346,"is_reserved":false,"is_disabled":false,"rental_uris":{"android":"levelo://app?vid=d6349826-5510-4834-ae61-5f416883040f","ios":"levelo://app?vid=d6349826-5510-4834-ae61-5f416883040f"},"vehicle_type_id":"4","last_reported":1775151630,"current_range_meters":6000,"station_id":"st_cvj6r9ubvosntc0bgbag","pricing_plan_id":"cebpf4jnsgd1na2vs0mg"},{"bike_id":"2063ff31-6478-4b83-92f8-bef66829973e","system_id":"levelo_inurba_marseille","lat":43.28556,"lon":5.4415,"is_reserved":false,"is_disabled":false,"rental_uris":{"android":"levelo://app?vid=2063ff31-6478-4b83-92f8-bef66829973e","ios":"levelo://app?vid=2063ff31-6478-4b83-92f8-bef66829973e"},"vehicle_type_id":"4","last_reported":1775151630,"current_range_meters":6000,"station_id":"st_d3j3df2ikq2c7380ej80","pricing_plan_id":"cebpf4jnsgd1na2vs0mg"},{"bike_id":"46211711-8480-49bb-8634-084ac014a525","system_id":"levelo_inurba_marseille","lat":43.2997,"lon":5.38508,"is_reserved":false,"is_disabled":false,"rental_uris":{"android":"levelo://app?vid=46211711-8480-49bb-8634-084ac014a525","ios":"levelo://app?vid=46211711-8480-49bb-8634-084ac014a525"},"vehicle_type_id":"4","last_reported":1775151630,"current_range_meters":6000,"station_id":"ce4bgj92rcd13ifvqbd0","pricing_plan_id":"cebpf4jnsgd1na2vs0mg"},{"bike_id":"d0111825-3017-4e03-aba5-c350420e66fe","system_id":"levelo_inurba_marseille","lat":43.21194,"lon":5.35075,"is_reserved":false,"is_disabled":false,"rental_uris":{"android":"levelo://app?vid=d0111825-3017-4e03-aba5-c350420e66fe","ios":"levelo://app?vid=d0111825-3017-4e03-aba5-c350420e66fe"},"vehicle_type_id":"4","last_reported":1775151630,"current_range_meters":6400,"station_id":"st_cvj6sg6p6f1abm77japg","pricing_plan_id":"cebpf4jnsgd1na2vs0mg"},{"bike_id":"33d8fe3b-51df-4371-9ad9-0047c21810bc","system_id":"levelo_inurba_marseille","lat":43.2927,"lon":5.3844,"is_reserved":false,"is_disabled":false,"rental_uris":{"android":"levelo://app?vid=33d8fe3b-51df-4371-9ad9-0047c21810bc","ios":"levelo://app?vid=33d8fe3b-51df-4371-9ad9-0047c21810bc"},"vehicle_type_id":"4","last_reported":1775151630,"current_range_meters":6400,"station_id":"ce4bh692rcd13ifvqea0","pricing_plan_id":"cebpf4jnsgd1na2vs0mg"},{"bike_id":"2c4d0416-e7de-4119-84b0-f69fd2f8ac78","system_id":"levelo_inurba_marseille","lat":43.2842,"lon":5.37525,"is_reserved":false,"is_disabled":false,"rental_uris":{"android":"levelo://app?vid=2c4d0416-e7de-4119-84b0-f69fd2f8ac78","ios":"levelo://app?vid=2c4d0416-e7de-4119-84b0-f69fd2f8ac78"},"vehicle_type_id":"4","last_reported":1775151630,"current_range_meters":6400,"station_id":"ce4bh412rcd13ifvqds0","pricing_plan_id":"cebpf4jnsgd1na2vs0mg"},{"bike_id":"591b4726-a1a4-4eea-ae31-96a23b1c91a1","system_id":"levelo_inurba_marseille","lat":43.27943,"lon":5.41057,"is_reserved":false,"is_disabled":false,"rental_uris":{"android":"levelo://app?vid=591b4726-a1a4-4eea-ae31-96a23b1c91a1","ios":"levelo://app?vid=591b4726-a1a4-4eea-ae31-96a23b1c91a1"},"vehicle_type_id":"4","last_reported":1775151630,"current_range_meters":6400,"station_id":"ce4bhnp2rcd13ifvqh0g","pricing_plan_id":"cebpf4jnsgd1na2vs0mg"},{"bike_id":"bf89aef2-d648-4271-8dd2-5cd38cc116f7","system_id":"levelo_inurba_marseille","lat":43.29875,"lon":5.39741,"is_reserved":false,"is_disabled":false,"rental_uris":{"android":"levelo://app?vid=bf89aef2-d648-4271-8dd2-5cd38cc116f7","ios":"levelo://app?vid=bf89aef2-d648-4271-8dd2-5cd38cc116f7"},"vehicle_type_id":"4","last_reported":1775151630,"current_range_meters":6400,"station_id":"ce4bh0h2rcd13ifvqd50","pricing_plan_id":"cebpf4jnsgd1na2vs0mg"},{"bike_id":"11e25873-5287-4987-a91a-5504947b9e84","system_id":"levelo_inurba_marseille","lat":43.29965,"lon":5.38501,"is_reserved":false,"is_disabled":false,"rental_uris":{"android":"levelo://app?vid=11e25873-5287-4987-a91a-5504947b9e84","ios":"levelo://app?vid=11e25873-5287-4987-a91a-5504947b9e84"},"vehicle_type_id":"4","last_reported":1775151630,"current_range_meters":6400,"station_id":"ce4bgj92rcd13ifvqbd0","pricing_plan_id":"cebpf4jnsgd1na2vs0mg"},{"bike_id":"b1cb2378-66e2-4e73-a135-28bf0dec66f1","system_id":"levelo_inurba_marseille","lat":43.31287,"lon":5.44074,"is_reserved":false,"is_disabled":false,"rental_uris":{"android":"levelo://app?vid=b1cb2378-66e2-4e73-a135-28bf0dec66f1","ios":"levelo://app?vid=b1cb2378-66e2-4e73-a135-28bf0dec66f1"},"vehicle_type_id":"4","last_reported":1775151630,"current_range_meters":6400,"station_id":"","pricing_plan_id":"cebpf4jnsgd1na2vs0mg"},{"bike_id":"a0a1c86e-5fa0-4e0f-a8f2-d2edfc092585","system_id":"levelo_inurba_marseille","lat":43.28104,"lon":5.37837,"is_reserved":false,"is_disabled":false,"rental_uris":{"android":"levelo://app?vid=a0a1c86e-5fa0-4e0f-a8f2-d2edfc092585","ios":"levelo://app?vid=a0a1c86e-5fa0-4e0f-a8f2-d2edfc092585"},"vehicle_type_id":"4","last_reported":1775151630,"current_range_meters":6400,"station_id":"ce4bha12rcd13ifvqee0","pricing_plan_id":"cebpf4jnsgd1na2vs0mg"},{"bike_id":"b3fdb3c6-13b8-4611-957c-1ad249219f8c","system_id":"levelo_inurba_marseille","lat":43.24465,"lon":5.42531,"is_reserved":false,"is_disabled":false,"rental_uris":{"android":"levelo://app?vid=b3fdb3c6-13b8-4611-957c-1ad249219f8c","ios":"levelo://app?vid=b3fdb3c6-13b8-4611-957c-1ad249219f8c"},"vehicle_type_id":"4","last_reported":1775151630,"current_range_meters":6400,"station_id":"st_d4a3vfp97mjs738cd8kg","pricing_plan_id":"cebpf4jnsgd1na2vs0mg"},{"bike_id":"8b868cff-2d21-42b3-a60e-0537c7336721","system_id":"levelo_inurba_marseille","lat":43.30567,"lon":5.43031,"is_reserved":false,"is_disabled":false,"rental_uris":{"android":"levelo://app?vid=8b868cff-2d21-42b3-a60e-0537c7336721","ios":"levelo://app?vid=8b868cff-2d21-42b3-a60e-0537c7336721"},"vehicle_type_id":"4","last_reported":1775151630,"current_range_meters":6400,"station_id":"","pricing_plan_id":"cebpf4jnsgd1na2vs0mg"},{"bike_id":"59af559a-c64a-4a65-8006-da8e36a6f86b","system_id":"levelo_inurba_marseille","lat":43.33542,"lon":5.37447,"is_reserved":false,"is_disabled":false,"rental_uris":{"android":"levelo://app?vid=59af559a-c64a-4a65-8006-da8e36a6f86b","ios":"levelo://app?vid=59af559a-c64a-4a65-8006-da8e36a6f86b"},"vehicle_type_id":"4","last_reported":1775151630,"current_range_meters":6400,"station_id":"st_d46tts09ee8s73dlu43g","pricing_plan_id":"cebpf4jnsgd1na2vs0mg"},{"bike_id":"aa941740-8983-4168-878d-b635d31bc485","system_id":"levelo_inurba_marseille","lat":43.3078,"lon":5.37634,"is_reserved":false,"is_disabled":false,"rental_uris":{"android":"levelo://app?vid=aa941740-8983-4168-878d-b635d31bc485","ios":"levelo://app?vid=aa941740-8983-4168-878d-b635d31bc485"},"vehicle_type_id":"4","last_reported":1775151630,"current_range_meters":6400,"station_id":"ce4bgv92rcd13ifvqcq0","pricing_plan_id":"cebpf4jnsgd1na2vs0mg"},{"bike_id":"ab06f0c1-dd3c-4093-aae2-11693a90ca5c","system_id":"levelo_inurba_marseille","lat":43.23967,"lon":5.36629,"is_reserved":false,"is_disabled":false,"rental_uris":{"android":"levelo://app?vid=ab06f0c1-dd3c-4093-aae2-11693a90ca5c","ios":"levelo://app?vid=ab06f0c1-dd3c-4093-aae2-11693a90ca5c"},"vehicle_type_id":"4","last_reported":1775151630,"current_range_meters":6400,"station_id":"ce4bhi12rcd13ifvqfp0","pricing_plan_id":"cebpf4jnsgd1na2vs0mg"},{"bike_id":"a7ca84e0-a534-400c-9f86-c3d731a02a45","system_id":"levelo_inurba_marseille","lat":43.30535,"lon":5.36731,"is_reserved":false,"is_disabled":false,"rental_uris":{"android":"levelo://app?vid=a7ca84e0-a534-400c-9f86-c3d731a02a45","ios":"levelo://app?vid=a7ca84e0-a534-400c-9f86-c3d731a02a45"},"vehicle_type_id":"4","last_reported":1775151630,"current_range_meters":6400,"station_id":"ce4bgrp2rcd13ifvqc9g","pricing_plan_id":"cebpf4jnsgd1na2vs0mg"},{"bike_id":"793b472f-3246-4295-8dc2-cf0dac98a9ac","system_id":"levelo_inurba_marseille","lat":43.29546,"lon":5.39081,"is_reserved":false,"is_disabled":false,"rental_uris":{"android":"levelo://app?vid=793b472f-3246-4295-8dc2-cf0dac98a9ac","ios":"levelo://app?vid=793b472f-3246-4295-8dc2-cf0dac98a9ac"},"vehicle_type_id":"4","last_reported":1775151630,"current_range_meters":6800,"station_id":"ce4bh3p2rcd13ifvqdp0","pricing_plan_id":"cebpf4jnsgd1na2vs0mg"},{"bike_id":"5967d9f0-a052-4ec4-a69f-dcb372f196c0","system_id":"levelo_inurba_marseille","lat":43.26548,"lon":5.37325,"is_reserved":false,"is_disabled":false,"rental_uris":{"android":"levelo://app?vid=5967d9f0-a052-4ec4-a69f-dcb372f196c0","ios":"levelo://app?vid=5967d9f0-a052-4ec4-a69f-dcb372f196c0"},"vehicle_type_id":"4","last_reported":1775151630,"current_range_meters":6800,"station_id":"ce4bhg12rcd13ifvqf70","pricing_plan_id":"cebpf4jnsgd1na2vs0mg"},{"bike_id":"fc2e91ed-7416-4ad4-908c-4d6cf0d24d2b","system_id":"levelo_inurba_marseille","lat":43.28143,"lon":5.38324,"is_reserved":false,"is_disabled":false,"rental_uris":{"android":"levelo://app?vid=fc2e91ed-7416-4ad4-908c-4d6cf0d24d2b","ios":"levelo://app?vid=fc2e91ed-7416-4ad4-908c-4d6cf0d24d2b"},"vehicle_type_id":"4","last_reported":1775151630,"current_range_meters":6800,"station_id":"","pricing_plan_id":"cebpf4jnsgd1na2vs0mg"},{"bike_id":"fbd0de48-ff95-4200-8239-d7937266988b","system_id":"levelo_inurba_marseille","lat":43.24468,"lon":5.42541,"is_reserved":false,"is_disabled":false,"rental_uris":{"android":"levelo://app?vid=fbd0de48-ff95-4200-8239-d7937266988b","ios":"levelo://app?vid=fbd0de48-ff95-4200-8239-d7937266988b"},"vehicle_type_id":"4","last_reported":1775151630,"current_range_meters":6800,"station_id":"st_d4a3vfp97mjs738cd8kg","pricing_plan_id":"cebpf4jnsgd1na2vs0mg"},{"bike_id":"38229089-2eba-460d-8fa7-69cd48d52f91","system_id":"levelo_inurba_marseille","lat":43.28868,"lon":5.42512,"is_reserved":false,"is_disabled":false,"rental_uris":{"android":"levelo://app?vid=38229089-2eba-460d-8fa7-69cd48d52f91","ios":"levelo://app?vid=38229089-2eba-460d-8fa7-69cd48d52f91"},"vehicle_type_id":"4","last_reported":1775151630,"current_range_meters":6800,"station_id":"st_d3b462108ojc7389ooeg","pricing_plan_id":"cebpf4jnsgd1na2vs0mg"},{"bike_id":"4662ce83-961a-43fe-b5d2-6ce767222e0c","system_id":"levelo_inurba_marseille","lat":43.28619,"lon":5.35091,"is_reserved":false,"is_disabled":false,"rental_uris":{"android":"levelo://app?vid=4662ce83-961a-43fe-b5d2-6ce767222e0c","ios":"levelo://app?vid=4662ce83-961a-43fe-b5d2-6ce767222e0c"},"vehicle_type_id":"4","last_reported":1775151630,"current_range_meters":6800,"station_id":"ce4bhch2rcd13ifvqeug","pricing_plan_id":"cebpf4jnsgd1na2vs0mg"},{"bike_id":"e2d4538e-989f-404e-b5fb-58cfe29ddc03","system_id":"levelo_inurba_marseille","lat":43.24491,"lon":5.42577,"is_reserved":false,"is_disabled":false,"rental_uris":{"android":"levelo://app?vid=e2d4538e-989f-404e-b5fb-58cfe29ddc03","ios":"levelo://app?vid=e2d4538e-989f-404e-b5fb-58cfe29ddc03"},"vehicle_type_id":"4","last_reported":1775151630,"current_range_meters":6800,"station_id":"st_d4a3vfp97mjs738cd8kg","pricing_plan_id":"cebpf4jnsgd1na2vs0mg"},{"bike_id":"993554b6-0de0-483c-81a8-74355d0900be","system_id":"levelo_inurba_marseille","lat":43.29636,"lon":5.38113,"is_reserved":false,"is_disabled":false,"rental_uris":{"android":"levelo://app?vid=993554b6-0de0-483c-81a8-74355d0900be","ios":"levelo://app?vid=993554b6-0de0-483c-81a8-74355d0900be"},"vehicle_type_id":"4","last_reported":1775151630,"current_range_meters":6800,"station_id":"ce4bgl12rcd13ifvqbo0","pricing_plan_id":"cebpf4jnsgd1na2vs0mg"},{"bike_id":"6535518c-804f-447b-a494-407b4e1dbc8e","system_id":"levelo_inurba_marseille","lat":43.31217,"lon":5.36868,"is_reserved":false,"is_disabled":false,"rental_uris":{"android":"levelo://app?vid=6535518c-804f-447b-a494-407b4e1dbc8e","ios":"levelo://app?vid=6535518c-804f-447b-a494-407b4e1dbc8e"},"vehicle_type_id":"4","last_reported":1775151630,"current_range_meters":6800,"station_id":"ce4bgl92rcd13ifvqbq0","pricing_plan_id":"cebpf4jnsgd1na2vs0mg"},{"bike_id":"5f8952e0-949c-4f18-a48a-050bb9277749","system_id":"levelo_inurba_marseille","lat":43.29831,"lon":5.38102,"is_reserved":false,"is_disabled":false,"rental_uris":{"android":"levelo://app?vid=5f8952e0-949c-4f18-a48a-050bb9277749","ios":"levelo://app?vid=5f8952e0-949c-4f18-a48a-050bb9277749"},"vehicle_type_id":"4","last_reported":1775151630,"current_range_meters":6800,"station_id":"ce4bgip2rcd13ifvqbb0","pricing_plan_id":"cebpf4jnsgd1na2vs0mg"},{"bike_id":"7d8f3bc3-46ff-4802-82b9-2bf86ded1c15","system_id":"levelo_inurba_marseille","lat":43.33751,"lon":5.37482,"is_reserved":false,"is_disabled":true,"rental_uris":{"android":"levelo://app?vid=7d8f3bc3-46ff-4802-82b9-2bf86ded1c15","ios":"levelo://app?vid=7d8f3bc3-46ff-4802-82b9-2bf86ded1c15"},"vehicle_type_id":"4","last_reported":1775151630,"current_range_meters":6800,"station_id":"","pricing_plan_id":"cebpf4jnsgd1na2vs0mg"},{"bike_id":"2eb685dc-d4f9-46ec-9872-316c66dab224","system_id":"levelo_inurba_marseille","lat":43.24171,"lon":5.36416,"is_reserved":false,"is_disabled":false,"rental_uris":{"android":"levelo://app?vid=2eb685dc-d4f9-46ec-9872-316c66dab224","ios":"levelo://app?vid=2eb685dc-d4f9-46ec-9872-316c66dab224"},"vehicle_type_id":"4","last_reported":1775151630,"current_range_meters":6800,"station_id":"cpo36qri1sfpv3e86is0","pricing_plan_id":"cebpf4jnsgd1na2vs0mg"},{"bike_id":"a3e023e2-d4d4-4709-b2ae-04a06b5ecc63","system_id":"levelo_inurba_marseille","lat":43.22599,"lon":5.41677,"is_reserved":false,"is_disabled":false,"rental_uris":{"android":"levelo://app?vid=a3e023e2-d4d4-4709-b2ae-04a06b5ecc63","ios":"levelo://app?vid=a3e023e2-d4d4-4709-b2ae-04a06b5ecc63"},"vehicle_type_id":"4","last_reported":1775151630,"current_range_meters":6800,"station_id":"st_d2o4gvlbi1j2169b742g","pricing_plan_id":"cebpf4jnsgd1na2vs0mg"},{"bike_id":"ea0e9256-ea94-4ada-ae35-6834a56de5c4","system_id":"levelo_inurba_marseille","lat":43.29538,"lon":5.38545,"is_reserved":false,"is_disabled":false,"rental_uris":{"android":"levelo://app?vid=ea0e9256-ea94-4ada-ae35-6834a56de5c4","ios":"levelo://app?vid=ea0e9256-ea94-4ada-ae35-6834a56de5c4"},"vehicle_type_id":"4","last_reported":1775151630,"current_range_meters":6800,"station_id":"ce4bgih2rcd13ifvqba0","pricing_plan_id":"cebpf4jnsgd1na2vs0mg"},{"bike_id":"fe0a3fa3-1a01-4338-919a-e9d1fe0b671b","system_id":"levelo_inurba_marseille","lat":43.26694,"lon":5.38271,"is_reserved":false,"is_disabled":false,"rental_uris":{"android":"levelo://app?vid=fe0a3fa3-1a01-4338-919a-e9d1fe0b671b","ios":"levelo://app?vid=fe0a3fa3-1a01-4338-919a-e9d1fe0b671b"},"vehicle_type_id":"4","last_reported":1775151630,"current_range_meters":6800,"station_id":"ce4bhg92rcd13ifvqf90","pricing_plan_id":"cebpf4jnsgd1na2vs0mg"},{"bike_id":"f62ff8d5-3d47-4bb4-906e-344e9b5207aa","system_id":"levelo_inurba_marseille","lat":43.21221,"lon":5.35098,"is_reserved":false,"is_disabled":false,"rental_uris":{"android":"levelo://app?vid=f62ff8d5-3d47-4bb4-906e-344e9b5207aa","ios":"levelo://app?vid=f62ff8d5-3d47-4bb4-906e-344e9b5207aa"},"vehicle_type_id":"4","last_reported":1775151630,"current_range_meters":6800,"station_id":"st_cvj6sg6p6f1abm77japg","pricing_plan_id":"cebpf4jnsgd1na2vs0mg"},{"bike_id":"557fb77b-3e0f-40e5-a5d1-edc38e53e927","system_id":"levelo_inurba_marseille","lat":43.29561,"lon":5.38552,"is_reserved":false,"is_disabled":false,"rental_uris":{"android":"levelo://app?vid=557fb77b-3e0f-40e5-a5d1-edc38e53e927","ios":"levelo://app?vid=557fb77b-3e0f-40e5-a5d1-edc38e53e927"},"vehicle_type_id":"4","last_reported":1775151630,"current_range_meters":6800,"station_id":"ce4bgih2rcd13ifvqba0","pricing_plan_id":"cebpf4jnsgd1na2vs0mg"},{"bike_id":"13713002-484d-442d-8d88-c09ee25b68e4","system_id":"levelo_inurba_marseille","lat":43.2781,"lon":5.42344,"is_reserved":false,"is_disabled":false,"rental_uris":{"android":"levelo://app?vid=13713002-484d-442d-8d88-c09ee25b68e4","ios":"levelo://app?vid=13713002-484d-442d-8d88-c09ee25b68e4"},"vehicle_type_id":"4","last_reported":1775151630,"current_range_meters":6800,"station_id":"","pricing_plan_id":"cebpf4jnsgd1na2vs0mg"},{"bike_id":"1d92dec5-88a1-4f6e-bd5f-0d081647078c","system_id":"levelo_inurba_marseille","lat":43.24679,"lon":5.38156,"is_reserved":false,"is_disabled":false,"rental_uris":{"android":"levelo://app?vid=1d92dec5-88a1-4f6e-bd5f-0d081647078c","ios":"levelo://app?vid=1d92dec5-88a1-4f6e-bd5f-0d081647078c"},"vehicle_type_id":"4","last_reported":1775151630,"current_range_meters":6800,"station_id":"ce4bhih2rcd13ifvqfr0","pricing_plan_id":"cebpf4jnsgd1na2vs0mg"},{"bike_id":"ba33614c-a307-4e62-b0d9-643b797f7d62","system_id":"levelo_inurba_marseille","lat":43.30219,"lon":5.38537,"is_reserved":false,"is_disabled":false,"rental_uris":{"android":"levelo://app?vid=ba33614c-a307-4e62-b0d9-643b797f7d62","ios":"levelo://app?vid=ba33614c-a307-4e62-b0d9-643b797f7d62"},"vehicle_type_id":"4","last_reported":1775151630,"current_range_meters":6800,"station_id":"","pricing_plan_id":"cebpf4jnsgd1na2vs0mg"},{"bike_id":"bb435da3-856a-4144-9704-d052e66aeded","system_id":"levelo_inurba_marseille","lat":43.33162,"lon":5.37694,"is_reserved":false,"is_disabled":false,"rental_uris":{"android":"levelo://app?vid=bb435da3-856a-4144-9704-d052e66aeded","ios":"levelo://app?vid=bb435da3-856a-4144-9704-d052e66aeded"},"vehicle_type_id":"4","last_reported":1775151630,"current_range_meters":6800,"station_id":"st_d46cu089ee8s73dldbu0","pricing_plan_id":"cebpf4jnsgd1na2vs0mg"},{"bike_id":"63e9c27e-df35-4221-a72b-372775ab28af","system_id":"levelo_inurba_marseille","lat":43.24652,"lon":5.3891,"is_reserved":false,"is_disabled":false,"rental_uris":{"android":"levelo://app?vid=63e9c27e-df35-4221-a72b-372775ab28af","ios":"levelo://app?vid=63e9c27e-df35-4221-a72b-372775ab28af"},"vehicle_type_id":"4","last_reported":1775151630,"current_range_meters":6800,"station_id":"ce4bhg12rcd13ifvqf60","pricing_plan_id":"cebpf4jnsgd1na2vs0mg"},{"bike_id":"b17c4f99-f264-4929-869c-2e7e7176ce13","system_id":"levelo_inurba_marseille","lat":43.28702,"lon":5.38713,"is_reserved":false,"is_disabled":true,"rental_uris":{"android":"levelo://app?vid=b17c4f99-f264-4929-869c-2e7e7176ce13","ios":"levelo://app?vid=b17c4f99-f264-4929-869c-2e7e7176ce13"},"vehicle_type_id":"4","last_reported":1775151630,"current_range_meters":6800,"station_id":"","pricing_plan_id":"cebpf4jnsgd1na2vs0mg"},{"bike_id":"36be8545-fcd2-472d-86af-2a7033797648","system_id":"levelo_inurba_marseille","lat":43.2901,"lon":5.35615,"is_reserved":false,"is_disabled":false,"rental_uris":{"android":"levelo://app?vid=36be8545-fcd2-472d-86af-2a7033797648","ios":"levelo://app?vid=36be8545-fcd2-472d-86af-2a7033797648"},"vehicle_type_id":"4","last_reported":1775151630,"current_range_meters":6800,"station_id":"ce4bhb92rcd13ifvqen0","pricing_plan_id":"cebpf4jnsgd1na2vs0mg"},{"bike_id":"53f1d28b-559d-4aa7-a3f8-4e3935f7c03a","system_id":"levelo_inurba_marseille","lat":43.3063,"lon":5.42935,"is_reserved":false,"is_disabled":false,"rental_uris":{"android":"levelo://app?vid=53f1d28b-559d-4aa7-a3f8-4e3935f7c03a","ios":"levelo://app?vid=53f1d28b-559d-4aa7-a3f8-4e3935f7c03a"},"vehicle_type_id":"4","last_reported":1775151630,"current_range_meters":6800,"station_id":"","pricing_plan_id":"cebpf4jnsgd1na2vs0mg"},{"bike_id":"094d9b13-1962-4687-a19b-a28fbe36c836","system_id":"levelo_inurba_marseille","lat":43.30283,"lon":5.36873,"is_reserved":false,"is_disabled":false,"rental_uris":{"android":"levelo://app?vid=094d9b13-1962-4687-a19b-a28fbe36c836","ios":"levelo://app?vid=094d9b13-1962-4687-a19b-a28fbe36c836"},"vehicle_type_id":"4","last_reported":1775151630,"current_range_meters":7200,"station_id":"ce4bgqh2rcd13ifvqc5g","pricing_plan_id":"cebpf4jnsgd1na2vs0mg"},{"bike_id":"905289e5-7113-4e8f-9100-1778260d107a","system_id":"levelo_inurba_marseille","lat":43.2439,"lon":5.37065,"is_reserved":false,"is_disabled":false,"rental_uris":{"android":"levelo://app?vid=905289e5-7113-4e8f-9100-1778260d107a","ios":"levelo://app?vid=905289e5-7113-4e8f-9100-1778260d107a"},"vehicle_type_id":"4","last_reported":1775151630,"current_range_meters":7200,"station_id":"ce4bhhh2rcd13ifvqfk0","pricing_plan_id":"cebpf4jnsgd1na2vs0mg"},{"bike_id":"a26e0612-5996-4080-8567-451a7c6785da","system_id":"levelo_inurba_marseille","lat":43.28494,"lon":5.48361,"is_reserved":false,"is_disabled":false,"rental_uris":{"android":"levelo://app?vid=a26e0612-5996-4080-8567-451a7c6785da","ios":"levelo://app?vid=a26e0612-5996-4080-8567-451a7c6785da"},"vehicle_type_id":"4","last_reported":1775151630,"current_range_meters":7200,"station_id":"","pricing_plan_id":"cebpf4jnsgd1na2vs0mg"},{"bike_id":"baaa819f-f621-4bbc-b8f6-009cbb2eb24c","system_id":"levelo_inurba_marseille","lat":43.23224,"lon":5.35562,"is_reserved":false,"is_disabled":false,"rental_uris":{"android":"levelo://app?vid=baaa819f-f621-4bbc-b8f6-009cbb2eb24c","ios":"levelo://app?vid=baaa819f-f621-4bbc-b8f6-009cbb2eb24c"},"vehicle_type_id":"4","last_reported":1775151630,"current_range_meters":7200,"station_id":"ce4bhu92rcd13ifvqi70","pricing_plan_id":"cebpf4jnsgd1na2vs0mg"},{"bike_id":"ebf8d41b-af9e-48cd-b4ac-c559138fc501","system_id":"levelo_inurba_marseille","lat":43.24195,"lon":5.36416,"is_reserved":false,"is_disabled":false,"rental_uris":{"android":"levelo://app?vid=ebf8d41b-af9e-48cd-b4ac-c559138fc501","ios":"levelo://app?vid=ebf8d41b-af9e-48cd-b4ac-c559138fc501"},"vehicle_type_id":"4","last_reported":1775151630,"current_range_meters":7200,"station_id":"cpo36qri1sfpv3e86is0","pricing_plan_id":"cebpf4jnsgd1na2vs0mg"},{"bike_id":"7454e20f-aeeb-429e-8370-29d207e4b480","system_id":"levelo_inurba_marseille","lat":43.25492,"lon":5.37711,"is_reserved":false,"is_disabled":false,"rental_uris":{"android":"levelo://app?vid=7454e20f-aeeb-429e-8370-29d207e4b480","ios":"levelo://app?vid=7454e20f-aeeb-429e-8370-29d207e4b480"},"vehicle_type_id":"4","last_reported":1775151630,"current_range_meters":7200,"station_id":"ce4bhh12rcd13ifvqff0","pricing_plan_id":"cebpf4jnsgd1na2vs0mg"},{"bike_id":"229f0e67-0671-4c17-8f2a-9394f3ccb1c5","system_id":"levelo_inurba_marseille","lat":43.24405,"lon":5.37044,"is_reserved":false,"is_disabled":false,"rental_uris":{"android":"levelo://app?vid=229f0e67-0671-4c17-8f2a-9394f3ccb1c5","ios":"levelo://app?vid=229f0e67-0671-4c17-8f2a-9394f3ccb1c5"},"vehicle_type_id":"4","last_reported":1775151630,"current_range_meters":7200,"station_id":"ce4bhhh2rcd13ifvqfk0","pricing_plan_id":"cebpf4jnsgd1na2vs0mg"},{"bike_id":"7028be1f-aebb-44b4-8e20-ec7f9bf1bf12","system_id":"levelo_inurba_marseille","lat":43.29036,"lon":5.38645,"is_reserved":false,"is_disabled":false,"rental_uris":{"android":"levelo://app?vid=7028be1f-aebb-44b4-8e20-ec7f9bf1bf12","ios":"levelo://app?vid=7028be1f-aebb-44b4-8e20-ec7f9bf1bf12"},"vehicle_type_id":"4","last_reported":1775151630,"current_range_meters":7200,"station_id":"ce4bh4p2rcd13ifvqe0g","pricing_plan_id":"cebpf4jnsgd1na2vs0mg"},{"bike_id":"0a7880e2-bbee-41e3-bbbc-c7632cb79322","system_id":"levelo_inurba_marseille","lat":43.28443,"lon":5.39207,"is_reserved":false,"is_disabled":false,"rental_uris":{"android":"levelo://app?vid=0a7880e2-bbee-41e3-bbbc-c7632cb79322","ios":"levelo://app?vid=0a7880e2-bbee-41e3-bbbc-c7632cb79322"},"vehicle_type_id":"4","last_reported":1775151630,"current_range_meters":7200,"station_id":"ce4bhoh2rcd13ifvqh5g","pricing_plan_id":"cebpf4jnsgd1na2vs0mg"},{"bike_id":"70c37e46-ab5b-466c-a314-0769ca799d80","system_id":"levelo_inurba_marseille","lat":43.30525,"lon":5.36712,"is_reserved":false,"is_disabled":false,"rental_uris":{"android":"levelo://app?vid=70c37e46-ab5b-466c-a314-0769ca799d80","ios":"levelo://app?vid=70c37e46-ab5b-466c-a314-0769ca799d80"},"vehicle_type_id":"4","last_reported":1775151630,"current_range_meters":7200,"station_id":"ce4bgrp2rcd13ifvqc9g","pricing_plan_id":"cebpf4jnsgd1na2vs0mg"},{"bike_id":"ff259b83-c24b-48cf-bb19-caebf228d015","system_id":"levelo_inurba_marseille","lat":43.24419,"lon":5.37096,"is_reserved":false,"is_disabled":false,"rental_uris":{"android":"levelo://app?vid=ff259b83-c24b-48cf-bb19-caebf228d015","ios":"levelo://app?vid=ff259b83-c24b-48cf-bb19-caebf228d015"},"vehicle_type_id":"4","last_reported":1775151630,"current_range_meters":7200,"station_id":"ce4bhhh2rcd13ifvqfk0","pricing_plan_id":"cebpf4jnsgd1na2vs0mg"},{"bike_id":"5048113e-5dbe-46f9-b11e-5d5b61e20190","system_id":"levelo_inurba_marseille","lat":43.29725,"lon":5.36529,"is_reserved":false,"is_disabled":false,"rental_uris":{"android":"levelo://app?vid=5048113e-5dbe-46f9-b11e-5d5b61e20190","ios":"levelo://app?vid=5048113e-5dbe-46f9-b11e-5d5b61e20190"},"vehicle_type_id":"4","last_reported":1775151630,"current_range_meters":7200,"station_id":"","pricing_plan_id":"cebpf4jnsgd1na2vs0mg"},{"bike_id":"39a09993-3bb1-4633-8cf0-6afe54aa2e6b","system_id":"levelo_inurba_marseille","lat":43.29551,"lon":5.39077,"is_reserved":false,"is_disabled":false,"rental_uris":{"android":"levelo://app?vid=39a09993-3bb1-4633-8cf0-6afe54aa2e6b","ios":"levelo://app?vid=39a09993-3bb1-4633-8cf0-6afe54aa2e6b"},"vehicle_type_id":"4","last_reported":1775151630,"current_range_meters":7200,"station_id":"ce4bh3p2rcd13ifvqdp0","pricing_plan_id":"cebpf4jnsgd1na2vs0mg"},{"bike_id":"b871d952-66ad-4808-9f40-091399c741cc","system_id":"levelo_inurba_marseille","lat":43.29257,"lon":5.38441,"is_reserved":false,"is_disabled":false,"rental_uris":{"android":"levelo://app?vid=b871d952-66ad-4808-9f40-091399c741cc","ios":"levelo://app?vid=b871d952-66ad-4808-9f40-091399c741cc"},"vehicle_type_id":"4","last_reported":1775151630,"current_range_meters":7200,"station_id":"ce4bh692rcd13ifvqea0","pricing_plan_id":"cebpf4jnsgd1na2vs0mg"},{"bike_id":"a7d20db2-fe18-4705-bb82-8cc92fdf3221","system_id":"levelo_inurba_marseille","lat":43.28414,"lon":5.37527,"is_reserved":false,"is_disabled":false,"rental_uris":{"android":"levelo://app?vid=a7d20db2-fe18-4705-bb82-8cc92fdf3221","ios":"levelo://app?vid=a7d20db2-fe18-4705-bb82-8cc92fdf3221"},"vehicle_type_id":"4","last_reported":1775151630,"current_range_meters":7200,"station_id":"ce4bh412rcd13ifvqds0","pricing_plan_id":"cebpf4jnsgd1na2vs0mg"},{"bike_id":"6f69b38f-8716-46b5-bfcd-a0466aca1fdb","system_id":"levelo_inurba_marseille","lat":43.26567,"lon":5.39012,"is_reserved":false,"is_disabled":false,"rental_uris":{"android":"levelo://app?vid=6f69b38f-8716-46b5-bfcd-a0466aca1fdb","ios":"levelo://app?vid=6f69b38f-8716-46b5-bfcd-a0466aca1fdb"},"vehicle_type_id":"4","last_reported":1775151630,"current_range_meters":7200,"station_id":"ce4bhe12rcd13ifvqf30","pricing_plan_id":"cebpf4jnsgd1na2vs0mg"},{"bike_id":"10743b7f-bd4c-43bb-8c2f-509c736a9262","system_id":"levelo_inurba_marseille","lat":43.28495,"lon":5.38572,"is_reserved":false,"is_disabled":false,"rental_uris":{"android":"levelo://app?vid=10743b7f-bd4c-43bb-8c2f-509c736a9262","ios":"levelo://app?vid=10743b7f-bd4c-43bb-8c2f-509c736a9262"},"vehicle_type_id":"4","last_reported":1775151630,"current_range_meters":7200,"station_id":"ce4bh8p2rcd13ifvqeb0","pricing_plan_id":"cebpf4jnsgd1na2vs0mg"},{"bike_id":"31868dd3-b908-4e0f-b414-ab5ee25087ed","system_id":"levelo_inurba_marseille","lat":43.2921,"lon":5.36052,"is_reserved":false,"is_disabled":true,"rental_uris":{"android":"levelo://app?vid=31868dd3-b908-4e0f-b414-ab5ee25087ed","ios":"levelo://app?vid=31868dd3-b908-4e0f-b414-ab5ee25087ed"},"vehicle_type_id":"4","last_reported":1775151630,"current_range_meters":7200,"station_id":"ce4bhbh2rcd13ifvqeqg","pricing_plan_id":"cebpf4jnsgd1na2vs0mg"},{"bike_id":"522fc102-4edd-43cc-a67c-66222ad82f02","system_id":"levelo_inurba_marseille","lat":43.3134,"lon":5.40326,"is_reserved":false,"is_disabled":false,"rental_uris":{"android":"levelo://app?vid=522fc102-4edd-43cc-a67c-66222ad82f02","ios":"levelo://app?vid=522fc102-4edd-43cc-a67c-66222ad82f02"},"vehicle_type_id":"4","last_reported":1775151630,"current_range_meters":7200,"station_id":"","pricing_plan_id":"cebpf4jnsgd1na2vs0mg"},{"bike_id":"7a5a210d-61fc-4d03-a557-eb846b17279b","system_id":"levelo_inurba_marseille","lat":43.28605,"lon":5.44605,"is_reserved":false,"is_disabled":false,"rental_uris":{"android":"levelo://app?vid=7a5a210d-61fc-4d03-a557-eb846b17279b","ios":"levelo://app?vid=7a5a210d-61fc-4d03-a557-eb846b17279b"},"vehicle_type_id":"4","last_reported":1775151630,"current_range_meters":7200,"station_id":"","pricing_plan_id":"cebpf4jnsgd1na2vs0mg"},{"bike_id":"5a04ac0a-e794-433d-845f-7f49f3fdb206","system_id":"levelo_inurba_marseille","lat":43.25345,"lon":5.42179,"is_reserved":false,"is_disabled":false,"rental_uris":{"android":"levelo://app?vid=5a04ac0a-e794-433d-845f-7f49f3fdb206","ios":"levelo://app?vid=5a04ac0a-e794-433d-845f-7f49f3fdb206"},"vehicle_type_id":"4","last_reported":1775151630,"current_range_meters":7200,"station_id":"st_d2m65c5bi1j21697t3ng","pricing_plan_id":"cebpf4jnsgd1na2vs0mg"},{"bike_id":"bb66dfee-9802-4b21-b1f9-4fecb94052c1","system_id":"levelo_inurba_marseille","lat":43.28406,"lon":5.37527,"is_reserved":false,"is_disabled":false,"rental_uris":{"android":"levelo://app?vid=bb66dfee-9802-4b21-b1f9-4fecb94052c1","ios":"levelo://app?vid=bb66dfee-9802-4b21-b1f9-4fecb94052c1"},"vehicle_type_id":"4","last_reported":1775151630,"current_range_meters":7200,"station_id":"ce4bh412rcd13ifvqds0","pricing_plan_id":"cebpf4jnsgd1na2vs0mg"},{"bike_id":"c0244268-1300-41a7-9a33-8160575e0bc7","system_id":"levelo_inurba_marseille","lat":43.23205,"lon":5.35562,"is_reserved":false,"is_disabled":false,"rental_uris":{"android":"levelo://app?vid=c0244268-1300-41a7-9a33-8160575e0bc7","ios":"levelo://app?vid=c0244268-1300-41a7-9a33-8160575e0bc7"},"vehicle_type_id":"4","last_reported":1775151630,"current_range_meters":7200,"station_id":"ce4bhu92rcd13ifvqi70","pricing_plan_id":"cebpf4jnsgd1na2vs0mg"},{"bike_id":"ec73d10f-d000-4d7d-ab9a-4a1d96a7ccc2","system_id":"levelo_inurba_marseille","lat":43.31264,"lon":5.36916,"is_reserved":false,"is_disabled":false,"rental_uris":{"android":"levelo://app?vid=ec73d10f-d000-4d7d-ab9a-4a1d96a7ccc2","ios":"levelo://app?vid=ec73d10f-d000-4d7d-ab9a-4a1d96a7ccc2"},"vehicle_type_id":"4","last_reported":1775151630,"current_range_meters":7200,"station_id":"","pricing_plan_id":"cebpf4jnsgd1na2vs0mg"},{"bike_id":"aa0c77ba-d17e-4897-812a-d0a8a4203e7a","system_id":"levelo_inurba_marseille","lat":43.29186,"lon":5.35808,"is_reserved":false,"is_disabled":false,"rental_uris":{"android":"levelo://app?vid=aa0c77ba-d17e-4897-812a-d0a8a4203e7a","ios":"levelo://app?vid=aa0c77ba-d17e-4897-812a-d0a8a4203e7a"},"vehicle_type_id":"4","last_reported":1775151630,"current_range_meters":7200,"station_id":"ce4bhb12rcd13ifvqel0","pricing_plan_id":"cebpf4jnsgd1na2vs0mg"},{"bike_id":"ed3b1509-090f-45b8-bd48-23717d5293a7","system_id":"levelo_inurba_marseille","lat":43.26557,"lon":5.37281,"is_reserved":false,"is_disabled":false,"rental_uris":{"android":"levelo://app?vid=ed3b1509-090f-45b8-bd48-23717d5293a7","ios":"levelo://app?vid=ed3b1509-090f-45b8-bd48-23717d5293a7"},"vehicle_type_id":"4","last_reported":1775151630,"current_range_meters":7200,"station_id":"ce4bhg12rcd13ifvqf70","pricing_plan_id":"cebpf4jnsgd1na2vs0mg"},{"bike_id":"9dd89071-8436-4e3a-b127-9ec5ce584b55","system_id":"levelo_inurba_marseille","lat":43.2893,"lon":5.36642,"is_reserved":false,"is_disabled":false,"rental_uris":{"android":"levelo://app?vid=9dd89071-8436-4e3a-b127-9ec5ce584b55","ios":"levelo://app?vid=9dd89071-8436-4e3a-b127-9ec5ce584b55"},"vehicle_type_id":"4","last_reported":1775151630,"current_range_meters":7200,"station_id":"ce4bhap2rcd13ifvqek0","pricing_plan_id":"cebpf4jnsgd1na2vs0mg"},{"bike_id":"db25f650-1732-43e6-b373-339d0f769a03","system_id":"levelo_inurba_marseille","lat":43.29702,"lon":5.36599,"is_reserved":false,"is_disabled":false,"rental_uris":{"android":"levelo://app?vid=db25f650-1732-43e6-b373-339d0f769a03","ios":"levelo://app?vid=db25f650-1732-43e6-b373-339d0f769a03"},"vehicle_type_id":"4","last_reported":1775151630,"current_range_meters":8000,"station_id":"ce4bgn12rcd13ifvqbt0","pricing_plan_id":"cebpf4jnsgd1na2vs0mg"},{"bike_id":"87e346fe-57ff-40e1-bc30-332765acdf33","system_id":"levelo_inurba_marseille","lat":43.22955,"lon":5.35416,"is_reserved":false,"is_disabled":false,"rental_uris":{"android":"levelo://app?vid=87e346fe-57ff-40e1-bc30-332765acdf33","ios":"levelo://app?vid=87e346fe-57ff-40e1-bc30-332765acdf33"},"vehicle_type_id":"4","last_reported":1775151630,"current_range_meters":8000,"station_id":"cpo3532slgdg3j2ikp40","pricing_plan_id":"cebpf4jnsgd1na2vs0mg"},{"bike_id":"472dec35-6b21-48da-9812-3170f4030c36","system_id":"levelo_inurba_marseille","lat":43.28398,"lon":5.37509,"is_reserved":false,"is_disabled":false,"rental_uris":{"android":"levelo://app?vid=472dec35-6b21-48da-9812-3170f4030c36","ios":"levelo://app?vid=472dec35-6b21-48da-9812-3170f4030c36"},"vehicle_type_id":"4","last_reported":1775151630,"current_range_meters":8000,"station_id":"ce4bh412rcd13ifvqds0","pricing_plan_id":"cebpf4jnsgd1na2vs0mg"},{"bike_id":"4e88c940-980d-4284-9413-2a034e271bde","system_id":"levelo_inurba_marseille","lat":43.21196,"lon":5.3508,"is_reserved":false,"is_disabled":false,"rental_uris":{"android":"levelo://app?vid=4e88c940-980d-4284-9413-2a034e271bde","ios":"levelo://app?vid=4e88c940-980d-4284-9413-2a034e271bde"},"vehicle_type_id":"4","last_reported":1775151630,"current_range_meters":8000,"station_id":"st_cvj6sg6p6f1abm77japg","pricing_plan_id":"cebpf4jnsgd1na2vs0mg"},{"bike_id":"23a6a4a6-6ce4-405f-bfe5-894992c15f6e","system_id":"levelo_inurba_marseille","lat":43.26193,"lon":5.37462,"is_reserved":false,"is_disabled":false,"rental_uris":{"android":"levelo://app?vid=23a6a4a6-6ce4-405f-bfe5-894992c15f6e","ios":"levelo://app?vid=23a6a4a6-6ce4-405f-bfe5-894992c15f6e"},"vehicle_type_id":"4","last_reported":1775151630,"current_range_meters":8000,"station_id":"ce4bhgp2rcd13ifvqfc0","pricing_plan_id":"cebpf4jnsgd1na2vs0mg"},{"bike_id":"adf02382-c510-4a5b-9351-616a674dd2ac","system_id":"levelo_inurba_marseille","lat":43.30847,"lon":5.38177,"is_reserved":false,"is_disabled":false,"rental_uris":{"android":"levelo://app?vid=adf02382-c510-4a5b-9351-616a674dd2ac","ios":"levelo://app?vid=adf02382-c510-4a5b-9351-616a674dd2ac"},"vehicle_type_id":"4","last_reported":1775151630,"current_range_meters":8000,"station_id":"ce4bgt12rcd13ifvqce0","pricing_plan_id":"cebpf4jnsgd1na2vs0mg"},{"bike_id":"faeda510-7137-4a55-85c9-3b3828efdfc5","system_id":"levelo_inurba_marseille","lat":43.25579,"lon":5.38259,"is_reserved":false,"is_disabled":false,"rental_uris":{"android":"levelo://app?vid=faeda510-7137-4a55-85c9-3b3828efdfc5","ios":"levelo://app?vid=faeda510-7137-4a55-85c9-3b3828efdfc5"},"vehicle_type_id":"4","last_reported":1775151630,"current_range_meters":8000,"station_id":"ce4bhih2rcd13ifvqfs0","pricing_plan_id":"cebpf4jnsgd1na2vs0mg"},{"bike_id":"2af7ee1f-da08-4f49-b54c-61a7deac512f","system_id":"levelo_inurba_marseille","lat":43.28609,"lon":5.37069,"is_reserved":false,"is_disabled":false,"rental_uris":{"android":"levelo://app?vid=2af7ee1f-da08-4f49-b54c-61a7deac512f","ios":"levelo://app?vid=2af7ee1f-da08-4f49-b54c-61a7deac512f"},"vehicle_type_id":"4","last_reported":1775151630,"current_range_meters":8000,"station_id":"ce4bht12rcd13ifvqi60","pricing_plan_id":"cebpf4jnsgd1na2vs0mg"},{"bike_id":"3c6ce37d-1ab4-42d4-8987-4a6c005c1f43","system_id":"levelo_inurba_marseille","lat":43.2957,"lon":5.39967,"is_reserved":false,"is_disabled":false,"rental_uris":{"android":"levelo://app?vid=3c6ce37d-1ab4-42d4-8987-4a6c005c1f43","ios":"levelo://app?vid=3c6ce37d-1ab4-42d4-8987-4a6c005c1f43"},"vehicle_type_id":"4","last_reported":1775151630,"current_range_meters":8000,"station_id":"ce4bh312rcd13ifvqdj0","pricing_plan_id":"cebpf4jnsgd1na2vs0mg"},{"bike_id":"f0fa40e7-02aa-42c9-8b71-8561c7978d2a","system_id":"levelo_inurba_marseille","lat":43.30442,"lon":5.39762,"is_reserved":false,"is_disabled":false,"rental_uris":{"android":"levelo://app?vid=f0fa40e7-02aa-42c9-8b71-8561c7978d2a","ios":"levelo://app?vid=f0fa40e7-02aa-42c9-8b71-8561c7978d2a"},"vehicle_type_id":"4","last_reported":1775151630,"current_range_meters":8000,"station_id":"ce4bh092rcd13ifvqd20","pricing_plan_id":"cebpf4jnsgd1na2vs0mg"},{"bike_id":"acc7b62a-d9bb-4113-95ac-ab78d8fba512","system_id":"levelo_inurba_marseille","lat":43.31732,"lon":5.40491,"is_reserved":false,"is_disabled":false,"rental_uris":{"android":"levelo://app?vid=acc7b62a-d9bb-4113-95ac-ab78d8fba512","ios":"levelo://app?vid=acc7b62a-d9bb-4113-95ac-ab78d8fba512"},"vehicle_type_id":"4","last_reported":1775151630,"current_range_meters":8000,"station_id":"ce4bh012rcd13ifvqd00","pricing_plan_id":"cebpf4jnsgd1na2vs0mg"},{"bike_id":"8ad91a42-b4c8-4044-99d3-7cbe628645b3","system_id":"levelo_inurba_marseille","lat":43.226,"lon":5.41653,"is_reserved":false,"is_disabled":false,"rental_uris":{"android":"levelo://app?vid=8ad91a42-b4c8-4044-99d3-7cbe628645b3","ios":"levelo://app?vid=8ad91a42-b4c8-4044-99d3-7cbe628645b3"},"vehicle_type_id":"4","last_reported":1775151630,"current_range_meters":8000,"station_id":"st_d2o4gvlbi1j2169b742g","pricing_plan_id":"cebpf4jnsgd1na2vs0mg"},{"bike_id":"2abcb767-9ebe-435e-a819-a1751dc21f03","system_id":"levelo_inurba_marseille","lat":43.31329,"lon":5.397,"is_reserved":false,"is_disabled":false,"rental_uris":{"android":"levelo://app?vid=2abcb767-9ebe-435e-a819-a1751dc21f03","ios":"levelo://app?vid=2abcb767-9ebe-435e-a819-a1751dc21f03"},"vehicle_type_id":"4","last_reported":1775151630,"current_range_meters":8000,"station_id":"ce4bgvp2rcd13ifvqcu0","pricing_plan_id":"cebpf4jnsgd1na2vs0mg"},{"bike_id":"0f43f217-8aa1-4a00-93bf-e372375befb9","system_id":"levelo_inurba_marseille","lat":43.2933,"lon":5.37176,"is_reserved":false,"is_disabled":false,"rental_uris":{"android":"levelo://app?vid=0f43f217-8aa1-4a00-93bf-e372375befb9","ios":"levelo://app?vid=0f43f217-8aa1-4a00-93bf-e372375befb9"},"vehicle_type_id":"4","last_reported":1775151630,"current_range_meters":8000,"station_id":"ce4bgh92rcd13ifvqb40","pricing_plan_id":"cebpf4jnsgd1na2vs0mg"},{"bike_id":"57301293-b157-49d6-be67-0f1e720f225a","system_id":"levelo_inurba_marseille","lat":43.29176,"lon":5.37178,"is_reserved":false,"is_disabled":false,"rental_uris":{"android":"levelo://app?vid=57301293-b157-49d6-be67-0f1e720f225a","ios":"levelo://app?vid=57301293-b157-49d6-be67-0f1e720f225a"},"vehicle_type_id":"4","last_reported":1775151630,"current_range_meters":8000,"station_id":"ce4bha92rcd13ifvqeh0","pricing_plan_id":"cebpf4jnsgd1na2vs0mg"},{"bike_id":"dbbc137d-d824-41e6-9c77-56e781d977f0","system_id":"levelo_inurba_marseille","lat":43.262156,"lon":5.374397,"is_reserved":false,"is_disabled":false,"rental_uris":{"android":"levelo://app?vid=dbbc137d-d824-41e6-9c77-56e781d977f0","ios":"levelo://app?vid=dbbc137d-d824-41e6-9c77-56e781d977f0"},"vehicle_type_id":"4","last_reported":1775151630,"current_range_meters":8000,"station_id":"ce4bhgp2rcd13ifvqfc0","pricing_plan_id":"cebpf4jnsgd1na2vs0mg"},{"bike_id":"4806d180-f360-4add-becf-82d18feb28c6","system_id":"levelo_inurba_marseille","lat":43.32672,"lon":5.38711,"is_reserved":false,"is_disabled":false,"rental_uris":{"android":"levelo://app?vid=4806d180-f360-4add-becf-82d18feb28c6","ios":"levelo://app?vid=4806d180-f360-4add-becf-82d18feb28c6"},"vehicle_type_id":"4","last_reported":1775151630,"current_range_meters":8000,"station_id":"","pricing_plan_id":"cebpf4jnsgd1na2vs0mg"},{"bike_id":"53da873f-e6f8-4606-b48f-0cf820bdc3de","system_id":"levelo_inurba_marseille","lat":43.24682,"lon":5.38164,"is_reserved":false,"is_disabled":false,"rental_uris":{"android":"levelo://app?vid=53da873f-e6f8-4606-b48f-0cf820bdc3de","ios":"levelo://app?vid=53da873f-e6f8-4606-b48f-0cf820bdc3de"},"vehicle_type_id":"4","last_reported":1775151630,"current_range_meters":8000,"station_id":"ce4bhih2rcd13ifvqfr0","pricing_plan_id":"cebpf4jnsgd1na2vs0mg"},{"bike_id":"0cfb8b93-62d3-455d-8ddc-2a098cd03197","system_id":"levelo_inurba_marseille","lat":43.32361,"lon":5.36741,"is_reserved":false,"is_disabled":false,"rental_uris":{"android":"levelo://app?vid=0cfb8b93-62d3-455d-8ddc-2a098cd03197","ios":"levelo://app?vid=0cfb8b93-62d3-455d-8ddc-2a098cd03197"},"vehicle_type_id":"4","last_reported":1775151630,"current_range_meters":8000,"station_id":"ce4bhsh2rcd13ifvqi2g","pricing_plan_id":"cebpf4jnsgd1na2vs0mg"},{"bike_id":"ccccdd94-4e68-401f-ad9b-2b32fb050cf2","system_id":"levelo_inurba_marseille","lat":43.29666,"lon":5.37181,"is_reserved":false,"is_disabled":false,"rental_uris":{"android":"levelo://app?vid=ccccdd94-4e68-401f-ad9b-2b32fb050cf2","ios":"levelo://app?vid=ccccdd94-4e68-401f-ad9b-2b32fb050cf2"},"vehicle_type_id":"4","last_reported":1775151630,"current_range_meters":8000,"station_id":"","pricing_plan_id":"cebpf4jnsgd1na2vs0mg"},{"bike_id":"f98e4f88-8b4b-4518-8d83-cba82e19aac5","system_id":"levelo_inurba_marseille","lat":43.2953,"lon":5.3867,"is_reserved":false,"is_disabled":false,"rental_uris":{"android":"levelo://app?vid=f98e4f88-8b4b-4518-8d83-cba82e19aac5","ios":"levelo://app?vid=f98e4f88-8b4b-4518-8d83-cba82e19aac5"},"vehicle_type_id":"4","last_reported":1775151630,"current_range_meters":8000,"station_id":"","pricing_plan_id":"cebpf4jnsgd1na2vs0mg"},{"bike_id":"a0bbc992-87da-4583-a529-59d0980f5448","system_id":"levelo_inurba_marseille","lat":43.29835,"lon":5.44085,"is_reserved":false,"is_disabled":false,"rental_uris":{"android":"levelo://app?vid=a0bbc992-87da-4583-a529-59d0980f5448","ios":"levelo://app?vid=a0bbc992-87da-4583-a529-59d0980f5448"},"vehicle_type_id":"4","last_reported":1775151630,"current_range_meters":8000,"station_id":"","pricing_plan_id":"cebpf4jnsgd1na2vs0mg"},{"bike_id":"b276c3c2-7b5b-4cdf-a8b7-da86be0ddfc7","system_id":"levelo_inurba_marseille","lat":43.23791,"lon":5.36652,"is_reserved":false,"is_disabled":false,"rental_uris":{"android":"levelo://app?vid=b276c3c2-7b5b-4cdf-a8b7-da86be0ddfc7","ios":"levelo://app?vid=b276c3c2-7b5b-4cdf-a8b7-da86be0ddfc7"},"vehicle_type_id":"4","last_reported":1775151630,"current_range_meters":8000,"station_id":"st_d3nk18o9ro0c73en2l3g","pricing_plan_id":"cebpf4jnsgd1na2vs0mg"},{"bike_id":"e2d1ce23-fac0-4bc3-8cdd-1623ba12336c","system_id":"levelo_inurba_marseille","lat":43.28792,"lon":5.43808,"is_reserved":false,"is_disabled":false,"rental_uris":{"android":"levelo://app?vid=e2d1ce23-fac0-4bc3-8cdd-1623ba12336c","ios":"levelo://app?vid=e2d1ce23-fac0-4bc3-8cdd-1623ba12336c"},"vehicle_type_id":"4","last_reported":1775151630,"current_range_meters":8000,"station_id":"","pricing_plan_id":"cebpf4jnsgd1na2vs0mg"},{"bike_id":"4d32f5a2-579f-4332-b073-019b22d24451","system_id":"levelo_inurba_marseille","lat":43.31286,"lon":5.36811,"is_reserved":false,"is_disabled":false,"rental_uris":{"android":"levelo://app?vid=4d32f5a2-579f-4332-b073-019b22d24451","ios":"levelo://app?vid=4d32f5a2-579f-4332-b073-019b22d24451"},"vehicle_type_id":"4","last_reported":1775151630,"current_range_meters":8000,"station_id":"ce4bgl92rcd13ifvqbq0","pricing_plan_id":"cebpf4jnsgd1na2vs0mg"},{"bike_id":"89aaeef3-d13a-41e6-9007-26276779f712","system_id":"levelo_inurba_marseille","lat":43.30145,"lon":5.39905,"is_reserved":false,"is_disabled":false,"rental_uris":{"android":"levelo://app?vid=89aaeef3-d13a-41e6-9007-26276779f712","ios":"levelo://app?vid=89aaeef3-d13a-41e6-9007-26276779f712"},"vehicle_type_id":"4","last_reported":1775151630,"current_range_meters":8000,"station_id":"ce4bh0h2rcd13ifvqd40","pricing_plan_id":"cebpf4jnsgd1na2vs0mg"},{"bike_id":"26538423-cad0-45fb-9a92-330fec3cadfb","system_id":"levelo_inurba_marseille","lat":43.21755,"lon":5.34614,"is_reserved":false,"is_disabled":false,"rental_uris":{"android":"levelo://app?vid=26538423-cad0-45fb-9a92-330fec3cadfb","ios":"levelo://app?vid=26538423-cad0-45fb-9a92-330fec3cadfb"},"vehicle_type_id":"4","last_reported":1775151630,"current_range_meters":8000,"station_id":"st_cvj6r9ubvosntc0bgbag","pricing_plan_id":"cebpf4jnsgd1na2vs0mg"},{"bike_id":"d3c3d117-f47e-4d61-9190-ebbb34982579","system_id":"levelo_inurba_marseille","lat":43.23196,"lon":5.35557,"is_reserved":false,"is_disabled":false,"rental_uris":{"android":"levelo://app?vid=d3c3d117-f47e-4d61-9190-ebbb34982579","ios":"levelo://app?vid=d3c3d117-f47e-4d61-9190-ebbb34982579"},"vehicle_type_id":"4","last_reported":1775151630,"current_range_meters":8000,"station_id":"ce4bhu92rcd13ifvqi70","pricing_plan_id":"cebpf4jnsgd1na2vs0mg"},{"bike_id":"85bd7590-dc00-4396-a5c7-552ad5f06944","system_id":"levelo_inurba_marseille","lat":43.2418,"lon":5.36404,"is_reserved":false,"is_disabled":false,"rental_uris":{"android":"levelo://app?vid=85bd7590-dc00-4396-a5c7-552ad5f06944","ios":"levelo://app?vid=85bd7590-dc00-4396-a5c7-552ad5f06944"},"vehicle_type_id":"4","last_reported":1775151630,"current_range_meters":8000,"station_id":"cpo36qri1sfpv3e86is0","pricing_plan_id":"cebpf4jnsgd1na2vs0mg"},{"bike_id":"797d2f54-1eae-4de8-95bf-5f829b4bcfb1","system_id":"levelo_inurba_marseille","lat":43.28484,"lon":5.38417,"is_reserved":false,"is_disabled":false,"rental_uris":{"android":"levelo://app?vid=797d2f54-1eae-4de8-95bf-5f829b4bcfb1","ios":"levelo://app?vid=797d2f54-1eae-4de8-95bf-5f829b4bcfb1"},"vehicle_type_id":"4","last_reported":1775151630,"current_range_meters":8000,"station_id":"ce4bh512rcd13ifvqe3g","pricing_plan_id":"cebpf4jnsgd1na2vs0mg"},{"bike_id":"e190e9ca-b0f7-414e-b6ac-e6b81b957107","system_id":"levelo_inurba_marseille","lat":43.2175,"lon":5.34592,"is_reserved":false,"is_disabled":false,"rental_uris":{"android":"levelo://app?vid=e190e9ca-b0f7-414e-b6ac-e6b81b957107","ios":"levelo://app?vid=e190e9ca-b0f7-414e-b6ac-e6b81b957107"},"vehicle_type_id":"4","last_reported":1775151630,"current_range_meters":8000,"station_id":"st_cvj6r9ubvosntc0bgbag","pricing_plan_id":"cebpf4jnsgd1na2vs0mg"},{"bike_id":"b479080b-289c-4aef-a108-72725ba843b8","system_id":"levelo_inurba_marseille","lat":43.29264,"lon":5.38456,"is_reserved":false,"is_disabled":false,"rental_uris":{"android":"levelo://app?vid=b479080b-289c-4aef-a108-72725ba843b8","ios":"levelo://app?vid=b479080b-289c-4aef-a108-72725ba843b8"},"vehicle_type_id":"4","last_reported":1775151630,"current_range_meters":8000,"station_id":"ce4bh692rcd13ifvqea0","pricing_plan_id":"cebpf4jnsgd1na2vs0mg"},{"bike_id":"e24b7a9e-5482-469c-bc5f-3944821156de","system_id":"levelo_inurba_marseille","lat":43.31061,"lon":5.44586,"is_reserved":false,"is_disabled":false,"rental_uris":{"android":"levelo://app?vid=e24b7a9e-5482-469c-bc5f-3944821156de","ios":"levelo://app?vid=e24b7a9e-5482-469c-bc5f-3944821156de"},"vehicle_type_id":"4","last_reported":1775151630,"current_range_meters":8000,"station_id":"","pricing_plan_id":"cebpf4jnsgd1na2vs0mg"},{"bike_id":"314ad898-a71e-4349-800c-dddd35565338","system_id":"levelo_inurba_marseille","lat":43.29723,"lon":5.37703,"is_reserved":false,"is_disabled":false,"rental_uris":{"android":"levelo://app?vid=314ad898-a71e-4349-800c-dddd35565338","ios":"levelo://app?vid=314ad898-a71e-4349-800c-dddd35565338"},"vehicle_type_id":"4","last_reported":1775151630,"current_range_meters":8000,"station_id":"ce4bgkh2rcd13ifvqbl0","pricing_plan_id":"cebpf4jnsgd1na2vs0mg"},{"bike_id":"5f8618b1-168c-4ee0-84cd-96c480eeeea0","system_id":"levelo_inurba_marseille","lat":43.2441,"lon":5.37425,"is_reserved":false,"is_disabled":false,"rental_uris":{"android":"levelo://app?vid=5f8618b1-168c-4ee0-84cd-96c480eeeea0","ios":"levelo://app?vid=5f8618b1-168c-4ee0-84cd-96c480eeeea0"},"vehicle_type_id":"4","last_reported":1775151630,"current_range_meters":8000,"station_id":"","pricing_plan_id":"cebpf4jnsgd1na2vs0mg"},{"bike_id":"64c0bad2-f6c8-4e3b-b050-8b7033a6d702","system_id":"levelo_inurba_marseille","lat":43.3091,"lon":5.36844,"is_reserved":false,"is_disabled":false,"rental_uris":{"android":"levelo://app?vid=64c0bad2-f6c8-4e3b-b050-8b7033a6d702","ios":"levelo://app?vid=64c0bad2-f6c8-4e3b-b050-8b7033a6d702"},"vehicle_type_id":"4","last_reported":1775151630,"current_range_meters":8000,"station_id":"ce4bgn92rcd13ifvqbvg","pricing_plan_id":"cebpf4jnsgd1na2vs0mg"},{"bike_id":"2e0545ad-d824-454e-b745-a6d9a8bc929b","system_id":"levelo_inurba_marseille","lat":43.32341,"lon":5.36756,"is_reserved":false,"is_disabled":false,"rental_uris":{"android":"levelo://app?vid=2e0545ad-d824-454e-b745-a6d9a8bc929b","ios":"levelo://app?vid=2e0545ad-d824-454e-b745-a6d9a8bc929b"},"vehicle_type_id":"4","last_reported":1775151630,"current_range_meters":8400,"station_id":"ce4bhsh2rcd13ifvqi2g","pricing_plan_id":"cebpf4jnsgd1na2vs0mg"},{"bike_id":"63f54104-1358-46d5-b04e-dbd776a1d3a2","system_id":"levelo_inurba_marseille","lat":43.2176,"lon":5.34624,"is_reserved":false,"is_disabled":false,"rental_uris":{"android":"levelo://app?vid=63f54104-1358-46d5-b04e-dbd776a1d3a2","ios":"levelo://app?vid=63f54104-1358-46d5-b04e-dbd776a1d3a2"},"vehicle_type_id":"4","last_reported":1775151630,"current_range_meters":8400,"station_id":"st_cvj6r9ubvosntc0bgbag","pricing_plan_id":"cebpf4jnsgd1na2vs0mg"},{"bike_id":"acfb6f54-04fd-41b0-b2d5-fb9fa6024a9f","system_id":"levelo_inurba_marseille","lat":43.26622,"lon":5.39072,"is_reserved":false,"is_disabled":false,"rental_uris":{"android":"levelo://app?vid=acfb6f54-04fd-41b0-b2d5-fb9fa6024a9f","ios":"levelo://app?vid=acfb6f54-04fd-41b0-b2d5-fb9fa6024a9f"},"vehicle_type_id":"4","last_reported":1775151630,"current_range_meters":8400,"station_id":"","pricing_plan_id":"cebpf4jnsgd1na2vs0mg"},{"bike_id":"832873a7-0d8c-4b94-98bd-0b0e93271fb8","system_id":"levelo_inurba_marseille","lat":43.29258,"lon":5.38422,"is_reserved":false,"is_disabled":true,"rental_uris":{"android":"levelo://app?vid=832873a7-0d8c-4b94-98bd-0b0e93271fb8","ios":"levelo://app?vid=832873a7-0d8c-4b94-98bd-0b0e93271fb8"},