{"last_updated":1692302841,"ttl":30,"version":"2.2","data":{"bikes":[{"bike_id":"66d0d5e6-8285-448a-9e23-d846af84444d","system_id":"levelo_inurba_marseille","lat":43.312239,"lon":5.368562,"is_reserved":false,"is_disabled":false,"rental_uris":{"android":"levelo://app?vid=66d0d5e6-8285-448a-9e23-d846af84444d","ios":"levelo://app?vid=66d0d5e6-8285-448a-9e23-d846af84444d"},"vehicle_type_id":"4","last_reported":1692302841,"current_range_meters":4800,"station_id":"ce4bgl92rcd13ifvqbq0","pricing_plan_id":"free"},{"bike_id":"777f9153-e3f7-4a15-8504-452c7b5c995b","system_id":"levelo_inurba_marseille","lat":43.314811,"lon":5.373103,"is_reserved":false,"is_disabled":false,"rental_uris":{"android":"levelo://app?vid=777f9153-e3f7-4a15-8504-452c7b5c995b","ios":"levelo://app?vid=777f9153-e3f7-4a15-8504-452c7b5c995b"},"vehicle_type_id":"4","last_reported":1692302841,"current_range_meters":2000,"station_id":"ce4bgt12rcd13ifvqcd0","pricing_plan_id":"free"},{"bike_id":"a904af8e-e60f-4783-a85b-8eca0b69ce63","system_id":"levelo_inurba_marseille","lat":43.30587,"lon":5.36532,"is_reserved":false,"is_disabled":false,"rental_uris":{"android":"levelo://app?vid=a904af8e-e60f-4783-a85b-8eca0b69ce63","ios":"levelo://app?vid=a904af8e-e60f-4783-a85b-8eca0b69ce63"},"vehicle_type_id":"4","last_reported":1692302841,"current_range_meters":1600,"station_id":"","pricing_plan_id":"free"},{"bike_id":"386ed8e3-b71e-4f68-86af-202c5b76503e","system_id":"levelo_inurba_marseille","lat":43.30541,"lon":5.36687,"is_reserved":false,"is_disabled":false,"rental_uris":{"android":"levelo://app?vid=386ed8e3-b71e-4f68-86af-202c5b76503e","ios":"levelo://app?vid=386ed8e3-b71e-4f68-86af-202c5b76503e"},"vehicle_type_id":"4","last_reported":1692302841,"current_range_meters":31200,"station_id":"ce4bgrp2rcd13ifvqc9g","pricing_plan_id":"free"},{"bike_id":"9fbe6e18-d192-44c2-98b5-cafb68b41aa4","system_id":"levelo_inurba_marseille","lat":43.30532,"lon":5.36538,"is_reserved":false,"is_disabled":false,"rental_uris":{"android":"levelo://app?vid=9fbe6e18-d192-44c2-98b5-cafb68b41aa4","ios":"levelo://app?vid=9fbe6e18-d192-44c2-98b5-cafb68b41aa4"},"vehicle_type_id":"4","last_reported":1692302841,"current_range_meters":19600,"station_id":"ce4bgs12rcd13ifvqcag","pricing_plan_id":"free"},{"bike_id":"b8b387b1-eb0e-4cd4-897b-c9f885a36e4a","system_id":"levelo_inurba_marseille","lat":43.305706,"lon":5.365654,"is_reserved":false,"is_disabled":false,"rental_uris":{"android":"levelo://app?vid=b8b387b1-eb0e-4cd4-897b-c9f885a36e4a","ios":"levelo://app?vid=b8b387b1-eb0e-4cd4-897b-c9f885a36e4a"},"vehicle_type_id":"4","last_reported":1692302841,"current_range_meters":8000,"station_id":"ce4bgs12rcd13ifvqcag","pricing_plan_id":"free"},{"bike_id":"3084fce7-7189-4559-9035-5c183a77e5e5","system_id":"levelo_inurba_marseille","lat":43.305989,"lon":5.37225,"is_reserved":false,"is_disabled":false,"rental_uris":{"android":"levelo://app?vid=3084fce7-7189-4559-9035-5c183a77e5e5","ios":"levelo://app?vid=3084fce7-7189-4559-9035-5c183a77e5e5"},"vehicle_type_id":"4","last_reported":1692302841,"current_range_meters":8000,"station_id":"ce4bgqh2rcd13ifvqc4g","pricing_plan_id":"free"},{"bike_id":"0fef91fb-03bc-4a4e-af23-b54e2bc052dc","system_id":"levelo_inurba_marseille","lat":43.30786,"lon":5.37648,"is_reserved":false,"is_disabled":false,"rental_uris":{"android":"levelo://app?vid=0fef91fb-03bc-4a4e-af23-b54e2bc052dc","ios":"levelo://app?vid=0fef91fb-03bc-4a4e-af23-b54e2bc052dc"},"vehicle_type_id":"4","last_reported":1692302841,"current_range_meters":0,"station_id":"ce4bgv92rcd13ifvqcq0","pricing_plan_id":"free"},{"bike_id":"9171be6b-708e-4907-ac67-3d4e74ab4f71","system_id":"levelo_inurba_marseille","lat":43.30783,"lon":5.37655,"is_reserved":false,"is_disabled":false,"rental_uris":{"android":"levelo://app?vid=9171be6b-708e-4907-ac67-3d4e74ab4f71","ios":"levelo://app?vid=9171be6b-708e-4907-ac67-3d4e74ab4f71"},"vehicle_type_id":"4","last_reported":1692302841,"current_range_meters":24400,"station_id":"ce4bgv92rcd13ifvqcq0","pricing_plan_id":"free"},{"bike_id":"3ce3293b-2470-49b5-a89c-b82df3b3cc9a","system_id":"levelo_inurba_marseille","lat":43.317075,"lon":5.377367,"is_reserved":false,"is_disabled":false,"rental_uris":{"android":"levelo://app?vid=3ce3293b-2470-49b5-a89c-b82df3b3cc9a","ios":"levelo://app?vid=3ce3293b-2470-49b5-a89c-b82df3b3cc9a"},"vehicle_type_id":"4","last_reported":1692302841,"current_range_meters":16000,"station_id":"ce4bgth2rcd13ifvqch0","pricing_plan_id":"free"},{"bike_id":"abe02008-48b9-4a39-a492-745d55fbe8f7","system_id":"levelo_inurba_marseille","lat":43.31712,"lon":5.37771,"is_reserved":false,"is_disabled":false,"rental_uris":{"android":"levelo://app?vid=abe02008-48b9-4a39-a492-745d55fbe8f7","ios":"levelo://app?vid=abe02008-48b9-4a39-a492-745d55fbe8f7"},"vehicle_type_id":"4","last_reported":1692302841,"current_range_meters":18800,"station_id":"ce4bgth2rcd13ifvqch0","pricing_plan_id":"free"},{"bike_id":"66ccfd8c-e0ae-4844-87a6-8a7d3652888f","system_id":"levelo_inurba_marseille","lat":43.303046,"lon":5.368981,"is_reserved":false,"is_disabled":false,"rental_uris":{"android":"levelo://app?vid=66ccfd8c-e0ae-4844-87a6-8a7d3652888f","ios":"levelo://app?vid=66ccfd8c-e0ae-4844-87a6-8a7d3652888f"},"vehicle_type_id":"4","last_reported":1692302841,"current_range_meters":4000,"station_id":"ce4bgqh2rcd13ifvqc5g","pricing_plan_id":"free"},{"bike_id":"48673fad-3297-46db-bcf6-f957caa10c9c","system_id":"levelo_inurba_marseille","lat":43.315289,"lon":5.380349,"is_reserved":false,"is_disabled":false,"rental_uris":{"android":"levelo://app?vid=48673fad-3297-46db-bcf6-f957caa10c9c","ios":"levelo://app?vid=48673fad-3297-46db-bcf6-f957caa10c9c"},"vehicle_type_id":"4","last_reported":1692302841,"current_range_meters":19200,"station_id":"ce4bhsp2rcd13ifvqi50","pricing_plan_id":"free"},{"bike_id":"f11f593b-f726-4d67-941a-59a3a9062f71","system_id":"levelo_inurba_marseille","lat":43.31537,"lon":5.38034,"is_reserved":false,"is_disabled":false,"rental_uris":{"android":"levelo://app?vid=f11f593b-f726-4d67-941a-59a3a9062f71","ios":"levelo://app?vid=f11f593b-f726-4d67-941a-59a3a9062f71"},"vehicle_type_id":"4","last_reported":1692302841,"current_range_meters":29200,"station_id":"ce4bhsp2rcd13ifvqi50","pricing_plan_id":"free"},{"bike_id":"0c5f38d7-f296-47af-88b8-97f2f6153b5c","system_id":"levelo_inurba_marseille","lat":43.32171,"lon":5.37471,"is_reserved":false,"is_disabled":false,"rental_uris":{"android":"levelo://app?vid=0c5f38d7-f296-47af-88b8-97f2f6153b5c","ios":"levelo://app?vid=0c5f38d7-f296-47af-88b8-97f2f6153b5c"},"vehicle_type_id":"4","last_reported":1692302841,"current_range_meters":0,"station_id":"","pricing_plan_id":"free"},{"bike_id":"d9b15ab1-7226-437f-942f-d909b59b42ad","system_id":"levelo_inurba_marseille","lat":43.301939,"lon":5.366286,"is_reserved":false,"is_disabled":false,"rental_uris":{"android":"levelo://app?vid=d9b15ab1-7226-437f-942f-d909b59b42ad","ios":"levelo://app?vid=d9b15ab1-7226-437f-942f-d909b59b42ad"},"vehicle_type_id":"4","last_reported":1692302841,"current_range_meters":0,"station_id":"ce4bgrh2rcd13ifvqc8g","pricing_plan_id":"free"},{"bike_id":"5e9c47c2-b4bb-4724-80d3-c9951d0bb789","system_id":"levelo_inurba_marseille","lat":43.30806,"lon":5.38153,"is_reserved":false,"is_disabled":false,"rental_uris":{"android":"levelo://app?vid=5e9c47c2-b4bb-4724-80d3-c9951d0bb789","ios":"levelo://app?vid=5e9c47c2-b4bb-4724-80d3-c9951d0bb789"},"vehicle_type_id":"4","last_reported":1692302841,"current_range_meters":800,"station_id":"ce4bgt12rcd13ifvqce0","pricing_plan_id":"free"},{"bike_id":"8cbf13fd-bb91-4a85-a682-17c98f1b5138","system_id":"levelo_inurba_marseille","lat":43.30796,"lon":5.38148,"is_reserved":false,"is_disabled":false,"rental_uris":{"android":"levelo://app?vid=8cbf13fd-bb91-4a85-a682-17c98f1b5138","ios":"levelo://app?vid=8cbf13fd-bb91-4a85-a682-17c98f1b5138"},"vehicle_type_id":"4","last_reported":1692302841,"current_range_meters":11200,"station_id":"ce4bgt12rcd13ifvqce0","pricing_plan_id":"free"},{"bike_id":"96961c34-0bd6-4e67-b80b-338d41a35b1f","system_id":"levelo_inurba_marseille","lat":43.30799,"lon":5.38154,"is_reserved":false,"is_disabled":false,"rental_uris":{"android":"levelo://app?vid=96961c34-0bd6-4e67-b80b-338d41a35b1f","ios":"levelo://app?vid=96961c34-0bd6-4e67-b80b-338d41a35b1f"},"vehicle_type_id":"4","last_reported":1692302841,"current_range_meters":22400,"station_id":"ce4bgt12rcd13ifvqce0","pricing_plan_id":"free"},{"bike_id":"7c7b84be-599f-4e4f-b34f-17003746652f","system_id":"levelo_inurba_marseille","lat":43.304606,"lon":5.379026,"is_reserved":false,"is_disabled":false,"rental_uris":{"android":"levelo://app?vid=7c7b84be-599f-4e4f-b34f-17003746652f","ios":"levelo://app?vid=7c7b84be-599f-4e4f-b34f-17003746652f"},"vehicle_type_id":"4","last_reported":1692302841,"current_range_meters":19200,"station_id":"ce4bgup2rcd13ifvqcn0","pricing_plan_id":"free"},{"bike_id":"7a0bcd87-6fee-4b97-a219-02626abd78c2","system_id":"levelo_inurba_marseille","lat":43.304606,"lon":5.379026,"is_reserved":false,"is_disabled":false,"rental_uris":{"android":"levelo://app?vid=7a0bcd87-6fee-4b97-a219-02626abd78c2","ios":"levelo://app?vid=7a0bcd87-6fee-4b97-a219-02626abd78c2"},"vehicle_type_id":"4","last_reported":1692302841,"current_range_meters":20800,"station_id":"ce4bgup2rcd13ifvqcn0","pricing_plan_id":"free"},{"bike_id":"dea068c3-9f55-443f-a3e8-b89ca5e10582","system_id":"levelo_inurba_marseille","lat":43.304606,"lon":5.379026,"is_reserved":false,"is_disabled":false,"rental_uris":{"android":"levelo://app?vid=dea068c3-9f55-443f-a3e8-b89ca5e10582","ios":"levelo://app?vid=dea068c3-9f55-443f-a3e8-b89ca5e10582"},"vehicle_type_id":"4","last_reported":1692302841,"current_range_meters":30000,"station_id":"ce4bgup2rcd13ifvqcn0","pricing_plan_id":"free"},{"bike_id":"ae798491-ab6a-4ef2-a254-d26ad5881df4","system_id":"levelo_inurba_marseille","lat":43.304606,"lon":5.379026,"is_reserved":false,"is_disabled":false,"rental_uris":{"android":"levelo://app?vid=ae798491-ab6a-4ef2-a254-d26ad5881df4","ios":"levelo://app?vid=ae798491-ab6a-4ef2-a254-d26ad5881df4"},"vehicle_type_id":"4","last_reported":1692302841,"current_range_meters":31600,"station_id":"ce4bgup2rcd13ifvqcn0","pricing_plan_id":"free"},{"bike_id":"74e30182-e09a-4738-8d6d-3beeb29a8c64","system_id":"levelo_inurba_marseille","lat":43.304606,"lon":5.379026,"is_reserved":false,"is_disabled":false,"rental_uris":{"android":"levelo://app?vid=74e30182-e09a-4738-8d6d-3beeb29a8c64","ios":"levelo://app?vid=74e30182-e09a-4738-8d6d-3beeb29a8c64"},"vehicle_type_id":"4","last_reported":1692302841,"current_range_meters":7600,"station_id":"ce4bgup2rcd13ifvqcn0","pricing_plan_id":"free"},{"bike_id":"9b6261f4-62c6-47cb-995a-f4d5cae8733d","system_id":"levelo_inurba_marseille","lat":43.304606,"lon":5.379026,"is_reserved":false,"is_disabled":false,"rental_uris":{"android":"levelo://app?vid=9b6261f4-62c6-47cb-995a-f4d5cae8733d","ios":"levelo://app?vid=9b6261f4-62c6-47cb-995a-f4d5cae8733d"},"vehicle_type_id":"4","last_reported":1692302841,"current_range_meters":31200,"station_id":"ce4bgup2rcd13ifvqcn0","pricing_plan_id":"free"},{"bike_id":"3ef77a1c-101c-4e7b-bbf2-41a2523f0f8a","system_id":"levelo_inurba_marseille","lat":43.304606,"lon":5.379026,"is_reserved":false,"is_disabled":false,"rental_uris":{"android":"levelo://app?vid=3ef77a1c-101c-4e7b-bbf2-41a2523f0f8a","ios":"levelo://app?vid=3ef77a1c-101c-4e7b-bbf2-41a2523f0f8a"},"vehicle_type_id":"4","last_reported":1692302841,"current_range_meters":29200,"station_id":"ce4bgup2rcd13ifvqcn0","pricing_plan_id":"free"},{"bike_id":"82de7c47-027a-47f1-87a5-eaaa420d81d6","system_id":"levelo_inurba_marseille","lat":43.304606,"lon":5.379026,"is_reserved":false,"is_disabled":false,"rental_uris":{"android":"levelo://app?vid=82de7c47-027a-47f1-87a5-eaaa420d81d6","ios":"levelo://app?vid=82de7c47-027a-47f1-87a5-eaaa420d81d6"},"vehicle_type_id":"4","last_reported":1692302841,"current_range_meters":10000,"station_id":"ce4bgup2rcd13ifvqcn0","pricing_plan_id":"free"},{"bike_id":"565c6d95-ac8f-478a-838e-e28755c210d6","system_id":"levelo_inurba_marseille","lat":43.304606,"lon":5.379026,"is_reserved":false,"is_disabled":false,"rental_uris":{"android":"levelo://app?vid=565c6d95-ac8f-478a-838e-e28755c210d6","ios":"levelo://app?vid=565c6d95-ac8f-478a-838e-e28755c210d6"},"vehicle_type_id":"4","last_reported":1692302841,"current_range_meters":28400,"station_id":"ce4bgup2rcd13ifvqcn0","pricing_plan_id":"free"},{"bike_id":"75bace12-183c-4ed7-9a12-b46a0ec8cc30","system_id":"levelo_inurba_marseille","lat":43.304606,"lon":5.379026,"is_reserved":false,"is_disabled":false,"rental_uris":{"android":"levelo://app?vid=75bace12-183c-4ed7-9a12-b46a0ec8cc30","ios":"levelo://app?vid=75bace12-183c-4ed7-9a12-b46a0ec8cc30"},"vehicle_type_id":"4","last_reported":1692302841,"current_range_meters":16000,"station_id":"ce4bgup2rcd13ifvqcn0","pricing_plan_id":"free"},{"bike_id":"e87184e6-3d01-4eed-acee-f4256cd06271","system_id":"levelo_inurba_marseille","lat":43.304606,"lon":5.379026,"is_reserved":false,"is_disabled":false,"rental_uris":{"android":"levelo://app?vid=e87184e6-3d01-4eed-acee-f4256cd06271","ios":"levelo://app?vid=e87184e6-3d01-4eed-acee-f4256cd06271"},"vehicle_type_id":"4","last_reported":1692302841,"current_range_meters":15200,"station_id":"ce4bgup2rcd13ifvqcn0","pricing_plan_id":"free"},{"bike_id":"116048b7-452e-491d-98e5-3b3d6cb425c8","system_id":"levelo_inurba_marseille","lat":43.304606,"lon":5.379026,"is_reserved":false,"is_disabled":false,"rental_uris":{"android":"levelo://app?vid=116048b7-452e-491d-98e5-3b3d6cb425c8","ios":"levelo://app?vid=116048b7-452e-491d-98e5-3b3d6cb425c8"},"vehicle_type_id":"4","last_reported":1692302841,"current_range_meters":13600,"station_id":"ce4bgup2rcd13ifvqcn0","pricing_plan_id":"free"},{"bike_id":"87358efd-e413-491b-a7e7-1beb97a495cb","system_id":"levelo_inurba_marseille","lat":43.304606,"lon":5.379026,"is_reserved":false,"is_disabled":false,"rental_uris":{"android":"levelo://app?vid=87358efd-e413-491b-a7e7-1beb97a495cb","ios":"levelo://app?vid=87358efd-e413-491b-a7e7-1beb97a495cb"},"vehicle_type_id":"4","last_reported":1692302841,"current_range_meters":31600,"station_id":"ce4bgup2rcd13ifvqcn0","pricing_plan_id":"free"},{"bike_id":"2bc3d7f8-9f07-403a-9e85-acfe2bc19416","system_id":"levelo_inurba_marseille","lat":43.302784,"lon":5.377158,"is_reserved":false,"is_disabled":false,"rental_uris":{"android":"levelo://app?vid=2bc3d7f8-9f07-403a-9e85-acfe2bc19416","ios":"levelo://app?vid=2bc3d7f8-9f07-403a-9e85-acfe2bc19416"},"vehicle_type_id":"4","last_reported":1692302841,"current_range_meters":29200,"station_id":"ce4bguh2rcd13ifvqcj0","pricing_plan_id":"free"},{"bike_id":"eadfa1f5-720f-405e-8be4-023bd3aaa15d","system_id":"levelo_inurba_marseille","lat":43.302784,"lon":5.377158,"is_reserved":false,"is_disabled":false,"rental_uris":{"android":"levelo://app?vid=eadfa1f5-720f-405e-8be4-023bd3aaa15d","ios":"levelo://app?vid=eadfa1f5-720f-405e-8be4-023bd3aaa15d"},"vehicle_type_id":"4","last_reported":1692302841,"current_range_meters":24000,"station_id":"ce4bguh2rcd13ifvqcj0","pricing_plan_id":"free"},{"bike_id":"ddc131a7-6b81-4282-b6d4-bb9e72b66f33","system_id":"levelo_inurba_marseille","lat":43.302784,"lon":5.377158,"is_reserved":false,"is_disabled":false,"rental_uris":{"android":"levelo://app?vid=ddc131a7-6b81-4282-b6d4-bb9e72b66f33","ios":"levelo://app?vid=ddc131a7-6b81-4282-b6d4-bb9e72b66f33"},"vehicle_type_id":"4","last_reported":1692302841,"current_range_meters":19600,"station_id":"ce4bguh2rcd13ifvqcj0","pricing_plan_id":"free"},{"bike_id":"0199fadd-d0a9-4074-adc4-86b80fffb7d6","system_id":"levelo_inurba_marseille","lat":43.319935,"lon":5.381699,"is_reserved":false,"is_disabled":false,"rental_uris":{"android":"levelo://app?vid=0199fadd-d0a9-4074-adc4-86b80fffb7d6","ios":"levelo://app?vid=0199fadd-d0a9-4074-adc4-86b80fffb7d6"},"vehicle_type_id":"4","last_reported":1692302841,"current_range_meters":30000,"station_id":"ce4bhr12rcd13ifvqhpg","pricing_plan_id":"free"},{"bike_id":"b328d323-4e49-4e11-8d47-6f47f1998c64","system_id":"levelo_inurba_marseille","lat":43.319935,"lon":5.381699,"is_reserved":false,"is_disabled":false,"rental_uris":{"android":"levelo://app?vid=b328d323-4e49-4e11-8d47-6f47f1998c64","ios":"levelo://app?vid=b328d323-4e49-4e11-8d47-6f47f1998c64"},"vehicle_type_id":"4","last_reported":1692302841,"current_range_meters":25600,"station_id":"ce4bhr12rcd13ifvqhpg","pricing_plan_id":"free"},{"bike_id":"8edc98e9-ff68-4abb-9aed-439fc370eb1d","system_id":"levelo_inurba_marseille","lat":43.31993,"lon":5.38143,"is_reserved":false,"is_disabled":false,"rental_uris":{"android":"levelo://app?vid=8edc98e9-ff68-4abb-9aed-439fc370eb1d","ios":"levelo://app?vid=8edc98e9-ff68-4abb-9aed-439fc370eb1d"},"vehicle_type_id":"4","last_reported":1692302841,"current_range_meters":10400,"station_id":"ce4bhr12rcd13ifvqhpg","pricing_plan_id":"free"},{"bike_id":"7b3c0e6e-bbe2-4c88-aaa1-69c07e9b139a","system_id":"levelo_inurba_marseille","lat":43.31996,"lon":5.3815,"is_reserved":false,"is_disabled":false,"rental_uris":{"android":"levelo://app?vid=7b3c0e6e-bbe2-4c88-aaa1-69c07e9b139a","ios":"levelo://app?vid=7b3c0e6e-bbe2-4c88-aaa1-69c07e9b139a"},"vehicle_type_id":"4","last_reported":1692302841,"current_range_meters":17200,"station_id":"ce4bhr12rcd13ifvqhpg","pricing_plan_id":"free"},{"bike_id":"88762d40-52ba-436a-b80a-c40414f42fb8","system_id":"levelo_inurba_marseille","lat":43.31991,"lon":5.38169,"is_reserved":false,"is_disabled":false,"rental_uris":{"android":"levelo://app?vid=88762d40-52ba-436a-b80a-c40414f42fb8","ios":"levelo://app?vid=88762d40-52ba-436a-b80a-c40414f42fb8"},"vehicle_type_id":"4","last_reported":1692302841,"current_range_meters":6000,"station_id":"ce4bhr12rcd13ifvqhpg","pricing_plan_id":"free"},{"bike_id":"fb9de164-f97e-478e-9fa7-b6fa3e039409","system_id":"levelo_inurba_marseille","lat":43.313571,"lon":5.384829,"is_reserved":false,"is_disabled":false,"rental_uris":{"android":"levelo://app?vid=fb9de164-f97e-478e-9fa7-b6fa3e039409","ios":"levelo://app?vid=fb9de164-f97e-478e-9fa7-b6fa3e039409"},"vehicle_type_id":"4","last_reported":1692302841,"current_range_meters":12800,"station_id":"ce4bgt92rcd13ifvqcf0","pricing_plan_id":"free"},{"bike_id":"f153ac73-9ab3-442f-8759-d49d5175c475","system_id":"levelo_inurba_marseille","lat":43.313571,"lon":5.384829,"is_reserved":false,"is_disabled":false,"rental_uris":{"android":"levelo://app?vid=f153ac73-9ab3-442f-8759-d49d5175c475","ios":"levelo://app?vid=f153ac73-9ab3-442f-8759-d49d5175c475"},"vehicle_type_id":"4","last_reported":1692302841,"current_range_meters":10000,"station_id":"ce4bgt92rcd13ifvqcf0","pricing_plan_id":"free"},{"bike_id":"d44fe93f-ae2b-4a88-bff1-45011735cb13","system_id":"levelo_inurba_marseille","lat":43.313571,"lon":5.384829,"is_reserved":false,"is_disabled":false,"rental_uris":{"android":"levelo://app?vid=d44fe93f-ae2b-4a88-bff1-45011735cb13","ios":"levelo://app?vid=d44fe93f-ae2b-4a88-bff1-45011735cb13"},"vehicle_type_id":"4","last_reported":1692302841,"current_range_meters":6800,"station_id":"ce4bgt92rcd13ifvqcf0","pricing_plan_id":"free"},{"bike_id":"804c3f64-25ab-4ab9-aa07-fba60f6693dd","system_id":"levelo_inurba_marseille","lat":43.313571,"lon":5.384829,"is_reserved":false,"is_disabled":false,"rental_uris":{"android":"levelo://app?vid=804c3f64-25ab-4ab9-aa07-fba60f6693dd","ios":"levelo://app?vid=804c3f64-25ab-4ab9-aa07-fba60f6693dd"},"vehicle_type_id":"4","last_reported":1692302841,"current_range_meters":6400,"station_id":"ce4bgt92rcd13ifvqcf0","pricing_plan_id":"free"},{"bike_id":"4dd5ebda-91ca-4e90-90ef-8cf785d7a644","system_id":"levelo_inurba_marseille","lat":43.313571,"lon":5.384829,"is_reserved":false,"is_disabled":false,"rental_uris":{"android":"levelo://app?vid=4dd5ebda-91ca-4e90-90ef-8cf785d7a644","ios":"levelo://app?vid=4dd5ebda-91ca-4e90-90ef-8cf785d7a644"},"vehicle_type_id":"4","last_reported":1692302841,"current_range_meters":19600,"station_id":"ce4bgt92rcd13ifvqcf0","pricing_plan_id":"free"},{"bike_id":"edcd4620-0989-48c0-a8b2-f553f618cd83","system_id":"levelo_inurba_marseille","lat":43.313571,"lon":5.384829,"is_reserved":false,"is_disabled":false,"rental_uris":{"android":"levelo://app?vid=edcd4620-0989-48c0-a8b2-f553f618cd83","ios":"levelo://app?vid=edcd4620-0989-48c0-a8b2-f553f618cd83"},"vehicle_type_id":"4","last_reported":1692302841,"current_range_meters":8000,"station_id":"ce4bgt92rcd13ifvqcf0","pricing_plan_id":"free"},{"bike_id":"f8506981-5e18-4cfa-9c66-08877592c2e8","system_id":"levelo_inurba_marseille","lat":43.313571,"lon":5.384829,"is_reserved":false,"is_disabled":false,"rental_uris":{"android":"levelo://app?vid=f8506981-5e18-4cfa-9c66-08877592c2e8","ios":"levelo://app?vid=f8506981-5e18-4cfa-9c66-08877592c2e8"},"vehicle_type_id":"4","last_reported":1692302841,"current_range_meters":5600,"station_id":"ce4bgt92rcd13ifvqcf0","pricing_plan_id":"free"},{"bike_id":"de50fa22-9d22-41a3-b8d7-c8214945d33f","system_id":"levelo_inurba_marseille","lat":43.313571,"lon":5.384829,"is_reserved":false,"is_disabled":false,"rental_uris":{"android":"levelo://app?vid=de50fa22-9d22-41a3-b8d7-c8214945d33f","ios":"levelo://app?vid=de50fa22-9d22-41a3-b8d7-c8214945d33f"},"vehicle_type_id":"4","last_reported":1692302841,"current_range_meters":22000,"station_id":"ce4bgt92rcd13ifvqcf0","pricing_plan_id":"free"},{"bike_id":"2f64f751-e7b2-43cc-8d61-d93e099f5010","system_id":"levelo_inurba_marseille","lat":43.29975,"lon":5.37183,"is_reserved":false,"is_disabled":false,"rental_uris":{"android":"levelo://app?vid=2f64f751-e7b2-43cc-8d61-d93e099f5010","ios":"levelo://app?vid=2f64f751-e7b2-43cc-8d61-d93e099f5010"},"vehicle_type_id":"4","last_reported":1692302841,"current_range_meters":400,"station_id":"ce4bgr92rcd13ifvqc7g","pricing_plan_id":"free"},{"bike_id":"bbe0e9a1-9133-48fd-bb5e-12e1579adf5c","system_id":"levelo_inurba_marseille","lat":43.299222,"lon":5.365554,"is_reserved":false,"is_disabled":false,"rental_uris":{"android":"levelo://app?vid=bbe0e9a1-9133-48fd-bb5e-12e1579adf5c","ios":"levelo://app?vid=bbe0e9a1-9133-48fd-bb5e-12e1579adf5c"},"vehicle_type_id":"4","last_reported":1692302841,"current_range_meters":8800,"station_id":"ce4bgm92rcd13ifvqbr0","pricing_plan_id":"free"},{"bike_id":"23529586-fe08-4d7f-8f82-5de25235c645","system_id":"levelo_inurba_marseille","lat":43.30539,"lon":5.38419,"is_reserved":false,"is_disabled":false,"rental_uris":{"android":"levelo://app?vid=23529586-fe08-4d7f-8f82-5de25235c645","ios":"levelo://app?vid=23529586-fe08-4d7f-8f82-5de25235c645"},"vehicle_type_id":"4","last_reported":1692302841,"current_range_meters":23600,"station_id":"ce4bgg92rcd13ifvqb30","pricing_plan_id":"free"},{"bike_id":"ee93d6d5-5d21-466a-964c-31769f078e44","system_id":"levelo_inurba_marseille","lat":43.305364,"lon":5.384119,"is_reserved":false,"is_disabled":false,"rental_uris":{"android":"levelo://app?vid=ee93d6d5-5d21-466a-964c-31769f078e44","ios":"levelo://app?vid=ee93d6d5-5d21-466a-964c-31769f078e44"},"vehicle_type_id":"4","last_reported":1692302841,"current_range_meters":0,"station_id":"ce4bgg92rcd13ifvqb30","pricing_plan_id":"free"},{"bike_id":"df72ed12-ee3b-4dd1-b58e-235c765c13da","system_id":"levelo_inurba_marseille","lat":43.298433,"lon":5.362774,"is_reserved":false,"is_disabled":false,"rental_uris":{"android":"levelo://app?vid=df72ed12-ee3b-4dd1-b58e-235c765c13da","ios":"levelo://app?vid=df72ed12-ee3b-4dd1-b58e-235c765c13da"},"vehicle_type_id":"4","last_reported":1692302841,"current_range_meters":0,"station_id":"ce4bgpp2rcd13ifvqc3g","pricing_plan_id":"free"},{"bike_id":"cb505fc2-0811-40e6-af0a-c6f64ed5e43d","system_id":"levelo_inurba_marseille","lat":43.30531,"lon":5.38418,"is_reserved":false,"is_disabled":false,"rental_uris":{"android":"levelo://app?vid=cb505fc2-0811-40e6-af0a-c6f64ed5e43d","ios":"levelo://app?vid=cb505fc2-0811-40e6-af0a-c6f64ed5e43d"},"vehicle_type_id":"4","last_reported":1692302841,"current_range_meters":2800,"station_id":"ce4bgg92rcd13ifvqb30","pricing_plan_id":"free"},{"bike_id":"20f440e4-654a-4327-b233-ff7f407b367a","system_id":"levelo_inurba_marseille","lat":43.298433,"lon":5.362774,"is_reserved":false,"is_disabled":false,"rental_uris":{"android":"levelo://app?vid=20f440e4-654a-4327-b233-ff7f407b367a","ios":"levelo://app?vid=20f440e4-654a-4327-b233-ff7f407b367a"},"vehicle_type_id":"4","last_reported":1692302841,"current_range_meters":15600,"station_id":"ce4bgpp2rcd13ifvqc3g","pricing_plan_id":"free"},{"bike_id":"f79f9b9e-51c1-4755-94a1-bd31ffad7025","system_id":"levelo_inurba_marseille","lat":43.311722,"lon":5.387247,"is_reserved":false,"is_disabled":false,"rental_uris":{"android":"levelo://app?vid=f79f9b9e-51c1-4755-94a1-bd31ffad7025","ios":"levelo://app?vid=f79f9b9e-51c1-4755-94a1-bd31ffad7025"},"vehicle_type_id":"4","last_reported":1692302841,"current_range_meters":29600,"station_id":"ce4bgv12rcd13ifvqcp0","pricing_plan_id":"free"},{"bike_id":"269c45b3-0a1f-4496-8b17-d1e39e21ae71","system_id":"levelo_inurba_marseille","lat":43.298433,"lon":5.362774,"is_reserved":false,"is_disabled":false,"rental_uris":{"android":"levelo://app?vid=269c45b3-0a1f-4496-8b17-d1e39e21ae71","ios":"levelo://app?vid=269c45b3-0a1f-4496-8b17-d1e39e21ae71"},"vehicle_type_id":"4","last_reported":1692302841,"current_range_meters":2000,"station_id":"ce4bgpp2rcd13ifvqc3g","pricing_plan_id":"free"},{"bike_id":"bf1af64b-15ab-4964-913f-a38b47d1ac1b","system_id":"levelo_inurba_marseille","lat":43.311722,"lon":5.387247,"is_reserved":false,"is_disabled":false,"rental_uris":{"android":"levelo://app?vid=bf1af64b-15ab-4964-913f-a38b47d1ac1b","ios":"levelo://app?vid=bf1af64b-15ab-4964-913f-a38b47d1ac1b"},"vehicle_type_id":"4","last_reported":1692302841,"current_range_meters":10800,"station_id":"ce4bgv12rcd13ifvqcp0","pricing_plan_id":"free"},{"bike_id":"38067523-18ef-4e32-8ea7-710aef21d413","system_id":"levelo_inurba_marseille","lat":43.299243,"lon":5.37481,"is_reserved":false,"is_disabled":false,"rental_uris":{"android":"levelo://app?vid=38067523-18ef-4e32-8ea7-710aef21d413","ios":"levelo://app?vid=38067523-18ef-4e32-8ea7-710aef21d413"},"vehicle_type_id":"4","last_reported":1692302841,"current_range_meters":29200,"station_id":"ce4bgjh2rcd13ifvqbg0","pricing_plan_id":"free"},{"bike_id":"e609e053-0381-4f8c-8c24-16c7fcab9a0d","system_id":"levelo_inurba_marseille","lat":43.311722,"lon":5.387247,"is_reserved":false,"is_disabled":false,"rental_uris":{"android":"levelo://app?vid=e609e053-0381-4f8c-8c24-16c7fcab9a0d","ios":"levelo://app?vid=e609e053-0381-4f8c-8c24-16c7fcab9a0d"},"vehicle_type_id":"4","last_reported":1692302841,"current_range_meters":23600,"station_id":"ce4bgv12rcd13ifvqcp0","pricing_plan_id":"free"},{"bike_id":"2011f41e-ea27-4c89-8681-b4ffd298e9f5","system_id":"levelo_inurba_marseille","lat":43.311722,"lon":5.387247,"is_reserved":false,"is_disabled":false,"rental_uris":{"android":"levelo://app?vid=2011f41e-ea27-4c89-8681-b4ffd298e9f5","ios":"levelo://app?vid=2011f41e-ea27-4c89-8681-b4ffd298e9f5"},"vehicle_type_id":"4","last_reported":1692302841,"current_range_meters":13600,"station_id":"ce4bgv12rcd13ifvqcp0","pricing_plan_id":"free"},{"bike_id":"2f7523e7-c87b-4987-b057-3c3c0c63913b","system_id":"levelo_inurba_marseille","lat":43.311722,"lon":5.387247,"is_reserved":false,"is_disabled":false,"rental_uris":{"android":"levelo://app?vid=2f7523e7-c87b-4987-b057-3c3c0c63913b","ios":"levelo://app?vid=2f7523e7-c87b-4987-b057-3c3c0c63913b"},"vehicle_type_id":"4","last_reported":1692302841,"current_range_meters":17200,"station_id":"ce4bgv12rcd13ifvqcp0","pricing_plan_id":"free"},{"bike_id":"d2afe736-b706-4c1c-ac48-517d0f070897","system_id":"levelo_inurba_marseille","lat":43.311722,"lon":5.387247,"is_reserved":false,"is_disabled":false,"rental_uris":{"android":"levelo://app?vid=d2afe736-b706-4c1c-ac48-517d0f070897","ios":"levelo://app?vid=d2afe736-b706-4c1c-ac48-517d0f070897"},"vehicle_type_id":"4","last_reported":1692302841,"current_range_meters":11200,"station_id":"ce4bgv12rcd13ifvqcp0","pricing_plan_id":"free"},{"bike_id":"6d18e455-8501-46f7-8d95-2086df1fa7de","system_id":"levelo_inurba_marseille","lat":43.311722,"lon":5.387247,"is_reserved":false,"is_disabled":false,"rental_uris":{"android":"levelo://app?vid=6d18e455-8501-46f7-8d95-2086df1fa7de","ios":"levelo://app?vid=6d18e455-8501-46f7-8d95-2086df1fa7de"},"vehicle_type_id":"4","last_reported":1692302841,"current_range_meters":0,"station_id":"ce4bgv12rcd13ifvqcp0","pricing_plan_id":"free"},{"bike_id":"1c270814-c471-43ba-9ee2-c1970af65df8","system_id":"levelo_inurba_marseille","lat":43.311722,"lon":5.387247,"is_reserved":false,"is_disabled":false,"rental_uris":{"android":"levelo://app?vid=1c270814-c471-43ba-9ee2-c1970af65df8","ios":"levelo://app?vid=1c270814-c471-43ba-9ee2-c1970af65df8"},"vehicle_type_id":"4","last_reported":1692302841,"current_range_meters":14400,"station_id":"ce4bgv12rcd13ifvqcp0","pricing_plan_id":"free"},{"bike_id":"4b0f69a5-3597-4e7f-bdeb-a711a2bf1508","system_id":"levelo_inurba_marseille","lat":43.311722,"lon":5.387247,"is_reserved":false,"is_disabled":false,"rental_uris":{"android":"levelo://app?vid=4b0f69a5-3597-4e7f-bdeb-a711a2bf1508","ios":"levelo://app?vid=4b0f69a5-3597-4e7f-bdeb-a711a2bf1508"},"vehicle_type_id":"4","last_reported":1692302841,"current_range_meters":4400,"station_id":"ce4bgv12rcd13ifvqcp0","pricing_plan_id":"free"},{"bike_id":"2bc33e88-1f92-44a6-9cd2-0c69180c5f54","system_id":"levelo_inurba_marseille","lat":43.311722,"lon":5.387247,"is_reserved":false,"is_disabled":false,"rental_uris":{"android":"levelo://app?vid=2bc33e88-1f92-44a6-9cd2-0c69180c5f54","ios":"levelo://app?vid=2bc33e88-1f92-44a6-9cd2-0c69180c5f54"},"vehicle_type_id":"4","last_reported":1692302841,"current_range_meters":12400,"station_id":"ce4bgv12rcd13ifvqcp0","pricing_plan_id":"free"},{"bike_id":"c4e9721d-460b-4bd9-8d1e-910a64307497","system_id":"levelo_inurba_marseille","lat":43.311722,"lon":5.387247,"is_reserved":false,"is_disabled":false,"rental_uris":{"android":"levelo://app?vid=c4e9721d-460b-4bd9-8d1e-910a64307497","ios":"levelo://app?vid=c4e9721d-460b-4bd9-8d1e-910a64307497"},"vehicle_type_id":"4","last_reported":1692302841,"current_range_meters":4800,"station_id":"ce4bgv12rcd13ifvqcp0","pricing_plan_id":"free"},{"bike_id":"78acec02-df74-4d14-81e3-ce32ecb4ed2d","system_id":"levelo_inurba_marseille","lat":43.299243,"lon":5.374807,"is_reserved":false,"is_disabled":false,"rental_uris":{"android":"levelo://app?vid=78acec02-df74-4d14-81e3-ce32ecb4ed2d","ios":"levelo://app?vid=78acec02-df74-4d14-81e3-ce32ecb4ed2d"},"vehicle_type_id":"4","last_reported":1692302841,"current_range_meters":22800,"station_id":"ce4bgjh2rcd13ifvqbg0","pricing_plan_id":"free"},{"bike_id":"2b488fa5-6690-49f1-8674-7d2969f31eb4","system_id":"levelo_inurba_marseille","lat":43.322872,"lon":5.382756,"is_reserved":false,"is_disabled":false,"rental_uris":{"android":"levelo://app?vid=2b488fa5-6690-49f1-8674-7d2969f31eb4","ios":"levelo://app?vid=2b488fa5-6690-49f1-8674-7d2969f31eb4"},"vehicle_type_id":"4","last_reported":1692302841,"current_range_meters":20800,"station_id":"ce4bhr12rcd13ifvqhqg","pricing_plan_id":"free"},{"bike_id":"15120a69-1dc0-488d-b5dc-3813b3f3db2b","system_id":"levelo_inurba_marseille","lat":43.322872,"lon":5.382756,"is_reserved":false,"is_disabled":false,"rental_uris":{"android":"levelo://app?vid=15120a69-1dc0-488d-b5dc-3813b3f3db2b","ios":"levelo://app?vid=15120a69-1dc0-488d-b5dc-3813b3f3db2b"},"vehicle_type_id":"4","last_reported":1692302841,"current_range_meters":6000,"station_id":"ce4bhr12rcd13ifvqhqg","pricing_plan_id":"free"},{"bike_id":"b9784bc4-a1f4-4e7b-a996-3746dcc4c656","system_id":"levelo_inurba_marseille","lat":43.32287,"lon":5.38267,"is_reserved":false,"is_disabled":false,"rental_uris":{"android":"levelo://app?vid=b9784bc4-a1f4-4e7b-a996-3746dcc4c656","ios":"levelo://app?vid=b9784bc4-a1f4-4e7b-a996-3746dcc4c656"},"vehicle_type_id":"4","last_reported":1692302841,"current_range_meters":18400,"station_id":"ce4bhr12rcd13ifvqhqg","pricing_plan_id":"free"},{"bike_id":"67c43f86-fcb6-41cc-8957-c0d7033c94b6","system_id":"levelo_inurba_marseille","lat":43.32293,"lon":5.3826,"is_reserved":false,"is_disabled":false,"rental_uris":{"android":"levelo://app?vid=67c43f86-fcb6-41cc-8957-c0d7033c94b6","ios":"levelo://app?vid=67c43f86-fcb6-41cc-8957-c0d7033c94b6"},"vehicle_type_id":"4","last_reported":1692302841,"current_range_meters":26800,"station_id":"ce4bhr12rcd13ifvqhqg","pricing_plan_id":"free"},{"bike_id":"673200d6-9c00-4797-bd65-06254571f6fe","system_id":"levelo_inurba_marseille","lat":43.32289,"lon":5.38265,"is_reserved":false,"is_disabled":false,"rental_uris":{"android":"levelo://app?vid=673200d6-9c00-4797-bd65-06254571f6fe","ios":"levelo://app?vid=673200d6-9c00-4797-bd65-06254571f6fe"},"vehicle_type_id":"4","last_reported":1692302841,"current_range_meters":31200,"station_id":"ce4bhr12rcd13ifvqhqg","pricing_plan_id":"free"},{"bike_id":"dae4f848-b0f8-4754-83f5-8feeef2d9437","system_id":"levelo_inurba_marseille","lat":43.32285,"lon":5.3827,"is_reserved":false,"is_disabled":false,"rental_uris":{"android":"levelo://app?vid=dae4f848-b0f8-4754-83f5-8feeef2d9437","ios":"levelo://app?vid=dae4f848-b0f8-4754-83f5-8feeef2d9437"},"vehicle_type_id":"4","last_reported":1692302841,"current_range_meters":21600,"station_id":"ce4bhr12rcd13ifvqhqg","pricing_plan_id":"free"},{"bike_id":"5f91fc7d-0833-4a7c-a0d8-21ec0ad5455a","system_id":"levelo_inurba_marseille","lat":43.32286,"lon":5.38269,"is_reserved":false,"is_disabled":false,"rental_uris":{"android":"levelo://app?vid=5f91fc7d-0833-4a7c-a0d8-21ec0ad5455a","ios":"levelo://app?vid=5f91fc7d-0833-4a7c-a0d8-21ec0ad5455a"},"vehicle_type_id":"4","last_reported":1692302841,"current_range_meters":29200,"station_id":"ce4bhr12rcd13ifvqhqg","pricing_plan_id":"free"},{"bike_id":"2655ed25-ff91-44e2-9350-639e39275cf7","system_id":"levelo_inurba_marseille","lat":43.32287,"lon":5.38268,"is_reserved":false,"is_disabled":false,"rental_uris":{"android":"levelo://app?vid=2655ed25-ff91-44e2-9350-639e39275cf7","ios":"levelo://app?vid=2655ed25-ff91-44e2-9350-639e39275cf7"},"vehicle_type_id":"4","last_reported":1692302841,"current_range_meters":30000,"station_id":"ce4bhr12rcd13ifvqhqg","pricing_plan_id":"free"},{"bike_id":"5b5c8cae-b425-4976-9ba8-5ae205664d6b","system_id":"levelo_inurba_marseille","lat":43.32294,"lon":5.3826,"is_reserved":false,"is_disabled":false,"rental_uris":{"android":"levelo://app?vid=5b5c8cae-b425-4976-9ba8-5ae205664d6b","ios":"levelo://app?vid=5b5c8cae-b425-4976-9ba8-5ae205664d6b"},"vehicle_type_id":"4","last_reported":1692302841,"current_range_meters":27600,"station_id":"ce4bhr12rcd13ifvqhqg","pricing_plan_id":"free"},{"bike_id":"4ea834d1-267f-41ec-b789-6c09255ff5cc","system_id":"levelo_inurba_marseille","lat":43.32288,"lon":5.38269,"is_reserved":false,"is_disabled":false,"rental_uris":{"android":"levelo://app?vid=4ea834d1-267f-41ec-b789-6c09255ff5cc","ios":"levelo://app?vid=4ea834d1-267f-41ec-b789-6c09255ff5cc"},"vehicle_type_id":"4","last_reported":1692302841,"current_range_meters":28000,"station_id":"ce4bhr12rcd13ifvqhqg","pricing_plan_id":"free"},{"bike_id":"20066552-063e-4d3e-9e10-e0e8a6d2c838","system_id":"levelo_inurba_marseille","lat":43.32289,"lon":5.3827,"is_reserved":false,"is_disabled":false,"rental_uris":{"android":"levelo://app?vid=20066552-063e-4d3e-9e10-e0e8a6d2c838","ios":"levelo://app?vid=20066552-063e-4d3e-9e10-e0e8a6d2c838"},"vehicle_type_id":"4","last_reported":1692302841,"current_range_meters":10400,"station_id":"ce4bhr12rcd13ifvqhqg","pricing_plan_id":"free"},{"bike_id":"a1f7b084-f437-4e0c-8b20-334f54c48d59","system_id":"levelo_inurba_marseille","lat":43.322872,"lon":5.382756,"is_reserved":false,"is_disabled":false,"rental_uris":{"android":"levelo://app?vid=a1f7b084-f437-4e0c-8b20-334f54c48d59","ios":"levelo://app?vid=a1f7b084-f437-4e0c-8b20-334f54c48d59"},"vehicle_type_id":"4","last_reported":1692302841,"current_range_meters":26800,"station_id":"ce4bhr12rcd13ifvqhqg","pricing_plan_id":"free"},{"bike_id":"3939665d-1aff-4356-9613-1016666cc1ac","system_id":"levelo_inurba_marseille","lat":43.328371,"lon":5.366909,"is_reserved":false,"is_disabled":false,"rental_uris":{"android":"levelo://app?vid=3939665d-1aff-4356-9613-1016666cc1ac","ios":"levelo://app?vid=3939665d-1aff-4356-9613-1016666cc1ac"},"vehicle_type_id":"4","last_reported":1692302841,"current_range_meters":23600,"station_id":"ce4bhs92rcd13ifvqi0g","pricing_plan_id":"free"},{"bike_id":"97698a41-4d72-4778-ae6b-5ff60322f081","system_id":"levelo_inurba_marseille","lat":43.328371,"lon":5.366909,"is_reserved":false,"is_disabled":false,"rental_uris":{"android":"levelo://app?vid=97698a41-4d72-4778-ae6b-5ff60322f081","ios":"levelo://app?vid=97698a41-4d72-4778-ae6b-5ff60322f081"},"vehicle_type_id":"4","last_reported":1692302841,"current_range_meters":16400,"station_id":"ce4bhs92rcd13ifvqi0g","pricing_plan_id":"free"},{"bike_id":"4ed96fad-2e51-49a2-879d-e8c05ef80263","system_id":"levelo_inurba_marseille","lat":43.328371,"lon":5.366909,"is_reserved":false,"is_disabled":false,"rental_uris":{"android":"levelo://app?vid=4ed96fad-2e51-49a2-879d-e8c05ef80263","ios":"levelo://app?vid=4ed96fad-2e51-49a2-879d-e8c05ef80263"},"vehicle_type_id":"4","last_reported":1692302841,"current_range_meters":9200,"station_id":"ce4bhs92rcd13ifvqi0g","pricing_plan_id":"free"},{"bike_id":"2cacf4ba-30f0-4f40-92af-cee799fe4c0c","system_id":"levelo_inurba_marseille","lat":43.32826,"lon":5.36678,"is_reserved":false,"is_disabled":false,"rental_uris":{"android":"levelo://app?vid=2cacf4ba-30f0-4f40-92af-cee799fe4c0c","ios":"levelo://app?vid=2cacf4ba-30f0-4f40-92af-cee799fe4c0c"},"vehicle_type_id":"4","last_reported":1692302841,"current_range_meters":21600,"station_id":"ce4bhs92rcd13ifvqi0g","pricing_plan_id":"free"},{"bike_id":"3dc8ddfd-e386-4774-938c-dc3a7b25274a","system_id":"levelo_inurba_marseille","lat":43.32826,"lon":5.36666,"is_reserved":false,"is_disabled":false,"rental_uris":{"android":"levelo://app?vid=3dc8ddfd-e386-4774-938c-dc3a7b25274a","ios":"levelo://app?vid=3dc8ddfd-e386-4774-938c-dc3a7b25274a"},"vehicle_type_id":"4","last_reported":1692302841,"current_range_meters":12400,"station_id":"ce4bhs92rcd13ifvqi0g","pricing_plan_id":"free"},{"bike_id":"6c5052fb-6aae-4d5e-b8e5-1d2f3fa84c40","system_id":"levelo_inurba_marseille","lat":43.328371,"lon":5.366909,"is_reserved":false,"is_disabled":false,"rental_uris":{"android":"levelo://app?vid=6c5052fb-6aae-4d5e-b8e5-1d2f3fa84c40","ios":"levelo://app?vid=6c5052fb-6aae-4d5e-b8e5-1d2f3fa84c40"},"vehicle_type_id":"4","last_reported":1692302841,"current_range_meters":21200,"station_id":"ce4bhs92rcd13ifvqi0g","pricing_plan_id":"free"},{"bike_id":"54004dd5-a87c-4c2d-aec9-93cf55b6de7f","system_id":"levelo_inurba_marseille","lat":43.32829,"lon":5.36679,"is_reserved":false,"is_disabled":false,"rental_uris":{"android":"levelo://app?vid=54004dd5-a87c-4c2d-aec9-93cf55b6de7f","ios":"levelo://app?vid=54004dd5-a87c-4c2d-aec9-93cf55b6de7f"},"vehicle_type_id":"4","last_reported":1692302841,"current_range_meters":15600,"station_id":"ce4bhs92rcd13ifvqi0g","pricing_plan_id":"free"},{"bike_id":"c84822bd-f81b-4f6c-9edf-3a63395bc23a","system_id":"levelo_inurba_marseille","lat":43.328371,"lon":5.366909,"is_reserved":false,"is_disabled":false,"rental_uris":{"android":"levelo://app?vid=c84822bd-f81b-4f6c-9edf-3a63395bc23a","ios":"levelo://app?vid=c84822bd-f81b-4f6c-9edf-3a63395bc23a"},"vehicle_type_id":"4","last_reported":1692302841,"current_range_meters":9600,"station_id":"ce4bhs92rcd13ifvqi0g","pricing_plan_id":"free"},{"bike_id":"56504123-b8fe-479c-b20d-811167e44a23","system_id":"levelo_inurba_marseille","lat":43.32832,"lon":5.36678,"is_reserved":false,"is_disabled":false,"rental_uris":{"android":"levelo://app?vid=56504123-b8fe-479c-b20d-811167e44a23","ios":"levelo://app?vid=56504123-b8fe-479c-b20d-811167e44a23"},"vehicle_type_id":"4","last_reported":1692302841,"current_range_meters":14400,"station_id":"ce4bhs92rcd13ifvqi0g","pricing_plan_id":"free"},{"bike_id":"e053956b-27b1-4581-a5d8-8c500d97b404","system_id":"levelo_inurba_marseille","lat":43.29711,"lon":5.36616,"is_reserved":false,"is_disabled":false,"rental_uris":{"android":"levelo://app?vid=e053956b-27b1-4581-a5d8-8c500d97b404","ios":"levelo://app?vid=e053956b-27b1-4581-a5d8-8c500d97b404"},"vehicle_type_id":"4","last_reported":1692302841,"current_range_meters":400,"station_id":"ce4bgn12rcd13ifvqbt0","pricing_plan_id":"free"},{"bike_id":"5f8a6ca0-5dfe-4c06-929a-c1030bd48d99","system_id":"levelo_inurba_marseille","lat":43.32839,"lon":5.36671,"is_reserved":false,"is_disabled":false,"rental_uris":{"android":"levelo://app?vid=5f8a6ca0-5dfe-4c06-929a-c1030bd48d99","ios":"levelo://app?vid=5f8a6ca0-5dfe-4c06-929a-c1030bd48d99"},"vehicle_type_id":"4","last_reported":1692302841,"current_range_meters":9200,"station_id":"ce4bhs92rcd13ifvqi0g","pricing_plan_id":"free"},{"bike_id":"dd789220-e7b5-42c1-b9dc-dc4243148021","system_id":"levelo_inurba_marseille","lat":43.297163,"lon":5.365866,"is_reserved":false,"is_disabled":false,"rental_uris":{"android":"levelo://app?vid=dd789220-e7b5-42c1-b9dc-dc4243148021","ios":"levelo://app?vid=dd789220-e7b5-42c1-b9dc-dc4243148021"},"vehicle_type_id":"4","last_reported":1692302841,"current_range_meters":31200,"station_id":"ce4bgn12rcd13ifvqbt0","pricing_plan_id":"free"},{"bike_id":"29ff98ec-738a-432a-8f53-ebf226097b6f","system_id":"levelo_inurba_marseille","lat":43.29701,"lon":5.36594,"is_reserved":false,"is_disabled":false,"rental_uris":{"android":"levelo://app?vid=29ff98ec-738a-432a-8f53-ebf226097b6f","ios":"levelo://app?vid=29ff98ec-738a-432a-8f53-ebf226097b6f"},"vehicle_type_id":"4","last_reported":1692302841,"current_range_meters":0,"station_id":"ce4bgn12rcd13ifvqbt0","pricing_plan_id":"free"},{"bike_id":"ced00bb0-b877-4204-8bf9-d01eef7b123b","system_id":"levelo_inurba_marseille","lat":43.2968,"lon":5.37291,"is_reserved":false,"is_disabled":false,"rental_uris":{"android":"levelo://app?vid=ced00bb0-b877-4204-8bf9-d01eef7b123b","ios":"levelo://app?vid=ced00bb0-b877-4204-8bf9-d01eef7b123b"},"vehicle_type_id":"4","last_reported":1692302841,"current_range_meters":12400,"station_id":"ce4bgk12rcd13ifvqbj0","pricing_plan_id":"free"},{"bike_id":"911eda5b-4004-4b8a-9457-ed22552a69c1","system_id":"levelo_inurba_marseille","lat":43.2968,"lon":5.37291,"is_reserved":false,"is_disabled":false,"rental_uris":{"android":"levelo://app?vid=911eda5b-4004-4b8a-9457-ed22552a69c1","ios":"levelo://app?vid=911eda5b-4004-4b8a-9457-ed22552a69c1"},"vehicle_type_id":"4","last_reported":1692302841,"current_range_meters":25600,"station_id":"ce4bgk12rcd13ifvqbj0","pricing_plan_id":"free"},{"bike_id":"1bbb76c9-42ed-4ceb-8714-aff3e8494d7b","system_id":"levelo_inurba_marseille","lat":43.2968,"lon":5.37291,"is_reserved":false,"is_disabled":false,"rental_uris":{"android":"levelo://app?vid=1bbb76c9-42ed-4ceb-8714-aff3e8494d7b","ios":"levelo://app?vid=1bbb76c9-42ed-4ceb-8714-aff3e8494d7b"},"vehicle_type_id":"4","last_reported":1692302841,"current_range_meters":25200,"station_id":"ce4bgk12rcd13ifvqbj0","pricing_plan_id":"free"},{"bike_id":"5b7f7655-5723-4ef2-ab02-d2d55b60b0d0","system_id":"levelo_inurba_marseille","lat":43.2968,"lon":5.37291,"is_reserved":false,"is_disabled":false,"rental_uris":{"android":"levelo://app?vid=5b7f7655-5723-4ef2-ab02-d2d55b60b0d0","ios":"levelo://app?vid=5b7f7655-5723-4ef2-ab02-d2d55b60b0d0"},"vehicle_type_id":"4","last_reported":1692302841,"current_range_meters":27200,"station_id":"ce4bgk12rcd13ifvqbj0","pricing_plan_id":"free"},{"bike_id":"bb155e93-116e-494a-9911-2df351c7dae8","system_id":"levelo_inurba_marseille","lat":43.296131,"lon":5.370791,"is_reserved":false,"is_disabled":false,"rental_uris":{"android":"levelo://app?vid=bb155e93-116e-494a-9911-2df351c7dae8","ios":"levelo://app?vid=bb155e93-116e-494a-9911-2df351c7dae8"},"vehicle_type_id":"4","last_reported":1692302841,"current_range_meters":30400,"station_id":"ce4bgnh2rcd13ifvqc0g","pricing_plan_id":"free"},{"bike_id":"d3139180-8ba9-4c91-b6e4-8baae3c22113","system_id":"levelo_inurba_marseille","lat":43.296131,"lon":5.370773,"is_reserved":false,"is_disabled":false,"rental_uris":{"android":"levelo://app?vid=d3139180-8ba9-4c91-b6e4-8baae3c22113","ios":"levelo://app?vid=d3139180-8ba9-4c91-b6e4-8baae3c22113"},"vehicle_type_id":"4","last_reported":1692302841,"current_range_meters":31200,"station_id":"ce4bgnh2rcd13ifvqc0g","pricing_plan_id":"free"},{"bike_id":"b811e10e-ee9a-494c-b6c0-74b1407cb7f0","system_id":"levelo_inurba_marseille","lat":43.29573,"lon":5.367355,"is_reserved":false,"is_disabled":false,"rental_uris":{"android":"levelo://app?vid=b811e10e-ee9a-494c-b6c0-74b1407cb7f0","ios":"levelo://app?vid=b811e10e-ee9a-494c-b6c0-74b1407cb7f0"},"vehicle_type_id":"4","last_reported":1692302841,"current_range_meters":0,"station_id":"ce4bgph2rcd13ifvqc2g","pricing_plan_id":"free"},{"bike_id":"1ad96ed4-7266-49b8-bb4a-a188fab20a39","system_id":"levelo_inurba_marseille","lat":43.29573,"lon":5.367355,"is_reserved":false,"is_disabled":false,"rental_uris":{"android":"levelo://app?vid=1ad96ed4-7266-49b8-bb4a-a188fab20a39","ios":"levelo://app?vid=1ad96ed4-7266-49b8-bb4a-a188fab20a39"},"vehicle_type_id":"4","last_reported":1692302841,"current_range_meters":18400,"station_id":"ce4bgph2rcd13ifvqc2g","pricing_plan_id":"free"},{"bike_id":"b38caa0b-acc2-4668-82b0-ece03467a437","system_id":"levelo_inurba_marseille","lat":43.299028,"lon":5.381509,"is_reserved":false,"is_disabled":false,"rental_uris":{"android":"levelo://app?vid=b38caa0b-acc2-4668-82b0-ece03467a437","ios":"levelo://app?vid=b38caa0b-acc2-4668-82b0-ece03467a437"},"vehicle_type_id":"4","last_reported":1692302841,"current_range_meters":24400,"station_id":"ce4bgj12rcd13ifvqbc0","pricing_plan_id":"free"},{"bike_id":"ab282781-669a-4e56-8731-3ff5dfa5d4f8","system_id":"levelo_inurba_marseille","lat":43.299028,"lon":5.381509,"is_reserved":false,"is_disabled":false,"rental_uris":{"android":"levelo://app?vid=ab282781-669a-4e56-8731-3ff5dfa5d4f8","ios":"levelo://app?vid=ab282781-669a-4e56-8731-3ff5dfa5d4f8"},"vehicle_type_id":"4","last_reported":1692302841,"current_range_meters":13200,"station_id":"ce4bgj12rcd13ifvqbc0","pricing_plan_id":"free"},{"bike_id":"d8e2f602-26d9-40bb-991d-71451520900f","system_id":"levelo_inurba_marseille","lat":43.296921,"lon":5.376579,"is_reserved":false,"is_disabled":false,"rental_uris":{"android":"levelo://app?vid=d8e2f602-26d9-40bb-991d-71451520900f","ios":"levelo://app?vid=d8e2f602-26d9-40bb-991d-71451520900f"},"vehicle_type_id":"4","last_reported":1692302841,"current_range_meters":5200,"station_id":"ce4bgkh2rcd13ifvqbl0","pricing_plan_id":"free"},{"bike_id":"d72084d2-ee5c-434c-90ac-2353d8fd43c2","system_id":"levelo_inurba_marseille","lat":43.30955,"lon":5.39029,"is_reserved":false,"is_disabled":false,"rental_uris":{"android":"levelo://app?vid=d72084d2-ee5c-434c-90ac-2353d8fd43c2","ios":"levelo://app?vid=d72084d2-ee5c-434c-90ac-2353d8fd43c2"},"vehicle_type_id":"4","last_reported":1692302841,"current_range_meters":0,"station_id":"ce4bgup2rcd13ifvqco0","pricing_plan_id":"free"},{"bike_id":"91545523-529b-44c7-a404-4fa2f074cd7b","system_id":"levelo_inurba_marseille","lat":43.309547,"lon":5.390291,"is_reserved":false,"is_disabled":false,"rental_uris":{"android":"levelo://app?vid=91545523-529b-44c7-a404-4fa2f074cd7b","ios":"levelo://app?vid=91545523-529b-44c7-a404-4fa2f074cd7b"},"vehicle_type_id":"4","last_reported":1692302841,"current_range_meters":28000,"station_id":"ce4bgup2rcd13ifvqco0","pricing_plan_id":"free"},{"bike_id":"d0e67556-aac7-4b3c-86e3-1e0c46cdcfba","system_id":"levelo_inurba_marseille","lat":43.309589,"lon":5.390258,"is_reserved":false,"is_disabled":false,"rental_uris":{"android":"levelo://app?vid=d0e67556-aac7-4b3c-86e3-1e0c46cdcfba","ios":"levelo://app?vid=d0e67556-aac7-4b3c-86e3-1e0c46cdcfba"},"vehicle_type_id":"4","last_reported":1692302841,"current_range_meters":1200,"station_id":"ce4bgup2rcd13ifvqco0","pricing_plan_id":"free"},{"bike_id":"10c67472-bf78-4d56-8839-a3934e6cc335","system_id":"levelo_inurba_marseille","lat":43.309589,"lon":5.390258,"is_reserved":false,"is_disabled":false,"rental_uris":{"android":"levelo://app?vid=10c67472-bf78-4d56-8839-a3934e6cc335","ios":"levelo://app?vid=10c67472-bf78-4d56-8839-a3934e6cc335"},"vehicle_type_id":"4","last_reported":1692302841,"current_range_meters":6800,"station_id":"ce4bgup2rcd13ifvqco0","pricing_plan_id":"free"},{"bike_id":"4299ba98-184c-4942-961e-df8c35bcd67a","system_id":"levelo_inurba_marseille","lat":43.309589,"lon":5.390258,"is_reserved":false,"is_disabled":false,"rental_uris":{"android":"levelo://app?vid=4299ba98-184c-4942-961e-df8c35bcd67a","ios":"levelo://app?vid=4299ba98-184c-4942-961e-df8c35bcd67a"},"vehicle_type_id":"4","last_reported":1692302841,"current_range_meters":18000,"station_id":"ce4bgup2rcd13ifvqco0","pricing_plan_id":"free"},{"bike_id":"30249fdd-1076-44fd-ab7d-fbe88270cb7f","system_id":"levelo_inurba_marseille","lat":43.309589,"lon":5.390258,"is_reserved":false,"is_disabled":false,"rental_uris":{"android":"levelo://app?vid=30249fdd-1076-44fd-ab7d-fbe88270cb7f","ios":"levelo://app?vid=30249fdd-1076-44fd-ab7d-fbe88270cb7f"},"vehicle_type_id":"4","last_reported":1692302841,"current_range_meters":26400,"station_id":"ce4bgup2rcd13ifvqco0","pricing_plan_id":"free"},{"bike_id":"b9a855a0-d9d8-4782-943a-840cbcde0bb8","system_id":"levelo_inurba_marseille","lat":43.3176,"lon":5.39012,"is_reserved":false,"is_disabled":false,"rental_uris":{"android":"levelo://app?vid=b9a855a0-d9d8-4782-943a-840cbcde0bb8","ios":"levelo://app?vid=b9a855a0-d9d8-4782-943a-840cbcde0bb8"},"vehicle_type_id":"4","last_reported":1692302841,"current_range_meters":16800,"station_id":"ce4bhqp2rcd13ifvqhng","pricing_plan_id":"free"},{"bike_id":"d418f8df-5463-42f2-bdc5-bb5c92379302","system_id":"levelo_inurba_marseille","lat":43.317557,"lon":5.390173,"is_reserved":false,"is_disabled":false,"rental_uris":{"android":"levelo://app?vid=d418f8df-5463-42f2-bdc5-bb5c92379302","ios":"levelo://app?vid=d418f8df-5463-42f2-bdc5-bb5c92379302"},"vehicle_type_id":"4","last_reported":1692302841,"current_range_meters":31200,"station_id":"ce4bhqp2rcd13ifvqhng","pricing_plan_id":"free"},{"bike_id":"1ff2de43-09ec-4d92-b75e-08b007be86b2","system_id":"levelo_inurba_marseille","lat":43.317557,"lon":5.390173,"is_reserved":false,"is_disabled":false,"rental_uris":{"android":"levelo://app?vid=1ff2de43-09ec-4d92-b75e-08b007be86b2","ios":"levelo://app?vid=1ff2de43-09ec-4d92-b75e-08b007be86b2"},"vehicle_type_id":"4","last_reported":1692302841,"current_range_meters":31200,"station_id":"ce4bhqp2rcd13ifvqhng","pricing_plan_id":"free"},{"bike_id":"5d630120-083e-41d7-8e05-434bd57e3bf6","system_id":"levelo_inurba_marseille","lat":43.29799,"lon":5.38083,"is_reserved":false,"is_disabled":false,"rental_uris":{"android":"levelo://app?vid=5d630120-083e-41d7-8e05-434bd57e3bf6","ios":"levelo://app?vid=5d630120-083e-41d7-8e05-434bd57e3bf6"},"vehicle_type_id":"4","last_reported":1692302841,"current_range_meters":24800,"station_id":"ce4bgip2rcd13ifvqbb0","pricing_plan_id":"free"},{"bike_id":"c5311833-ec9c-40c9-a99f-ca7d4b35c950","system_id":"levelo_inurba_marseille","lat":43.29803,"lon":5.38092,"is_reserved":false,"is_disabled":false,"rental_uris":{"android":"levelo://app?vid=c5311833-ec9c-40c9-a99f-ca7d4b35c950","ios":"levelo://app?vid=c5311833-ec9c-40c9-a99f-ca7d4b35c950"},"vehicle_type_id":"4","last_reported":1692302841,"current_range_meters":8400,"station_id":"ce4bgip2rcd13ifvqbb0","pricing_plan_id":"free"},{"bike_id":"4b8b51ab-eb6c-4ab8-8f08-5ce96552496c","system_id":"levelo_inurba_marseille","lat":43.29797,"lon":5.38093,"is_reserved":false,"is_disabled":false,"rental_uris":{"android":"levelo://app?vid=4b8b51ab-eb6c-4ab8-8f08-5ce96552496c","ios":"levelo://app?vid=4b8b51ab-eb6c-4ab8-8f08-5ce96552496c"},"vehicle_type_id":"4","last_reported":1692302841,"current_range_meters":0,"station_id":"ce4bgip2rcd13ifvqbb0","pricing_plan_id":"free"},{"bike_id":"a4df99ce-0488-49dd-a888-94686f562e88","system_id":"levelo_inurba_marseille","lat":43.29577,"lon":5.3751,"is_reserved":false,"is_disabled":false,"rental_uris":{"android":"levelo://app?vid=a4df99ce-0488-49dd-a888-94686f562e88","ios":"levelo://app?vid=a4df99ce-0488-49dd-a888-94686f562e88"},"vehicle_type_id":"4","last_reported":1692302841,"current_range_meters":29200,"station_id":"ce4bgh92rcd13ifvqb50","pricing_plan_id":"free"},{"bike_id":"c8fcbc65-e53a-4bf0-bfa2-ee2370d2ab97","system_id":"levelo_inurba_marseille","lat":43.30437,"lon":5.38888,"is_reserved":false,"is_disabled":false,"rental_uris":{"android":"levelo://app?vid=c8fcbc65-e53a-4bf0-bfa2-ee2370d2ab97","ios":"levelo://app?vid=c8fcbc65-e53a-4bf0-bfa2-ee2370d2ab97"},"vehicle_type_id":"4","last_reported":1692302841,"current_range_meters":27200,"station_id":"ce4bgk12rcd13ifvqbi0","pricing_plan_id":"free"},{"bike_id":"e1727e66-30cf-4bf7-8661-85cdc61103da","system_id":"levelo_inurba_marseille","lat":43.30432,"lon":5.38891,"is_reserved":false,"is_disabled":false,"rental_uris":{"android":"levelo://app?vid=e1727e66-30cf-4bf7-8661-85cdc61103da","ios":"levelo://app?vid=e1727e66-30cf-4bf7-8661-85cdc61103da"},"vehicle_type_id":"4","last_reported":1692302841,"current_range_meters":26400,"station_id":"ce4bgk12rcd13ifvqbi0","pricing_plan_id":"free"},{"bike_id":"92397e3f-0a52-4a8e-95a7-c68ac4d0544b","system_id":"levelo_inurba_marseille","lat":43.30424,"lon":5.3889,"is_reserved":false,"is_disabled":false,"rental_uris":{"android":"levelo://app?vid=92397e3f-0a52-4a8e-95a7-c68ac4d0544b","ios":"levelo://app?vid=92397e3f-0a52-4a8e-95a7-c68ac4d0544b"},"vehicle_type_id":"4","last_reported":1692302841,"current_range_meters":4000,"station_id":"ce4bgk12rcd13ifvqbi0","pricing_plan_id":"free"},{"bike_id":"2d7610d9-7695-4c95-b246-458910fe96d9","system_id":"levelo_inurba_marseille","lat":43.304278,"lon":5.388868,"is_reserved":false,"is_disabled":false,"rental_uris":{"android":"levelo://app?vid=2d7610d9-7695-4c95-b246-458910fe96d9","ios":"levelo://app?vid=2d7610d9-7695-4c95-b246-458910fe96d9"},"vehicle_type_id":"4","last_reported":1692302841,"current_range_meters":19200,"station_id":"ce4bgk12rcd13ifvqbi0","pricing_plan_id":"free"},{"bike_id":"1c36667a-a771-4a02-964e-b56378d87d33","system_id":"levelo_inurba_marseille","lat":43.30424,"lon":5.38896,"is_reserved":false,"is_disabled":false,"rental_uris":{"android":"levelo://app?vid=1c36667a-a771-4a02-964e-b56378d87d33","ios":"levelo://app?vid=1c36667a-a771-4a02-964e-b56378d87d33"},"vehicle_type_id":"4","last_reported":1692302841,"current_range_meters":24000,"station_id":"ce4bgk12rcd13ifvqbi0","pricing_plan_id":"free"},{"bike_id":"60d7a431-9f13-40c0-8d11-b06fc3955d8e","system_id":"levelo_inurba_marseille","lat":43.29961,"lon":5.385,"is_reserved":false,"is_disabled":false,"rental_uris":{"android":"levelo://app?vid=60d7a431-9f13-40c0-8d11-b06fc3955d8e","ios":"levelo://app?vid=60d7a431-9f13-40c0-8d11-b06fc3955d8e"},"vehicle_type_id":"4","last_reported":1692302841,"current_range_meters":10800,"station_id":"ce4bgj92rcd13ifvqbd0","pricing_plan_id":"free"},{"bike_id":"41211202-068a-447a-a6f2-53fd34d5e66b","system_id":"levelo_inurba_marseille","lat":43.30115,"lon":5.38759,"is_reserved":false,"is_disabled":false,"rental_uris":{"android":"levelo://app?vid=41211202-068a-447a-a6f2-53fd34d5e66b","ios":"levelo://app?vid=41211202-068a-447a-a6f2-53fd34d5e66b"},"vehicle_type_id":"4","last_reported":1692302841,"current_range_meters":2400,"station_id":"","pricing_plan_id":"free"},{"bike_id":"493070c9-f70b-4b47-b30c-92320f3520ef","system_id":"levelo_inurba_marseille","lat":43.32364,"lon":5.38867,"is_reserved":false,"is_disabled":false,"rental_uris":{"android":"levelo://app?vid=493070c9-f70b-4b47-b30c-92320f3520ef","ios":"levelo://app?vid=493070c9-f70b-4b47-b30c-92320f3520ef"},"vehicle_type_id":"4","last_reported":1692302841,"current_range_meters":4800,"station_id":"ce4bhqp2rcd13ifvqhog","pricing_plan_id":"free"},{"bike_id":"5deca036-ea7a-461b-9966-cca000531f2a","system_id":"levelo_inurba_marseille","lat":43.32358,"lon":5.38875,"is_reserved":false,"is_disabled":false,"rental_uris":{"android":"levelo://app?vid=5deca036-ea7a-461b-9966-cca000531f2a","ios":"levelo://app?vid=5deca036-ea7a-461b-9966-cca000531f2a"},"vehicle_type_id":"4","last_reported":1692302841,"current_range_meters":24000,"station_id":"ce4bhqp2rcd13ifvqhog","pricing_plan_id":"free"},{"bike_id":"450b6384-3b45-4695-a86b-848539f6da31","system_id":"levelo_inurba_marseille","lat":43.32362,"lon":5.3888,"is_reserved":false,"is_disabled":false,"rental_uris":{"android":"levelo://app?vid=450b6384-3b45-4695-a86b-848539f6da31","ios":"levelo://app?vid=450b6384-3b45-4695-a86b-848539f6da31"},"vehicle_type_id":"4","last_reported":1692302841,"current_range_meters":17600,"station_id":"ce4bhqp2rcd13ifvqhog","pricing_plan_id":"free"},{"bike_id":"32a579f4-a77e-4089-9137-3fc22c8afa17","system_id":"levelo_inurba_marseille","lat":43.32364,"lon":5.38879,"is_reserved":false,"is_disabled":false,"rental_uris":{"android":"levelo://app?vid=32a579f4-a77e-4089-9137-3fc22c8afa17","ios":"levelo://app?vid=32a579f4-a77e-4089-9137-3fc22c8afa17"},"vehicle_type_id":"4","last_reported":1692302841,"current_range_meters":24800,"station_id":"ce4bhqp2rcd13ifvqhog","pricing_plan_id":"free"},{"bike_id":"55f08f4d-333e-4077-9882-16e72e12ddbf","system_id":"levelo_inurba_marseille","lat":43.32367,"lon":5.38877,"is_reserved":false,"is_disabled":false,"rental_uris":{"android":"levelo://app?vid=55f08f4d-333e-4077-9882-16e72e12ddbf","ios":"levelo://app?vid=55f08f4d-333e-4077-9882-16e72e12ddbf"},"vehicle_type_id":"4","last_reported":1692302841,"current_range_meters":13600,"station_id":"ce4bhqp2rcd13ifvqhog","pricing_plan_id":"free"},{"bike_id":"1b5c2691-bd33-46db-b85d-232fc0684773","system_id":"levelo_inurba_marseille","lat":43.32365,"lon":5.38881,"is_reserved":false,"is_disabled":false,"rental_uris":{"android":"levelo://app?vid=1b5c2691-bd33-46db-b85d-232fc0684773","ios":"levelo://app?vid=1b5c2691-bd33-46db-b85d-232fc0684773"},"vehicle_type_id":"4","last_reported":1692302841,"current_range_meters":26800,"station_id":"ce4bhqp2rcd13ifvqhog","pricing_plan_id":"free"},{"bike_id":"88f7b8d4-dc59-48eb-8308-fc7f2005ecbb","system_id":"levelo_inurba_marseille","lat":43.32367,"lon":5.388836,"is_reserved":false,"is_disabled":false,"rental_uris":{"android":"levelo://app?vid=88f7b8d4-dc59-48eb-8308-fc7f2005ecbb","ios":"levelo://app?vid=88f7b8d4-dc59-48eb-8308-fc7f2005ecbb"},"vehicle_type_id":"4","last_reported":1692302841,"current_range_meters":15600,"station_id":"ce4bhqp2rcd13ifvqhog","pricing_plan_id":"free"},{"bike_id":"6b6cba89-d2b8-44bb-8454-5df08cf65f67","system_id":"levelo_inurba_marseille","lat":43.32368,"lon":5.38879,"is_reserved":false,"is_disabled":false,"rental_uris":{"android":"levelo://app?vid=6b6cba89-d2b8-44bb-8454-5df08cf65f67","ios":"levelo://app?vid=6b6cba89-d2b8-44bb-8454-5df08cf65f67"},"vehicle_type_id":"4","last_reported":1692302841,"current_range_meters":21600,"station_id":"ce4bhqp2rcd13ifvqhog","pricing_plan_id":"free"},{"bike_id":"63396931-3c86-400b-9cfa-e42c81141461","system_id":"levelo_inurba_marseille","lat":43.32368,"lon":5.3888,"is_reserved":false,"is_disabled":false,"rental_uris":{"android":"levelo://app?vid=63396931-3c86-400b-9cfa-e42c81141461","ios":"levelo://app?vid=63396931-3c86-400b-9cfa-e42c81141461"},"vehicle_type_id":"4","last_reported":1692302841,"current_range_meters":18400,"station_id":"ce4bhqp2rcd13ifvqhog","pricing_plan_id":"free"},{"bike_id":"cbffe489-c68c-4e68-b63d-cbf52cd3cc48","system_id":"levelo_inurba_marseille","lat":43.32372,"lon":5.38878,"is_reserved":false,"is_disabled":false,"rental_uris":{"android":"levelo://app?vid=cbffe489-c68c-4e68-b63d-cbf52cd3cc48","ios":"levelo://app?vid=cbffe489-c68c-4e68-b63d-cbf52cd3cc48"},"vehicle_type_id":"4","last_reported":1692302841,"current_range_meters":28800,"station_id":"ce4bhqp2rcd13ifvqhog","pricing_plan_id":"free"},{"bike_id":"111350f1-3818-488b-b79c-5d6b1f163a54","system_id":"levelo_inurba_marseille","lat":43.32365,"lon":5.38888,"is_reserved":false,"is_disabled":false,"rental_uris":{"android":"levelo://app?vid=111350f1-3818-488b-b79c-5d6b1f163a54","ios":"levelo://app?vid=111350f1-3818-488b-b79c-5d6b1f163a54"},"vehicle_type_id":"4","last_reported":1692302841,"current_range_meters":4400,"station_id":"ce4bhqp2rcd13ifvqhog","pricing_plan_id":"free"},{"bike_id":"810e5c4e-cfbd-4fb4-b6d8-02289cde4c80","system_id":"levelo_inurba_marseille","lat":43.32367,"lon":5.388836,"is_reserved":false,"is_disabled":false,"rental_uris":{"android":"levelo://app?vid=810e5c4e-cfbd-4fb4-b6d8-02289cde4c80","ios":"levelo://app?vid=810e5c4e-cfbd-4fb4-b6d8-02289cde4c80"},"vehicle_type_id":"4","last_reported":1692302841,"current_range_meters":21200,"station_id":"ce4bhqp2rcd13ifvqhog","pricing_plan_id":"free"},{"bike_id":"4314cd19-09e7-4af1-900a-88512d095e20","system_id":"levelo_inurba_marseille","lat":43.32382,"lon":5.38884,"is_reserved":false,"is_disabled":false,"rental_uris":{"android":"levelo://app?vid=4314cd19-09e7-4af1-900a-88512d095e20","ios":"levelo://app?vid=4314cd19-09e7-4af1-900a-88512d095e20"},"vehicle_type_id":"4","last_reported":1692302841,"current_range_meters":16400,"station_id":"ce4bhqp2rcd13ifvqhog","pricing_plan_id":"free"},{"bike_id":"7de19ce4-2097-4fd2-a72c-a63593f21e0c","system_id":"levelo_inurba_marseille","lat":43.29596,"lon":5.38098,"is_reserved":false,"is_disabled":false,"rental_uris":{"android":"levelo://app?vid=7de19ce4-2097-4fd2-a72c-a63593f21e0c","ios":"levelo://app?vid=7de19ce4-2097-4fd2-a72c-a63593f21e0c"},"vehicle_type_id":"4","last_reported":1692302841,"current_range_meters":21200,"station_id":"","pricing_plan_id":"free"},{"bike_id":"38fef587-7cc5-4800-b069-87b8f296a10a","system_id":"levelo_inurba_marseille","lat":43.293009,"lon":5.374584,"is_reserved":false,"is_disabled":false,"rental_uris":{"android":"levelo://app?vid=38fef587-7cc5-4800-b069-87b8f296a10a","ios":"levelo://app?vid=38fef587-7cc5-4800-b069-87b8f296a10a"},"vehicle_type_id":"4","last_reported":1692302841,"current_range_meters":32000,"station_id":"ce4bgi12rcd13ifvqb70","pricing_plan_id":"free"},{"bike_id":"5c8f49b4-e045-4659-b01e-9d70fe86d430","system_id":"levelo_inurba_marseille","lat":43.293009,"lon":5.374584,"is_reserved":false,"is_disabled":false,"rental_uris":{"android":"levelo://app?vid=5c8f49b4-e045-4659-b01e-9d70fe86d430","ios":"levelo://app?vid=5c8f49b4-e045-4659-b01e-9d70fe86d430"},"vehicle_type_id":"4","last_reported":1692302841,"current_range_meters":5200,"station_id":"ce4bgi12rcd13ifvqb70","pricing_plan_id":"free"},{"bike_id":"2f389111-081e-4203-a541-99ea32c8ad9f","system_id":"levelo_inurba_marseille","lat":43.305994,"lon":5.393687,"is_reserved":false,"is_disabled":false,"rental_uris":{"android":"levelo://app?vid=2f389111-081e-4203-a541-99ea32c8ad9f","ios":"levelo://app?vid=2f389111-081e-4203-a541-99ea32c8ad9f"},"vehicle_type_id":"4","last_reported":1692302841,"current_range_meters":15600,"station_id":"ce4bh0p2rcd13ifvqd80","pricing_plan_id":"free"},{"bike_id":"b644b098-d45b-4f26-bdc8-ce279da124ec","system_id":"levelo_inurba_marseille","lat":43.303002,"lon":5.392142,"is_reserved":false,"is_disabled":false,"rental_uris":{"android":"levelo://app?vid=b644b098-d45b-4f26-bdc8-ce279da124ec","ios":"levelo://app?vid=b644b098-d45b-4f26-bdc8-ce279da124ec"},"vehicle_type_id":"4","last_reported":1692302841,"current_range_meters":28400,"station_id":"ce4bgkh2rcd13ifvqbk0","pricing_plan_id":"free"},{"bike_id":"a124b46b-fc20-4bd4-9598-4e21a2361672","system_id":"levelo_inurba_marseille","lat":43.30301,"lon":5.39211,"is_reserved":false,"is_disabled":false,"rental_uris":{"android":"levelo://app?vid=a124b46b-fc20-4bd4-9598-4e21a2361672","ios":"levelo://app?vid=a124b46b-fc20-4bd4-9598-4e21a2361672"},"vehicle_type_id":"4","last_reported":1692302841,"current_range_meters":14400,"station_id":"ce4bgkh2rcd13ifvqbk0","pricing_plan_id":"free"},{"bike_id":"9be5715c-5967-4c12-9332-7a338d94f56c","system_id":"levelo_inurba_marseille","lat":43.300852,"lon":5.390859,"is_reserved":false,"is_disabled":false,"rental_uris":{"android":"levelo://app?vid=9be5715c-5967-4c12-9332-7a338d94f56c","ios":"levelo://app?vid=9be5715c-5967-4c12-9332-7a338d94f56c"},"vehicle_type_id":"4","last_reported":1692302841,"current_range_meters":31200,"station_id":"ce4bh192rcd13ifvqdb0","pricing_plan_id":"free"},{"bike_id":"eaa81a31-5c12-4214-8fd0-3d17367c729a","system_id":"levelo_inurba_marseille","lat":43.300852,"lon":5.390859,"is_reserved":false,"is_disabled":false,"rental_uris":{"android":"levelo://app?vid=eaa81a31-5c12-4214-8fd0-3d17367c729a","ios":"levelo://app?vid=eaa81a31-5c12-4214-8fd0-3d17367c729a"},"vehicle_type_id":"4","last_reported":1692302841,"current_range_meters":12000,"station_id":"ce4bh192rcd13ifvqdb0","pricing_plan_id":"free"},{"bike_id":"bcb6ed62-c5d9-403e-b955-7366ad88c2ca","system_id":"levelo_inurba_marseille","lat":43.300852,"lon":5.390859,"is_reserved":false,"is_disabled":false,"rental_uris":{"android":"levelo://app?vid=bcb6ed62-c5d9-403e-b955-7366ad88c2ca","ios":"levelo://app?vid=bcb6ed62-c5d9-403e-b955-7366ad88c2ca"},"vehicle_type_id":"4","last_reported":1692302841,"current_range_meters":8400,"station_id":"ce4bh192rcd13ifvqdb0","pricing_plan_id":"free"},{"bike_id":"b97d7bcc-480d-483c-b281-ba8fe9f286bd","system_id":"levelo_inurba_marseille","lat":43.30085,"lon":5.390856,"is_reserved":false,"is_disabled":false,"rental_uris":{"android":"levelo://app?vid=b97d7bcc-480d-483c-b281-ba8fe9f286bd","ios":"levelo://app?vid=b97d7bcc-480d-483c-b281-ba8fe9f286bd"},"vehicle_type_id":"4","last_reported":1692302841,"current_range_meters":8400,"station_id":"ce4bh192rcd13ifvqdb0","pricing_plan_id":"free"},{"bike_id":"46c24bbd-f81f-47af-ae1e-3cd83fabc614","system_id":"levelo_inurba_marseille","lat":43.292663,"lon":5.376389,"is_reserved":false,"is_disabled":false,"rental_uris":{"android":"levelo://app?vid=46c24bbd-f81f-47af-ae1e-3cd83fabc614","ios":"levelo://app?vid=46c24bbd-f81f-47af-ae1e-3cd83fabc614"},"vehicle_type_id":"4","last_reported":1692302841,"current_range_meters":400,"station_id":"ce4bgi12rcd13ifvqb80","pricing_plan_id":"free"},{"bike_id":"d2194b96-04dd-4611-a787-cc60c5b26e44","system_id":"levelo_inurba_marseille","lat":43.292663,"lon":5.376389,"is_reserved":false,"is_disabled":false,"rental_uris":{"android":"levelo://app?vid=d2194b96-04dd-4611-a787-cc60c5b26e44","ios":"levelo://app?vid=d2194b96-04dd-4611-a787-cc60c5b26e44"},"vehicle_type_id":"4","last_reported":1692302841,"current_range_meters":0,"station_id":"ce4bgi12rcd13ifvqb80","pricing_plan_id":"free"},{"bike_id":"ba8e94ba-32be-44d6-9e31-976a6df497cf","system_id":"levelo_inurba_marseille","lat":43.298764,"lon":5.388973,"is_reserved":false,"is_disabled":false,"rental_uris":{"android":"levelo://app?vid=ba8e94ba-32be-44d6-9e31-976a6df497cf","ios":"levelo://app?vid=ba8e94ba-32be-44d6-9e31-976a6df497cf"},"vehicle_type_id":"4","last_reported":1692302841,"current_range_meters":400,"station_id":"ce4bh392rcd13ifvqdl0","pricing_plan_id":"free"},{"bike_id":"063e6424-6644-4b0d-93f9-58aabea99911","system_id":"levelo_inurba_marseille","lat":43.30883,"lon":5.3963,"is_reserved":false,"is_disabled":false,"rental_uris":{"android":"levelo://app?vid=063e6424-6644-4b0d-93f9-58aabea99911","ios":"levelo://app?vid=063e6424-6644-4b0d-93f9-58aabea99911"},"vehicle_type_id":"4","last_reported":1692302841,"current_range_meters":800,"station_id":"ce4bh012rcd13ifvqcv0","pricing_plan_id":"free"},{"bike_id":"cc98218e-9a51-43e3-a074-0a5d23ca010a","system_id":"levelo_inurba_marseille","lat":43.313291,"lon":5.396838,"is_reserved":false,"is_disabled":false,"rental_uris":{"android":"levelo://app?vid=cc98218e-9a51-43e3-a074-0a5d23ca010a","ios":"levelo://app?vid=cc98218e-9a51-43e3-a074-0a5d23ca010a"},"vehicle_type_id":"4","last_reported":1692302841,"current_range_meters":16400,"station_id":"ce4bgvp2rcd13ifvqcu0","pricing_plan_id":"free"},{"bike_id":"0b137d7c-4cfd-41eb-93d6-5655ae031dd9","system_id":"levelo_inurba_marseille","lat":43.30887,"lon":5.39641,"is_reserved":false,"is_disabled":false,"rental_uris":{"android":"levelo://app?vid=0b137d7c-4cfd-41eb-93d6-5655ae031dd9","ios":"levelo://app?vid=0b137d7c-4cfd-41eb-93d6-5655ae031dd9"},"vehicle_type_id":"4","last_reported":1692302841,"current_range_meters":14000,"station_id":"ce4bh012rcd13ifvqcv0","pricing_plan_id":"free"},{"bike_id":"54103c9d-44eb-4311-9ae1-b732e915387e","system_id":"levelo_inurba_marseille","lat":43.309038,"lon":5.396546,"is_reserved":false,"is_disabled":false,"rental_uris":{"android":"levelo://app?vid=54103c9d-44eb-4311-9ae1-b732e915387e","ios":"levelo://app?vid=54103c9d-44eb-4311-9ae1-b732e915387e"},"vehicle_type_id":"4","last_reported":1692302841,"current_range_meters":8400,"station_id":"ce4bh012rcd13ifvqcv0","pricing_plan_id":"free"},{"bike_id":"be68b347-4345-4ada-80be-5ed3af164036","system_id":"levelo_inurba_marseille","lat":43.309038,"lon":5.396546,"is_reserved":false,"is_disabled":false,"rental_uris":{"android":"levelo://app?vid=be68b347-4345-4ada-80be-5ed3af164036","ios":"levelo://app?vid=be68b347-4345-4ada-80be-5ed3af164036"},"vehicle_type_id":"4","last_reported":1692302841,"current_range_meters":4400,"station_id":"ce4bh012rcd13ifvqcv0","pricing_plan_id":"free"},{"bike_id":"8c5ced66-f0ef-40aa-9986-dc433d05b020","system_id":"levelo_inurba_marseille","lat":43.309038,"lon":5.396546,"is_reserved":false,"is_disabled":false,"rental_uris":{"android":"levelo://app?vid=8c5ced66-f0ef-40aa-9986-dc433d05b020","ios":"levelo://app?vid=8c5ced66-f0ef-40aa-9986-dc433d05b020"},"vehicle_type_id":"4","last_reported":1692302841,"current_range_meters":1200,"station_id":"ce4bh012rcd13ifvqcv0","pricing_plan_id":"free"},{"bike_id":"1d7f73c4-b1b9-447e-9662-1d441f2f0f9f","system_id":"levelo_inurba_marseille","lat":43.29529,"lon":5.385581,"is_reserved":false,"is_disabled":false,"rental_uris":{"android":"levelo://app?vid=1d7f73c4-b1b9-447e-9662-1d441f2f0f9f","ios":"levelo://app?vid=1d7f73c4-b1b9-447e-9662-1d441f2f0f9f"},"vehicle_type_id":"4","last_reported":1692302841,"current_range_meters":18000,"station_id":"ce4bgih2rcd13ifvqba0","pricing_plan_id":"free"},{"bike_id":"1b747a2e-cc8d-407a-aab9-890a32e331ef","system_id":"levelo_inurba_marseille","lat":43.29529,"lon":5.385581,"is_reserved":false,"is_disabled":false,"rental_uris":{"android":"levelo://app?vid=1b747a2e-cc8d-407a-aab9-890a32e331ef","ios":"levelo://app?vid=1b747a2e-cc8d-407a-aab9-890a32e331ef"},"vehicle_type_id":"4","last_reported":1692302841,"current_range_meters":29600,"station_id":"ce4bgih2rcd13ifvqba0","pricing_plan_id":"free"},{"bike_id":"ae4550ca-9116-46c7-a3ec-81cf1f8e24ca","system_id":"levelo_inurba_marseille","lat":43.29529,"lon":5.385581,"is_reserved":false,"is_disabled":false,"rental_uris":{"android":"levelo://app?vid=ae4550ca-9116-46c7-a3ec-81cf1f8e24ca","ios":"levelo://app?vid=ae4550ca-9116-46c7-a3ec-81cf1f8e24ca"},"vehicle_type_id":"4","last_reported":1692302841,"current_range_meters":22000,"station_id":"ce4bgih2rcd13ifvqba0","pricing_plan_id":"free"},{"bike_id":"ddaeb236-628b-4aab-931b-fd686ed3a715","system_id":"levelo_inurba_marseille","lat":43.29529,"lon":5.385581,"is_reserved":false,"is_disabled":false,"rental_uris":{"android":"levelo://app?vid=ddaeb236-628b-4aab-931b-fd686ed3a715","ios":"levelo://app?vid=ddaeb236-628b-4aab-931b-fd686ed3a715"},"vehicle_type_id":"4","last_reported":1692302841,"current_range_meters":6400,"station_id":"ce4bgih2rcd13ifvqba0","pricing_plan_id":"free"},{"bike_id":"52fcff40-16a5-4ad4-b9e7-b0b75e99d204","system_id":"levelo_inurba_marseille","lat":43.29529,"lon":5.385581,"is_reserved":false,"is_disabled":false,"rental_uris":{"android":"levelo://app?vid=52fcff40-16a5-4ad4-b9e7-b0b75e99d204","ios":"levelo://app?vid=52fcff40-16a5-4ad4-b9e7-b0b75e99d204"},"vehicle_type_id":"4","last_reported":1692302841,"current_range_meters":5200,"station_id":"ce4bgih2rcd13ifvqba0","pricing_plan_id":"free"},{"bike_id":"929d9cc5-889f-4a8e-a415-05356c0c0f6e","system_id":"levelo_inurba_marseille","lat":43.29529,"lon":5.385581,"is_reserved":false,"is_disabled":false,"rental_uris":{"android":"levelo://app?vid=929d9cc5-889f-4a8e-a415-05356c0c0f6e","ios":"levelo://app?vid=929d9cc5-889f-4a8e-a415-05356c0c0f6e"},"vehicle_type_id":"4","last_reported":1692302841,"current_range_meters":5200,"station_id":"ce4bgih2rcd13ifvqba0","pricing_plan_id":"free"},{"bike_id":"8f2c5739-01de-44f6-a4cb-9c59d0f2e7ed","system_id":"levelo_inurba_marseille","lat":43.29529,"lon":5.385581,"is_reserved":false,"is_disabled":false,"rental_uris":{"android":"levelo://app?vid=8f2c5739-01de-44f6-a4cb-9c59d0f2e7ed","ios":"levelo://app?vid=8f2c5739-01de-44f6-a4cb-9c59d0f2e7ed"},"vehicle_type_id":"4","last_reported":1692302841,"current_range_meters":14800,"station_id":"ce4bgih2rcd13ifvqba0","pricing_plan_id":"free"},{"bike_id":"509e0426-7d04-4361-ade8-75525536e29c","system_id":"levelo_inurba_marseille","lat":43.29529,"lon":5.385581,"is_reserved":false,"is_disabled":false,"rental_uris":{"android":"levelo://app?vid=509e0426-7d04-4361-ade8-75525536e29c","ios":"levelo://app?vid=509e0426-7d04-4361-ade8-75525536e29c"},"vehicle_type_id":"4","last_reported":1692302841,"current_range_meters":4800,"station_id":"ce4bgih2rcd13ifvqba0","pricing_plan_id":"free"},{"bike_id":"20cbde7b-5fc0-473d-9e20-a865954c398b","system_id":"levelo_inurba_marseille","lat":43.29529,"lon":5.385581,"is_reserved":false,"is_disabled":false,"rental_uris":{"android":"levelo://app?vid=20cbde7b-5fc0-473d-9e20-a865954c398b","ios":"levelo://app?vid=20cbde7b-5fc0-473d-9e20-a865954c398b"},"vehicle_type_id":"4","last_reported":1692302841,"current_range_meters":22800,"station_id":"ce4bgih2rcd13ifvqba0","pricing_plan_id":"free"},{"bike_id":"29db5928-721b-47d2-835b-94677118f0f9","system_id":"levelo_inurba_marseille","lat":43.29529,"lon":5.385581,"is_reserved":false,"is_disabled":false,"rental_uris":{"android":"levelo://app?vid=29db5928-721b-47d2-835b-94677118f0f9","ios":"levelo://app?vid=29db5928-721b-47d2-835b-94677118f0f9"},"vehicle_type_id":"4","last_reported":1692302841,"current_range_meters":15200,"station_id":"ce4bgih2rcd13ifvqba0","pricing_plan_id":"free"},{"bike_id":"939cfafe-2c6b-42da-aaf0-a33d237c08c5","system_id":"levelo_inurba_marseille","lat":43.29529,"lon":5.385581,"is_reserved":false,"is_disabled":false,"rental_uris":{"android":"levelo://app?vid=939cfafe-2c6b-42da-aaf0-a33d237c08c5","ios":"levelo://app?vid=939cfafe-2c6b-42da-aaf0-a33d237c08c5"},"vehicle_type_id":"4","last_reported":1692302841,"current_range_meters":25200,"station_id":"ce4bgih2rcd13ifvqba0","pricing_plan_id":"free"},{"bike_id":"9318b3cd-f595-49d1-88ed-068696b5dd27","system_id":"levelo_inurba_marseille","lat":43.29529,"lon":5.385581,"is_reserved":false,"is_disabled":false,"rental_uris":{"android":"levelo://app?vid=9318b3cd-f595-49d1-88ed-068696b5dd27","ios":"levelo://app?vid=9318b3cd-f595-49d1-88ed-068696b5dd27"},"vehicle_type_id":"4","last_reported":1692302841,"current_range_meters":4000,"station_id":"ce4bgih2rcd13ifvqba0","pricing_plan_id":"free"},{"bike_id":"64a27922-61e4-4b00-b6b8-cd39839ea2b7","system_id":"levelo_inurba_marseille","lat":43.290779,"lon":5.371482,"is_reserved":false,"is_disabled":false,"rental_uris":{"android":"levelo://app?vid=64a27922-61e4-4b00-b6b8-cd39839ea2b7","ios":"levelo://app?vid=64a27922-61e4-4b00-b6b8-cd39839ea2b7"},"vehicle_type_id":"4","last_reported":1692302841,"current_range_meters":12800,"station_id":"ce4bh5p2rcd13ifvqe4g","pricing_plan_id":"free"},{"bike_id":"2923735b-8250-499a-a578-1377bb43ba14","system_id":"levelo_inurba_marseille","lat":43.302008,"lon":5.394694,"is_reserved":false,"is_disabled":false,"rental_uris":{"android":"levelo://app?vid=2923735b-8250-499a-a578-1377bb43ba14","ios":"levelo://app?vid=2923735b-8250-499a-a578-1377bb43ba14"},"vehicle_type_id":"4","last_reported":1692302841,"current_range_meters":16400,"station_id":"ce4bh0p2rcd13ifvqd70","pricing_plan_id":"free"},{"bike_id":"b35d83d9-2aad-44f6-9c19-8e7f4bb10fbc","system_id":"levelo_inurba_marseille","lat":43.302008,"lon":5.394694,"is_reserved":false,"is_disabled":false,"rental_uris":{"android":"levelo://app?vid=b35d83d9-2aad-44f6-9c19-8e7f4bb10fbc","ios":"levelo://app?vid=b35d83d9-2aad-44f6-9c19-8e7f4bb10fbc"},"vehicle_type_id":"4","last_reported":1692302841,"current_range_meters":31200,"station_id":"ce4bh0p2rcd13ifvqd70","pricing_plan_id":"free"},{"bike_id":"a23e3d0f-bef5-40fd-a3d7-46f5923aaf3a","system_id":"levelo_inurba_marseille","lat":43.302008,"lon":5.394694,"is_reserved":false,"is_disabled":false,"rental_uris":{"android":"levelo://app?vid=a23e3d0f-bef5-40fd-a3d7-46f5923aaf3a","ios":"levelo://app?vid=a23e3d0f-bef5-40fd-a3d7-46f5923aaf3a"},"vehicle_type_id":"4","last_reported":1692302841,"current_range_meters":10000,"station_id":"ce4bh0p2rcd13ifvqd70","pricing_plan_id":"free"},{"bike_id":"b6eb01b0-741d-4d2c-b105-c43958a0f903","system_id":"levelo_inurba_marseille","lat":43.294153,"lon":5.386305,"is_reserved":false,"is_disabled":false,"rental_uris":{"android":"levelo://app?vid=b6eb01b0-741d-4d2c-b105-c43958a0f903","ios":"levelo://app?vid=b6eb01b0-741d-4d2c-b105-c43958a0f903"},"vehicle_type_id":"4","last_reported":1692302841,"current_range_meters":25200,"station_id":"ce4bh2h2rcd13ifvqdh0","pricing_plan_id":"free"},{"bike_id":"ef8c2465-c5cf-4e7c-b306-b87d424a5ddb","system_id":"levelo_inurba_marseille","lat":43.29415,"lon":5.38624,"is_reserved":false,"is_disabled":false,"rental_uris":{"android":"levelo://app?vid=ef8c2465-c5cf-4e7c-b306-b87d424a5ddb","ios":"levelo://app?vid=ef8c2465-c5cf-4e7c-b306-b87d424a5ddb"},"vehicle_type_id":"4","last_reported":1692302841,"current_range_meters":28400,"station_id":"ce4bh2h2rcd13ifvqdh0","pricing_plan_id":"free"},{"bike_id":"10c5776f-e0a2-4ca6-95dd-20167b4ec012","system_id":"levelo_inurba_marseille","lat":43.29415,"lon":5.38624,"is_reserved":false,"is_disabled":false,"rental_uris":{"android":"levelo://app?vid=10c5776f-e0a2-4ca6-95dd-20167b4ec012","ios":"levelo://app?vid=10c5776f-e0a2-4ca6-95dd-20167b4ec012"},"vehicle_type_id":"4","last_reported":1692302841,"current_range_meters":18400,"station_id":"ce4bh2h2rcd13ifvqdh0","pricing_plan_id":"free"},{"bike_id":"46025b9a-daa0-47f0-bc33-b395018348e1","system_id":"levelo_inurba_marseille","lat":43.29416,"lon":5.38628,"is_reserved":false,"is_disabled":false,"rental_uris":{"android":"levelo://app?vid=46025b9a-daa0-47f0-bc33-b395018348e1","ios":"levelo://app?vid=46025b9a-daa0-47f0-bc33-b395018348e1"},"vehicle_type_id":"4","last_reported":1692302841,"current_range_meters":13200,"station_id":"ce4bh2h2rcd13ifvqdh0","pricing_plan_id":"free"},{"bike_id":"3e003c5c-400c-446a-86f0-368425b21cd3","system_id":"levelo_inurba_marseille","lat":43.290327,"lon":5.375711,"is_reserved":false,"is_disabled":false,"rental_uris":{"android":"levelo://app?vid=3e003c5c-400c-446a-86f0-368425b21cd3","ios":"levelo://app?vid=3e003c5c-400c-446a-86f0-368425b21cd3"},"vehicle_type_id":"4","last_reported":1692302841,"current_range_meters":12800,"station_id":"ce4bh692rcd13ifvqe90","pricing_plan_id":"free"},{"bike_id":"6535b6a0-092d-4736-9fe4-8a3b8d9144e9","system_id":"levelo_inurba_marseille","lat":43.289184,"lon":5.366408,"is_reserved":false,"is_disabled":false,"rental_uris":{"android":"levelo://app?vid=6535b6a0-092d-4736-9fe4-8a3b8d9144e9","ios":"levelo://app?vid=6535b6a0-092d-4736-9fe4-8a3b8d9144e9"},"vehicle_type_id":"4","last_reported":1692302841,"current_range_meters":26000,"station_id":"ce4bhap2rcd13ifvqek0","pricing_plan_id":"free"},{"bike_id":"2a16ca68-e3ad-445b-b0e9-381001af9d3b","system_id":"levelo_inurba_marseille","lat":43.292644,"lon":5.384257,"is_reserved":false,"is_disabled":false,"rental_uris":{"android":"levelo://app?vid=2a16ca68-e3ad-445b-b0e9-381001af9d3b","ios":"levelo://app?vid=2a16ca68-e3ad-445b-b0e9-381001af9d3b"},"vehicle_type_id":"4","last_reported":1692302841,"current_range_meters":20000,"station_id":"ce4bh692rcd13ifvqea0","pricing_plan_id":"free"},{"bike_id":"232f399c-348a-4d5d-847a-a992fb7b1cd3","system_id":"levelo_inurba_marseille","lat":43.292642,"lon":5.384254,"is_reserved":false,"is_disabled":false,"rental_uris":{"android":"levelo://app?vid=232f399c-348a-4d5d-847a-a992fb7b1cd3","ios":"levelo://app?vid=232f399c-348a-4d5d-847a-a992fb7b1cd3"},"vehicle_type_id":"4","last_reported":1692302841,"current_range_meters":26400,"station_id":"ce4bh692rcd13ifvqea0","pricing_plan_id":"free"},{"bike_id":"77bb7c0b-52dd-44b0-9660-2f0b55912aeb","system_id":"levelo_inurba_marseille","lat":43.292642,"lon":5.384254,"is_reserved":false,"is_disabled":false,"rental_uris":{"android":"levelo://app?vid=77bb7c0b-52dd-44b0-9660-2f0b55912aeb","ios":"levelo://app?vid=77bb7c0b-52dd-44b0-9660-2f0b55912aeb"},"vehicle_type_id":"4","last_reported":1692302841,"current_range_meters":23600,"station_id":"ce4bh692rcd13ifvqea0","pricing_plan_id":"free"},{"bike_id":"601685aa-bb2e-4686-9e7f-c1e509cedcbd","system_id":"levelo_inurba_marseille","lat":43.292644,"lon":5.384257,"is_reserved":false,"is_disabled":false,"rental_uris":{"android":"levelo://app?vid=601685aa-bb2e-4686-9e7f-c1e509cedcbd","ios":"levelo://app?vid=601685aa-bb2e-4686-9e7f-c1e509cedcbd"},"vehicle_type_id":"4","last_reported":1692302841,"current_range_meters":400,"station_id":"ce4bh692rcd13ifvqea0","pricing_plan_id":"free"},{"bike_id":"2b2ae933-e1a2-4d60-9d71-ba1d52d1203c","system_id":"levelo_inurba_marseille","lat":43.292642,"lon":5.384254,"is_reserved":false,"is_disabled":false,"rental_uris":{"android":"levelo://app?vid=2b2ae933-e1a2-4d60-9d71-ba1d52d1203c","ios":"levelo://app?vid=2b2ae933-e1a2-4d60-9d71-ba1d52d1203c"},"vehicle_type_id":"4","last_reported":1692302841,"current_range_meters":7200,"station_id":"ce4bh692rcd13ifvqea0","pricing_plan_id":"free"},{"bike_id":"39ba0b08-2d6d-44a5-bc43-e9b8d304ea6e","system_id":"levelo_inurba_marseille","lat":43.292644,"lon":5.384257,"is_reserved":false,"is_disabled":false,"rental_uris":{"android":"levelo://app?vid=39ba0b08-2d6d-44a5-bc43-e9b8d304ea6e","ios":"levelo://app?vid=39ba0b08-2d6d-44a5-bc43-e9b8d304ea6e"},"vehicle_type_id":"4","last_reported":1692302841,"current_range_meters":30400,"station_id":"ce4bh692rcd13ifvqea0","pricing_plan_id":"free"},{"bike_id":"b84e0d5a-b41a-421d-915f-418938a8f0b6","system_id":"levelo_inurba_marseille","lat":43.292644,"lon":5.384257,"is_reserved":false,"is_disabled":false,"rental_uris":{"android":"levelo://app?vid=b84e0d5a-b41a-421d-915f-418938a8f0b6","ios":"levelo://app?vid=b84e0d5a-b41a-421d-915f-418938a8f0b6"},"vehicle_type_id":"4","last_reported":1692302841,"current_range_meters":25200,"station_id":"ce4bh692rcd13ifvqea0","pricing_plan_id":"free"},{"bike_id":"84372877-898c-46b9-9048-bd860bf6e606","system_id":"levelo_inurba_marseille","lat":43.292644,"lon":5.384257,"is_reserved":false,"is_disabled":false,"rental_uris":{"android":"levelo://app?vid=84372877-898c-46b9-9048-bd860bf6e606","ios":"levelo://app?vid=84372877-898c-46b9-9048-bd860bf6e606"},"vehicle_type_id":"4","last_reported":1692302841,"current_range_meters":5200,"station_id":"ce4bh692rcd13ifvqea0","pricing_plan_id":"free"},{"bike_id":"6275fd60-8eb9-4c04-b643-6927056a3b5a","system_id":"levelo_inurba_marseille","lat":43.292642,"lon":5.384254,"is_reserved":false,"is_disabled":false,"rental_uris":{"android":"levelo://app?vid=6275fd60-8eb9-4c04-b643-6927056a3b5a","ios":"levelo://app?vid=6275fd60-8eb9-4c04-b643-6927056a3b5a"},"vehicle_type_id":"4","last_reported":1692302841,"current_range_meters":8800,"station_id":"ce4bh692rcd13ifvqea0","pricing_plan_id":"free"},{"bike_id":"527055b4-038a-438d-8137-9bd814817783","system_id":"levelo_inurba_marseille","lat":43.304296,"lon":5.397513,"is_reserved":false,"is_disabled":false,"rental_uris":{"android":"levelo://app?vid=527055b4-038a-438d-8137-9bd814817783","ios":"levelo://app?vid=527055b4-038a-438d-8137-9bd814817783"},"vehicle_type_id":"4","last_reported":1692302841,"current_range_meters":4400,"station_id":"ce4bh092rcd13ifvqd20","pricing_plan_id":"free"},{"bike_id":"0ed57182-8c62-431e-bc64-03a7481044a8","system_id":"levelo_inurba_marseille","lat":43.292642,"lon":5.384254,"is_reserved":false,"is_disabled":false,"rental_uris":{"android":"levelo://app?vid=0ed57182-8c62-431e-bc64-03a7481044a8","ios":"levelo://app?vid=0ed57182-8c62-431e-bc64-03a7481044a8"},"vehicle_type_id":"4","last_reported":1692302841,"current_range_meters":4000,"station_id":"ce4bh692rcd13ifvqea0","pricing_plan_id":"free"},{"bike_id":"bd4fab83-96b2-4229-b7bd-554bfa2005c4","system_id":"levelo_inurba_marseille","lat":43.304274,"lon":5.397513,"is_reserved":false,"is_disabled":false,"rental_uris":{"android":"levelo://app?vid=bd4fab83-96b2-4229-b7bd-554bfa2005c4","ios":"levelo://app?vid=bd4fab83-96b2-4229-b7bd-554bfa2005c4"},"vehicle_type_id":"4","last_reported":1692302841,"current_range_meters":18000,"station_id":"ce4bh092rcd13ifvqd20","pricing_plan_id":"free"},{"bike_id":"498e292b-3032-412b-8cce-4ad07898ad0c","system_id":"levelo_inurba_marseille","lat":43.292642,"lon":5.384254,"is_reserved":false,"is_disabled":false,"rental_uris":{"android":"levelo://app?vid=498e292b-3032-412b-8cce-4ad07898ad0c","ios":"levelo://app?vid=498e292b-3032-412b-8cce-4ad07898ad0c"},"vehicle_type_id":"4","last_reported":1692302841,"current_range_meters":14000,"station_id":"ce4bh692rcd13ifvqea0","pricing_plan_id":"free"},{"bike_id":"470c771f-3cbd-4a1f-80bb-012c2c22e2fe","system_id":"levelo_inurba_marseille","lat":43.292644,"lon":5.384257,"is_reserved":false,"is_disabled":false,"rental_uris":{"android":"levelo://app?vid=470c771f-3cbd-4a1f-80bb-012c2c22e2fe","ios":"levelo://app?vid=470c771f-3cbd-4a1f-80bb-012c2c22e2fe"},"vehicle_type_id":"4","last_reported":1692302841,"current_range_meters":9600,"station_id":"ce4bh692rcd13ifvqea0","pricing_plan_id":"free"},{"bike_id":"a3e8bd58-b354-4d44-b4bd-5a0bbb69537f","system_id":"levelo_inurba_marseille","lat":43.292642,"lon":5.384254,"is_reserved":false,"is_disabled":false,"rental_uris":{"android":"levelo://app?vid=a3e8bd58-b354-4d44-b4bd-5a0bbb69537f","ios":"levelo://app?vid=a3e8bd58-b354-4d44-b4bd-5a0bbb69537f"},"vehicle_type_id":"4","last_reported":1692302841,"current_range_meters":23200,"station_id":"ce4bh692rcd13ifvqea0","pricing_plan_id":"free"},{"bike_id":"63421927-fe83-420d-a600-d399df4d42fa","system_id":"levelo_inurba_marseille","lat":43.304296,"lon":5.397513,"is_reserved":false,"is_disabled":false,"rental_uris":{"android":"levelo://app?vid=63421927-fe83-420d-a600-d399df4d42fa","ios":"levelo://app?vid=63421927-fe83-420d-a600-d399df4d42fa"},"vehicle_type_id":"4","last_reported":1692302841,"current_range_meters":25600,"station_id":"ce4bh092rcd13ifvqd20","pricing_plan_id":"free"},{"bike_id":"be005e4f-d207-40fd-bd99-241d744b2797","system_id":"levelo_inurba_marseille","lat":43.33039,"lon":5.38915,"is_reserved":false,"is_disabled":false,"rental_uris":{"android":"levelo://app?vid=be005e4f-d207-40fd-bd99-241d744b2797","ios":"levelo://app?vid=be005e4f-d207-40fd-bd99-241d744b2797"},"vehicle_type_id":"4","last_reported":1692302841,"current_range_meters":10000,"station_id":"ce4bhr92rcd13ifvqhrg","pricing_plan_id":"free"},{"bike_id":"859ece1b-eaf2-4429-915d-1d151e169e7f","system_id":"levelo_inurba_marseille","lat":43.33037,"lon":5.3892,"is_reserved":false,"is_disabled":false,"rental_uris":{"android":"levelo://app?vid=859ece1b-eaf2-4429-915d-1d151e169e7f","ios":"levelo://app?vid=859ece1b-eaf2-4429-915d-1d151e169e7f"},"vehicle_type_id":"4","last_reported":1692302841,"current_range_meters":13200,"station_id":"ce4bhr92rcd13ifvqhrg","pricing_plan_id":"free"},{"bike_id":"fe2d3dd8-8a44-4167-b9d1-3d33ce8128f3","system_id":"levelo_inurba_marseille","lat":43.33042,"lon":5.38914,"is_reserved":false,"is_disabled":false,"rental_uris":{"android":"levelo://app?vid=fe2d3dd8-8a44-4167-b9d1-3d33ce8128f3","ios":"levelo://app?vid=fe2d3dd8-8a44-4167-b9d1-3d33ce8128f3"},"vehicle_type_id":"4","last_reported":1692302841,"current_range_meters":8000,"station_id":"ce4bhr92rcd13ifvqhrg","pricing_plan_id":"free"},{"bike_id":"e17c71d4-fc9a-4ba6-a1eb-e9daef1ac72f","system_id":"levelo_inurba_marseille","lat":43.33039,"lon":5.3892,"is_reserved":false,"is_disabled":false,"rental_uris":{"android":"levelo://app?vid=e17c71d4-fc9a-4ba6-a1eb-e9daef1ac72f","ios":"levelo://app?vid=e17c71d4-fc9a-4ba6-a1eb-e9daef1ac72f"},"vehicle_type_id":"4","last_reported":1692302841,"current_range_meters":800,"station_id":"ce4bhr92rcd13ifvqhrg","pricing_plan_id":"free"},{"bike_id":"d4ad8918-8ab6-4278-b772-6948b5c39e1d","system_id":"levelo_inurba_marseille","lat":43.330442,"lon":5.389148,"is_reserved":false,"is_disabled":false,"rental_uris":{"android":"levelo://app?vid=d4ad8918-8ab6-4278-b772-6948b5c39e1d","ios":"levelo://app?vid=d4ad8918-8ab6-4278-b772-6948b5c39e1d"},"vehicle_type_id":"4","last_reported":1692302841,"current_range_meters":15600,"station_id":"ce4bhr92rcd13ifvqhrg","pricing_plan_id":"free"},{"bike_id":"887fe8db-aa91-4cfe-bbdb-b6f88aa94e15","system_id":"levelo_inurba_marseille","lat":43.33042,"lon":5.38916,"is_reserved":false,"is_disabled":false,"rental_uris":{"android":"levelo://app?vid=887fe8db-aa91-4cfe-bbdb-b6f88aa94e15","ios":"levelo://app?vid=887fe8db-aa91-4cfe-bbdb-b6f88aa94e15"},"vehicle_type_id":"4","last_reported":1692302841,"current_range_meters":10000,"station_id":"ce4bhr92rcd13ifvqhrg","pricing_plan_id":"free"},{"bike_id":"70bf8ae7-a3d1-4160-b88a-65d31f2b1cbc","system_id":"levelo_inurba_marseille","lat":43.33043,"lon":5.38918,"is_reserved":false,"is_disabled":false,"rental_uris":{"android":"levelo://app?vid=70bf8ae7-a3d1-4160-b88a-65d31f2b1cbc","ios":"levelo://app?vid=70bf8ae7-a3d1-4160-b88a-65d31f2b1cbc"},"vehicle_type_id":"4","last_reported":1692302841,"current_range_meters":13600,"station_id":"ce4bhr92rcd13ifvqhrg","pricing_plan_id":"free"},{"bike_id":"d2423a45-b27a-4f94-a7f7-409902302210","system_id":"levelo_inurba_marseille","lat":43.33042,"lon":5.38921,"is_reserved":false,"is_disabled":false,"rental_uris":{"android":"levelo://app?vid=d2423a45-b27a-4f94-a7f7-409902302210","ios":"levelo://app?vid=d2423a45-b27a-4f94-a7f7-409902302210"},"vehicle_type_id":"4","last_reported":1692302841,"current_range_meters":18000,"station_id":"ce4bhr92rcd13ifvqhrg","pricing_plan_id":"free"},{"bike_id":"6af087b0-510c-46e1-bc03-dbade140f1ed","system_id":"levelo_inurba_marseille","lat":43.33044,"lon":5.38921,"is_reserved":false,"is_disabled":false,"rental_uris":{"android":"levelo://app?vid=6af087b0-510c-46e1-bc03-dbade140f1ed","ios":"levelo://app?vid=6af087b0-510c-46e1-bc03-dbade140f1ed"},"vehicle_type_id":"4","last_reported":1692302841,"current_range_meters":20400,"station_id":"ce4bhr92rcd13ifvqhrg","pricing_plan_id":"free"},{"bike_id":"2f82ba93-f7b6-4d3a-8de0-b97473edcbf8","system_id":"levelo_inurba_marseille","lat":43.290104,"lon":5.356111,"is_reserved":false,"is_disabled":false,"rental_uris":{"android":"levelo://app?vid=2f82ba93-f7b6-4d3a-8de0-b97473edcbf8","ios":"levelo://app?vid=2f82ba93-f7b6-4d3a-8de0-b97473edcbf8"},"vehicle_type_id":"4","last_reported":1692302841,"current_range_meters":0,"station_id":"ce4bhb92rcd13ifvqen0","pricing_plan_id":"free"},{"bike_id":"78f1a325-e5b4-4a72-bb0e-b29d3285ba24","system_id":"levelo_inurba_marseille","lat":43.290104,"lon":5.356111,"is_reserved":false,"is_disabled":false,"rental_uris":{"android":"levelo://app?vid=78f1a325-e5b4-4a72-bb0e-b29d3285ba24","ios":"levelo://app?vid=78f1a325-e5b4-4a72-bb0e-b29d3285ba24"},"vehicle_type_id":"4","last_reported":1692302841,"current_range_meters":30800,"station_id":"ce4bhb92rcd13ifvqen0","pricing_plan_id":"free"},{"bike_id":"bc553d70-024b-46f6-a37b-92642c8a32d2","system_id":"levelo_inurba_marseille","lat":43.290995,"lon":5.381361,"is_reserved":false,"is_disabled":false,"rental_uris":{"android":"levelo://app?vid=bc553d70-024b-46f6-a37b-92642c8a32d2","ios":"levelo://app?vid=bc553d70-024b-46f6-a37b-92642c8a32d2"},"vehicle_type_id":"4","last_reported":1692302841,"current_range_meters":1200,"station_id":"ce4bh512rcd13ifvqe2g","pricing_plan_id":"free"},{"bike_id":"a3100da2-fda0-49bd-9246-d5b1741cf2e1","system_id":"levelo_inurba_marseille","lat":43.297815,"lon":5.393548,"is_reserved":false,"is_disabled":false,"rental_uris":{"android":"levelo://app?vid=a3100da2-fda0-49bd-9246-d5b1741cf2e1","ios":"levelo://app?vid=a3100da2-fda0-49bd-9246-d5b1741cf2e1"},"vehicle_type_id":"4","last_reported":1692302841,"current_range_meters":800,"station_id":"chh1huq6cuj3fo74tm60","pricing_plan_id":"free"},{"bike_id":"1150fe6b-bcbf-4300-a0ba-956f53b5e485","system_id":"levelo_inurba_marseille","lat":43.295169,"lon":5.390426,"is_reserved":false,"is_disabled":false,"rental_uris":{"android":"levelo://app?vid=1150fe6b-bcbf-4300-a0ba-956f53b5e485","ios":"levelo://app?vid=1150fe6b-bcbf-4300-a0ba-956f53b5e485"},"vehicle_type_id":"4","last_reported":1692302841,"current_range_meters":18400,"station_id":"ce4bh3p2rcd13ifvqdp0","pricing_plan_id":"free"},{"bike_id":"446b8bfc-b9db-4b4b-8b74-88ea0e2330f3","system_id":"levelo_inurba_marseille","lat":43.295169,"lon":5.390426,"is_reserved":false,"is_disabled":false,"rental_uris":{"android":"levelo://app?vid=446b8bfc-b9db-4b4b-8b74-88ea0e2330f3","ios":"levelo://app?vid=446b8bfc-b9db-4b4b-8b74-88ea0e2330f3"},"vehicle_type_id":"4","last_reported":1692302841,"current_range_meters":1600,"station_id":"ce4bh3p2rcd13ifvqdp0","pricing_plan_id":"free"},{"bike_id":"002127c7-5ebc-4650-a839-bd747e0559b7","system_id":"levelo_inurba_marseille","lat":43.28856,"lon":5.358371,"is_reserved":false,"is_disabled":false,"rental_uris":{"android":"levelo://app?vid=002127c7-5ebc-4650-a839-bd747e0559b7","ios":"levelo://app?vid=002127c7-5ebc-4650-a839-bd747e0559b7"},"vehicle_type_id":"4","last_reported":1692302841,"current_range_meters":24000,"station_id":"ce4bhb12rcd13ifvqem0","pricing_plan_id":"free"},{"bike_id":"468e976a-8695-4380-af23-af0e4600f85d","system_id":"levelo_inurba_marseille","lat":43.312609,"lon":5.401662,"is_reserved":false,"is_disabled":false,"rental_uris":{"android":"levelo://app?vid=468e976a-8695-4380-af23-af0e4600f85d","ios":"levelo://app?vid=468e976a-8695-4380-af23-af0e4600f85d"},"vehicle_type_id":"4","last_reported":1692302841,"current_range_meters":2000,"station_id":"ce4bh092rcd13ifvqd30","pricing_plan_id":"free"},{"bike_id":"e7fea78c-44dc-4ca2-8969-e4c0daeda355","system_id":"levelo_inurba_marseille","lat":43.309371,"lon":5.401449,"is_reserved":false,"is_disabled":false,"rental_uris":{"android":"levelo://app?vid=e7fea78c-44dc-4ca2-8969-e4c0daeda355","ios":"levelo://app?vid=e7fea78c-44dc-4ca2-8969-e4c0daeda355"},"vehicle_type_id":"4","last_reported":1692302841,"current_range_meters":15600,"station_id":"ce4bgvp2rcd13ifvqct0","pricing_plan_id":"free"},{"bike_id":"f7089ed9-b76d-48d7-9c95-a026973d85c9","system_id":"levelo_inurba_marseille","lat":43.312609,"lon":5.401662,"is_reserved":false,"is_disabled":false,"rental_uris":{"android":"levelo://app?vid=f7089ed9-b76d-48d7-9c95-a026973d85c9","ios":"levelo://app?vid=f7089ed9-b76d-48d7-9c95-a026973d85c9"},"vehicle_type_id":"4","last_reported":1692302841,"current_range_meters":18400,"station_id":"ce4bh092rcd13ifvqd30","pricing_plan_id":"free"},{"bike_id":"af780357-a8f8-4cbd-a818-396599dd4299","system_id":"levelo_inurba_marseille","lat":43.33745,"lon":5.37443,"is_reserved":false,"is_disabled":false,"rental_uris":{"android":"levelo://app?vid=af780357-a8f8-4cbd-a818-396599dd4299","ios":"levelo://app?vid=af780357-a8f8-4cbd-a818-396599dd4299"},"vehicle_type_id":"4","last_reported":1692302841,"current_range_meters":20000,"station_id":"","pricing_plan_id":"free"},{"bike_id":"8ba63082-9399-4533-adb6-cc593c87771c","system_id":"levelo_inurba_marseille","lat":43.31275,"lon":5.40174,"is_reserved":false,"is_disabled":false,"rental_uris":{"android":"levelo://app?vid=8ba63082-9399-4533-adb6-cc593c87771c","ios":"levelo://app?vid=8ba63082-9399-4533-adb6-cc593c87771c"},"vehicle_type_id":"4","last_reported":1692302841,"current_range_meters":5600,"station_id":"ce4bh092rcd13ifvqd30","pricing_plan_id":"free"},{"bike_id":"fcbbc945-3203-4081-9bc8-6127e9602b63","system_id":"levelo_inurba_marseille","lat":43.312609,"lon":5.401662,"is_reserved":false,"is_disabled":false,"rental_uris":{"android":"levelo://app?vid=fcbbc945-3203-4081-9bc8-6127e9602b63","ios":"levelo://app?vid=fcbbc945-3203-4081-9bc8-6127e9602b63"},"vehicle_type_id":"4","last_reported":1692302841,"current_range_meters":16000,"station_id":"ce4bh092rcd13ifvqd30","pricing_plan_id":"free"},{"bike_id":"86b1c357-8b13-4217-a8cb-559265c177ff","system_id":"levelo_inurba_marseille","lat":43.33745,"lon":5.37472,"is_reserved":false,"is_disabled":false,"rental_uris":{"android":"levelo://app?vid=86b1c357-8b13-4217-a8cb-559265c177ff","ios":"levelo://app?vid=86b1c357-8b13-4217-a8cb-559265c177ff"},"vehicle_type_id":"4","last_reported":1692302841,"current_range_meters":27600,"station_id":"","pricing_plan_id":"free"},{"bike_id":"4e223b6f-3c25-48b2-bf29-64fb04ae9c60","system_id":"levelo_inurba_marseille","lat":43.33759,"lon":5.37433,"is_reserved":false,"is_disabled":false,"rental_uris":{"android":"levelo://app?vid=4e223b6f-3c25-48b2-bf29-64fb04ae9c60","ios":"levelo://app?vid=4e223b6f-3c25-48b2-bf29-64fb04ae9c60"},"vehicle_type_id":"4","last_reported":1692302841,"current_range_meters":28000,"station_id":"","pricing_plan_id":"free"},{"bike_id":"c8e36187-835d-4ae5-a596-75160776a381","system_id":"levelo_inurba_marseille","lat":43.3376,"lon":5.37486,"is_reserved":false,"is_disabled":false,"rental_uris":{"android":"levelo://app?vid=c8e36187-835d-4ae5-a596-75160776a381","ios":"levelo://app?vid=c8e36187-835d-4ae5-a596-75160776a381"},"vehicle_type_id":"4","last_reported":1692302841,"current_range_meters":28400,"station_id":"","pricing_plan_id":"free"},{"bike_id":"aec645da-214f-4be9-a48c-5681919e14f7","system_id":"levelo_inurba_marseille","lat":43.3376,"lon":5.37492,"is_reserved":false,"is_disabled":false,"rental_uris":{"android":"levelo://app?vid=aec645da-214f-4be9-a48c-5681919e14f7","ios":"levelo://app?vid=aec645da-214f-4be9-a48c-5681919e14f7"},"vehicle_type_id":"4","last_reported":1692302841,"current_range_meters":29200,"station_id":"","pricing_plan_id":"free"},{"bike_id":"d0d853e4-f639-443d-a081-df536a8d915d","system_id":"levelo_inurba_marseille","lat":43.3057,"lon":5.40081,"is_reserved":false,"is_disabled":false,"rental_uris":{"android":"levelo://app?vid=d0d853e4-f639-443d-a081-df536a8d915d","ios":"levelo://app?vid=d0d853e4-f639-443d-a081-df536a8d915d"},"vehicle_type_id":"4","last_reported":1692302841,"current_range_meters":14000,"station_id":"","pricing_plan_id":"free"},{"bike_id":"28afc692-e160-4e91-8e79-a1fb4d2788af","system_id":"levelo_inurba_marseille","lat":43.301117,"lon":5.398795,"is_reserved":false,"is_disabled":false,"rental_uris":{"android":"levelo://app?vid=28afc692-e160-4e91-8e79-a1fb4d2788af","ios":"levelo://app?vid=28afc692-e160-4e91-8e79-a1fb4d2788af"},"vehicle_type_id":"4","last_reported":1692302841,"current_range_meters":11600,"station_id":"ce4bh0h2rcd13ifvqd40","pricing_plan_id":"free"},{"bike_id":"22f7baa2-dd34-4176-94e2-350c24342a63","system_id":"levelo_inurba_marseille","lat":43.301117,"lon":5.398795,"is_reserved":false,"is_disabled":false,"rental_uris":{"android":"levelo://app?vid=22f7baa2-dd34-4176-94e2-350c24342a63","ios":"levelo://app?vid=22f7baa2-dd34-4176-94e2-350c24342a63"},"vehicle_type_id":"4","last_reported":1692302841,"current_range_meters":15600,"station_id":"ce4bh0h2rcd13ifvqd40","pricing_plan_id":"free"},{"bike_id":"8fe3dec5-f31c-4c40-b628-4f79e244999b","system_id":"levelo_inurba_marseille","lat":43.301117,"lon":5.398795,"is_reserved":false,"is_disabled":false,"rental_uris":{"android":"levelo://app?vid=8fe3dec5-f31c-4c40-b628-4f79e244999b","ios":"levelo://app?vid=8fe3dec5-f31c-4c40-b628-4f79e244999b"},"vehicle_type_id":"4","last_reported":1692302841,"current_range_meters":27200,"station_id":"ce4bh0h2rcd13ifvqd40","pricing_plan_id":"free"},{"bike_id":"ca61816e-6d89-4b6a-aa4e-8220379d080b","system_id":"levelo_inurba_marseille","lat":43.298681,"lon":5.397225,"is_reserved":false,"is_disabled":false,"rental_uris":{"android":"levelo://app?vid=ca61816e-6d89-4b6a-aa4e-8220379d080b","ios":"levelo://app?vid=ca61816e-6d89-4b6a-aa4e-8220379d080b"},"vehicle_type_id":"4","last_reported":1692302841,"current_range_meters":6400,"station_id":"ce4bh0h2rcd13ifvqd50","pricing_plan_id":"free"},{"bike_id":"5dc0edf0-cd34-4c02-9270-767f5ec12c73","system_id":"levelo_inurba_marseille","lat":43.298681,"lon":5.397225,"is_reserved":false,"is_disabled":false,"rental_uris":{"android":"levelo://app?vid=5dc0edf0-cd34-4c02-9270-767f5ec12c73","ios":"levelo://app?vid=5dc0edf0-cd34-4c02-9270-767f5ec12c73"},