{"last_updated":1773955529,"ttl":60,"version":"2.2","data":{"bikes":[{"bike_id":"f5633142-06b4-41a8-9523-f83ce443c69f","system_id":"levelo_inurba_marseille","lat":43.286096,"lon":5.35101,"is_reserved":false,"is_disabled":false,"rental_uris":{"android":"levelo://app?vid=f5633142-06b4-41a8-9523-f83ce443c69f","ios":"levelo://app?vid=f5633142-06b4-41a8-9523-f83ce443c69f"},"vehicle_type_id":"4","last_reported":1773955529,"current_range_meters":2800,"station_id":"","pricing_plan_id":"cebpf4jnsgd1na2vs0mg"},{"bike_id":"c539bd65-0e65-469f-b4ed-962f8c4aff1f","system_id":"levelo_inurba_marseille","lat":43.28662,"lon":5.36365,"is_reserved":false,"is_disabled":false,"rental_uris":{"android":"levelo://app?vid=c539bd65-0e65-469f-b4ed-962f8c4aff1f","ios":"levelo://app?vid=c539bd65-0e65-469f-b4ed-962f8c4aff1f"},"vehicle_type_id":"4","last_reported":1773955529,"current_range_meters":2800,"station_id":"ce4bhah2rcd13ifvqej0","pricing_plan_id":"cebpf4jnsgd1na2vs0mg"},{"bike_id":"e2cc4b12-6d16-48d1-9098-5d8871dab6d4","system_id":"levelo_inurba_marseille","lat":43.29488,"lon":5.39047,"is_reserved":false,"is_disabled":false,"rental_uris":{"android":"levelo://app?vid=e2cc4b12-6d16-48d1-9098-5d8871dab6d4","ios":"levelo://app?vid=e2cc4b12-6d16-48d1-9098-5d8871dab6d4"},"vehicle_type_id":"4","last_reported":1773955529,"current_range_meters":2800,"station_id":"ce4bh3p2rcd13ifvqdp0","pricing_plan_id":"cebpf4jnsgd1na2vs0mg"},{"bike_id":"2cd6d2c4-9839-4b08-8d75-805c4c2214dc","system_id":"levelo_inurba_marseille","lat":43.23047,"lon":5.35497,"is_reserved":false,"is_disabled":false,"rental_uris":{"android":"levelo://app?vid=2cd6d2c4-9839-4b08-8d75-805c4c2214dc","ios":"levelo://app?vid=2cd6d2c4-9839-4b08-8d75-805c4c2214dc"},"vehicle_type_id":"4","last_reported":1773955529,"current_range_meters":2800,"station_id":"cpo3342slgdg3j2ifvpg","pricing_plan_id":"cebpf4jnsgd1na2vs0mg"},{"bike_id":"8a854e0a-3b9f-471d-80f2-bfadb0595e6b","system_id":"levelo_inurba_marseille","lat":43.31517,"lon":5.38358,"is_reserved":false,"is_disabled":false,"rental_uris":{"android":"levelo://app?vid=8a854e0a-3b9f-471d-80f2-bfadb0595e6b","ios":"levelo://app?vid=8a854e0a-3b9f-471d-80f2-bfadb0595e6b"},"vehicle_type_id":"4","last_reported":1773955529,"current_range_meters":2800,"station_id":"","pricing_plan_id":"cebpf4jnsgd1na2vs0mg"},{"bike_id":"56b97f63-7d68-4f2e-ba6e-3ac28ff4ee85","system_id":"levelo_inurba_marseille","lat":43.28995,"lon":5.3812,"is_reserved":false,"is_disabled":false,"rental_uris":{"android":"levelo://app?vid=56b97f63-7d68-4f2e-ba6e-3ac28ff4ee85","ios":"levelo://app?vid=56b97f63-7d68-4f2e-ba6e-3ac28ff4ee85"},"vehicle_type_id":"4","last_reported":1773955529,"current_range_meters":2800,"station_id":"ce4bh4p2rcd13ifvqe1g","pricing_plan_id":"cebpf4jnsgd1na2vs0mg"},{"bike_id":"f6eef633-bed7-4c4d-bcfd-52d77fe3a5c1","system_id":"levelo_inurba_marseille","lat":43.2534,"lon":5.42183,"is_reserved":false,"is_disabled":false,"rental_uris":{"android":"levelo://app?vid=f6eef633-bed7-4c4d-bcfd-52d77fe3a5c1","ios":"levelo://app?vid=f6eef633-bed7-4c4d-bcfd-52d77fe3a5c1"},"vehicle_type_id":"4","last_reported":1773955529,"current_range_meters":2800,"station_id":"st_d2m65c5bi1j21697t3ng","pricing_plan_id":"cebpf4jnsgd1na2vs0mg"},{"bike_id":"02b51a77-354e-40bf-b6a1-4608f3c631a1","system_id":"levelo_inurba_marseille","lat":43.288727,"lon":5.358378,"is_reserved":false,"is_disabled":false,"rental_uris":{"android":"levelo://app?vid=02b51a77-354e-40bf-b6a1-4608f3c631a1","ios":"levelo://app?vid=02b51a77-354e-40bf-b6a1-4608f3c631a1"},"vehicle_type_id":"4","last_reported":1773955529,"current_range_meters":2800,"station_id":"ce4bhb12rcd13ifvqem0","pricing_plan_id":"cebpf4jnsgd1na2vs0mg"},{"bike_id":"e3bb0bf1-4261-472e-8a7f-2e9efae74773","system_id":"levelo_inurba_marseille","lat":43.2926,"lon":5.40166,"is_reserved":false,"is_disabled":false,"rental_uris":{"android":"levelo://app?vid=e3bb0bf1-4261-472e-8a7f-2e9efae74773","ios":"levelo://app?vid=e3bb0bf1-4261-472e-8a7f-2e9efae74773"},"vehicle_type_id":"4","last_reported":1773955529,"current_range_meters":2800,"station_id":"ce4bh312rcd13ifvqdk0","pricing_plan_id":"cebpf4jnsgd1na2vs0mg"},{"bike_id":"5ae817f5-f449-42aa-9b7b-91464712493c","system_id":"levelo_inurba_marseille","lat":43.27446,"lon":5.39416,"is_reserved":false,"is_disabled":false,"rental_uris":{"android":"levelo://app?vid=5ae817f5-f449-42aa-9b7b-91464712493c","ios":"levelo://app?vid=5ae817f5-f449-42aa-9b7b-91464712493c"},"vehicle_type_id":"4","last_reported":1773955529,"current_range_meters":2800,"station_id":"ce4bhdp2rcd13ifvqf20","pricing_plan_id":"cebpf4jnsgd1na2vs0mg"},{"bike_id":"50c589ba-1ee7-42e5-b2e8-270213ce2a50","system_id":"levelo_inurba_marseille","lat":43.28707,"lon":5.37411,"is_reserved":false,"is_disabled":false,"rental_uris":{"android":"levelo://app?vid=50c589ba-1ee7-42e5-b2e8-270213ce2a50","ios":"levelo://app?vid=50c589ba-1ee7-42e5-b2e8-270213ce2a50"},"vehicle_type_id":"4","last_reported":1773955529,"current_range_meters":2800,"station_id":"ce4bh3p2rcd13ifvqdq0","pricing_plan_id":"cebpf4jnsgd1na2vs0mg"},{"bike_id":"a9d31829-7e0d-482f-af05-97ddd320ae16","system_id":"levelo_inurba_marseille","lat":43.29759,"lon":5.42777,"is_reserved":false,"is_disabled":true,"rental_uris":{"android":"levelo://app?vid=a9d31829-7e0d-482f-af05-97ddd320ae16","ios":"levelo://app?vid=a9d31829-7e0d-482f-af05-97ddd320ae16"},"vehicle_type_id":"4","last_reported":1773955529,"current_range_meters":2800,"station_id":"st_d3md5207bmas73dh9klg","pricing_plan_id":"cebpf4jnsgd1na2vs0mg"},{"bike_id":"78091c84-79e3-435f-8ee3-e135a643baae","system_id":"levelo_inurba_marseille","lat":43.31241,"lon":5.38444,"is_reserved":false,"is_disabled":false,"rental_uris":{"android":"levelo://app?vid=78091c84-79e3-435f-8ee3-e135a643baae","ios":"levelo://app?vid=78091c84-79e3-435f-8ee3-e135a643baae"},"vehicle_type_id":"4","last_reported":1773955529,"current_range_meters":2800,"station_id":"","pricing_plan_id":"cebpf4jnsgd1na2vs0mg"},{"bike_id":"2823a948-f533-43f1-8827-327fd8f55608","system_id":"levelo_inurba_marseille","lat":43.31974,"lon":5.38151,"is_reserved":false,"is_disabled":false,"rental_uris":{"android":"levelo://app?vid=2823a948-f533-43f1-8827-327fd8f55608","ios":"levelo://app?vid=2823a948-f533-43f1-8827-327fd8f55608"},"vehicle_type_id":"4","last_reported":1773955529,"current_range_meters":2800,"station_id":"ce4bhr12rcd13ifvqhpg","pricing_plan_id":"cebpf4jnsgd1na2vs0mg"},{"bike_id":"46749662-f55a-4294-be4b-39665f1f367d","system_id":"levelo_inurba_marseille","lat":43.22938,"lon":5.35376,"is_reserved":false,"is_disabled":false,"rental_uris":{"android":"levelo://app?vid=46749662-f55a-4294-be4b-39665f1f367d","ios":"levelo://app?vid=46749662-f55a-4294-be4b-39665f1f367d"},"vehicle_type_id":"4","last_reported":1773955529,"current_range_meters":2800,"station_id":"cpo3532slgdg3j2ikp40","pricing_plan_id":"cebpf4jnsgd1na2vs0mg"},{"bike_id":"5d3b10ab-ac8b-4126-9a0d-4baba0ee524c","system_id":"levelo_inurba_marseille","lat":43.28224,"lon":5.39078,"is_reserved":false,"is_disabled":false,"rental_uris":{"android":"levelo://app?vid=5d3b10ab-ac8b-4126-9a0d-4baba0ee524c","ios":"levelo://app?vid=5d3b10ab-ac8b-4126-9a0d-4baba0ee524c"},"vehicle_type_id":"4","last_reported":1773955529,"current_range_meters":2800,"station_id":"ce4bhn92rcd13ifvqgsg","pricing_plan_id":"cebpf4jnsgd1na2vs0mg"},{"bike_id":"24e3771f-e706-48ce-9711-2331d480393c","system_id":"levelo_inurba_marseille","lat":43.24808,"lon":5.37464,"is_reserved":false,"is_disabled":false,"rental_uris":{"android":"levelo://app?vid=24e3771f-e706-48ce-9711-2331d480393c","ios":"levelo://app?vid=24e3771f-e706-48ce-9711-2331d480393c"},"vehicle_type_id":"4","last_reported":1773955529,"current_range_meters":2800,"station_id":"ce4bhgh2rcd13ifvqfb0","pricing_plan_id":"cebpf4jnsgd1na2vs0mg"},{"bike_id":"365735fd-0c01-4424-a081-7a4565a71d1a","system_id":"levelo_inurba_marseille","lat":43.29778,"lon":5.37947,"is_reserved":false,"is_disabled":false,"rental_uris":{"android":"levelo://app?vid=365735fd-0c01-4424-a081-7a4565a71d1a","ios":"levelo://app?vid=365735fd-0c01-4424-a081-7a4565a71d1a"},"vehicle_type_id":"4","last_reported":1773955529,"current_range_meters":2800,"station_id":"","pricing_plan_id":"cebpf4jnsgd1na2vs0mg"},{"bike_id":"c9cfc67c-4e42-4833-b4ab-11ad690d27f6","system_id":"levelo_inurba_marseille","lat":43.33024,"lon":5.39537,"is_reserved":false,"is_disabled":false,"rental_uris":{"android":"levelo://app?vid=c9cfc67c-4e42-4833-b4ab-11ad690d27f6","ios":"levelo://app?vid=c9cfc67c-4e42-4833-b4ab-11ad690d27f6"},"vehicle_type_id":"4","last_reported":1773955529,"current_range_meters":2800,"station_id":"","pricing_plan_id":"cebpf4jnsgd1na2vs0mg"},{"bike_id":"488022cf-ae8c-4b5a-bfe4-ba5db4a587f4","system_id":"levelo_inurba_marseille","lat":43.31917,"lon":5.36771,"is_reserved":false,"is_disabled":false,"rental_uris":{"android":"levelo://app?vid=488022cf-ae8c-4b5a-bfe4-ba5db4a587f4","ios":"levelo://app?vid=488022cf-ae8c-4b5a-bfe4-ba5db4a587f4"},"vehicle_type_id":"4","last_reported":1773955529,"current_range_meters":2800,"station_id":"ce4bguh2rcd13ifvqcj0","pricing_plan_id":"cebpf4jnsgd1na2vs0mg"},{"bike_id":"bd76c094-5344-424d-b7c4-60f8801fbb04","system_id":"levelo_inurba_marseille","lat":43.299,"lon":5.40225,"is_reserved":false,"is_disabled":false,"rental_uris":{"android":"levelo://app?vid=bd76c094-5344-424d-b7c4-60f8801fbb04","ios":"levelo://app?vid=bd76c094-5344-424d-b7c4-60f8801fbb04"},"vehicle_type_id":"4","last_reported":1773955529,"current_range_meters":2800,"station_id":"","pricing_plan_id":"cebpf4jnsgd1na2vs0mg"},{"bike_id":"ec622c6c-2b8e-40d8-a29b-0183a7e49719","system_id":"levelo_inurba_marseille","lat":43.28531,"lon":5.44086,"is_reserved":false,"is_disabled":false,"rental_uris":{"android":"levelo://app?vid=ec622c6c-2b8e-40d8-a29b-0183a7e49719","ios":"levelo://app?vid=ec622c6c-2b8e-40d8-a29b-0183a7e49719"},"vehicle_type_id":"4","last_reported":1773955529,"current_range_meters":2800,"station_id":"st_d3j3df2ikq2c7380ej80","pricing_plan_id":"cebpf4jnsgd1na2vs0mg"},{"bike_id":"402a4d19-a3be-4348-9659-ffdbcd086d54","system_id":"levelo_inurba_marseille","lat":43.31142,"lon":5.3775,"is_reserved":false,"is_disabled":false,"rental_uris":{"android":"levelo://app?vid=402a4d19-a3be-4348-9659-ffdbcd086d54","ios":"levelo://app?vid=402a4d19-a3be-4348-9659-ffdbcd086d54"},"vehicle_type_id":"4","last_reported":1773955529,"current_range_meters":3200,"station_id":"ce4bgt92rcd13ifvqcg0","pricing_plan_id":"cebpf4jnsgd1na2vs0mg"},{"bike_id":"4f6b0733-ec81-435a-ab04-8d8cf4962beb","system_id":"levelo_inurba_marseille","lat":43.29805,"lon":5.40401,"is_reserved":false,"is_disabled":false,"rental_uris":{"android":"levelo://app?vid=4f6b0733-ec81-435a-ab04-8d8cf4962beb","ios":"levelo://app?vid=4f6b0733-ec81-435a-ab04-8d8cf4962beb"},"vehicle_type_id":"4","last_reported":1773955529,"current_range_meters":3200,"station_id":"ce4bh112rcd13ifvqd90","pricing_plan_id":"cebpf4jnsgd1na2vs0mg"},{"bike_id":"c1352cce-7c76-47ee-836c-eac7c1d1c344","system_id":"levelo_inurba_marseille","lat":43.29014,"lon":5.38636,"is_reserved":false,"is_disabled":false,"rental_uris":{"android":"levelo://app?vid=c1352cce-7c76-47ee-836c-eac7c1d1c344","ios":"levelo://app?vid=c1352cce-7c76-47ee-836c-eac7c1d1c344"},"vehicle_type_id":"4","last_reported":1773955529,"current_range_meters":3200,"station_id":"ce4bh4p2rcd13ifvqe0g","pricing_plan_id":"cebpf4jnsgd1na2vs0mg"},{"bike_id":"cd0ad1b8-13a6-4a77-b504-90d8244cd83a","system_id":"levelo_inurba_marseille","lat":43.27038,"lon":5.42254,"is_reserved":false,"is_disabled":true,"rental_uris":{"android":"levelo://app?vid=cd0ad1b8-13a6-4a77-b504-90d8244cd83a","ios":"levelo://app?vid=cd0ad1b8-13a6-4a77-b504-90d8244cd83a"},"vehicle_type_id":"4","last_reported":1773955529,"current_range_meters":3200,"station_id":"ce4bhk92rcd13ifvqgb0","pricing_plan_id":"cebpf4jnsgd1na2vs0mg"},{"bike_id":"ce3de70d-803e-41a9-94a2-96315c3a59ac","system_id":"levelo_inurba_marseille","lat":43.32063,"lon":5.36777,"is_reserved":false,"is_disabled":false,"rental_uris":{"android":"levelo://app?vid=ce3de70d-803e-41a9-94a2-96315c3a59ac","ios":"levelo://app?vid=ce3de70d-803e-41a9-94a2-96315c3a59ac"},"vehicle_type_id":"4","last_reported":1773955529,"current_range_meters":3200,"station_id":"ce4bhrh2rcd13ifvqhug","pricing_plan_id":"cebpf4jnsgd1na2vs0mg"},{"bike_id":"9da49d4a-30d7-4a40-98f4-49bb529a7739","system_id":"levelo_inurba_marseille","lat":43.29238,"lon":5.38445,"is_reserved":false,"is_disabled":false,"rental_uris":{"android":"levelo://app?vid=9da49d4a-30d7-4a40-98f4-49bb529a7739","ios":"levelo://app?vid=9da49d4a-30d7-4a40-98f4-49bb529a7739"},"vehicle_type_id":"4","last_reported":1773955529,"current_range_meters":3200,"station_id":"ce4bh692rcd13ifvqea0","pricing_plan_id":"cebpf4jnsgd1na2vs0mg"},{"bike_id":"bc8d4909-7df2-4328-940f-132ae8fb5a27","system_id":"levelo_inurba_marseille","lat":43.25594,"lon":5.38233,"is_reserved":false,"is_disabled":false,"rental_uris":{"android":"levelo://app?vid=bc8d4909-7df2-4328-940f-132ae8fb5a27","ios":"levelo://app?vid=bc8d4909-7df2-4328-940f-132ae8fb5a27"},"vehicle_type_id":"4","last_reported":1773955529,"current_range_meters":3200,"station_id":"ce4bhih2rcd13ifvqfs0","pricing_plan_id":"cebpf4jnsgd1na2vs0mg"},{"bike_id":"d0b1f448-6af4-4ef1-a755-e03baf4488aa","system_id":"levelo_inurba_marseille","lat":43.29257,"lon":5.35751,"is_reserved":false,"is_disabled":false,"rental_uris":{"android":"levelo://app?vid=d0b1f448-6af4-4ef1-a755-e03baf4488aa","ios":"levelo://app?vid=d0b1f448-6af4-4ef1-a755-e03baf4488aa"},"vehicle_type_id":"4","last_reported":1773955529,"current_range_meters":3200,"station_id":"","pricing_plan_id":"cebpf4jnsgd1na2vs0mg"},{"bike_id":"4c5d836e-ad01-47da-97a0-e883f94cfeb1","system_id":"levelo_inurba_marseille","lat":43.29579,"lon":5.38101,"is_reserved":false,"is_disabled":false,"rental_uris":{"android":"levelo://app?vid=4c5d836e-ad01-47da-97a0-e883f94cfeb1","ios":"levelo://app?vid=4c5d836e-ad01-47da-97a0-e883f94cfeb1"},"vehicle_type_id":"4","last_reported":1773955529,"current_range_meters":3200,"station_id":"ce4bgl12rcd13ifvqbo0","pricing_plan_id":"cebpf4jnsgd1na2vs0mg"},{"bike_id":"c6b4ba83-d211-421f-82a7-0a8a0abe04b2","system_id":"levelo_inurba_marseille","lat":43.2894,"lon":5.36642,"is_reserved":false,"is_disabled":false,"rental_uris":{"android":"levelo://app?vid=c6b4ba83-d211-421f-82a7-0a8a0abe04b2","ios":"levelo://app?vid=c6b4ba83-d211-421f-82a7-0a8a0abe04b2"},"vehicle_type_id":"4","last_reported":1773955529,"current_range_meters":3200,"station_id":"ce4bhap2rcd13ifvqek0","pricing_plan_id":"cebpf4jnsgd1na2vs0mg"},{"bike_id":"5a774bc6-2528-4951-a393-9c3fa25f2387","system_id":"levelo_inurba_marseille","lat":43.29778,"lon":5.39356,"is_reserved":false,"is_disabled":false,"rental_uris":{"android":"levelo://app?vid=5a774bc6-2528-4951-a393-9c3fa25f2387","ios":"levelo://app?vid=5a774bc6-2528-4951-a393-9c3fa25f2387"},"vehicle_type_id":"4","last_reported":1773955529,"current_range_meters":3200,"station_id":"chh1huq6cuj3fo74tm60","pricing_plan_id":"cebpf4jnsgd1na2vs0mg"},{"bike_id":"90df2976-00f1-427e-bc04-5655664bfcea","system_id":"levelo_inurba_marseille","lat":43.29606,"lon":5.36763,"is_reserved":false,"is_disabled":false,"rental_uris":{"android":"levelo://app?vid=90df2976-00f1-427e-bc04-5655664bfcea","ios":"levelo://app?vid=90df2976-00f1-427e-bc04-5655664bfcea"},"vehicle_type_id":"4","last_reported":1773955529,"current_range_meters":3200,"station_id":"ce4bgph2rcd13ifvqc2g","pricing_plan_id":"cebpf4jnsgd1na2vs0mg"},{"bike_id":"fad8e96d-acb2-4874-9608-7180f6b034b8","system_id":"levelo_inurba_marseille","lat":43.29126,"lon":5.40808,"is_reserved":false,"is_disabled":false,"rental_uris":{"android":"levelo://app?vid=fad8e96d-acb2-4874-9608-7180f6b034b8","ios":"levelo://app?vid=fad8e96d-acb2-4874-9608-7180f6b034b8"},"vehicle_type_id":"4","last_reported":1773955529,"current_range_meters":3200,"station_id":"","pricing_plan_id":"cebpf4jnsgd1na2vs0mg"},{"bike_id":"447b11a1-21b5-4523-80dc-ebe593853403","system_id":"levelo_inurba_marseille","lat":43.29132,"lon":5.42614,"is_reserved":false,"is_disabled":false,"rental_uris":{"android":"levelo://app?vid=447b11a1-21b5-4523-80dc-ebe593853403","ios":"levelo://app?vid=447b11a1-21b5-4523-80dc-ebe593853403"},"vehicle_type_id":"4","last_reported":1773955529,"current_range_meters":3200,"station_id":"","pricing_plan_id":"cebpf4jnsgd1na2vs0mg"},{"bike_id":"f11c3308-36cb-41d9-9775-f36c4dd3ac39","system_id":"levelo_inurba_marseille","lat":43.29262,"lon":5.38436,"is_reserved":false,"is_disabled":false,"rental_uris":{"android":"levelo://app?vid=f11c3308-36cb-41d9-9775-f36c4dd3ac39","ios":"levelo://app?vid=f11c3308-36cb-41d9-9775-f36c4dd3ac39"},"vehicle_type_id":"4","last_reported":1773955529,"current_range_meters":3200,"station_id":"ce4bh692rcd13ifvqea0","pricing_plan_id":"cebpf4jnsgd1na2vs0mg"},{"bike_id":"4c54ce9f-e652-478e-99af-3e16fd029dd7","system_id":"levelo_inurba_marseille","lat":43.23786,"lon":5.36629,"is_reserved":false,"is_disabled":false,"rental_uris":{"android":"levelo://app?vid=4c54ce9f-e652-478e-99af-3e16fd029dd7","ios":"levelo://app?vid=4c54ce9f-e652-478e-99af-3e16fd029dd7"},"vehicle_type_id":"4","last_reported":1773955529,"current_range_meters":3200,"station_id":"st_d3nk18o9ro0c73en2l3g","pricing_plan_id":"cebpf4jnsgd1na2vs0mg"},{"bike_id":"bd5a0de4-7bb8-4ed2-8eca-7017e0340864","system_id":"levelo_inurba_marseille","lat":43.29038,"lon":5.35944,"is_reserved":false,"is_disabled":false,"rental_uris":{"android":"levelo://app?vid=bd5a0de4-7bb8-4ed2-8eca-7017e0340864","ios":"levelo://app?vid=bd5a0de4-7bb8-4ed2-8eca-7017e0340864"},"vehicle_type_id":"4","last_reported":1773955529,"current_range_meters":3200,"station_id":"ce4bha92rcd13ifvqeg0","pricing_plan_id":"cebpf4jnsgd1na2vs0mg"},{"bike_id":"392fcf9a-86d3-4e46-a438-cc6b3eecb0e3","system_id":"levelo_inurba_marseille","lat":43.28668,"lon":5.36345,"is_reserved":false,"is_disabled":false,"rental_uris":{"android":"levelo://app?vid=392fcf9a-86d3-4e46-a438-cc6b3eecb0e3","ios":"levelo://app?vid=392fcf9a-86d3-4e46-a438-cc6b3eecb0e3"},"vehicle_type_id":"4","last_reported":1773955529,"current_range_meters":3600,"station_id":"ce4bhah2rcd13ifvqej0","pricing_plan_id":"cebpf4jnsgd1na2vs0mg"},{"bike_id":"13f88d23-8297-4587-839a-a3ec92f34aa6","system_id":"levelo_inurba_marseille","lat":43.29568,"lon":5.38074,"is_reserved":false,"is_disabled":false,"rental_uris":{"android":"levelo://app?vid=13f88d23-8297-4587-839a-a3ec92f34aa6","ios":"levelo://app?vid=13f88d23-8297-4587-839a-a3ec92f34aa6"},"vehicle_type_id":"4","last_reported":1773955529,"current_range_meters":3600,"station_id":"ce4bgl12rcd13ifvqbo0","pricing_plan_id":"cebpf4jnsgd1na2vs0mg"},{"bike_id":"506661fa-d7d4-473c-8038-c16d45410fe8","system_id":"levelo_inurba_marseille","lat":43.28862,"lon":5.42538,"is_reserved":false,"is_disabled":false,"rental_uris":{"android":"levelo://app?vid=506661fa-d7d4-473c-8038-c16d45410fe8","ios":"levelo://app?vid=506661fa-d7d4-473c-8038-c16d45410fe8"},"vehicle_type_id":"4","last_reported":1773955529,"current_range_meters":3600,"station_id":"","pricing_plan_id":"cebpf4jnsgd1na2vs0mg"},{"bike_id":"d29c05f8-d760-43ef-be8f-e483abd8aa24","system_id":"levelo_inurba_marseille","lat":43.27615,"lon":5.36121,"is_reserved":false,"is_disabled":false,"rental_uris":{"android":"levelo://app?vid=d29c05f8-d760-43ef-be8f-e483abd8aa24","ios":"levelo://app?vid=d29c05f8-d760-43ef-be8f-e483abd8aa24"},"vehicle_type_id":"4","last_reported":1773955529,"current_range_meters":3600,"station_id":"ce4bgj92rcd13ifvqbe0","pricing_plan_id":"cebpf4jnsgd1na2vs0mg"},{"bike_id":"043a8cdf-9ae6-48c7-8169-e1d54a2e51d8","system_id":"levelo_inurba_marseille","lat":43.28907,"lon":5.38393,"is_reserved":false,"is_disabled":false,"rental_uris":{"android":"levelo://app?vid=043a8cdf-9ae6-48c7-8169-e1d54a2e51d8","ios":"levelo://app?vid=043a8cdf-9ae6-48c7-8169-e1d54a2e51d8"},"vehicle_type_id":"4","last_reported":1773955529,"current_range_meters":3600,"station_id":"ce4bh612rcd13ifvqe6g","pricing_plan_id":"cebpf4jnsgd1na2vs0mg"},{"bike_id":"c5ead182-cff2-4988-825e-a19ac854dc0d","system_id":"levelo_inurba_marseille","lat":43.29608,"lon":5.38118,"is_reserved":false,"is_disabled":false,"rental_uris":{"android":"levelo://app?vid=c5ead182-cff2-4988-825e-a19ac854dc0d","ios":"levelo://app?vid=c5ead182-cff2-4988-825e-a19ac854dc0d"},"vehicle_type_id":"4","last_reported":1773955529,"current_range_meters":3600,"station_id":"ce4bgl12rcd13ifvqbo0","pricing_plan_id":"cebpf4jnsgd1na2vs0mg"},{"bike_id":"a15529e2-dad5-4ece-a060-3e7f5185c086","system_id":"levelo_inurba_marseille","lat":43.3137,"lon":5.38497,"is_reserved":false,"is_disabled":false,"rental_uris":{"android":"levelo://app?vid=a15529e2-dad5-4ece-a060-3e7f5185c086","ios":"levelo://app?vid=a15529e2-dad5-4ece-a060-3e7f5185c086"},"vehicle_type_id":"4","last_reported":1773955529,"current_range_meters":3600,"station_id":"ce4bgt92rcd13ifvqcf0","pricing_plan_id":"cebpf4jnsgd1na2vs0mg"},{"bike_id":"8ce107d0-5101-4159-bcb4-a79c295539b3","system_id":"levelo_inurba_marseille","lat":43.28685,"lon":5.40004,"is_reserved":false,"is_disabled":false,"rental_uris":{"android":"levelo://app?vid=8ce107d0-5101-4159-bcb4-a79c295539b3","ios":"levelo://app?vid=8ce107d0-5101-4159-bcb4-a79c295539b3"},"vehicle_type_id":"4","last_reported":1773955529,"current_range_meters":3600,"station_id":"ce4bho92rcd13ifvqh3g","pricing_plan_id":"cebpf4jnsgd1na2vs0mg"},{"bike_id":"8d3c1038-6164-4e01-81a2-5a4029fb80c6","system_id":"levelo_inurba_marseille","lat":43.28946,"lon":5.36616,"is_reserved":false,"is_disabled":false,"rental_uris":{"android":"levelo://app?vid=8d3c1038-6164-4e01-81a2-5a4029fb80c6","ios":"levelo://app?vid=8d3c1038-6164-4e01-81a2-5a4029fb80c6"},"vehicle_type_id":"4","last_reported":1773955529,"current_range_meters":3600,"station_id":"ce4bhap2rcd13ifvqek0","pricing_plan_id":"cebpf4jnsgd1na2vs0mg"},{"bike_id":"68910bfb-a210-476a-89da-8f5be2ce11af","system_id":"levelo_inurba_marseille","lat":43.30231,"lon":5.39458,"is_reserved":false,"is_disabled":false,"rental_uris":{"android":"levelo://app?vid=68910bfb-a210-476a-89da-8f5be2ce11af","ios":"levelo://app?vid=68910bfb-a210-476a-89da-8f5be2ce11af"},"vehicle_type_id":"4","last_reported":1773955529,"current_range_meters":3600,"station_id":"ce4bh0p2rcd13ifvqd70","pricing_plan_id":"cebpf4jnsgd1na2vs0mg"},{"bike_id":"e193a20b-450a-4386-b80c-7f4426970f73","system_id":"levelo_inurba_marseille","lat":43.2958,"lon":5.36748,"is_reserved":false,"is_disabled":false,"rental_uris":{"android":"levelo://app?vid=e193a20b-450a-4386-b80c-7f4426970f73","ios":"levelo://app?vid=e193a20b-450a-4386-b80c-7f4426970f73"},"vehicle_type_id":"4","last_reported":1773955529,"current_range_meters":3600,"station_id":"ce4bgph2rcd13ifvqc2g","pricing_plan_id":"cebpf4jnsgd1na2vs0mg"},{"bike_id":"1fdbd032-af28-4158-a02e-01bb107fd2a7","system_id":"levelo_inurba_marseille","lat":43.337444,"lon":5.374475,"is_reserved":false,"is_disabled":false,"rental_uris":{"android":"levelo://app?vid=1fdbd032-af28-4158-a02e-01bb107fd2a7","ios":"levelo://app?vid=1fdbd032-af28-4158-a02e-01bb107fd2a7"},"vehicle_type_id":"4","last_reported":1773955529,"current_range_meters":4000,"station_id":"","pricing_plan_id":"cebpf4jnsgd1na2vs0mg"},{"bike_id":"1c51670a-46e5-4a0c-9d9c-3c2806d077a8","system_id":"levelo_inurba_marseille","lat":43.29077,"lon":5.38101,"is_reserved":false,"is_disabled":true,"rental_uris":{"android":"levelo://app?vid=1c51670a-46e5-4a0c-9d9c-3c2806d077a8","ios":"levelo://app?vid=1c51670a-46e5-4a0c-9d9c-3c2806d077a8"},"vehicle_type_id":"4","last_reported":1773955529,"current_range_meters":4000,"station_id":"ce4bh512rcd13ifvqe2g","pricing_plan_id":"cebpf4jnsgd1na2vs0mg"},{"bike_id":"ad0cd57e-33a0-41b1-9838-4bb8121cf1c7","system_id":"levelo_inurba_marseille","lat":43.31176,"lon":5.38729,"is_reserved":false,"is_disabled":false,"rental_uris":{"android":"levelo://app?vid=ad0cd57e-33a0-41b1-9838-4bb8121cf1c7","ios":"levelo://app?vid=ad0cd57e-33a0-41b1-9838-4bb8121cf1c7"},"vehicle_type_id":"4","last_reported":1773955529,"current_range_meters":4000,"station_id":"ce4bgv12rcd13ifvqcp0","pricing_plan_id":"cebpf4jnsgd1na2vs0mg"},{"bike_id":"07f521f2-168c-437f-9ee7-8d100cdbdf6d","system_id":"levelo_inurba_marseille","lat":43.25559,"lon":5.38254,"is_reserved":false,"is_disabled":false,"rental_uris":{"android":"levelo://app?vid=07f521f2-168c-437f-9ee7-8d100cdbdf6d","ios":"levelo://app?vid=07f521f2-168c-437f-9ee7-8d100cdbdf6d"},"vehicle_type_id":"4","last_reported":1773955529,"current_range_meters":4000,"station_id":"ce4bhih2rcd13ifvqfs0","pricing_plan_id":"cebpf4jnsgd1na2vs0mg"},{"bike_id":"13ad50bf-7f2f-4ad1-a82f-209db682ff58","system_id":"levelo_inurba_marseille","lat":43.26589,"lon":5.39028,"is_reserved":false,"is_disabled":true,"rental_uris":{"android":"levelo://app?vid=13ad50bf-7f2f-4ad1-a82f-209db682ff58","ios":"levelo://app?vid=13ad50bf-7f2f-4ad1-a82f-209db682ff58"},"vehicle_type_id":"4","last_reported":1773955529,"current_range_meters":4000,"station_id":"ce4bhe12rcd13ifvqf30","pricing_plan_id":"cebpf4jnsgd1na2vs0mg"},{"bike_id":"cbc8599d-0f53-4276-b29f-85b323d36cb9","system_id":"levelo_inurba_marseille","lat":43.255,"lon":5.37659,"is_reserved":false,"is_disabled":false,"rental_uris":{"android":"levelo://app?vid=cbc8599d-0f53-4276-b29f-85b323d36cb9","ios":"levelo://app?vid=cbc8599d-0f53-4276-b29f-85b323d36cb9"},"vehicle_type_id":"4","last_reported":1773955529,"current_range_meters":4000,"station_id":"ce4bhh12rcd13ifvqff0","pricing_plan_id":"cebpf4jnsgd1na2vs0mg"},{"bike_id":"4e3195b9-dd9e-464c-a049-e82a7bc62b10","system_id":"levelo_inurba_marseille","lat":43.29872,"lon":5.3976,"is_reserved":false,"is_disabled":false,"rental_uris":{"android":"levelo://app?vid=4e3195b9-dd9e-464c-a049-e82a7bc62b10","ios":"levelo://app?vid=4e3195b9-dd9e-464c-a049-e82a7bc62b10"},"vehicle_type_id":"4","last_reported":1773955529,"current_range_meters":4000,"station_id":"ce4bh0h2rcd13ifvqd50","pricing_plan_id":"cebpf4jnsgd1na2vs0mg"},{"bike_id":"dc0f9891-d222-4b5b-a342-dcb03c4b8dfa","system_id":"levelo_inurba_marseille","lat":43.31702,"lon":5.37778,"is_reserved":false,"is_disabled":false,"rental_uris":{"android":"levelo://app?vid=dc0f9891-d222-4b5b-a342-dcb03c4b8dfa","ios":"levelo://app?vid=dc0f9891-d222-4b5b-a342-dcb03c4b8dfa"},"vehicle_type_id":"4","last_reported":1773955529,"current_range_meters":4000,"station_id":"ce4bgth2rcd13ifvqch0","pricing_plan_id":"cebpf4jnsgd1na2vs0mg"},{"bike_id":"95d31319-d36d-403e-adf6-0b51cdaa5b1b","system_id":"levelo_inurba_marseille","lat":43.31434,"lon":5.39288,"is_reserved":false,"is_disabled":true,"rental_uris":{"android":"levelo://app?vid=95d31319-d36d-403e-adf6-0b51cdaa5b1b","ios":"levelo://app?vid=95d31319-d36d-403e-adf6-0b51cdaa5b1b"},"vehicle_type_id":"4","last_reported":1773955529,"current_range_meters":4000,"station_id":"","pricing_plan_id":"cebpf4jnsgd1na2vs0mg"},{"bike_id":"b540ff6b-9338-43e2-93e5-fd42f02236aa","system_id":"levelo_inurba_marseille","lat":43.29519,"lon":5.39039,"is_reserved":false,"is_disabled":false,"rental_uris":{"android":"levelo://app?vid=b540ff6b-9338-43e2-93e5-fd42f02236aa","ios":"levelo://app?vid=b540ff6b-9338-43e2-93e5-fd42f02236aa"},"vehicle_type_id":"4","last_reported":1773955529,"current_range_meters":4000,"station_id":"ce4bh3p2rcd13ifvqdp0","pricing_plan_id":"cebpf4jnsgd1na2vs0mg"},{"bike_id":"ab8e59d7-35b3-41e1-95f9-9d78741bc131","system_id":"levelo_inurba_marseille","lat":43.21702,"lon":5.34614,"is_reserved":false,"is_disabled":false,"rental_uris":{"android":"levelo://app?vid=ab8e59d7-35b3-41e1-95f9-9d78741bc131","ios":"levelo://app?vid=ab8e59d7-35b3-41e1-95f9-9d78741bc131"},"vehicle_type_id":"4","last_reported":1773955529,"current_range_meters":4000,"station_id":"","pricing_plan_id":"cebpf4jnsgd1na2vs0mg"},{"bike_id":"54ed283d-06a3-4f4f-abe5-71364fb2e2c2","system_id":"levelo_inurba_marseille","lat":43.28578,"lon":5.39488,"is_reserved":false,"is_disabled":false,"rental_uris":{"android":"levelo://app?vid=54ed283d-06a3-4f4f-abe5-71364fb2e2c2","ios":"levelo://app?vid=54ed283d-06a3-4f4f-abe5-71364fb2e2c2"},"vehicle_type_id":"4","last_reported":1773955529,"current_range_meters":4000,"station_id":"ce4bh292rcd13ifvqdg0","pricing_plan_id":"cebpf4jnsgd1na2vs0mg"},{"bike_id":"f268f2fe-467e-40c0-b855-6883c59cb486","system_id":"levelo_inurba_marseille","lat":43.29253,"lon":5.38447,"is_reserved":false,"is_disabled":false,"rental_uris":{"android":"levelo://app?vid=f268f2fe-467e-40c0-b855-6883c59cb486","ios":"levelo://app?vid=f268f2fe-467e-40c0-b855-6883c59cb486"},"vehicle_type_id":"4","last_reported":1773955529,"current_range_meters":4000,"station_id":"ce4bh692rcd13ifvqea0","pricing_plan_id":"cebpf4jnsgd1na2vs0mg"},{"bike_id":"dd8390c9-eed9-4b5d-95df-1b40250bc11f","system_id":"levelo_inurba_marseille","lat":43.21618,"lon":5.34535,"is_reserved":false,"is_disabled":false,"rental_uris":{"android":"levelo://app?vid=dd8390c9-eed9-4b5d-95df-1b40250bc11f","ios":"levelo://app?vid=dd8390c9-eed9-4b5d-95df-1b40250bc11f"},"vehicle_type_id":"4","last_reported":1773955529,"current_range_meters":4000,"station_id":"","pricing_plan_id":"cebpf4jnsgd1na2vs0mg"},{"bike_id":"d154e39b-bb17-44a2-b44f-05209b2a5131","system_id":"levelo_inurba_marseille","lat":43.21726,"lon":5.3462,"is_reserved":false,"is_disabled":false,"rental_uris":{"android":"levelo://app?vid=d154e39b-bb17-44a2-b44f-05209b2a5131","ios":"levelo://app?vid=d154e39b-bb17-44a2-b44f-05209b2a5131"},"vehicle_type_id":"4","last_reported":1773955529,"current_range_meters":4400,"station_id":"","pricing_plan_id":"cebpf4jnsgd1na2vs0mg"},{"bike_id":"559a7de9-c451-4cf2-b8c2-8c88946ed0d2","system_id":"levelo_inurba_marseille","lat":43.28695,"lon":5.40015,"is_reserved":false,"is_disabled":false,"rental_uris":{"android":"levelo://app?vid=559a7de9-c451-4cf2-b8c2-8c88946ed0d2","ios":"levelo://app?vid=559a7de9-c451-4cf2-b8c2-8c88946ed0d2"},"vehicle_type_id":"4","last_reported":1773955529,"current_range_meters":4400,"station_id":"ce4bho92rcd13ifvqh3g","pricing_plan_id":"cebpf4jnsgd1na2vs0mg"},{"bike_id":"a244dbb4-0f4e-4feb-860e-324fc6945b7a","system_id":"levelo_inurba_marseille","lat":43.29528,"lon":5.39054,"is_reserved":false,"is_disabled":false,"rental_uris":{"android":"levelo://app?vid=a244dbb4-0f4e-4feb-860e-324fc6945b7a","ios":"levelo://app?vid=a244dbb4-0f4e-4feb-860e-324fc6945b7a"},"vehicle_type_id":"4","last_reported":1773955529,"current_range_meters":4400,"station_id":"ce4bh3p2rcd13ifvqdp0","pricing_plan_id":"cebpf4jnsgd1na2vs0mg"},{"bike_id":"69eb8448-c0e0-496f-831c-8ada77fd31e2","system_id":"levelo_inurba_marseille","lat":43.2306,"lon":5.35487,"is_reserved":false,"is_disabled":false,"rental_uris":{"android":"levelo://app?vid=69eb8448-c0e0-496f-831c-8ada77fd31e2","ios":"levelo://app?vid=69eb8448-c0e0-496f-831c-8ada77fd31e2"},"vehicle_type_id":"4","last_reported":1773955529,"current_range_meters":4400,"station_id":"cpo3342slgdg3j2ifvpg","pricing_plan_id":"cebpf4jnsgd1na2vs0mg"},{"bike_id":"90b716cb-6c56-41ff-a075-1c70e1efbada","system_id":"levelo_inurba_marseille","lat":43.29786,"lon":5.40423,"is_reserved":false,"is_disabled":false,"rental_uris":{"android":"levelo://app?vid=90b716cb-6c56-41ff-a075-1c70e1efbada","ios":"levelo://app?vid=90b716cb-6c56-41ff-a075-1c70e1efbada"},"vehicle_type_id":"4","last_reported":1773955529,"current_range_meters":4400,"station_id":"ce4bh112rcd13ifvqd90","pricing_plan_id":"cebpf4jnsgd1na2vs0mg"},{"bike_id":"326041aa-dca3-4b10-8601-80dee4dd32bb","system_id":"levelo_inurba_marseille","lat":43.29485,"lon":5.43309,"is_reserved":false,"is_disabled":false,"rental_uris":{"android":"levelo://app?vid=326041aa-dca3-4b10-8601-80dee4dd32bb","ios":"levelo://app?vid=326041aa-dca3-4b10-8601-80dee4dd32bb"},"vehicle_type_id":"4","last_reported":1773955529,"current_range_meters":4400,"station_id":"st_d3j5ugp08ojc73fj9d10","pricing_plan_id":"cebpf4jnsgd1na2vs0mg"},{"bike_id":"ebce1705-dc84-4260-a102-fbf1a62d110b","system_id":"levelo_inurba_marseille","lat":43.29037,"lon":5.35934,"is_reserved":false,"is_disabled":false,"rental_uris":{"android":"levelo://app?vid=ebce1705-dc84-4260-a102-fbf1a62d110b","ios":"levelo://app?vid=ebce1705-dc84-4260-a102-fbf1a62d110b"},"vehicle_type_id":"4","last_reported":1773955529,"current_range_meters":4400,"station_id":"ce4bha92rcd13ifvqeg0","pricing_plan_id":"cebpf4jnsgd1na2vs0mg"},{"bike_id":"0ee4ce16-829f-49ee-9a2a-4b4670dfbc6f","system_id":"levelo_inurba_marseille","lat":43.2847,"lon":5.48397,"is_reserved":false,"is_disabled":false,"rental_uris":{"android":"levelo://app?vid=0ee4ce16-829f-49ee-9a2a-4b4670dfbc6f","ios":"levelo://app?vid=0ee4ce16-829f-49ee-9a2a-4b4670dfbc6f"},"vehicle_type_id":"4","last_reported":1773955529,"current_range_meters":4400,"station_id":"st_d3svhcjqgbts73a3dn0g","pricing_plan_id":"cebpf4jnsgd1na2vs0mg"},{"bike_id":"caf5e45c-f3f2-43eb-99a6-b11ec33451e8","system_id":"levelo_inurba_marseille","lat":43.23969,"lon":5.36621,"is_reserved":false,"is_disabled":false,"rental_uris":{"android":"levelo://app?vid=caf5e45c-f3f2-43eb-99a6-b11ec33451e8","ios":"levelo://app?vid=caf5e45c-f3f2-43eb-99a6-b11ec33451e8"},"vehicle_type_id":"4","last_reported":1773955529,"current_range_meters":4400,"station_id":"ce4bhi12rcd13ifvqfp0","pricing_plan_id":"cebpf4jnsgd1na2vs0mg"},{"bike_id":"bb7bd987-7ab9-4519-a618-3506eacffb15","system_id":"levelo_inurba_marseille","lat":43.32079,"lon":5.36765,"is_reserved":false,"is_disabled":false,"rental_uris":{"android":"levelo://app?vid=bb7bd987-7ab9-4519-a618-3506eacffb15","ios":"levelo://app?vid=bb7bd987-7ab9-4519-a618-3506eacffb15"},"vehicle_type_id":"4","last_reported":1773955529,"current_range_meters":4400,"station_id":"ce4bhrh2rcd13ifvqhug","pricing_plan_id":"cebpf4jnsgd1na2vs0mg"},{"bike_id":"5ed582e6-53a0-4675-af9e-dffaea0275e7","system_id":"levelo_inurba_marseille","lat":43.28711,"lon":5.39991,"is_reserved":false,"is_disabled":false,"rental_uris":{"android":"levelo://app?vid=5ed582e6-53a0-4675-af9e-dffaea0275e7","ios":"levelo://app?vid=5ed582e6-53a0-4675-af9e-dffaea0275e7"},"vehicle_type_id":"4","last_reported":1773955529,"current_range_meters":4400,"station_id":"ce4bho92rcd13ifvqh3g","pricing_plan_id":"cebpf4jnsgd1na2vs0mg"},{"bike_id":"7e8b6cb5-137a-41fc-a670-68cf90671688","system_id":"levelo_inurba_marseille","lat":43.29247,"lon":5.38457,"is_reserved":false,"is_disabled":false,"rental_uris":{"android":"levelo://app?vid=7e8b6cb5-137a-41fc-a670-68cf90671688","ios":"levelo://app?vid=7e8b6cb5-137a-41fc-a670-68cf90671688"},"vehicle_type_id":"4","last_reported":1773955529,"current_range_meters":4400,"station_id":"ce4bh692rcd13ifvqea0","pricing_plan_id":"cebpf4jnsgd1na2vs0mg"},{"bike_id":"6f0da953-2adc-429d-bb7c-360d8a3447c9","system_id":"levelo_inurba_marseille","lat":43.27517,"lon":5.41591,"is_reserved":false,"is_disabled":false,"rental_uris":{"android":"levelo://app?vid=6f0da953-2adc-429d-bb7c-360d8a3447c9","ios":"levelo://app?vid=6f0da953-2adc-429d-bb7c-360d8a3447c9"},"vehicle_type_id":"4","last_reported":1773955529,"current_range_meters":4400,"station_id":"st_d6im8g6chgec73a5pndg","pricing_plan_id":"cebpf4jnsgd1na2vs0mg"},{"bike_id":"fe45cf9d-67ad-42eb-8e72-b0429130b6b3","system_id":"levelo_inurba_marseille","lat":43.26558,"lon":5.37288,"is_reserved":false,"is_disabled":false,"rental_uris":{"android":"levelo://app?vid=fe45cf9d-67ad-42eb-8e72-b0429130b6b3","ios":"levelo://app?vid=fe45cf9d-67ad-42eb-8e72-b0429130b6b3"},"vehicle_type_id":"4","last_reported":1773955529,"current_range_meters":4400,"station_id":"ce4bhg12rcd13ifvqf70","pricing_plan_id":"cebpf4jnsgd1na2vs0mg"},{"bike_id":"a97b9af1-9b46-43d3-90ff-04f2ef16d7e4","system_id":"levelo_inurba_marseille","lat":43.29871,"lon":5.39744,"is_reserved":false,"is_disabled":true,"rental_uris":{"android":"levelo://app?vid=a97b9af1-9b46-43d3-90ff-04f2ef16d7e4","ios":"levelo://app?vid=a97b9af1-9b46-43d3-90ff-04f2ef16d7e4"},"vehicle_type_id":"4","last_reported":1773955529,"current_range_meters":4400,"station_id":"ce4bh0h2rcd13ifvqd50","pricing_plan_id":"cebpf4jnsgd1na2vs0mg"},{"bike_id":"46d5a887-e69e-4b92-9937-af16138c60d7","system_id":"levelo_inurba_marseille","lat":43.25586,"lon":5.3821,"is_reserved":false,"is_disabled":false,"rental_uris":{"android":"levelo://app?vid=46d5a887-e69e-4b92-9937-af16138c60d7","ios":"levelo://app?vid=46d5a887-e69e-4b92-9937-af16138c60d7"},"vehicle_type_id":"4","last_reported":1773955529,"current_range_meters":4400,"station_id":"ce4bhih2rcd13ifvqfs0","pricing_plan_id":"cebpf4jnsgd1na2vs0mg"},{"bike_id":"704f2b6d-316c-460d-b4cd-c967141f385d","system_id":"levelo_inurba_marseille","lat":43.28402,"lon":5.37532,"is_reserved":false,"is_disabled":false,"rental_uris":{"android":"levelo://app?vid=704f2b6d-316c-460d-b4cd-c967141f385d","ios":"levelo://app?vid=704f2b6d-316c-460d-b4cd-c967141f385d"},"vehicle_type_id":"4","last_reported":1773955529,"current_range_meters":4400,"station_id":"ce4bh412rcd13ifvqds0","pricing_plan_id":"cebpf4jnsgd1na2vs0mg"},{"bike_id":"669d6a91-c2c1-4c55-b934-265e6b7bebd6","system_id":"levelo_inurba_marseille","lat":43.29291,"lon":5.3842,"is_reserved":false,"is_disabled":false,"rental_uris":{"android":"levelo://app?vid=669d6a91-c2c1-4c55-b934-265e6b7bebd6","ios":"levelo://app?vid=669d6a91-c2c1-4c55-b934-265e6b7bebd6"},"vehicle_type_id":"4","last_reported":1773955529,"current_range_meters":4400,"station_id":"ce4bh692rcd13ifvqea0","pricing_plan_id":"cebpf4jnsgd1na2vs0mg"},{"bike_id":"73e44213-1cd8-4593-a09e-a9c4a914a5d2","system_id":"levelo_inurba_marseille","lat":43.28463,"lon":5.48393,"is_reserved":false,"is_disabled":false,"rental_uris":{"android":"levelo://app?vid=73e44213-1cd8-4593-a09e-a9c4a914a5d2","ios":"levelo://app?vid=73e44213-1cd8-4593-a09e-a9c4a914a5d2"},"vehicle_type_id":"4","last_reported":1773955529,"current_range_meters":4400,"station_id":"","pricing_plan_id":"cebpf4jnsgd1na2vs0mg"},{"bike_id":"d878c947-886b-40ec-b53c-3cbd9217abd9","system_id":"levelo_inurba_marseille","lat":43.28337,"lon":5.38647,"is_reserved":false,"is_disabled":false,"rental_uris":{"android":"levelo://app?vid=d878c947-886b-40ec-b53c-3cbd9217abd9","ios":"levelo://app?vid=d878c947-886b-40ec-b53c-3cbd9217abd9"},"vehicle_type_id":"4","last_reported":1773955529,"current_range_meters":4400,"station_id":"ce4bh492rcd13ifvqdvg","pricing_plan_id":"cebpf4jnsgd1na2vs0mg"},{"bike_id":"4b107ca9-8b2c-4b1b-bced-8290b5a319c0","system_id":"levelo_inurba_marseille","lat":43.289392,"lon":5.366454,"is_reserved":false,"is_disabled":false,"rental_uris":{"android":"levelo://app?vid=4b107ca9-8b2c-4b1b-bced-8290b5a319c0","ios":"levelo://app?vid=4b107ca9-8b2c-4b1b-bced-8290b5a319c0"},"vehicle_type_id":"4","last_reported":1773955529,"current_range_meters":4800,"station_id":"ce4bhap2rcd13ifvqek0","pricing_plan_id":"cebpf4jnsgd1na2vs0mg"},{"bike_id":"2f0354fc-31aa-4398-9c3e-f0f50b7b2184","system_id":"levelo_inurba_marseille","lat":43.24144,"lon":5.39721,"is_reserved":false,"is_disabled":false,"rental_uris":{"android":"levelo://app?vid=2f0354fc-31aa-4398-9c3e-f0f50b7b2184","ios":"levelo://app?vid=2f0354fc-31aa-4398-9c3e-f0f50b7b2184"},"vehicle_type_id":"4","last_reported":1773955529,"current_range_meters":4800,"station_id":"ce4bhn12rcd13ifvqgpg","pricing_plan_id":"cebpf4jnsgd1na2vs0mg"},{"bike_id":"719e9861-af82-4022-a2ea-bd7d6f00ff5f","system_id":"levelo_inurba_marseille","lat":43.28751,"lon":5.42514,"is_reserved":false,"is_disabled":true,"rental_uris":{"android":"levelo://app?vid=719e9861-af82-4022-a2ea-bd7d6f00ff5f","ios":"levelo://app?vid=719e9861-af82-4022-a2ea-bd7d6f00ff5f"},"vehicle_type_id":"4","last_reported":1773955529,"current_range_meters":4800,"station_id":"","pricing_plan_id":"cebpf4jnsgd1na2vs0mg"},{"bike_id":"4962d21e-cde3-4527-bd5b-917c2eb4bb67","system_id":"levelo_inurba_marseille","lat":43.2559,"lon":5.38242,"is_reserved":false,"is_disabled":false,"rental_uris":{"android":"levelo://app?vid=4962d21e-cde3-4527-bd5b-917c2eb4bb67","ios":"levelo://app?vid=4962d21e-cde3-4527-bd5b-917c2eb4bb67"},"vehicle_type_id":"4","last_reported":1773955529,"current_range_meters":4800,"station_id":"ce4bhih2rcd13ifvqfs0","pricing_plan_id":"cebpf4jnsgd1na2vs0mg"},{"bike_id":"a424990f-3052-48e0-895c-8bd9a527cdb2","system_id":"levelo_inurba_marseille","lat":43.27957,"lon":5.41043,"is_reserved":false,"is_disabled":false,"rental_uris":{"android":"levelo://app?vid=a424990f-3052-48e0-895c-8bd9a527cdb2","ios":"levelo://app?vid=a424990f-3052-48e0-895c-8bd9a527cdb2"},"vehicle_type_id":"4","last_reported":1773955529,"current_range_meters":4800,"station_id":"ce4bhnp2rcd13ifvqh0g","pricing_plan_id":"cebpf4jnsgd1na2vs0mg"},{"bike_id":"cad0d15e-1d6e-4ca0-91e5-9eddeaa895bb","system_id":"levelo_inurba_marseille","lat":43.29527,"lon":5.38544,"is_reserved":false,"is_disabled":false,"rental_uris":{"android":"levelo://app?vid=cad0d15e-1d6e-4ca0-91e5-9eddeaa895bb","ios":"levelo://app?vid=cad0d15e-1d6e-4ca0-91e5-9eddeaa895bb"},"vehicle_type_id":"4","last_reported":1773955529,"current_range_meters":4800,"station_id":"ce4bgih2rcd13ifvqba0","pricing_plan_id":"cebpf4jnsgd1na2vs0mg"},{"bike_id":"3fd8ef50-88b4-42ca-93ad-316de6f9e9bc","system_id":"levelo_inurba_marseille","lat":43.28147,"lon":5.42643,"is_reserved":false,"is_disabled":false,"rental_uris":{"android":"levelo://app?vid=3fd8ef50-88b4-42ca-93ad-316de6f9e9bc","ios":"levelo://app?vid=3fd8ef50-88b4-42ca-93ad-316de6f9e9bc"},"vehicle_type_id":"4","last_reported":1773955529,"current_range_meters":4800,"station_id":"ce4bhnh2rcd13ifvqgug","pricing_plan_id":"cebpf4jnsgd1na2vs0mg"},{"bike_id":"22ba403d-ff98-4cfe-a033-3be640b214e2","system_id":"levelo_inurba_marseille","lat":43.25328,"lon":5.4216,"is_reserved":false,"is_disabled":false,"rental_uris":{"android":"levelo://app?vid=22ba403d-ff98-4cfe-a033-3be640b214e2","ios":"levelo://app?vid=22ba403d-ff98-4cfe-a033-3be640b214e2"},"vehicle_type_id":"4","last_reported":1773955529,"current_range_meters":4800,"station_id":"st_d2m65c5bi1j21697t3ng","pricing_plan_id":"cebpf4jnsgd1na2vs0mg"},{"bike_id":"28025302-46d2-4169-9ce9-8e064c7a81fd","system_id":"levelo_inurba_marseille","lat":43.26424,"lon":5.41053,"is_reserved":false,"is_disabled":false,"rental_uris":{"android":"levelo://app?vid=28025302-46d2-4169-9ce9-8e064c7a81fd","ios":"levelo://app?vid=28025302-46d2-4169-9ce9-8e064c7a81fd"},"vehicle_type_id":"4","last_reported":1773955529,"current_range_meters":4800,"station_id":"","pricing_plan_id":"cebpf4jnsgd1na2vs0mg"},{"bike_id":"ee9d83ea-4edf-4b1f-8714-2525a5649daf","system_id":"levelo_inurba_marseille","lat":43.24479,"lon":5.42537,"is_reserved":false,"is_disabled":false,"rental_uris":{"android":"levelo://app?vid=ee9d83ea-4edf-4b1f-8714-2525a5649daf","ios":"levelo://app?vid=ee9d83ea-4edf-4b1f-8714-2525a5649daf"},"vehicle_type_id":"4","last_reported":1773955529,"current_range_meters":4800,"station_id":"st_d4a3vfp97mjs738cd8kg","pricing_plan_id":"cebpf4jnsgd1na2vs0mg"},{"bike_id":"ec154815-4332-4ea6-b0be-1525e5a6b5ed","system_id":"levelo_inurba_marseille","lat":43.30878,"lon":5.3963,"is_reserved":false,"is_disabled":false,"rental_uris":{"android":"levelo://app?vid=ec154815-4332-4ea6-b0be-1525e5a6b5ed","ios":"levelo://app?vid=ec154815-4332-4ea6-b0be-1525e5a6b5ed"},"vehicle_type_id":"4","last_reported":1773955529,"current_range_meters":4800,"station_id":"ce4bh012rcd13ifvqcv0","pricing_plan_id":"cebpf4jnsgd1na2vs0mg"},{"bike_id":"b5d97f15-5539-4d9c-bc7f-17cc623f761b","system_id":"levelo_inurba_marseille","lat":43.29984,"lon":5.37175,"is_reserved":false,"is_disabled":false,"rental_uris":{"android":"levelo://app?vid=b5d97f15-5539-4d9c-bc7f-17cc623f761b","ios":"levelo://app?vid=b5d97f15-5539-4d9c-bc7f-17cc623f761b"},"vehicle_type_id":"4","last_reported":1773955529,"current_range_meters":4800,"station_id":"ce4bgr92rcd13ifvqc7g","pricing_plan_id":"cebpf4jnsgd1na2vs0mg"},{"bike_id":"65518791-09ea-49fa-8ba6-d86c214c69fb","system_id":"levelo_inurba_marseille","lat":43.29231,"lon":5.38442,"is_reserved":false,"is_disabled":false,"rental_uris":{"android":"levelo://app?vid=65518791-09ea-49fa-8ba6-d86c214c69fb","ios":"levelo://app?vid=65518791-09ea-49fa-8ba6-d86c214c69fb"},"vehicle_type_id":"4","last_reported":1773955529,"current_range_meters":4800,"station_id":"ce4bh692rcd13ifvqea0","pricing_plan_id":"cebpf4jnsgd1na2vs0mg"},{"bike_id":"5f744b7f-d9ac-4940-9d12-c0e19756661f","system_id":"levelo_inurba_marseille","lat":43.29416,"lon":5.41335,"is_reserved":false,"is_disabled":false,"rental_uris":{"android":"levelo://app?vid=5f744b7f-d9ac-4940-9d12-c0e19756661f","ios":"levelo://app?vid=5f744b7f-d9ac-4940-9d12-c0e19756661f"},"vehicle_type_id":"4","last_reported":1773955529,"current_range_meters":4800,"station_id":"","pricing_plan_id":"cebpf4jnsgd1na2vs0mg"},{"bike_id":"61abe7b6-a1d5-4fb1-8e97-6efff73823a7","system_id":"levelo_inurba_marseille","lat":43.23783,"lon":5.36647,"is_reserved":false,"is_disabled":true,"rental_uris":{"android":"levelo://app?vid=61abe7b6-a1d5-4fb1-8e97-6efff73823a7","ios":"levelo://app?vid=61abe7b6-a1d5-4fb1-8e97-6efff73823a7"},"vehicle_type_id":"4","last_reported":1773955529,"current_range_meters":5600,"station_id":"st_d3nk18o9ro0c73en2l3g","pricing_plan_id":"cebpf4jnsgd1na2vs0mg"},{"bike_id":"e0666e0d-2b87-421d-a654-8a669cd5994c","system_id":"levelo_inurba_marseille","lat":43.28875,"lon":5.39289,"is_reserved":false,"is_disabled":false,"rental_uris":{"android":"levelo://app?vid=e0666e0d-2b87-421d-a654-8a669cd5994c","ios":"levelo://app?vid=e0666e0d-2b87-421d-a654-8a669cd5994c"},"vehicle_type_id":"4","last_reported":1773955529,"current_range_meters":5600,"station_id":"ce4bh2p2rcd13ifvqdi0","pricing_plan_id":"cebpf4jnsgd1na2vs0mg"},{"bike_id":"f8002e32-7d40-48f8-99b3-a631b985eba5","system_id":"levelo_inurba_marseille","lat":43.337566,"lon":5.374557,"is_reserved":false,"is_disabled":false,"rental_uris":{"android":"levelo://app?vid=f8002e32-7d40-48f8-99b3-a631b985eba5","ios":"levelo://app?vid=f8002e32-7d40-48f8-99b3-a631b985eba5"},"vehicle_type_id":"4","last_reported":1773955529,"current_range_meters":5600,"station_id":"","pricing_plan_id":"cebpf4jnsgd1na2vs0mg"},{"bike_id":"25a235b7-3b5d-4bbd-9b7e-7bd77524d1e3","system_id":"levelo_inurba_marseille","lat":43.24164,"lon":5.39709,"is_reserved":false,"is_disabled":false,"rental_uris":{"android":"levelo://app?vid=25a235b7-3b5d-4bbd-9b7e-7bd77524d1e3","ios":"levelo://app?vid=25a235b7-3b5d-4bbd-9b7e-7bd77524d1e3"},"vehicle_type_id":"4","last_reported":1773955529,"current_range_meters":5600,"station_id":"ce4bhn12rcd13ifvqgpg","pricing_plan_id":"cebpf4jnsgd1na2vs0mg"},{"bike_id":"8c29270d-5d11-446e-a3f0-f5c56ae9c816","system_id":"levelo_inurba_marseille","lat":43.27583,"lon":5.43293,"is_reserved":false,"is_disabled":false,"rental_uris":{"android":"levelo://app?vid=8c29270d-5d11-446e-a3f0-f5c56ae9c816","ios":"levelo://app?vid=8c29270d-5d11-446e-a3f0-f5c56ae9c816"},"vehicle_type_id":"4","last_reported":1773955529,"current_range_meters":5600,"station_id":"","pricing_plan_id":"cebpf4jnsgd1na2vs0mg"},{"bike_id":"3ead39a4-807a-44fa-84fd-662cbd412bef","system_id":"levelo_inurba_marseille","lat":43.32109,"lon":5.3678,"is_reserved":false,"is_disabled":false,"rental_uris":{"android":"levelo://app?vid=3ead39a4-807a-44fa-84fd-662cbd412bef","ios":"levelo://app?vid=3ead39a4-807a-44fa-84fd-662cbd412bef"},"vehicle_type_id":"4","last_reported":1773955529,"current_range_meters":5600,"station_id":"ce4bhrh2rcd13ifvqhug","pricing_plan_id":"cebpf4jnsgd1na2vs0mg"},{"bike_id":"80b7eb86-d44d-4945-8f3c-c36c8aeeddf5","system_id":"levelo_inurba_marseille","lat":43.28203,"lon":5.39059,"is_reserved":false,"is_disabled":false,"rental_uris":{"android":"levelo://app?vid=80b7eb86-d44d-4945-8f3c-c36c8aeeddf5","ios":"levelo://app?vid=80b7eb86-d44d-4945-8f3c-c36c8aeeddf5"},"vehicle_type_id":"4","last_reported":1773955529,"current_range_meters":5600,"station_id":"ce4bhn92rcd13ifvqgsg","pricing_plan_id":"cebpf4jnsgd1na2vs0mg"},{"bike_id":"464636e8-f853-45c8-bb59-0f31531c40fe","system_id":"levelo_inurba_marseille","lat":43.29243,"lon":5.40926,"is_reserved":false,"is_disabled":false,"rental_uris":{"android":"levelo://app?vid=464636e8-f853-45c8-bb59-0f31531c40fe","ios":"levelo://app?vid=464636e8-f853-45c8-bb59-0f31531c40fe"},"vehicle_type_id":"4","last_reported":1773955529,"current_range_meters":5600,"station_id":"ce4bh192rcd13ifvqdc0","pricing_plan_id":"cebpf4jnsgd1na2vs0mg"},{"bike_id":"db70575a-a163-4a5a-9f82-ee3ceb33c40e","system_id":"levelo_inurba_marseille","lat":43.29902,"lon":5.37478,"is_reserved":false,"is_disabled":false,"rental_uris":{"android":"levelo://app?vid=db70575a-a163-4a5a-9f82-ee3ceb33c40e","ios":"levelo://app?vid=db70575a-a163-4a5a-9f82-ee3ceb33c40e"},"vehicle_type_id":"4","last_reported":1773955529,"current_range_meters":5600,"station_id":"ce4bgjh2rcd13ifvqbg0","pricing_plan_id":"cebpf4jnsgd1na2vs0mg"},{"bike_id":"1b5b0898-d892-4ddf-93cf-27cce0d0c2e7","system_id":"levelo_inurba_marseille","lat":43.24054,"lon":5.37763,"is_reserved":false,"is_disabled":false,"rental_uris":{"android":"levelo://app?vid=1b5b0898-d892-4ddf-93cf-27cce0d0c2e7","ios":"levelo://app?vid=1b5b0898-d892-4ddf-93cf-27cce0d0c2e7"},"vehicle_type_id":"4","last_reported":1773955529,"current_range_meters":5600,"station_id":"ce4bhnp2rcd13ifvqgvg","pricing_plan_id":"cebpf4jnsgd1na2vs0mg"},{"bike_id":"24dc1ce5-2db6-421b-869a-69d6f082b300","system_id":"levelo_inurba_marseille","lat":43.29773,"lon":5.3623,"is_reserved":false,"is_disabled":false,"rental_uris":{"android":"levelo://app?vid=24dc1ce5-2db6-421b-869a-69d6f082b300","ios":"levelo://app?vid=24dc1ce5-2db6-421b-869a-69d6f082b300"},"vehicle_type_id":"4","last_reported":1773955529,"current_range_meters":6000,"station_id":"","pricing_plan_id":"cebpf4jnsgd1na2vs0mg"},{"bike_id":"f7e79517-161a-451a-8a95-bb710b1b4d21","system_id":"levelo_inurba_marseille","lat":43.29841,"lon":5.37904,"is_reserved":false,"is_disabled":false,"rental_uris":{"android":"levelo://app?vid=f7e79517-161a-451a-8a95-bb710b1b4d21","ios":"levelo://app?vid=f7e79517-161a-451a-8a95-bb710b1b4d21"},"vehicle_type_id":"4","last_reported":1773955529,"current_range_meters":6000,"station_id":"","pricing_plan_id":"cebpf4jnsgd1na2vs0mg"},{"bike_id":"044e1d9f-3178-4271-93a6-7fe29242906d","system_id":"levelo_inurba_marseille","lat":43.31699,"lon":5.43699,"is_reserved":false,"is_disabled":false,"rental_uris":{"android":"levelo://app?vid=044e1d9f-3178-4271-93a6-7fe29242906d","ios":"levelo://app?vid=044e1d9f-3178-4271-93a6-7fe29242906d"},"vehicle_type_id":"4","last_reported":1773955529,"current_range_meters":6000,"station_id":"ce4bhp92rcd13ifvqhcg","pricing_plan_id":"cebpf4jnsgd1na2vs0mg"},{"bike_id":"e71aee5c-105a-4327-9048-67909c29ab24","system_id":"levelo_inurba_marseille","lat":43.28922,"lon":5.38391,"is_reserved":false,"is_disabled":false,"rental_uris":{"android":"levelo://app?vid=e71aee5c-105a-4327-9048-67909c29ab24","ios":"levelo://app?vid=e71aee5c-105a-4327-9048-67909c29ab24"},"vehicle_type_id":"4","last_reported":1773955529,"current_range_meters":6000,"station_id":"ce4bh612rcd13ifvqe6g","pricing_plan_id":"cebpf4jnsgd1na2vs0mg"},{"bike_id":"d587c369-7b5a-4f48-88cf-962803ec71ba","system_id":"levelo_inurba_marseille","lat":43.24814,"lon":5.37466,"is_reserved":false,"is_disabled":false,"rental_uris":{"android":"levelo://app?vid=d587c369-7b5a-4f48-88cf-962803ec71ba","ios":"levelo://app?vid=d587c369-7b5a-4f48-88cf-962803ec71ba"},"vehicle_type_id":"4","last_reported":1773955529,"current_range_meters":6000,"station_id":"ce4bhgh2rcd13ifvqfb0","pricing_plan_id":"cebpf4jnsgd1na2vs0mg"},{"bike_id":"6758c5b1-42aa-479e-9750-b0e19de057e9","system_id":"levelo_inurba_marseille","lat":43.29246,"lon":5.38453,"is_reserved":false,"is_disabled":false,"rental_uris":{"android":"levelo://app?vid=6758c5b1-42aa-479e-9750-b0e19de057e9","ios":"levelo://app?vid=6758c5b1-42aa-479e-9750-b0e19de057e9"},"vehicle_type_id":"4","last_reported":1773955529,"current_range_meters":6000,"station_id":"ce4bh692rcd13ifvqea0","pricing_plan_id":"cebpf4jnsgd1na2vs0mg"},{"bike_id":"a7708d63-d82f-4c4d-b348-e4a739be45ee","system_id":"levelo_inurba_marseille","lat":43.28361,"lon":5.37554,"is_reserved":false,"is_disabled":false,"rental_uris":{"android":"levelo://app?vid=a7708d63-d82f-4c4d-b348-e4a739be45ee","ios":"levelo://app?vid=a7708d63-d82f-4c4d-b348-e4a739be45ee"},"vehicle_type_id":"4","last_reported":1773955529,"current_range_meters":6000,"station_id":"","pricing_plan_id":"cebpf4jnsgd1na2vs0mg"},{"bike_id":"69dc0199-53d1-4a6e-ade3-580f2c888e49","system_id":"levelo_inurba_marseille","lat":43.24599,"lon":5.38956,"is_reserved":false,"is_disabled":false,"rental_uris":{"android":"levelo://app?vid=69dc0199-53d1-4a6e-ade3-580f2c888e49","ios":"levelo://app?vid=69dc0199-53d1-4a6e-ade3-580f2c888e49"},"vehicle_type_id":"4","last_reported":1773955529,"current_range_meters":6000,"station_id":"","pricing_plan_id":"cebpf4jnsgd1na2vs0mg"},{"bike_id":"3cdb9282-92ea-46a0-a841-f2dd988ecc68","system_id":"levelo_inurba_marseille","lat":43.22926,"lon":5.35381,"is_reserved":false,"is_disabled":false,"rental_uris":{"android":"levelo://app?vid=3cdb9282-92ea-46a0-a841-f2dd988ecc68","ios":"levelo://app?vid=3cdb9282-92ea-46a0-a841-f2dd988ecc68"},"vehicle_type_id":"4","last_reported":1773955529,"current_range_meters":6000,"station_id":"cpo3532slgdg3j2ikp40","pricing_plan_id":"cebpf4jnsgd1na2vs0mg"},{"bike_id":"730ffb5d-408c-403f-ac8c-aeaf0b8ab37d","system_id":"levelo_inurba_marseille","lat":43.28111,"lon":5.37855,"is_reserved":false,"is_disabled":false,"rental_uris":{"android":"levelo://app?vid=730ffb5d-408c-403f-ac8c-aeaf0b8ab37d","ios":"levelo://app?vid=730ffb5d-408c-403f-ac8c-aeaf0b8ab37d"},"vehicle_type_id":"4","last_reported":1773955529,"current_range_meters":6400,"station_id":"ce4bha12rcd13ifvqee0","pricing_plan_id":"cebpf4jnsgd1na2vs0mg"},{"bike_id":"864f588c-6c9a-47f2-bf8a-559a5ddb02ea","system_id":"levelo_inurba_marseille","lat":43.32114,"lon":5.36833,"is_reserved":false,"is_disabled":false,"rental_uris":{"android":"levelo://app?vid=864f588c-6c9a-47f2-bf8a-559a5ddb02ea","ios":"levelo://app?vid=864f588c-6c9a-47f2-bf8a-559a5ddb02ea"},"vehicle_type_id":"4","last_reported":1773955529,"current_range_meters":6400,"station_id":"","pricing_plan_id":"cebpf4jnsgd1na2vs0mg"},{"bike_id":"1d4a4ce7-5b86-46fd-a928-bda26bf05304","system_id":"levelo_inurba_marseille","lat":43.25826,"lon":5.39439,"is_reserved":false,"is_disabled":false,"rental_uris":{"android":"levelo://app?vid=1d4a4ce7-5b86-46fd-a928-bda26bf05304","ios":"levelo://app?vid=1d4a4ce7-5b86-46fd-a928-bda26bf05304"},"vehicle_type_id":"4","last_reported":1773955529,"current_range_meters":6400,"station_id":"ce4bhip2rcd13ifvqft0","pricing_plan_id":"cebpf4jnsgd1na2vs0mg"},{"bike_id":"aa912512-782f-43ea-879d-41a967be0aa2","system_id":"levelo_inurba_marseille","lat":43.29519,"lon":5.38532,"is_reserved":false,"is_disabled":false,"rental_uris":{"android":"levelo://app?vid=aa912512-782f-43ea-879d-41a967be0aa2","ios":"levelo://app?vid=aa912512-782f-43ea-879d-41a967be0aa2"},"vehicle_type_id":"4","last_reported":1773955529,"current_range_meters":6400,"station_id":"ce4bgih2rcd13ifvqba0","pricing_plan_id":"cebpf4jnsgd1na2vs0mg"},{"bike_id":"d03a2022-6922-4b85-aada-659333694e5e","system_id":"levelo_inurba_marseille","lat":43.31181,"lon":5.38725,"is_reserved":false,"is_disabled":true,"rental_uris":{"android":"levelo://app?vid=d03a2022-6922-4b85-aada-659333694e5e","ios":"levelo://app?vid=d03a2022-6922-4b85-aada-659333694e5e"},"vehicle_type_id":"4","last_reported":1773955529,"current_range_meters":6400,"station_id":"ce4bgv12rcd13ifvqcp0","pricing_plan_id":"cebpf4jnsgd1na2vs0mg"},{"bike_id":"54ecb19e-3411-447d-b69f-81eb3f2adf32","system_id":"levelo_inurba_marseille","lat":43.2873,"lon":5.36096,"is_reserved":false,"is_disabled":false,"rental_uris":{"android":"levelo://app?vid=54ecb19e-3411-447d-b69f-81eb3f2adf32","ios":"levelo://app?vid=54ecb19e-3411-447d-b69f-81eb3f2adf32"},"vehicle_type_id":"4","last_reported":1773955529,"current_range_meters":6400,"station_id":"cki0cbj6b192h4jlfktg","pricing_plan_id":"cebpf4jnsgd1na2vs0mg"},{"bike_id":"cefc32aa-143a-4e19-a972-4a13bf6f56d5","system_id":"levelo_inurba_marseille","lat":43.29327,"lon":5.38369,"is_reserved":false,"is_disabled":false,"rental_uris":{"android":"levelo://app?vid=cefc32aa-143a-4e19-a972-4a13bf6f56d5","ios":"levelo://app?vid=cefc32aa-143a-4e19-a972-4a13bf6f56d5"},"vehicle_type_id":"4","last_reported":1773955529,"current_range_meters":6400,"station_id":"","pricing_plan_id":"cebpf4jnsgd1na2vs0mg"},{"bike_id":"17a139df-17a2-4cb5-8cdc-aa40d036a00a","system_id":"levelo_inurba_marseille","lat":43.23791,"lon":5.36633,"is_reserved":false,"is_disabled":false,"rental_uris":{"android":"levelo://app?vid=17a139df-17a2-4cb5-8cdc-aa40d036a00a","ios":"levelo://app?vid=17a139df-17a2-4cb5-8cdc-aa40d036a00a"},"vehicle_type_id":"4","last_reported":1773955529,"current_range_meters":6400,"station_id":"st_d3nk18o9ro0c73en2l3g","pricing_plan_id":"cebpf4jnsgd1na2vs0mg"},{"bike_id":"4d4af19b-a48e-473a-955c-195ad849cf88","system_id":"levelo_inurba_marseille","lat":43.307942,"lon":5.376476,"is_reserved":false,"is_disabled":false,"rental_uris":{"android":"levelo://app?vid=4d4af19b-a48e-473a-955c-195ad849cf88","ios":"levelo://app?vid=4d4af19b-a48e-473a-955c-195ad849cf88"},"vehicle_type_id":"4","last_reported":1773955529,"current_range_meters":6400,"station_id":"ce4bgv92rcd13ifvqcq0","pricing_plan_id":"cebpf4jnsgd1na2vs0mg"},{"bike_id":"1862d476-389b-42f3-8c55-6e4a2148942a","system_id":"levelo_inurba_marseille","lat":43.31171,"lon":5.38715,"is_reserved":false,"is_disabled":false,"rental_uris":{"android":"levelo://app?vid=1862d476-389b-42f3-8c55-6e4a2148942a","ios":"levelo://app?vid=1862d476-389b-42f3-8c55-6e4a2148942a"},"vehicle_type_id":"4","last_reported":1773955529,"current_range_meters":6400,"station_id":"ce4bgv12rcd13ifvqcp0","pricing_plan_id":"cebpf4jnsgd1na2vs0mg"},{"bike_id":"6cda15e7-fe2d-4eca-9a9a-008e31fbee7c","system_id":"levelo_inurba_marseille","lat":43.24664,"lon":5.38164,"is_reserved":false,"is_disabled":true,"rental_uris":{"android":"levelo://app?vid=6cda15e7-fe2d-4eca-9a9a-008e31fbee7c","ios":"levelo://app?vid=6cda15e7-fe2d-4eca-9a9a-008e31fbee7c"},"vehicle_type_id":"4","last_reported":1773955529,"current_range_meters":6400,"station_id":"ce4bhih2rcd13ifvqfr0","pricing_plan_id":"cebpf4jnsgd1na2vs0mg"},{"bike_id":"1a35434d-c9e2-448e-ab11-b763a506a6ff","system_id":"levelo_inurba_marseille","lat":43.29928,"lon":5.38091,"is_reserved":false,"is_disabled":true,"rental_uris":{"android":"levelo://app?vid=1a35434d-c9e2-448e-ab11-b763a506a6ff","ios":"levelo://app?vid=1a35434d-c9e2-448e-ab11-b763a506a6ff"},"vehicle_type_id":"4","last_reported":1773955529,"current_range_meters":6400,"station_id":"","pricing_plan_id":"cebpf4jnsgd1na2vs0mg"},{"bike_id":"fe05c8a8-d4a3-48d4-8f32-905762f11cf6","system_id":"levelo_inurba_marseille","lat":43.27328,"lon":5.39041,"is_reserved":false,"is_disabled":false,"rental_uris":{"android":"levelo://app?vid=fe05c8a8-d4a3-48d4-8f32-905762f11cf6","ios":"levelo://app?vid=fe05c8a8-d4a3-48d4-8f32-905762f11cf6"},"vehicle_type_id":"4","last_reported":1773955529,"current_range_meters":6400,"station_id":"ce4bhgp2rcd13ifvqfe0","pricing_plan_id":"cebpf4jnsgd1na2vs0mg"},{"bike_id":"4a60aa53-47a8-4af9-8332-c7495b0c46f4","system_id":"levelo_inurba_marseille","lat":43.31153,"lon":5.38722,"is_reserved":false,"is_disabled":false,"rental_uris":{"android":"levelo://app?vid=4a60aa53-47a8-4af9-8332-c7495b0c46f4","ios":"levelo://app?vid=4a60aa53-47a8-4af9-8332-c7495b0c46f4"},"vehicle_type_id":"4","last_reported":1773955529,"current_range_meters":6400,"station_id":"ce4bgv12rcd13ifvqcp0","pricing_plan_id":"cebpf4jnsgd1na2vs0mg"},{"bike_id":"196eedd3-e09e-4a48-8c00-4d99b4cbd951","system_id":"levelo_inurba_marseille","lat":43.27793,"lon":5.40697,"is_reserved":false,"is_disabled":false,"rental_uris":{"android":"levelo://app?vid=196eedd3-e09e-4a48-8c00-4d99b4cbd951","ios":"levelo://app?vid=196eedd3-e09e-4a48-8c00-4d99b4cbd951"},"vehicle_type_id":"4","last_reported":1773955529,"current_range_meters":6400,"station_id":"ce4bhnh2rcd13ifvqgtg","pricing_plan_id":"cebpf4jnsgd1na2vs0mg"},{"bike_id":"cf21a704-d1d6-45ac-b508-b7d48f023c9f","system_id":"levelo_inurba_marseille","lat":43.32107,"lon":5.36765,"is_reserved":false,"is_disabled":false,"rental_uris":{"android":"levelo://app?vid=cf21a704-d1d6-45ac-b508-b7d48f023c9f","ios":"levelo://app?vid=cf21a704-d1d6-45ac-b508-b7d48f023c9f"},"vehicle_type_id":"4","last_reported":1773955529,"current_range_meters":6800,"station_id":"ce4bhrh2rcd13ifvqhug","pricing_plan_id":"cebpf4jnsgd1na2vs0mg"},{"bike_id":"a9b7ca13-2660-4df5-ac7e-17daa08bbb3e","system_id":"levelo_inurba_marseille","lat":43.28948,"lon":5.38419,"is_reserved":false,"is_disabled":false,"rental_uris":{"android":"levelo://app?vid=a9b7ca13-2660-4df5-ac7e-17daa08bbb3e","ios":"levelo://app?vid=a9b7ca13-2660-4df5-ac7e-17daa08bbb3e"},"vehicle_type_id":"4","last_reported":1773955529,"current_range_meters":6800,"station_id":"ce4bh612rcd13ifvqe6g","pricing_plan_id":"cebpf4jnsgd1na2vs0mg"},{"bike_id":"6018d565-5c8a-4bab-ba5d-0061fbbaec08","system_id":"levelo_inurba_marseille","lat":43.22939,"lon":5.35385,"is_reserved":false,"is_disabled":false,"rental_uris":{"android":"levelo://app?vid=6018d565-5c8a-4bab-ba5d-0061fbbaec08","ios":"levelo://app?vid=6018d565-5c8a-4bab-ba5d-0061fbbaec08"},"vehicle_type_id":"4","last_reported":1773955529,"current_range_meters":6800,"station_id":"cpo3532slgdg3j2ikp40","pricing_plan_id":"cebpf4jnsgd1na2vs0mg"},{"bike_id":"dd2f7881-755c-4593-bb3a-7ba359f1b823","system_id":"levelo_inurba_marseille","lat":43.29097,"lon":5.38168,"is_reserved":false,"is_disabled":true,"rental_uris":{"android":"levelo://app?vid=dd2f7881-755c-4593-bb3a-7ba359f1b823","ios":"levelo://app?vid=dd2f7881-755c-4593-bb3a-7ba359f1b823"},"vehicle_type_id":"4","last_reported":1773955529,"current_range_meters":6800,"station_id":"ce4bh512rcd13ifvqe2g","pricing_plan_id":"cebpf4jnsgd1na2vs0mg"},{"bike_id":"d5f7f0bf-c4f5-45e1-bf7d-f4959ca7505e","system_id":"levelo_inurba_marseille","lat":43.24398,"lon":5.37074,"is_reserved":false,"is_disabled":false,"rental_uris":{"android":"levelo://app?vid=d5f7f0bf-c4f5-45e1-bf7d-f4959ca7505e","ios":"levelo://app?vid=d5f7f0bf-c4f5-45e1-bf7d-f4959ca7505e"},"vehicle_type_id":"4","last_reported":1773955529,"current_range_meters":6800,"station_id":"ce4bhhh2rcd13ifvqfk0","pricing_plan_id":"cebpf4jnsgd1na2vs0mg"},{"bike_id":"3dcfba69-0432-4dc6-9064-f4c0dafe939f","system_id":"levelo_inurba_marseille","lat":43.2437,"lon":5.37057,"is_reserved":false,"is_disabled":false,"rental_uris":{"android":"levelo://app?vid=3dcfba69-0432-4dc6-9064-f4c0dafe939f","ios":"levelo://app?vid=3dcfba69-0432-4dc6-9064-f4c0dafe939f"},"vehicle_type_id":"4","last_reported":1773955529,"current_range_meters":6800,"station_id":"ce4bhhh2rcd13ifvqfk0","pricing_plan_id":"cebpf4jnsgd1na2vs0mg"},{"bike_id":"bc7b59c0-9131-4927-8aba-07d26e63b0ed","system_id":"levelo_inurba_marseille","lat":43.29241,"lon":5.38442,"is_reserved":false,"is_disabled":false,"rental_uris":{"android":"levelo://app?vid=bc7b59c0-9131-4927-8aba-07d26e63b0ed","ios":"levelo://app?vid=bc7b59c0-9131-4927-8aba-07d26e63b0ed"},"vehicle_type_id":"4","last_reported":1773955529,"current_range_meters":6800,"station_id":"ce4bh692rcd13ifvqea0","pricing_plan_id":"cebpf4jnsgd1na2vs0mg"},{"bike_id":"78beea6e-fd38-45c1-919e-297e7a3c4aab","system_id":"levelo_inurba_marseille","lat":43.286,"lon":5.37071,"is_reserved":false,"is_disabled":false,"rental_uris":{"android":"levelo://app?vid=78beea6e-fd38-45c1-919e-297e7a3c4aab","ios":"levelo://app?vid=78beea6e-fd38-45c1-919e-297e7a3c4aab"},"vehicle_type_id":"4","last_reported":1773955529,"current_range_meters":6800,"station_id":"ce4bht12rcd13ifvqi60","pricing_plan_id":"cebpf4jnsgd1na2vs0mg"},{"bike_id":"dd10efc5-28b9-436a-be78-8011941e89fc","system_id":"levelo_inurba_marseille","lat":43.28468,"lon":5.48399,"is_reserved":false,"is_disabled":false,"rental_uris":{"android":"levelo://app?vid=dd10efc5-28b9-436a-be78-8011941e89fc","ios":"levelo://app?vid=dd10efc5-28b9-436a-be78-8011941e89fc"},"vehicle_type_id":"4","last_reported":1773955529,"current_range_meters":6800,"station_id":"st_d3svhcjqgbts73a3dn0g","pricing_plan_id":"cebpf4jnsgd1na2vs0mg"},{"bike_id":"7d7853e1-0f0f-4593-acfa-ac807596e39d","system_id":"levelo_inurba_marseille","lat":43.28714,"lon":5.3739,"is_reserved":false,"is_disabled":false,"rental_uris":{"android":"levelo://app?vid=7d7853e1-0f0f-4593-acfa-ac807596e39d","ios":"levelo://app?vid=7d7853e1-0f0f-4593-acfa-ac807596e39d"},"vehicle_type_id":"4","last_reported":1773955529,"current_range_meters":6800,"station_id":"ce4bh3p2rcd13ifvqdq0","pricing_plan_id":"cebpf4jnsgd1na2vs0mg"},{"bike_id":"a7589a93-7e92-46e3-9adb-33c382fc7b2d","system_id":"levelo_inurba_marseille","lat":43.23969,"lon":5.3662,"is_reserved":false,"is_disabled":false,"rental_uris":{"android":"levelo://app?vid=a7589a93-7e92-46e3-9adb-33c382fc7b2d","ios":"levelo://app?vid=a7589a93-7e92-46e3-9adb-33c382fc7b2d"},"vehicle_type_id":"4","last_reported":1773955529,"current_range_meters":6800,"station_id":"ce4bhi12rcd13ifvqfp0","pricing_plan_id":"cebpf4jnsgd1na2vs0mg"},{"bike_id":"47b958a5-a9e9-4494-8472-abb0f760256b","system_id":"levelo_inurba_marseille","lat":43.23783,"lon":5.36628,"is_reserved":false,"is_disabled":false,"rental_uris":{"android":"levelo://app?vid=47b958a5-a9e9-4494-8472-abb0f760256b","ios":"levelo://app?vid=47b958a5-a9e9-4494-8472-abb0f760256b"},"vehicle_type_id":"4","last_reported":1773955529,"current_range_meters":6800,"station_id":"st_d3nk18o9ro0c73en2l3g","pricing_plan_id":"cebpf4jnsgd1na2vs0mg"},{"bike_id":"e84409cd-ab11-47ab-92ac-0bad50daf5c3","system_id":"levelo_inurba_marseille","lat":43.31878,"lon":5.36813,"is_reserved":false,"is_disabled":false,"rental_uris":{"android":"levelo://app?vid=e84409cd-ab11-47ab-92ac-0bad50daf5c3","ios":"levelo://app?vid=e84409cd-ab11-47ab-92ac-0bad50daf5c3"},"vehicle_type_id":"4","last_reported":1773955529,"current_range_meters":6800,"station_id":"st_d6o2h0d0559c73evc1b0","pricing_plan_id":"cebpf4jnsgd1na2vs0mg"},{"bike_id":"b7e87515-c3ea-478e-bf01-a70f86b2f092","system_id":"levelo_inurba_marseille","lat":43.24182,"lon":5.36395,"is_reserved":false,"is_disabled":false,"rental_uris":{"android":"levelo://app?vid=b7e87515-c3ea-478e-bf01-a70f86b2f092","ios":"levelo://app?vid=b7e87515-c3ea-478e-bf01-a70f86b2f092"},"vehicle_type_id":"4","last_reported":1773955529,"current_range_meters":6800,"station_id":"cpo36qri1sfpv3e86is0","pricing_plan_id":"cebpf4jnsgd1na2vs0mg"},{"bike_id":"2042b168-377d-44b9-86a1-a8003ce7916b","system_id":"levelo_inurba_marseille","lat":43.31334,"lon":5.38847,"is_reserved":false,"is_disabled":false,"rental_uris":{"android":"levelo://app?vid=2042b168-377d-44b9-86a1-a8003ce7916b","ios":"levelo://app?vid=2042b168-377d-44b9-86a1-a8003ce7916b"},"vehicle_type_id":"4","last_reported":1773955529,"current_range_meters":6800,"station_id":"","pricing_plan_id":"cebpf4jnsgd1na2vs0mg"},{"bike_id":"8b6b2330-acc4-4a13-9639-0d481b0e0a46","system_id":"levelo_inurba_marseille","lat":43.295671,"lon":5.399823,"is_reserved":false,"is_disabled":false,"rental_uris":{"android":"levelo://app?vid=8b6b2330-acc4-4a13-9639-0d481b0e0a46","ios":"levelo://app?vid=8b6b2330-acc4-4a13-9639-0d481b0e0a46"},"vehicle_type_id":"4","last_reported":1773955529,"current_range_meters":6800,"station_id":"ce4bh312rcd13ifvqdj0","pricing_plan_id":"cebpf4jnsgd1na2vs0mg"},{"bike_id":"e1fcda96-10f8-4416-a2de-b3c0381d6f12","system_id":"levelo_inurba_marseille","lat":43.27358,"lon":5.36223,"is_reserved":false,"is_disabled":true,"rental_uris":{"android":"levelo://app?vid=e1fcda96-10f8-4416-a2de-b3c0381d6f12","ios":"levelo://app?vid=e1fcda96-10f8-4416-a2de-b3c0381d6f12"},"vehicle_type_id":"4","last_reported":1773955529,"current_range_meters":6800,"station_id":"ce4bhbh2rcd13ifvqeo0","pricing_plan_id":"cebpf4jnsgd1na2vs0mg"},{"bike_id":"1ed14975-ffc4-4856-bb43-9428d8562a11","system_id":"levelo_inurba_marseille","lat":43.2835,"lon":5.38098,"is_reserved":false,"is_disabled":false,"rental_uris":{"android":"levelo://app?vid=1ed14975-ffc4-4856-bb43-9428d8562a11","ios":"levelo://app?vid=1ed14975-ffc4-4856-bb43-9428d8562a11"},"vehicle_type_id":"4","last_reported":1773955529,"current_range_meters":6800,"station_id":"ce4bh412rcd13ifvqdr0","pricing_plan_id":"cebpf4jnsgd1na2vs0mg"},{"bike_id":"c508563b-ff9e-44c5-bf19-b54fb26e0630","system_id":"levelo_inurba_marseille","lat":43.26508,"lon":5.39056,"is_reserved":false,"is_disabled":false,"rental_uris":{"android":"levelo://app?vid=c508563b-ff9e-44c5-bf19-b54fb26e0630","ios":"levelo://app?vid=c508563b-ff9e-44c5-bf19-b54fb26e0630"},"vehicle_type_id":"4","last_reported":1773955529,"current_range_meters":6800,"station_id":"ce4bhe12rcd13ifvqf30","pricing_plan_id":"cebpf4jnsgd1na2vs0mg"},{"bike_id":"a11c8cfa-453a-4892-a974-6a22bafa8290","system_id":"levelo_inurba_marseille","lat":43.2319,"lon":5.35544,"is_reserved":false,"is_disabled":false,"rental_uris":{"android":"levelo://app?vid=a11c8cfa-453a-4892-a974-6a22bafa8290","ios":"levelo://app?vid=a11c8cfa-453a-4892-a974-6a22bafa8290"},"vehicle_type_id":"4","last_reported":1773955529,"current_range_meters":7200,"station_id":"ce4bhu92rcd13ifvqi70","pricing_plan_id":"cebpf4jnsgd1na2vs0mg"},{"bike_id":"13ece891-29b9-4ae9-a4c4-ae3da55ec954","system_id":"levelo_inurba_marseille","lat":43.23213,"lon":5.35553,"is_reserved":false,"is_disabled":false,"rental_uris":{"android":"levelo://app?vid=13ece891-29b9-4ae9-a4c4-ae3da55ec954","ios":"levelo://app?vid=13ece891-29b9-4ae9-a4c4-ae3da55ec954"},"vehicle_type_id":"4","last_reported":1773955529,"current_range_meters":7200,"station_id":"ce4bhu92rcd13ifvqi70","pricing_plan_id":"cebpf4jnsgd1na2vs0mg"},{"bike_id":"bd60a6ec-18d4-4476-ab1b-f354043c4b72","system_id":"levelo_inurba_marseille","lat":43.29799,"lon":5.42581,"is_reserved":false,"is_disabled":false,"rental_uris":{"android":"levelo://app?vid=bd60a6ec-18d4-4476-ab1b-f354043c4b72","ios":"levelo://app?vid=bd60a6ec-18d4-4476-ab1b-f354043c4b72"},"vehicle_type_id":"4","last_reported":1773955529,"current_range_meters":7200,"station_id":"","pricing_plan_id":"cebpf4jnsgd1na2vs0mg"},{"bike_id":"081a0881-89b6-4aec-8d87-38fd39de8439","system_id":"levelo_inurba_marseille","lat":43.28535,"lon":5.44113,"is_reserved":false,"is_disabled":false,"rental_uris":{"android":"levelo://app?vid=081a0881-89b6-4aec-8d87-38fd39de8439","ios":"levelo://app?vid=081a0881-89b6-4aec-8d87-38fd39de8439"},"vehicle_type_id":"4","last_reported":1773955529,"current_range_meters":7200,"station_id":"st_d3j3df2ikq2c7380ej80","pricing_plan_id":"cebpf4jnsgd1na2vs0mg"},{"bike_id":"52f6a6b9-7af9-4956-b458-baf5061e66bf","system_id":"levelo_inurba_marseille","lat":43.23341,"lon":5.44445,"is_reserved":false,"is_disabled":false,"rental_uris":{"android":"levelo://app?vid=52f6a6b9-7af9-4956-b458-baf5061e66bf","ios":"levelo://app?vid=52f6a6b9-7af9-4956-b458-baf5061e66bf"},"vehicle_type_id":"4","last_reported":1773955529,"current_range_meters":7200,"station_id":"","pricing_plan_id":"cebpf4jnsgd1na2vs0mg"},{"bike_id":"347a0133-45d3-4213-ae48-606f4453bbf3","system_id":"levelo_inurba_marseille","lat":43.2306,"lon":5.35488,"is_reserved":false,"is_disabled":false,"rental_uris":{"android":"levelo://app?vid=347a0133-45d3-4213-ae48-606f4453bbf3","ios":"levelo://app?vid=347a0133-45d3-4213-ae48-606f4453bbf3"},"vehicle_type_id":"4","last_reported":1773955529,"current_range_meters":7200,"station_id":"cpo3342slgdg3j2ifvpg","pricing_plan_id":"cebpf4jnsgd1na2vs0mg"},{"bike_id":"350f1641-f47c-473b-bb3e-077bc63224a8","system_id":"levelo_inurba_marseille","lat":43.30398,"lon":5.39779,"is_reserved":false,"is_disabled":false,"rental_uris":{"android":"levelo://app?vid=350f1641-f47c-473b-bb3e-077bc63224a8","ios":"levelo://app?vid=350f1641-f47c-473b-bb3e-077bc63224a8"},"vehicle_type_id":"4","last_reported":1773955529,"current_range_meters":7200,"station_id":"ce4bh092rcd13ifvqd20","pricing_plan_id":"cebpf4jnsgd1na2vs0mg"},{"bike_id":"464da283-4283-4e4c-a30a-d4982bb3b645","system_id":"levelo_inurba_marseille","lat":43.28809,"lon":5.39313,"is_reserved":false,"is_disabled":false,"rental_uris":{"android":"levelo://app?vid=464da283-4283-4e4c-a30a-d4982bb3b645","ios":"levelo://app?vid=464da283-4283-4e4c-a30a-d4982bb3b645"},"vehicle_type_id":"4","last_reported":1773955529,"current_range_meters":7200,"station_id":"ce4bh2p2rcd13ifvqdi0","pricing_plan_id":"cebpf4jnsgd1na2vs0mg"},{"bike_id":"f05896e3-edbb-49dd-83fe-dc60521a4574","system_id":"levelo_inurba_marseille","lat":43.28349,"lon":5.38114,"is_reserved":false,"is_disabled":false,"rental_uris":{"android":"levelo://app?vid=f05896e3-edbb-49dd-83fe-dc60521a4574","ios":"levelo://app?vid=f05896e3-edbb-49dd-83fe-dc60521a4574"},"vehicle_type_id":"4","last_reported":1773955529,"current_range_meters":7200,"station_id":"ce4bh412rcd13ifvqdr0","pricing_plan_id":"cebpf4jnsgd1na2vs0mg"},{"bike_id":"8c1bb7e1-fc52-410e-bc8b-57e5a8629823","system_id":"levelo_inurba_marseille","lat":43.29186,"lon":5.37719,"is_reserved":false,"is_disabled":false,"rental_uris":{"android":"levelo://app?vid=8c1bb7e1-fc52-410e-bc8b-57e5a8629823","ios":"levelo://app?vid=8c1bb7e1-fc52-410e-bc8b-57e5a8629823"},"vehicle_type_id":"4","last_reported":1773955529,"current_range_meters":7200,"station_id":"","pricing_plan_id":"cebpf4jnsgd1na2vs0mg"},{"bike_id":"31de91b8-2554-4f66-8bc6-9dfb581be216","system_id":"levelo_inurba_marseille","lat":43.28854,"lon":5.39328,"is_reserved":false,"is_disabled":false,"rental_uris":{"android":"levelo://app?vid=31de91b8-2554-4f66-8bc6-9dfb581be216","ios":"levelo://app?vid=31de91b8-2554-4f66-8bc6-9dfb581be216"},"vehicle_type_id":"4","last_reported":1773955529,"current_range_meters":7200,"station_id":"ce4bh2p2rcd13ifvqdi0","pricing_plan_id":"cebpf4jnsgd1na2vs0mg"},{"bike_id":"d51fe815-5335-4e1f-8e42-efe91c7e85aa","system_id":"levelo_inurba_marseille","lat":43.22928,"lon":5.35375,"is_reserved":false,"is_disabled":false,"rental_uris":{"android":"levelo://app?vid=d51fe815-5335-4e1f-8e42-efe91c7e85aa","ios":"levelo://app?vid=d51fe815-5335-4e1f-8e42-efe91c7e85aa"},"vehicle_type_id":"4","last_reported":1773955529,"current_range_meters":7200,"station_id":"cpo3532slgdg3j2ikp40","pricing_plan_id":"cebpf4jnsgd1na2vs0mg"},{"bike_id":"8c34b7c1-77dc-43df-92bf-62c8c2a27ed2","system_id":"levelo_inurba_marseille","lat":43.29519,"lon":5.38556,"is_reserved":false,"is_disabled":false,"rental_uris":{"android":"levelo://app?vid=8c34b7c1-77dc-43df-92bf-62c8c2a27ed2","ios":"levelo://app?vid=8c34b7c1-77dc-43df-92bf-62c8c2a27ed2"},"vehicle_type_id":"4","last_reported":1773955529,"current_range_meters":7200,"station_id":"ce4bgih2rcd13ifvqba0","pricing_plan_id":"cebpf4jnsgd1na2vs0mg"},{"bike_id":"9b15e990-a964-42e6-86de-69c5dc0befde","system_id":"levelo_inurba_marseille","lat":43.29175,"lon":5.39344,"is_reserved":false,"is_disabled":false,"rental_uris":{"android":"levelo://app?vid=9b15e990-a964-42e6-86de-69c5dc0befde","ios":"levelo://app?vid=9b15e990-a964-42e6-86de-69c5dc0befde"},"vehicle_type_id":"4","last_reported":1773955529,"current_range_meters":7200,"station_id":"","pricing_plan_id":"cebpf4jnsgd1na2vs0mg"},{"bike_id":"e49b656b-03c2-45c8-ac66-a6c3f01b12f7","system_id":"levelo_inurba_marseille","lat":43.28931,"lon":5.38635,"is_reserved":false,"is_disabled":false,"rental_uris":{"android":"levelo://app?vid=e49b656b-03c2-45c8-ac66-a6c3f01b12f7","ios":"levelo://app?vid=e49b656b-03c2-45c8-ac66-a6c3f01b12f7"},"vehicle_type_id":"4","last_reported":1773955529,"current_range_meters":7200,"station_id":"","pricing_plan_id":"cebpf4jnsgd1na2vs0mg"},{"bike_id":"7c3c850c-d941-46df-90f8-c540a86a8e1a","system_id":"levelo_inurba_marseille","lat":43.30128,"lon":5.43115,"is_reserved":false,"is_disabled":false,"rental_uris":{"android":"levelo://app?vid=7c3c850c-d941-46df-90f8-c540a86a8e1a","ios":"levelo://app?vid=7c3c850c-d941-46df-90f8-c540a86a8e1a"},"vehicle_type_id":"4","last_reported":1773955529,"current_range_meters":7200,"station_id":"st_d3js3co5814s73ftftug","pricing_plan_id":"cebpf4jnsgd1na2vs0mg"},{"bike_id":"ffb0f845-f1af-4e84-b70b-7eb90d9441d0","system_id":"levelo_inurba_marseille","lat":43.29612,"lon":5.37167,"is_reserved":false,"is_disabled":false,"rental_uris":{"android":"levelo://app?vid=ffb0f845-f1af-4e84-b70b-7eb90d9441d0","ios":"levelo://app?vid=ffb0f845-f1af-4e84-b70b-7eb90d9441d0"},"vehicle_type_id":"4","last_reported":1773955529,"current_range_meters":7200,"station_id":"ce4bgnh2rcd13ifvqc0g","pricing_plan_id":"cebpf4jnsgd1na2vs0mg"},{"bike_id":"be523ae7-f0fc-4e2a-970b-30a3029fa717","system_id":"levelo_inurba_marseille","lat":43.28473,"lon":5.48407,"is_reserved":false,"is_disabled":false,"rental_uris":{"android":"levelo://app?vid=be523ae7-f0fc-4e2a-970b-30a3029fa717","ios":"levelo://app?vid=be523ae7-f0fc-4e2a-970b-30a3029fa717"},"vehicle_type_id":"4","last_reported":1773955529,"current_range_meters":7200,"station_id":"","pricing_plan_id":"cebpf4jnsgd1na2vs0mg"},{"bike_id":"15750178-4f9b-426f-bafa-493e04eb7e36","system_id":"levelo_inurba_marseille","lat":43.30811,"lon":5.40612,"is_reserved":false,"is_disabled":false,"rental_uris":{"android":"levelo://app?vid=15750178-4f9b-426f-bafa-493e04eb7e36","ios":"levelo://app?vid=15750178-4f9b-426f-bafa-493e04eb7e36"},"vehicle_type_id":"4","last_reported":1773955529,"current_range_meters":7200,"station_id":"","pricing_plan_id":"cebpf4jnsgd1na2vs0mg"},{"bike_id":"eabf4d2f-073c-41a2-a840-9f5f81a65f64","system_id":"levelo_inurba_marseille","lat":43.29081,"lon":5.42743,"is_reserved":false,"is_disabled":false,"rental_uris":{"android":"levelo://app?vid=eabf4d2f-073c-41a2-a840-9f5f81a65f64","ios":"levelo://app?vid=eabf4d2f-073c-41a2-a840-9f5f81a65f64"},"vehicle_type_id":"4","last_reported":1773955529,"current_range_meters":7200,"station_id":"","pricing_plan_id":"cebpf4jnsgd1na2vs0mg"},{"bike_id":"8f252525-35c5-4f44-ae60-aef6d2603d29","system_id":"levelo_inurba_marseille","lat":43.26384,"lon":5.4104,"is_reserved":false,"is_disabled":false,"rental_uris":{"android":"levelo://app?vid=8f252525-35c5-4f44-ae60-aef6d2603d29","ios":"levelo://app?vid=8f252525-35c5-4f44-ae60-aef6d2603d29"},"vehicle_type_id":"4","last_reported":1773955529,"current_range_meters":7200,"station_id":"st_d4e5ca6na9uc73bfl5fg","pricing_plan_id":"cebpf4jnsgd1na2vs0mg"},{"bike_id":"b656aabe-7c73-4de4-a3ab-51dc49496f82","system_id":"levelo_inurba_marseille","lat":43.29295,"lon":5.37167,"is_reserved":false,"is_disabled":true,"rental_uris":{"android":"levelo://app?vid=b656aabe-7c73-4de4-a3ab-51dc49496f82","ios":"levelo://app?vid=b656aabe-7c73-4de4-a3ab-51dc49496f82"},"vehicle_type_id":"4","last_reported":1773955529,"current_range_meters":8000,"station_id":"ce4bgh92rcd13ifvqb40","pricing_plan_id":"cebpf4jnsgd1na2vs0mg"},{"bike_id":"27cfd7f2-48c6-4fe4-9d82-e5b76120df75","system_id":"levelo_inurba_marseille","lat":43.29824,"lon":5.44069,"is_reserved":false,"is_disabled":false,"rental_uris":{"android":"levelo://app?vid=27cfd7f2-48c6-4fe4-9d82-e5b76120df75","ios":"levelo://app?vid=27cfd7f2-48c6-4fe4-9d82-e5b76120df75"},"vehicle_type_id":"4","last_reported":1773955529,"current_range_meters":8000,"station_id":"st_d3jp68qikq2c7381ktn0","pricing_plan_id":"cebpf4jnsgd1na2vs0mg"},{"bike_id":"690fe23c-3051-45ef-bc20-1d4b4576a336","system_id":"levelo_inurba_marseille","lat":43.30807,"lon":5.3815,"is_reserved":false,"is_disabled":false,"rental_uris":{"android":"levelo://app?vid=690fe23c-3051-45ef-bc20-1d4b4576a336","ios":"levelo://app?vid=690fe23c-3051-45ef-bc20-1d4b4576a336"},"vehicle_type_id":"4","last_reported":1773955529,"current_range_meters":8000,"station_id":"ce4bgt12rcd13ifvqce0","pricing_plan_id":"cebpf4jnsgd1na2vs0mg"},{"bike_id":"92fded19-de99-42e5-8e2b-38526f48eef0","system_id":"levelo_inurba_marseille","lat":43.28498,"lon":5.35867,"is_reserved":false,"is_disabled":false,"rental_uris":{"android":"levelo://app?vid=92fded19-de99-42e5-8e2b-38526f48eef0","ios":"levelo://app?vid=92fded19-de99-42e5-8e2b-38526f48eef0"},"vehicle_type_id":"4","last_reported":1773955529,"current_range_meters":8000,"station_id":"ce4bhah2rcd13ifvqei0","pricing_plan_id":"cebpf4jnsgd1na2vs0mg"},{"bike_id":"088c4324-95fd-4993-b8ff-b06a1da9f7e4","system_id":"levelo_inurba_marseille","lat":43.2805,"lon":5.36939,"is_reserved":false,"is_disabled":false,"rental_uris":{"android":"levelo://app?vid=088c4324-95fd-4993-b8ff-b06a1da9f7e4","ios":"levelo://app?vid=088c4324-95fd-4993-b8ff-b06a1da9f7e4"},"vehicle_type_id":"4","last_reported":1773955529,"current_range_meters":8000,"station_id":"ce4bha12rcd13ifvqef0","pricing_plan_id":"cebpf4jnsgd1na2vs0mg"},{"bike_id":"b790cc6c-beda-4dcd-96dd-e541806c10fa","system_id":"levelo_inurba_marseille","lat":43.27492,"lon":5.41592,"is_reserved":false,"is_disabled":false,"rental_uris":{"android":"levelo://app?vid=b790cc6c-beda-4dcd-96dd-e541806c10fa","ios":"levelo://app?vid=b790cc6c-beda-4dcd-96dd-e541806c10fa"},"vehicle_type_id":"4","last_reported":1773955529,"current_range_meters":8000,"station_id":"st_d6im8g6chgec73a5pndg","pricing_plan_id":"cebpf4jnsgd1na2vs0mg"},{"bike_id":"addd9e53-bfde-4c2f-8c89-4a891b6a7add","system_id":"levelo_inurba_marseille","lat":43.31328,"lon":5.37943,"is_reserved":false,"is_disabled":false,"rental_uris":{"android":"levelo://app?vid=addd9e53-bfde-4c2f-8c89-4a891b6a7add","ios":"levelo://app?vid=addd9e53-bfde-4c2f-8c89-4a891b6a7add"},"vehicle_type_id":"4","last_reported":1773955529,"current_range_meters":8000,"station_id":"","pricing_plan_id":"cebpf4jnsgd1na2vs0mg"},{"bike_id":"9d868666-eaf2-4621-b905-f4e5ec720517","system_id":"levelo_inurba_marseille","lat":43.30338,"lon":5.40426,"is_reserved":false,"is_disabled":false,"rental_uris":{"android":"levelo://app?vid=9d868666-eaf2-4621-b905-f4e5ec720517","ios":"levelo://app?vid=9d868666-eaf2-4621-b905-f4e5ec720517"},"vehicle_type_id":"4","last_reported":1773955529,"current_range_meters":8000,"station_id":"ce4bh012rcd13ifvqd10","pricing_plan_id":"cebpf4jnsgd1na2vs0mg"},{"bike_id":"27a43a32-b9ac-4bde-ad09-5ead8ab2b75e","system_id":"levelo_inurba_marseille","lat":43.23977,"lon":5.36634,"is_reserved":false,"is_disabled":false,"rental_uris":{"android":"levelo://app?vid=27a43a32-b9ac-4bde-ad09-5ead8ab2b75e","ios":"levelo://app?vid=27a43a32-b9ac-4bde-ad09-5ead8ab2b75e"},"vehicle_type_id":"4","last_reported":1773955529,"current_range_meters":8000,"station_id":"ce4bhi12rcd13ifvqfp0","pricing_plan_id":"cebpf4jnsgd1na2vs0mg"},{"bike_id":"e84fa4f7-0cd8-4289-a13f-f3c15f886705","system_id":"levelo_inurba_marseille","lat":43.29268,"lon":5.3842,"is_reserved":false,"is_disabled":false,"rental_uris":{"android":"levelo://app?vid=e84fa4f7-0cd8-4289-a13f-f3c15f886705","ios":"levelo://app?vid=e84fa4f7-0cd8-4289-a13f-f3c15f886705"},"vehicle_type_id":"4","last_reported":1773955529,"current_range_meters":8000,"station_id":"ce4bh692rcd13ifvqea0","pricing_plan_id":"cebpf4jnsgd1na2vs0mg"},{"bike_id":"88f62a4c-1dd5-4d07-a59a-902271acdb70","system_id":"levelo_inurba_marseille","lat":43.28144,"lon":5.42658,"is_reserved":false,"is_disabled":false,"rental_uris":{"android":"levelo://app?vid=88f62a4c-1dd5-4d07-a59a-902271acdb70","ios":"levelo://app?vid=88f62a4c-1dd5-4d07-a59a-902271acdb70"},"vehicle_type_id":"4","last_reported":1773955529,"current_range_meters":8000,"station_id":"ce4bhnh2rcd13ifvqgug","pricing_plan_id":"cebpf4jnsgd1na2vs0mg"},{"bike_id":"91754ca3-cd5e-47a5-b17b-b94faa181426","system_id":"levelo_inurba_marseille","lat":43.32097,"lon":5.36773,"is_reserved":false,"is_disabled":false,"rental_uris":{"android":"levelo://app?vid=91754ca3-cd5e-47a5-b17b-b94faa181426","ios":"levelo://app?vid=91754ca3-cd5e-47a5-b17b-b94faa181426"},"vehicle_type_id":"4","last_reported":1773955529,"current_range_meters":8000,"station_id":"ce4bhrh2rcd13ifvqhug","pricing_plan_id":"cebpf4jnsgd1na2vs0mg"},{"bike_id":"5b633a99-6e6c-40eb-b51a-c5e14db697a0","system_id":"levelo_inurba_marseille","lat":43.27078,"lon":5.42282,"is_reserved":false,"is_disabled":false,"rental_uris":{"android":"levelo://app?vid=5b633a99-6e6c-40eb-b51a-c5e14db697a0","ios":"levelo://app?vid=5b633a99-6e6c-40eb-b51a-c5e14db697a0"},"vehicle_type_id":"4","last_reported":1773955529,"current_range_meters":8000,"station_id":"ce4bhk92rcd13ifvqgb0","pricing_plan_id":"cebpf4jnsgd1na2vs0mg"},{"bike_id":"186fa513-88d9-41c6-9d5d-7b50d9e869a7","system_id":"levelo_inurba_marseille","lat":43.28166,"lon":5.42641,"is_reserved":false,"is_disabled":false,"rental_uris":{"android":"levelo://app?vid=186fa513-88d9-41c6-9d5d-7b50d9e869a7","ios":"levelo://app?vid=186fa513-88d9-41c6-9d5d-7b50d9e869a7"},"vehicle_type_id":"4","last_reported":1773955529,"current_range_meters":8000,"station_id":"ce4bhnh2rcd13ifvqgug","pricing_plan_id":"cebpf4jnsgd1na2vs0mg"},{"bike_id":"1314aa5a-05b3-487f-82bb-9ae5e8d9e6d3","system_id":"levelo_inurba_marseille","lat":43.23796,"lon":5.36628,"is_reserved":false,"is_disabled":false,"rental_uris":{"android":"levelo://app?vid=1314aa5a-05b3-487f-82bb-9ae5e8d9e6d3","ios":"levelo://app?vid=1314aa5a-05b3-487f-82bb-9ae5e8d9e6d3"},"vehicle_type_id":"4","last_reported":1773955529,"current_range_meters":8000,"station_id":"st_d3nk18o9ro0c73en2l3g","pricing_plan_id":"cebpf4jnsgd1na2vs0mg"},{"bike_id":"9538695e-3459-4d19-bebe-9b4ae08bd94e","system_id":"levelo_inurba_marseille","lat":43.28568,"lon":5.39499,"is_reserved":false,"is_disabled":false,"rental_uris":{"android":"levelo://app?vid=9538695e-3459-4d19-bebe-9b4ae08bd94e","ios":"levelo://app?vid=9538695e-3459-4d19-bebe-9b4ae08bd94e"},"vehicle_type_id":"4","last_reported":1773955529,"current_range_meters":8000,"station_id":"ce4bh292rcd13ifvqdg0","pricing_plan_id":"cebpf4jnsgd1na2vs0mg"},{"bike_id":"ca4299f4-f14d-45af-83d9-91a4ca6b1ee3","system_id":"levelo_inurba_marseille","lat":43.29319,"lon":5.37162,"is_reserved":false,"is_disabled":false,"rental_uris":{"android":"levelo://app?vid=ca4299f4-f14d-45af-83d9-91a4ca6b1ee3","ios":"levelo://app?vid=ca4299f4-f14d-45af-83d9-91a4ca6b1ee3"},"vehicle_type_id":"4","last_reported":1773955529,"current_range_meters":8000,"station_id":"ce4bgh92rcd13ifvqb40","pricing_plan_id":"cebpf4jnsgd1na2vs0mg"},{"bike_id":"9949bb18-8490-4f62-a48b-c7fe28a932c3","system_id":"levelo_inurba_marseille","lat":43.25875,"lon":5.39447,"is_reserved":false,"is_disabled":false,"rental_uris":{"android":"levelo://app?vid=9949bb18-8490-4f62-a48b-c7fe28a932c3","ios":"levelo://app?vid=9949bb18-8490-4f62-a48b-c7fe28a932c3"},"vehicle_type_id":"4","last_reported":1773955529,"current_range_meters":8000,"station_id":"","pricing_plan_id":"cebpf4jnsgd1na2vs0mg"},{"bike_id":"16124266-6ae7-41fa-97b1-37ac4cca44ce","system_id":"levelo_inurba_marseille","lat":43.27932,"lon":5.39588,"is_reserved":false,"is_disabled":false,"rental_uris":{"android":"levelo://app?vid=16124266-6ae7-41fa-97b1-37ac4cca44ce","ios":"levelo://app?vid=16124266-6ae7-41fa-97b1-37ac4cca44ce"},"vehicle_type_id":"4","last_reported":1773955529,"current_range_meters":8000,"station_id":"ce4bhf92rcd13ifvqf40","pricing_plan_id":"cebpf4jnsgd1na2vs0mg"},{"bike_id":"22dbebf7-889c-4196-a90d-63fc97997096","system_id":"levelo_inurba_marseille","lat":43.27972,"lon":5.41651,"is_reserved":false,"is_disabled":false,"rental_uris":{"android":"levelo://app?vid=22dbebf7-889c-4196-a90d-63fc97997096","ios":"levelo://app?vid=22dbebf7-889c-4196-a90d-63fc97997096"},"vehicle_type_id":"4","last_reported":1773955529,"current_range_meters":8000,"station_id":"ce4bho12rcd13ifvqh1g","pricing_plan_id":"cebpf4jnsgd1na2vs0mg"},{"bike_id":"15bf2f59-06a6-41bd-a43b-489e0ce4442c","system_id":"levelo_inurba_marseille","lat":43.32099,"lon":5.3678,"is_reserved":false,"is_disabled":false,"rental_uris":{"android":"levelo://app?vid=15bf2f59-06a6-41bd-a43b-489e0ce4442c","ios":"levelo://app?vid=15bf2f59-06a6-41bd-a43b-489e0ce4442c"},"vehicle_type_id":"4","last_reported":1773955529,"current_range_meters":8000,"station_id":"ce4bhrh2rcd13ifvqhug","pricing_plan_id":"cebpf4jnsgd1na2vs0mg"},{"bike_id":"b3c6ee7e-839e-47ca-8bd1-12618e78dd87","system_id":"levelo_inurba_marseille","lat":43.23964,"lon":5.3662,"is_reserved":false,"is_disabled":true,"rental_uris":{"android":"levelo://app?vid=b3c6ee7e-839e-47ca-8bd1-12618e78dd87","ios":"levelo://app?vid=b3c6ee7e-839e-47ca-8bd1-12618e78dd87"},"vehicle_type_id":"4","last_reported":1773955529,"current_range_meters":8000,"station_id":"ce4bhi12rcd13ifvqfp0","pricing_plan_id":"cebpf4jnsgd1na2vs0mg"},{"bike_id":"93089ce5-ce0f-4667-86e6-ff58647cdab6","system_id":"levelo_inurba_marseille","lat":43.28699,"lon":5.38656,"is_reserved":false,"is_disabled":false,"rental_uris":{"android":"levelo://app?vid=93089ce5-ce0f-4667-86e6-ff58647cdab6","ios":"levelo://app?vid=93089ce5-ce0f-4667-86e6-ff58647cdab6"},"vehicle_type_id":"4","last_reported":1773955529,"current_range_meters":8000,"station_id":"ce4bh492rcd13ifvqdug","pricing_plan_id":"cebpf4jnsgd1na2vs0mg"},{"bike_id":"ab09d209-60f6-4303-8d09-86dc43261279","system_id":"levelo_inurba_marseille","lat":43.21179,"lon":5.35086,"is_reserved":false,"is_disabled":true,"rental_uris":{"android":"levelo://app?vid=ab09d209-60f6-4303-8d09-86dc43261279","ios":"levelo://app?vid=ab09d209-60f6-4303-8d09-86dc43261279"},"vehicle_type_id":"4","last_reported":1773955529,"current_range_meters":8000,"station_id":"st_cvj6sg6p6f1abm77japg","pricing_plan_id":"cebpf4jnsgd1na2vs0mg"},{"bike_id":"8388d5f1-b825-433a-9959-12e70906a3db","system_id":"levelo_inurba_marseille","lat":43.3107,"lon":5.41207,"is_reserved":false,"is_disabled":false,"rental_uris":{"android":"levelo://app?vid=8388d5f1-b825-433a-9959-12e70906a3db","ios":"levelo://app?vid=8388d5f1-b825-433a-9959-12e70906a3db"},"vehicle_type_id":"4","last_reported":1773955529,"current_range_meters":8000,"station_id":"","pricing_plan_id":"cebpf4jnsgd1na2vs0mg"},{"bike_id":"3bcd3f37-7909-4e8a-be03-a9562a2c0e45","system_id":"levelo_inurba_marseille","lat":43.28474,"lon":5.48388,"is_reserved":false,"is_disabled":false,"rental_uris":{"android":"levelo://app?vid=3bcd3f37-7909-4e8a-be03-a9562a2c0e45","ios":"levelo://app?vid=3bcd3f37-7909-4e8a-be03-a9562a2c0e45"},"vehicle_type_id":"4","last_reported":1773955529,"current_range_meters":8400,"station_id":"","pricing_plan_id":"cebpf4jnsgd1na2vs0mg"},{"bike_id":"35bbea1d-d351-4c17-8acc-c063f8cd3e64","system_id":"levelo_inurba_marseille","lat":43.29194,"lon":5.35817,"is_reserved":false,"is_disabled":false,"rental_uris":{"android":"levelo://app?vid=35bbea1d-d351-4c17-8acc-c063f8cd3e64","ios":"levelo://app?vid=35bbea1d-d351-4c17-8acc-c063f8cd3e64"},"vehicle_type_id":"4","last_reported":1773955529,"current_range_meters":8400,"station_id":"ce4bhb12rcd13ifvqel0","pricing_plan_id":"cebpf4jnsgd1na2vs0mg"},{"bike_id":"e2420c11-4646-4145-aa2e-baedb91a43dc","system_id":"levelo_inurba_marseille","lat":43.31623,"lon":5.38424,"is_reserved":false,"is_disabled":false,"rental_uris":{"android":"levelo://app?vid=e2420c11-4646-4145-aa2e-baedb91a43dc","ios":"levelo://app?vid=e2420c11-4646-4145-aa2e-baedb91a43dc"},"vehicle_type_id":"4","last_reported":1773955529,"current_range_meters":8400,"station_id":"","pricing_plan_id":"cebpf4jnsgd1na2vs0mg"},{"bike_id":"4d9e23d5-bd87-4727-8d57-c47ef2bf36a8","system_id":"levelo_inurba_marseille","lat":43.29174,"lon":5.35809,"is_reserved":false,"is_disabled":false,"rental_uris":{"android":"levelo://app?vid=4d9e23d5-bd87-4727-8d57-c47ef2bf36a8","ios":"levelo://app?vid=4d9e23d5-bd87-4727-8d57-c47ef2bf36a8"},"vehicle_type_id":"4","last_reported":1773955529,"current_range_meters":8400,"station_id":"ce4bhb12rcd13ifvqel0","pricing_plan_id":"cebpf4jnsgd1na2vs0mg"},{"bike_id":"3072c2b7-499e-4858-9501-6070c7badbaf","system_id":"levelo_inurba_marseille","lat":43.23937,"lon":5.36649,"is_reserved":false,"is_disabled":false,"rental_uris":{"android":"levelo://app?vid=3072c2b7-499e-4858-9501-6070c7badbaf","ios":"levelo://app?vid=3072c2b7-499e-4858-9501-6070c7badbaf"},"vehicle_type_id":"4","last_reported":1773955529,"current_range_meters":8400,"station_id":"ce4bhi12rcd13ifvqfp0","pricing_plan_id":"cebpf4jnsgd1na2vs0mg"},{"bike_id":"413d347b-04e3-4ee4-a48e-d84b46247dd8","system_id":"levelo_inurba_marseille","lat":43.30118,"lon":5.39868,"is_reserved":false,"is_disabled":false,"rental_uris":{"android":"levelo://app?vid=413d347b-04e3-4ee4-a48e-d84b46247dd8","ios":"levelo://app?vid=413d347b-04e3-4ee4-a48e-d84b46247dd8"},"vehicle_type_id":"4","last_reported":1773955529,"current_range_meters":8400,"station_id":"ce4bh0h2rcd13ifvqd40","pricing_plan_id":"cebpf4jnsgd1na2vs0mg"},{"bike_id":"8b699ea7-b22c-498f-80e0-9f808583494e","system_id":"levelo_inurba_marseille","lat":43.29588,"lon":5.42266,"is_reserved":false,"is_disabled":false,"rental_uris":{"android":"levelo://app?vid=8b699ea7-b22c-498f-80e0-9f808583494e","ios":"levelo://app?vid=8b699ea7-b22c-498f-80e0-9f808583494e"},"vehicle_type_id":"4","last_reported":1773955529,"current_range_meters":8400,"station_id":"ce4bhph2rcd13ifvqhdg","pricing_plan_id":"cebpf4jnsgd1na2vs0mg"},{"bike_id":"69067704-4b9d-4067-8ddd-5b71f4ef1a8a","system_id":"levelo_inurba_marseille","lat":43.25907,"lon":5.40871,"is_reserved":false,"is_disabled":true,"rental_uris":{"android":"levelo://app?vid=69067704-4b9d-4067-8ddd-5b71f4ef1a8a","ios":"levelo://app?vid=69067704-4b9d-4067-8ddd-5b71f4ef1a8a"},"vehicle_type_id":"4","last_reported":1773955529,"current_range_meters":8400,"station_id":"ce4bhm92rcd13ifvqglg","pricing_plan_id":"cebpf4jnsgd1na2vs0mg"},{"bike_id":"1194a8aa-5f8a-473e-abd7-42ae4d610104","system_id":"levelo_inurba_marseille","lat":43.28276,"lon":5.35064,"is_reserved":false,"is_disabled":false,"rental_uris":{"android":"levelo://app?vid=1194a8aa-5f8a-473e-abd7-42ae4d610104","ios":"levelo://app?vid=1194a8aa-5f8a-473e-abd7-42ae4d610104"},"vehicle_type_id":"4","last_reported":1773955529,"current_range_meters":8400,"station_id":"ce4bhbp2rcd13ifvqerg","pricing_plan_id":"cebpf4jnsgd1na2vs0mg"},{"bike_id":"f574368e-7d18-420a-9e2d-255a58427bfa","system_id":"levelo_inurba_marseille","lat":43.29619,"lon":5.36724,"is_reserved":false,"is_disabled":false,"rental_uris":{"android":"levelo://app?vid=f574368e-7d18-420a-9e2d-255a58427bfa","ios":"levelo://app?vid=f574368e-7d18-420a-9e2d-255a58427bfa"},"vehicle_type_id":"4","last_reported":1773955529,"current_range_meters":8400,"station_id":"","pricing_plan_id":"cebpf4jnsgd1na2vs0mg"},{"bike_id":"f05bfe01-7c20-48a1-9bd6-7f1ced2680e8","system_id":"levelo_inurba_marseille","lat":43.286579,"lon":5.386656,"is_reserved":false,"is_disabled":false,"rental_uris":{"android":"levelo://app?vid=f05bfe01-7c20-48a1-9bd6-7f1ced2680e8","ios":"levelo://app?vid=f05bfe01-7c20-48a1-9bd6-7f1ced2680e8"},"vehicle_type_id":"4","last_reported":1773955529,"current_range_meters":8400,"station_id":"ce4bh492rcd13ifvqdug","pricing_plan_id":"cebpf4jnsgd1na2vs0mg"},{"bike_id":"57d1ada9-1a9f-44a6-9752-b843732a3f40","system_id":"levelo_inurba_marseille","lat":43.29982,"lon":5.37143,"is_reserved":false,"is_disabled":false,"rental_uris":{"android":"levelo://app?vid=57d1ada9-1a9f-44a6-9752-b843732a3f40","ios":"levelo://app?vid=57d1ada9-1a9f-44a6-9752-b843732a3f40"},"vehicle_type_id":"4","last_reported":1773955529,"current_range_meters":8400,"station_id":"ce4bgr92rcd13ifvqc7g","pricing_plan_id":"cebpf4jnsgd1na2vs0mg"},{"bike_id":"b75d03ae-d4de-4249-abb0-cbd1adb52c8a","system_id":"levelo_inurba_marseille","lat":43.30418,"lon":5.38888,"is_reserved":false,"is_disabled":false,"rental_uris":{"android":"levelo://app?vid=b75d03ae-d4de-4249-abb0-cbd1adb52c8a","ios":"levelo://app?vid=b75d03ae-d4de-4249-abb0-cbd1adb52c8a"},"vehicle_type_id":"4","last_reported":1773955529,"current_range_meters":8400,"station_id":"ce4bgk12rcd13ifvqbi0","pricing_plan_id":"cebpf4jnsgd1na2vs0mg"},{"bike_id":"92c88c59-2726-4c4d-909d-da02d7074c9c","system_id":"levelo_inurba_marseille","lat":43.31156,"lon":5.38734,"is_reserved":false,"is_disabled":false,"rental_uris":{"android":"levelo://app?vid=92c88c59-2726-4c4d-909d-da02d7074c9c","ios":"levelo://app?vid=92c88c59-2726-4c4d-909d-da02d7074c9c"},"vehicle_type_id":"4","last_reported":1773955529,"current_range_meters":8400,"station_id":"ce4bgv12rcd13ifvqcp0","pricing_plan_id":"cebpf4jnsgd1na2vs0mg"},{"bike_id":"2e73f39c-4de9-40ef-b5c3-575e5ff6014d","system_id":"levelo_inurba_marseille","lat":43.26258,"lon":5.39123,"is_reserved":false,"is_disabled":true,"rental_uris":{"android":"levelo://app?vid=2e73f39c-4de9-40ef-b5c3-575e5ff6014d","ios":"levelo://app?vid=2e73f39c-4de9-40ef-b5c3-575e5ff6014d"},"vehicle_type_id":"4","last_reported":1773955529,"current_range_meters":8400,"station_id":"","pricing_plan_id":"cebpf4jnsgd1na2vs0mg"},{"bike_id":"acee348c-bf3c-43ae-872b-d4fffa61ac33","system_id":"levelo_inurba_marseille","lat":43.2979,"lon":5.4041,"is_reserved":false,"is_disabled":false,"rental_uris":{"android":"levelo://app?vid=acee348c-bf3c-43ae-872b-d4fffa61ac33","ios":"levelo://app?vid=acee348c-bf3c-43ae-872b-d4fffa61ac33"},"vehicle_type_id":"4","last_reported":1773955529,"current_range_meters":8400,"station_id":"ce4bh112rcd13ifvqd90","pricing_plan_id":"cebpf4jnsgd1na2vs0mg"},{"bike_id":"43242b4c-b29b-4ddf-ba90-80232db22b28","system_id":"levelo_inurba_marseille","lat":43.30334,"lon":5.40436,"is_reserved":false,"is_disabled":false,"rental_uris":{"android":"levelo://app?vid=43242b4c-b29b-4ddf-ba90-80232db22b28","ios":"levelo://app?vid=43242b4c-b29b-4ddf-ba90-80232db22b28"},"vehicle_type_id":"4","last_reported":1773955529,"current_range_meters":8400,"station_id":"ce4bh012rcd13ifvqd10","pricing_plan_id":"cebpf4jnsgd1na2vs0mg"},{"bike_id":"8911e592-806c-4ca2-9551-dc6022173986","system_id":"levelo_inurba_marseille","lat":43.32107,"lon":5.36783,"is_reserved":false,"is_disabled":true,"rental_uris":{"android":"levelo://app?vid=8911e592-806c-4ca2-9551-dc6022173986","ios":"levelo://app?vid=8911e592-806c-4ca2-9551-dc6022173986"},"vehicle_type_id":"4","last_reported":1773955529,"current_range_meters":8400,"station_id":"ce4bhrh2rcd13ifvqhug","pricing_plan_id":"cebpf4jnsgd1na2vs0mg"},{"bike_id":"33e015f6-34a2-44b9-a37e-fd5fd3630f6d","system_id":"levelo_inurba_marseille","lat":43.24176,"lon":5.36416,"is_reserved":false,"is_disabled":false,"rental_uris":{"android":"levelo://app?vid=33e015f6-34a2-44b9-a37e-fd5fd3630f6d","ios":"levelo://app?vid=33e015f6-34a2-44b9-a37e-fd5fd3630f6d"},"vehicle_type_id":"4","last_reported":1773955529,"current_range_meters":8400,"station_id":"cpo36qri1sfpv3e86is0","pricing_plan_id":"cebpf4jnsgd1na2vs0mg"},{"bike_id":"35b98144-a8e9-4b84-b91d-3513211f7aa1","system_id":"levelo_inurba_marseille","lat":43.24804,"lon":5.37461,"is_reserved":false,"is_disabled":false,"rental_uris":{"android":"levelo://app?vid=35b98144-a8e9-4b84-b91d-3513211f7aa1","ios":"levelo://app?vid=35b98144-a8e9-4b84-b91d-3513211f7aa1"},"vehicle_type_id":"4","last_reported":1773955529,"current_range_meters":8400,"station_id":"ce4bhgh2rcd13ifvqfb0","pricing_plan_id":"cebpf4jnsgd1na2vs0mg"},{"bike_id":"cf025143-bb1e-4736-aae2-f535301f1e5e","system_id":"levelo_inurba_marseille","lat":43.30337,"lon":5.40426,"is_reserved":false,"is_disabled":false,"rental_uris":{"android":"levelo://app?vid=cf025143-bb1e-4736-aae2-f535301f1e5e","ios":"levelo://app?vid=cf025143-bb1e-4736-aae2-f535301f1e5e"},"vehicle_type_id":"4","last_reported":1773955529,"current_range_meters":8400,"station_id":"ce4bh012rcd13ifvqd10","pricing_plan_id":"cebpf4jnsgd1na2vs0mg"},{"bike_id":"b19a626a-93cd-41bf-8d4f-8b63d7aeec08","system_id":"levelo_inurba_marseille","lat":43.30117,"lon":5.43936,"is_reserved":false,"is_disabled":false,"rental_uris":{"android":"levelo://app?vid=b19a626a-93cd-41bf-8d4f-8b63d7aeec08","ios":"levelo://app?vid=b19a626a-93cd-41bf-8d4f-8b63d7aeec08"},"vehicle_type_id":"4","last_reported":1773955529,"current_range_meters":8400,"station_id":"","pricing_plan_id":"cebpf4jnsgd1na2vs0mg"},{"bike_id":"78bb54cf-5275-4554-9f53-8437367c33f2","system_id":"levelo_inurba_marseille","lat":43.23202,"lon":5.35545,"is_reserved":false,"is_disabled":false,"rental_uris":{"android":"levelo://app?vid=78bb54cf-5275-4554-9f53-8437367c33f2","ios":"levelo://app?vid=78bb54cf-5275-4554-9f53-8437367c33f2"},"vehicle_type_id":"4","last_reported":1773955529,"current_range_meters":8400,"station_id":"ce4bhu92rcd13ifvqi70","pricing_plan_id":"cebpf4jnsgd1na2vs0mg"},{"bike_id":"e08d225b-8f4a-4ce0-895d-d9f7f842408c","system_id":"levelo_inurba_marseille","lat":43.24184,"lon":5.36391,"is_reserved":false,"is_disabled":false,"rental_uris":{"android":"levelo://app?vid=e08d225b-8f4a-4ce0-895d-d9f7f842408c","ios":"levelo://app?vid=e08d225b-8f4a-4ce0-895d-d9f7f842408c"},"vehicle_type_id":"4","last_reported":1773955529,"current_range_meters":8400,"station_id":"cpo36qri1sfpv3e86is0","pricing_plan_id":"cebpf4jnsgd1na2vs0mg"},