{"last_updated":1703250513,"ttl":30,"version":"2.2","data":{"bikes":[{"bike_id":"e616f935-240b-4d67-829c-24e3de67d7e8","system_id":"levelo_inurba_marseille","lat":43.313391,"lon":5.36706,"is_reserved":false,"is_disabled":false,"rental_uris":{"android":"levelo://app?vid=e616f935-240b-4d67-829c-24e3de67d7e8","ios":"levelo://app?vid=e616f935-240b-4d67-829c-24e3de67d7e8"},"vehicle_type_id":"4","last_reported":1703250513,"current_range_meters":28800,"station_id":"ce4bgr92rcd13ifvqc6g","pricing_plan_id":"free"},{"bike_id":"f4bd5d7a-35d7-457f-8f5c-3611d483a900","system_id":"levelo_inurba_marseille","lat":43.313391,"lon":5.36706,"is_reserved":false,"is_disabled":false,"rental_uris":{"android":"levelo://app?vid=f4bd5d7a-35d7-457f-8f5c-3611d483a900","ios":"levelo://app?vid=f4bd5d7a-35d7-457f-8f5c-3611d483a900"},"vehicle_type_id":"4","last_reported":1703250513,"current_range_meters":23600,"station_id":"ce4bgr92rcd13ifvqc6g","pricing_plan_id":"free"},{"bike_id":"61ea5a5d-9237-4652-afe7-eef3dd69c4f1","system_id":"levelo_inurba_marseille","lat":43.31341,"lon":5.367098,"is_reserved":false,"is_disabled":false,"rental_uris":{"android":"levelo://app?vid=61ea5a5d-9237-4652-afe7-eef3dd69c4f1","ios":"levelo://app?vid=61ea5a5d-9237-4652-afe7-eef3dd69c4f1"},"vehicle_type_id":"4","last_reported":1703250513,"current_range_meters":28800,"station_id":"ce4bgr92rcd13ifvqc6g","pricing_plan_id":"free"},{"bike_id":"fa5948ab-141d-43da-8a7b-070662ff9bc3","system_id":"levelo_inurba_marseille","lat":43.312239,"lon":5.368562,"is_reserved":false,"is_disabled":false,"rental_uris":{"android":"levelo://app?vid=fa5948ab-141d-43da-8a7b-070662ff9bc3","ios":"levelo://app?vid=fa5948ab-141d-43da-8a7b-070662ff9bc3"},"vehicle_type_id":"4","last_reported":1703250513,"current_range_meters":31200,"station_id":"ce4bgl92rcd13ifvqbq0","pricing_plan_id":"free"},{"bike_id":"27bda559-c3af-49a7-9edc-bd87c1f5cc4b","system_id":"levelo_inurba_marseille","lat":43.31225,"lon":5.36854,"is_reserved":false,"is_disabled":false,"rental_uris":{"android":"levelo://app?vid=27bda559-c3af-49a7-9edc-bd87c1f5cc4b","ios":"levelo://app?vid=27bda559-c3af-49a7-9edc-bd87c1f5cc4b"},"vehicle_type_id":"4","last_reported":1703250513,"current_range_meters":0,"station_id":"ce4bgl92rcd13ifvqbq0","pricing_plan_id":"free"},{"bike_id":"005b616b-e817-4c63-8e37-c457555addce","system_id":"levelo_inurba_marseille","lat":43.309076,"lon":5.368465,"is_reserved":false,"is_disabled":false,"rental_uris":{"android":"levelo://app?vid=005b616b-e817-4c63-8e37-c457555addce","ios":"levelo://app?vid=005b616b-e817-4c63-8e37-c457555addce"},"vehicle_type_id":"4","last_reported":1703250513,"current_range_meters":0,"station_id":"ce4bgn92rcd13ifvqbvg","pricing_plan_id":"free"},{"bike_id":"3f4a08e3-f8ba-45a4-ae1b-c73fe5b8a49f","system_id":"levelo_inurba_marseille","lat":43.314811,"lon":5.373103,"is_reserved":false,"is_disabled":false,"rental_uris":{"android":"levelo://app?vid=3f4a08e3-f8ba-45a4-ae1b-c73fe5b8a49f","ios":"levelo://app?vid=3f4a08e3-f8ba-45a4-ae1b-c73fe5b8a49f"},"vehicle_type_id":"4","last_reported":1703250513,"current_range_meters":29600,"station_id":"ce4bgt12rcd13ifvqcd0","pricing_plan_id":"free"},{"bike_id":"4355d56f-56e1-4fd1-b662-5b94a88240d0","system_id":"levelo_inurba_marseille","lat":43.314811,"lon":5.373103,"is_reserved":false,"is_disabled":false,"rental_uris":{"android":"levelo://app?vid=4355d56f-56e1-4fd1-b662-5b94a88240d0","ios":"levelo://app?vid=4355d56f-56e1-4fd1-b662-5b94a88240d0"},"vehicle_type_id":"4","last_reported":1703250513,"current_range_meters":30800,"station_id":"ce4bgt12rcd13ifvqcd0","pricing_plan_id":"free"},{"bike_id":"f3e9fdcd-c3b2-4599-a069-0d14d9f59e32","system_id":"levelo_inurba_marseille","lat":43.314811,"lon":5.373103,"is_reserved":false,"is_disabled":false,"rental_uris":{"android":"levelo://app?vid=f3e9fdcd-c3b2-4599-a069-0d14d9f59e32","ios":"levelo://app?vid=f3e9fdcd-c3b2-4599-a069-0d14d9f59e32"},"vehicle_type_id":"4","last_reported":1703250513,"current_range_meters":31600,"station_id":"ce4bgt12rcd13ifvqcd0","pricing_plan_id":"free"},{"bike_id":"ee02304c-c36a-4980-b130-cbb1c44e242a","system_id":"levelo_inurba_marseille","lat":43.305712,"lon":5.365641,"is_reserved":false,"is_disabled":false,"rental_uris":{"android":"levelo://app?vid=ee02304c-c36a-4980-b130-cbb1c44e242a","ios":"levelo://app?vid=ee02304c-c36a-4980-b130-cbb1c44e242a"},"vehicle_type_id":"4","last_reported":1703250513,"current_range_meters":12000,"station_id":"ce4bgs12rcd13ifvqcag","pricing_plan_id":"free"},{"bike_id":"25531028-1f45-4370-8d4d-8054c0f779b3","system_id":"levelo_inurba_marseille","lat":43.305712,"lon":5.365641,"is_reserved":false,"is_disabled":false,"rental_uris":{"android":"levelo://app?vid=25531028-1f45-4370-8d4d-8054c0f779b3","ios":"levelo://app?vid=25531028-1f45-4370-8d4d-8054c0f779b3"},"vehicle_type_id":"4","last_reported":1703250513,"current_range_meters":26800,"station_id":"ce4bgs12rcd13ifvqcag","pricing_plan_id":"free"},{"bike_id":"7d27b1ec-7145-4c49-a6a2-3a78d19f7fa3","system_id":"levelo_inurba_marseille","lat":43.305368,"lon":5.367343,"is_reserved":false,"is_disabled":false,"rental_uris":{"android":"levelo://app?vid=7d27b1ec-7145-4c49-a6a2-3a78d19f7fa3","ios":"levelo://app?vid=7d27b1ec-7145-4c49-a6a2-3a78d19f7fa3"},"vehicle_type_id":"4","last_reported":1703250513,"current_range_meters":15600,"station_id":"ce4bgrp2rcd13ifvqc9g","pricing_plan_id":"free"},{"bike_id":"ec910eeb-fc03-4a03-9fd1-55d811603d77","system_id":"levelo_inurba_marseille","lat":43.30538,"lon":5.36554,"is_reserved":false,"is_disabled":false,"rental_uris":{"android":"levelo://app?vid=ec910eeb-fc03-4a03-9fd1-55d811603d77","ios":"levelo://app?vid=ec910eeb-fc03-4a03-9fd1-55d811603d77"},"vehicle_type_id":"4","last_reported":1703250513,"current_range_meters":17200,"station_id":"ce4bgs12rcd13ifvqcag","pricing_plan_id":"free"},{"bike_id":"c763e495-ea42-44d8-8b10-b86911f11c41","system_id":"levelo_inurba_marseille","lat":43.305368,"lon":5.367343,"is_reserved":false,"is_disabled":false,"rental_uris":{"android":"levelo://app?vid=c763e495-ea42-44d8-8b10-b86911f11c41","ios":"levelo://app?vid=c763e495-ea42-44d8-8b10-b86911f11c41"},"vehicle_type_id":"4","last_reported":1703250513,"current_range_meters":12000,"station_id":"ce4bgrp2rcd13ifvqc9g","pricing_plan_id":"free"},{"bike_id":"63047ba0-b21e-439e-b671-4c4a2f0f6642","system_id":"levelo_inurba_marseille","lat":43.305706,"lon":5.365654,"is_reserved":false,"is_disabled":false,"rental_uris":{"android":"levelo://app?vid=63047ba0-b21e-439e-b671-4c4a2f0f6642","ios":"levelo://app?vid=63047ba0-b21e-439e-b671-4c4a2f0f6642"},"vehicle_type_id":"4","last_reported":1703250513,"current_range_meters":26800,"station_id":"ce4bgs12rcd13ifvqcag","pricing_plan_id":"free"},{"bike_id":"80362fef-d16d-4a62-8637-71e566c6c9c7","system_id":"levelo_inurba_marseille","lat":43.305368,"lon":5.367343,"is_reserved":false,"is_disabled":false,"rental_uris":{"android":"levelo://app?vid=80362fef-d16d-4a62-8637-71e566c6c9c7","ios":"levelo://app?vid=80362fef-d16d-4a62-8637-71e566c6c9c7"},"vehicle_type_id":"4","last_reported":1703250513,"current_range_meters":17600,"station_id":"ce4bgrp2rcd13ifvqc9g","pricing_plan_id":"free"},{"bike_id":"bdf56d72-595a-4109-9819-ae5445485123","system_id":"levelo_inurba_marseille","lat":43.305297,"lon":5.365493,"is_reserved":false,"is_disabled":false,"rental_uris":{"android":"levelo://app?vid=bdf56d72-595a-4109-9819-ae5445485123","ios":"levelo://app?vid=bdf56d72-595a-4109-9819-ae5445485123"},"vehicle_type_id":"4","last_reported":1703250513,"current_range_meters":31200,"station_id":"ce4bgs12rcd13ifvqcag","pricing_plan_id":"free"},{"bike_id":"51b33281-59b1-434c-aa6d-1d5e1dde6dc9","system_id":"levelo_inurba_marseille","lat":43.30527,"lon":5.3655,"is_reserved":false,"is_disabled":false,"rental_uris":{"android":"levelo://app?vid=51b33281-59b1-434c-aa6d-1d5e1dde6dc9","ios":"levelo://app?vid=51b33281-59b1-434c-aa6d-1d5e1dde6dc9"},"vehicle_type_id":"4","last_reported":1703250513,"current_range_meters":28400,"station_id":"ce4bgs12rcd13ifvqcag","pricing_plan_id":"free"},{"bike_id":"38fa1c62-7329-48dc-9ad4-8f9fcda99100","system_id":"levelo_inurba_marseille","lat":43.305706,"lon":5.365654,"is_reserved":false,"is_disabled":false,"rental_uris":{"android":"levelo://app?vid=38fa1c62-7329-48dc-9ad4-8f9fcda99100","ios":"levelo://app?vid=38fa1c62-7329-48dc-9ad4-8f9fcda99100"},"vehicle_type_id":"4","last_reported":1703250513,"current_range_meters":20800,"station_id":"ce4bgs12rcd13ifvqcag","pricing_plan_id":"free"},{"bike_id":"4e0f45fb-465b-46c6-8b7c-c54097437207","system_id":"levelo_inurba_marseille","lat":43.305989,"lon":5.37225,"is_reserved":false,"is_disabled":false,"rental_uris":{"android":"levelo://app?vid=4e0f45fb-465b-46c6-8b7c-c54097437207","ios":"levelo://app?vid=4e0f45fb-465b-46c6-8b7c-c54097437207"},"vehicle_type_id":"4","last_reported":1703250513,"current_range_meters":7600,"station_id":"ce4bgqh2rcd13ifvqc4g","pricing_plan_id":"free"},{"bike_id":"e6a646c6-e177-4192-bd00-480b31099da1","system_id":"levelo_inurba_marseille","lat":43.307945,"lon":5.376487,"is_reserved":false,"is_disabled":false,"rental_uris":{"android":"levelo://app?vid=e6a646c6-e177-4192-bd00-480b31099da1","ios":"levelo://app?vid=e6a646c6-e177-4192-bd00-480b31099da1"},"vehicle_type_id":"4","last_reported":1703250513,"current_range_meters":21200,"station_id":"ce4bgv92rcd13ifvqcq0","pricing_plan_id":"free"},{"bike_id":"e621f788-e0b8-4fda-933f-4b10808ea0de","system_id":"levelo_inurba_marseille","lat":43.307945,"lon":5.376487,"is_reserved":false,"is_disabled":false,"rental_uris":{"android":"levelo://app?vid=e621f788-e0b8-4fda-933f-4b10808ea0de","ios":"levelo://app?vid=e621f788-e0b8-4fda-933f-4b10808ea0de"},"vehicle_type_id":"4","last_reported":1703250513,"current_range_meters":29600,"station_id":"ce4bgv92rcd13ifvqcq0","pricing_plan_id":"free"},{"bike_id":"e3d412e6-d75e-499f-9b12-871b89eb61ea","system_id":"levelo_inurba_marseille","lat":43.307945,"lon":5.376487,"is_reserved":false,"is_disabled":false,"rental_uris":{"android":"levelo://app?vid=e3d412e6-d75e-499f-9b12-871b89eb61ea","ios":"levelo://app?vid=e3d412e6-d75e-499f-9b12-871b89eb61ea"},"vehicle_type_id":"4","last_reported":1703250513,"current_range_meters":26000,"station_id":"ce4bgv92rcd13ifvqcq0","pricing_plan_id":"free"},{"bike_id":"bf21e8be-3e41-4872-8aeb-97e285f448f4","system_id":"levelo_inurba_marseille","lat":43.317075,"lon":5.377367,"is_reserved":false,"is_disabled":false,"rental_uris":{"android":"levelo://app?vid=bf21e8be-3e41-4872-8aeb-97e285f448f4","ios":"levelo://app?vid=bf21e8be-3e41-4872-8aeb-97e285f448f4"},"vehicle_type_id":"4","last_reported":1703250513,"current_range_meters":17200,"station_id":"ce4bgth2rcd13ifvqch0","pricing_plan_id":"free"},{"bike_id":"74825c2b-6989-45ba-a705-62a08781283e","system_id":"levelo_inurba_marseille","lat":43.303046,"lon":5.368981,"is_reserved":false,"is_disabled":false,"rental_uris":{"android":"levelo://app?vid=74825c2b-6989-45ba-a705-62a08781283e","ios":"levelo://app?vid=74825c2b-6989-45ba-a705-62a08781283e"},"vehicle_type_id":"4","last_reported":1703250513,"current_range_meters":4400,"station_id":"ce4bgqh2rcd13ifvqc5g","pricing_plan_id":"free"},{"bike_id":"ed5e5540-f3ca-40ff-8659-85c1795751b7","system_id":"levelo_inurba_marseille","lat":43.303046,"lon":5.368981,"is_reserved":false,"is_disabled":false,"rental_uris":{"android":"levelo://app?vid=ed5e5540-f3ca-40ff-8659-85c1795751b7","ios":"levelo://app?vid=ed5e5540-f3ca-40ff-8659-85c1795751b7"},"vehicle_type_id":"4","last_reported":1703250513,"current_range_meters":0,"station_id":"ce4bgqh2rcd13ifvqc5g","pricing_plan_id":"free"},{"bike_id":"740b3da7-95ee-4369-bab7-9249a58240f5","system_id":"levelo_inurba_marseille","lat":43.30304,"lon":5.368987,"is_reserved":false,"is_disabled":false,"rental_uris":{"android":"levelo://app?vid=740b3da7-95ee-4369-bab7-9249a58240f5","ios":"levelo://app?vid=740b3da7-95ee-4369-bab7-9249a58240f5"},"vehicle_type_id":"4","last_reported":1703250513,"current_range_meters":22000,"station_id":"ce4bgqh2rcd13ifvqc5g","pricing_plan_id":"free"},{"bike_id":"e446cab9-225e-41b5-8e2f-2794f16def46","system_id":"levelo_inurba_marseille","lat":43.30304,"lon":5.368987,"is_reserved":false,"is_disabled":false,"rental_uris":{"android":"levelo://app?vid=e446cab9-225e-41b5-8e2f-2794f16def46","ios":"levelo://app?vid=e446cab9-225e-41b5-8e2f-2794f16def46"},"vehicle_type_id":"4","last_reported":1703250513,"current_range_meters":22000,"station_id":"ce4bgqh2rcd13ifvqc5g","pricing_plan_id":"free"},{"bike_id":"cf23fcc8-d18b-4284-a77c-6b92ec7b59dd","system_id":"levelo_inurba_marseille","lat":43.303046,"lon":5.368981,"is_reserved":false,"is_disabled":false,"rental_uris":{"android":"levelo://app?vid=cf23fcc8-d18b-4284-a77c-6b92ec7b59dd","ios":"levelo://app?vid=cf23fcc8-d18b-4284-a77c-6b92ec7b59dd"},"vehicle_type_id":"4","last_reported":1703250513,"current_range_meters":24400,"station_id":"ce4bgqh2rcd13ifvqc5g","pricing_plan_id":"free"},{"bike_id":"fef78d3e-69d2-4fb3-9a28-267858745954","system_id":"levelo_inurba_marseille","lat":43.301939,"lon":5.366286,"is_reserved":false,"is_disabled":false,"rental_uris":{"android":"levelo://app?vid=fef78d3e-69d2-4fb3-9a28-267858745954","ios":"levelo://app?vid=fef78d3e-69d2-4fb3-9a28-267858745954"},"vehicle_type_id":"4","last_reported":1703250513,"current_range_meters":10400,"station_id":"ce4bgrh2rcd13ifvqc8g","pricing_plan_id":"free"},{"bike_id":"da144654-6600-451c-87f9-a6415727abb2","system_id":"levelo_inurba_marseille","lat":43.301939,"lon":5.366286,"is_reserved":false,"is_disabled":false,"rental_uris":{"android":"levelo://app?vid=da144654-6600-451c-87f9-a6415727abb2","ios":"levelo://app?vid=da144654-6600-451c-87f9-a6415727abb2"},"vehicle_type_id":"4","last_reported":1703250513,"current_range_meters":26400,"station_id":"ce4bgrh2rcd13ifvqc8g","pricing_plan_id":"free"},{"bike_id":"15973805-0110-4b9c-8030-e89b6783aed8","system_id":"levelo_inurba_marseille","lat":43.308012,"lon":5.381511,"is_reserved":false,"is_disabled":false,"rental_uris":{"android":"levelo://app?vid=15973805-0110-4b9c-8030-e89b6783aed8","ios":"levelo://app?vid=15973805-0110-4b9c-8030-e89b6783aed8"},"vehicle_type_id":"4","last_reported":1703250513,"current_range_meters":11200,"station_id":"ce4bgt12rcd13ifvqce0","pricing_plan_id":"free"},{"bike_id":"a940099d-aa66-4662-b025-9649e564de21","system_id":"levelo_inurba_marseille","lat":43.308012,"lon":5.381511,"is_reserved":false,"is_disabled":false,"rental_uris":{"android":"levelo://app?vid=a940099d-aa66-4662-b025-9649e564de21","ios":"levelo://app?vid=a940099d-aa66-4662-b025-9649e564de21"},"vehicle_type_id":"4","last_reported":1703250513,"current_range_meters":13600,"station_id":"ce4bgt12rcd13ifvqce0","pricing_plan_id":"free"},{"bike_id":"015da911-5c3d-4528-b12e-b1fca154be68","system_id":"levelo_inurba_marseille","lat":43.308012,"lon":5.381511,"is_reserved":false,"is_disabled":false,"rental_uris":{"android":"levelo://app?vid=015da911-5c3d-4528-b12e-b1fca154be68","ios":"levelo://app?vid=015da911-5c3d-4528-b12e-b1fca154be68"},"vehicle_type_id":"4","last_reported":1703250513,"current_range_meters":13200,"station_id":"ce4bgt12rcd13ifvqce0","pricing_plan_id":"free"},{"bike_id":"9eb67c36-0175-4e28-bb7c-a84831dcd841","system_id":"levelo_inurba_marseille","lat":43.308012,"lon":5.381511,"is_reserved":false,"is_disabled":false,"rental_uris":{"android":"levelo://app?vid=9eb67c36-0175-4e28-bb7c-a84831dcd841","ios":"levelo://app?vid=9eb67c36-0175-4e28-bb7c-a84831dcd841"},"vehicle_type_id":"4","last_reported":1703250513,"current_range_meters":29200,"station_id":"ce4bgt12rcd13ifvqce0","pricing_plan_id":"free"},{"bike_id":"ad7a1a00-1823-415d-99b1-48af7bd597cb","system_id":"levelo_inurba_marseille","lat":43.30471,"lon":5.37899,"is_reserved":false,"is_disabled":false,"rental_uris":{"android":"levelo://app?vid=ad7a1a00-1823-415d-99b1-48af7bd597cb","ios":"levelo://app?vid=ad7a1a00-1823-415d-99b1-48af7bd597cb"},"vehicle_type_id":"4","last_reported":1703250513,"current_range_meters":23600,"station_id":"ce4bgup2rcd13ifvqcn0","pricing_plan_id":"free"},{"bike_id":"08c9a0af-8a62-40b1-9749-562892a5e4fc","system_id":"levelo_inurba_marseille","lat":43.304606,"lon":5.379026,"is_reserved":false,"is_disabled":false,"rental_uris":{"android":"levelo://app?vid=08c9a0af-8a62-40b1-9749-562892a5e4fc","ios":"levelo://app?vid=08c9a0af-8a62-40b1-9749-562892a5e4fc"},"vehicle_type_id":"4","last_reported":1703250513,"current_range_meters":21600,"station_id":"ce4bgup2rcd13ifvqcn0","pricing_plan_id":"free"},{"bike_id":"63292d06-4794-4ec8-92f3-dce6562bbee4","system_id":"levelo_inurba_marseille","lat":43.304606,"lon":5.379026,"is_reserved":false,"is_disabled":false,"rental_uris":{"android":"levelo://app?vid=63292d06-4794-4ec8-92f3-dce6562bbee4","ios":"levelo://app?vid=63292d06-4794-4ec8-92f3-dce6562bbee4"},"vehicle_type_id":"4","last_reported":1703250513,"current_range_meters":18400,"station_id":"ce4bgup2rcd13ifvqcn0","pricing_plan_id":"free"},{"bike_id":"ea63f5ff-ed2a-4a1c-a64b-fef4232b63de","system_id":"levelo_inurba_marseille","lat":43.324771,"lon":5.36557,"is_reserved":false,"is_disabled":false,"rental_uris":{"android":"levelo://app?vid=ea63f5ff-ed2a-4a1c-a64b-fef4232b63de","ios":"levelo://app?vid=ea63f5ff-ed2a-4a1c-a64b-fef4232b63de"},"vehicle_type_id":"4","last_reported":1703250513,"current_range_meters":30400,"station_id":"ce4bhs12rcd13ifvqhvg","pricing_plan_id":"free"},{"bike_id":"db25aef5-d03c-4f47-8bf8-a05f19df6e66","system_id":"levelo_inurba_marseille","lat":43.301429,"lon":5.37413,"is_reserved":false,"is_disabled":false,"rental_uris":{"android":"levelo://app?vid=db25aef5-d03c-4f47-8bf8-a05f19df6e66","ios":"levelo://app?vid=db25aef5-d03c-4f47-8bf8-a05f19df6e66"},"vehicle_type_id":"4","last_reported":1703250513,"current_range_meters":28000,"station_id":"ce4bgs92rcd13ifvqcc0","pricing_plan_id":"free"},{"bike_id":"56ac732e-3ba7-4965-93d2-ed42e2687b02","system_id":"levelo_inurba_marseille","lat":43.30304,"lon":5.368987,"is_reserved":false,"is_disabled":false,"rental_uris":{"android":"levelo://app?vid=56ac732e-3ba7-4965-93d2-ed42e2687b02","ios":"levelo://app?vid=56ac732e-3ba7-4965-93d2-ed42e2687b02"},"vehicle_type_id":"4","last_reported":1703250513,"current_range_meters":12400,"station_id":"ce4bgqh2rcd13ifvqc5g","pricing_plan_id":"free"},{"bike_id":"0effb7f6-23e5-4f02-a1eb-80bdf14a191a","system_id":"levelo_inurba_marseille","lat":43.31991,"lon":5.38146,"is_reserved":false,"is_disabled":false,"rental_uris":{"android":"levelo://app?vid=0effb7f6-23e5-4f02-a1eb-80bdf14a191a","ios":"levelo://app?vid=0effb7f6-23e5-4f02-a1eb-80bdf14a191a"},"vehicle_type_id":"4","last_reported":1703250513,"current_range_meters":28800,"station_id":"ce4bhr12rcd13ifvqhpg","pricing_plan_id":"free"},{"bike_id":"dc0f6af5-c02c-4610-baea-e5c6ca16f530","system_id":"levelo_inurba_marseille","lat":43.3199,"lon":5.38149,"is_reserved":false,"is_disabled":false,"rental_uris":{"android":"levelo://app?vid=dc0f6af5-c02c-4610-baea-e5c6ca16f530","ios":"levelo://app?vid=dc0f6af5-c02c-4610-baea-e5c6ca16f530"},"vehicle_type_id":"4","last_reported":1703250513,"current_range_meters":29200,"station_id":"ce4bhr12rcd13ifvqhpg","pricing_plan_id":"free"},{"bike_id":"51360f23-00df-4b8c-b369-faeb35be788d","system_id":"levelo_inurba_marseille","lat":43.31998,"lon":5.38152,"is_reserved":false,"is_disabled":false,"rental_uris":{"android":"levelo://app?vid=51360f23-00df-4b8c-b369-faeb35be788d","ios":"levelo://app?vid=51360f23-00df-4b8c-b369-faeb35be788d"},"vehicle_type_id":"4","last_reported":1703250513,"current_range_meters":26800,"station_id":"ce4bhr12rcd13ifvqhpg","pricing_plan_id":"free"},{"bike_id":"af0ab532-e26f-41d4-b9ce-17ae08ae4cee","system_id":"levelo_inurba_marseille","lat":43.320005,"lon":5.381601,"is_reserved":false,"is_disabled":false,"rental_uris":{"android":"levelo://app?vid=af0ab532-e26f-41d4-b9ce-17ae08ae4cee","ios":"levelo://app?vid=af0ab532-e26f-41d4-b9ce-17ae08ae4cee"},"vehicle_type_id":"4","last_reported":1703250513,"current_range_meters":6400,"station_id":"ce4bhr12rcd13ifvqhpg","pricing_plan_id":"free"},{"bike_id":"1591e0de-2f98-4df2-9d3e-3827336292bc","system_id":"levelo_inurba_marseille","lat":43.313571,"lon":5.384829,"is_reserved":false,"is_disabled":false,"rental_uris":{"android":"levelo://app?vid=1591e0de-2f98-4df2-9d3e-3827336292bc","ios":"levelo://app?vid=1591e0de-2f98-4df2-9d3e-3827336292bc"},"vehicle_type_id":"4","last_reported":1703250513,"current_range_meters":31600,"station_id":"ce4bgt92rcd13ifvqcf0","pricing_plan_id":"free"},{"bike_id":"76d07592-c5de-44bc-82ce-20bb1cf64d0c","system_id":"levelo_inurba_marseille","lat":43.313571,"lon":5.384829,"is_reserved":false,"is_disabled":false,"rental_uris":{"android":"levelo://app?vid=76d07592-c5de-44bc-82ce-20bb1cf64d0c","ios":"levelo://app?vid=76d07592-c5de-44bc-82ce-20bb1cf64d0c"},"vehicle_type_id":"4","last_reported":1703250513,"current_range_meters":8400,"station_id":"ce4bgt92rcd13ifvqcf0","pricing_plan_id":"free"},{"bike_id":"5e0c5f3b-c944-4b46-8381-ea5707f8977c","system_id":"levelo_inurba_marseille","lat":43.299724,"lon":5.371829,"is_reserved":false,"is_disabled":false,"rental_uris":{"android":"levelo://app?vid=5e0c5f3b-c944-4b46-8381-ea5707f8977c","ios":"levelo://app?vid=5e0c5f3b-c944-4b46-8381-ea5707f8977c"},"vehicle_type_id":"4","last_reported":1703250513,"current_range_meters":26400,"station_id":"ce4bgr92rcd13ifvqc7g","pricing_plan_id":"free"},{"bike_id":"07ac9375-19d0-4626-a7c6-d62791dc1075","system_id":"levelo_inurba_marseille","lat":43.299222,"lon":5.365554,"is_reserved":false,"is_disabled":false,"rental_uris":{"android":"levelo://app?vid=07ac9375-19d0-4626-a7c6-d62791dc1075","ios":"levelo://app?vid=07ac9375-19d0-4626-a7c6-d62791dc1075"},"vehicle_type_id":"4","last_reported":1703250513,"current_range_meters":8400,"station_id":"ce4bgm92rcd13ifvqbr0","pricing_plan_id":"free"},{"bike_id":"f7cf065e-684a-48f5-9f8c-2a5ca75b59fe","system_id":"levelo_inurba_marseille","lat":43.299222,"lon":5.365554,"is_reserved":false,"is_disabled":false,"rental_uris":{"android":"levelo://app?vid=f7cf065e-684a-48f5-9f8c-2a5ca75b59fe","ios":"levelo://app?vid=f7cf065e-684a-48f5-9f8c-2a5ca75b59fe"},"vehicle_type_id":"4","last_reported":1703250513,"current_range_meters":18000,"station_id":"ce4bgm92rcd13ifvqbr0","pricing_plan_id":"free"},{"bike_id":"b81c0309-79bc-4228-af87-d556cb819694","system_id":"levelo_inurba_marseille","lat":43.299724,"lon":5.371829,"is_reserved":false,"is_disabled":false,"rental_uris":{"android":"levelo://app?vid=b81c0309-79bc-4228-af87-d556cb819694","ios":"levelo://app?vid=b81c0309-79bc-4228-af87-d556cb819694"},"vehicle_type_id":"4","last_reported":1703250513,"current_range_meters":22000,"station_id":"ce4bgr92rcd13ifvqc7g","pricing_plan_id":"free"},{"bike_id":"ea6056b2-676a-4f76-ab64-9d9bc79e6f81","system_id":"levelo_inurba_marseille","lat":43.299724,"lon":5.371829,"is_reserved":false,"is_disabled":false,"rental_uris":{"android":"levelo://app?vid=ea6056b2-676a-4f76-ab64-9d9bc79e6f81","ios":"levelo://app?vid=ea6056b2-676a-4f76-ab64-9d9bc79e6f81"},"vehicle_type_id":"4","last_reported":1703250513,"current_range_meters":25200,"station_id":"ce4bgr92rcd13ifvqc7g","pricing_plan_id":"free"},{"bike_id":"3de175a8-b5e2-4490-9d5d-3211b27fe39c","system_id":"levelo_inurba_marseille","lat":43.299724,"lon":5.371829,"is_reserved":false,"is_disabled":false,"rental_uris":{"android":"levelo://app?vid=3de175a8-b5e2-4490-9d5d-3211b27fe39c","ios":"levelo://app?vid=3de175a8-b5e2-4490-9d5d-3211b27fe39c"},"vehicle_type_id":"4","last_reported":1703250513,"current_range_meters":8000,"station_id":"ce4bgr92rcd13ifvqc7g","pricing_plan_id":"free"},{"bike_id":"cd61fe01-2166-463c-b1bf-42ba98165de1","system_id":"levelo_inurba_marseille","lat":43.305364,"lon":5.384119,"is_reserved":false,"is_disabled":false,"rental_uris":{"android":"levelo://app?vid=cd61fe01-2166-463c-b1bf-42ba98165de1","ios":"levelo://app?vid=cd61fe01-2166-463c-b1bf-42ba98165de1"},"vehicle_type_id":"4","last_reported":1703250513,"current_range_meters":16800,"station_id":"ce4bgg92rcd13ifvqb30","pricing_plan_id":"free"},{"bike_id":"d2acf4e4-204b-4add-a3f0-b65d309c0805","system_id":"levelo_inurba_marseille","lat":43.299243,"lon":5.37481,"is_reserved":false,"is_disabled":false,"rental_uris":{"android":"levelo://app?vid=d2acf4e4-204b-4add-a3f0-b65d309c0805","ios":"levelo://app?vid=d2acf4e4-204b-4add-a3f0-b65d309c0805"},"vehicle_type_id":"4","last_reported":1703250513,"current_range_meters":19600,"station_id":"ce4bgjh2rcd13ifvqbg0","pricing_plan_id":"free"},{"bike_id":"7a3bbe3a-998e-44ae-87c6-dd227d3231d8","system_id":"levelo_inurba_marseille","lat":43.298433,"lon":5.362774,"is_reserved":false,"is_disabled":false,"rental_uris":{"android":"levelo://app?vid=7a3bbe3a-998e-44ae-87c6-dd227d3231d8","ios":"levelo://app?vid=7a3bbe3a-998e-44ae-87c6-dd227d3231d8"},"vehicle_type_id":"4","last_reported":1703250513,"current_range_meters":28000,"station_id":"ce4bgpp2rcd13ifvqc3g","pricing_plan_id":"free"},{"bike_id":"6f00089d-c7f3-4cfb-ab36-e7831ccce3db","system_id":"levelo_inurba_marseille","lat":43.292311,"lon":5.360731,"is_reserved":false,"is_disabled":false,"rental_uris":{"android":"levelo://app?vid=6f00089d-c7f3-4cfb-ab36-e7831ccce3db","ios":"levelo://app?vid=6f00089d-c7f3-4cfb-ab36-e7831ccce3db"},"vehicle_type_id":"4","last_reported":1703250513,"current_range_meters":8400,"station_id":"ce4bhbh2rcd13ifvqeqg","pricing_plan_id":"free"},{"bike_id":"6b98434a-b0fa-4cd7-b2ef-3b7bb036dbee","system_id":"levelo_inurba_marseille","lat":43.305364,"lon":5.384119,"is_reserved":false,"is_disabled":false,"rental_uris":{"android":"levelo://app?vid=6b98434a-b0fa-4cd7-b2ef-3b7bb036dbee","ios":"levelo://app?vid=6b98434a-b0fa-4cd7-b2ef-3b7bb036dbee"},"vehicle_type_id":"4","last_reported":1703250513,"current_range_meters":11200,"station_id":"ce4bgg92rcd13ifvqb30","pricing_plan_id":"free"},{"bike_id":"1792f3c4-ea68-4e3c-bcf0-d8db7c2b4c5c","system_id":"levelo_inurba_marseille","lat":43.299243,"lon":5.374807,"is_reserved":false,"is_disabled":false,"rental_uris":{"android":"levelo://app?vid=1792f3c4-ea68-4e3c-bcf0-d8db7c2b4c5c","ios":"levelo://app?vid=1792f3c4-ea68-4e3c-bcf0-d8db7c2b4c5c"},"vehicle_type_id":"4","last_reported":1703250513,"current_range_meters":18400,"station_id":"ce4bgjh2rcd13ifvqbg0","pricing_plan_id":"free"},{"bike_id":"a4170d26-fe94-4121-a8e7-728173f260e9","system_id":"levelo_inurba_marseille","lat":43.29841,"lon":5.36269,"is_reserved":false,"is_disabled":false,"rental_uris":{"android":"levelo://app?vid=a4170d26-fe94-4121-a8e7-728173f260e9","ios":"levelo://app?vid=a4170d26-fe94-4121-a8e7-728173f260e9"},"vehicle_type_id":"4","last_reported":1703250513,"current_range_meters":30800,"station_id":"ce4bgpp2rcd13ifvqc3g","pricing_plan_id":"free"},{"bike_id":"4874f5e8-6ba2-48b5-b9c6-0b8b9fb1711a","system_id":"levelo_inurba_marseille","lat":43.299243,"lon":5.374807,"is_reserved":false,"is_disabled":false,"rental_uris":{"android":"levelo://app?vid=4874f5e8-6ba2-48b5-b9c6-0b8b9fb1711a","ios":"levelo://app?vid=4874f5e8-6ba2-48b5-b9c6-0b8b9fb1711a"},"vehicle_type_id":"4","last_reported":1703250513,"current_range_meters":28800,"station_id":"ce4bgjh2rcd13ifvqbg0","pricing_plan_id":"free"},{"bike_id":"97561c64-1771-466e-a7b1-d7914393bc53","system_id":"levelo_inurba_marseille","lat":43.29911,"lon":5.37481,"is_reserved":false,"is_disabled":false,"rental_uris":{"android":"levelo://app?vid=97561c64-1771-466e-a7b1-d7914393bc53","ios":"levelo://app?vid=97561c64-1771-466e-a7b1-d7914393bc53"},"vehicle_type_id":"4","last_reported":1703250513,"current_range_meters":30400,"station_id":"ce4bgjh2rcd13ifvqbg0","pricing_plan_id":"free"},{"bike_id":"224c455b-b43c-4eae-a9d2-f41e67d5d380","system_id":"levelo_inurba_marseille","lat":43.29907,"lon":5.37473,"is_reserved":false,"is_disabled":false,"rental_uris":{"android":"levelo://app?vid=224c455b-b43c-4eae-a9d2-f41e67d5d380","ios":"levelo://app?vid=224c455b-b43c-4eae-a9d2-f41e67d5d380"},"vehicle_type_id":"4","last_reported":1703250513,"current_range_meters":6400,"station_id":"ce4bgjh2rcd13ifvqbg0","pricing_plan_id":"free"},{"bike_id":"c2a8e2b4-3191-4f0b-be14-d6bf2f8fd2da","system_id":"levelo_inurba_marseille","lat":43.322872,"lon":5.382756,"is_reserved":false,"is_disabled":false,"rental_uris":{"android":"levelo://app?vid=c2a8e2b4-3191-4f0b-be14-d6bf2f8fd2da","ios":"levelo://app?vid=c2a8e2b4-3191-4f0b-be14-d6bf2f8fd2da"},"vehicle_type_id":"4","last_reported":1703250513,"current_range_meters":400,"station_id":"ce4bhr12rcd13ifvqhqg","pricing_plan_id":"free"},{"bike_id":"525f6ec1-c089-48ad-8216-d8e073aa768d","system_id":"levelo_inurba_marseille","lat":43.32829,"lon":5.36675,"is_reserved":false,"is_disabled":false,"rental_uris":{"android":"levelo://app?vid=525f6ec1-c089-48ad-8216-d8e073aa768d","ios":"levelo://app?vid=525f6ec1-c089-48ad-8216-d8e073aa768d"},"vehicle_type_id":"4","last_reported":1703250513,"current_range_meters":7600,"station_id":"ce4bhs92rcd13ifvqi0g","pricing_plan_id":"free"},{"bike_id":"b93b01f5-604a-4a62-8b31-422a7e058281","system_id":"levelo_inurba_marseille","lat":43.3283,"lon":5.36678,"is_reserved":false,"is_disabled":false,"rental_uris":{"android":"levelo://app?vid=b93b01f5-604a-4a62-8b31-422a7e058281","ios":"levelo://app?vid=b93b01f5-604a-4a62-8b31-422a7e058281"},"vehicle_type_id":"4","last_reported":1703250513,"current_range_meters":5600,"station_id":"ce4bhs92rcd13ifvqi0g","pricing_plan_id":"free"},{"bike_id":"11914dde-91de-4fdf-ab24-de472b689ba3","system_id":"levelo_inurba_marseille","lat":43.32835,"lon":5.36677,"is_reserved":false,"is_disabled":false,"rental_uris":{"android":"levelo://app?vid=11914dde-91de-4fdf-ab24-de472b689ba3","ios":"levelo://app?vid=11914dde-91de-4fdf-ab24-de472b689ba3"},"vehicle_type_id":"4","last_reported":1703250513,"current_range_meters":0,"station_id":"ce4bhs92rcd13ifvqi0g","pricing_plan_id":"free"},{"bike_id":"7416a77a-8a3f-436e-9f95-08cb9bbbd166","system_id":"levelo_inurba_marseille","lat":43.297163,"lon":5.365866,"is_reserved":false,"is_disabled":false,"rental_uris":{"android":"levelo://app?vid=7416a77a-8a3f-436e-9f95-08cb9bbbd166","ios":"levelo://app?vid=7416a77a-8a3f-436e-9f95-08cb9bbbd166"},"vehicle_type_id":"4","last_reported":1703250513,"current_range_meters":18000,"station_id":"ce4bgn12rcd13ifvqbt0","pricing_plan_id":"free"},{"bike_id":"1ca5ba56-1c12-44ba-a7be-f0db60804dd8","system_id":"levelo_inurba_marseille","lat":43.29585,"lon":5.36734,"is_reserved":false,"is_disabled":false,"rental_uris":{"android":"levelo://app?vid=1ca5ba56-1c12-44ba-a7be-f0db60804dd8","ios":"levelo://app?vid=1ca5ba56-1c12-44ba-a7be-f0db60804dd8"},"vehicle_type_id":"4","last_reported":1703250513,"current_range_meters":29200,"station_id":"ce4bgph2rcd13ifvqc2g","pricing_plan_id":"free"},{"bike_id":"712716c6-3f6d-4179-9549-b2df05048f5f","system_id":"levelo_inurba_marseille","lat":43.29617,"lon":5.37152,"is_reserved":false,"is_disabled":false,"rental_uris":{"android":"levelo://app?vid=712716c6-3f6d-4179-9549-b2df05048f5f","ios":"levelo://app?vid=712716c6-3f6d-4179-9549-b2df05048f5f"},"vehicle_type_id":"4","last_reported":1703250513,"current_range_meters":31200,"station_id":"ce4bgk12rcd13ifvqbj0","pricing_plan_id":"free"},{"bike_id":"d0f589bd-9285-4190-a498-61feccd1ab92","system_id":"levelo_inurba_marseille","lat":43.317557,"lon":5.390173,"is_reserved":false,"is_disabled":false,"rental_uris":{"android":"levelo://app?vid=d0f589bd-9285-4190-a498-61feccd1ab92","ios":"levelo://app?vid=d0f589bd-9285-4190-a498-61feccd1ab92"},"vehicle_type_id":"4","last_reported":1703250513,"current_range_meters":31200,"station_id":"ce4bhqp2rcd13ifvqhng","pricing_plan_id":"free"},{"bike_id":"53d02047-2fc2-4d30-88b2-583fd58923ab","system_id":"levelo_inurba_marseille","lat":43.317557,"lon":5.390173,"is_reserved":false,"is_disabled":false,"rental_uris":{"android":"levelo://app?vid=53d02047-2fc2-4d30-88b2-583fd58923ab","ios":"levelo://app?vid=53d02047-2fc2-4d30-88b2-583fd58923ab"},"vehicle_type_id":"4","last_reported":1703250513,"current_range_meters":31200,"station_id":"ce4bhqp2rcd13ifvqhng","pricing_plan_id":"free"},{"bike_id":"7f092d23-663e-473f-a2f1-414bf1584f66","system_id":"levelo_inurba_marseille","lat":43.298037,"lon":5.381066,"is_reserved":false,"is_disabled":false,"rental_uris":{"android":"levelo://app?vid=7f092d23-663e-473f-a2f1-414bf1584f66","ios":"levelo://app?vid=7f092d23-663e-473f-a2f1-414bf1584f66"},"vehicle_type_id":"4","last_reported":1703250513,"current_range_meters":21600,"station_id":"ce4bgip2rcd13ifvqbb0","pricing_plan_id":"free"},{"bike_id":"ab7f5818-af07-48c0-acd8-b36454a60b1e","system_id":"levelo_inurba_marseille","lat":43.304274,"lon":5.388873,"is_reserved":false,"is_disabled":false,"rental_uris":{"android":"levelo://app?vid=ab7f5818-af07-48c0-acd8-b36454a60b1e","ios":"levelo://app?vid=ab7f5818-af07-48c0-acd8-b36454a60b1e"},"vehicle_type_id":"4","last_reported":1703250513,"current_range_meters":24000,"station_id":"ce4bgk12rcd13ifvqbi0","pricing_plan_id":"free"},{"bike_id":"95bc0f58-7301-48ef-acd2-6faa7ee2175a","system_id":"levelo_inurba_marseille","lat":43.298037,"lon":5.381066,"is_reserved":false,"is_disabled":false,"rental_uris":{"android":"levelo://app?vid=95bc0f58-7301-48ef-acd2-6faa7ee2175a","ios":"levelo://app?vid=95bc0f58-7301-48ef-acd2-6faa7ee2175a"},"vehicle_type_id":"4","last_reported":1703250513,"current_range_meters":23200,"station_id":"ce4bgip2rcd13ifvqbb0","pricing_plan_id":"free"},{"bike_id":"1378810b-812d-44e5-847a-1b7aeb90e4c4","system_id":"levelo_inurba_marseille","lat":43.299,"lon":5.38357,"is_reserved":false,"is_disabled":false,"rental_uris":{"android":"levelo://app?vid=1378810b-812d-44e5-847a-1b7aeb90e4c4","ios":"levelo://app?vid=1378810b-812d-44e5-847a-1b7aeb90e4c4"},"vehicle_type_id":"4","last_reported":1703250513,"current_range_meters":4400,"station_id":"","pricing_plan_id":"free"},{"bike_id":"065b9881-72f8-432b-9685-6a434d241473","system_id":"levelo_inurba_marseille","lat":43.299724,"lon":5.384848,"is_reserved":false,"is_disabled":false,"rental_uris":{"android":"levelo://app?vid=065b9881-72f8-432b-9685-6a434d241473","ios":"levelo://app?vid=065b9881-72f8-432b-9685-6a434d241473"},"vehicle_type_id":"4","last_reported":1703250513,"current_range_meters":29600,"station_id":"ce4bgj92rcd13ifvqbd0","pricing_plan_id":"free"},{"bike_id":"7919eadd-c520-4cda-9196-5dc5695e55f6","system_id":"levelo_inurba_marseille","lat":43.29821,"lon":5.38272,"is_reserved":false,"is_disabled":false,"rental_uris":{"android":"levelo://app?vid=7919eadd-c520-4cda-9196-5dc5695e55f6","ios":"levelo://app?vid=7919eadd-c520-4cda-9196-5dc5695e55f6"},"vehicle_type_id":"4","last_reported":1703250513,"current_range_meters":6000,"station_id":"","pricing_plan_id":"free"},{"bike_id":"b8887706-995f-4928-9c6f-cc0e6a6d6254","system_id":"levelo_inurba_marseille","lat":43.299717,"lon":5.384845,"is_reserved":false,"is_disabled":false,"rental_uris":{"android":"levelo://app?vid=b8887706-995f-4928-9c6f-cc0e6a6d6254","ios":"levelo://app?vid=b8887706-995f-4928-9c6f-cc0e6a6d6254"},"vehicle_type_id":"4","last_reported":1703250513,"current_range_meters":20000,"station_id":"ce4bgj92rcd13ifvqbd0","pricing_plan_id":"free"},{"bike_id":"5a19d38c-5b19-4003-a8bb-996e04c8ba15","system_id":"levelo_inurba_marseille","lat":43.295279,"lon":5.375048,"is_reserved":false,"is_disabled":false,"rental_uris":{"android":"levelo://app?vid=5a19d38c-5b19-4003-a8bb-996e04c8ba15","ios":"levelo://app?vid=5a19d38c-5b19-4003-a8bb-996e04c8ba15"},"vehicle_type_id":"4","last_reported":1703250513,"current_range_meters":1200,"station_id":"ce4bgkp2rcd13ifvqbmg","pricing_plan_id":"free"},{"bike_id":"4ba4df02-9968-4093-bd71-90fd26886c1b","system_id":"levelo_inurba_marseille","lat":43.32367,"lon":5.388836,"is_reserved":false,"is_disabled":false,"rental_uris":{"android":"levelo://app?vid=4ba4df02-9968-4093-bd71-90fd26886c1b","ios":"levelo://app?vid=4ba4df02-9968-4093-bd71-90fd26886c1b"},"vehicle_type_id":"4","last_reported":1703250513,"current_range_meters":13200,"station_id":"ce4bhqp2rcd13ifvqhog","pricing_plan_id":"free"},{"bike_id":"7eada8fb-8c59-41ea-ae15-1164bd9fc1af","system_id":"levelo_inurba_marseille","lat":43.316355,"lon":5.393461,"is_reserved":false,"is_disabled":false,"rental_uris":{"android":"levelo://app?vid=7eada8fb-8c59-41ea-ae15-1164bd9fc1af","ios":"levelo://app?vid=7eada8fb-8c59-41ea-ae15-1164bd9fc1af"},"vehicle_type_id":"4","last_reported":1703250513,"current_range_meters":30800,"station_id":"","pricing_plan_id":"free"},{"bike_id":"3dcd3a9d-fe1b-4339-b76c-c742025199c8","system_id":"levelo_inurba_marseille","lat":43.305994,"lon":5.393687,"is_reserved":false,"is_disabled":false,"rental_uris":{"android":"levelo://app?vid=3dcd3a9d-fe1b-4339-b76c-c742025199c8","ios":"levelo://app?vid=3dcd3a9d-fe1b-4339-b76c-c742025199c8"},"vehicle_type_id":"4","last_reported":1703250513,"current_range_meters":1200,"station_id":"ce4bh0p2rcd13ifvqd80","pricing_plan_id":"free"},{"bike_id":"08672454-4bbc-437d-9295-b0b15688b6a1","system_id":"levelo_inurba_marseille","lat":43.305994,"lon":5.393687,"is_reserved":false,"is_disabled":false,"rental_uris":{"android":"levelo://app?vid=08672454-4bbc-437d-9295-b0b15688b6a1","ios":"levelo://app?vid=08672454-4bbc-437d-9295-b0b15688b6a1"},"vehicle_type_id":"4","last_reported":1703250513,"current_range_meters":28000,"station_id":"ce4bh0p2rcd13ifvqd80","pricing_plan_id":"free"},{"bike_id":"71e71a18-2d9a-4e49-b8c4-72ed2548ddb0","system_id":"levelo_inurba_marseille","lat":43.305994,"lon":5.393687,"is_reserved":false,"is_disabled":false,"rental_uris":{"android":"levelo://app?vid=71e71a18-2d9a-4e49-b8c4-72ed2548ddb0","ios":"levelo://app?vid=71e71a18-2d9a-4e49-b8c4-72ed2548ddb0"},"vehicle_type_id":"4","last_reported":1703250513,"current_range_meters":23200,"station_id":"ce4bh0p2rcd13ifvqd80","pricing_plan_id":"free"},{"bike_id":"49d4c656-212d-4ea8-8d41-275072787af5","system_id":"levelo_inurba_marseille","lat":43.305994,"lon":5.393687,"is_reserved":false,"is_disabled":false,"rental_uris":{"android":"levelo://app?vid=49d4c656-212d-4ea8-8d41-275072787af5","ios":"levelo://app?vid=49d4c656-212d-4ea8-8d41-275072787af5"},"vehicle_type_id":"4","last_reported":1703250513,"current_range_meters":12400,"station_id":"ce4bh0p2rcd13ifvqd80","pricing_plan_id":"free"},{"bike_id":"4a47fb71-f85a-4778-97b1-f66750a321a9","system_id":"levelo_inurba_marseille","lat":43.305994,"lon":5.393687,"is_reserved":false,"is_disabled":false,"rental_uris":{"android":"levelo://app?vid=4a47fb71-f85a-4778-97b1-f66750a321a9","ios":"levelo://app?vid=4a47fb71-f85a-4778-97b1-f66750a321a9"},"vehicle_type_id":"4","last_reported":1703250513,"current_range_meters":13200,"station_id":"ce4bh0p2rcd13ifvqd80","pricing_plan_id":"free"},{"bike_id":"e58f7ac1-2b10-4b2d-9c78-3c44ae7b34ed","system_id":"levelo_inurba_marseille","lat":43.305994,"lon":5.393687,"is_reserved":false,"is_disabled":false,"rental_uris":{"android":"levelo://app?vid=e58f7ac1-2b10-4b2d-9c78-3c44ae7b34ed","ios":"levelo://app?vid=e58f7ac1-2b10-4b2d-9c78-3c44ae7b34ed"},"vehicle_type_id":"4","last_reported":1703250513,"current_range_meters":1200,"station_id":"ce4bh0p2rcd13ifvqd80","pricing_plan_id":"free"},{"bike_id":"d43f5993-4bd4-4b7c-af93-79af754bf11f","system_id":"levelo_inurba_marseille","lat":43.305994,"lon":5.393687,"is_reserved":false,"is_disabled":false,"rental_uris":{"android":"levelo://app?vid=d43f5993-4bd4-4b7c-af93-79af754bf11f","ios":"levelo://app?vid=d43f5993-4bd4-4b7c-af93-79af754bf11f"},"vehicle_type_id":"4","last_reported":1703250513,"current_range_meters":8800,"station_id":"ce4bh0p2rcd13ifvqd80","pricing_plan_id":"free"},{"bike_id":"d408cc7d-4357-4160-b359-275d626bcaa1","system_id":"levelo_inurba_marseille","lat":43.303313,"lon":5.392413,"is_reserved":false,"is_disabled":false,"rental_uris":{"android":"levelo://app?vid=d408cc7d-4357-4160-b359-275d626bcaa1","ios":"levelo://app?vid=d408cc7d-4357-4160-b359-275d626bcaa1"},"vehicle_type_id":"4","last_reported":1703250513,"current_range_meters":0,"station_id":"ce4bgkh2rcd13ifvqbk0","pricing_plan_id":"free"},{"bike_id":"011750e7-73d7-4e9d-ae8d-2682a0809c13","system_id":"levelo_inurba_marseille","lat":43.302992,"lon":5.392136,"is_reserved":false,"is_disabled":false,"rental_uris":{"android":"levelo://app?vid=011750e7-73d7-4e9d-ae8d-2682a0809c13","ios":"levelo://app?vid=011750e7-73d7-4e9d-ae8d-2682a0809c13"},"vehicle_type_id":"4","last_reported":1703250513,"current_range_meters":22000,"station_id":"ce4bgkh2rcd13ifvqbk0","pricing_plan_id":"free"},{"bike_id":"6c06b0d2-2e97-4c27-b8c7-cb62064ff067","system_id":"levelo_inurba_marseille","lat":43.2936,"lon":5.37835,"is_reserved":false,"is_disabled":false,"rental_uris":{"android":"levelo://app?vid=6c06b0d2-2e97-4c27-b8c7-cb62064ff067","ios":"levelo://app?vid=6c06b0d2-2e97-4c27-b8c7-cb62064ff067"},"vehicle_type_id":"4","last_reported":1703250513,"current_range_meters":15200,"station_id":"ce4bgjh2rcd13ifvqbf0","pricing_plan_id":"free"},{"bike_id":"a91a1abd-3e65-48e8-b2df-6ef954f254df","system_id":"levelo_inurba_marseille","lat":43.302992,"lon":5.392136,"is_reserved":false,"is_disabled":false,"rental_uris":{"android":"levelo://app?vid=a91a1abd-3e65-48e8-b2df-6ef954f254df","ios":"levelo://app?vid=a91a1abd-3e65-48e8-b2df-6ef954f254df"},"vehicle_type_id":"4","last_reported":1703250513,"current_range_meters":4400,"station_id":"ce4bgkh2rcd13ifvqbk0","pricing_plan_id":"free"},{"bike_id":"6bc5855a-ee21-4858-9bf8-5feca7bf3e21","system_id":"levelo_inurba_marseille","lat":43.30085,"lon":5.390856,"is_reserved":false,"is_disabled":false,"rental_uris":{"android":"levelo://app?vid=6bc5855a-ee21-4858-9bf8-5feca7bf3e21","ios":"levelo://app?vid=6bc5855a-ee21-4858-9bf8-5feca7bf3e21"},"vehicle_type_id":"4","last_reported":1703250513,"current_range_meters":11200,"station_id":"ce4bh192rcd13ifvqdb0","pricing_plan_id":"free"},{"bike_id":"47cd86d7-c3bc-469e-8f59-bfdef043b844","system_id":"levelo_inurba_marseille","lat":43.291994,"lon":5.357886,"is_reserved":false,"is_disabled":false,"rental_uris":{"android":"levelo://app?vid=47cd86d7-c3bc-469e-8f59-bfdef043b844","ios":"levelo://app?vid=47cd86d7-c3bc-469e-8f59-bfdef043b844"},"vehicle_type_id":"4","last_reported":1703250513,"current_range_meters":16800,"station_id":"ce4bhb12rcd13ifvqel0","pricing_plan_id":"free"},{"bike_id":"2402cb48-051b-4573-a827-f3a835b6f8f2","system_id":"levelo_inurba_marseille","lat":43.313291,"lon":5.396838,"is_reserved":false,"is_disabled":false,"rental_uris":{"android":"levelo://app?vid=2402cb48-051b-4573-a827-f3a835b6f8f2","ios":"levelo://app?vid=2402cb48-051b-4573-a827-f3a835b6f8f2"},"vehicle_type_id":"4","last_reported":1703250513,"current_range_meters":16000,"station_id":"ce4bgvp2rcd13ifvqcu0","pricing_plan_id":"free"},{"bike_id":"ca12c989-dfe5-451f-8609-0c72ab642aea","system_id":"levelo_inurba_marseille","lat":43.313291,"lon":5.396838,"is_reserved":false,"is_disabled":false,"rental_uris":{"android":"levelo://app?vid=ca12c989-dfe5-451f-8609-0c72ab642aea","ios":"levelo://app?vid=ca12c989-dfe5-451f-8609-0c72ab642aea"},"vehicle_type_id":"4","last_reported":1703250513,"current_range_meters":19600,"station_id":"ce4bgvp2rcd13ifvqcu0","pricing_plan_id":"free"},{"bike_id":"02e2bda3-cff2-4e2e-a09c-2414381e418b","system_id":"levelo_inurba_marseille","lat":43.313291,"lon":5.396838,"is_reserved":false,"is_disabled":false,"rental_uris":{"android":"levelo://app?vid=02e2bda3-cff2-4e2e-a09c-2414381e418b","ios":"levelo://app?vid=02e2bda3-cff2-4e2e-a09c-2414381e418b"},"vehicle_type_id":"4","last_reported":1703250513,"current_range_meters":13600,"station_id":"ce4bgvp2rcd13ifvqcu0","pricing_plan_id":"free"},{"bike_id":"fa122831-8c72-4809-bfcc-8830842109ca","system_id":"levelo_inurba_marseille","lat":43.309047,"lon":5.396551,"is_reserved":false,"is_disabled":false,"rental_uris":{"android":"levelo://app?vid=fa122831-8c72-4809-bfcc-8830842109ca","ios":"levelo://app?vid=fa122831-8c72-4809-bfcc-8830842109ca"},"vehicle_type_id":"4","last_reported":1703250513,"current_range_meters":20800,"station_id":"ce4bh012rcd13ifvqcv0","pricing_plan_id":"free"},{"bike_id":"73fa7f42-8e3e-49a0-b6f9-c711161ecae7","system_id":"levelo_inurba_marseille","lat":43.31316,"lon":5.39699,"is_reserved":false,"is_disabled":false,"rental_uris":{"android":"levelo://app?vid=73fa7f42-8e3e-49a0-b6f9-c711161ecae7","ios":"levelo://app?vid=73fa7f42-8e3e-49a0-b6f9-c711161ecae7"},"vehicle_type_id":"4","last_reported":1703250513,"current_range_meters":23200,"station_id":"ce4bgvp2rcd13ifvqcu0","pricing_plan_id":"free"},{"bike_id":"d84bf03c-6519-46e5-b34d-8d4aeb7a905e","system_id":"levelo_inurba_marseille","lat":43.3021,"lon":5.39465,"is_reserved":false,"is_disabled":false,"rental_uris":{"android":"levelo://app?vid=d84bf03c-6519-46e5-b34d-8d4aeb7a905e","ios":"levelo://app?vid=d84bf03c-6519-46e5-b34d-8d4aeb7a905e"},"vehicle_type_id":"4","last_reported":1703250513,"current_range_meters":0,"station_id":"ce4bh0p2rcd13ifvqd70","pricing_plan_id":"free"},{"bike_id":"b29028fa-119d-47fc-827d-0f06df22e924","system_id":"levelo_inurba_marseille","lat":43.30214,"lon":5.39469,"is_reserved":false,"is_disabled":false,"rental_uris":{"android":"levelo://app?vid=b29028fa-119d-47fc-827d-0f06df22e924","ios":"levelo://app?vid=b29028fa-119d-47fc-827d-0f06df22e924"},"vehicle_type_id":"4","last_reported":1703250513,"current_range_meters":16000,"station_id":"ce4bh0p2rcd13ifvqd70","pricing_plan_id":"free"},{"bike_id":"6757c67f-5f0d-4286-b540-2a70a66d0984","system_id":"levelo_inurba_marseille","lat":43.30207,"lon":5.39464,"is_reserved":false,"is_disabled":false,"rental_uris":{"android":"levelo://app?vid=6757c67f-5f0d-4286-b540-2a70a66d0984","ios":"levelo://app?vid=6757c67f-5f0d-4286-b540-2a70a66d0984"},"vehicle_type_id":"4","last_reported":1703250513,"current_range_meters":9200,"station_id":"ce4bh0p2rcd13ifvqd70","pricing_plan_id":"free"},{"bike_id":"298bab18-4549-4acd-9475-2d259ac747cb","system_id":"levelo_inurba_marseille","lat":43.30209,"lon":5.3947,"is_reserved":false,"is_disabled":false,"rental_uris":{"android":"levelo://app?vid=298bab18-4549-4acd-9475-2d259ac747cb","ios":"levelo://app?vid=298bab18-4549-4acd-9475-2d259ac747cb"},"vehicle_type_id":"4","last_reported":1703250513,"current_range_meters":8000,"station_id":"ce4bh0p2rcd13ifvqd70","pricing_plan_id":"free"},{"bike_id":"d3bc6fee-22e1-402b-aeaa-ecc532e8b884","system_id":"levelo_inurba_marseille","lat":43.30205,"lon":5.39468,"is_reserved":false,"is_disabled":false,"rental_uris":{"android":"levelo://app?vid=d3bc6fee-22e1-402b-aeaa-ecc532e8b884","ios":"levelo://app?vid=d3bc6fee-22e1-402b-aeaa-ecc532e8b884"},"vehicle_type_id":"4","last_reported":1703250513,"current_range_meters":21200,"station_id":"ce4bh0p2rcd13ifvqd70","pricing_plan_id":"free"},{"bike_id":"c0b292ff-6bce-4f61-888e-04949848ebc1","system_id":"levelo_inurba_marseille","lat":43.302008,"lon":5.394694,"is_reserved":false,"is_disabled":false,"rental_uris":{"android":"levelo://app?vid=c0b292ff-6bce-4f61-888e-04949848ebc1","ios":"levelo://app?vid=c0b292ff-6bce-4f61-888e-04949848ebc1"},"vehicle_type_id":"4","last_reported":1703250513,"current_range_meters":11600,"station_id":"ce4bh0p2rcd13ifvqd70","pricing_plan_id":"free"},{"bike_id":"f7a279a1-2944-486e-b570-00585a52735a","system_id":"levelo_inurba_marseille","lat":43.302,"lon":5.39476,"is_reserved":false,"is_disabled":false,"rental_uris":{"android":"levelo://app?vid=f7a279a1-2944-486e-b570-00585a52735a","ios":"levelo://app?vid=f7a279a1-2944-486e-b570-00585a52735a"},"vehicle_type_id":"4","last_reported":1703250513,"current_range_meters":23200,"station_id":"ce4bh0p2rcd13ifvqd70","pricing_plan_id":"free"},{"bike_id":"2d41bbc0-b1a8-4e18-ba3d-8d12fa496e7e","system_id":"levelo_inurba_marseille","lat":43.290631,"lon":5.359244,"is_reserved":false,"is_disabled":false,"rental_uris":{"android":"levelo://app?vid=2d41bbc0-b1a8-4e18-ba3d-8d12fa496e7e","ios":"levelo://app?vid=2d41bbc0-b1a8-4e18-ba3d-8d12fa496e7e"},"vehicle_type_id":"4","last_reported":1703250513,"current_range_meters":28400,"station_id":"ce4bha92rcd13ifvqeg0","pricing_plan_id":"free"},{"bike_id":"cfa5baca-7955-4051-aaeb-9c5a0cd0ec87","system_id":"levelo_inurba_marseille","lat":43.290327,"lon":5.375711,"is_reserved":false,"is_disabled":false,"rental_uris":{"android":"levelo://app?vid=cfa5baca-7955-4051-aaeb-9c5a0cd0ec87","ios":"levelo://app?vid=cfa5baca-7955-4051-aaeb-9c5a0cd0ec87"},"vehicle_type_id":"4","last_reported":1703250513,"current_range_meters":22000,"station_id":"ce4bh692rcd13ifvqe90","pricing_plan_id":"free"},{"bike_id":"d62e8233-67e7-4cf4-8968-ce1ce7f8de3c","system_id":"levelo_inurba_marseille","lat":43.294153,"lon":5.386305,"is_reserved":false,"is_disabled":false,"rental_uris":{"android":"levelo://app?vid=d62e8233-67e7-4cf4-8968-ce1ce7f8de3c","ios":"levelo://app?vid=d62e8233-67e7-4cf4-8968-ce1ce7f8de3c"},"vehicle_type_id":"4","last_reported":1703250513,"current_range_meters":14400,"station_id":"ce4bh2h2rcd13ifvqdh0","pricing_plan_id":"free"},{"bike_id":"654e4968-42b8-4f8b-b3d8-aa75c56621ea","system_id":"levelo_inurba_marseille","lat":43.290327,"lon":5.375711,"is_reserved":false,"is_disabled":false,"rental_uris":{"android":"levelo://app?vid=654e4968-42b8-4f8b-b3d8-aa75c56621ea","ios":"levelo://app?vid=654e4968-42b8-4f8b-b3d8-aa75c56621ea"},"vehicle_type_id":"4","last_reported":1703250513,"current_range_meters":0,"station_id":"ce4bh692rcd13ifvqe90","pricing_plan_id":"free"},{"bike_id":"17da64bc-8ad2-45b2-a416-606a1754be7d","system_id":"levelo_inurba_marseille","lat":43.294162,"lon":5.386292,"is_reserved":false,"is_disabled":false,"rental_uris":{"android":"levelo://app?vid=17da64bc-8ad2-45b2-a416-606a1754be7d","ios":"levelo://app?vid=17da64bc-8ad2-45b2-a416-606a1754be7d"},"vehicle_type_id":"4","last_reported":1703250513,"current_range_meters":25600,"station_id":"ce4bh2h2rcd13ifvqdh0","pricing_plan_id":"free"},{"bike_id":"d805d182-e20b-475c-af8e-c4ea356ff872","system_id":"levelo_inurba_marseille","lat":43.294162,"lon":5.386292,"is_reserved":false,"is_disabled":false,"rental_uris":{"android":"levelo://app?vid=d805d182-e20b-475c-af8e-c4ea356ff872","ios":"levelo://app?vid=d805d182-e20b-475c-af8e-c4ea356ff872"},"vehicle_type_id":"4","last_reported":1703250513,"current_range_meters":28800,"station_id":"ce4bh2h2rcd13ifvqdh0","pricing_plan_id":"free"},{"bike_id":"8660d595-71f5-44d2-83e0-03ca0af06a7d","system_id":"levelo_inurba_marseille","lat":43.289468,"lon":5.363719,"is_reserved":false,"is_disabled":false,"rental_uris":{"android":"levelo://app?vid=8660d595-71f5-44d2-83e0-03ca0af06a7d","ios":"levelo://app?vid=8660d595-71f5-44d2-83e0-03ca0af06a7d"},"vehicle_type_id":"4","last_reported":1703250513,"current_range_meters":12800,"station_id":"ce4bhc92rcd13ifvqetg","pricing_plan_id":"free"},{"bike_id":"b8879b58-e562-4f0f-a445-348c15aba515","system_id":"levelo_inurba_marseille","lat":43.289468,"lon":5.363719,"is_reserved":false,"is_disabled":false,"rental_uris":{"android":"levelo://app?vid=b8879b58-e562-4f0f-a445-348c15aba515","ios":"levelo://app?vid=b8879b58-e562-4f0f-a445-348c15aba515"},"vehicle_type_id":"4","last_reported":1703250513,"current_range_meters":12000,"station_id":"ce4bhc92rcd13ifvqetg","pricing_plan_id":"free"},{"bike_id":"f8ce0acc-a273-4085-bdaf-1b553a53d359","system_id":"levelo_inurba_marseille","lat":43.289468,"lon":5.363719,"is_reserved":false,"is_disabled":false,"rental_uris":{"android":"levelo://app?vid=f8ce0acc-a273-4085-bdaf-1b553a53d359","ios":"levelo://app?vid=f8ce0acc-a273-4085-bdaf-1b553a53d359"},"vehicle_type_id":"4","last_reported":1703250513,"current_range_meters":17600,"station_id":"ce4bhc92rcd13ifvqetg","pricing_plan_id":"free"},{"bike_id":"1f43e85e-13ee-4468-a0ed-547464ed3254","system_id":"levelo_inurba_marseille","lat":43.289468,"lon":5.363719,"is_reserved":false,"is_disabled":false,"rental_uris":{"android":"levelo://app?vid=1f43e85e-13ee-4468-a0ed-547464ed3254","ios":"levelo://app?vid=1f43e85e-13ee-4468-a0ed-547464ed3254"},"vehicle_type_id":"4","last_reported":1703250513,"current_range_meters":8800,"station_id":"ce4bhc92rcd13ifvqetg","pricing_plan_id":"free"},{"bike_id":"a6d29ad0-72e4-4c09-9629-c5e81a5ce307","system_id":"levelo_inurba_marseille","lat":43.304274,"lon":5.397513,"is_reserved":false,"is_disabled":false,"rental_uris":{"android":"levelo://app?vid=a6d29ad0-72e4-4c09-9629-c5e81a5ce307","ios":"levelo://app?vid=a6d29ad0-72e4-4c09-9629-c5e81a5ce307"},"vehicle_type_id":"4","last_reported":1703250513,"current_range_meters":0,"station_id":"ce4bh092rcd13ifvqd20","pricing_plan_id":"free"},{"bike_id":"11b40e71-58b2-427d-a6d0-5fd58ead02e3","system_id":"levelo_inurba_marseille","lat":43.295169,"lon":5.390426,"is_reserved":false,"is_disabled":false,"rental_uris":{"android":"levelo://app?vid=11b40e71-58b2-427d-a6d0-5fd58ead02e3","ios":"levelo://app?vid=11b40e71-58b2-427d-a6d0-5fd58ead02e3"},"vehicle_type_id":"4","last_reported":1703250513,"current_range_meters":18400,"station_id":"ce4bh3p2rcd13ifvqdp0","pricing_plan_id":"free"},{"bike_id":"56630199-fe47-4f97-9552-51534f4db2a7","system_id":"levelo_inurba_marseille","lat":43.295169,"lon":5.390426,"is_reserved":false,"is_disabled":false,"rental_uris":{"android":"levelo://app?vid=56630199-fe47-4f97-9552-51534f4db2a7","ios":"levelo://app?vid=56630199-fe47-4f97-9552-51534f4db2a7"},"vehicle_type_id":"4","last_reported":1703250513,"current_range_meters":12400,"station_id":"ce4bh3p2rcd13ifvqdp0","pricing_plan_id":"free"},{"bike_id":"9a3af559-7b39-4b00-a37d-54247b60d05c","system_id":"levelo_inurba_marseille","lat":43.28856,"lon":5.358371,"is_reserved":false,"is_disabled":false,"rental_uris":{"android":"levelo://app?vid=9a3af559-7b39-4b00-a37d-54247b60d05c","ios":"levelo://app?vid=9a3af559-7b39-4b00-a37d-54247b60d05c"},"vehicle_type_id":"4","last_reported":1703250513,"current_range_meters":30400,"station_id":"ce4bhb12rcd13ifvqem0","pricing_plan_id":"free"},{"bike_id":"8abf3e6f-532e-427d-a6cf-3c6ca4cf7523","system_id":"levelo_inurba_marseille","lat":43.28856,"lon":5.358371,"is_reserved":false,"is_disabled":false,"rental_uris":{"android":"levelo://app?vid=8abf3e6f-532e-427d-a6cf-3c6ca4cf7523","ios":"levelo://app?vid=8abf3e6f-532e-427d-a6cf-3c6ca4cf7523"},"vehicle_type_id":"4","last_reported":1703250513,"current_range_meters":19600,"station_id":"ce4bhb12rcd13ifvqem0","pricing_plan_id":"free"},{"bike_id":"7855877c-1b2d-49d8-b9d2-93483fde5acd","system_id":"levelo_inurba_marseille","lat":43.312609,"lon":5.401662,"is_reserved":false,"is_disabled":false,"rental_uris":{"android":"levelo://app?vid=7855877c-1b2d-49d8-b9d2-93483fde5acd","ios":"levelo://app?vid=7855877c-1b2d-49d8-b9d2-93483fde5acd"},"vehicle_type_id":"4","last_reported":1703250513,"current_range_meters":6000,"station_id":"ce4bh092rcd13ifvqd30","pricing_plan_id":"free"},{"bike_id":"d74ea429-ae47-4d66-b951-4817428ea4e2","system_id":"levelo_inurba_marseille","lat":43.337543,"lon":5.374624,"is_reserved":false,"is_disabled":false,"rental_uris":{"android":"levelo://app?vid=d74ea429-ae47-4d66-b951-4817428ea4e2","ios":"levelo://app?vid=d74ea429-ae47-4d66-b951-4817428ea4e2"},"vehicle_type_id":"4","last_reported":1703250513,"current_range_meters":20800,"station_id":"","pricing_plan_id":"free"},{"bike_id":"5f6df711-5c47-41c8-b2e0-ca21db0773eb","system_id":"levelo_inurba_marseille","lat":43.337595,"lon":5.374453,"is_reserved":false,"is_disabled":false,"rental_uris":{"android":"levelo://app?vid=5f6df711-5c47-41c8-b2e0-ca21db0773eb","ios":"levelo://app?vid=5f6df711-5c47-41c8-b2e0-ca21db0773eb"},"vehicle_type_id":"4","last_reported":1703250513,"current_range_meters":30000,"station_id":"","pricing_plan_id":"free"},{"bike_id":"7acfd8b6-1c9f-4866-a141-fab1b52be1bc","system_id":"levelo_inurba_marseille","lat":43.309371,"lon":5.401449,"is_reserved":false,"is_disabled":false,"rental_uris":{"android":"levelo://app?vid=7acfd8b6-1c9f-4866-a141-fab1b52be1bc","ios":"levelo://app?vid=7acfd8b6-1c9f-4866-a141-fab1b52be1bc"},"vehicle_type_id":"4","last_reported":1703250513,"current_range_meters":7600,"station_id":"ce4bgvp2rcd13ifvqct0","pricing_plan_id":"free"},{"bike_id":"21dda24e-3bb4-4a1f-8040-dfa9feb80551","system_id":"levelo_inurba_marseille","lat":43.309168,"lon":5.401636,"is_reserved":false,"is_disabled":false,"rental_uris":{"android":"levelo://app?vid=21dda24e-3bb4-4a1f-8040-dfa9feb80551","ios":"levelo://app?vid=21dda24e-3bb4-4a1f-8040-dfa9feb80551"},"vehicle_type_id":"4","last_reported":1703250513,"current_range_meters":18400,"station_id":"","pricing_plan_id":"free"},{"bike_id":"41c046a6-7cba-49c2-8c7a-f269d8a6e461","system_id":"levelo_inurba_marseille","lat":43.337694,"lon":5.374349,"is_reserved":false,"is_disabled":false,"rental_uris":{"android":"levelo://app?vid=41c046a6-7cba-49c2-8c7a-f269d8a6e461","ios":"levelo://app?vid=41c046a6-7cba-49c2-8c7a-f269d8a6e461"},"vehicle_type_id":"4","last_reported":1703250513,"current_range_meters":20800,"station_id":"ce4rr2p2rcd13i802rgg","pricing_plan_id":"free"},{"bike_id":"49743674-f350-4dac-934c-3cecc9796ad8","system_id":"levelo_inurba_marseille","lat":43.286591,"lon":5.363346,"is_reserved":false,"is_disabled":false,"rental_uris":{"android":"levelo://app?vid=49743674-f350-4dac-934c-3cecc9796ad8","ios":"levelo://app?vid=49743674-f350-4dac-934c-3cecc9796ad8"},"vehicle_type_id":"4","last_reported":1703250513,"current_range_meters":17200,"station_id":"ce4bhah2rcd13ifvqej0","pricing_plan_id":"free"},{"bike_id":"f2e51ac2-fe10-4000-8978-a72ee1bb4950","system_id":"levelo_inurba_marseille","lat":43.298681,"lon":5.397225,"is_reserved":false,"is_disabled":false,"rental_uris":{"android":"levelo://app?vid=f2e51ac2-fe10-4000-8978-a72ee1bb4950","ios":"levelo://app?vid=f2e51ac2-fe10-4000-8978-a72ee1bb4950"},"vehicle_type_id":"4","last_reported":1703250513,"current_range_meters":26400,"station_id":"ce4bh0h2rcd13ifvqd50","pricing_plan_id":"free"},{"bike_id":"1e0ce1fa-c7cb-4054-b946-973cb3a860ab","system_id":"levelo_inurba_marseille","lat":43.286591,"lon":5.363346,"is_reserved":false,"is_disabled":false,"rental_uris":{"android":"levelo://app?vid=1e0ce1fa-c7cb-4054-b946-973cb3a860ab","ios":"levelo://app?vid=1e0ce1fa-c7cb-4054-b946-973cb3a860ab"},"vehicle_type_id":"4","last_reported":1703250513,"current_range_meters":14000,"station_id":"ce4bhah2rcd13ifvqej0","pricing_plan_id":"free"},{"bike_id":"5e6c65bf-af01-4104-a11a-f2867e63ccec","system_id":"levelo_inurba_marseille","lat":43.298681,"lon":5.397225,"is_reserved":false,"is_disabled":false,"rental_uris":{"android":"levelo://app?vid=5e6c65bf-af01-4104-a11a-f2867e63ccec","ios":"levelo://app?vid=5e6c65bf-af01-4104-a11a-f2867e63ccec"},"vehicle_type_id":"4","last_reported":1703250513,"current_range_meters":0,"station_id":"ce4bh0h2rcd13ifvqd50","pricing_plan_id":"free"},{"bike_id":"e9585310-899a-48d4-ae67-1e13a4182cae","system_id":"levelo_inurba_marseille","lat":43.286961,"lon":5.373785,"is_reserved":false,"is_disabled":false,"rental_uris":{"android":"levelo://app?vid=e9585310-899a-48d4-ae67-1e13a4182cae","ios":"levelo://app?vid=e9585310-899a-48d4-ae67-1e13a4182cae"},"vehicle_type_id":"4","last_reported":1703250513,"current_range_meters":17600,"station_id":"ce4bh3p2rcd13ifvqdq0","pricing_plan_id":"free"},{"bike_id":"1980a47c-13ab-4f34-b355-919aa26e5bd5","system_id":"levelo_inurba_marseille","lat":43.286591,"lon":5.363346,"is_reserved":false,"is_disabled":false,"rental_uris":{"android":"levelo://app?vid=1980a47c-13ab-4f34-b355-919aa26e5bd5","ios":"levelo://app?vid=1980a47c-13ab-4f34-b355-919aa26e5bd5"},"vehicle_type_id":"4","last_reported":1703250513,"current_range_meters":18800,"station_id":"ce4bhah2rcd13ifvqej0","pricing_plan_id":"free"},{"bike_id":"da2edeee-6596-4f18-bbd1-9a61c49fd497","system_id":"levelo_inurba_marseille","lat":43.286943,"lon":5.373843,"is_reserved":false,"is_disabled":false,"rental_uris":{"android":"levelo://app?vid=da2edeee-6596-4f18-bbd1-9a61c49fd497","ios":"levelo://app?vid=da2edeee-6596-4f18-bbd1-9a61c49fd497"},"vehicle_type_id":"4","last_reported":1703250513,"current_range_meters":19600,"station_id":"ce4bh3p2rcd13ifvqdq0","pricing_plan_id":"free"},{"bike_id":"05e2eb45-55b2-476e-93df-e5be2b273417","system_id":"levelo_inurba_marseille","lat":43.286961,"lon":5.373785,"is_reserved":false,"is_disabled":false,"rental_uris":{"android":"levelo://app?vid=05e2eb45-55b2-476e-93df-e5be2b273417","ios":"levelo://app?vid=05e2eb45-55b2-476e-93df-e5be2b273417"},"vehicle_type_id":"4","last_reported":1703250513,"current_range_meters":0,"station_id":"ce4bh3p2rcd13ifvqdq0","pricing_plan_id":"free"},{"bike_id":"ea99dd37-bbfc-4960-8402-ce9833f92858","system_id":"levelo_inurba_marseille","lat":43.290345,"lon":5.38646,"is_reserved":false,"is_disabled":false,"rental_uris":{"android":"levelo://app?vid=ea99dd37-bbfc-4960-8402-ce9833f92858","ios":"levelo://app?vid=ea99dd37-bbfc-4960-8402-ce9833f92858"},"vehicle_type_id":"4","last_reported":1703250513,"current_range_meters":14800,"station_id":"ce4bh4p2rcd13ifvqe0g","pricing_plan_id":"free"},{"bike_id":"c29475b1-db94-4ca7-b1d3-9b183b5a98f9","system_id":"levelo_inurba_marseille","lat":43.302759,"lon":5.400793,"is_reserved":false,"is_disabled":false,"rental_uris":{"android":"levelo://app?vid=c29475b1-db94-4ca7-b1d3-9b183b5a98f9","ios":"levelo://app?vid=c29475b1-db94-4ca7-b1d3-9b183b5a98f9"},"vehicle_type_id":"4","last_reported":1703250513,"current_range_meters":18800,"station_id":"ce4bgvh2rcd13ifvqcs0","pricing_plan_id":"free"},{"bike_id":"4ee9276d-8926-4210-b649-6a1eba5f5b13","system_id":"levelo_inurba_marseille","lat":43.286039,"lon":5.370679,"is_reserved":false,"is_disabled":false,"rental_uris":{"android":"levelo://app?vid=4ee9276d-8926-4210-b649-6a1eba5f5b13","ios":"levelo://app?vid=4ee9276d-8926-4210-b649-6a1eba5f5b13"},"vehicle_type_id":"4","last_reported":1703250513,"current_range_meters":27200,"station_id":"ce4bht12rcd13ifvqi60","pricing_plan_id":"free"},{"bike_id":"53e106bc-16d7-4f35-bca7-550f31096dd8","system_id":"levelo_inurba_marseille","lat":43.286039,"lon":5.370679,"is_reserved":false,"is_disabled":false,"rental_uris":{"android":"levelo://app?vid=53e106bc-16d7-4f35-bca7-550f31096dd8","ios":"levelo://app?vid=53e106bc-16d7-4f35-bca7-550f31096dd8"},"vehicle_type_id":"4","last_reported":1703250513,"current_range_meters":17600,"station_id":"ce4bht12rcd13ifvqi60","pricing_plan_id":"free"},{"bike_id":"ec971dce-430e-4e80-8491-7813843bbcce","system_id":"levelo_inurba_marseille","lat":43.316828,"lon":5.404723,"is_reserved":false,"is_disabled":false,"rental_uris":{"android":"levelo://app?vid=ec971dce-430e-4e80-8491-7813843bbcce","ios":"levelo://app?vid=ec971dce-430e-4e80-8491-7813843bbcce"},"vehicle_type_id":"4","last_reported":1703250513,"current_range_meters":23200,"station_id":"ce4bh012rcd13ifvqd00","pricing_plan_id":"free"},{"bike_id":"e2adfa7c-882e-48a1-9ee4-b36e6186ebbf","system_id":"levelo_inurba_marseille","lat":43.330912,"lon":5.396935,"is_reserved":false,"is_disabled":false,"rental_uris":{"android":"levelo://app?vid=e2adfa7c-882e-48a1-9ee4-b36e6186ebbf","ios":"levelo://app?vid=e2adfa7c-882e-48a1-9ee4-b36e6186ebbf"},"vehicle_type_id":"4","last_reported":1703250513,"current_range_meters":18400,"station_id":"","pricing_plan_id":"free"},{"bike_id":"fd3c548c-bc4c-4ffd-b3d4-9305c0af79eb","system_id":"levelo_inurba_marseille","lat":43.284538,"lon":5.358657,"is_reserved":false,"is_disabled":false,"rental_uris":{"android":"levelo://app?vid=fd3c548c-bc4c-4ffd-b3d4-9305c0af79eb","ios":"levelo://app?vid=fd3c548c-bc4c-4ffd-b3d4-9305c0af79eb"},"vehicle_type_id":"4","last_reported":1703250513,"current_range_meters":22000,"station_id":"ce4bhah2rcd13ifvqei0","pricing_plan_id":"free"},{"bike_id":"41856217-8f89-44c4-800f-9e8fc6ae3172","system_id":"levelo_inurba_marseille","lat":43.284534,"lon":5.358662,"is_reserved":false,"is_disabled":false,"rental_uris":{"android":"levelo://app?vid=41856217-8f89-44c4-800f-9e8fc6ae3172","ios":"levelo://app?vid=41856217-8f89-44c4-800f-9e8fc6ae3172"},"vehicle_type_id":"4","last_reported":1703250513,"current_range_meters":31200,"station_id":"ce4bhah2rcd13ifvqei0","pricing_plan_id":"free"},{"bike_id":"7448fad2-a713-4e56-9b54-422eae9e96ee","system_id":"levelo_inurba_marseille","lat":43.28459,"lon":5.35881,"is_reserved":false,"is_disabled":false,"rental_uris":{"android":"levelo://app?vid=7448fad2-a713-4e56-9b54-422eae9e96ee","ios":"levelo://app?vid=7448fad2-a713-4e56-9b54-422eae9e96ee"},"vehicle_type_id":"4","last_reported":1703250513,"current_range_meters":4800,"station_id":"","pricing_plan_id":"free"},{"bike_id":"6681f091-8cae-40db-82be-2afedc79afec","system_id":"levelo_inurba_marseille","lat":43.297895,"lon":5.401057,"is_reserved":false,"is_disabled":false,"rental_uris":{"android":"levelo://app?vid=6681f091-8cae-40db-82be-2afedc79afec","ios":"levelo://app?vid=6681f091-8cae-40db-82be-2afedc79afec"},"vehicle_type_id":"4","last_reported":1703250513,"current_range_meters":6000,"station_id":"","pricing_plan_id":"free"},{"bike_id":"6beeddd7-7086-4388-a12d-02181fd4ca49","system_id":"levelo_inurba_marseille","lat":43.283998,"lon":5.375062,"is_reserved":false,"is_disabled":false,"rental_uris":{"android":"levelo://app?vid=6beeddd7-7086-4388-a12d-02181fd4ca49","ios":"levelo://app?vid=6beeddd7-7086-4388-a12d-02181fd4ca49"},"vehicle_type_id":"4","last_reported":1703250513,"current_range_meters":24400,"station_id":"ce4bh412rcd13ifvqds0","pricing_plan_id":"free"},{"bike_id":"29f11437-d655-4333-ac96-10f48b1230c4","system_id":"levelo_inurba_marseille","lat":43.283998,"lon":5.375062,"is_reserved":false,"is_disabled":false,"rental_uris":{"android":"levelo://app?vid=29f11437-d655-4333-ac96-10f48b1230c4","ios":"levelo://app?vid=29f11437-d655-4333-ac96-10f48b1230c4"},"vehicle_type_id":"4","last_reported":1703250513,"current_range_meters":9200,"station_id":"ce4bh412rcd13ifvqds0","pricing_plan_id":"free"},{"bike_id":"7a52bae4-a8c6-40ae-b5da-ad3cecd587a4","system_id":"levelo_inurba_marseille","lat":43.295713,"lon":5.399639,"is_reserved":false,"is_disabled":false,"rental_uris":{"android":"levelo://app?vid=7a52bae4-a8c6-40ae-b5da-ad3cecd587a4","ios":"levelo://app?vid=7a52bae4-a8c6-40ae-b5da-ad3cecd587a4"},"vehicle_type_id":"4","last_reported":1703250513,"current_range_meters":14800,"station_id":"ce4bh312rcd13ifvqdj0","pricing_plan_id":"free"},{"bike_id":"b5f9449e-be55-4d6d-a88c-ee46bd104cb7","system_id":"levelo_inurba_marseille","lat":43.286595,"lon":5.386795,"is_reserved":false,"is_disabled":false,"rental_uris":{"android":"levelo://app?vid=b5f9449e-be55-4d6d-a88c-ee46bd104cb7","ios":"levelo://app?vid=b5f9449e-be55-4d6d-a88c-ee46bd104cb7"},"vehicle_type_id":"4","last_reported":1703250513,"current_range_meters":6400,"station_id":"ce4bh492rcd13ifvqdug","pricing_plan_id":"free"},{"bike_id":"8715d5c7-cda1-43a6-a1dd-ae7082616388","system_id":"levelo_inurba_marseille","lat":43.286783,"lon":5.38672,"is_reserved":false,"is_disabled":false,"rental_uris":{"android":"levelo://app?vid=8715d5c7-cda1-43a6-a1dd-ae7082616388","ios":"levelo://app?vid=8715d5c7-cda1-43a6-a1dd-ae7082616388"},"vehicle_type_id":"4","last_reported":1703250513,"current_range_meters":0,"station_id":"ce4bh492rcd13ifvqdug","pricing_plan_id":"free"},{"bike_id":"fb0aba7c-bdd8-4480-8853-7a0286906f4d","system_id":"levelo_inurba_marseille","lat":43.28671,"lon":5.38667,"is_reserved":false,"is_disabled":false,"rental_uris":{"android":"levelo://app?vid=fb0aba7c-bdd8-4480-8853-7a0286906f4d","ios":"levelo://app?vid=fb0aba7c-bdd8-4480-8853-7a0286906f4d"},"vehicle_type_id":"4","last_reported":1703250513,"current_range_meters":0,"station_id":"ce4bh492rcd13ifvqdug","pricing_plan_id":"free"},{"bike_id":"553c829a-8274-453a-9394-8c9a52becf90","system_id":"levelo_inurba_marseille","lat":43.319179,"lon":5.407725,"is_reserved":false,"is_disabled":false,"rental_uris":{"android":"levelo://app?vid=553c829a-8274-453a-9394-8c9a52becf90","ios":"levelo://app?vid=553c829a-8274-453a-9394-8c9a52becf90"},"vehicle_type_id":"4","last_reported":1703250513,"current_range_meters":22800,"station_id":"ce4bhq12rcd13ifvqhig","pricing_plan_id":"free"},{"bike_id":"a396a5d3-3428-4c7d-bbce-d046d97fc93c","system_id":"levelo_inurba_marseille","lat":43.337168,"lon":5.391825,"is_reserved":false,"is_disabled":false,"rental_uris":{"android":"levelo://app?vid=a396a5d3-3428-4c7d-bbce-d046d97fc93c","ios":"levelo://app?vid=a396a5d3-3428-4c7d-bbce-d046d97fc93c"},"vehicle_type_id":"4","last_reported":1703250513,"current_range_meters":28400,"station_id":"ce4bhr92rcd13ifvqhsg","pricing_plan_id":"free"},{"bike_id":"4309270f-f7b6-490c-b6c2-6ffdaf2fb52f","system_id":"levelo_inurba_marseille","lat":43.284793,"lon":5.384113,"is_reserved":false,"is_disabled":false,"rental_uris":{"android":"levelo://app?vid=4309270f-f7b6-490c-b6c2-6ffdaf2fb52f","ios":"levelo://app?vid=4309270f-f7b6-490c-b6c2-6ffdaf2fb52f"},"vehicle_type_id":"4","last_reported":1703250513,"current_range_meters":21600,"station_id":"ce4bh512rcd13ifvqe3g","pricing_plan_id":"free"},{"bike_id":"1d1bd55e-ca6e-4508-bc39-4be0b700dc99","system_id":"levelo_inurba_marseille","lat":43.288497,"lon":5.393089,"is_reserved":false,"is_disabled":false,"rental_uris":{"android":"levelo://app?vid=1d1bd55e-ca6e-4508-bc39-4be0b700dc99","ios":"levelo://app?vid=1d1bd55e-ca6e-4508-bc39-4be0b700dc99"},"vehicle_type_id":"4","last_reported":1703250513,"current_range_meters":30400,"station_id":"ce4bh2p2rcd13ifvqdi0","pricing_plan_id":"free"},{"bike_id":"06812571-9209-4c8f-a5ed-f9c5eef57574","system_id":"levelo_inurba_marseille","lat":43.288501,"lon":5.393087,"is_reserved":false,"is_disabled":false,"rental_uris":{"android":"levelo://app?vid=06812571-9209-4c8f-a5ed-f9c5eef57574","ios":"levelo://app?vid=06812571-9209-4c8f-a5ed-f9c5eef57574"},"vehicle_type_id":"4","last_reported":1703250513,"current_range_meters":3600,"station_id":"ce4bh2p2rcd13ifvqdi0","pricing_plan_id":"free"},{"bike_id":"bc4bea4b-c13a-41e9-8048-10d8ee1cbc35","system_id":"levelo_inurba_marseille","lat":43.283494,"lon":5.380945,"is_reserved":false,"is_disabled":false,"rental_uris":{"android":"levelo://app?vid=bc4bea4b-c13a-41e9-8048-10d8ee1cbc35","ios":"levelo://app?vid=bc4bea4b-c13a-41e9-8048-10d8ee1cbc35"},"vehicle_type_id":"4","last_reported":1703250513,"current_range_meters":14800,"station_id":"ce4bh412rcd13ifvqdr0","pricing_plan_id":"free"},{"bike_id":"86c322a5-9eed-41e7-89b1-e2a9b34ec277","system_id":"levelo_inurba_marseille","lat":43.283498,"lon":5.380948,"is_reserved":false,"is_disabled":false,"rental_uris":{"android":"levelo://app?vid=86c322a5-9eed-41e7-89b1-e2a9b34ec277","ios":"levelo://app?vid=86c322a5-9eed-41e7-89b1-e2a9b34ec277"},"vehicle_type_id":"4","last_reported":1703250513,"current_range_meters":21200,"station_id":"ce4bh412rcd13ifvqdr0","pricing_plan_id":"free"},{"bike_id":"9fe013a4-6456-4d8f-a42b-efec8d48b82f","system_id":"levelo_inurba_marseille","lat":43.28039,"lon":5.369297,"is_reserved":false,"is_disabled":false,"rental_uris":{"android":"levelo://app?vid=9fe013a4-6456-4d8f-a42b-efec8d48b82f","ios":"levelo://app?vid=9fe013a4-6456-4d8f-a42b-efec8d48b82f"},"vehicle_type_id":"4","last_reported":1703250513,"current_range_meters":26800,"station_id":"ce4bha12rcd13ifvqef0","pricing_plan_id":"free"},{"bike_id":"ddb1a22d-67c6-4150-a1ec-de11e82393b0","system_id":"levelo_inurba_marseille","lat":43.29041,"lon":5.399634,"is_reserved":false,"is_disabled":false,"rental_uris":{"android":"levelo://app?vid=ddb1a22d-67c6-4150-a1ec-de11e82393b0","ios":"levelo://app?vid=ddb1a22d-67c6-4150-a1ec-de11e82393b0"},"vehicle_type_id":"4","last_reported":1703250513,"current_range_meters":16800,"station_id":"ce4bh392rcd13ifvqdm0","pricing_plan_id":"free"},{"bike_id":"9ce52011-d36a-40f6-aab9-2fc015a1f332","system_id":"levelo_inurba_marseille","lat":43.29041,"lon":5.399634,"is_reserved":false,"is_disabled":false,"rental_uris":{"android":"levelo://app?vid=9ce52011-d36a-40f6-aab9-2fc015a1f332","ios":"levelo://app?vid=9ce52011-d36a-40f6-aab9-2fc015a1f332"},"vehicle_type_id":"4","last_reported":1703250513,"current_range_meters":3200,"station_id":"ce4bh392rcd13ifvqdm0","pricing_plan_id":"free"},{"bike_id":"10c2f87e-bc9a-40f2-955f-bf86e8d4cf38","system_id":"levelo_inurba_marseille","lat":43.29041,"lon":5.399634,"is_reserved":false,"is_disabled":false,"rental_uris":{"android":"levelo://app?vid=10c2f87e-bc9a-40f2-955f-bf86e8d4cf38","ios":"levelo://app?vid=10c2f87e-bc9a-40f2-955f-bf86e8d4cf38"},"vehicle_type_id":"4","last_reported":1703250513,"current_range_meters":0,"station_id":"ce4bh392rcd13ifvqdm0","pricing_plan_id":"free"},{"bike_id":"ddba35b9-e8d3-4afc-9884-d1ccbb84c700","system_id":"levelo_inurba_marseille","lat":43.290412,"lon":5.399633,"is_reserved":false,"is_disabled":false,"rental_uris":{"android":"levelo://app?vid=ddba35b9-e8d3-4afc-9884-d1ccbb84c700","ios":"levelo://app?vid=ddba35b9-e8d3-4afc-9884-d1ccbb84c700"},"vehicle_type_id":"4","last_reported":1703250513,"current_range_meters":3600,"station_id":"ce4bh392rcd13ifvqdm0","pricing_plan_id":"free"},{"bike_id":"0650fa7e-092b-4e05-b3f7-ae3dfaf24476","system_id":"levelo_inurba_marseille","lat":43.296341,"lon":5.405902,"is_reserved":false,"is_disabled":false,"rental_uris":{"android":"levelo://app?vid=0650fa7e-092b-4e05-b3f7-ae3dfaf24476","ios":"levelo://app?vid=0650fa7e-092b-4e05-b3f7-ae3dfaf24476"},"vehicle_type_id":"4","last_reported":1703250513,"current_range_meters":12000,"station_id":"ce4bh0h2rcd13ifvqd60","pricing_plan_id":"free"},{"bike_id":"09e4a757-a432-475e-b10f-a9bf0376fa15","system_id":"levelo_inurba_marseille","lat":43.296263,"lon":5.40601,"is_reserved":false,"is_disabled":false,"rental_uris":{"android":"levelo://app?vid=09e4a757-a432-475e-b10f-a9bf0376fa15","ios":"levelo://app?vid=09e4a757-a432-475e-b10f-a9bf0376fa15"},"vehicle_type_id":"4","last_reported":1703250513,"current_range_meters":27600,"station_id":"ce4bh0h2rcd13ifvqd60","pricing_plan_id":"free"},{"bike_id":"8593a807-4721-4a46-8c88-fd3f0a43c7d5","system_id":"levelo_inurba_marseille","lat":43.296263,"lon":5.40601,"is_reserved":false,"is_disabled":false,"rental_uris":{"android":"levelo://app?vid=8593a807-4721-4a46-8c88-fd3f0a43c7d5","ios":"levelo://app?vid=8593a807-4721-4a46-8c88-fd3f0a43c7d5"},"vehicle_type_id":"4","last_reported":1703250513,"current_range_meters":7600,"station_id":"ce4bh0h2rcd13ifvqd60","pricing_plan_id":"free"},{"bike_id":"72d62900-3dca-4a80-a863-a95e444c114f","system_id":"levelo_inurba_marseille","lat":43.285742,"lon":5.395004,"is_reserved":false,"is_disabled":false,"rental_uris":{"android":"levelo://app?vid=72d62900-3dca-4a80-a863-a95e444c114f","ios":"levelo://app?vid=72d62900-3dca-4a80-a863-a95e444c114f"},"vehicle_type_id":"4","last_reported":1703250513,"current_range_meters":24400,"station_id":"ce4bh292rcd13ifvqdg0","pricing_plan_id":"free"},{"bike_id":"04e4423e-b925-4011-a1d1-d0ddc990667a","system_id":"levelo_inurba_marseille","lat":43.285742,"lon":5.395004,"is_reserved":false,"is_disabled":false,"rental_uris":{"android":"levelo://app?vid=04e4423e-b925-4011-a1d1-d0ddc990667a","ios":"levelo://app?vid=04e4423e-b925-4011-a1d1-d0ddc990667a"},"vehicle_type_id":"4","last_reported":1703250513,"current_range_meters":19600,"station_id":"ce4bh292rcd13ifvqdg0","pricing_plan_id":"free"},{"bike_id":"2dce41b4-f1e9-4565-979b-d206af37124f","system_id":"levelo_inurba_marseille","lat":43.326605,"lon":5.409903,"is_reserved":false,"is_disabled":false,"rental_uris":{"android":"levelo://app?vid=2dce41b4-f1e9-4565-979b-d206af37124f","ios":"levelo://app?vid=2dce41b4-f1e9-4565-979b-d206af37124f"},"vehicle_type_id":"4","last_reported":1703250513,"current_range_meters":29200,"station_id":"ce4bhpp2rcd13ifvqhgg","pricing_plan_id":"free"},{"bike_id":"8378bb1e-da78-4d39-8a43-a6b9291b508b","system_id":"levelo_inurba_marseille","lat":43.287154,"lon":5.399979,"is_reserved":false,"is_disabled":false,"rental_uris":{"android":"levelo://app?vid=8378bb1e-da78-4d39-8a43-a6b9291b508b","ios":"levelo://app?vid=8378bb1e-da78-4d39-8a43-a6b9291b508b"},"vehicle_type_id":"4","last_reported":1703250513,"current_range_meters":25200,"station_id":"ce4bho92rcd13ifvqh3g","pricing_plan_id":"free"},{"bike_id":"3112f0bb-9cf4-4bf4-b281-76fe5aff3d49","system_id":"levelo_inurba_marseille","lat":43.287154,"lon":5.399979,"is_reserved":false,"is_disabled":false,"rental_uris":{"android":"levelo://app?vid=3112f0bb-9cf4-4bf4-b281-76fe5aff3d49","ios":"levelo://app?vid=3112f0bb-9cf4-4bf4-b281-76fe5aff3d49"},"vehicle_type_id":"4","last_reported":1703250513,"current_range_meters":19200,"station_id":"ce4bho92rcd13ifvqh3g","pricing_plan_id":"free"},{"bike_id":"0475b776-1eae-496e-b596-9a69cebdb863","system_id":"levelo_inurba_marseille","lat":43.287154,"lon":5.399979,"is_reserved":false,"is_disabled":false,"rental_uris":{"android":"levelo://app?vid=0475b776-1eae-496e-b596-9a69cebdb863","ios":"levelo://app?vid=0475b776-1eae-496e-b596-9a69cebdb863"},"vehicle_type_id":"4","last_reported":1703250513,"current_range_meters":14000,"station_id":"ce4bho92rcd13ifvqh3g","pricing_plan_id":"free"},{"bike_id":"943fcf6d-d36f-4062-9426-c6ae6e50fe1f","system_id":"levelo_inurba_marseille","lat":43.287154,"lon":5.399979,"is_reserved":false,"is_disabled":false,"rental_uris":{"android":"levelo://app?vid=943fcf6d-d36f-4062-9426-c6ae6e50fe1f","ios":"levelo://app?vid=943fcf6d-d36f-4062-9426-c6ae6e50fe1f"},"vehicle_type_id":"4","last_reported":1703250513,"current_range_meters":26000,"station_id":"ce4bho92rcd13ifvqh3g","pricing_plan_id":"free"},{"bike_id":"944e50e5-3b1f-4c5e-b1a8-d3526915b96a","system_id":"levelo_inurba_marseille","lat":43.320045,"lon":5.415046,"is_reserved":false,"is_disabled":false,"rental_uris":{"android":"levelo://app?vid=944e50e5-3b1f-4c5e-b1a8-d3526915b96a","ios":"levelo://app?vid=944e50e5-3b1f-4c5e-b1a8-d3526915b96a"},"vehicle_type_id":"4","last_reported":1703250513,"current_range_meters":20000,"station_id":"ce4bhq92rcd13ifvqhkg","pricing_plan_id":"free"},{"bike_id":"e36ff604-6183-4c28-91a5-665e0e4a1892","system_id":"levelo_inurba_marseille","lat":43.27964,"lon":5.38726,"is_reserved":false,"is_disabled":false,"rental_uris":{"android":"levelo://app?vid=e36ff604-6183-4c28-91a5-665e0e4a1892","ios":"levelo://app?vid=e36ff604-6183-4c28-91a5-665e0e4a1892"},"vehicle_type_id":"4","last_reported":1703250513,"current_range_meters":18400,"station_id":"ce4bhg12rcd13ifvqf80","pricing_plan_id":"free"},{"bike_id":"86e5a36c-bdd7-4979-86f2-dd1c76418fac","system_id":"levelo_inurba_marseille","lat":43.325233,"lon":5.414318,"is_reserved":false,"is_disabled":false,"rental_uris":{"android":"levelo://app?vid=86e5a36c-bdd7-4979-86f2-dd1c76418fac","ios":"levelo://app?vid=86e5a36c-bdd7-4979-86f2-dd1c76418fac"},"vehicle_type_id":"4","last_reported":1703250513,"current_range_meters":31200,"station_id":"ce4bhq12rcd13ifvqhhg","pricing_plan_id":"free"},{"bike_id":"d79e5566-2750-4cf4-8b1a-3028d72ef83b","system_id":"levelo_inurba_marseille","lat":43.292569,"lon":5.409107,"is_reserved":false,"is_disabled":false,"rental_uris":{"android":"levelo://app?vid=d79e5566-2750-4cf4-8b1a-3028d72ef83b","ios":"levelo://app?vid=d79e5566-2750-4cf4-8b1a-3028d72ef83b"},"vehicle_type_id":"4","last_reported":1703250513,"current_range_meters":26000,"station_id":"ce4bh192rcd13ifvqdc0","pricing_plan_id":"free"},{"bike_id":"fce824b6-430f-44dc-8ec8-7acc08d95e78","system_id":"levelo_inurba_marseille","lat":43.276179,"lon":5.361009,"is_reserved":false,"is_disabled":false,"rental_uris":{"android":"levelo://app?vid=fce824b6-430f-44dc-8ec8-7acc08d95e78","ios":"levelo://app?vid=fce824b6-430f-44dc-8ec8-7acc08d95e78"},"vehicle_type_id":"4","last_reported":1703250513,"current_range_meters":30400,"station_id":"ce4bgj92rcd13ifvqbe0","pricing_plan_id":"free"},{"bike_id":"eb26abdb-ac67-4e71-9bbe-40464da5665c","system_id":"levelo_inurba_marseille","lat":43.276179,"lon":5.361009,"is_reserved":false,"is_disabled":false,"rental_uris":{"android":"levelo://app?vid=eb26abdb-ac67-4e71-9bbe-40464da5665c","ios":"levelo://app?vid=eb26abdb-ac67-4e71-9bbe-40464da5665c"},"vehicle_type_id":"4","last_reported":1703250513,"current_range_meters":2800,"station_id":"ce4bgj92rcd13ifvqbe0","pricing_plan_id":"free"},{"bike_id":"a58a07e7-1ea4-4f7d-b573-122cbd42f819","system_id":"levelo_inurba_marseille","lat":43.280784,"lon":5.396622,"is_reserved":false,"is_disabled":false,"rental_uris":{"android":"levelo://app?vid=a58a07e7-1ea4-4f7d-b573-122cbd42f819","ios":"levelo://app?vid=a58a07e7-1ea4-4f7d-b573-122cbd42f819"},"vehicle_type_id":"4","last_reported":1703250513,"current_range_meters":17200,"station_id":"ce4bho12rcd13ifvqh2g","pricing_plan_id":"free"},{"bike_id":"6626fddb-6a11-4855-99e4-38e49a54a391","system_id":"levelo_inurba_marseille","lat":43.280784,"lon":5.396622,"is_reserved":false,"is_disabled":false,"rental_uris":{"android":"levelo://app?vid=6626fddb-6a11-4855-99e4-38e49a54a391","ios":"levelo://app?vid=6626fddb-6a11-4855-99e4-38e49a54a391"},"vehicle_type_id":"4","last_reported":1703250513,"current_range_meters":28800,"station_id":"ce4bho12rcd13ifvqh2g","pricing_plan_id":"free"},{"bike_id":"fb665de3-95e6-4f61-835e-c583de590c12","system_id":"levelo_inurba_marseille","lat":43.278319,"lon":5.392018,"is_reserved":false,"is_disabled":false,"rental_uris":{"android":"levelo://app?vid=fb665de3-95e6-4f61-835e-c583de590c12","ios":"levelo://app?vid=fb665de3-95e6-4f61-835e-c583de590c12"},"vehicle_type_id":"4","last_reported":1703250513,"current_range_meters":4800,"station_id":"ce4bhjp2rcd13ifvqga0","pricing_plan_id":"free"},{"bike_id":"5c90e979-6637-4efd-9525-aee8bd4a4f81","system_id":"levelo_inurba_marseille","lat":43.275625,"lon":5.384392,"is_reserved":false,"is_disabled":false,"rental_uris":{"android":"levelo://app?vid=5c90e979-6637-4efd-9525-aee8bd4a4f81","ios":"levelo://app?vid=5c90e979-6637-4efd-9525-aee8bd4a4f81"},"vehicle_type_id":"4","last_reported":1703250513,"current_range_meters":16000,"station_id":"ce4bhh92rcd13ifvqfi0","pricing_plan_id":"free"},{"bike_id":"140413ec-d284-430c-9162-9aa9f63916ac","system_id":"levelo_inurba_marseille","lat":43.336134,"lon":5.410341,"is_reserved":false,"is_disabled":false,"rental_uris":{"android":"levelo://app?vid=140413ec-d284-430c-9162-9aa9f63916ac","ios":"levelo://app?vid=140413ec-d284-430c-9162-9aa9f63916ac"},"vehicle_type_id":"4","last_reported":1703250513,"current_range_meters":11600,"station_id":"ce4bhqh2rcd13ifvqhmg","pricing_plan_id":"free"},{"bike_id":"926aa214-497e-4afc-976f-172ea80d20d3","system_id":"levelo_inurba_marseille","lat":43.276771,"lon":5.388799,"is_reserved":false,"is_disabled":false,"rental_uris":{"android":"levelo://app?vid=926aa214-497e-4afc-976f-172ea80d20d3","ios":"levelo://app?vid=926aa214-497e-4afc-976f-172ea80d20d3"},"vehicle_type_id":"4","last_reported":1703250513,"current_range_meters":31200,"station_id":"ce4bhi12rcd13ifvqfo0","pricing_plan_id":"free"},{"bike_id":"a8c05e7b-b0ef-43cf-b9fb-78058cb2f361","system_id":"levelo_inurba_marseille","lat":43.27661,"lon":5.38888,"is_reserved":false,"is_disabled":false,"rental_uris":{"android":"levelo://app?vid=a8c05e7b-b0ef-43cf-b9fb-78058cb2f361","ios":"levelo://app?vid=a8c05e7b-b0ef-43cf-b9fb-78058cb2f361"},"vehicle_type_id":"4","last_reported":1703250513,"current_range_meters":13600,"station_id":"","pricing_plan_id":"free"},{"bike_id":"3dce146c-3963-4709-9b70-b2b7c732867f","system_id":"levelo_inurba_marseille","lat":43.317121,"lon":5.423936,"is_reserved":false,"is_disabled":false,"rental_uris":{"android":"levelo://app?vid=3dce146c-3963-4709-9b70-b2b7c732867f","ios":"levelo://app?vid=3dce146c-3963-4709-9b70-b2b7c732867f"},"vehicle_type_id":"4","last_reported":1703250513,"current_range_meters":10800,"station_id":"ce4bhp92rcd13ifvqhbg","pricing_plan_id":"free"},{"bike_id":"67c95ba1-3b1b-4724-b685-672be7a82fce","system_id":"levelo_inurba_marseille","lat":43.317121,"lon":5.423936,"is_reserved":false,"is_disabled":false,"rental_uris":{"android":"levelo://app?vid=67c95ba1-3b1b-4724-b685-672be7a82fce","ios":"levelo://app?vid=67c95ba1-3b1b-4724-b685-672be7a82fce"},"vehicle_type_id":"4","last_reported":1703250513,"current_range_meters":4400,"station_id":"ce4bhp92rcd13ifvqhbg","pricing_plan_id":"free"},{"bike_id":"96939607-2741-4089-ba93-703e03251f9d","system_id":"levelo_inurba_marseille","lat":43.274099,"lon":5.394019,"is_reserved":false,"is_disabled":false,"rental_uris":{"android":"levelo://app?vid=96939607-2741-4089-ba93-703e03251f9d","ios":"levelo://app?vid=96939607-2741-4089-ba93-703e03251f9d"},"vehicle_type_id":"4","last_reported":1703250513,"current_range_meters":15600,"station_id":"ce4bhdp2rcd13ifvqf20","pricing_plan_id":"free"},{"bike_id":"f0aa17d3-3759-46de-b875-31baa7545259","system_id":"levelo_inurba_marseille","lat":43.304096,"lon":5.425385,"is_reserved":false,"is_disabled":false,"rental_uris":{"android":"levelo://app?vid=f0aa17d3-3759-46de-b875-31baa7545259","ios":"levelo://app?vid=f0aa17d3-3759-46de-b875-31baa7545259"},"vehicle_type_id":"4","last_reported":1703250513,"current_range_meters":18000,"station_id":"ce4bhoh2rcd13ifvqh6g","pricing_plan_id":"free"},{"bike_id":"abb828de-f5fb-4f0b-99bc-3538177f9bc7","system_id":"levelo_inurba_marseille","lat":43.304096,"lon":5.425385,"is_reserved":false,"is_disabled":false,"rental_uris":{"android":"levelo://app?vid=abb828de-f5fb-4f0b-99bc-3538177f9bc7","ios":"levelo://app?vid=abb828de-f5fb-4f0b-99bc-3538177f9bc7"},"vehicle_type_id":"4","last_reported":1703250513,"current_range_meters":24000,"station_id":"ce4bhoh2rcd13ifvqh6g","pricing_plan_id":"free"},{"bike_id":"a80c78b0-54bd-4c06-a456-7ff9cb5fb92c","system_id":"levelo_inurba_marseille","lat":43.295523,"lon":5.422926,"is_reserved":false,"is_disabled":false,"rental_uris":{"android":"levelo://app?vid=a80c78b0-54bd-4c06-a456-7ff9cb5fb92c","ios":"levelo://app?vid=a80c78b0-54bd-4c06-a456-7ff9cb5fb92c"},"vehicle_type_id":"4","last_reported":1703250513,"current_range_meters":27600,"station_id":"ce4bhph2rcd13ifvqhdg","pricing_plan_id":"free"},{"bike_id":"7d800ac1-1b26-47dd-97c6-49cd89d9ab11","system_id":"levelo_inurba_marseille","lat":43.295511,"lon":5.422926,"is_reserved":false,"is_disabled":false,"rental_uris":{"android":"levelo://app?vid=7d800ac1-1b26-47dd-97c6-49cd89d9ab11","ios":"levelo://app?vid=7d800ac1-1b26-47dd-97c6-49cd89d9ab11"},"vehicle_type_id":"4","last_reported":1703250513,"current_range_meters":11600,"station_id":"ce4bhph2rcd13ifvqhdg","pricing_plan_id":"free"},{"bike_id":"23d13786-8601-4dce-a424-5d4a35dea444","system_id":"levelo_inurba_marseille","lat":43.295511,"lon":5.422926,"is_reserved":false,"is_disabled":false,"rental_uris":{"android":"levelo://app?vid=23d13786-8601-4dce-a424-5d4a35dea444","ios":"levelo://app?vid=23d13786-8601-4dce-a424-5d4a35dea444"},"vehicle_type_id":"4","last_reported":1703250513,"current_range_meters":14800,"station_id":"ce4bhph2rcd13ifvqhdg","pricing_plan_id":"free"},{"bike_id":"b55db1a0-b820-479b-9929-7610c21584c5","system_id":"levelo_inurba_marseille","lat":43.295511,"lon":5.422926,"is_reserved":false,"is_disabled":false,"rental_uris":{"android":"levelo://app?vid=b55db1a0-b820-479b-9929-7610c21584c5","ios":"levelo://app?vid=b55db1a0-b820-479b-9929-7610c21584c5"},"vehicle_type_id":"4","last_reported":1703250513,"current_range_meters":25200,"station_id":"ce4bhph2rcd13ifvqhdg","pricing_plan_id":"free"},{"bike_id":"615cdbdd-7d27-4572-ba88-0a1e888bcafa","system_id":"levelo_inurba_marseille","lat":43.272124,"lon":5.391768,"is_reserved":false,"is_disabled":false,"rental_uris":{"android":"levelo://app?vid=615cdbdd-7d27-4572-ba88-0a1e888bcafa","ios":"levelo://app?vid=615cdbdd-7d27-4572-ba88-0a1e888bcafa"},"vehicle_type_id":"4","last_reported":1703250513,"current_range_meters":20400,"station_id":"ce4bhhp2rcd13ifvqfm0","pricing_plan_id":"free"},{"bike_id":"cf343e7c-4ee6-4e3e-a7da-2fb4f71dbea2","system_id":"levelo_inurba_marseille","lat":43.272116,"lon":5.391763,"is_reserved":false,"is_disabled":false,"rental_uris":{"android":"levelo://app?vid=cf343e7c-4ee6-4e3e-a7da-2fb4f71dbea2","ios":"levelo://app?vid=cf343e7c-4ee6-4e3e-a7da-2fb4f71dbea2"},"vehicle_type_id":"4","last_reported":1703250513,"current_range_meters":6400,"station_id":"ce4bhhp2rcd13ifvqfm0","pricing_plan_id":"free"},{"bike_id":"aa63b3ee-7698-44b7-8d86-4056a80a0261","system_id":"levelo_inurba_marseille","lat":43.272118,"lon":5.391758,"is_reserved":false,"is_disabled":false,"rental_uris":{"android":"levelo://app?vid=aa63b3ee-7698-44b7-8d86-4056a80a0261","ios":"levelo://app?vid=aa63b3ee-7698-44b7-8d86-4056a80a0261"},"vehicle_type_id":"4","last_reported":1703250513,"current_range_meters":24000,"station_id":"ce4bhhp2rcd13ifvqfm0","pricing_plan_id":"free"},{"bike_id":"d6475d49-a73b-4845-b255-91064be53cbe","system_id":"levelo_inurba_marseille","lat":43.272118,"lon":5.391758,"is_reserved":false,"is_disabled":false,"rental_uris":{"android":"levelo://app?vid=d6475d49-a73b-4845-b255-91064be53cbe","ios":"levelo://app?vid=d6475d49-a73b-4845-b255-91064be53cbe"},"vehicle_type_id":"4","last_reported":1703250513,"current_range_meters":6800,"station_id":"ce4bhhp2rcd13ifvqfm0","pricing_plan_id":"free"},{"bike_id":"2385a3dc-ecc5-4c8e-b554-c8e4b25ef268","system_id":"levelo_inurba_marseille","lat":43.278128,"lon":5.407195,"is_reserved":false,"is_disabled":false,"rental_uris":{"android":"levelo://app?vid=2385a3dc-ecc5-4c8e-b554-c8e4b25ef268","ios":"levelo://app?vid=2385a3dc-ecc5-4c8e-b554-c8e4b25ef268"},"vehicle_type_id":"4","last_reported":1703250513,"current_range_meters":22000,"station_id":"ce4bhnh2rcd13ifvqgtg","pricing_plan_id":"free"},{"bike_id":"b4601efd-44a0-4cb0-b51a-55933c9c824f","system_id":"levelo_inurba_marseille","lat":43.27805,"lon":5.40713,"is_reserved":false,"is_disabled":false,"rental_uris":{"android":"levelo://app?vid=b4601efd-44a0-4cb0-b51a-55933c9c824f","ios":"levelo://app?vid=b4601efd-44a0-4cb0-b51a-55933c9c824f"},"vehicle_type_id":"4","last_reported":1703250513,"current_range_meters":0,"station_id":"ce4bhnh2rcd13ifvqgtg","pricing_plan_id":"free"},{"bike_id":"4ad868d4-a58a-4227-bd2c-fd595fa778d7","system_id":"levelo_inurba_marseille","lat":43.269467,"lon":5.386439,"is_reserved":false,"is_disabled":false,"rental_uris":{"android":"levelo://app?vid=4ad868d4-a58a-4227-bd2c-fd595fa778d7","ios":"levelo://app?vid=4ad868d4-a58a-4227-bd2c-fd595fa778d7"},"vehicle_type_id":"4","last_reported":1703250513,"current_range_meters":24400,"station_id":"ce4bhh92rcd13ifvqfh0","pricing_plan_id":"free"},{"bike_id":"a0c45794-6ad5-4273-8b16-1dd3894aa506","system_id":"levelo_inurba_marseille","lat":43.269467,"lon":5.386439,"is_reserved":false,"is_disabled":false,"rental_uris":{"android":"levelo://app?vid=a0c45794-6ad5-4273-8b16-1dd3894aa506","ios":"levelo://app?vid=a0c45794-6ad5-4273-8b16-1dd3894aa506"},"vehicle_type_id":"4","last_reported":1703250513,"current_range_meters":22400,"station_id":"ce4bhh92rcd13ifvqfh0","pricing_plan_id":"free"},{"bike_id":"0f1f280b-791e-48d8-a96a-92b2e86c8c8f","system_id":"levelo_inurba_marseille","lat":43.269467,"lon":5.386439,"is_reserved":false,"is_disabled":false,"rental_uris":{"android":"levelo://app?vid=0f1f280b-791e-48d8-a96a-92b2e86c8c8f","ios":"levelo://app?vid=0f1f280b-791e-48d8-a96a-92b2e86c8c8f"},"vehicle_type_id":"4","last_reported":1703250513,"current_range_meters":14400,"station_id":"ce4bhh92rcd13ifvqfh0","pricing_plan_id":"free"},{"bike_id":"61550aad-2bdf-4d69-a4fa-2735b97e3ff1","system_id":"levelo_inurba_marseille","lat":43.269467,"lon":5.386439,"is_reserved":false,"is_disabled":false,"rental_uris":{"android":"levelo://app?vid=61550aad-2bdf-4d69-a4fa-2735b97e3ff1","ios":"levelo://app?vid=61550aad-2bdf-4d69-a4fa-2735b97e3ff1"},"vehicle_type_id":"4","last_reported":1703250513,"current_range_meters":31200,"station_id":"ce4bhh92rcd13ifvqfh0","pricing_plan_id":"free"},{"bike_id":"70f915be-767e-46ea-9d5a-acf7fcba2d26","system_id":"levelo_inurba_marseille","lat":43.269467,"lon":5.386439,"is_reserved":false,"is_disabled":false,"rental_uris":{"android":"levelo://app?vid=70f915be-767e-46ea-9d5a-acf7fcba2d26","ios":"levelo://app?vid=70f915be-767e-46ea-9d5a-acf7fcba2d26"},"vehicle_type_id":"4","last_reported":1703250513,"current_range_meters":2800,"station_id":"ce4bhh92rcd13ifvqfh0","pricing_plan_id":"free"},{"bike_id":"a63e0239-848f-4e2c-b371-73b2e66acaf9","system_id":"levelo_inurba_marseille","lat":43.269467,"lon":5.386439,"is_reserved":false,"is_disabled":false,"rental_uris":{"android":"levelo://app?vid=a63e0239-848f-4e2c-b371-73b2e66acaf9","ios":"levelo://app?vid=a63e0239-848f-4e2c-b371-73b2e66acaf9"},"vehicle_type_id":"4","last_reported":1703250513,"current_range_meters":12000,"station_id":"ce4bhh92rcd13ifvqfh0","pricing_plan_id":"free"},{"bike_id":"e6b3c68c-44cf-409e-b55e-41ff5a535656","system_id":"levelo_inurba_marseille","lat":43.279465,"lon":5.410561,"is_reserved":false,"is_disabled":false,"rental_uris":{"android":"levelo://app?vid=e6b3c68c-44cf-409e-b55e-41ff5a535656","ios":"levelo://app?vid=e6b3c68c-44cf-409e-b55e-41ff5a535656"},"vehicle_type_id":"4","last_reported":1703250513,"current_range_meters":11600,"station_id":"ce4bhnp2rcd13ifvqh0g","pricing_plan_id":"free"},{"bike_id":"893b2a0c-eabb-41b1-a147-1f791568f797","system_id":"levelo_inurba_marseille","lat":43.279465,"lon":5.410561,"is_reserved":false,"is_disabled":false,"rental_uris":{"android":"levelo://app?vid=893b2a0c-eabb-41b1-a147-1f791568f797","ios":"levelo://app?vid=893b2a0c-eabb-41b1-a147-1f791568f797"},"vehicle_type_id":"4","last_reported":1703250513,"current_range_meters":18000,"station_id":"ce4bhnp2rcd13ifvqh0g","pricing_plan_id":"free"},{"bike_id":"de206db2-dca3-4ba7-a290-f38d42cda59f","system_id":"levelo_inurba_marseille","lat":43.269319,"lon":5.389397,"is_reserved":false,"is_disabled":false,"rental_uris":{"android":"levelo://app?vid=de206db2-dca3-4ba7-a290-f38d42cda59f","ios":"levelo://app?vid=de206db2-dca3-4ba7-a290-f38d42cda59f"},"vehicle_type_id":"4","last_reported":1703250513,"current_range_meters":0,"station_id":"ce4bhhh2rcd13ifvqfl0","pricing_plan_id":"free"},{"bike_id":"00de9a4f-e1bb-4b67-8ef1-cec4b85bb18b","system_id":"levelo_inurba_marseille","lat":43.269319,"lon":5.389397,"is_reserved":false,"is_disabled":false,"rental_uris":{"android":"levelo://app?vid=00de9a4f-e1bb-4b67-8ef1-cec4b85bb18b","ios":"levelo://app?vid=00de9a4f-e1bb-4b67-8ef1-cec4b85bb18b"},"vehicle_type_id":"4","last_reported":1703250513,"current_range_meters":24400,"station_id":"ce4bhhh2rcd13ifvqfl0","pricing_plan_id":"free"},{"bike_id":"67c61cc4-c047-4069-b02f-3a2fa498ff13","system_id":"levelo_inurba_marseille","lat":43.269319,"lon":5.389397,"is_reserved":false,"is_disabled":false,"rental_uris":{"android":"levelo://app?vid=67c61cc4-c047-4069-b02f-3a2fa498ff13","ios":"levelo://app?vid=67c61cc4-c047-4069-b02f-3a2fa498ff13"},"vehicle_type_id":"4","last_reported":1703250513,"current_range_meters":26000,"station_id":"ce4bhhh2rcd13ifvqfl0","pricing_plan_id":"free"},{"bike_id":"e56f08cb-d3e3-4ecf-b386-c8513c3db753","system_id":"levelo_inurba_marseille","lat":43.269319,"lon":5.389397,"is_reserved":false,"is_disabled":false,"rental_uris":{"android":"levelo://app?vid=e56f08cb-d3e3-4ecf-b386-c8513c3db753","ios":"levelo://app?vid=e56f08cb-d3e3-4ecf-b386-c8513c3db753"},"vehicle_type_id":"4","last_reported":1703250513,"current_range_meters":20800,"station_id":"ce4bhhh2rcd13ifvqfl0","pricing_plan_id":"free"},{"bike_id":"7e19e4d8-16fd-432f-a078-e5a64b655341","system_id":"levelo_inurba_marseille","lat":43.27996,"lon":5.416624,"is_reserved":false,"is_disabled":false,"rental_uris":{"android":"levelo://app?vid=7e19e4d8-16fd-432f-a078-e5a64b655341","ios":"levelo://app?vid=7e19e4d8-16fd-432f-a078-e5a64b655341"},"vehicle_type_id":"4","last_reported":1703250513,"current_range_meters":24800,"station_id":"ce4bho12rcd13ifvqh1g","pricing_plan_id":"free"},{"bike_id":"90632e78-2c91-41c4-bf3f-597cfab35a37","system_id":"levelo_inurba_marseille","lat":43.27996,"lon":5.416624,"is_reserved":false,"is_disabled":false,"rental_uris":{"android":"levelo://app?vid=90632e78-2c91-41c4-bf3f-597cfab35a37","ios":"levelo://app?vid=90632e78-2c91-41c4-bf3f-597cfab35a37"},"vehicle_type_id":"4","last_reported":1703250513,"current_range_meters":26800,"station_id":"ce4bho12rcd13ifvqh1g","pricing_plan_id":"free"},{"bike_id":"56166baf-d72f-4606-88de-0fc08468407a","system_id":"levelo_inurba_marseille","lat":43.239588,"lon":5.366238,"is_reserved":false,"is_disabled":false,"rental_uris":{"android":"levelo://app?vid=56166baf-d72f-4606-88de-0fc08468407a","ios":"levelo://app?vid=56166baf-d72f-4606-88de-0fc08468407a"},"vehicle_type_id":"4","last_reported":1703250513,"current_range_meters":15600,"station_id":"ce4bhi12rcd13ifvqfp0","pricing_plan_id":"free"},{"bike_id":"5351b231-4b3a-4c3e-a924-dd60f7b26d6c","system_id":"levelo_inurba_marseille","lat":43.265571,"lon":5.390032,"is_reserved":false,"is_disabled":false,"rental_uris":{"android":"levelo://app?vid=5351b231-4b3a-4c3e-a924-dd60f7b26d6c","ios":"levelo://app?vid=5351b231-4b3a-4c3e-a924-dd60f7b26d6c"},"vehicle_type_id":"4","last_reported":1703250513,"current_range_meters":14800,"station_id":"ce4bhe12rcd13ifvqf30","pricing_plan_id":"free"},{"bike_id":"d09118e5-c052-4768-a1bb-4f1718d7915b","system_id":"levelo_inurba_marseille","lat":43.265569,"lon":5.390047,"is_reserved":false,"is_disabled":false,"rental_uris":{"android":"levelo://app?vid=d09118e5-c052-4768-a1bb-4f1718d7915b","ios":"levelo://app?vid=d09118e5-c052-4768-a1bb-4f1718d7915b"},"vehicle_type_id":"4","last_reported":1703250513,"current_range_meters":11600,"station_id":"ce4bhe12rcd13ifvqf30","pricing_plan_id":"free"},{"bike_id":"bb44b65f-f46b-4e01-ab76-bfeacc15cab5","system_id":"levelo_inurba_marseille","lat":43.261782,"lon":5.374515,"is_reserved":false,"is_disabled":false,"rental_uris":{"android":"levelo://app?vid=bb44b65f-f46b-4e01-ab76-bfeacc15cab5","ios":"levelo://app?vid=bb44b65f-f46b-4e01-ab76-bfeacc15cab5"},"vehicle_type_id":"4","last_reported":1703250513,"current_range_meters":31200,"station_id":"ce4bhgp2rcd13ifvqfc0","pricing_plan_id":"free"},{"bike_id":"2d6427c7-a10a-4b24-b0a5-95d867c65295","system_id":"levelo_inurba_marseille","lat":43.31709,"lon":5.4371,"is_reserved":false,"is_disabled":false,"rental_uris":{"android":"levelo://app?vid=2d6427c7-a10a-4b24-b0a5-95d867c65295","ios":"levelo://app?vid=2d6427c7-a10a-4b24-b0a5-95d867c65295"},"vehicle_type_id":"4","last_reported":1703250513,"current_range_meters":21600,"station_id":"ce4bhp92rcd13ifvqhcg","pricing_plan_id":"free"},{"bike_id":"af855eb1-025b-44d3-9e9c-bb854613b686","system_id":"levelo_inurba_marseille","lat":43.31712,"lon":5.43715,"is_reserved":false,"is_disabled":false,"rental_uris":{"android":"levelo://app?vid=af855eb1-025b-44d3-9e9c-bb854613b686","ios":"levelo://app?vid=af855eb1-025b-44d3-9e9c-bb854613b686"},"vehicle_type_id":"4","last_reported":1703250513,"current_range_meters":6400,"station_id":"ce4bhp92rcd13ifvqhcg","pricing_plan_id":"free"},{"bike_id":"8a01a031-cabb-4b2a-a731-ee2d13c4cb04","system_id":"levelo_inurba_marseille","lat":43.2652,"lon":5.39525,"is_reserved":false,"is_disabled":false,"rental_uris":{"android":"levelo://app?vid=8a01a031-cabb-4b2a-a731-ee2d13c4cb04","ios":"levelo://app?vid=8a01a031-cabb-4b2a-a731-ee2d13c4cb04"},"vehicle_type_id":"4","last_reported":1703250513,"current_range_meters":26000,"station_id":"","pricing_plan_id":"free"},{"bike_id":"9bc11cf7-d766-47fb-a2ac-1ffa731b216c","system_id":"levelo_inurba_marseille","lat":43.298768,"lon":5.43643,"is_reserved":false,"is_disabled":false,"rental_uris":{"android":"levelo://app?vid=9bc11cf7-d766-47fb-a2ac-1ffa731b216c","ios":"levelo://app?vid=9bc11cf7-d766-47fb-a2ac-1ffa731b216c"},"vehicle_type_id":"4","last_reported":1703250513,"current_range_meters":30800,"station_id":"ce4bhpp2rcd13ifvqhfg","pricing_plan_id":"free"},{"bike_id":"3d205107-14a2-4084-825b-e00887f8383f","system_id":"levelo_inurba_marseille","lat":43.260219,"lon":5.37546,"is_reserved":false,"is_disabled":false,"rental_uris":{"android":"levelo://app?vid=3d205107-14a2-4084-825b-e00887f8383f","ios":"levelo://app?vid=3d205107-14a2-4084-825b-e00887f8383f"},"vehicle_type_id":"4","last_reported":1703250513,"current_range_meters":29600,"station_id":"ce4bhgh2rcd13ifvqfa0","pricing_plan_id":"free"},{"bike_id":"eef06a1b-fdcb-46b9-80de-b0432e7c677b","system_id":"levelo_inurba_marseille","lat":43.281548,"lon":5.42643,"is_reserved":false,"is_disabled":false,"rental_uris":{"android":"levelo://app?vid=eef06a1b-fdcb-46b9-80de-b0432e7c677b","ios":"levelo://app?vid=eef06a1b-fdcb-46b9-80de-b0432e7c677b"},"vehicle_type_id":"4","last_reported":1703250513,"current_range_meters":25200,"station_id":"ce4bhnh2rcd13ifvqgug","pricing_plan_id":"free"},