{"last_updated":1750198210,"ttl":60,"version":"2.2","data":{"bikes":[{"bike_id":"3da29fb8-fc97-44c6-b9ac-31dd456b2fd4","system_id":"levelo_inurba_marseille","lat":43.33771,"lon":5.37424,"is_reserved":false,"is_disabled":true,"rental_uris":{"android":"levelo://app?vid=3da29fb8-fc97-44c6-b9ac-31dd456b2fd4","ios":"levelo://app?vid=3da29fb8-fc97-44c6-b9ac-31dd456b2fd4"},"vehicle_type_id":"4","last_reported":1750198210,"current_range_meters":0,"station_id":"","pricing_plan_id":"cebpf4jnsgd1na2vs0mg"},{"bike_id":"01861ad8-a8d7-4be6-816e-651927c87584","system_id":"levelo_inurba_marseille","lat":43.33751,"lon":5.37456,"is_reserved":false,"is_disabled":true,"rental_uris":{"android":"levelo://app?vid=01861ad8-a8d7-4be6-816e-651927c87584","ios":"levelo://app?vid=01861ad8-a8d7-4be6-816e-651927c87584"},"vehicle_type_id":"4","last_reported":1750198210,"current_range_meters":0,"station_id":"","pricing_plan_id":"cebpf4jnsgd1na2vs0mg"},{"bike_id":"dbfce7a3-3423-4296-b193-a177dea644ac","system_id":"levelo_inurba_marseille","lat":43.27302,"lon":5.41608,"is_reserved":false,"is_disabled":true,"rental_uris":{"android":"levelo://app?vid=dbfce7a3-3423-4296-b193-a177dea644ac","ios":"levelo://app?vid=dbfce7a3-3423-4296-b193-a177dea644ac"},"vehicle_type_id":"4","last_reported":1750198210,"current_range_meters":0,"station_id":"","pricing_plan_id":"cebpf4jnsgd1na2vs0mg"},{"bike_id":"d2bd57c8-6b64-48db-ad24-5398eb3fd9d6","system_id":"levelo_inurba_marseille","lat":43.337444,"lon":5.374475,"is_reserved":false,"is_disabled":true,"rental_uris":{"android":"levelo://app?vid=d2bd57c8-6b64-48db-ad24-5398eb3fd9d6","ios":"levelo://app?vid=d2bd57c8-6b64-48db-ad24-5398eb3fd9d6"},"vehicle_type_id":"4","last_reported":1750198210,"current_range_meters":0,"station_id":"","pricing_plan_id":"cebpf4jnsgd1na2vs0mg"},{"bike_id":"62a493c7-4534-4419-ad43-0582de34a72a","system_id":"levelo_inurba_marseille","lat":43.21366,"lon":5.355183,"is_reserved":false,"is_disabled":true,"rental_uris":{"android":"levelo://app?vid=62a493c7-4534-4419-ad43-0582de34a72a","ios":"levelo://app?vid=62a493c7-4534-4419-ad43-0582de34a72a"},"vehicle_type_id":"4","last_reported":1750198210,"current_range_meters":0,"station_id":"","pricing_plan_id":"cebpf4jnsgd1na2vs0mg"},{"bike_id":"8ad9234e-001a-4549-8bba-9baf2ef98804","system_id":"levelo_inurba_marseille","lat":43.27465,"lon":5.39823,"is_reserved":false,"is_disabled":true,"rental_uris":{"android":"levelo://app?vid=8ad9234e-001a-4549-8bba-9baf2ef98804","ios":"levelo://app?vid=8ad9234e-001a-4549-8bba-9baf2ef98804"},"vehicle_type_id":"4","last_reported":1750198210,"current_range_meters":0,"station_id":"","pricing_plan_id":"cebpf4jnsgd1na2vs0mg"},{"bike_id":"93af304b-67b5-47b8-a3fd-e0775f7cde8c","system_id":"levelo_inurba_marseille","lat":43.21522,"lon":5.34746,"is_reserved":false,"is_disabled":true,"rental_uris":{"android":"levelo://app?vid=93af304b-67b5-47b8-a3fd-e0775f7cde8c","ios":"levelo://app?vid=93af304b-67b5-47b8-a3fd-e0775f7cde8c"},"vehicle_type_id":"4","last_reported":1750198210,"current_range_meters":0,"station_id":"","pricing_plan_id":"cebpf4jnsgd1na2vs0mg"},{"bike_id":"d6609b4f-333b-43c1-9ebe-8726f5e76e88","system_id":"levelo_inurba_marseille","lat":43.337444,"lon":5.374475,"is_reserved":false,"is_disabled":true,"rental_uris":{"android":"levelo://app?vid=d6609b4f-333b-43c1-9ebe-8726f5e76e88","ios":"levelo://app?vid=d6609b4f-333b-43c1-9ebe-8726f5e76e88"},"vehicle_type_id":"4","last_reported":1750198210,"current_range_meters":0,"station_id":"","pricing_plan_id":"cebpf4jnsgd1na2vs0mg"},{"bike_id":"57c83ce1-960e-466a-b6c5-d93bc130c53a","system_id":"levelo_inurba_marseille","lat":43.249099,"lon":5.389469,"is_reserved":false,"is_disabled":true,"rental_uris":{"android":"levelo://app?vid=57c83ce1-960e-466a-b6c5-d93bc130c53a","ios":"levelo://app?vid=57c83ce1-960e-466a-b6c5-d93bc130c53a"},"vehicle_type_id":"4","last_reported":1750198210,"current_range_meters":0,"station_id":"","pricing_plan_id":"cebpf4jnsgd1na2vs0mg"},{"bike_id":"ac9a96ba-3cbb-407b-a4e7-ebf429af8117","system_id":"levelo_inurba_marseille","lat":43.29978,"lon":5.38492,"is_reserved":false,"is_disabled":true,"rental_uris":{"android":"levelo://app?vid=ac9a96ba-3cbb-407b-a4e7-ebf429af8117","ios":"levelo://app?vid=ac9a96ba-3cbb-407b-a4e7-ebf429af8117"},"vehicle_type_id":"4","last_reported":1750198210,"current_range_meters":0,"station_id":"ce4bgj92rcd13ifvqbd0","pricing_plan_id":"cebpf4jnsgd1na2vs0mg"},{"bike_id":"b9e37238-9abe-4b8b-b932-edaee33a7e59","system_id":"levelo_inurba_marseille","lat":43.27587,"lon":5.3914,"is_reserved":false,"is_disabled":true,"rental_uris":{"android":"levelo://app?vid=b9e37238-9abe-4b8b-b932-edaee33a7e59","ios":"levelo://app?vid=b9e37238-9abe-4b8b-b932-edaee33a7e59"},"vehicle_type_id":"4","last_reported":1750198210,"current_range_meters":400,"station_id":"","pricing_plan_id":"cebpf4jnsgd1na2vs0mg"},{"bike_id":"b3752bee-da2f-462b-a1d0-84e659ffc60c","system_id":"levelo_inurba_marseille","lat":43.27693,"lon":5.3892,"is_reserved":false,"is_disabled":true,"rental_uris":{"android":"levelo://app?vid=b3752bee-da2f-462b-a1d0-84e659ffc60c","ios":"levelo://app?vid=b3752bee-da2f-462b-a1d0-84e659ffc60c"},"vehicle_type_id":"4","last_reported":1750198210,"current_range_meters":400,"station_id":"ce4bhi12rcd13ifvqfo0","pricing_plan_id":"cebpf4jnsgd1na2vs0mg"},{"bike_id":"5b750c55-0e5b-495b-b864-e587122cf350","system_id":"levelo_inurba_marseille","lat":43.246124,"lon":5.39449,"is_reserved":false,"is_disabled":true,"rental_uris":{"android":"levelo://app?vid=5b750c55-0e5b-495b-b864-e587122cf350","ios":"levelo://app?vid=5b750c55-0e5b-495b-b864-e587122cf350"},"vehicle_type_id":"4","last_reported":1750198210,"current_range_meters":400,"station_id":"ce4bhlp2rcd13ifvqgjg","pricing_plan_id":"cebpf4jnsgd1na2vs0mg"},{"bike_id":"fefc83fb-369d-4b09-9c58-b63d39fdc380","system_id":"levelo_inurba_marseille","lat":43.30298,"lon":5.39213,"is_reserved":false,"is_disabled":true,"rental_uris":{"android":"levelo://app?vid=fefc83fb-369d-4b09-9c58-b63d39fdc380","ios":"levelo://app?vid=fefc83fb-369d-4b09-9c58-b63d39fdc380"},"vehicle_type_id":"4","last_reported":1750198210,"current_range_meters":800,"station_id":"ce4bgkh2rcd13ifvqbk0","pricing_plan_id":"cebpf4jnsgd1na2vs0mg"},{"bike_id":"1aac66e2-b8cb-43fb-8674-ccf51c389e2c","system_id":"levelo_inurba_marseille","lat":43.3112,"lon":5.37767,"is_reserved":false,"is_disabled":false,"rental_uris":{"android":"levelo://app?vid=1aac66e2-b8cb-43fb-8674-ccf51c389e2c","ios":"levelo://app?vid=1aac66e2-b8cb-43fb-8674-ccf51c389e2c"},"vehicle_type_id":"4","last_reported":1750198210,"current_range_meters":1600,"station_id":"ce4bgt92rcd13ifvqcg0","pricing_plan_id":"cebpf4jnsgd1na2vs0mg"},{"bike_id":"a1cfed63-fcd6-4f6d-b2c6-714bf6e934c9","system_id":"levelo_inurba_marseille","lat":43.27068,"lon":5.42276,"is_reserved":false,"is_disabled":true,"rental_uris":{"android":"levelo://app?vid=a1cfed63-fcd6-4f6d-b2c6-714bf6e934c9","ios":"levelo://app?vid=a1cfed63-fcd6-4f6d-b2c6-714bf6e934c9"},"vehicle_type_id":"4","last_reported":1750198210,"current_range_meters":1600,"station_id":"ce4bhk92rcd13ifvqgb0","pricing_plan_id":"cebpf4jnsgd1na2vs0mg"},{"bike_id":"8d297b38-f666-4a46-9dee-0132f800019c","system_id":"levelo_inurba_marseille","lat":43.32188,"lon":5.38661,"is_reserved":false,"is_disabled":true,"rental_uris":{"android":"levelo://app?vid=8d297b38-f666-4a46-9dee-0132f800019c","ios":"levelo://app?vid=8d297b38-f666-4a46-9dee-0132f800019c"},"vehicle_type_id":"4","last_reported":1750198210,"current_range_meters":2000,"station_id":"","pricing_plan_id":"cebpf4jnsgd1na2vs0mg"},{"bike_id":"69af7404-5ec1-4810-9e8f-2b24aa559381","system_id":"levelo_inurba_marseille","lat":43.29309,"lon":5.38337,"is_reserved":false,"is_disabled":false,"rental_uris":{"android":"levelo://app?vid=69af7404-5ec1-4810-9e8f-2b24aa559381","ios":"levelo://app?vid=69af7404-5ec1-4810-9e8f-2b24aa559381"},"vehicle_type_id":"4","last_reported":1750198210,"current_range_meters":2800,"station_id":"","pricing_plan_id":"cebpf4jnsgd1na2vs0mg"},{"bike_id":"8de18e04-baaf-413e-8349-bf84935bbf3f","system_id":"levelo_inurba_marseille","lat":43.27671,"lon":5.38874,"is_reserved":false,"is_disabled":false,"rental_uris":{"android":"levelo://app?vid=8de18e04-baaf-413e-8349-bf84935bbf3f","ios":"levelo://app?vid=8de18e04-baaf-413e-8349-bf84935bbf3f"},"vehicle_type_id":"4","last_reported":1750198210,"current_range_meters":3200,"station_id":"ce4bhi12rcd13ifvqfo0","pricing_plan_id":"cebpf4jnsgd1na2vs0mg"},{"bike_id":"0f68cffc-8799-4eb2-86e1-eaa544a3ffe0","system_id":"levelo_inurba_marseille","lat":43.30314,"lon":5.40454,"is_reserved":false,"is_disabled":false,"rental_uris":{"android":"levelo://app?vid=0f68cffc-8799-4eb2-86e1-eaa544a3ffe0","ios":"levelo://app?vid=0f68cffc-8799-4eb2-86e1-eaa544a3ffe0"},"vehicle_type_id":"4","last_reported":1750198210,"current_range_meters":4000,"station_id":"ce4bh012rcd13ifvqd10","pricing_plan_id":"cebpf4jnsgd1na2vs0mg"},{"bike_id":"9b83a8d6-0327-478b-b8a6-d7c2a965d539","system_id":"levelo_inurba_marseille","lat":43.28698,"lon":5.37437,"is_reserved":false,"is_disabled":false,"rental_uris":{"android":"levelo://app?vid=9b83a8d6-0327-478b-b8a6-d7c2a965d539","ios":"levelo://app?vid=9b83a8d6-0327-478b-b8a6-d7c2a965d539"},"vehicle_type_id":"4","last_reported":1750198210,"current_range_meters":4000,"station_id":"ce4bh3p2rcd13ifvqdq0","pricing_plan_id":"cebpf4jnsgd1na2vs0mg"},{"bike_id":"33b27491-3f37-4eed-b09f-fb026726f209","system_id":"levelo_inurba_marseille","lat":43.28102,"lon":5.37847,"is_reserved":false,"is_disabled":false,"rental_uris":{"android":"levelo://app?vid=33b27491-3f37-4eed-b09f-fb026726f209","ios":"levelo://app?vid=33b27491-3f37-4eed-b09f-fb026726f209"},"vehicle_type_id":"4","last_reported":1750198210,"current_range_meters":4000,"station_id":"ce4bha12rcd13ifvqee0","pricing_plan_id":"cebpf4jnsgd1na2vs0mg"},{"bike_id":"7147a737-1522-4ee7-91f9-39e4cfee634a","system_id":"levelo_inurba_marseille","lat":43.31357,"lon":5.38492,"is_reserved":false,"is_disabled":false,"rental_uris":{"android":"levelo://app?vid=7147a737-1522-4ee7-91f9-39e4cfee634a","ios":"levelo://app?vid=7147a737-1522-4ee7-91f9-39e4cfee634a"},"vehicle_type_id":"4","last_reported":1750198210,"current_range_meters":4400,"station_id":"ce4bgt92rcd13ifvqcf0","pricing_plan_id":"cebpf4jnsgd1na2vs0mg"},{"bike_id":"2bce3d60-50b5-4194-8c12-0a26cbdc1054","system_id":"levelo_inurba_marseille","lat":43.30593,"lon":5.39363,"is_reserved":false,"is_disabled":false,"rental_uris":{"android":"levelo://app?vid=2bce3d60-50b5-4194-8c12-0a26cbdc1054","ios":"levelo://app?vid=2bce3d60-50b5-4194-8c12-0a26cbdc1054"},"vehicle_type_id":"4","last_reported":1750198210,"current_range_meters":4400,"station_id":"ce4bh0p2rcd13ifvqd80","pricing_plan_id":"cebpf4jnsgd1na2vs0mg"},{"bike_id":"199dd58f-8b3e-4d45-874c-813a1570f7b2","system_id":"levelo_inurba_marseille","lat":43.28073,"lon":5.39648,"is_reserved":false,"is_disabled":false,"rental_uris":{"android":"levelo://app?vid=199dd58f-8b3e-4d45-874c-813a1570f7b2","ios":"levelo://app?vid=199dd58f-8b3e-4d45-874c-813a1570f7b2"},"vehicle_type_id":"4","last_reported":1750198210,"current_range_meters":4400,"station_id":"ce4bho12rcd13ifvqh2g","pricing_plan_id":"cebpf4jnsgd1na2vs0mg"},{"bike_id":"af84950c-0035-443a-926a-32fea0b0917e","system_id":"levelo_inurba_marseille","lat":43.31882,"lon":5.40739,"is_reserved":false,"is_disabled":false,"rental_uris":{"android":"levelo://app?vid=af84950c-0035-443a-926a-32fea0b0917e","ios":"levelo://app?vid=af84950c-0035-443a-926a-32fea0b0917e"},"vehicle_type_id":"4","last_reported":1750198210,"current_range_meters":4400,"station_id":"ce4bhq12rcd13ifvqhig","pricing_plan_id":"cebpf4jnsgd1na2vs0mg"},{"bike_id":"1c8dd34b-9d03-492f-aa85-8944da27fde3","system_id":"levelo_inurba_marseille","lat":43.286047,"lon":5.370543,"is_reserved":false,"is_disabled":false,"rental_uris":{"android":"levelo://app?vid=1c8dd34b-9d03-492f-aa85-8944da27fde3","ios":"levelo://app?vid=1c8dd34b-9d03-492f-aa85-8944da27fde3"},"vehicle_type_id":"4","last_reported":1750198210,"current_range_meters":4800,"station_id":"","pricing_plan_id":"cebpf4jnsgd1na2vs0mg"},{"bike_id":"01f64b13-34ce-465c-830a-e05cee2adf19","system_id":"levelo_inurba_marseille","lat":43.27996,"lon":5.40013,"is_reserved":false,"is_disabled":false,"rental_uris":{"android":"levelo://app?vid=01f64b13-34ce-465c-830a-e05cee2adf19","ios":"levelo://app?vid=01f64b13-34ce-465c-830a-e05cee2adf19"},"vehicle_type_id":"4","last_reported":1750198210,"current_range_meters":4800,"station_id":"ce4bho92rcd13ifvqh4g","pricing_plan_id":"cebpf4jnsgd1na2vs0mg"},{"bike_id":"47196f00-388f-4b3b-a4de-3dba126cd107","system_id":"levelo_inurba_marseille","lat":43.2438,"lon":5.41154,"is_reserved":false,"is_disabled":false,"rental_uris":{"android":"levelo://app?vid=47196f00-388f-4b3b-a4de-3dba126cd107","ios":"levelo://app?vid=47196f00-388f-4b3b-a4de-3dba126cd107"},"vehicle_type_id":"4","last_reported":1750198210,"current_range_meters":6000,"station_id":"","pricing_plan_id":"cebpf4jnsgd1na2vs0mg"},{"bike_id":"d4e954d2-dc65-4f22-984e-459772f3259d","system_id":"levelo_inurba_marseille","lat":43.30799,"lon":5.38169,"is_reserved":false,"is_disabled":false,"rental_uris":{"android":"levelo://app?vid=d4e954d2-dc65-4f22-984e-459772f3259d","ios":"levelo://app?vid=d4e954d2-dc65-4f22-984e-459772f3259d"},"vehicle_type_id":"4","last_reported":1750198210,"current_range_meters":6800,"station_id":"ce4bgt12rcd13ifvqce0","pricing_plan_id":"cebpf4jnsgd1na2vs0mg"},{"bike_id":"dba9398c-279f-4aa9-94bf-a35e0f4e21d9","system_id":"levelo_inurba_marseille","lat":43.31159,"lon":5.38721,"is_reserved":false,"is_disabled":false,"rental_uris":{"android":"levelo://app?vid=dba9398c-279f-4aa9-94bf-a35e0f4e21d9","ios":"levelo://app?vid=dba9398c-279f-4aa9-94bf-a35e0f4e21d9"},"vehicle_type_id":"4","last_reported":1750198210,"current_range_meters":6800,"station_id":"ce4bgv12rcd13ifvqcp0","pricing_plan_id":"cebpf4jnsgd1na2vs0mg"},{"bike_id":"81d7bdb5-9785-4820-b40d-fc4e833bd5e2","system_id":"levelo_inurba_marseille","lat":43.30251,"lon":5.40065,"is_reserved":false,"is_disabled":false,"rental_uris":{"android":"levelo://app?vid=81d7bdb5-9785-4820-b40d-fc4e833bd5e2","ios":"levelo://app?vid=81d7bdb5-9785-4820-b40d-fc4e833bd5e2"},"vehicle_type_id":"4","last_reported":1750198210,"current_range_meters":6800,"station_id":"ce4bgvh2rcd13ifvqcs0","pricing_plan_id":"cebpf4jnsgd1na2vs0mg"},{"bike_id":"859ce7c7-20ed-43d7-8ee7-15c74cce7fbb","system_id":"levelo_inurba_marseille","lat":43.32262,"lon":5.38302,"is_reserved":false,"is_disabled":false,"rental_uris":{"android":"levelo://app?vid=859ce7c7-20ed-43d7-8ee7-15c74cce7fbb","ios":"levelo://app?vid=859ce7c7-20ed-43d7-8ee7-15c74cce7fbb"},"vehicle_type_id":"4","last_reported":1750198210,"current_range_meters":6800,"station_id":"ce4bhr12rcd13ifvqhqg","pricing_plan_id":"cebpf4jnsgd1na2vs0mg"},{"bike_id":"92212e4d-7217-4ead-b453-7ca4b9ff37cb","system_id":"levelo_inurba_marseille","lat":43.28457,"lon":5.35889,"is_reserved":false,"is_disabled":false,"rental_uris":{"android":"levelo://app?vid=92212e4d-7217-4ead-b453-7ca4b9ff37cb","ios":"levelo://app?vid=92212e4d-7217-4ead-b453-7ca4b9ff37cb"},"vehicle_type_id":"4","last_reported":1750198210,"current_range_meters":7200,"station_id":"ce4bhah2rcd13ifvqei0","pricing_plan_id":"cebpf4jnsgd1na2vs0mg"},{"bike_id":"da3e1724-606c-4f9a-9130-d56dd48e22e0","system_id":"levelo_inurba_marseille","lat":43.329393,"lon":5.406537,"is_reserved":false,"is_disabled":false,"rental_uris":{"android":"levelo://app?vid=da3e1724-606c-4f9a-9130-d56dd48e22e0","ios":"levelo://app?vid=da3e1724-606c-4f9a-9130-d56dd48e22e0"},"vehicle_type_id":"4","last_reported":1750198210,"current_range_meters":8000,"station_id":"","pricing_plan_id":"cebpf4jnsgd1na2vs0mg"},{"bike_id":"035df5f9-5415-4646-b778-3e5c2fc962b5","system_id":"levelo_inurba_marseille","lat":43.30423,"lon":5.39751,"is_reserved":false,"is_disabled":false,"rental_uris":{"android":"levelo://app?vid=035df5f9-5415-4646-b778-3e5c2fc962b5","ios":"levelo://app?vid=035df5f9-5415-4646-b778-3e5c2fc962b5"},"vehicle_type_id":"4","last_reported":1750198210,"current_range_meters":8000,"station_id":"ce4bh092rcd13ifvqd20","pricing_plan_id":"cebpf4jnsgd1na2vs0mg"},{"bike_id":"7dd5c82a-e4be-4cab-a499-dfca4328d3bf","system_id":"levelo_inurba_marseille","lat":43.29276,"lon":5.40113,"is_reserved":false,"is_disabled":false,"rental_uris":{"android":"levelo://app?vid=7dd5c82a-e4be-4cab-a499-dfca4328d3bf","ios":"levelo://app?vid=7dd5c82a-e4be-4cab-a499-dfca4328d3bf"},"vehicle_type_id":"4","last_reported":1750198210,"current_range_meters":8000,"station_id":"ce4bh312rcd13ifvqdk0","pricing_plan_id":"cebpf4jnsgd1na2vs0mg"},{"bike_id":"6ba80795-26da-43fa-ab60-6831760385ff","system_id":"levelo_inurba_marseille","lat":43.32596,"lon":5.419695,"is_reserved":false,"is_disabled":false,"rental_uris":{"android":"levelo://app?vid=6ba80795-26da-43fa-ab60-6831760385ff","ios":"levelo://app?vid=6ba80795-26da-43fa-ab60-6831760385ff"},"vehicle_type_id":"4","last_reported":1750198210,"current_range_meters":8400,"station_id":"","pricing_plan_id":"cebpf4jnsgd1na2vs0mg"},{"bike_id":"0af2f893-ed29-4fcd-aeb3-7f72b69f85db","system_id":"levelo_inurba_marseille","lat":43.288397,"lon":5.358553,"is_reserved":false,"is_disabled":false,"rental_uris":{"android":"levelo://app?vid=0af2f893-ed29-4fcd-aeb3-7f72b69f85db","ios":"levelo://app?vid=0af2f893-ed29-4fcd-aeb3-7f72b69f85db"},"vehicle_type_id":"4","last_reported":1750198210,"current_range_meters":8400,"station_id":"ce4bhb12rcd13ifvqem0","pricing_plan_id":"cebpf4jnsgd1na2vs0mg"},{"bike_id":"e03a6d42-f362-4878-ab56-4b5afba95b0c","system_id":"levelo_inurba_marseille","lat":43.31486,"lon":5.36883,"is_reserved":false,"is_disabled":false,"rental_uris":{"android":"levelo://app?vid=e03a6d42-f362-4878-ab56-4b5afba95b0c","ios":"levelo://app?vid=e03a6d42-f362-4878-ab56-4b5afba95b0c"},"vehicle_type_id":"4","last_reported":1750198210,"current_range_meters":8800,"station_id":"","pricing_plan_id":"cebpf4jnsgd1na2vs0mg"},{"bike_id":"1a501d06-e467-4a02-ad29-e5e3288d4853","system_id":"levelo_inurba_marseille","lat":43.30127,"lon":5.39872,"is_reserved":false,"is_disabled":false,"rental_uris":{"android":"levelo://app?vid=1a501d06-e467-4a02-ad29-e5e3288d4853","ios":"levelo://app?vid=1a501d06-e467-4a02-ad29-e5e3288d4853"},"vehicle_type_id":"4","last_reported":1750198210,"current_range_meters":8800,"station_id":"ce4bh0h2rcd13ifvqd40","pricing_plan_id":"cebpf4jnsgd1na2vs0mg"},{"bike_id":"1463cf71-40d3-44b2-ac31-39c640264f3e","system_id":"levelo_inurba_marseille","lat":43.28829,"lon":5.39312,"is_reserved":false,"is_disabled":false,"rental_uris":{"android":"levelo://app?vid=1463cf71-40d3-44b2-ac31-39c640264f3e","ios":"levelo://app?vid=1463cf71-40d3-44b2-ac31-39c640264f3e"},"vehicle_type_id":"4","last_reported":1750198210,"current_range_meters":8800,"station_id":"ce4bh2p2rcd13ifvqdi0","pricing_plan_id":"cebpf4jnsgd1na2vs0mg"},{"bike_id":"e5578b6f-b272-47a8-aeb9-48c2f032356a","system_id":"levelo_inurba_marseille","lat":43.24654,"lon":5.38886,"is_reserved":false,"is_disabled":false,"rental_uris":{"android":"levelo://app?vid=e5578b6f-b272-47a8-aeb9-48c2f032356a","ios":"levelo://app?vid=e5578b6f-b272-47a8-aeb9-48c2f032356a"},"vehicle_type_id":"4","last_reported":1750198210,"current_range_meters":8800,"station_id":"ce4bhg12rcd13ifvqf60","pricing_plan_id":"cebpf4jnsgd1na2vs0mg"},{"bike_id":"ae8524c6-7b10-43ef-8ed4-b8035f1213c1","system_id":"levelo_inurba_marseille","lat":43.33438,"lon":5.40192,"is_reserved":false,"is_disabled":false,"rental_uris":{"android":"levelo://app?vid=ae8524c6-7b10-43ef-8ed4-b8035f1213c1","ios":"levelo://app?vid=ae8524c6-7b10-43ef-8ed4-b8035f1213c1"},"vehicle_type_id":"4","last_reported":1750198210,"current_range_meters":9200,"station_id":"","pricing_plan_id":"cebpf4jnsgd1na2vs0mg"},{"bike_id":"27c2d2f3-0763-4fba-bf41-b0429d56bfb6","system_id":"levelo_inurba_marseille","lat":43.28569,"lon":5.39502,"is_reserved":false,"is_disabled":false,"rental_uris":{"android":"levelo://app?vid=27c2d2f3-0763-4fba-bf41-b0429d56bfb6","ios":"levelo://app?vid=27c2d2f3-0763-4fba-bf41-b0429d56bfb6"},"vehicle_type_id":"4","last_reported":1750198210,"current_range_meters":9200,"station_id":"ce4bh292rcd13ifvqdg0","pricing_plan_id":"cebpf4jnsgd1na2vs0mg"},{"bike_id":"1553cb36-6bed-4a79-9a0d-f46194c642c2","system_id":"levelo_inurba_marseille","lat":43.26558,"lon":5.39018,"is_reserved":false,"is_disabled":false,"rental_uris":{"android":"levelo://app?vid=1553cb36-6bed-4a79-9a0d-f46194c642c2","ios":"levelo://app?vid=1553cb36-6bed-4a79-9a0d-f46194c642c2"},"vehicle_type_id":"4","last_reported":1750198210,"current_range_meters":9200,"station_id":"ce4bhe12rcd13ifvqf30","pricing_plan_id":"cebpf4jnsgd1na2vs0mg"},{"bike_id":"83f35a71-5456-4f5a-8a01-d943bd814fec","system_id":"levelo_inurba_marseille","lat":43.30373,"lon":5.42488,"is_reserved":false,"is_disabled":false,"rental_uris":{"android":"levelo://app?vid=83f35a71-5456-4f5a-8a01-d943bd814fec","ios":"levelo://app?vid=83f35a71-5456-4f5a-8a01-d943bd814fec"},"vehicle_type_id":"4","last_reported":1750198210,"current_range_meters":9200,"station_id":"ce4bhoh2rcd13ifvqh6g","pricing_plan_id":"cebpf4jnsgd1na2vs0mg"},{"bike_id":"3b136301-d892-4bf1-aa15-695ec30464ca","system_id":"levelo_inurba_marseille","lat":43.32085,"lon":5.36785,"is_reserved":false,"is_disabled":false,"rental_uris":{"android":"levelo://app?vid=3b136301-d892-4bf1-aa15-695ec30464ca","ios":"levelo://app?vid=3b136301-d892-4bf1-aa15-695ec30464ca"},"vehicle_type_id":"4","last_reported":1750198210,"current_range_meters":9200,"station_id":"ce4bhrh2rcd13ifvqhug","pricing_plan_id":"cebpf4jnsgd1na2vs0mg"},{"bike_id":"95e0d29a-fdad-45eb-a9e3-07866f4eac6d","system_id":"levelo_inurba_marseille","lat":43.29652,"lon":5.36245,"is_reserved":false,"is_disabled":false,"rental_uris":{"android":"levelo://app?vid=95e0d29a-fdad-45eb-a9e3-07866f4eac6d","ios":"levelo://app?vid=95e0d29a-fdad-45eb-a9e3-07866f4eac6d"},"vehicle_type_id":"4","last_reported":1750198210,"current_range_meters":9600,"station_id":"","pricing_plan_id":"cebpf4jnsgd1na2vs0mg"},{"bike_id":"99cad508-6ecc-4a68-9c2f-388d966e9df1","system_id":"levelo_inurba_marseille","lat":43.30739,"lon":5.4244,"is_reserved":false,"is_disabled":false,"rental_uris":{"android":"levelo://app?vid=99cad508-6ecc-4a68-9c2f-388d966e9df1","ios":"levelo://app?vid=99cad508-6ecc-4a68-9c2f-388d966e9df1"},"vehicle_type_id":"4","last_reported":1750198210,"current_range_meters":9600,"station_id":"st_cvj6ca6bvosntc0bfgr0","pricing_plan_id":"cebpf4jnsgd1na2vs0mg"},{"bike_id":"d31c5734-5db3-43fd-8bc4-31fce50e2834","system_id":"levelo_inurba_marseille","lat":43.30878,"lon":5.39652,"is_reserved":false,"is_disabled":false,"rental_uris":{"android":"levelo://app?vid=d31c5734-5db3-43fd-8bc4-31fce50e2834","ios":"levelo://app?vid=d31c5734-5db3-43fd-8bc4-31fce50e2834"},"vehicle_type_id":"4","last_reported":1750198210,"current_range_meters":10000,"station_id":"ce4bh012rcd13ifvqcv0","pricing_plan_id":"cebpf4jnsgd1na2vs0mg"},{"bike_id":"ad347c14-931f-4261-ab3b-a1807595d5e4","system_id":"levelo_inurba_marseille","lat":43.31709,"lon":5.40458,"is_reserved":false,"is_disabled":false,"rental_uris":{"android":"levelo://app?vid=ad347c14-931f-4261-ab3b-a1807595d5e4","ios":"levelo://app?vid=ad347c14-931f-4261-ab3b-a1807595d5e4"},"vehicle_type_id":"4","last_reported":1750198210,"current_range_meters":10000,"station_id":"ce4bh012rcd13ifvqd00","pricing_plan_id":"cebpf4jnsgd1na2vs0mg"},{"bike_id":"e8794c91-9955-44b6-95fb-d7607645aa78","system_id":"levelo_inurba_marseille","lat":43.29284,"lon":5.40111,"is_reserved":false,"is_disabled":false,"rental_uris":{"android":"levelo://app?vid=e8794c91-9955-44b6-95fb-d7607645aa78","ios":"levelo://app?vid=e8794c91-9955-44b6-95fb-d7607645aa78"},"vehicle_type_id":"4","last_reported":1750198210,"current_range_meters":10000,"station_id":"ce4bh312rcd13ifvqdk0","pricing_plan_id":"cebpf4jnsgd1na2vs0mg"},{"bike_id":"84b0c19d-3c6a-48c7-ae72-a22a51d91e69","system_id":"levelo_inurba_marseille","lat":43.28686,"lon":5.38645,"is_reserved":false,"is_disabled":false,"rental_uris":{"android":"levelo://app?vid=84b0c19d-3c6a-48c7-ae72-a22a51d91e69","ios":"levelo://app?vid=84b0c19d-3c6a-48c7-ae72-a22a51d91e69"},"vehicle_type_id":"4","last_reported":1750198210,"current_range_meters":10000,"station_id":"ce4bh492rcd13ifvqdug","pricing_plan_id":"cebpf4jnsgd1na2vs0mg"},{"bike_id":"6c5824ef-793e-48cc-9853-6c338913abcc","system_id":"levelo_inurba_marseille","lat":43.28105,"lon":5.3784,"is_reserved":false,"is_disabled":false,"rental_uris":{"android":"levelo://app?vid=6c5824ef-793e-48cc-9853-6c338913abcc","ios":"levelo://app?vid=6c5824ef-793e-48cc-9853-6c338913abcc"},"vehicle_type_id":"4","last_reported":1750198210,"current_range_meters":10000,"station_id":"ce4bha12rcd13ifvqee0","pricing_plan_id":"cebpf4jnsgd1na2vs0mg"},{"bike_id":"c8403838-ebf2-481e-a573-10f233cb9622","system_id":"levelo_inurba_marseille","lat":43.28435,"lon":5.39192,"is_reserved":false,"is_disabled":false,"rental_uris":{"android":"levelo://app?vid=c8403838-ebf2-481e-a573-10f233cb9622","ios":"levelo://app?vid=c8403838-ebf2-481e-a573-10f233cb9622"},"vehicle_type_id":"4","last_reported":1750198210,"current_range_meters":10000,"station_id":"ce4bhoh2rcd13ifvqh5g","pricing_plan_id":"cebpf4jnsgd1na2vs0mg"},{"bike_id":"0e27dafc-21df-4fb1-bd36-2450a7866702","system_id":"levelo_inurba_marseille","lat":43.2716,"lon":5.40009,"is_reserved":false,"is_disabled":false,"rental_uris":{"android":"levelo://app?vid=0e27dafc-21df-4fb1-bd36-2450a7866702","ios":"levelo://app?vid=0e27dafc-21df-4fb1-bd36-2450a7866702"},"vehicle_type_id":"4","last_reported":1750198210,"current_range_meters":10800,"station_id":"","pricing_plan_id":"cebpf4jnsgd1na2vs0mg"},{"bike_id":"291e908c-dbad-4b5b-8d11-efbc9e25f64f","system_id":"levelo_inurba_marseille","lat":43.30263,"lon":5.4008,"is_reserved":false,"is_disabled":false,"rental_uris":{"android":"levelo://app?vid=291e908c-dbad-4b5b-8d11-efbc9e25f64f","ios":"levelo://app?vid=291e908c-dbad-4b5b-8d11-efbc9e25f64f"},"vehicle_type_id":"4","last_reported":1750198210,"current_range_meters":10800,"station_id":"ce4bgvh2rcd13ifvqcs0","pricing_plan_id":"cebpf4jnsgd1na2vs0mg"},{"bike_id":"7c7d8ab5-008b-47eb-a5ae-5a63a77e5f6a","system_id":"levelo_inurba_marseille","lat":43.29251,"lon":5.40924,"is_reserved":false,"is_disabled":false,"rental_uris":{"android":"levelo://app?vid=7c7d8ab5-008b-47eb-a5ae-5a63a77e5f6a","ios":"levelo://app?vid=7c7d8ab5-008b-47eb-a5ae-5a63a77e5f6a"},"vehicle_type_id":"4","last_reported":1750198210,"current_range_meters":11200,"station_id":"ce4bh192rcd13ifvqdc0","pricing_plan_id":"cebpf4jnsgd1na2vs0mg"},{"bike_id":"58a3d38d-8dc9-4b6e-afbf-3f4a2c2ff384","system_id":"levelo_inurba_marseille","lat":43.32653,"lon":5.41009,"is_reserved":false,"is_disabled":false,"rental_uris":{"android":"levelo://app?vid=58a3d38d-8dc9-4b6e-afbf-3f4a2c2ff384","ios":"levelo://app?vid=58a3d38d-8dc9-4b6e-afbf-3f4a2c2ff384"},"vehicle_type_id":"4","last_reported":1750198210,"current_range_meters":11200,"station_id":"ce4bhpp2rcd13ifvqhgg","pricing_plan_id":"cebpf4jnsgd1na2vs0mg"},{"bike_id":"eca25bd6-1b44-4388-a7b0-074a85a4f502","system_id":"levelo_inurba_marseille","lat":43.31088,"lon":5.39745,"is_reserved":false,"is_disabled":false,"rental_uris":{"android":"levelo://app?vid=eca25bd6-1b44-4388-a7b0-074a85a4f502","ios":"levelo://app?vid=eca25bd6-1b44-4388-a7b0-074a85a4f502"},"vehicle_type_id":"4","last_reported":1750198210,"current_range_meters":11600,"station_id":"","pricing_plan_id":"cebpf4jnsgd1na2vs0mg"},{"bike_id":"c567fb55-f555-44d5-ad24-186fdd992281","system_id":"levelo_inurba_marseille","lat":43.30782,"lon":5.37641,"is_reserved":false,"is_disabled":false,"rental_uris":{"android":"levelo://app?vid=c567fb55-f555-44d5-ad24-186fdd992281","ios":"levelo://app?vid=c567fb55-f555-44d5-ad24-186fdd992281"},"vehicle_type_id":"4","last_reported":1750198210,"current_range_meters":11600,"station_id":"ce4bgv92rcd13ifvqcq0","pricing_plan_id":"cebpf4jnsgd1na2vs0mg"},{"bike_id":"2d88495d-1c5b-47ae-aa36-6a78be888f03","system_id":"levelo_inurba_marseille","lat":43.25724,"lon":5.41107,"is_reserved":false,"is_disabled":false,"rental_uris":{"android":"levelo://app?vid=2d88495d-1c5b-47ae-aa36-6a78be888f03","ios":"levelo://app?vid=2d88495d-1c5b-47ae-aa36-6a78be888f03"},"vehicle_type_id":"4","last_reported":1750198210,"current_range_meters":11600,"station_id":"ce4bhkp2rcd13ifvqgd0","pricing_plan_id":"cebpf4jnsgd1na2vs0mg"},{"bike_id":"251f731b-5c47-48df-9683-25878d565ef9","system_id":"levelo_inurba_marseille","lat":43.30733,"lon":5.42435,"is_reserved":false,"is_disabled":false,"rental_uris":{"android":"levelo://app?vid=251f731b-5c47-48df-9683-25878d565ef9","ios":"levelo://app?vid=251f731b-5c47-48df-9683-25878d565ef9"},"vehicle_type_id":"4","last_reported":1750198210,"current_range_meters":11600,"station_id":"st_cvj6ca6bvosntc0bfgr0","pricing_plan_id":"cebpf4jnsgd1na2vs0mg"},{"bike_id":"83cfee7d-980d-496a-98c8-745c7e44c68d","system_id":"levelo_inurba_marseille","lat":43.32859,"lon":5.3907,"is_reserved":false,"is_disabled":false,"rental_uris":{"android":"levelo://app?vid=83cfee7d-980d-496a-98c8-745c7e44c68d","ios":"levelo://app?vid=83cfee7d-980d-496a-98c8-745c7e44c68d"},"vehicle_type_id":"4","last_reported":1750198210,"current_range_meters":12000,"station_id":"","pricing_plan_id":"cebpf4jnsgd1na2vs0mg"},{"bike_id":"c076644b-a683-4b58-9543-fec97b88248f","system_id":"levelo_inurba_marseille","lat":43.28612,"lon":5.35098,"is_reserved":false,"is_disabled":false,"rental_uris":{"android":"levelo://app?vid=c076644b-a683-4b58-9543-fec97b88248f","ios":"levelo://app?vid=c076644b-a683-4b58-9543-fec97b88248f"},"vehicle_type_id":"4","last_reported":1750198210,"current_range_meters":12000,"station_id":"","pricing_plan_id":"cebpf4jnsgd1na2vs0mg"},{"bike_id":"a10a1a3e-9972-432e-986f-95f8c28f23bb","system_id":"levelo_inurba_marseille","lat":43.30429,"lon":5.39751,"is_reserved":false,"is_disabled":false,"rental_uris":{"android":"levelo://app?vid=a10a1a3e-9972-432e-986f-95f8c28f23bb","ios":"levelo://app?vid=a10a1a3e-9972-432e-986f-95f8c28f23bb"},"vehicle_type_id":"4","last_reported":1750198210,"current_range_meters":12000,"station_id":"ce4bh092rcd13ifvqd20","pricing_plan_id":"cebpf4jnsgd1na2vs0mg"},{"bike_id":"1747bf33-5334-43ec-8f05-2c189004bfaf","system_id":"levelo_inurba_marseille","lat":43.29169,"lon":5.3717,"is_reserved":false,"is_disabled":false,"rental_uris":{"android":"levelo://app?vid=1747bf33-5334-43ec-8f05-2c189004bfaf","ios":"levelo://app?vid=1747bf33-5334-43ec-8f05-2c189004bfaf"},"vehicle_type_id":"4","last_reported":1750198210,"current_range_meters":12000,"station_id":"ce4bha92rcd13ifvqeh0","pricing_plan_id":"cebpf4jnsgd1na2vs0mg"},{"bike_id":"98631d2e-988a-4a15-b575-5c81e2ea2220","system_id":"levelo_inurba_marseille","lat":43.29195,"lon":5.35813,"is_reserved":false,"is_disabled":false,"rental_uris":{"android":"levelo://app?vid=98631d2e-988a-4a15-b575-5c81e2ea2220","ios":"levelo://app?vid=98631d2e-988a-4a15-b575-5c81e2ea2220"},"vehicle_type_id":"4","last_reported":1750198210,"current_range_meters":12000,"station_id":"ce4bhb12rcd13ifvqel0","pricing_plan_id":"cebpf4jnsgd1na2vs0mg"},{"bike_id":"91f78cd6-38a2-44e7-86aa-18811c270d91","system_id":"levelo_inurba_marseille","lat":43.24703,"lon":5.38121,"is_reserved":false,"is_disabled":false,"rental_uris":{"android":"levelo://app?vid=91f78cd6-38a2-44e7-86aa-18811c270d91","ios":"levelo://app?vid=91f78cd6-38a2-44e7-86aa-18811c270d91"},"vehicle_type_id":"4","last_reported":1750198210,"current_range_meters":12400,"station_id":"ce4bhih2rcd13ifvqfr0","pricing_plan_id":"cebpf4jnsgd1na2vs0mg"},{"bike_id":"2090556a-ebe6-4fcd-b60b-df67d7c8e4f7","system_id":"levelo_inurba_marseille","lat":43.299,"lon":5.43667,"is_reserved":false,"is_disabled":false,"rental_uris":{"android":"levelo://app?vid=2090556a-ebe6-4fcd-b60b-df67d7c8e4f7","ios":"levelo://app?vid=2090556a-ebe6-4fcd-b60b-df67d7c8e4f7"},"vehicle_type_id":"4","last_reported":1750198210,"current_range_meters":12400,"station_id":"ce4bhpp2rcd13ifvqhfg","pricing_plan_id":"cebpf4jnsgd1na2vs0mg"},{"bike_id":"b5002037-f4b0-4634-8bc4-796d0c74810e","system_id":"levelo_inurba_marseille","lat":43.24353,"lon":5.41151,"is_reserved":false,"is_disabled":false,"rental_uris":{"android":"levelo://app?vid=b5002037-f4b0-4634-8bc4-796d0c74810e","ios":"levelo://app?vid=b5002037-f4b0-4634-8bc4-796d0c74810e"},"vehicle_type_id":"4","last_reported":1750198210,"current_range_meters":12800,"station_id":"","pricing_plan_id":"cebpf4jnsgd1na2vs0mg"},{"bike_id":"d2d7458f-7d5d-4d60-9246-df58cc95a9ec","system_id":"levelo_inurba_marseille","lat":43.246877,"lon":5.38175,"is_reserved":false,"is_disabled":false,"rental_uris":{"android":"levelo://app?vid=d2d7458f-7d5d-4d60-9246-df58cc95a9ec","ios":"levelo://app?vid=d2d7458f-7d5d-4d60-9246-df58cc95a9ec"},"vehicle_type_id":"4","last_reported":1750198210,"current_range_meters":12800,"station_id":"ce4bhih2rcd13ifvqfr0","pricing_plan_id":"cebpf4jnsgd1na2vs0mg"},{"bike_id":"3fe0e667-b432-4229-b11a-ae30377c9adf","system_id":"levelo_inurba_marseille","lat":43.25119,"lon":5.40316,"is_reserved":false,"is_disabled":false,"rental_uris":{"android":"levelo://app?vid=3fe0e667-b432-4229-b11a-ae30377c9adf","ios":"levelo://app?vid=3fe0e667-b432-4229-b11a-ae30377c9adf"},"vehicle_type_id":"4","last_reported":1750198210,"current_range_meters":12800,"station_id":"ce4bhlh2rcd13ifvqgig","pricing_plan_id":"cebpf4jnsgd1na2vs0mg"},{"bike_id":"3d71d4df-44d5-4a43-b95c-ebb9fbdb915f","system_id":"levelo_inurba_marseille","lat":43.27939,"lon":5.41037,"is_reserved":false,"is_disabled":false,"rental_uris":{"android":"levelo://app?vid=3d71d4df-44d5-4a43-b95c-ebb9fbdb915f","ios":"levelo://app?vid=3d71d4df-44d5-4a43-b95c-ebb9fbdb915f"},"vehicle_type_id":"4","last_reported":1750198210,"current_range_meters":12800,"station_id":"ce4bhnp2rcd13ifvqh0g","pricing_plan_id":"cebpf4jnsgd1na2vs0mg"},{"bike_id":"9a16dbc6-ebaf-4118-9922-ee05af967049","system_id":"levelo_inurba_marseille","lat":43.28421,"lon":5.35912,"is_reserved":false,"is_disabled":false,"rental_uris":{"android":"levelo://app?vid=9a16dbc6-ebaf-4118-9922-ee05af967049","ios":"levelo://app?vid=9a16dbc6-ebaf-4118-9922-ee05af967049"},"vehicle_type_id":"4","last_reported":1750198210,"current_range_meters":13600,"station_id":"","pricing_plan_id":"cebpf4jnsgd1na2vs0mg"},{"bike_id":"441a471b-29c3-4e23-826d-2397332e5219","system_id":"levelo_inurba_marseille","lat":43.3079,"lon":5.37636,"is_reserved":false,"is_disabled":false,"rental_uris":{"android":"levelo://app?vid=441a471b-29c3-4e23-826d-2397332e5219","ios":"levelo://app?vid=441a471b-29c3-4e23-826d-2397332e5219"},"vehicle_type_id":"4","last_reported":1750198210,"current_range_meters":13600,"station_id":"ce4bgv92rcd13ifvqcq0","pricing_plan_id":"cebpf4jnsgd1na2vs0mg"},{"bike_id":"e0bc94a7-5964-455d-ae90-dbf31bf1f516","system_id":"levelo_inurba_marseille","lat":43.28665,"lon":5.38661,"is_reserved":false,"is_disabled":false,"rental_uris":{"android":"levelo://app?vid=e0bc94a7-5964-455d-ae90-dbf31bf1f516","ios":"levelo://app?vid=e0bc94a7-5964-455d-ae90-dbf31bf1f516"},"vehicle_type_id":"4","last_reported":1750198210,"current_range_meters":13600,"station_id":"ce4bh492rcd13ifvqdug","pricing_plan_id":"cebpf4jnsgd1na2vs0mg"},{"bike_id":"f771e14a-9ea0-4dc9-af21-0012c5f351b7","system_id":"levelo_inurba_marseille","lat":43.32668,"lon":5.40973,"is_reserved":false,"is_disabled":false,"rental_uris":{"android":"levelo://app?vid=f771e14a-9ea0-4dc9-af21-0012c5f351b7","ios":"levelo://app?vid=f771e14a-9ea0-4dc9-af21-0012c5f351b7"},"vehicle_type_id":"4","last_reported":1750198210,"current_range_meters":13600,"station_id":"ce4bhpp2rcd13ifvqhgg","pricing_plan_id":"cebpf4jnsgd1na2vs0mg"},{"bike_id":"2696f42d-34f7-4c94-a7b4-c480656e1e0a","system_id":"levelo_inurba_marseille","lat":43.22924,"lon":5.35385,"is_reserved":false,"is_disabled":false,"rental_uris":{"android":"levelo://app?vid=2696f42d-34f7-4c94-a7b4-c480656e1e0a","ios":"levelo://app?vid=2696f42d-34f7-4c94-a7b4-c480656e1e0a"},"vehicle_type_id":"4","last_reported":1750198210,"current_range_meters":13600,"station_id":"cpo3532slgdg3j2ikp40","pricing_plan_id":"cebpf4jnsgd1na2vs0mg"},{"bike_id":"157fd7d0-8ea7-43d3-9fe6-54c2ebb9413e","system_id":"levelo_inurba_marseille","lat":43.30595,"lon":5.37232,"is_reserved":false,"is_disabled":false,"rental_uris":{"android":"levelo://app?vid=157fd7d0-8ea7-43d3-9fe6-54c2ebb9413e","ios":"levelo://app?vid=157fd7d0-8ea7-43d3-9fe6-54c2ebb9413e"},"vehicle_type_id":"4","last_reported":1750198210,"current_range_meters":14000,"station_id":"ce4bgqh2rcd13ifvqc4g","pricing_plan_id":"cebpf4jnsgd1na2vs0mg"},{"bike_id":"0e856b56-5a2d-4b24-92b4-bdb30d4d0448","system_id":"levelo_inurba_marseille","lat":43.30649,"lon":5.40073,"is_reserved":false,"is_disabled":false,"rental_uris":{"android":"levelo://app?vid=0e856b56-5a2d-4b24-92b4-bdb30d4d0448","ios":"levelo://app?vid=0e856b56-5a2d-4b24-92b4-bdb30d4d0448"},"vehicle_type_id":"4","last_reported":1750198210,"current_range_meters":14000,"station_id":"ce4bh112rcd13ifvqda0","pricing_plan_id":"cebpf4jnsgd1na2vs0mg"},{"bike_id":"081f8872-cfaf-4e08-a52c-be911a87a8ce","system_id":"levelo_inurba_marseille","lat":43.29278,"lon":5.40121,"is_reserved":false,"is_disabled":false,"rental_uris":{"android":"levelo://app?vid=081f8872-cfaf-4e08-a52c-be911a87a8ce","ios":"levelo://app?vid=081f8872-cfaf-4e08-a52c-be911a87a8ce"},"vehicle_type_id":"4","last_reported":1750198210,"current_range_meters":14000,"station_id":"ce4bh312rcd13ifvqdk0","pricing_plan_id":"cebpf4jnsgd1na2vs0mg"},{"bike_id":"4327974e-c6ba-4e7a-a1e1-f8f810caee5e","system_id":"levelo_inurba_marseille","lat":43.29526,"lon":5.39048,"is_reserved":false,"is_disabled":false,"rental_uris":{"android":"levelo://app?vid=4327974e-c6ba-4e7a-a1e1-f8f810caee5e","ios":"levelo://app?vid=4327974e-c6ba-4e7a-a1e1-f8f810caee5e"},"vehicle_type_id":"4","last_reported":1750198210,"current_range_meters":14000,"station_id":"ce4bh3p2rcd13ifvqdp0","pricing_plan_id":"cebpf4jnsgd1na2vs0mg"},{"bike_id":"df1581f9-fa89-41ff-be54-57a55d20b5e9","system_id":"levelo_inurba_marseille","lat":43.30375,"lon":5.42478,"is_reserved":false,"is_disabled":false,"rental_uris":{"android":"levelo://app?vid=df1581f9-fa89-41ff-be54-57a55d20b5e9","ios":"levelo://app?vid=df1581f9-fa89-41ff-be54-57a55d20b5e9"},"vehicle_type_id":"4","last_reported":1750198210,"current_range_meters":14000,"station_id":"ce4bhoh2rcd13ifvqh6g","pricing_plan_id":"cebpf4jnsgd1na2vs0mg"},{"bike_id":"ec791070-eafa-4c06-b970-7958cef6417d","system_id":"levelo_inurba_marseille","lat":43.23181,"lon":5.35569,"is_reserved":false,"is_disabled":false,"rental_uris":{"android":"levelo://app?vid=ec791070-eafa-4c06-b970-7958cef6417d","ios":"levelo://app?vid=ec791070-eafa-4c06-b970-7958cef6417d"},"vehicle_type_id":"4","last_reported":1750198210,"current_range_meters":14000,"station_id":"ce4bhu92rcd13ifvqi70","pricing_plan_id":"cebpf4jnsgd1na2vs0mg"},{"bike_id":"1197e330-995f-4f41-954b-3eea58f2a4c0","system_id":"levelo_inurba_marseille","lat":43.21193,"lon":5.35065,"is_reserved":false,"is_disabled":false,"rental_uris":{"android":"levelo://app?vid=1197e330-995f-4f41-954b-3eea58f2a4c0","ios":"levelo://app?vid=1197e330-995f-4f41-954b-3eea58f2a4c0"},"vehicle_type_id":"4","last_reported":1750198210,"current_range_meters":14000,"station_id":"st_cvj6sg6p6f1abm77japg","pricing_plan_id":"cebpf4jnsgd1na2vs0mg"},{"bike_id":"de0f7c2b-5974-4035-a240-8ed367c0e3f3","system_id":"levelo_inurba_marseille","lat":43.319752,"lon":5.376161,"is_reserved":false,"is_disabled":false,"rental_uris":{"android":"levelo://app?vid=de0f7c2b-5974-4035-a240-8ed367c0e3f3","ios":"levelo://app?vid=de0f7c2b-5974-4035-a240-8ed367c0e3f3"},"vehicle_type_id":"4","last_reported":1750198210,"current_range_meters":14400,"station_id":"","pricing_plan_id":"cebpf4jnsgd1na2vs0mg"},{"bike_id":"be314294-c027-4750-8947-558ae8f14279","system_id":"levelo_inurba_marseille","lat":43.29226,"lon":5.40898,"is_reserved":false,"is_disabled":false,"rental_uris":{"android":"levelo://app?vid=be314294-c027-4750-8947-558ae8f14279","ios":"levelo://app?vid=be314294-c027-4750-8947-558ae8f14279"},"vehicle_type_id":"4","last_reported":1750198210,"current_range_meters":14400,"station_id":"ce4bh192rcd13ifvqdc0","pricing_plan_id":"cebpf4jnsgd1na2vs0mg"},{"bike_id":"2df130c9-e79c-4424-b409-88639453e508","system_id":"levelo_inurba_marseille","lat":43.29253,"lon":5.40909,"is_reserved":false,"is_disabled":false,"rental_uris":{"android":"levelo://app?vid=2df130c9-e79c-4424-b409-88639453e508","ios":"levelo://app?vid=2df130c9-e79c-4424-b409-88639453e508"},"vehicle_type_id":"4","last_reported":1750198210,"current_range_meters":14400,"station_id":"ce4bh192rcd13ifvqdc0","pricing_plan_id":"cebpf4jnsgd1na2vs0mg"},{"bike_id":"971507ea-bc7d-4294-bc79-e0abbd8b507b","system_id":"levelo_inurba_marseille","lat":43.30433,"lon":5.39755,"is_reserved":false,"is_disabled":false,"rental_uris":{"android":"levelo://app?vid=971507ea-bc7d-4294-bc79-e0abbd8b507b","ios":"levelo://app?vid=971507ea-bc7d-4294-bc79-e0abbd8b507b"},"vehicle_type_id":"4","last_reported":1750198210,"current_range_meters":14800,"station_id":"ce4bh092rcd13ifvqd20","pricing_plan_id":"cebpf4jnsgd1na2vs0mg"},{"bike_id":"60dbbff2-1b41-4ac7-b3d6-c7b5f639d090","system_id":"levelo_inurba_marseille","lat":43.29038,"lon":5.3996,"is_reserved":false,"is_disabled":false,"rental_uris":{"android":"levelo://app?vid=60dbbff2-1b41-4ac7-b3d6-c7b5f639d090","ios":"levelo://app?vid=60dbbff2-1b41-4ac7-b3d6-c7b5f639d090"},"vehicle_type_id":"4","last_reported":1750198210,"current_range_meters":14800,"station_id":"ce4bh392rcd13ifvqdm0","pricing_plan_id":"cebpf4jnsgd1na2vs0mg"},{"bike_id":"e106b86d-5af8-46dd-bec6-0b9a13e15144","system_id":"levelo_inurba_marseille","lat":43.2694,"lon":5.38922,"is_reserved":false,"is_disabled":false,"rental_uris":{"android":"levelo://app?vid=e106b86d-5af8-46dd-bec6-0b9a13e15144","ios":"levelo://app?vid=e106b86d-5af8-46dd-bec6-0b9a13e15144"},"vehicle_type_id":"4","last_reported":1750198210,"current_range_meters":14800,"station_id":"ce4bhhh2rcd13ifvqfl0","pricing_plan_id":"cebpf4jnsgd1na2vs0mg"},{"bike_id":"1a35b4cf-7cb1-4e0d-b1a8-82e8f66baffb","system_id":"levelo_inurba_marseille","lat":43.25087,"lon":5.39524,"is_reserved":false,"is_disabled":false,"rental_uris":{"android":"levelo://app?vid=1a35b4cf-7cb1-4e0d-b1a8-82e8f66baffb","ios":"levelo://app?vid=1a35b4cf-7cb1-4e0d-b1a8-82e8f66baffb"},"vehicle_type_id":"4","last_reported":1750198210,"current_range_meters":14800,"station_id":"ce4bhm12rcd13ifvqgkg","pricing_plan_id":"cebpf4jnsgd1na2vs0mg"},{"bike_id":"3518210a-6d90-482f-a11b-11cb7c94acd1","system_id":"levelo_inurba_marseille","lat":43.264791,"lon":5.392147,"is_reserved":false,"is_disabled":false,"rental_uris":{"android":"levelo://app?vid=3518210a-6d90-482f-a11b-11cb7c94acd1","ios":"levelo://app?vid=3518210a-6d90-482f-a11b-11cb7c94acd1"},"vehicle_type_id":"4","last_reported":1750198210,"current_range_meters":15200,"station_id":"","pricing_plan_id":"cebpf4jnsgd1na2vs0mg"},{"bike_id":"f7fa858e-b7ee-404f-8191-6184cc003e2b","system_id":"levelo_inurba_marseille","lat":43.23202,"lon":5.35549,"is_reserved":false,"is_disabled":false,"rental_uris":{"android":"levelo://app?vid=f7fa858e-b7ee-404f-8191-6184cc003e2b","ios":"levelo://app?vid=f7fa858e-b7ee-404f-8191-6184cc003e2b"},"vehicle_type_id":"4","last_reported":1750198210,"current_range_meters":15200,"station_id":"ce4bhu92rcd13ifvqi70","pricing_plan_id":"cebpf4jnsgd1na2vs0mg"},{"bike_id":"2f0f7865-53e4-4955-8eb9-1bb98bf95595","system_id":"levelo_inurba_marseille","lat":43.3176,"lon":5.37594,"is_reserved":false,"is_disabled":false,"rental_uris":{"android":"levelo://app?vid=2f0f7865-53e4-4955-8eb9-1bb98bf95595","ios":"levelo://app?vid=2f0f7865-53e4-4955-8eb9-1bb98bf95595"},"vehicle_type_id":"4","last_reported":1750198210,"current_range_meters":16000,"station_id":"","pricing_plan_id":"cebpf4jnsgd1na2vs0mg"},{"bike_id":"e0a889cf-2327-4278-9b67-453fc8c6ae2a","system_id":"levelo_inurba_marseille","lat":43.30254,"lon":5.37431,"is_reserved":false,"is_disabled":false,"rental_uris":{"android":"levelo://app?vid=e0a889cf-2327-4278-9b67-453fc8c6ae2a","ios":"levelo://app?vid=e0a889cf-2327-4278-9b67-453fc8c6ae2a"},"vehicle_type_id":"4","last_reported":1750198210,"current_range_meters":16000,"station_id":"","pricing_plan_id":"cebpf4jnsgd1na2vs0mg"},{"bike_id":"de0bda34-41a6-4231-8ed4-c93e07fc3176","system_id":"levelo_inurba_marseille","lat":43.326212,"lon":5.374942,"is_reserved":false,"is_disabled":false,"rental_uris":{"android":"levelo://app?vid=de0bda34-41a6-4231-8ed4-c93e07fc3176","ios":"levelo://app?vid=de0bda34-41a6-4231-8ed4-c93e07fc3176"},"vehicle_type_id":"4","last_reported":1750198210,"current_range_meters":16000,"station_id":"","pricing_plan_id":"cebpf4jnsgd1na2vs0mg"},{"bike_id":"b87c15f9-5723-4eb5-82c7-4efc7bd8b749","system_id":"levelo_inurba_marseille","lat":43.28844,"lon":5.39337,"is_reserved":false,"is_disabled":false,"rental_uris":{"android":"levelo://app?vid=b87c15f9-5723-4eb5-82c7-4efc7bd8b749","ios":"levelo://app?vid=b87c15f9-5723-4eb5-82c7-4efc7bd8b749"},"vehicle_type_id":"4","last_reported":1750198210,"current_range_meters":16000,"station_id":"ce4bh2p2rcd13ifvqdi0","pricing_plan_id":"cebpf4jnsgd1na2vs0mg"},{"bike_id":"f0f47d63-d452-44e1-b1f1-3e753404e545","system_id":"levelo_inurba_marseille","lat":43.28709,"lon":5.37416,"is_reserved":false,"is_disabled":false,"rental_uris":{"android":"levelo://app?vid=f0f47d63-d452-44e1-b1f1-3e753404e545","ios":"levelo://app?vid=f0f47d63-d452-44e1-b1f1-3e753404e545"},"vehicle_type_id":"4","last_reported":1750198210,"current_range_meters":16000,"station_id":"ce4bh3p2rcd13ifvqdq0","pricing_plan_id":"cebpf4jnsgd1na2vs0mg"},{"bike_id":"99c2e02d-7b6e-4cff-8cb5-b74af3486de8","system_id":"levelo_inurba_marseille","lat":43.290762,"lon":5.359182,"is_reserved":false,"is_disabled":false,"rental_uris":{"android":"levelo://app?vid=99c2e02d-7b6e-4cff-8cb5-b74af3486de8","ios":"levelo://app?vid=99c2e02d-7b6e-4cff-8cb5-b74af3486de8"},"vehicle_type_id":"4","last_reported":1750198210,"current_range_meters":16000,"station_id":"ce4bha92rcd13ifvqeg0","pricing_plan_id":"cebpf4jnsgd1na2vs0mg"},{"bike_id":"32ee6c4a-ccab-41cb-b4a7-863095ced63d","system_id":"levelo_inurba_marseille","lat":43.28697,"lon":5.39981,"is_reserved":false,"is_disabled":false,"rental_uris":{"android":"levelo://app?vid=32ee6c4a-ccab-41cb-b4a7-863095ced63d","ios":"levelo://app?vid=32ee6c4a-ccab-41cb-b4a7-863095ced63d"},"vehicle_type_id":"4","last_reported":1750198210,"current_range_meters":16000,"station_id":"ce4bho92rcd13ifvqh3g","pricing_plan_id":"cebpf4jnsgd1na2vs0mg"},{"bike_id":"4ce5b165-f22d-40cf-abd3-1cb294861955","system_id":"levelo_inurba_marseille","lat":43.21198,"lon":5.35072,"is_reserved":false,"is_disabled":false,"rental_uris":{"android":"levelo://app?vid=4ce5b165-f22d-40cf-abd3-1cb294861955","ios":"levelo://app?vid=4ce5b165-f22d-40cf-abd3-1cb294861955"},"vehicle_type_id":"4","last_reported":1750198210,"current_range_meters":16400,"station_id":"","pricing_plan_id":"cebpf4jnsgd1na2vs0mg"},{"bike_id":"1e3b7fbb-83bd-417f-a36f-f0d184150527","system_id":"levelo_inurba_marseille","lat":43.29045,"lon":5.39953,"is_reserved":false,"is_disabled":false,"rental_uris":{"android":"levelo://app?vid=1e3b7fbb-83bd-417f-a36f-f0d184150527","ios":"levelo://app?vid=1e3b7fbb-83bd-417f-a36f-f0d184150527"},"vehicle_type_id":"4","last_reported":1750198210,"current_range_meters":16400,"station_id":"ce4bh392rcd13ifvqdm0","pricing_plan_id":"cebpf4jnsgd1na2vs0mg"},{"bike_id":"558d7a83-fc5d-42ed-9050-5b2a22741628","system_id":"levelo_inurba_marseille","lat":43.25119,"lon":5.40323,"is_reserved":false,"is_disabled":false,"rental_uris":{"android":"levelo://app?vid=558d7a83-fc5d-42ed-9050-5b2a22741628","ios":"levelo://app?vid=558d7a83-fc5d-42ed-9050-5b2a22741628"},"vehicle_type_id":"4","last_reported":1750198210,"current_range_meters":16400,"station_id":"ce4bhlh2rcd13ifvqgig","pricing_plan_id":"cebpf4jnsgd1na2vs0mg"},{"bike_id":"cc8086c3-023b-4662-b7ba-91199240f1a1","system_id":"levelo_inurba_marseille","lat":43.23055,"lon":5.354907,"is_reserved":false,"is_disabled":false,"rental_uris":{"android":"levelo://app?vid=cc8086c3-023b-4662-b7ba-91199240f1a1","ios":"levelo://app?vid=cc8086c3-023b-4662-b7ba-91199240f1a1"},"vehicle_type_id":"4","last_reported":1750198210,"current_range_meters":16400,"station_id":"cpo3342slgdg3j2ifvpg","pricing_plan_id":"cebpf4jnsgd1na2vs0mg"},{"bike_id":"4cda9327-46c6-426e-87dd-c291d5dc5ff7","system_id":"levelo_inurba_marseille","lat":43.21188,"lon":5.35078,"is_reserved":false,"is_disabled":false,"rental_uris":{"android":"levelo://app?vid=4cda9327-46c6-426e-87dd-c291d5dc5ff7","ios":"levelo://app?vid=4cda9327-46c6-426e-87dd-c291d5dc5ff7"},"vehicle_type_id":"4","last_reported":1750198210,"current_range_meters":16400,"station_id":"st_cvj6sg6p6f1abm77japg","pricing_plan_id":"cebpf4jnsgd1na2vs0mg"},{"bike_id":"4b8da722-ee9e-48a4-a5e5-3a8a10364708","system_id":"levelo_inurba_marseille","lat":43.31218,"lon":5.37874,"is_reserved":false,"is_disabled":false,"rental_uris":{"android":"levelo://app?vid=4b8da722-ee9e-48a4-a5e5-3a8a10364708","ios":"levelo://app?vid=4b8da722-ee9e-48a4-a5e5-3a8a10364708"},"vehicle_type_id":"4","last_reported":1750198210,"current_range_meters":16800,"station_id":"","pricing_plan_id":"cebpf4jnsgd1na2vs0mg"},{"bike_id":"3444760b-1322-4ed0-969b-40107b21994c","system_id":"levelo_inurba_marseille","lat":43.3021,"lon":5.39465,"is_reserved":false,"is_disabled":false,"rental_uris":{"android":"levelo://app?vid=3444760b-1322-4ed0-969b-40107b21994c","ios":"levelo://app?vid=3444760b-1322-4ed0-969b-40107b21994c"},"vehicle_type_id":"4","last_reported":1750198210,"current_range_meters":16800,"station_id":"ce4bh0p2rcd13ifvqd70","pricing_plan_id":"cebpf4jnsgd1na2vs0mg"},{"bike_id":"ff5e6dfa-2472-4530-a109-50fcfe6d7f93","system_id":"levelo_inurba_marseille","lat":43.2781,"lon":5.40719,"is_reserved":false,"is_disabled":false,"rental_uris":{"android":"levelo://app?vid=ff5e6dfa-2472-4530-a109-50fcfe6d7f93","ios":"levelo://app?vid=ff5e6dfa-2472-4530-a109-50fcfe6d7f93"},"vehicle_type_id":"4","last_reported":1750198210,"current_range_meters":16800,"station_id":"ce4bhnh2rcd13ifvqgtg","pricing_plan_id":"cebpf4jnsgd1na2vs0mg"},{"bike_id":"ed7a1a04-2c11-455e-8214-8d1f33620e1c","system_id":"levelo_inurba_marseille","lat":43.28077,"lon":5.39663,"is_reserved":false,"is_disabled":false,"rental_uris":{"android":"levelo://app?vid=ed7a1a04-2c11-455e-8214-8d1f33620e1c","ios":"levelo://app?vid=ed7a1a04-2c11-455e-8214-8d1f33620e1c"},"vehicle_type_id":"4","last_reported":1750198210,"current_range_meters":16800,"station_id":"ce4bho12rcd13ifvqh2g","pricing_plan_id":"cebpf4jnsgd1na2vs0mg"},{"bike_id":"5cbdd979-131e-4b0a-a5c9-96ef156802c9","system_id":"levelo_inurba_marseille","lat":43.28416,"lon":5.39236,"is_reserved":false,"is_disabled":false,"rental_uris":{"android":"levelo://app?vid=5cbdd979-131e-4b0a-a5c9-96ef156802c9","ios":"levelo://app?vid=5cbdd979-131e-4b0a-a5c9-96ef156802c9"},"vehicle_type_id":"4","last_reported":1750198210,"current_range_meters":16800,"station_id":"ce4bhoh2rcd13ifvqh5g","pricing_plan_id":"cebpf4jnsgd1na2vs0mg"},{"bike_id":"b3290a55-0dbc-4713-abcc-c34d1ef4d518","system_id":"levelo_inurba_marseille","lat":43.28443,"lon":5.39211,"is_reserved":false,"is_disabled":false,"rental_uris":{"android":"levelo://app?vid=b3290a55-0dbc-4713-abcc-c34d1ef4d518","ios":"levelo://app?vid=b3290a55-0dbc-4713-abcc-c34d1ef4d518"},"vehicle_type_id":"4","last_reported":1750198210,"current_range_meters":16800,"station_id":"ce4bhoh2rcd13ifvqh5g","pricing_plan_id":"cebpf4jnsgd1na2vs0mg"},{"bike_id":"653a05d9-205d-420f-b0c9-a638667f0917","system_id":"levelo_inurba_marseille","lat":43.21185,"lon":5.35086,"is_reserved":false,"is_disabled":false,"rental_uris":{"android":"levelo://app?vid=653a05d9-205d-420f-b0c9-a638667f0917","ios":"levelo://app?vid=653a05d9-205d-420f-b0c9-a638667f0917"},"vehicle_type_id":"4","last_reported":1750198210,"current_range_meters":16800,"station_id":"st_cvj6sg6p6f1abm77japg","pricing_plan_id":"cebpf4jnsgd1na2vs0mg"},{"bike_id":"6bbbc1ec-81ca-4516-a79f-791d22619392","system_id":"levelo_inurba_marseille","lat":43.314818,"lon":5.372998,"is_reserved":false,"is_disabled":false,"rental_uris":{"android":"levelo://app?vid=6bbbc1ec-81ca-4516-a79f-791d22619392","ios":"levelo://app?vid=6bbbc1ec-81ca-4516-a79f-791d22619392"},"vehicle_type_id":"4","last_reported":1750198210,"current_range_meters":17200,"station_id":"ce4bgt12rcd13ifvqcd0","pricing_plan_id":"cebpf4jnsgd1na2vs0mg"},{"bike_id":"2424b539-61db-4707-a593-85f54e5084e6","system_id":"levelo_inurba_marseille","lat":43.30133,"lon":5.39867,"is_reserved":false,"is_disabled":false,"rental_uris":{"android":"levelo://app?vid=2424b539-61db-4707-a593-85f54e5084e6","ios":"levelo://app?vid=2424b539-61db-4707-a593-85f54e5084e6"},"vehicle_type_id":"4","last_reported":1750198210,"current_range_meters":17200,"station_id":"ce4bh0h2rcd13ifvqd40","pricing_plan_id":"cebpf4jnsgd1na2vs0mg"},{"bike_id":"6ef7b46b-3642-46d2-8249-af13f30ef696","system_id":"levelo_inurba_marseille","lat":43.30594,"lon":5.39359,"is_reserved":false,"is_disabled":false,"rental_uris":{"android":"levelo://app?vid=6ef7b46b-3642-46d2-8249-af13f30ef696","ios":"levelo://app?vid=6ef7b46b-3642-46d2-8249-af13f30ef696"},"vehicle_type_id":"4","last_reported":1750198210,"current_range_meters":17200,"station_id":"ce4bh0p2rcd13ifvqd80","pricing_plan_id":"cebpf4jnsgd1na2vs0mg"},{"bike_id":"477b02ce-cc9d-4fad-92d4-33b830b3c2da","system_id":"levelo_inurba_marseille","lat":43.29255,"lon":5.40901,"is_reserved":false,"is_disabled":false,"rental_uris":{"android":"levelo://app?vid=477b02ce-cc9d-4fad-92d4-33b830b3c2da","ios":"levelo://app?vid=477b02ce-cc9d-4fad-92d4-33b830b3c2da"},"vehicle_type_id":"4","last_reported":1750198210,"current_range_meters":17200,"station_id":"ce4bh192rcd13ifvqdc0","pricing_plan_id":"cebpf4jnsgd1na2vs0mg"},{"bike_id":"d35e1bee-6cd1-4d4c-b8ec-d60cc69d2c6d","system_id":"levelo_inurba_marseille","lat":43.27838,"lon":5.39209,"is_reserved":false,"is_disabled":false,"rental_uris":{"android":"levelo://app?vid=d35e1bee-6cd1-4d4c-b8ec-d60cc69d2c6d","ios":"levelo://app?vid=d35e1bee-6cd1-4d4c-b8ec-d60cc69d2c6d"},"vehicle_type_id":"4","last_reported":1750198210,"current_range_meters":17200,"station_id":"ce4bhjp2rcd13ifvqga0","pricing_plan_id":"cebpf4jnsgd1na2vs0mg"},{"bike_id":"4c87c61a-dd34-4a0d-ab04-f3ef07d67f0e","system_id":"levelo_inurba_marseille","lat":43.25109,"lon":5.40322,"is_reserved":false,"is_disabled":false,"rental_uris":{"android":"levelo://app?vid=4c87c61a-dd34-4a0d-ab04-f3ef07d67f0e","ios":"levelo://app?vid=4c87c61a-dd34-4a0d-ab04-f3ef07d67f0e"},"vehicle_type_id":"4","last_reported":1750198210,"current_range_meters":17200,"station_id":"ce4bhlh2rcd13ifvqgig","pricing_plan_id":"cebpf4jnsgd1na2vs0mg"},{"bike_id":"a08141f4-416b-4ca0-a6a8-ed9f076201e0","system_id":"levelo_inurba_marseille","lat":43.28069,"lon":5.39645,"is_reserved":false,"is_disabled":false,"rental_uris":{"android":"levelo://app?vid=a08141f4-416b-4ca0-a6a8-ed9f076201e0","ios":"levelo://app?vid=a08141f4-416b-4ca0-a6a8-ed9f076201e0"},"vehicle_type_id":"4","last_reported":1750198210,"current_range_meters":17200,"station_id":"ce4bho12rcd13ifvqh2g","pricing_plan_id":"cebpf4jnsgd1na2vs0mg"},{"bike_id":"faade479-00cd-43d7-afa5-1c4de86411bd","system_id":"levelo_inurba_marseille","lat":43.31723,"lon":5.423936,"is_reserved":false,"is_disabled":false,"rental_uris":{"android":"levelo://app?vid=faade479-00cd-43d7-afa5-1c4de86411bd","ios":"levelo://app?vid=faade479-00cd-43d7-afa5-1c4de86411bd"},"vehicle_type_id":"4","last_reported":1750198210,"current_range_meters":17200,"station_id":"ce4bhp92rcd13ifvqhbg","pricing_plan_id":"cebpf4jnsgd1na2vs0mg"},{"bike_id":"69391ca7-3f01-4e51-a628-257cf9ff7306","system_id":"levelo_inurba_marseille","lat":43.33765,"lon":5.37456,"is_reserved":false,"is_disabled":false,"rental_uris":{"android":"levelo://app?vid=69391ca7-3f01-4e51-a628-257cf9ff7306","ios":"levelo://app?vid=69391ca7-3f01-4e51-a628-257cf9ff7306"},"vehicle_type_id":"4","last_reported":1750198210,"current_range_meters":17600,"station_id":"","pricing_plan_id":"cebpf4jnsgd1na2vs0mg"},{"bike_id":"268aafb4-1331-426c-97bc-a7d6564caeb6","system_id":"levelo_inurba_marseille","lat":43.32914,"lon":5.37855,"is_reserved":false,"is_disabled":false,"rental_uris":{"android":"levelo://app?vid=268aafb4-1331-426c-97bc-a7d6564caeb6","ios":"levelo://app?vid=268aafb4-1331-426c-97bc-a7d6564caeb6"},"vehicle_type_id":"4","last_reported":1750198210,"current_range_meters":17600,"station_id":"","pricing_plan_id":"cebpf4jnsgd1na2vs0mg"},{"bike_id":"5a5794d3-2694-465e-8ad1-80a67bb37288","system_id":"levelo_inurba_marseille","lat":43.29573,"lon":5.39965,"is_reserved":false,"is_disabled":false,"rental_uris":{"android":"levelo://app?vid=5a5794d3-2694-465e-8ad1-80a67bb37288","ios":"levelo://app?vid=5a5794d3-2694-465e-8ad1-80a67bb37288"},"vehicle_type_id":"4","last_reported":1750198210,"current_range_meters":17600,"station_id":"ce4bh312rcd13ifvqdj0","pricing_plan_id":"cebpf4jnsgd1na2vs0mg"},{"bike_id":"47707426-b460-46b3-8343-5b718b62504e","system_id":"levelo_inurba_marseille","lat":43.29244,"lon":5.38449,"is_reserved":false,"is_disabled":false,"rental_uris":{"android":"levelo://app?vid=47707426-b460-46b3-8343-5b718b62504e","ios":"levelo://app?vid=47707426-b460-46b3-8343-5b718b62504e"},"vehicle_type_id":"4","last_reported":1750198210,"current_range_meters":17600,"station_id":"ce4bh692rcd13ifvqea0","pricing_plan_id":"cebpf4jnsgd1na2vs0mg"},{"bike_id":"3151b431-ae3a-411c-8189-09c45ab38d79","system_id":"levelo_inurba_marseille","lat":43.30851,"lon":5.37186,"is_reserved":false,"is_disabled":false,"rental_uris":{"android":"levelo://app?vid=3151b431-ae3a-411c-8189-09c45ab38d79","ios":"levelo://app?vid=3151b431-ae3a-411c-8189-09c45ab38d79"},"vehicle_type_id":"4","last_reported":1750198210,"current_range_meters":18000,"station_id":"","pricing_plan_id":"cebpf4jnsgd1na2vs0mg"},{"bike_id":"e92bd4cd-e5c6-40c9-80e9-52bc96a037f0","system_id":"levelo_inurba_marseille","lat":43.25494,"lon":5.41745,"is_reserved":false,"is_disabled":false,"rental_uris":{"android":"levelo://app?vid=e92bd4cd-e5c6-40c9-80e9-52bc96a037f0","ios":"levelo://app?vid=e92bd4cd-e5c6-40c9-80e9-52bc96a037f0"},"vehicle_type_id":"4","last_reported":1750198210,"current_range_meters":18000,"station_id":"","pricing_plan_id":"cebpf4jnsgd1na2vs0mg"},{"bike_id":"a601b016-e7eb-4508-979c-e99761873772","system_id":"levelo_inurba_marseille","lat":43.3043,"lon":5.38894,"is_reserved":false,"is_disabled":false,"rental_uris":{"android":"levelo://app?vid=a601b016-e7eb-4508-979c-e99761873772","ios":"levelo://app?vid=a601b016-e7eb-4508-979c-e99761873772"},"vehicle_type_id":"4","last_reported":1750198210,"current_range_meters":18000,"station_id":"ce4bgk12rcd13ifvqbi0","pricing_plan_id":"cebpf4jnsgd1na2vs0mg"},{"bike_id":"f68d3bf7-f015-453d-8296-8d977c3e8998","system_id":"levelo_inurba_marseille","lat":43.30886,"lon":5.3965,"is_reserved":false,"is_disabled":false,"rental_uris":{"android":"levelo://app?vid=f68d3bf7-f015-453d-8296-8d977c3e8998","ios":"levelo://app?vid=f68d3bf7-f015-453d-8296-8d977c3e8998"},"vehicle_type_id":"4","last_reported":1750198210,"current_range_meters":18000,"station_id":"ce4bh012rcd13ifvqcv0","pricing_plan_id":"cebpf4jnsgd1na2vs0mg"},{"bike_id":"e3e17db5-e512-4930-95c5-4c942196b2f1","system_id":"levelo_inurba_marseille","lat":43.25604,"lon":5.41117,"is_reserved":false,"is_disabled":false,"rental_uris":{"android":"levelo://app?vid=e3e17db5-e512-4930-95c5-4c942196b2f1","ios":"levelo://app?vid=e3e17db5-e512-4930-95c5-4c942196b2f1"},"vehicle_type_id":"4","last_reported":1750198210,"current_range_meters":18000,"station_id":"ce4bhkp2rcd13ifvqgd0","pricing_plan_id":"cebpf4jnsgd1na2vs0mg"},{"bike_id":"3e1d7624-cc64-4c31-9db6-b8fd06a642bb","system_id":"levelo_inurba_marseille","lat":43.27172,"lon":5.40992,"is_reserved":false,"is_disabled":false,"rental_uris":{"android":"levelo://app?vid=3e1d7624-cc64-4c31-9db6-b8fd06a642bb","ios":"levelo://app?vid=3e1d7624-cc64-4c31-9db6-b8fd06a642bb"},"vehicle_type_id":"4","last_reported":1750198210,"current_range_meters":18000,"station_id":"ce4bhl12rcd13ifvqgf0","pricing_plan_id":"cebpf4jnsgd1na2vs0mg"},{"bike_id":"2d059e04-6ea7-4929-8c98-ee846d8a472a","system_id":"levelo_inurba_marseille","lat":43.28685,"lon":5.40041,"is_reserved":false,"is_disabled":false,"rental_uris":{"android":"levelo://app?vid=2d059e04-6ea7-4929-8c98-ee846d8a472a","ios":"levelo://app?vid=2d059e04-6ea7-4929-8c98-ee846d8a472a"},"vehicle_type_id":"4","last_reported":1750198210,"current_range_meters":18000,"station_id":"ce4bho92rcd13ifvqh3g","pricing_plan_id":"cebpf4jnsgd1na2vs0mg"},{"bike_id":"e921cee3-b8ce-4c00-b7eb-8ab335b5e125","system_id":"levelo_inurba_marseille","lat":43.30193,"lon":5.42274,"is_reserved":false,"is_disabled":false,"rental_uris":{"android":"levelo://app?vid=e921cee3-b8ce-4c00-b7eb-8ab335b5e125","ios":"levelo://app?vid=e921cee3-b8ce-4c00-b7eb-8ab335b5e125"},"vehicle_type_id":"4","last_reported":1750198210,"current_range_meters":18800,"station_id":"","pricing_plan_id":"cebpf4jnsgd1na2vs0mg"},{"bike_id":"3a79c9a9-99b3-4d00-8dcc-f494ffeec57e","system_id":"levelo_inurba_marseille","lat":43.31048,"lon":5.40068,"is_reserved":false,"is_disabled":false,"rental_uris":{"android":"levelo://app?vid=3a79c9a9-99b3-4d00-8dcc-f494ffeec57e","ios":"levelo://app?vid=3a79c9a9-99b3-4d00-8dcc-f494ffeec57e"},"vehicle_type_id":"4","last_reported":1750198210,"current_range_meters":18800,"station_id":"","pricing_plan_id":"cebpf4jnsgd1na2vs0mg"},{"bike_id":"a5a79088-044c-48cb-8217-fed9ec438992","system_id":"levelo_inurba_marseille","lat":43.3022,"lon":5.39474,"is_reserved":false,"is_disabled":false,"rental_uris":{"android":"levelo://app?vid=a5a79088-044c-48cb-8217-fed9ec438992","ios":"levelo://app?vid=a5a79088-044c-48cb-8217-fed9ec438992"},"vehicle_type_id":"4","last_reported":1750198210,"current_range_meters":18800,"station_id":"ce4bh0p2rcd13ifvqd70","pricing_plan_id":"cebpf4jnsgd1na2vs0mg"},{"bike_id":"a673f03b-b2ad-443d-b427-f173fca6bb7c","system_id":"levelo_inurba_marseille","lat":43.29496,"lon":5.39417,"is_reserved":false,"is_disabled":false,"rental_uris":{"android":"levelo://app?vid=a673f03b-b2ad-443d-b427-f173fca6bb7c","ios":"levelo://app?vid=a673f03b-b2ad-443d-b427-f173fca6bb7c"},"vehicle_type_id":"4","last_reported":1750198210,"current_range_meters":18800,"station_id":"ce4bh292rcd13ifvqdf0","pricing_plan_id":"cebpf4jnsgd1na2vs0mg"},{"bike_id":"ddb7dc21-2ffe-4b56-8188-be85793b538a","system_id":"levelo_inurba_marseille","lat":43.294336,"lon":5.397462,"is_reserved":false,"is_disabled":false,"rental_uris":{"android":"levelo://app?vid=ddb7dc21-2ffe-4b56-8188-be85793b538a","ios":"levelo://app?vid=ddb7dc21-2ffe-4b56-8188-be85793b538a"},"vehicle_type_id":"4","last_reported":1750198210,"current_range_meters":18800,"station_id":"ce4bh3h2rcd13ifvqdo0","pricing_plan_id":"cebpf4jnsgd1na2vs0mg"},{"bike_id":"82dee435-d01c-47a7-91d2-7c3e11af14cc","system_id":"levelo_inurba_marseille","lat":43.28117,"lon":5.37848,"is_reserved":false,"is_disabled":false,"rental_uris":{"android":"levelo://app?vid=82dee435-d01c-47a7-91d2-7c3e11af14cc","ios":"levelo://app?vid=82dee435-d01c-47a7-91d2-7c3e11af14cc"},"vehicle_type_id":"4","last_reported":1750198210,"current_range_meters":18800,"station_id":"ce4bha12rcd13ifvqee0","pricing_plan_id":"cebpf4jnsgd1na2vs0mg"},{"bike_id":"6de52c89-f805-46e5-a093-54013ef36bbe","system_id":"levelo_inurba_marseille","lat":43.28458,"lon":5.35882,"is_reserved":false,"is_disabled":false,"rental_uris":{"android":"levelo://app?vid=6de52c89-f805-46e5-a093-54013ef36bbe","ios":"levelo://app?vid=6de52c89-f805-46e5-a093-54013ef36bbe"},"vehicle_type_id":"4","last_reported":1750198210,"current_range_meters":18800,"station_id":"ce4bhah2rcd13ifvqei0","pricing_plan_id":"cebpf4jnsgd1na2vs0mg"},{"bike_id":"d7558e1a-9760-4e88-80c3-302c33f5512c","system_id":"levelo_inurba_marseille","lat":43.32365,"lon":5.38889,"is_reserved":false,"is_disabled":false,"rental_uris":{"android":"levelo://app?vid=d7558e1a-9760-4e88-80c3-302c33f5512c","ios":"levelo://app?vid=d7558e1a-9760-4e88-80c3-302c33f5512c"},"vehicle_type_id":"4","last_reported":1750198210,"current_range_meters":18800,"station_id":"ce4bhqp2rcd13ifvqhog","pricing_plan_id":"cebpf4jnsgd1na2vs0mg"},{"bike_id":"65fe0c2e-fcc6-45c4-a172-8e2e81da84f7","system_id":"levelo_inurba_marseille","lat":43.33143,"lon":5.38175,"is_reserved":false,"is_disabled":false,"rental_uris":{"android":"levelo://app?vid=65fe0c2e-fcc6-45c4-a172-8e2e81da84f7","ios":"levelo://app?vid=65fe0c2e-fcc6-45c4-a172-8e2e81da84f7"},"vehicle_type_id":"4","last_reported":1750198210,"current_range_meters":19200,"station_id":"","pricing_plan_id":"cebpf4jnsgd1na2vs0mg"},{"bike_id":"54cebbad-17db-4f40-8141-8eedac83be3f","system_id":"levelo_inurba_marseille","lat":43.3376,"lon":5.37414,"is_reserved":false,"is_disabled":false,"rental_uris":{"android":"levelo://app?vid=54cebbad-17db-4f40-8141-8eedac83be3f","ios":"levelo://app?vid=54cebbad-17db-4f40-8141-8eedac83be3f"},"vehicle_type_id":"4","last_reported":1750198210,"current_range_meters":19200,"station_id":"","pricing_plan_id":"cebpf4jnsgd1na2vs0mg"},{"bike_id":"d7d8d86f-3a03-4547-a2e9-9090638fb49a","system_id":"levelo_inurba_marseille","lat":43.30141,"lon":5.38783,"is_reserved":false,"is_disabled":false,"rental_uris":{"android":"levelo://app?vid=d7d8d86f-3a03-4547-a2e9-9090638fb49a","ios":"levelo://app?vid=d7d8d86f-3a03-4547-a2e9-9090638fb49a"},"vehicle_type_id":"4","last_reported":1750198210,"current_range_meters":19200,"station_id":"ce4bghh2rcd13ifvqb60","pricing_plan_id":"cebpf4jnsgd1na2vs0mg"},{"bike_id":"94e2d494-f48f-4bc6-a0d3-27b15833ce63","system_id":"levelo_inurba_marseille","lat":43.30609,"lon":5.37215,"is_reserved":false,"is_disabled":false,"rental_uris":{"android":"levelo://app?vid=94e2d494-f48f-4bc6-a0d3-27b15833ce63","ios":"levelo://app?vid=94e2d494-f48f-4bc6-a0d3-27b15833ce63"},"vehicle_type_id":"4","last_reported":1750198210,"current_range_meters":19200,"station_id":"ce4bgqh2rcd13ifvqc4g","pricing_plan_id":"cebpf4jnsgd1na2vs0mg"},{"bike_id":"0a49a4ae-60d8-4597-98b0-b45576998bd9","system_id":"levelo_inurba_marseille","lat":43.31169,"lon":5.387,"is_reserved":false,"is_disabled":false,"rental_uris":{"android":"levelo://app?vid=0a49a4ae-60d8-4597-98b0-b45576998bd9","ios":"levelo://app?vid=0a49a4ae-60d8-4597-98b0-b45576998bd9"},"vehicle_type_id":"4","last_reported":1750198210,"current_range_meters":19200,"station_id":"ce4bgv12rcd13ifvqcp0","pricing_plan_id":"cebpf4jnsgd1na2vs0mg"},{"bike_id":"b389aa1c-cc22-4ef3-9a99-8ed0d0dc75a9","system_id":"levelo_inurba_marseille","lat":43.2922,"lon":5.40911,"is_reserved":false,"is_disabled":false,"rental_uris":{"android":"levelo://app?vid=b389aa1c-cc22-4ef3-9a99-8ed0d0dc75a9","ios":"levelo://app?vid=b389aa1c-cc22-4ef3-9a99-8ed0d0dc75a9"},"vehicle_type_id":"4","last_reported":1750198210,"current_range_meters":19200,"station_id":"ce4bh192rcd13ifvqdc0","pricing_plan_id":"cebpf4jnsgd1na2vs0mg"},{"bike_id":"622d020f-26f8-452d-bfb6-2c0650942bf5","system_id":"levelo_inurba_marseille","lat":43.29213,"lon":5.39321,"is_reserved":false,"is_disabled":false,"rental_uris":{"android":"levelo://app?vid=622d020f-26f8-452d-bfb6-2c0650942bf5","ios":"levelo://app?vid=622d020f-26f8-452d-bfb6-2c0650942bf5"},"vehicle_type_id":"4","last_reported":1750198210,"current_range_meters":19200,"station_id":"ce4bh192rcd13ifvqdd0","pricing_plan_id":"cebpf4jnsgd1na2vs0mg"},{"bike_id":"e66146e1-ce73-4786-959b-0b2df533f56d","system_id":"levelo_inurba_marseille","lat":43.25114,"lon":5.40328,"is_reserved":false,"is_disabled":false,"rental_uris":{"android":"levelo://app?vid=e66146e1-ce73-4786-959b-0b2df533f56d","ios":"levelo://app?vid=e66146e1-ce73-4786-959b-0b2df533f56d"},"vehicle_type_id":"4","last_reported":1750198210,"current_range_meters":19200,"station_id":"ce4bhlh2rcd13ifvqgig","pricing_plan_id":"cebpf4jnsgd1na2vs0mg"},{"bike_id":"a3a65e20-72e8-4350-95e4-10108de6fbdb","system_id":"levelo_inurba_marseille","lat":43.25074,"lon":5.40327,"is_reserved":false,"is_disabled":false,"rental_uris":{"android":"levelo://app?vid=a3a65e20-72e8-4350-95e4-10108de6fbdb","ios":"levelo://app?vid=a3a65e20-72e8-4350-95e4-10108de6fbdb"},"vehicle_type_id":"4","last_reported":1750198210,"current_range_meters":19200,"station_id":"ce4bhlh2rcd13ifvqgig","pricing_plan_id":"cebpf4jnsgd1na2vs0mg"},{"bike_id":"ef6be3ad-522d-40db-834a-71e2bb1addfc","system_id":"levelo_inurba_marseille","lat":43.33606,"lon":5.41035,"is_reserved":false,"is_disabled":false,"rental_uris":{"android":"levelo://app?vid=ef6be3ad-522d-40db-834a-71e2bb1addfc","ios":"levelo://app?vid=ef6be3ad-522d-40db-834a-71e2bb1addfc"},"vehicle_type_id":"4","last_reported":1750198210,"current_range_meters":19200,"station_id":"ce4bhqh2rcd13ifvqhmg","pricing_plan_id":"cebpf4jnsgd1na2vs0mg"},{"bike_id":"3fb32369-1f25-46d2-9052-c30b5af8c776","system_id":"levelo_inurba_marseille","lat":43.2295,"lon":5.35367,"is_reserved":false,"is_disabled":false,"rental_uris":{"android":"levelo://app?vid=3fb32369-1f25-46d2-9052-c30b5af8c776","ios":"levelo://app?vid=3fb32369-1f25-46d2-9052-c30b5af8c776"},"vehicle_type_id":"4","last_reported":1750198210,"current_range_meters":19200,"station_id":"cpo3532slgdg3j2ikp40","pricing_plan_id":"cebpf4jnsgd1na2vs0mg"},{"bike_id":"4b6b2a2b-d3c4-4663-8ea1-de4eff39b7b2","system_id":"levelo_inurba_marseille","lat":43.212062,"lon":5.350658,"is_reserved":false,"is_disabled":false,"rental_uris":{"android":"levelo://app?vid=4b6b2a2b-d3c4-4663-8ea1-de4eff39b7b2","ios":"levelo://app?vid=4b6b2a2b-d3c4-4663-8ea1-de4eff39b7b2"},"vehicle_type_id":"4","last_reported":1750198210,"current_range_meters":19200,"station_id":"st_cvj6sg6p6f1abm77japg","pricing_plan_id":"cebpf4jnsgd1na2vs0mg"},{"bike_id":"a85b2000-e3ea-4c9d-8512-f632fbae13d6","system_id":"levelo_inurba_marseille","lat":43.30149,"lon":5.40118,"is_reserved":false,"is_disabled":false,"rental_uris":{"android":"levelo://app?vid=a85b2000-e3ea-4c9d-8512-f632fbae13d6","ios":"levelo://app?vid=a85b2000-e3ea-4c9d-8512-f632fbae13d6"},"vehicle_type_id":"4","last_reported":1750198210,"current_range_meters":19600,"station_id":"","pricing_plan_id":"cebpf4jnsgd1na2vs0mg"},{"bike_id":"60b79169-9150-4afc-8c0f-16c8531a8015","system_id":"levelo_inurba_marseille","lat":43.27326,"lon":5.43122,"is_reserved":false,"is_disabled":false,"rental_uris":{"android":"levelo://app?vid=60b79169-9150-4afc-8c0f-16c8531a8015","ios":"levelo://app?vid=60b79169-9150-4afc-8c0f-16c8531a8015"},"vehicle_type_id":"4","last_reported":1750198210,"current_range_meters":19600,"station_id":"","pricing_plan_id":"cebpf4jnsgd1na2vs0mg"},{"bike_id":"67182dff-e855-49cd-80e3-2d4cc1bd98c0","system_id":"levelo_inurba_marseille","lat":43.28317,"lon":5.3932,"is_reserved":false,"is_disabled":false,"rental_uris":{"android":"levelo://app?vid=67182dff-e855-49cd-80e3-2d4cc1bd98c0","ios":"levelo://app?vid=67182dff-e855-49cd-80e3-2d4cc1bd98c0"},"vehicle_type_id":"4","last_reported":1750198210,"current_range_meters":19600,"station_id":"","pricing_plan_id":"cebpf4jnsgd1na2vs0mg"},{"bike_id":"99ce8592-0821-4472-afe4-59fea13f16f3","system_id":"levelo_inurba_marseille","lat":43.31364,"lon":5.38486,"is_reserved":false,"is_disabled":false,"rental_uris":{"android":"levelo://app?vid=99ce8592-0821-4472-afe4-59fea13f16f3","ios":"levelo://app?vid=99ce8592-0821-4472-afe4-59fea13f16f3"},"vehicle_type_id":"4","last_reported":1750198210,"current_range_meters":19600,"station_id":"ce4bgt92rcd13ifvqcf0","pricing_plan_id":"cebpf4jnsgd1na2vs0mg"},{"bike_id":"26a18e41-e97a-4315-bfeb-39f2d80aa1dd","system_id":"levelo_inurba_marseille","lat":43.3025,"lon":5.4009,"is_reserved":false,"is_disabled":false,"rental_uris":{"android":"levelo://app?vid=26a18e41-e97a-4315-bfeb-39f2d80aa1dd","ios":"levelo://app?vid=26a18e41-e97a-4315-bfeb-39f2d80aa1dd"},"vehicle_type_id":"4","last_reported":1750198210,"current_range_meters":19600,"station_id":"ce4bgvh2rcd13ifvqcs0","pricing_plan_id":"cebpf4jnsgd1na2vs0mg"},{"bike_id":"2783d518-856a-40b7-94df-e64dbbdfbb8c","system_id":"levelo_inurba_marseille","lat":43.28103,"lon":5.37842,"is_reserved":false,"is_disabled":false,"rental_uris":{"android":"levelo://app?vid=2783d518-856a-40b7-94df-e64dbbdfbb8c","ios":"levelo://app?vid=2783d518-856a-40b7-94df-e64dbbdfbb8c"},"vehicle_type_id":"4","last_reported":1750198210,"current_range_meters":19600,"station_id":"ce4bha12rcd13ifvqee0","pricing_plan_id":"cebpf4jnsgd1na2vs0mg"},{"bike_id":"cfef7392-1433-476b-a989-3fb180315ec3","system_id":"levelo_inurba_marseille","lat":43.24176,"lon":5.39737,"is_reserved":false,"is_disabled":false,"rental_uris":{"android":"levelo://app?vid=cfef7392-1433-476b-a989-3fb180315ec3","ios":"levelo://app?vid=cfef7392-1433-476b-a989-3fb180315ec3"},"vehicle_type_id":"4","last_reported":1750198210,"current_range_meters":19600,"station_id":"ce4bhn12rcd13ifvqgpg","pricing_plan_id":"cebpf4jnsgd1na2vs0mg"},{"bike_id":"d7938150-038a-4974-8a1c-c76f0c042512","system_id":"levelo_inurba_marseille","lat":43.29958,"lon":5.41317,"is_reserved":false,"is_disabled":false,"rental_uris":{"android":"levelo://app?vid=d7938150-038a-4974-8a1c-c76f0c042512","ios":"levelo://app?vid=d7938150-038a-4974-8a1c-c76f0c042512"},"vehicle_type_id":"4","last_reported":1750198210,"current_range_meters":19600,"station_id":"ce4bhp12rcd13ifvqh9g","pricing_plan_id":"cebpf4jnsgd1na2vs0mg"},{"bike_id":"d93e4d2a-c7ea-4e56-9b24-a2800d3506fc","system_id":"levelo_inurba_marseille","lat":43.3206,"lon":5.41557,"is_reserved":false,"is_disabled":false,"rental_uris":{"android":"levelo://app?vid=d93e4d2a-c7ea-4e56-9b24-a2800d3506fc","ios":"levelo://app?vid=d93e4d2a-c7ea-4e56-9b24-a2800d3506fc"},"vehicle_type_id":"4","last_reported":1750198210,"current_range_meters":19600,"station_id":"ce4bhq92rcd13ifvqhkg","pricing_plan_id":"cebpf4jnsgd1na2vs0mg"},{"bike_id":"a7269e3f-e2c4-4028-b2ed-51436c8cf697","system_id":"levelo_inurba_marseille","lat":43.2118,"lon":5.35093,"is_reserved":false,"is_disabled":false,"rental_uris":{"android":"levelo://app?vid=a7269e3f-e2c4-4028-b2ed-51436c8cf697","ios":"levelo://app?vid=a7269e3f-e2c4-4028-b2ed-51436c8cf697"},"vehicle_type_id":"4","last_reported":1750198210,"current_range_meters":19600,"station_id":"st_cvj6sg6p6f1abm77japg","pricing_plan_id":"cebpf4jnsgd1na2vs0mg"},{"bike_id":"9262aeb9-0288-4214-b8a0-97538d2fcab7","system_id":"levelo_inurba_marseille","lat":43.30946,"lon":5.3903,"is_reserved":false,"is_disabled":false,"rental_uris":{"android":"levelo://app?vid=9262aeb9-0288-4214-b8a0-97538d2fcab7","ios":"levelo://app?vid=9262aeb9-0288-4214-b8a0-97538d2fcab7"},"vehicle_type_id":"4","last_reported":1750198210,"current_range_meters":20000,"station_id":"ce4bgup2rcd13ifvqco0","pricing_plan_id":"cebpf4jnsgd1na2vs0mg"},{"bike_id":"a44a3524-f1dc-4af3-9a66-e4b6fe15df56","system_id":"levelo_inurba_marseille","lat":43.30881,"lon":5.39657,"is_reserved":false,"is_disabled":false,"rental_uris":{"android":"levelo://app?vid=a44a3524-f1dc-4af3-9a66-e4b6fe15df56","ios":"levelo://app?vid=a44a3524-f1dc-4af3-9a66-e4b6fe15df56"},"vehicle_type_id":"4","last_reported":1750198210,"current_range_meters":20000,"station_id":"ce4bh012rcd13ifvqcv0","pricing_plan_id":"cebpf4jnsgd1na2vs0mg"},{"bike_id":"93a35b42-d0f4-423d-ac00-e923fd097ace","system_id":"levelo_inurba_marseille","lat":43.30577,"lon":5.3933,"is_reserved":false,"is_disabled":false,"rental_uris":{"android":"levelo://app?vid=93a35b42-d0f4-423d-ac00-e923fd097ace","ios":"levelo://app?vid=93a35b42-d0f4-423d-ac00-e923fd097ace"},"vehicle_type_id":"4","last_reported":1750198210,"current_range_meters":20000,"station_id":"ce4bh0p2rcd13ifvqd80","pricing_plan_id":"cebpf4jnsgd1na2vs0mg"},{"bike_id":"6c98f69a-ad16-4602-bd99-bece5c428b39","system_id":"levelo_inurba_marseille","lat":43.29276,"lon":5.40129,"is_reserved":false,"is_disabled":false,"rental_uris":{"android":"levelo://app?vid=6c98f69a-ad16-4602-bd99-bece5c428b39","ios":"levelo://app?vid=6c98f69a-ad16-4602-bd99-bece5c428b39"},"vehicle_type_id":"4","last_reported":1750198210,"current_range_meters":20000,"station_id":"ce4bh312rcd13ifvqdk0","pricing_plan_id":"cebpf4jnsgd1na2vs0mg"},{"bike_id":"f95266b3-a158-4d7a-bf2e-521b7cd25173","system_id":"levelo_inurba_marseille","lat":43.28944,"lon":5.39642,"is_reserved":false,"is_disabled":false,"rental_uris":{"android":"levelo://app?vid=f95266b3-a158-4d7a-bf2e-521b7cd25173","ios":"levelo://app?vid=f95266b3-a158-4d7a-bf2e-521b7cd25173"},"vehicle_type_id":"4","last_reported":1750198210,"current_range_meters":20000,"station_id":"ce4bh3h2rcd13ifvqdn0","pricing_plan_id":"cebpf4jnsgd1na2vs0mg"},{"bike_id":"72480ae4-2799-4ab8-990e-96f389a03083","system_id":"levelo_inurba_marseille","lat":43.30373,"lon":5.42486,"is_reserved":false,"is_disabled":false,"rental_uris":{"android":"levelo://app?vid=72480ae4-2799-4ab8-990e-96f389a03083","ios":"levelo://app?vid=72480ae4-2799-4ab8-990e-96f389a03083"},"vehicle_type_id":"4","last_reported":1750198210,"current_range_meters":20000,"station_id":"ce4bhoh2rcd13ifvqh6g","pricing_plan_id":"cebpf4jnsgd1na2vs0mg"},{"bike_id":"77ac8037-3c3c-493a-82c2-904a9ad6c7d0","system_id":"levelo_inurba_marseille","lat":43.26819,"lon":5.39054,"is_reserved":false,"is_disabled":false,"rental_uris":{"android":"levelo://app?vid=77ac8037-3c3c-493a-82c2-904a9ad6c7d0","ios":"levelo://app?vid=77ac8037-3c3c-493a-82c2-904a9ad6c7d0"},"vehicle_type_id":"4","last_reported":1750198210,"current_range_meters":20400,"station_id":"","pricing_plan_id":"cebpf4jnsgd1na2vs0mg"},{"bike_id":"a5602db9-2307-43bf-ac2b-89176a52edde","system_id":"levelo_inurba_marseille","lat":43.3032,"lon":5.40439,"is_reserved":false,"is_disabled":false,"rental_uris":{"android":"levelo://app?vid=a5602db9-2307-43bf-ac2b-89176a52edde","ios":"levelo://app?vid=a5602db9-2307-43bf-ac2b-89176a52edde"},"vehicle_type_id":"4","last_reported":1750198210,"current_range_meters":20400,"station_id":"ce4bh012rcd13ifvqd10","pricing_plan_id":"cebpf4jnsgd1na2vs0mg"},{"bike_id":"85928def-1a37-43ea-9429-e23fb7a1aa0b","system_id":"levelo_inurba_marseille","lat":43.29181,"lon":5.39296,"is_reserved":false,"is_disabled":false,"rental_uris":{"android":"levelo://app?vid=85928def-1a37-43ea-9429-e23fb7a1aa0b","ios":"levelo://app?vid=85928def-1a37-43ea-9429-e23fb7a1aa0b"},"vehicle_type_id":"4","last_reported":1750198210,"current_range_meters":20400,"station_id":"ce4bh192rcd13ifvqdd0","pricing_plan_id":"cebpf4jnsgd1na2vs0mg"},{"bike_id":"b4262f5e-41ce-486e-9980-2e5d637ef504","system_id":"levelo_inurba_marseille","lat":43.29021,"lon":5.38635,"is_reserved":false,"is_disabled":false,"rental_uris":{"android":"levelo://app?vid=b4262f5e-41ce-486e-9980-2e5d637ef504","ios":"levelo://app?vid=b4262f5e-41ce-486e-9980-2e5d637ef504"},"vehicle_type_id":"4","last_reported":1750198210,"current_range_meters":20400,"station_id":"ce4bh4p2rcd13ifvqe0g","pricing_plan_id":"cebpf4jnsgd1na2vs0mg"},{"bike_id":"b61059b2-1211-4187-8450-84f1756eb79d","system_id":"levelo_inurba_marseille","lat":43.29016,"lon":5.38639,"is_reserved":false,"is_disabled":false,"rental_uris":{"android":"levelo://app?vid=b61059b2-1211-4187-8450-84f1756eb79d","ios":"levelo://app?vid=b61059b2-1211-4187-8450-84f1756eb79d"},"vehicle_type_id":"4","last_reported":1750198210,"current_range_meters":20400,"station_id":"ce4bh4p2rcd13ifvqe0g","pricing_plan_id":"cebpf4jnsgd1na2vs0mg"},{"bike_id":"c8d970ef-20d6-4656-91db-56b2f39018a0","system_id":"levelo_inurba_marseille","lat":43.32365,"lon":5.38888,"is_reserved":false,"is_disabled":false,"rental_uris":{"android":"levelo://app?vid=c8d970ef-20d6-4656-91db-56b2f39018a0","ios":"levelo://app?vid=c8d970ef-20d6-4656-91db-56b2f39018a0"},"vehicle_type_id":"4","last_reported":1750198210,"current_range_meters":20400,"station_id":"ce4bhqp2rcd13ifvqhog","pricing_plan_id":"cebpf4jnsgd1na2vs0mg"},{"bike_id":"e5863b13-0bb4-41ee-a7a1-72091c1036b5","system_id":"levelo_inurba_marseille","lat":43.31613,"lon":5.38381,"is_reserved":false,"is_disabled":false,"rental_uris":{"android":"levelo://app?vid=e5863b13-0bb4-41ee-a7a1-72091c1036b5","ios":"levelo://app?vid=e5863b13-0bb4-41ee-a7a1-72091c1036b5"},"vehicle_type_id":"4","last_reported":1750198210,"current_range_meters":20800,"station_id":"","pricing_plan_id":"cebpf4jnsgd1na2vs0mg"},{"bike_id":"4e713ea3-497e-48ae-9a48-d421ec21c976","system_id":"levelo_inurba_marseille","lat":43.30896,"lon":5.37193,"is_reserved":false,"is_disabled":false,"rental_uris":{"android":"levelo://app?vid=4e713ea3-497e-48ae-9a48-d421ec21c976","ios":"levelo://app?vid=4e713ea3-497e-48ae-9a48-d421ec21c976"},"vehicle_type_id":"4","last_reported":1750198210,"current_range_meters":20800,"station_id":"ce4bguh2rcd13ifvqckg","pricing_plan_id":"cebpf4jnsgd1na2vs0mg"},{"bike_id":"d7bf2ba4-ea58-4e59-ad51-029f4239a248","system_id":"levelo_inurba_marseille","lat":43.2841,"lon":5.37508,"is_reserved":false,"is_disabled":false,"rental_uris":{"android":"levelo://app?vid=d7bf2ba4-ea58-4e59-ad51-029f4239a248","ios":"levelo://app?vid=d7bf2ba4-ea58-4e59-ad51-029f4239a248"},"vehicle_type_id":"4","last_reported":1750198210,"current_range_meters":20800,"station_id":"ce4bh412rcd13ifvqds0","pricing_plan_id":"cebpf4jnsgd1na2vs0mg"},{"bike_id":"bdea8a26-915a-4d24-afa3-897c5b1c3c0d","system_id":"levelo_inurba_marseille","lat":43.28665,"lon":5.38669,"is_reserved":false,"is_disabled":false,"rental_uris":{"android":"levelo://app?vid=bdea8a26-915a-4d24-afa3-897c5b1c3c0d","ios":"levelo://app?vid=bdea8a26-915a-4d24-afa3-897c5b1c3c0d"},"vehicle_type_id":"4","last_reported":1750198210,"current_range_meters":20800,"station_id":"ce4bh492rcd13ifvqdug","pricing_plan_id":"cebpf4jnsgd1na2vs0mg"},{"bike_id":"5426cfcc-6560-4b85-bb3b-3ab6d6bfed27","system_id":"levelo_inurba_marseille","lat":43.275617,"lon":5.38419,"is_reserved":false,"is_disabled":false,"rental_uris":{"android":"levelo://app?vid=5426cfcc-6560-4b85-bb3b-3ab6d6bfed27","ios":"levelo://app?vid=5426cfcc-6560-4b85-bb3b-3ab6d6bfed27"},"vehicle_type_id":"4","last_reported":1750198210,"current_range_meters":20800,"station_id":"ce4bhh92rcd13ifvqfi0","pricing_plan_id":"cebpf4jnsgd1na2vs0mg"},{"bike_id":"8c446e30-e0e9-4f2e-b5d3-5b6e16b4f760","system_id":"levelo_inurba_marseille","lat":43.260437,"lon":5.39402,"is_reserved":false,"is_disabled":false,"rental_uris":{"android":"levelo://app?vid=8c446e30-e0e9-4f2e-b5d3-5b6e16b4f760","ios":"levelo://app?vid=8c446e30-e0e9-4f2e-b5d3-5b6e16b4f760"},"vehicle_type_id":"4","last_reported":1750198210,"current_range_meters":20800,"station_id":"ce4bhh92rcd13ifvqfj0","pricing_plan_id":"cebpf4jnsgd1na2vs0mg"},{"bike_id":"1340990c-fbcc-487c-b0e0-9e9e47ca22cf","system_id":"levelo_inurba_marseille","lat":43.32041,"lon":5.41566,"is_reserved":false,"is_disabled":false,"rental_uris":{"android":"levelo://app?vid=1340990c-fbcc-487c-b0e0-9e9e47ca22cf","ios":"levelo://app?vid=1340990c-fbcc-487c-b0e0-9e9e47ca22cf"},"vehicle_type_id":"4","last_reported":1750198210,"current_range_meters":20800,"station_id":"ce4bhq92rcd13ifvqhkg","pricing_plan_id":"cebpf4jnsgd1na2vs0mg"},{"bike_id":"1c6ad65b-4f1d-4c81-8793-78eba647b4f2","system_id":"levelo_inurba_marseille","lat":43.29901,"lon":5.37471,"is_reserved":false,"is_disabled":false,"rental_uris":{"android":"levelo://app?vid=1c6ad65b-4f1d-4c81-8793-78eba647b4f2","ios":"levelo://app?vid=1c6ad65b-4f1d-4c81-8793-78eba647b4f2"},"vehicle_type_id":"4","last_reported":1750198210,"current_range_meters":21600,"station_id":"ce4bgjh2rcd13ifvqbg0","pricing_plan_id":"cebpf4jnsgd1na2vs0mg"},{"bike_id":"a253406a-f86b-4117-8567-fc71f13b51c7","system_id":"levelo_inurba_marseille","lat":43.31706,"lon":5.37746,"is_reserved":false,"is_disabled":false,"rental_uris":{"android":"levelo://app?vid=a253406a-f86b-4117-8567-fc71f13b51c7","ios":"levelo://app?vid=a253406a-f86b-4117-8567-fc71f13b51c7"},"vehicle_type_id":"4","last_reported":1750198210,"current_range_meters":21600,"station_id":"ce4bgth2rcd13ifvqch0","pricing_plan_id":"cebpf4jnsgd1na2vs0mg"},{"bike_id":"3019d54b-599b-4c93-849b-27065e092709","system_id":"levelo_inurba_marseille","lat":43.30786,"lon":5.37639,"is_reserved":false,"is_disabled":false,"rental_uris":{"android":"levelo://app?vid=3019d54b-599b-4c93-849b-27065e092709","ios":"levelo://app?vid=3019d54b-599b-4c93-849b-27065e092709"},"vehicle_type_id":"4","last_reported":1750198210,"current_range_meters":21600,"station_id":"ce4bgv92rcd13ifvqcq0","pricing_plan_id":"cebpf4jnsgd1na2vs0mg"},{"bike_id":"d4709bef-30c7-47e1-acb0-b62d446b415c","system_id":"levelo_inurba_marseille","lat":43.29281,"lon":5.40148,"is_reserved":false,"is_disabled":false,"rental_uris":{"android":"levelo://app?vid=d4709bef-30c7-47e1-acb0-b62d446b415c","ios":"levelo://app?vid=d4709bef-30c7-47e1-acb0-b62d446b415c"},"vehicle_type_id":"4","last_reported":1750198210,"current_range_meters":21600,"station_id":"ce4bh312rcd13ifvqdk0","pricing_plan_id":"cebpf4jnsgd1na2vs0mg"},{"bike_id":"72e9891b-ba88-4815-a991-094706100cd9","system_id":"levelo_inurba_marseille","lat":43.27172,"lon":5.40986,"is_reserved":false,"is_disabled":false,"rental_uris":{"android":"levelo://app?vid=72e9891b-ba88-4815-a991-094706100cd9","ios":"levelo://app?vid=72e9891b-ba88-4815-a991-094706100cd9"},"vehicle_type_id":"4","last_reported":1750198210,"current_range_meters":21600,"station_id":"ce4bhl12rcd13ifvqgf0","pricing_plan_id":"cebpf4jnsgd1na2vs0mg"},{"bike_id":"97dbe3d4-f5f1-4df9-9c22-2c7c2edf12c9","system_id":"levelo_inurba_marseille","lat":43.32339,"lon":5.406096,"is_reserved":false,"is_disabled":false,"rental_uris":{"android":"levelo://app?vid=97dbe3d4-f5f1-4df9-9c22-2c7c2edf12c9","ios":"levelo://app?vid=97dbe3d4-f5f1-4df9-9c22-2c7c2edf12c9"},"vehicle_type_id":"4","last_reported":1750198210,"current_range_meters":21600,"station_id":"ce4bhq92rcd13ifvqhjg","pricing_plan_id":"cebpf4jnsgd1na2vs0mg"},{"bike_id":"27cd7138-8b58-4d27-b6bb-d957b614e63b","system_id":"levelo_inurba_marseille","lat":43.30158,"lon":5.3699,"is_reserved":false,"is_disabled":false,"rental_uris":{"android":"levelo://app?vid=27cd7138-8b58-4d27-b6bb-d957b614e63b","ios":"levelo://app?vid=27cd7138-8b58-4d27-b6bb-d957b614e63b"},"vehicle_type_id":"4","last_reported":1750198210,"current_range_meters":22000,"station_id":"","pricing_plan_id":"cebpf4jnsgd1na2vs0mg"},{"bike_id":"ec88a63c-2bbf-4b25-8b16-f42d5431d3f5","system_id":"levelo_inurba_marseille","lat":43.30102,"lon":5.39881,"is_reserved":false,"is_disabled":false,"rental_uris":{"android":"levelo://app?vid=ec88a63c-2bbf-4b25-8b16-f42d5431d3f5","ios":"levelo://app?vid=ec88a63c-2bbf-4b25-8b16-f42d5431d3f5"},"vehicle_type_id":"4","last_reported":1750198210,"current_range_meters":22000,"station_id":"ce4bh0h2rcd13ifvqd40","pricing_plan_id":"cebpf4jnsgd1na2vs0mg"},{"bike_id":"a600afcf-ec78-475d-9bf9-ae7ca7a90b55","system_id":"levelo_inurba_marseille","lat":43.29022,"lon":5.38627,"is_reserved":false,"is_disabled":false,"rental_uris":{"android":"levelo://app?vid=a600afcf-ec78-475d-9bf9-ae7ca7a90b55","ios":"levelo://app?vid=a600afcf-ec78-475d-9bf9-ae7ca7a90b55"},"vehicle_type_id":"4","last_reported":1750198210,"current_range_meters":22000,"station_id":"ce4bh4p2rcd13ifvqe0g","pricing_plan_id":"cebpf4jnsgd1na2vs0mg"},{"bike_id":"452de6f5-dcc4-40e6-91d1-27952aacbf43","system_id":"levelo_inurba_marseille","lat":43.23199,"lon":5.39962,"is_reserved":false,"is_disabled":false,"rental_uris":{"android":"levelo://app?vid=452de6f5-dcc4-40e6-91d1-27952aacbf43","ios":"levelo://app?vid=452de6f5-dcc4-40e6-91d1-27952aacbf43"},"vehicle_type_id":"4","last_reported":1750198210,"current_range_meters":22000,"station_id":"ce4bhn12rcd13ifvqgqg","pricing_plan_id":"cebpf4jnsgd1na2vs0mg"},{"bike_id":"b5c9f5f8-60ce-4226-9650-4c6e2d668ce1","system_id":"levelo_inurba_marseille","lat":43.27994,"lon":5.40013,"is_reserved":false,"is_disabled":false,"rental_uris":{"android":"levelo://app?vid=b5c9f5f8-60ce-4226-9650-4c6e2d668ce1","ios":"levelo://app?vid=b5c9f5f8-60ce-4226-9650-4c6e2d668ce1"},"vehicle_type_id":"4","last_reported":1750198210,"current_range_meters":22000,"station_id":"ce4bho92rcd13ifvqh4g","pricing_plan_id":"cebpf4jnsgd1na2vs0mg"},{"bike_id":"d6a7de33-3932-4aba-95af-3a95391d1ca8","system_id":"levelo_inurba_marseille","lat":43.31326,"lon":5.39686,"is_reserved":false,"is_disabled":false,"rental_uris":{"android":"levelo://app?vid=d6a7de33-3932-4aba-95af-3a95391d1ca8","ios":"levelo://app?vid=d6a7de33-3932-4aba-95af-3a95391d1ca8"},"vehicle_type_id":"4","last_reported":1750198210,"current_range_meters":22400,"station_id":"ce4bgvp2rcd13ifvqcu0","pricing_plan_id":"cebpf4jnsgd1na2vs0mg"},{"bike_id":"ccd6125c-4b70-4154-8447-d8b590c0a354","system_id":"levelo_inurba_marseille","lat":43.31682,"lon":5.40473,"is_reserved":false,"is_disabled":false,"rental_uris":{"android":"levelo://app?vid=ccd6125c-4b70-4154-8447-d8b590c0a354","ios":"levelo://app?vid=ccd6125c-4b70-4154-8447-d8b590c0a354"},"vehicle_type_id":"4","last_reported":1750198210,"current_range_meters":22400,"station_id":"ce4bh012rcd13ifvqd00","pricing_plan_id":"cebpf4jnsgd1na2vs0mg"},{"bike_id":"94ec8516-34d7-4467-8df3-fe4ae8d13076","system_id":"levelo_inurba_marseille","lat":43.288512,"lon":5.393332,"is_reserved":false,"is_disabled":false,"rental_uris":{"android":"levelo://app?vid=94ec8516-34d7-4467-8df3-fe4ae8d13076","ios":"levelo://app?vid=94ec8516-34d7-4467-8df3-fe4ae8d13076"},"vehicle_type_id":"4","last_reported":1750198210,"current_range_meters":22400,"station_id":"ce4bh2p2rcd13ifvqdi0","pricing_plan_id":"cebpf4jnsgd1na2vs0mg"},{"bike_id":"00e92443-35f7-4c50-ad67-cf55768122cc","system_id":"levelo_inurba_marseille","lat":43.24668,"lon":5.38158,"is_reserved":false,"is_disabled":false,"rental_uris":{"android":"levelo://app?vid=00e92443-35f7-4c50-ad67-cf55768122cc","ios":"levelo://app?vid=00e92443-35f7-4c50-ad67-cf55768122cc"},"vehicle_type_id":"4","last_reported":1750198210,"current_range_meters":22400,"station_id":"ce4bhih2rcd13ifvqfr0","pricing_plan_id":"cebpf4jnsgd1na2vs0mg"},{"bike_id":"6ce443fe-f0a6-4d52-a83b-12f763e33cdc","system_id":"levelo_inurba_marseille","lat":43.33604,"lon":5.41034,"is_reserved":false,"is_disabled":false,"rental_uris":{"android":"levelo://app?vid=6ce443fe-f0a6-4d52-a83b-12f763e33cdc","ios":"levelo://app?vid=6ce443fe-f0a6-4d52-a83b-12f763e33cdc"},"vehicle_type_id":"4","last_reported":1750198210,"current_range_meters":22400,"station_id":"ce4bhqh2rcd13ifvqhmg","pricing_plan_id":"cebpf4jnsgd1na2vs0mg"},{"bike_id":"f2ec4c27-661d-4c12-b15f-7f127341201d","system_id":"levelo_inurba_marseille","lat":43.31985,"lon":5.38131,"is_reserved":false,"is_disabled":false,"rental_uris":{"android":"levelo://app?vid=f2ec4c27-661d-4c12-b15f-7f127341201d","ios":"levelo://app?vid=f2ec4c27-661d-4c12-b15f-7f127341201d"},"vehicle_type_id":"4","last_reported":1750198210,"current_range_meters":22400,"station_id":"ce4bhr12rcd13ifvqhpg","pricing_plan_id":"cebpf4jnsgd1na2vs0mg"},{"bike_id":"c8243327-4e5a-42c3-9927-7ef97787b9f3","system_id":"levelo_inurba_marseille","lat":43.30211,"lon":5.40063,"is_reserved":false,"is_disabled":false,"rental_uris":{"android":"levelo://app?vid=c8243327-4e5a-42c3-9927-7ef97787b9f3","ios":"levelo://app?vid=c8243327-4e5a-42c3-9927-7ef97787b9f3"},"vehicle_type_id":"4","last_reported":1750198210,"current_range_meters":22800,"station_id":"ce4bgvh2rcd13ifvqcs0","pricing_plan_id":"cebpf4jnsgd1na2vs0mg"},{"bike_id":"5654a528-9f83-4e01-8cee-bed7de331b3f","system_id":"levelo_inurba_marseille","lat":43.309453,"lon":5.390322,"is_reserved":false,"is_disabled":false,"rental_uris":{"android":"levelo://app?vid=5654a528-9f83-4e01-8cee-bed7de331b3f","ios":"levelo://app?vid=5654a528-9f83-4e01-8cee-bed7de331b3f"},"vehicle_type_id":"4","last_reported":1750198210,"current_range_meters":22800,"station_id":"ce4bh0p2rcd13ifvqd80","pricing_plan_id":"cebpf4jnsgd1na2vs0mg"},{"bike_id":"e1ee5ea6-a3b5-479f-8742-389f2915544c","system_id":"levelo_inurba_marseille","lat":43.29566,"lon":5.3998,"is_reserved":false,"is_disabled":false,"rental_uris":{"android":"levelo://app?vid=e1ee5ea6-a3b5-479f-8742-389f2915544c","ios":"levelo://app?vid=e1ee5ea6-a3b5-479f-8742-389f2915544c"},"vehicle_type_id":"4","last_reported":1750198210,"current_range_meters":22800,"station_id":"ce4bh312rcd13ifvqdj0","pricing_plan_id":"cebpf4jnsgd1na2vs0mg"},{"bike_id":"0c74e2e9-a71d-4f7c-825c-68730dd892f0","system_id":"levelo_inurba_marseille","lat":43.26955,"lon":5.38632,"is_reserved":false,"is_disabled":false,"rental_uris":{"android":"levelo://app?vid=0c74e2e9-a71d-4f7c-825c-68730dd892f0","ios":"levelo://app?vid=0c74e2e9-a71d-4f7c-825c-68730dd892f0"},"vehicle_type_id":"4","last_reported":1750198210,"current_range_meters":22800,"station_id":"ce4bhh92rcd13ifvqfh0","pricing_plan_id":"cebpf4jnsgd1na2vs0mg"},{"bike_id":"7615ef1d-5293-459a-9756-841d9e1995cf","system_id":"levelo_inurba_marseille","lat":43.32476,"lon":5.36549,"is_reserved":false,"is_disabled":false,"rental_uris":{"android":"levelo://app?vid=7615ef1d-5293-459a-9756-841d9e1995cf","ios":"levelo://app?vid=7615ef1d-5293-459a-9756-841d9e1995cf"},"vehicle_type_id":"4","last_reported":1750198210,"current_range_meters":22800,"station_id":"ce4bhs12rcd13ifvqhvg","pricing_plan_id":"cebpf4jnsgd1na2vs0mg"},{"bike_id":"46b2785a-6550-40ad-8c08-d060facecf77","system_id":"levelo_inurba_marseille","lat":43.30943,"lon":5.39035,"is_reserved":false,"is_disabled":false,"rental_uris":{"android":"levelo://app?vid=46b2785a-6550-40ad-8c08-d060facecf77","ios":"levelo://app?vid=46b2785a-6550-40ad-8c08-d060facecf77"},"vehicle_type_id":"4","last_reported":1750198210,"current_range_meters":23200,"station_id":"ce4bgup2rcd13ifvqco0","pricing_plan_id":"cebpf4jnsgd1na2vs0mg"},{"bike_id":"23e778f0-3b85-49e0-8525-b639678ee80e","system_id":"levelo_inurba_marseille","lat":43.30785,"lon":5.37648,"is_reserved":false,"is_disabled":false,"rental_uris":{"android":"levelo://app?vid=23e778f0-3b85-49e0-8525-b639678ee80e","ios":"levelo://app?vid=23e778f0-3b85-49e0-8525-b639678ee80e"},"vehicle_type_id":"4","last_reported":1750198210,"current_range_meters":23200,"station_id":"ce4bgv92rcd13ifvqcq0","pricing_plan_id":"cebpf4jnsgd1na2vs0mg"},{"bike_id":"30ea9c58-b180-4dcb-ba62-5cbe0aff3645","system_id":"levelo_inurba_marseille","lat":43.30869,"lon":5.39642,"is_reserved":false,"is_disabled":false,"rental_uris":{"android":"levelo://app?vid=30ea9c58-b180-4dcb-ba62-5cbe0aff3645","ios":"levelo://app?vid=30ea9c58-b180-4dcb-ba62-5cbe0aff3645"},"vehicle_type_id":"4","last_reported":1750198210,"current_range_meters":23200,"station_id":"ce4bh012rcd13ifvqcv0","pricing_plan_id":"cebpf4jnsgd1na2vs0mg"},{"bike_id":"dba75895-388c-4652-86bf-29c5596fe0f3","system_id":"levelo_inurba_marseille","lat":43.30423,"lon":5.3976,"is_reserved":false,"is_disabled":false,"rental_uris":{"android":"levelo://app?vid=dba75895-388c-4652-86bf-29c5596fe0f3","ios":"levelo://app?vid=dba75895-388c-4652-86bf-29c5596fe0f3"},"vehicle_type_id":"4","last_reported":1750198210,"current_range_meters":23200,"station_id":"ce4bh092rcd13ifvqd20","pricing_plan_id":"cebpf4jnsgd1na2vs0mg"},{"bike_id":"9bc326b7-0d29-4cee-9153-9063e02095bc","system_id":"levelo_inurba_marseille","lat":43.29521,"lon":5.39407,"is_reserved":false,"is_disabled":false,"rental_uris":{"android":"levelo://app?vid=9bc326b7-0d29-4cee-9153-9063e02095bc","ios":"levelo://app?vid=9bc326b7-0d29-4cee-9153-9063e02095bc"},"vehicle_type_id":"4","last_reported":1750198210,"current_range_meters":23200,"station_id":"ce4bh292rcd13ifvqdf0","pricing_plan_id":"cebpf4jnsgd1na2vs0mg"},{"bike_id":"df100c87-fc72-44bb-8400-7f758b74c3b2","system_id":"levelo_inurba_marseille","lat":43.288503,"lon":5.393196,"is_reserved":false,"is_disabled":false,"rental_uris":{"android":"levelo://app?vid=df100c87-fc72-44bb-8400-7f758b74c3b2","ios":"levelo://app?vid=df100c87-fc72-44bb-8400-7f758b74c3b2"},"vehicle_type_id":"4","last_reported":1750198210,"current_range_meters":23200,"station_id":"ce4bh2p2rcd13ifvqdi0","pricing_plan_id":"cebpf4jnsgd1na2vs0mg"},{"bike_id":"ae6b9b42-2b0e-4e34-b916-cfaa17bc830c","system_id":"levelo_inurba_marseille","lat":43.29501,"lon":5.39404,"is_reserved":false,"is_disabled":false,"rental_uris":{"android":"levelo://app?vid=ae6b9b42-2b0e-4e34-b916-cfaa17bc830c","ios":"levelo://app?vid=ae6b9b42-2b0e-4e34-b916-cfaa17bc830c"},"vehicle_type_id":"4","last_reported":1750198210,"current_range_meters":24000,"station_id":"ce4bh292rcd13ifvqdf0","pricing_plan_id":"cebpf4jnsgd1na2vs0mg"},{"bike_id":"704d0aae-4a1d-400b-8732-7de4ccabd9fb","system_id":"levelo_inurba_marseille","lat":43.28703,"lon":5.37414,"is_reserved":false,"is_disabled":false,"rental_uris":{"android":"levelo://app?vid=704d0aae-4a1d-400b-8732-7de4ccabd9fb","ios":"levelo://app?vid=704d0aae-4a1d-400b-8732-7de4ccabd9fb"},"vehicle_type_id":"4","last_reported":1750198210,"current_range_meters":24000,"station_id":"ce4bh3p2rcd13ifvqdq0","pricing_plan_id":"cebpf4jnsgd1na2vs0mg"},{"bike_id":"fe0b6211-d49a-4737-9305-3eac0fcf8549","system_id":"levelo_inurba_marseille","lat":43.2454,"lon":5.39528,"is_reserved":false,"is_disabled":false,"rental_uris":{"android":"levelo://app?vid=fe0b6211-d49a-4737-9305-3eac0fcf8549","ios":"levelo://app?vid=fe0b6211-d49a-4737-9305-3eac0fcf8549"},"vehicle_type_id":"4","last_reported":1750198210,"current_range_meters":24000,"station_id":"ce4bhlp2rcd13ifvqgjg","pricing_plan_id":"cebpf4jnsgd1na2vs0mg"},{"bike_id":"1e716788-94d4-49f9-8262-a5fe985683ab","system_id":"levelo_inurba_marseille","lat":43.29902,"lon":5.4366,"is_reserved":false,"is_disabled":false,"rental_uris":{"android":"levelo://app?vid=1e716788-94d4-49f9-8262-a5fe985683ab","ios":"levelo://app?vid=1e716788-94d4-49f9-8262-a5fe985683ab"},"vehicle_type_id":"4","last_reported":1750198210,"current_range_meters":24000,"station_id":"ce4bhpp2rcd13ifvqhfg","pricing_plan_id":"cebpf4jnsgd1na2vs0mg"},{"bike_id":"dcaab11e-05ec-400a-a2d8-db7fc69d73e3","system_id":"levelo_inurba_marseille","lat":43.28571,"lon":5.39491,"is_reserved":false,"is_disabled":false,"rental_uris":{"android":"levelo://app?vid=dcaab11e-05ec-400a-a2d8-db7fc69d73e3","ios":"levelo://app?vid=dcaab11e-05ec-400a-a2d8-db7fc69d73e3"},"vehicle_type_id":"4","last_reported":1750198210,"current_range_meters":24400,"station_id":"ce4bh292rcd13ifvqdg0","pricing_plan_id":"cebpf4jnsgd1na2vs0mg"},{"bike_id":"b117d806-2335-4787-90b0-4e9c0e232beb","system_id":"levelo_inurba_marseille","lat":43.28844,"lon":5.39316,"is_reserved":false,"is_disabled":false,"rental_uris":{"android":"levelo://app?vid=b117d806-2335-4787-90b0-4e9c0e232beb","ios":"levelo://app?vid=b117d806-2335-4787-90b0-4e9c0e232beb"},"vehicle_type_id":"4","last_reported":1750198210,"current_range_meters":24400,"station_id":"ce4bh2p2rcd13ifvqdi0","pricing_plan_id":"cebpf4jnsgd1na2vs0mg"},{"bike_id":"d7d65153-83c0-4d66-81ca-4aa7f861a78c","system_id":"levelo_inurba_marseille","lat":43.29027,"lon":5.38648,"is_reserved":false,"is_disabled":false,"rental_uris":{"android":"levelo://app?vid=d7d65153-83c0-4d66-81ca-4aa7f861a78c","ios":"levelo://app?vid=d7d65153-83c0-4d66-81ca-4aa7f861a78c"},"vehicle_type_id":"4","last_reported":1750198210,"current_range_meters":24400,"station_id":"ce4bh4p2rcd13ifvqe0g","pricing_plan_id":"cebpf4jnsgd1na2vs0mg"},{"bike_id":"a7c114f9-2cc6-423c-9987-c4946a1085af","system_id":"levelo_inurba_marseille","lat":43.27556,"lon":5.38429,"is_reserved":false,"is_disabled":false,"rental_uris":{"android":"levelo://app?vid=a7c114f9-2cc6-423c-9987-c4946a1085af","ios":"levelo://app?vid=a7c114f9-2cc6-423c-9987-c4946a1085af"},"vehicle_type_id":"4","last_reported":1750198210,"current_range_meters":24400,"station_id":"ce4bhh92rcd13ifvqfi0","pricing_plan_id":"cebpf4jnsgd1na2vs0mg"},{"bike_id":"dd2a4a11-f05e-4e7b-b8ab-73acf8838c10","system_id":"levelo_inurba_marseille","lat":43.24546,"lon":5.39524,"is_reserved":false,"is_disabled":false,"rental_uris":{"android":"levelo://app?vid=dd2a4a11-f05e-4e7b-b8ab-73acf8838c10","ios":"levelo://app?vid=dd2a4a11-f05e-4e7b-b8ab-73acf8838c10"},"vehicle_type_id":"4","last_reported":1750198210,"current_range_meters":24400,"station_id":"ce4bhlp2rcd13ifvqgjg","pricing_plan_id":"cebpf4jnsgd1na2vs0mg"},{"bike_id":"b4a13b75-402d-41c6-aca7-326fd5447b84","system_id":"levelo_inurba_marseille","lat":43.30371,"lon":5.42482,"is_reserved":false,"is_disabled":false,"rental_uris":{"android":"levelo://app?vid=b4a13b75-402d-41c6-aca7-326fd5447b84","ios":"levelo://app?vid=b4a13b75-402d-41c6-aca7-326fd5447b84"},