{"last_updated":1753539002,"ttl":60,"version":"2.2","data":{"bikes":[{"bike_id":"0f80fd5d-6e0f-478b-ac50-47cc49181482","system_id":"levelo_inurba_marseille","lat":43.305099,"lon":5.366286,"is_reserved":false,"is_disabled":true,"rental_uris":{"android":"levelo://app?vid=0f80fd5d-6e0f-478b-ac50-47cc49181482","ios":"levelo://app?vid=0f80fd5d-6e0f-478b-ac50-47cc49181482"},"vehicle_type_id":"4","last_reported":1753539002,"current_range_meters":3200,"station_id":"ce4bhi12rcd13ifvqfo0","pricing_plan_id":"cebpf4jnsgd1na2vs0mg"},{"bike_id":"12ec72e3-48df-4b75-baf9-18b4b8e5a1c2","system_id":"levelo_inurba_marseille","lat":43.31332,"lon":5.36937,"is_reserved":false,"is_disabled":false,"rental_uris":{"android":"levelo://app?vid=12ec72e3-48df-4b75-baf9-18b4b8e5a1c2","ios":"levelo://app?vid=12ec72e3-48df-4b75-baf9-18b4b8e5a1c2"},"vehicle_type_id":"4","last_reported":1753539002,"current_range_meters":3200,"station_id":"ce4bgl92rcd13ifvqbq0","pricing_plan_id":"cebpf4jnsgd1na2vs0mg"},{"bike_id":"e19cd9bd-8f1f-4909-a624-5af678243303","system_id":"levelo_inurba_marseille","lat":43.29062,"lon":5.39909,"is_reserved":false,"is_disabled":false,"rental_uris":{"android":"levelo://app?vid=e19cd9bd-8f1f-4909-a624-5af678243303","ios":"levelo://app?vid=e19cd9bd-8f1f-4909-a624-5af678243303"},"vehicle_type_id":"4","last_reported":1753539002,"current_range_meters":3600,"station_id":"ce4bh392rcd13ifvqdm0","pricing_plan_id":"cebpf4jnsgd1na2vs0mg"},{"bike_id":"fd2ef2be-455e-4104-addc-200ac5487ec7","system_id":"levelo_inurba_marseille","lat":43.298533,"lon":5.362862,"is_reserved":false,"is_disabled":false,"rental_uris":{"android":"levelo://app?vid=fd2ef2be-455e-4104-addc-200ac5487ec7","ios":"levelo://app?vid=fd2ef2be-455e-4104-addc-200ac5487ec7"},"vehicle_type_id":"4","last_reported":1753539002,"current_range_meters":3600,"station_id":"ce4bgpp2rcd13ifvqc3g","pricing_plan_id":"cebpf4jnsgd1na2vs0mg"},{"bike_id":"d24d608d-4827-4e59-bff9-d1bf2f00a6b6","system_id":"levelo_inurba_marseille","lat":43.30218,"lon":5.39469,"is_reserved":false,"is_disabled":false,"rental_uris":{"android":"levelo://app?vid=d24d608d-4827-4e59-bff9-d1bf2f00a6b6","ios":"levelo://app?vid=d24d608d-4827-4e59-bff9-d1bf2f00a6b6"},"vehicle_type_id":"4","last_reported":1753539002,"current_range_meters":4400,"station_id":"ce4bh0p2rcd13ifvqd70","pricing_plan_id":"cebpf4jnsgd1na2vs0mg"},{"bike_id":"7b56f4ab-521b-49cb-8264-24fed899f6eb","system_id":"levelo_inurba_marseille","lat":43.31301,"lon":5.36818,"is_reserved":false,"is_disabled":false,"rental_uris":{"android":"levelo://app?vid=7b56f4ab-521b-49cb-8264-24fed899f6eb","ios":"levelo://app?vid=7b56f4ab-521b-49cb-8264-24fed899f6eb"},"vehicle_type_id":"4","last_reported":1753539002,"current_range_meters":4800,"station_id":"ce4bgl92rcd13ifvqbq0","pricing_plan_id":"cebpf4jnsgd1na2vs0mg"},{"bike_id":"f28d2bb9-4217-4196-a573-ba6f4c172497","system_id":"levelo_inurba_marseille","lat":43.28162,"lon":5.36101,"is_reserved":false,"is_disabled":false,"rental_uris":{"android":"levelo://app?vid=f28d2bb9-4217-4196-a573-ba6f4c172497","ios":"levelo://app?vid=f28d2bb9-4217-4196-a573-ba6f4c172497"},"vehicle_type_id":"4","last_reported":1753539002,"current_range_meters":4800,"station_id":"","pricing_plan_id":"cebpf4jnsgd1na2vs0mg"},{"bike_id":"8658f836-e872-44e7-867e-e000b4ccd09b","system_id":"levelo_inurba_marseille","lat":43.31484,"lon":5.37297,"is_reserved":false,"is_disabled":false,"rental_uris":{"android":"levelo://app?vid=8658f836-e872-44e7-867e-e000b4ccd09b","ios":"levelo://app?vid=8658f836-e872-44e7-867e-e000b4ccd09b"},"vehicle_type_id":"4","last_reported":1753539002,"current_range_meters":4800,"station_id":"ce4bgt12rcd13ifvqcd0","pricing_plan_id":"cebpf4jnsgd1na2vs0mg"},{"bike_id":"c43b27da-9f79-4bfb-88dc-4fc18a02e43d","system_id":"levelo_inurba_marseille","lat":43.271438,"lon":5.402246,"is_reserved":false,"is_disabled":false,"rental_uris":{"android":"levelo://app?vid=c43b27da-9f79-4bfb-88dc-4fc18a02e43d","ios":"levelo://app?vid=c43b27da-9f79-4bfb-88dc-4fc18a02e43d"},"vehicle_type_id":"4","last_reported":1753539002,"current_range_meters":4800,"station_id":"","pricing_plan_id":"cebpf4jnsgd1na2vs0mg"},{"bike_id":"c54f3468-a957-4cef-a741-556766293d24","system_id":"levelo_inurba_marseille","lat":43.2985,"lon":5.36281,"is_reserved":false,"is_disabled":false,"rental_uris":{"android":"levelo://app?vid=c54f3468-a957-4cef-a741-556766293d24","ios":"levelo://app?vid=c54f3468-a957-4cef-a741-556766293d24"},"vehicle_type_id":"4","last_reported":1753539002,"current_range_meters":4800,"station_id":"ce4bgpp2rcd13ifvqc3g","pricing_plan_id":"cebpf4jnsgd1na2vs0mg"},{"bike_id":"5b17a274-d82d-4bfe-85d1-63e6826705bf","system_id":"levelo_inurba_marseille","lat":43.28435,"lon":5.39195,"is_reserved":false,"is_disabled":false,"rental_uris":{"android":"levelo://app?vid=5b17a274-d82d-4bfe-85d1-63e6826705bf","ios":"levelo://app?vid=5b17a274-d82d-4bfe-85d1-63e6826705bf"},"vehicle_type_id":"4","last_reported":1753539002,"current_range_meters":5600,"station_id":"ce4bhoh2rcd13ifvqh5g","pricing_plan_id":"cebpf4jnsgd1na2vs0mg"},{"bike_id":"2573b77d-9160-4448-81ec-9c38b294099b","system_id":"levelo_inurba_marseille","lat":43.30428,"lon":5.39738,"is_reserved":false,"is_disabled":false,"rental_uris":{"android":"levelo://app?vid=2573b77d-9160-4448-81ec-9c38b294099b","ios":"levelo://app?vid=2573b77d-9160-4448-81ec-9c38b294099b"},"vehicle_type_id":"4","last_reported":1753539002,"current_range_meters":5600,"station_id":"ce4bh092rcd13ifvqd20","pricing_plan_id":"cebpf4jnsgd1na2vs0mg"},{"bike_id":"a2465dad-0aab-4733-841a-bec862039ae8","system_id":"levelo_inurba_marseille","lat":43.29886,"lon":5.38894,"is_reserved":false,"is_disabled":false,"rental_uris":{"android":"levelo://app?vid=a2465dad-0aab-4733-841a-bec862039ae8","ios":"levelo://app?vid=a2465dad-0aab-4733-841a-bec862039ae8"},"vehicle_type_id":"4","last_reported":1753539002,"current_range_meters":5600,"station_id":"ce4bh392rcd13ifvqdl0","pricing_plan_id":"cebpf4jnsgd1na2vs0mg"},{"bike_id":"33759d96-bfb8-4051-bb92-a5bfcd0faac3","system_id":"levelo_inurba_marseille","lat":43.311753,"lon":5.38717,"is_reserved":false,"is_disabled":false,"rental_uris":{"android":"levelo://app?vid=33759d96-bfb8-4051-bb92-a5bfcd0faac3","ios":"levelo://app?vid=33759d96-bfb8-4051-bb92-a5bfcd0faac3"},"vehicle_type_id":"4","last_reported":1753539002,"current_range_meters":5600,"station_id":"ce4bgv12rcd13ifvqcp0","pricing_plan_id":"cebpf4jnsgd1na2vs0mg"},{"bike_id":"6af7a72a-189c-4dbc-9282-a956426542ba","system_id":"levelo_inurba_marseille","lat":43.22516,"lon":5.3477,"is_reserved":false,"is_disabled":false,"rental_uris":{"android":"levelo://app?vid=6af7a72a-189c-4dbc-9282-a956426542ba","ios":"levelo://app?vid=6af7a72a-189c-4dbc-9282-a956426542ba"},"vehicle_type_id":"4","last_reported":1753539002,"current_range_meters":6400,"station_id":"","pricing_plan_id":"cebpf4jnsgd1na2vs0mg"},{"bike_id":"6ab02f66-ec26-47eb-8fb5-124be5133bf2","system_id":"levelo_inurba_marseille","lat":43.28615,"lon":5.35113,"is_reserved":false,"is_disabled":false,"rental_uris":{"android":"levelo://app?vid=6ab02f66-ec26-47eb-8fb5-124be5133bf2","ios":"levelo://app?vid=6ab02f66-ec26-47eb-8fb5-124be5133bf2"},"vehicle_type_id":"4","last_reported":1753539002,"current_range_meters":6800,"station_id":"ce4bhch2rcd13ifvqeug","pricing_plan_id":"cebpf4jnsgd1na2vs0mg"},{"bike_id":"ff30a5ee-0e9d-4bfa-a593-c7beaf9df463","system_id":"levelo_inurba_marseille","lat":43.33532,"lon":5.36198,"is_reserved":false,"is_disabled":false,"rental_uris":{"android":"levelo://app?vid=ff30a5ee-0e9d-4bfa-a593-c7beaf9df463","ios":"levelo://app?vid=ff30a5ee-0e9d-4bfa-a593-c7beaf9df463"},"vehicle_type_id":"4","last_reported":1753539002,"current_range_meters":6800,"station_id":"","pricing_plan_id":"cebpf4jnsgd1na2vs0mg"},{"bike_id":"89dcea3a-f7f7-44b2-9d2c-a3300861829d","system_id":"levelo_inurba_marseille","lat":43.27884,"lon":5.3969,"is_reserved":false,"is_disabled":false,"rental_uris":{"android":"levelo://app?vid=89dcea3a-f7f7-44b2-9d2c-a3300861829d","ios":"levelo://app?vid=89dcea3a-f7f7-44b2-9d2c-a3300861829d"},"vehicle_type_id":"4","last_reported":1753539002,"current_range_meters":6800,"station_id":"","pricing_plan_id":"cebpf4jnsgd1na2vs0mg"},{"bike_id":"ee6c6354-acff-48e8-9a70-b9d2b3f380ef","system_id":"levelo_inurba_marseille","lat":43.2175,"lon":5.34607,"is_reserved":false,"is_disabled":false,"rental_uris":{"android":"levelo://app?vid=ee6c6354-acff-48e8-9a70-b9d2b3f380ef","ios":"levelo://app?vid=ee6c6354-acff-48e8-9a70-b9d2b3f380ef"},"vehicle_type_id":"4","last_reported":1753539002,"current_range_meters":6800,"station_id":"st_cvj6r9ubvosntc0bgbag","pricing_plan_id":"cebpf4jnsgd1na2vs0mg"},{"bike_id":"b302d0c3-b833-4672-893c-37f23e8b48a2","system_id":"levelo_inurba_marseille","lat":43.23054,"lon":5.3549,"is_reserved":false,"is_disabled":false,"rental_uris":{"android":"levelo://app?vid=b302d0c3-b833-4672-893c-37f23e8b48a2","ios":"levelo://app?vid=b302d0c3-b833-4672-893c-37f23e8b48a2"},"vehicle_type_id":"4","last_reported":1753539002,"current_range_meters":7200,"station_id":"cpo3342slgdg3j2ifvpg","pricing_plan_id":"cebpf4jnsgd1na2vs0mg"},{"bike_id":"c55ee4f9-7f33-49e0-be9e-e78d996f79f4","system_id":"levelo_inurba_marseille","lat":43.30253,"lon":5.40043,"is_reserved":false,"is_disabled":false,"rental_uris":{"android":"levelo://app?vid=c55ee4f9-7f33-49e0-be9e-e78d996f79f4","ios":"levelo://app?vid=c55ee4f9-7f33-49e0-be9e-e78d996f79f4"},"vehicle_type_id":"4","last_reported":1753539002,"current_range_meters":7200,"station_id":"ce4bgvh2rcd13ifvqcs0","pricing_plan_id":"cebpf4jnsgd1na2vs0mg"},{"bike_id":"1c31f24b-2b9e-48c3-b103-bffd32b92420","system_id":"levelo_inurba_marseille","lat":43.33518,"lon":5.40872,"is_reserved":false,"is_disabled":false,"rental_uris":{"android":"levelo://app?vid=1c31f24b-2b9e-48c3-b103-bffd32b92420","ios":"levelo://app?vid=1c31f24b-2b9e-48c3-b103-bffd32b92420"},"vehicle_type_id":"4","last_reported":1753539002,"current_range_meters":7200,"station_id":"","pricing_plan_id":"cebpf4jnsgd1na2vs0mg"},{"bike_id":"72af6de4-6df8-41dd-bd0f-d50ed0cd0417","system_id":"levelo_inurba_marseille","lat":43.278955,"lon":5.380123,"is_reserved":false,"is_disabled":false,"rental_uris":{"android":"levelo://app?vid=72af6de4-6df8-41dd-bd0f-d50ed0cd0417","ios":"levelo://app?vid=72af6de4-6df8-41dd-bd0f-d50ed0cd0417"},"vehicle_type_id":"4","last_reported":1753539002,"current_range_meters":6800,"station_id":"ce4bhf92rcd13ifvqf50","pricing_plan_id":"cebpf4jnsgd1na2vs0mg"},{"bike_id":"485e66ae-5b52-4c94-a9fe-2a823b61512c","system_id":"levelo_inurba_marseille","lat":43.2953,"lon":5.38542,"is_reserved":false,"is_disabled":false,"rental_uris":{"android":"levelo://app?vid=485e66ae-5b52-4c94-a9fe-2a823b61512c","ios":"levelo://app?vid=485e66ae-5b52-4c94-a9fe-2a823b61512c"},"vehicle_type_id":"4","last_reported":1753539002,"current_range_meters":7200,"station_id":"ce4bgih2rcd13ifvqba0","pricing_plan_id":"cebpf4jnsgd1na2vs0mg"},{"bike_id":"5e996369-86ae-4816-8750-239b0e998170","system_id":"levelo_inurba_marseille","lat":43.21753,"lon":5.34598,"is_reserved":false,"is_disabled":false,"rental_uris":{"android":"levelo://app?vid=5e996369-86ae-4816-8750-239b0e998170","ios":"levelo://app?vid=5e996369-86ae-4816-8750-239b0e998170"},"vehicle_type_id":"4","last_reported":1753539002,"current_range_meters":8000,"station_id":"st_cvj6r9ubvosntc0bgbag","pricing_plan_id":"cebpf4jnsgd1na2vs0mg"},{"bike_id":"941a2433-384b-44ab-972d-dfaabdfd963e","system_id":"levelo_inurba_marseille","lat":43.255814,"lon":5.382406,"is_reserved":false,"is_disabled":false,"rental_uris":{"android":"levelo://app?vid=941a2433-384b-44ab-972d-dfaabdfd963e","ios":"levelo://app?vid=941a2433-384b-44ab-972d-dfaabdfd963e"},"vehicle_type_id":"4","last_reported":1753539002,"current_range_meters":8000,"station_id":"ce4bhih2rcd13ifvqfs0","pricing_plan_id":"cebpf4jnsgd1na2vs0mg"},{"bike_id":"dc9e1c82-30cc-40d0-b96b-43aa21b80cfe","system_id":"levelo_inurba_marseille","lat":43.21199,"lon":5.35079,"is_reserved":false,"is_disabled":false,"rental_uris":{"android":"levelo://app?vid=dc9e1c82-30cc-40d0-b96b-43aa21b80cfe","ios":"levelo://app?vid=dc9e1c82-30cc-40d0-b96b-43aa21b80cfe"},"vehicle_type_id":"4","last_reported":1753539002,"current_range_meters":8000,"station_id":"st_cvj6sg6p6f1abm77japg","pricing_plan_id":"cebpf4jnsgd1na2vs0mg"},{"bike_id":"56bb0055-6dea-4eee-a5f8-3f83f307713e","system_id":"levelo_inurba_marseille","lat":43.281494,"lon":5.391614,"is_reserved":false,"is_disabled":false,"rental_uris":{"android":"levelo://app?vid=56bb0055-6dea-4eee-a5f8-3f83f307713e","ios":"levelo://app?vid=56bb0055-6dea-4eee-a5f8-3f83f307713e"},"vehicle_type_id":"4","last_reported":1753539002,"current_range_meters":11600,"station_id":"ce4bhoh2rcd13ifvqh5g","pricing_plan_id":"cebpf4jnsgd1na2vs0mg"},{"bike_id":"7e5cb73c-5a65-4dc0-9cbc-7af85b1e3def","system_id":"levelo_inurba_marseille","lat":43.255783,"lon":5.38233,"is_reserved":false,"is_disabled":false,"rental_uris":{"android":"levelo://app?vid=7e5cb73c-5a65-4dc0-9cbc-7af85b1e3def","ios":"levelo://app?vid=7e5cb73c-5a65-4dc0-9cbc-7af85b1e3def"},"vehicle_type_id":"4","last_reported":1753539002,"current_range_meters":8400,"station_id":"ce4bhih2rcd13ifvqfs0","pricing_plan_id":"cebpf4jnsgd1na2vs0mg"},{"bike_id":"342858c2-ba05-428e-9bba-1694b47d7029","system_id":"levelo_inurba_marseille","lat":43.2175,"lon":5.34601,"is_reserved":false,"is_disabled":false,"rental_uris":{"android":"levelo://app?vid=342858c2-ba05-428e-9bba-1694b47d7029","ios":"levelo://app?vid=342858c2-ba05-428e-9bba-1694b47d7029"},"vehicle_type_id":"4","last_reported":1753539002,"current_range_meters":8400,"station_id":"st_cvj6r9ubvosntc0bgbag","pricing_plan_id":"cebpf4jnsgd1na2vs0mg"},{"bike_id":"4177c350-b39d-4243-a455-e13f00e80b0a","system_id":"levelo_inurba_marseille","lat":43.262032,"lon":5.374419,"is_reserved":false,"is_disabled":true,"rental_uris":{"android":"levelo://app?vid=4177c350-b39d-4243-a455-e13f00e80b0a","ios":"levelo://app?vid=4177c350-b39d-4243-a455-e13f00e80b0a"},"vehicle_type_id":"4","last_reported":1753539002,"current_range_meters":8400,"station_id":"ce4bhgp2rcd13ifvqfc0","pricing_plan_id":"cebpf4jnsgd1na2vs0mg"},{"bike_id":"fb389cb9-3b8a-43e8-a9e6-86cf28f3942f","system_id":"levelo_inurba_marseille","lat":43.279724,"lon":5.38738,"is_reserved":false,"is_disabled":false,"rental_uris":{"android":"levelo://app?vid=fb389cb9-3b8a-43e8-a9e6-86cf28f3942f","ios":"levelo://app?vid=fb389cb9-3b8a-43e8-a9e6-86cf28f3942f"},"vehicle_type_id":"4","last_reported":1753539002,"current_range_meters":8400,"station_id":"ce4bhg12rcd13ifvqf80","pricing_plan_id":"cebpf4jnsgd1na2vs0mg"},{"bike_id":"078febbd-6d49-4abf-8b46-d33f87f8da46","system_id":"levelo_inurba_marseille","lat":43.25452,"lon":5.38007,"is_reserved":false,"is_disabled":false,"rental_uris":{"android":"levelo://app?vid=078febbd-6d49-4abf-8b46-d33f87f8da46","ios":"levelo://app?vid=078febbd-6d49-4abf-8b46-d33f87f8da46"},"vehicle_type_id":"4","last_reported":1753539002,"current_range_meters":8800,"station_id":"","pricing_plan_id":"cebpf4jnsgd1na2vs0mg"},{"bike_id":"e6468c81-b439-4f0d-b3bb-e7850e2844ad","system_id":"levelo_inurba_marseille","lat":43.3009,"lon":5.39091,"is_reserved":false,"is_disabled":false,"rental_uris":{"android":"levelo://app?vid=e6468c81-b439-4f0d-b3bb-e7850e2844ad","ios":"levelo://app?vid=e6468c81-b439-4f0d-b3bb-e7850e2844ad"},"vehicle_type_id":"4","last_reported":1753539002,"current_range_meters":8800,"station_id":"ce4bh192rcd13ifvqdb0","pricing_plan_id":"cebpf4jnsgd1na2vs0mg"},{"bike_id":"7910dd23-6b4a-4717-9c92-c12c1f623349","system_id":"levelo_inurba_marseille","lat":43.279137,"lon":5.395827,"is_reserved":false,"is_disabled":false,"rental_uris":{"android":"levelo://app?vid=7910dd23-6b4a-4717-9c92-c12c1f623349","ios":"levelo://app?vid=7910dd23-6b4a-4717-9c92-c12c1f623349"},"vehicle_type_id":"4","last_reported":1753539002,"current_range_meters":8800,"station_id":"ce4bhf92rcd13ifvqf40","pricing_plan_id":"cebpf4jnsgd1na2vs0mg"},{"bike_id":"ea5a7652-f1fc-4679-82a6-c26e9181bea1","system_id":"levelo_inurba_marseille","lat":43.28446,"lon":5.39199,"is_reserved":false,"is_disabled":false,"rental_uris":{"android":"levelo://app?vid=ea5a7652-f1fc-4679-82a6-c26e9181bea1","ios":"levelo://app?vid=ea5a7652-f1fc-4679-82a6-c26e9181bea1"},"vehicle_type_id":"4","last_reported":1753539002,"current_range_meters":8800,"station_id":"ce4bhoh2rcd13ifvqh5g","pricing_plan_id":"cebpf4jnsgd1na2vs0mg"},{"bike_id":"c1dcf064-7633-4f3e-9c7d-cf25342fb85f","system_id":"levelo_inurba_marseille","lat":43.27214,"lon":5.39198,"is_reserved":false,"is_disabled":true,"rental_uris":{"android":"levelo://app?vid=c1dcf064-7633-4f3e-9c7d-cf25342fb85f","ios":"levelo://app?vid=c1dcf064-7633-4f3e-9c7d-cf25342fb85f"},"vehicle_type_id":"4","last_reported":1753539002,"current_range_meters":8800,"station_id":"ce4bhhp2rcd13ifvqfm0","pricing_plan_id":"cebpf4jnsgd1na2vs0mg"},{"bike_id":"cd5561c9-1cf8-4017-b7e0-c99a926bc380","system_id":"levelo_inurba_marseille","lat":43.32289,"lon":5.38273,"is_reserved":false,"is_disabled":false,"rental_uris":{"android":"levelo://app?vid=cd5561c9-1cf8-4017-b7e0-c99a926bc380","ios":"levelo://app?vid=cd5561c9-1cf8-4017-b7e0-c99a926bc380"},"vehicle_type_id":"4","last_reported":1753539002,"current_range_meters":9200,"station_id":"ce4bhr12rcd13ifvqhqg","pricing_plan_id":"cebpf4jnsgd1na2vs0mg"},{"bike_id":"5d111764-2645-464b-abbe-64a4cc1b9ed1","system_id":"levelo_inurba_marseille","lat":43.2796,"lon":5.38706,"is_reserved":false,"is_disabled":false,"rental_uris":{"android":"levelo://app?vid=5d111764-2645-464b-abbe-64a4cc1b9ed1","ios":"levelo://app?vid=5d111764-2645-464b-abbe-64a4cc1b9ed1"},"vehicle_type_id":"4","last_reported":1753539002,"current_range_meters":9200,"station_id":"ce4bhg12rcd13ifvqf80","pricing_plan_id":"cebpf4jnsgd1na2vs0mg"},{"bike_id":"ccca3042-9358-40fc-ac03-e327e01c225f","system_id":"levelo_inurba_marseille","lat":43.232982,"lon":5.361251,"is_reserved":false,"is_disabled":false,"rental_uris":{"android":"levelo://app?vid=ccca3042-9358-40fc-ac03-e327e01c225f","ios":"levelo://app?vid=ccca3042-9358-40fc-ac03-e327e01c225f"},"vehicle_type_id":"4","last_reported":1753539002,"current_range_meters":9200,"station_id":"","pricing_plan_id":"cebpf4jnsgd1na2vs0mg"},{"bike_id":"13c4991c-3e29-4005-9c0f-381d2d699abf","system_id":"levelo_inurba_marseille","lat":43.28902,"lon":5.36027,"is_reserved":false,"is_disabled":false,"rental_uris":{"android":"levelo://app?vid=13c4991c-3e29-4005-9c0f-381d2d699abf","ios":"levelo://app?vid=13c4991c-3e29-4005-9c0f-381d2d699abf"},"vehicle_type_id":"4","last_reported":1753539002,"current_range_meters":9200,"station_id":"","pricing_plan_id":"cebpf4jnsgd1na2vs0mg"},{"bike_id":"0e06cf48-6f0b-4cc0-ac0f-b9dad0f3368b","system_id":"levelo_inurba_marseille","lat":43.21733,"lon":5.34616,"is_reserved":false,"is_disabled":false,"rental_uris":{"android":"levelo://app?vid=0e06cf48-6f0b-4cc0-ac0f-b9dad0f3368b","ios":"levelo://app?vid=0e06cf48-6f0b-4cc0-ac0f-b9dad0f3368b"},"vehicle_type_id":"4","last_reported":1753539002,"current_range_meters":9600,"station_id":"","pricing_plan_id":"cebpf4jnsgd1na2vs0mg"},{"bike_id":"923669fe-a72e-4300-a1b1-7a36d5d8edc6","system_id":"levelo_inurba_marseille","lat":43.211957,"lon":5.350704,"is_reserved":false,"is_disabled":false,"rental_uris":{"android":"levelo://app?vid=923669fe-a72e-4300-a1b1-7a36d5d8edc6","ios":"levelo://app?vid=923669fe-a72e-4300-a1b1-7a36d5d8edc6"},"vehicle_type_id":"4","last_reported":1753539002,"current_range_meters":9600,"station_id":"st_cvj6sg6p6f1abm77japg","pricing_plan_id":"cebpf4jnsgd1na2vs0mg"},{"bike_id":"28d2987a-af49-47c1-af2d-8871171acd7d","system_id":"levelo_inurba_marseille","lat":43.30376,"lon":5.42487,"is_reserved":false,"is_disabled":false,"rental_uris":{"android":"levelo://app?vid=28d2987a-af49-47c1-af2d-8871171acd7d","ios":"levelo://app?vid=28d2987a-af49-47c1-af2d-8871171acd7d"},"vehicle_type_id":"4","last_reported":1753539002,"current_range_meters":9600,"station_id":"ce4bhoh2rcd13ifvqh6g","pricing_plan_id":"cebpf4jnsgd1na2vs0mg"},{"bike_id":"54a79cc7-f8ce-43b4-8615-041e9d587998","system_id":"levelo_inurba_marseille","lat":43.21763,"lon":5.34598,"is_reserved":false,"is_disabled":false,"rental_uris":{"android":"levelo://app?vid=54a79cc7-f8ce-43b4-8615-041e9d587998","ios":"levelo://app?vid=54a79cc7-f8ce-43b4-8615-041e9d587998"},"vehicle_type_id":"4","last_reported":1753539002,"current_range_meters":10000,"station_id":"st_cvj6r9ubvosntc0bgbag","pricing_plan_id":"cebpf4jnsgd1na2vs0mg"},{"bike_id":"56a627d9-6c19-4aa8-baa5-00077236877a","system_id":"levelo_inurba_marseille","lat":43.28424,"lon":5.38478,"is_reserved":false,"is_disabled":false,"rental_uris":{"android":"levelo://app?vid=56a627d9-6c19-4aa8-baa5-00077236877a","ios":"levelo://app?vid=56a627d9-6c19-4aa8-baa5-00077236877a"},"vehicle_type_id":"4","last_reported":1753539002,"current_range_meters":11200,"station_id":"","pricing_plan_id":"cebpf4jnsgd1na2vs0mg"},{"bike_id":"d79b409f-ca1b-43df-9348-1c6665f1fc25","system_id":"levelo_inurba_marseille","lat":43.22503,"lon":5.3477,"is_reserved":false,"is_disabled":false,"rental_uris":{"android":"levelo://app?vid=d79b409f-ca1b-43df-9348-1c6665f1fc25","ios":"levelo://app?vid=d79b409f-ca1b-43df-9348-1c6665f1fc25"},"vehicle_type_id":"4","last_reported":1753539002,"current_range_meters":10000,"station_id":"st_cvj5dfep6f1abm77gieg","pricing_plan_id":"cebpf4jnsgd1na2vs0mg"},{"bike_id":"43cf4049-15dd-4e8c-88a8-61cd8dc10bf5","system_id":"levelo_inurba_marseille","lat":43.33266,"lon":5.38004,"is_reserved":false,"is_disabled":false,"rental_uris":{"android":"levelo://app?vid=43cf4049-15dd-4e8c-88a8-61cd8dc10bf5","ios":"levelo://app?vid=43cf4049-15dd-4e8c-88a8-61cd8dc10bf5"},"vehicle_type_id":"4","last_reported":1753539002,"current_range_meters":10000,"station_id":"","pricing_plan_id":"cebpf4jnsgd1na2vs0mg"},{"bike_id":"a3fe9995-2e3e-423b-9540-429a92fa997e","system_id":"levelo_inurba_marseille","lat":43.302,"lon":5.37171,"is_reserved":false,"is_disabled":false,"rental_uris":{"android":"levelo://app?vid=a3fe9995-2e3e-423b-9540-429a92fa997e","ios":"levelo://app?vid=a3fe9995-2e3e-423b-9540-429a92fa997e"},"vehicle_type_id":"4","last_reported":1753539002,"current_range_meters":10000,"station_id":"","pricing_plan_id":"cebpf4jnsgd1na2vs0mg"},{"bike_id":"310b2400-dd2e-4320-8ec4-6b74e028c0c7","system_id":"levelo_inurba_marseille","lat":43.225043,"lon":5.347773,"is_reserved":false,"is_disabled":false,"rental_uris":{"android":"levelo://app?vid=310b2400-dd2e-4320-8ec4-6b74e028c0c7","ios":"levelo://app?vid=310b2400-dd2e-4320-8ec4-6b74e028c0c7"},"vehicle_type_id":"4","last_reported":1753539002,"current_range_meters":10000,"station_id":"","pricing_plan_id":"cebpf4jnsgd1na2vs0mg"},{"bike_id":"9e45d4a7-845f-49ff-add4-deb743109a56","system_id":"levelo_inurba_marseille","lat":43.21759,"lon":5.34597,"is_reserved":false,"is_disabled":false,"rental_uris":{"android":"levelo://app?vid=9e45d4a7-845f-49ff-add4-deb743109a56","ios":"levelo://app?vid=9e45d4a7-845f-49ff-add4-deb743109a56"},"vehicle_type_id":"4","last_reported":1753539002,"current_range_meters":10800,"station_id":"st_cvj6r9ubvosntc0bgbag","pricing_plan_id":"cebpf4jnsgd1na2vs0mg"},{"bike_id":"278456e5-9cbd-46db-a60e-4ebd222e53fb","system_id":"levelo_inurba_marseille","lat":43.21747,"lon":5.34613,"is_reserved":false,"is_disabled":false,"rental_uris":{"android":"levelo://app?vid=278456e5-9cbd-46db-a60e-4ebd222e53fb","ios":"levelo://app?vid=278456e5-9cbd-46db-a60e-4ebd222e53fb"},"vehicle_type_id":"4","last_reported":1753539002,"current_range_meters":10800,"station_id":"st_cvj6r9ubvosntc0bgbag","pricing_plan_id":"cebpf4jnsgd1na2vs0mg"},{"bike_id":"139692b9-5e4b-4e9c-9d03-3dbb7fb1aaa5","system_id":"levelo_inurba_marseille","lat":43.29686,"lon":5.37304,"is_reserved":false,"is_disabled":false,"rental_uris":{"android":"levelo://app?vid=139692b9-5e4b-4e9c-9d03-3dbb7fb1aaa5","ios":"levelo://app?vid=139692b9-5e4b-4e9c-9d03-3dbb7fb1aaa5"},"vehicle_type_id":"4","last_reported":1753539002,"current_range_meters":10800,"station_id":"ce4bgk12rcd13ifvqbj0","pricing_plan_id":"cebpf4jnsgd1na2vs0mg"},{"bike_id":"22dca147-1260-44d8-822d-d9d1d50cce31","system_id":"levelo_inurba_marseille","lat":43.27472,"lon":5.39596,"is_reserved":false,"is_disabled":false,"rental_uris":{"android":"levelo://app?vid=22dca147-1260-44d8-822d-d9d1d50cce31","ios":"levelo://app?vid=22dca147-1260-44d8-822d-d9d1d50cce31"},"vehicle_type_id":"4","last_reported":1753539002,"current_range_meters":10800,"station_id":"","pricing_plan_id":"cebpf4jnsgd1na2vs0mg"},{"bike_id":"87aa89a0-e24b-4f2c-a648-9acea0a9d4f6","system_id":"levelo_inurba_marseille","lat":43.229354,"lon":5.353743,"is_reserved":false,"is_disabled":false,"rental_uris":{"android":"levelo://app?vid=87aa89a0-e24b-4f2c-a648-9acea0a9d4f6","ios":"levelo://app?vid=87aa89a0-e24b-4f2c-a648-9acea0a9d4f6"},"vehicle_type_id":"4","last_reported":1753539002,"current_range_meters":10800,"station_id":"cpo3532slgdg3j2ikp40","pricing_plan_id":"cebpf4jnsgd1na2vs0mg"},{"bike_id":"75a52d90-a84e-49e8-9197-7fd3f8d0259a","system_id":"levelo_inurba_marseille","lat":43.26188,"lon":5.37491,"is_reserved":false,"is_disabled":true,"rental_uris":{"android":"levelo://app?vid=75a52d90-a84e-49e8-9197-7fd3f8d0259a","ios":"levelo://app?vid=75a52d90-a84e-49e8-9197-7fd3f8d0259a"},"vehicle_type_id":"4","last_reported":1753539002,"current_range_meters":10800,"station_id":"ce4bhgp2rcd13ifvqfc0","pricing_plan_id":"cebpf4jnsgd1na2vs0mg"},{"bike_id":"7f3f69ba-79ce-4c79-91ca-b8b9716f757e","system_id":"levelo_inurba_marseille","lat":43.23191,"lon":5.35543,"is_reserved":false,"is_disabled":false,"rental_uris":{"android":"levelo://app?vid=7f3f69ba-79ce-4c79-91ca-b8b9716f757e","ios":"levelo://app?vid=7f3f69ba-79ce-4c79-91ca-b8b9716f757e"},"vehicle_type_id":"4","last_reported":1753539002,"current_range_meters":11600,"station_id":"ce4bhu92rcd13ifvqi70","pricing_plan_id":"cebpf4jnsgd1na2vs0mg"},{"bike_id":"a20b99e9-eff6-40a7-ba00-e1d41480ef55","system_id":"levelo_inurba_marseille","lat":43.30142,"lon":5.38768,"is_reserved":false,"is_disabled":false,"rental_uris":{"android":"levelo://app?vid=a20b99e9-eff6-40a7-ba00-e1d41480ef55","ios":"levelo://app?vid=a20b99e9-eff6-40a7-ba00-e1d41480ef55"},"vehicle_type_id":"4","last_reported":1753539002,"current_range_meters":11600,"station_id":"ce4bghh2rcd13ifvqb60","pricing_plan_id":"cebpf4jnsgd1na2vs0mg"},{"bike_id":"db61ba0e-24f6-4f04-b88b-421436373763","system_id":"levelo_inurba_marseille","lat":43.27489,"lon":5.42463,"is_reserved":false,"is_disabled":false,"rental_uris":{"android":"levelo://app?vid=db61ba0e-24f6-4f04-b88b-421436373763","ios":"levelo://app?vid=db61ba0e-24f6-4f04-b88b-421436373763"},"vehicle_type_id":"4","last_reported":1753539002,"current_range_meters":11600,"station_id":"ce4bhn92rcd13ifvqgrg","pricing_plan_id":"cebpf4jnsgd1na2vs0mg"},{"bike_id":"a5828249-ed69-40fb-98c2-2c7f27d1b82b","system_id":"levelo_inurba_marseille","lat":43.29577,"lon":5.39977,"is_reserved":false,"is_disabled":false,"rental_uris":{"android":"levelo://app?vid=a5828249-ed69-40fb-98c2-2c7f27d1b82b","ios":"levelo://app?vid=a5828249-ed69-40fb-98c2-2c7f27d1b82b"},"vehicle_type_id":"4","last_reported":1753539002,"current_range_meters":11600,"station_id":"ce4bh312rcd13ifvqdj0","pricing_plan_id":"cebpf4jnsgd1na2vs0mg"},{"bike_id":"bedd45d0-8cf2-4fb8-bc44-afb5025811df","system_id":"levelo_inurba_marseille","lat":43.262086,"lon":5.374416,"is_reserved":false,"is_disabled":false,"rental_uris":{"android":"levelo://app?vid=bedd45d0-8cf2-4fb8-bc44-afb5025811df","ios":"levelo://app?vid=bedd45d0-8cf2-4fb8-bc44-afb5025811df"},"vehicle_type_id":"4","last_reported":1753539002,"current_range_meters":11200,"station_id":"ce4bhgp2rcd13ifvqfc0","pricing_plan_id":"cebpf4jnsgd1na2vs0mg"},{"bike_id":"ec74f06a-40dc-4c39-a0cb-57d6f568a4e5","system_id":"levelo_inurba_marseille","lat":43.22928,"lon":5.35387,"is_reserved":false,"is_disabled":false,"rental_uris":{"android":"levelo://app?vid=ec74f06a-40dc-4c39-a0cb-57d6f568a4e5","ios":"levelo://app?vid=ec74f06a-40dc-4c39-a0cb-57d6f568a4e5"},"vehicle_type_id":"4","last_reported":1753539002,"current_range_meters":11600,"station_id":"cpo3532slgdg3j2ikp40","pricing_plan_id":"cebpf4jnsgd1na2vs0mg"},{"bike_id":"4bf3130e-fa2e-4204-821a-903bdea92ef3","system_id":"levelo_inurba_marseille","lat":43.28413,"lon":5.34992,"is_reserved":false,"is_disabled":false,"rental_uris":{"android":"levelo://app?vid=4bf3130e-fa2e-4204-821a-903bdea92ef3","ios":"levelo://app?vid=4bf3130e-fa2e-4204-821a-903bdea92ef3"},"vehicle_type_id":"4","last_reported":1753539002,"current_range_meters":11600,"station_id":"ce4bhbh2rcd13ifvqepg","pricing_plan_id":"cebpf4jnsgd1na2vs0mg"},{"bike_id":"6ab0b13c-2ff1-417a-acfd-489d6800d4c9","system_id":"levelo_inurba_marseille","lat":43.27373,"lon":5.36237,"is_reserved":false,"is_disabled":true,"rental_uris":{"android":"levelo://app?vid=6ab0b13c-2ff1-417a-acfd-489d6800d4c9","ios":"levelo://app?vid=6ab0b13c-2ff1-417a-acfd-489d6800d4c9"},"vehicle_type_id":"4","last_reported":1753539002,"current_range_meters":11600,"station_id":"ce4bhbh2rcd13ifvqeo0","pricing_plan_id":"cebpf4jnsgd1na2vs0mg"},{"bike_id":"cacd0d14-1257-4479-89c5-79dfcf55aebe","system_id":"levelo_inurba_marseille","lat":43.24395,"lon":5.37065,"is_reserved":false,"is_disabled":false,"rental_uris":{"android":"levelo://app?vid=cacd0d14-1257-4479-89c5-79dfcf55aebe","ios":"levelo://app?vid=cacd0d14-1257-4479-89c5-79dfcf55aebe"},"vehicle_type_id":"4","last_reported":1753539002,"current_range_meters":11600,"station_id":"ce4bhhh2rcd13ifvqfk0","pricing_plan_id":"cebpf4jnsgd1na2vs0mg"},{"bike_id":"50f18ac4-8d64-4b56-9a6d-59ce1ed5184d","system_id":"levelo_inurba_marseille","lat":43.29221,"lon":5.36054,"is_reserved":false,"is_disabled":false,"rental_uris":{"android":"levelo://app?vid=50f18ac4-8d64-4b56-9a6d-59ce1ed5184d","ios":"levelo://app?vid=50f18ac4-8d64-4b56-9a6d-59ce1ed5184d"},"vehicle_type_id":"4","last_reported":1753539002,"current_range_meters":12000,"station_id":"ce4bhbh2rcd13ifvqeqg","pricing_plan_id":"cebpf4jnsgd1na2vs0mg"},{"bike_id":"847b44c9-efab-4746-8937-dcebf1206fff","system_id":"levelo_inurba_marseille","lat":43.262086,"lon":5.374431,"is_reserved":false,"is_disabled":false,"rental_uris":{"android":"levelo://app?vid=847b44c9-efab-4746-8937-dcebf1206fff","ios":"levelo://app?vid=847b44c9-efab-4746-8937-dcebf1206fff"},"vehicle_type_id":"4","last_reported":1753539002,"current_range_meters":12000,"station_id":"ce4bhgp2rcd13ifvqfc0","pricing_plan_id":"cebpf4jnsgd1na2vs0mg"},{"bike_id":"de99b14c-9afd-4bdd-bc56-50354c110c3d","system_id":"levelo_inurba_marseille","lat":43.25467,"lon":5.37687,"is_reserved":false,"is_disabled":false,"rental_uris":{"android":"levelo://app?vid=de99b14c-9afd-4bdd-bc56-50354c110c3d","ios":"levelo://app?vid=de99b14c-9afd-4bdd-bc56-50354c110c3d"},"vehicle_type_id":"4","last_reported":1753539002,"current_range_meters":12000,"station_id":"","pricing_plan_id":"cebpf4jnsgd1na2vs0mg"},{"bike_id":"2551aeb9-d478-4559-97a6-036ce08c7df0","system_id":"levelo_inurba_marseille","lat":43.284209,"lon":5.349938,"is_reserved":false,"is_disabled":false,"rental_uris":{"android":"levelo://app?vid=2551aeb9-d478-4559-97a6-036ce08c7df0","ios":"levelo://app?vid=2551aeb9-d478-4559-97a6-036ce08c7df0"},"vehicle_type_id":"4","last_reported":1753539002,"current_range_meters":12000,"station_id":"ce4bhbh2rcd13ifvqepg","pricing_plan_id":"cebpf4jnsgd1na2vs0mg"},{"bike_id":"1450a95c-2425-4cc3-8e17-e953896098db","system_id":"levelo_inurba_marseille","lat":43.26057,"lon":5.39391,"is_reserved":false,"is_disabled":false,"rental_uris":{"android":"levelo://app?vid=1450a95c-2425-4cc3-8e17-e953896098db","ios":"levelo://app?vid=1450a95c-2425-4cc3-8e17-e953896098db"},"vehicle_type_id":"4","last_reported":1753539002,"current_range_meters":12000,"station_id":"ce4bhh92rcd13ifvqfj0","pricing_plan_id":"cebpf4jnsgd1na2vs0mg"},{"bike_id":"54e08407-c063-4919-a683-35991220deaf","system_id":"levelo_inurba_marseille","lat":43.26555,"lon":5.37279,"is_reserved":false,"is_disabled":false,"rental_uris":{"android":"levelo://app?vid=54e08407-c063-4919-a683-35991220deaf","ios":"levelo://app?vid=54e08407-c063-4919-a683-35991220deaf"},"vehicle_type_id":"4","last_reported":1753539002,"current_range_meters":12000,"station_id":"ce4bhg12rcd13ifvqf70","pricing_plan_id":"cebpf4jnsgd1na2vs0mg"},{"bike_id":"6070b287-ba72-4b04-8e31-29269d5dd36d","system_id":"levelo_inurba_marseille","lat":43.24088,"lon":5.37716,"is_reserved":false,"is_disabled":false,"rental_uris":{"android":"levelo://app?vid=6070b287-ba72-4b04-8e31-29269d5dd36d","ios":"levelo://app?vid=6070b287-ba72-4b04-8e31-29269d5dd36d"},"vehicle_type_id":"4","last_reported":1753539002,"current_range_meters":12000,"station_id":"ce4bhnp2rcd13ifvqgvg","pricing_plan_id":"cebpf4jnsgd1na2vs0mg"},{"bike_id":"9bf50f85-8949-4801-9ad2-89784d6514ae","system_id":"levelo_inurba_marseille","lat":43.21736,"lon":5.34606,"is_reserved":false,"is_disabled":false,"rental_uris":{"android":"levelo://app?vid=9bf50f85-8949-4801-9ad2-89784d6514ae","ios":"levelo://app?vid=9bf50f85-8949-4801-9ad2-89784d6514ae"},"vehicle_type_id":"4","last_reported":1753539002,"current_range_meters":12000,"station_id":"st_cvj6r9ubvosntc0bgbag","pricing_plan_id":"cebpf4jnsgd1na2vs0mg"},{"bike_id":"6a5be0da-2bbd-443f-9885-a9d470c4f603","system_id":"levelo_inurba_marseille","lat":43.24132,"lon":5.36429,"is_reserved":false,"is_disabled":false,"rental_uris":{"android":"levelo://app?vid=6a5be0da-2bbd-443f-9885-a9d470c4f603","ios":"levelo://app?vid=6a5be0da-2bbd-443f-9885-a9d470c4f603"},"vehicle_type_id":"4","last_reported":1753539002,"current_range_meters":12000,"station_id":"cpo36qri1sfpv3e86is0","pricing_plan_id":"cebpf4jnsgd1na2vs0mg"},{"bike_id":"04ce80ca-6b2d-4c09-9d0c-6d8f91911ee6","system_id":"levelo_inurba_marseille","lat":43.21731,"lon":5.34614,"is_reserved":false,"is_disabled":false,"rental_uris":{"android":"levelo://app?vid=04ce80ca-6b2d-4c09-9d0c-6d8f91911ee6","ios":"levelo://app?vid=04ce80ca-6b2d-4c09-9d0c-6d8f91911ee6"},"vehicle_type_id":"4","last_reported":1753539002,"current_range_meters":12000,"station_id":"st_cvj6r9ubvosntc0bgbag","pricing_plan_id":"cebpf4jnsgd1na2vs0mg"},{"bike_id":"b7375410-01ab-45f9-a65f-6e214e4ed86d","system_id":"levelo_inurba_marseille","lat":43.28402,"lon":5.35011,"is_reserved":false,"is_disabled":false,"rental_uris":{"android":"levelo://app?vid=b7375410-01ab-45f9-a65f-6e214e4ed86d","ios":"levelo://app?vid=b7375410-01ab-45f9-a65f-6e214e4ed86d"},"vehicle_type_id":"4","last_reported":1753539002,"current_range_meters":12000,"station_id":"ce4bhbh2rcd13ifvqepg","pricing_plan_id":"cebpf4jnsgd1na2vs0mg"},{"bike_id":"57755280-973c-4ff3-9c25-8f15e2c5b510","system_id":"levelo_inurba_marseille","lat":43.31872,"lon":5.37373,"is_reserved":false,"is_disabled":false,"rental_uris":{"android":"levelo://app?vid=57755280-973c-4ff3-9c25-8f15e2c5b510","ios":"levelo://app?vid=57755280-973c-4ff3-9c25-8f15e2c5b510"},"vehicle_type_id":"4","last_reported":1753539002,"current_range_meters":12000,"station_id":"","pricing_plan_id":"cebpf4jnsgd1na2vs0mg"},{"bike_id":"c2d94365-8b35-4017-bbee-54ed32cf6a0a","system_id":"levelo_inurba_marseille","lat":43.21199,"lon":5.35073,"is_reserved":false,"is_disabled":false,"rental_uris":{"android":"levelo://app?vid=c2d94365-8b35-4017-bbee-54ed32cf6a0a","ios":"levelo://app?vid=c2d94365-8b35-4017-bbee-54ed32cf6a0a"},"vehicle_type_id":"4","last_reported":1753539002,"current_range_meters":12400,"station_id":"st_cvj6sg6p6f1abm77japg","pricing_plan_id":"cebpf4jnsgd1na2vs0mg"},{"bike_id":"f2c0d178-a474-46a0-b002-379a7a30c411","system_id":"levelo_inurba_marseille","lat":43.29407,"lon":5.37651,"is_reserved":false,"is_disabled":false,"rental_uris":{"android":"levelo://app?vid=f2c0d178-a474-46a0-b002-379a7a30c411","ios":"levelo://app?vid=f2c0d178-a474-46a0-b002-379a7a30c411"},"vehicle_type_id":"4","last_reported":1753539002,"current_range_meters":12400,"station_id":"","pricing_plan_id":"cebpf4jnsgd1na2vs0mg"},{"bike_id":"d117afdd-5d2a-44d2-a783-65d28f5e3c86","system_id":"levelo_inurba_marseille","lat":43.28411,"lon":5.34969,"is_reserved":false,"is_disabled":false,"rental_uris":{"android":"levelo://app?vid=d117afdd-5d2a-44d2-a783-65d28f5e3c86","ios":"levelo://app?vid=d117afdd-5d2a-44d2-a783-65d28f5e3c86"},"vehicle_type_id":"4","last_reported":1753539002,"current_range_meters":12400,"station_id":"ce4bhbh2rcd13ifvqepg","pricing_plan_id":"cebpf4jnsgd1na2vs0mg"},{"bike_id":"09b7f600-cb1e-4ea0-adc2-9c3dcb778794","system_id":"levelo_inurba_marseille","lat":43.225025,"lon":5.347913,"is_reserved":false,"is_disabled":false,"rental_uris":{"android":"levelo://app?vid=09b7f600-cb1e-4ea0-adc2-9c3dcb778794","ios":"levelo://app?vid=09b7f600-cb1e-4ea0-adc2-9c3dcb778794"},"vehicle_type_id":"4","last_reported":1753539002,"current_range_meters":12800,"station_id":"st_cvj5dfep6f1abm77gieg","pricing_plan_id":"cebpf4jnsgd1na2vs0mg"},{"bike_id":"7f7a4770-cb44-4cbe-afee-f7531a238fa9","system_id":"levelo_inurba_marseille","lat":43.225024,"lon":5.347911,"is_reserved":false,"is_disabled":false,"rental_uris":{"android":"levelo://app?vid=7f7a4770-cb44-4cbe-afee-f7531a238fa9","ios":"levelo://app?vid=7f7a4770-cb44-4cbe-afee-f7531a238fa9"},"vehicle_type_id":"4","last_reported":1753539002,"current_range_meters":12400,"station_id":"st_cvj5dfep6f1abm77gieg","pricing_plan_id":"cebpf4jnsgd1na2vs0mg"},{"bike_id":"9bff4c30-7d52-4173-88ba-afd3702b54f6","system_id":"levelo_inurba_marseille","lat":43.27979,"lon":5.41663,"is_reserved":false,"is_disabled":false,"rental_uris":{"android":"levelo://app?vid=9bff4c30-7d52-4173-88ba-afd3702b54f6","ios":"levelo://app?vid=9bff4c30-7d52-4173-88ba-afd3702b54f6"},"vehicle_type_id":"4","last_reported":1753539002,"current_range_meters":12400,"station_id":"ce4bho12rcd13ifvqh1g","pricing_plan_id":"cebpf4jnsgd1na2vs0mg"},{"bike_id":"38ab9f3b-fe76-4f47-bf05-e3ca256156a4","system_id":"levelo_inurba_marseille","lat":43.28423,"lon":5.34993,"is_reserved":false,"is_disabled":false,"rental_uris":{"android":"levelo://app?vid=38ab9f3b-fe76-4f47-bf05-e3ca256156a4","ios":"levelo://app?vid=38ab9f3b-fe76-4f47-bf05-e3ca256156a4"},"vehicle_type_id":"4","last_reported":1753539002,"current_range_meters":12400,"station_id":"ce4bhbh2rcd13ifvqepg","pricing_plan_id":"cebpf4jnsgd1na2vs0mg"},{"bike_id":"aaee9890-e9eb-490f-a78b-cca31e7b009b","system_id":"levelo_inurba_marseille","lat":43.28275,"lon":5.35072,"is_reserved":false,"is_disabled":false,"rental_uris":{"android":"levelo://app?vid=aaee9890-e9eb-490f-a78b-cca31e7b009b","ios":"levelo://app?vid=aaee9890-e9eb-490f-a78b-cca31e7b009b"},"vehicle_type_id":"4","last_reported":1753539002,"current_range_meters":12400,"station_id":"ce4bhbp2rcd13ifvqerg","pricing_plan_id":"cebpf4jnsgd1na2vs0mg"},{"bike_id":"f00d6cc9-417e-4154-8ced-573e333e5128","system_id":"levelo_inurba_marseille","lat":43.2307,"lon":5.35489,"is_reserved":false,"is_disabled":false,"rental_uris":{"android":"levelo://app?vid=f00d6cc9-417e-4154-8ced-573e333e5128","ios":"levelo://app?vid=f00d6cc9-417e-4154-8ced-573e333e5128"},"vehicle_type_id":"4","last_reported":1753539002,"current_range_meters":12400,"station_id":"cpo3342slgdg3j2ifvpg","pricing_plan_id":"cebpf4jnsgd1na2vs0mg"},{"bike_id":"52ab5c39-672c-46f9-9a93-deba3d438e8e","system_id":"levelo_inurba_marseille","lat":43.28397,"lon":5.35013,"is_reserved":false,"is_disabled":false,"rental_uris":{"android":"levelo://app?vid=52ab5c39-672c-46f9-9a93-deba3d438e8e","ios":"levelo://app?vid=52ab5c39-672c-46f9-9a93-deba3d438e8e"},"vehicle_type_id":"4","last_reported":1753539002,"current_range_meters":12400,"station_id":"ce4bhbh2rcd13ifvqepg","pricing_plan_id":"cebpf4jnsgd1na2vs0mg"},{"bike_id":"c66c8bd6-aa27-4959-9437-34522b8c498b","system_id":"levelo_inurba_marseille","lat":43.28673,"lon":5.36359,"is_reserved":false,"is_disabled":false,"rental_uris":{"android":"levelo://app?vid=c66c8bd6-aa27-4959-9437-34522b8c498b","ios":"levelo://app?vid=c66c8bd6-aa27-4959-9437-34522b8c498b"},"vehicle_type_id":"4","last_reported":1753539002,"current_range_meters":12400,"station_id":"ce4bhah2rcd13ifvqej0","pricing_plan_id":"cebpf4jnsgd1na2vs0mg"},{"bike_id":"7937f471-dcc0-4727-896c-b6f4f4a0c96e","system_id":"levelo_inurba_marseille","lat":43.27569,"lon":5.38431,"is_reserved":false,"is_disabled":false,"rental_uris":{"android":"levelo://app?vid=7937f471-dcc0-4727-896c-b6f4f4a0c96e","ios":"levelo://app?vid=7937f471-dcc0-4727-896c-b6f4f4a0c96e"},"vehicle_type_id":"4","last_reported":1753539002,"current_range_meters":12400,"station_id":"ce4bhh92rcd13ifvqfi0","pricing_plan_id":"cebpf4jnsgd1na2vs0mg"},{"bike_id":"b5aab1b5-818a-4dfd-b7ae-70df5639e329","system_id":"levelo_inurba_marseille","lat":43.27059,"lon":5.42286,"is_reserved":false,"is_disabled":false,"rental_uris":{"android":"levelo://app?vid=b5aab1b5-818a-4dfd-b7ae-70df5639e329","ios":"levelo://app?vid=b5aab1b5-818a-4dfd-b7ae-70df5639e329"},"vehicle_type_id":"4","last_reported":1753539002,"current_range_meters":12800,"station_id":"ce4bhk92rcd13ifvqgb0","pricing_plan_id":"cebpf4jnsgd1na2vs0mg"},{"bike_id":"1855cbe1-5a05-480e-9057-6e9b3976dbbe","system_id":"levelo_inurba_marseille","lat":43.33743,"lon":5.3918,"is_reserved":false,"is_disabled":false,"rental_uris":{"android":"levelo://app?vid=1855cbe1-5a05-480e-9057-6e9b3976dbbe","ios":"levelo://app?vid=1855cbe1-5a05-480e-9057-6e9b3976dbbe"},"vehicle_type_id":"4","last_reported":1753539002,"current_range_meters":12800,"station_id":"ce4bhr92rcd13ifvqhsg","pricing_plan_id":"cebpf4jnsgd1na2vs0mg"},{"bike_id":"f812d335-5f13-4955-b1a9-1690a0225f31","system_id":"levelo_inurba_marseille","lat":43.22504,"lon":5.34782,"is_reserved":false,"is_disabled":false,"rental_uris":{"android":"levelo://app?vid=f812d335-5f13-4955-b1a9-1690a0225f31","ios":"levelo://app?vid=f812d335-5f13-4955-b1a9-1690a0225f31"},"vehicle_type_id":"4","last_reported":1753539002,"current_range_meters":12800,"station_id":"st_cvj5dfep6f1abm77gieg","pricing_plan_id":"cebpf4jnsgd1na2vs0mg"},{"bike_id":"678f77ff-2d1a-44ef-a460-09f9db3c082a","system_id":"levelo_inurba_marseille","lat":43.28392,"lon":5.37537,"is_reserved":false,"is_disabled":false,"rental_uris":{"android":"levelo://app?vid=678f77ff-2d1a-44ef-a460-09f9db3c082a","ios":"levelo://app?vid=678f77ff-2d1a-44ef-a460-09f9db3c082a"},"vehicle_type_id":"4","last_reported":1753539002,"current_range_meters":12800,"station_id":"ce4bh412rcd13ifvqds0","pricing_plan_id":"cebpf4jnsgd1na2vs0mg"},{"bike_id":"2265daf6-3d03-455b-aafb-b1ecc53971a0","system_id":"levelo_inurba_marseille","lat":43.32337,"lon":5.40615,"is_reserved":false,"is_disabled":false,"rental_uris":{"android":"levelo://app?vid=2265daf6-3d03-455b-aafb-b1ecc53971a0","ios":"levelo://app?vid=2265daf6-3d03-455b-aafb-b1ecc53971a0"},"vehicle_type_id":"4","last_reported":1753539002,"current_range_meters":13600,"station_id":"ce4bhq92rcd13ifvqhjg","pricing_plan_id":"cebpf4jnsgd1na2vs0mg"},{"bike_id":"09447d92-0522-480e-b6b5-24959949ccf9","system_id":"levelo_inurba_marseille","lat":43.32408,"lon":5.36814,"is_reserved":false,"is_disabled":false,"rental_uris":{"android":"levelo://app?vid=09447d92-0522-480e-b6b5-24959949ccf9","ios":"levelo://app?vid=09447d92-0522-480e-b6b5-24959949ccf9"},"vehicle_type_id":"4","last_reported":1753539002,"current_range_meters":13600,"station_id":"","pricing_plan_id":"cebpf4jnsgd1na2vs0mg"},{"bike_id":"766301c8-b8c9-4bae-857c-71597b317848","system_id":"levelo_inurba_marseille","lat":43.260181,"lon":5.375502,"is_reserved":false,"is_disabled":false,"rental_uris":{"android":"levelo://app?vid=766301c8-b8c9-4bae-857c-71597b317848","ios":"levelo://app?vid=766301c8-b8c9-4bae-857c-71597b317848"},"vehicle_type_id":"4","last_reported":1753539002,"current_range_meters":13600,"station_id":"ce4bhgh2rcd13ifvqfa0","pricing_plan_id":"cebpf4jnsgd1na2vs0mg"},{"bike_id":"9d449864-25e6-43e9-9180-fe84d0eacf29","system_id":"levelo_inurba_marseille","lat":43.26232,"lon":5.40449,"is_reserved":false,"is_disabled":false,"rental_uris":{"android":"levelo://app?vid=9d449864-25e6-43e9-9180-fe84d0eacf29","ios":"levelo://app?vid=9d449864-25e6-43e9-9180-fe84d0eacf29"},"vehicle_type_id":"4","last_reported":1753539002,"current_range_meters":13600,"station_id":"ce4bhmh2rcd13ifvqgmg","pricing_plan_id":"cebpf4jnsgd1na2vs0mg"},{"bike_id":"2ade6873-7b07-44c8-8ff1-b13bb680187f","system_id":"levelo_inurba_marseille","lat":43.217417,"lon":5.345968,"is_reserved":false,"is_disabled":false,"rental_uris":{"android":"levelo://app?vid=2ade6873-7b07-44c8-8ff1-b13bb680187f","ios":"levelo://app?vid=2ade6873-7b07-44c8-8ff1-b13bb680187f"},"vehicle_type_id":"4","last_reported":1753539002,"current_range_meters":13600,"station_id":"st_cvj6r9ubvosntc0bgbag","pricing_plan_id":"cebpf4jnsgd1na2vs0mg"},{"bike_id":"215ebc05-59fa-475d-8e68-6994315399ff","system_id":"levelo_inurba_marseille","lat":43.29786,"lon":5.39321,"is_reserved":false,"is_disabled":false,"rental_uris":{"android":"levelo://app?vid=215ebc05-59fa-475d-8e68-6994315399ff","ios":"levelo://app?vid=215ebc05-59fa-475d-8e68-6994315399ff"},"vehicle_type_id":"4","last_reported":1753539002,"current_range_meters":13600,"station_id":"chh1huq6cuj3fo74tm60","pricing_plan_id":"cebpf4jnsgd1na2vs0mg"},{"bike_id":"1b38e58d-b2c1-48ba-932b-6d56678617cf","system_id":"levelo_inurba_marseille","lat":43.29936,"lon":5.36544,"is_reserved":false,"is_disabled":false,"rental_uris":{"android":"levelo://app?vid=1b38e58d-b2c1-48ba-932b-6d56678617cf","ios":"levelo://app?vid=1b38e58d-b2c1-48ba-932b-6d56678617cf"},"vehicle_type_id":"4","last_reported":1753539002,"current_range_meters":13600,"station_id":"ce4bgm92rcd13ifvqbr0","pricing_plan_id":"cebpf4jnsgd1na2vs0mg"},{"bike_id":"6cf5949a-ff56-45eb-9015-ba846a16387f","system_id":"levelo_inurba_marseille","lat":43.28274,"lon":5.35054,"is_reserved":false,"is_disabled":false,"rental_uris":{"android":"levelo://app?vid=6cf5949a-ff56-45eb-9015-ba846a16387f","ios":"levelo://app?vid=6cf5949a-ff56-45eb-9015-ba846a16387f"},"vehicle_type_id":"4","last_reported":1753539002,"current_range_meters":14000,"station_id":"ce4bhbp2rcd13ifvqerg","pricing_plan_id":"cebpf4jnsgd1na2vs0mg"},{"bike_id":"64596508-67f4-4f27-9fcd-7050394cc493","system_id":"levelo_inurba_marseille","lat":43.21744,"lon":5.34604,"is_reserved":false,"is_disabled":false,"rental_uris":{"android":"levelo://app?vid=64596508-67f4-4f27-9fcd-7050394cc493","ios":"levelo://app?vid=64596508-67f4-4f27-9fcd-7050394cc493"},"vehicle_type_id":"4","last_reported":1753539002,"current_range_meters":14000,"station_id":"","pricing_plan_id":"cebpf4jnsgd1na2vs0mg"},{"bike_id":"bcecfa91-8dbc-47f6-9414-641338845034","system_id":"levelo_inurba_marseille","lat":43.27384,"lon":5.36257,"is_reserved":false,"is_disabled":false,"rental_uris":{"android":"levelo://app?vid=bcecfa91-8dbc-47f6-9414-641338845034","ios":"levelo://app?vid=bcecfa91-8dbc-47f6-9414-641338845034"},"vehicle_type_id":"4","last_reported":1753539002,"current_range_meters":14000,"station_id":"ce4bhbh2rcd13ifvqeo0","pricing_plan_id":"cebpf4jnsgd1na2vs0mg"},{"bike_id":"46d980cb-fc0a-46b1-9313-fb55ce198a89","system_id":"levelo_inurba_marseille","lat":43.28407,"lon":5.34981,"is_reserved":false,"is_disabled":false,"rental_uris":{"android":"levelo://app?vid=46d980cb-fc0a-46b1-9313-fb55ce198a89","ios":"levelo://app?vid=46d980cb-fc0a-46b1-9313-fb55ce198a89"},"vehicle_type_id":"4","last_reported":1753539002,"current_range_meters":14000,"station_id":"ce4bhbh2rcd13ifvqepg","pricing_plan_id":"cebpf4jnsgd1na2vs0mg"},{"bike_id":"e8630139-963f-48a0-a347-45ae08b4dc9a","system_id":"levelo_inurba_marseille","lat":43.28287,"lon":5.3508,"is_reserved":false,"is_disabled":false,"rental_uris":{"android":"levelo://app?vid=e8630139-963f-48a0-a347-45ae08b4dc9a","ios":"levelo://app?vid=e8630139-963f-48a0-a347-45ae08b4dc9a"},"vehicle_type_id":"4","last_reported":1753539002,"current_range_meters":14000,"station_id":"ce4bhbp2rcd13ifvqerg","pricing_plan_id":"cebpf4jnsgd1na2vs0mg"},{"bike_id":"328c7dc3-0b6d-49b6-84dd-def78f21d364","system_id":"levelo_inurba_marseille","lat":43.21732,"lon":5.34618,"is_reserved":false,"is_disabled":false,"rental_uris":{"android":"levelo://app?vid=328c7dc3-0b6d-49b6-84dd-def78f21d364","ios":"levelo://app?vid=328c7dc3-0b6d-49b6-84dd-def78f21d364"},"vehicle_type_id":"4","last_reported":1753539002,"current_range_meters":14000,"station_id":"st_cvj6r9ubvosntc0bgbag","pricing_plan_id":"cebpf4jnsgd1na2vs0mg"},{"bike_id":"d00b6abc-174d-48a1-8e37-47955a519e3f","system_id":"levelo_inurba_marseille","lat":43.22931,"lon":5.35375,"is_reserved":false,"is_disabled":false,"rental_uris":{"android":"levelo://app?vid=d00b6abc-174d-48a1-8e37-47955a519e3f","ios":"levelo://app?vid=d00b6abc-174d-48a1-8e37-47955a519e3f"},"vehicle_type_id":"4","last_reported":1753539002,"current_range_meters":14400,"station_id":"cpo3532slgdg3j2ikp40","pricing_plan_id":"cebpf4jnsgd1na2vs0mg"},{"bike_id":"c3c2652b-f2d7-4ed4-89ec-9559feb01451","system_id":"levelo_inurba_marseille","lat":43.29226,"lon":5.360481,"is_reserved":false,"is_disabled":true,"rental_uris":{"android":"levelo://app?vid=c3c2652b-f2d7-4ed4-89ec-9559feb01451","ios":"levelo://app?vid=c3c2652b-f2d7-4ed4-89ec-9559feb01451"},"vehicle_type_id":"4","last_reported":1753539002,"current_range_meters":14400,"station_id":"ce4bhbh2rcd13ifvqeqg","pricing_plan_id":"cebpf4jnsgd1na2vs0mg"},{"bike_id":"ce9bc326-53f7-413d-a2f9-a2b1ec0eb612","system_id":"levelo_inurba_marseille","lat":43.30773,"lon":5.37643,"is_reserved":false,"is_disabled":false,"rental_uris":{"android":"levelo://app?vid=ce9bc326-53f7-413d-a2f9-a2b1ec0eb612","ios":"levelo://app?vid=ce9bc326-53f7-413d-a2f9-a2b1ec0eb612"},"vehicle_type_id":"4","last_reported":1753539002,"current_range_meters":14400,"station_id":"ce4bgv92rcd13ifvqcq0","pricing_plan_id":"cebpf4jnsgd1na2vs0mg"},{"bike_id":"49daa267-7cb0-486e-810c-6180b2a146cb","system_id":"levelo_inurba_marseille","lat":43.22342,"lon":5.34631,"is_reserved":false,"is_disabled":false,"rental_uris":{"android":"levelo://app?vid=49daa267-7cb0-486e-810c-6180b2a146cb","ios":"levelo://app?vid=49daa267-7cb0-486e-810c-6180b2a146cb"},"vehicle_type_id":"4","last_reported":1753539002,"current_range_meters":14400,"station_id":"","pricing_plan_id":"cebpf4jnsgd1na2vs0mg"},{"bike_id":"9fe56bce-06a5-4998-bcea-528fb3db8ccc","system_id":"levelo_inurba_marseille","lat":43.27378,"lon":5.36256,"is_reserved":false,"is_disabled":false,"rental_uris":{"android":"levelo://app?vid=9fe56bce-06a5-4998-bcea-528fb3db8ccc","ios":"levelo://app?vid=9fe56bce-06a5-4998-bcea-528fb3db8ccc"},"vehicle_type_id":"4","last_reported":1753539002,"current_range_meters":14800,"station_id":"ce4bhbh2rcd13ifvqeo0","pricing_plan_id":"cebpf4jnsgd1na2vs0mg"},{"bike_id":"c6915c61-c527-41d7-94a1-fe033235465a","system_id":"levelo_inurba_marseille","lat":43.27995,"lon":5.40016,"is_reserved":false,"is_disabled":false,"rental_uris":{"android":"levelo://app?vid=c6915c61-c527-41d7-94a1-fe033235465a","ios":"levelo://app?vid=c6915c61-c527-41d7-94a1-fe033235465a"},"vehicle_type_id":"4","last_reported":1753539002,"current_range_meters":14800,"station_id":"ce4bho92rcd13ifvqh4g","pricing_plan_id":"cebpf4jnsgd1na2vs0mg"},{"bike_id":"7d222e0c-2249-4ecc-a29a-2718146ba132","system_id":"levelo_inurba_marseille","lat":43.27372,"lon":5.36253,"is_reserved":false,"is_disabled":false,"rental_uris":{"android":"levelo://app?vid=7d222e0c-2249-4ecc-a29a-2718146ba132","ios":"levelo://app?vid=7d222e0c-2249-4ecc-a29a-2718146ba132"},"vehicle_type_id":"4","last_reported":1753539002,"current_range_meters":14800,"station_id":"ce4bhbh2rcd13ifvqeo0","pricing_plan_id":"cebpf4jnsgd1na2vs0mg"},{"bike_id":"e8dde99c-6ecf-4e63-9ffc-47ebe879a97f","system_id":"levelo_inurba_marseille","lat":43.290311,"lon":5.399895,"is_reserved":false,"is_disabled":false,"rental_uris":{"android":"levelo://app?vid=e8dde99c-6ecf-4e63-9ffc-47ebe879a97f","ios":"levelo://app?vid=e8dde99c-6ecf-4e63-9ffc-47ebe879a97f"},"vehicle_type_id":"4","last_reported":1753539002,"current_range_meters":14800,"station_id":"ce4bh392rcd13ifvqdm0","pricing_plan_id":"cebpf4jnsgd1na2vs0mg"},{"bike_id":"7254aad9-4b7a-44b4-89bb-4f6b7cb10520","system_id":"levelo_inurba_marseille","lat":43.26071,"lon":5.39393,"is_reserved":false,"is_disabled":false,"rental_uris":{"android":"levelo://app?vid=7254aad9-4b7a-44b4-89bb-4f6b7cb10520","ios":"levelo://app?vid=7254aad9-4b7a-44b4-89bb-4f6b7cb10520"},"vehicle_type_id":"4","last_reported":1753539002,"current_range_meters":14800,"station_id":"ce4bhh92rcd13ifvqfj0","pricing_plan_id":"cebpf4jnsgd1na2vs0mg"},{"bike_id":"a0bbc8d0-d696-4180-ae75-c199df674067","system_id":"levelo_inurba_marseille","lat":43.255822,"lon":5.382338,"is_reserved":false,"is_disabled":false,"rental_uris":{"android":"levelo://app?vid=a0bbc8d0-d696-4180-ae75-c199df674067","ios":"levelo://app?vid=a0bbc8d0-d696-4180-ae75-c199df674067"},"vehicle_type_id":"4","last_reported":1753539002,"current_range_meters":16000,"station_id":"ce4bhih2rcd13ifvqfs0","pricing_plan_id":"cebpf4jnsgd1na2vs0mg"},{"bike_id":"febfb0dd-62aa-4333-8aa6-5a2dfd2c5e17","system_id":"levelo_inurba_marseille","lat":43.33156,"lon":5.35975,"is_reserved":false,"is_disabled":false,"rental_uris":{"android":"levelo://app?vid=febfb0dd-62aa-4333-8aa6-5a2dfd2c5e17","ios":"levelo://app?vid=febfb0dd-62aa-4333-8aa6-5a2dfd2c5e17"},"vehicle_type_id":"4","last_reported":1753539002,"current_range_meters":15200,"station_id":"","pricing_plan_id":"cebpf4jnsgd1na2vs0mg"},{"bike_id":"50cbbc69-3d9e-4fdd-b246-b20da0004571","system_id":"levelo_inurba_marseille","lat":43.30312,"lon":5.369051,"is_reserved":false,"is_disabled":false,"rental_uris":{"android":"levelo://app?vid=50cbbc69-3d9e-4fdd-b246-b20da0004571","ios":"levelo://app?vid=50cbbc69-3d9e-4fdd-b246-b20da0004571"},"vehicle_type_id":"4","last_reported":1753539002,"current_range_meters":15200,"station_id":"","pricing_plan_id":"cebpf4jnsgd1na2vs0mg"},{"bike_id":"4f069cb2-e85f-44ab-8659-b3444c19b657","system_id":"levelo_inurba_marseille","lat":43.23185,"lon":5.3557,"is_reserved":false,"is_disabled":false,"rental_uris":{"android":"levelo://app?vid=4f069cb2-e85f-44ab-8659-b3444c19b657","ios":"levelo://app?vid=4f069cb2-e85f-44ab-8659-b3444c19b657"},"vehicle_type_id":"4","last_reported":1753539002,"current_range_meters":15200,"station_id":"ce4bhu92rcd13ifvqi70","pricing_plan_id":"cebpf4jnsgd1na2vs0mg"},{"bike_id":"725317c6-351b-43e5-b68d-45c3db010ac3","system_id":"levelo_inurba_marseille","lat":43.28178,"lon":5.42649,"is_reserved":false,"is_disabled":false,"rental_uris":{"android":"levelo://app?vid=725317c6-351b-43e5-b68d-45c3db010ac3","ios":"levelo://app?vid=725317c6-351b-43e5-b68d-45c3db010ac3"},"vehicle_type_id":"4","last_reported":1753539002,"current_range_meters":16000,"station_id":"ce4bhnh2rcd13ifvqgug","pricing_plan_id":"cebpf4jnsgd1na2vs0mg"},{"bike_id":"40926a24-5ea4-494c-99a9-ce678ebdac7b","system_id":"levelo_inurba_marseille","lat":43.25826,"lon":5.3943,"is_reserved":false,"is_disabled":false,"rental_uris":{"android":"levelo://app?vid=40926a24-5ea4-494c-99a9-ce678ebdac7b","ios":"levelo://app?vid=40926a24-5ea4-494c-99a9-ce678ebdac7b"},"vehicle_type_id":"4","last_reported":1753539002,"current_range_meters":16000,"station_id":"ce4bhip2rcd13ifvqft0","pricing_plan_id":"cebpf4jnsgd1na2vs0mg"},{"bike_id":"898d1f8e-e261-4f25-9386-a6825028d102","system_id":"levelo_inurba_marseille","lat":43.29068,"lon":5.4739,"is_reserved":false,"is_disabled":false,"rental_uris":{"android":"levelo://app?vid=898d1f8e-e261-4f25-9386-a6825028d102","ios":"levelo://app?vid=898d1f8e-e261-4f25-9386-a6825028d102"},"vehicle_type_id":"4","last_reported":1753539002,"current_range_meters":16000,"station_id":"","pricing_plan_id":"cebpf4jnsgd1na2vs0mg"},{"bike_id":"2703e0a4-7218-4353-b33c-9609c06a5516","system_id":"levelo_inurba_marseille","lat":43.27502,"lon":5.42461,"is_reserved":false,"is_disabled":false,"rental_uris":{"android":"levelo://app?vid=2703e0a4-7218-4353-b33c-9609c06a5516","ios":"levelo://app?vid=2703e0a4-7218-4353-b33c-9609c06a5516"},"vehicle_type_id":"4","last_reported":1753539002,"current_range_meters":16000,"station_id":"ce4bhn92rcd13ifvqgrg","pricing_plan_id":"cebpf4jnsgd1na2vs0mg"},{"bike_id":"8cb3cdfe-341c-4219-9fb7-adf0c31075d3","system_id":"levelo_inurba_marseille","lat":43.22488,"lon":5.34796,"is_reserved":false,"is_disabled":false,"rental_uris":{"android":"levelo://app?vid=8cb3cdfe-341c-4219-9fb7-adf0c31075d3","ios":"levelo://app?vid=8cb3cdfe-341c-4219-9fb7-adf0c31075d3"},"vehicle_type_id":"4","last_reported":1753539002,"current_range_meters":16000,"station_id":"st_cvj5dfep6f1abm77gieg","pricing_plan_id":"cebpf4jnsgd1na2vs0mg"},{"bike_id":"a05343f6-5345-451e-92c9-8d14b4ec04eb","system_id":"levelo_inurba_marseille","lat":43.314919,"lon":5.373082,"is_reserved":false,"is_disabled":false,"rental_uris":{"android":"levelo://app?vid=a05343f6-5345-451e-92c9-8d14b4ec04eb","ios":"levelo://app?vid=a05343f6-5345-451e-92c9-8d14b4ec04eb"},"vehicle_type_id":"4","last_reported":1753539002,"current_range_meters":16000,"station_id":"","pricing_plan_id":"cebpf4jnsgd1na2vs0mg"},{"bike_id":"f3d9f4e3-18e1-46b0-943e-1414afeca2da","system_id":"levelo_inurba_marseille","lat":43.22918,"lon":5.35384,"is_reserved":false,"is_disabled":false,"rental_uris":{"android":"levelo://app?vid=f3d9f4e3-18e1-46b0-943e-1414afeca2da","ios":"levelo://app?vid=f3d9f4e3-18e1-46b0-943e-1414afeca2da"},"vehicle_type_id":"4","last_reported":1753539002,"current_range_meters":16000,"station_id":"cpo3532slgdg3j2ikp40","pricing_plan_id":"cebpf4jnsgd1na2vs0mg"},{"bike_id":"df2d85b2-8956-48c3-a002-dd2097f251e5","system_id":"levelo_inurba_marseille","lat":43.24067,"lon":5.37732,"is_reserved":false,"is_disabled":false,"rental_uris":{"android":"levelo://app?vid=df2d85b2-8956-48c3-a002-dd2097f251e5","ios":"levelo://app?vid=df2d85b2-8956-48c3-a002-dd2097f251e5"},"vehicle_type_id":"4","last_reported":1753539002,"current_range_meters":16000,"station_id":"ce4bhnp2rcd13ifvqgvg","pricing_plan_id":"cebpf4jnsgd1na2vs0mg"},{"bike_id":"61cd7fe3-237f-4708-afc7-dd8a81b4454c","system_id":"levelo_inurba_marseille","lat":43.22939,"lon":5.35384,"is_reserved":false,"is_disabled":false,"rental_uris":{"android":"levelo://app?vid=61cd7fe3-237f-4708-afc7-dd8a81b4454c","ios":"levelo://app?vid=61cd7fe3-237f-4708-afc7-dd8a81b4454c"},"vehicle_type_id":"4","last_reported":1753539002,"current_range_meters":16000,"station_id":"cpo3532slgdg3j2ikp40","pricing_plan_id":"cebpf4jnsgd1na2vs0mg"},{"bike_id":"1e5c96a6-9d0f-4d5f-85ef-5a5f8ac0317a","system_id":"levelo_inurba_marseille","lat":43.33447,"lon":5.39139,"is_reserved":false,"is_disabled":false,"rental_uris":{"android":"levelo://app?vid=1e5c96a6-9d0f-4d5f-85ef-5a5f8ac0317a","ios":"levelo://app?vid=1e5c96a6-9d0f-4d5f-85ef-5a5f8ac0317a"},"vehicle_type_id":"4","last_reported":1753539002,"current_range_meters":16000,"station_id":"","pricing_plan_id":"cebpf4jnsgd1na2vs0mg"},{"bike_id":"04b7ba23-9d3e-49e9-b458-d4985e4e8b88","system_id":"levelo_inurba_marseille","lat":43.286072,"lon":5.351023,"is_reserved":false,"is_disabled":false,"rental_uris":{"android":"levelo://app?vid=04b7ba23-9d3e-49e9-b458-d4985e4e8b88","ios":"levelo://app?vid=04b7ba23-9d3e-49e9-b458-d4985e4e8b88"},"vehicle_type_id":"4","last_reported":1753539002,"current_range_meters":16000,"station_id":"","pricing_plan_id":"cebpf4jnsgd1na2vs0mg"},{"bike_id":"adc99020-a046-4247-b3bb-abb9aabfb167","system_id":"levelo_inurba_marseille","lat":43.24397,"lon":5.37062,"is_reserved":false,"is_disabled":false,"rental_uris":{"android":"levelo://app?vid=adc99020-a046-4247-b3bb-abb9aabfb167","ios":"levelo://app?vid=adc99020-a046-4247-b3bb-abb9aabfb167"},"vehicle_type_id":"4","last_reported":1753539002,"current_range_meters":16000,"station_id":"ce4bhhh2rcd13ifvqfk0","pricing_plan_id":"cebpf4jnsgd1na2vs0mg"},{"bike_id":"4f8890a5-9083-41ec-99f8-cafaf23f508d","system_id":"levelo_inurba_marseille","lat":43.2827,"lon":5.35055,"is_reserved":false,"is_disabled":false,"rental_uris":{"android":"levelo://app?vid=4f8890a5-9083-41ec-99f8-cafaf23f508d","ios":"levelo://app?vid=4f8890a5-9083-41ec-99f8-cafaf23f508d"},"vehicle_type_id":"4","last_reported":1753539002,"current_range_meters":16000,"station_id":"ce4bhbp2rcd13ifvqerg","pricing_plan_id":"cebpf4jnsgd1na2vs0mg"},{"bike_id":"25e07804-327d-451e-af4e-6a6e09b5f052","system_id":"levelo_inurba_marseille","lat":43.26552,"lon":5.37296,"is_reserved":false,"is_disabled":false,"rental_uris":{"android":"levelo://app?vid=25e07804-327d-451e-af4e-6a6e09b5f052","ios":"levelo://app?vid=25e07804-327d-451e-af4e-6a6e09b5f052"},"vehicle_type_id":"4","last_reported":1753539002,"current_range_meters":16000,"station_id":"ce4bhg12rcd13ifvqf70","pricing_plan_id":"cebpf4jnsgd1na2vs0mg"},{"bike_id":"a1d5115b-997f-44a5-8b4b-21cb29757407","system_id":"levelo_inurba_marseille","lat":43.3123,"lon":5.37319,"is_reserved":false,"is_disabled":false,"rental_uris":{"android":"levelo://app?vid=a1d5115b-997f-44a5-8b4b-21cb29757407","ios":"levelo://app?vid=a1d5115b-997f-44a5-8b4b-21cb29757407"},"vehicle_type_id":"4","last_reported":1753539002,"current_range_meters":16000,"station_id":"","pricing_plan_id":"cebpf4jnsgd1na2vs0mg"},{"bike_id":"b75b2a1b-765c-49a1-ad44-3cc82f70368b","system_id":"levelo_inurba_marseille","lat":43.25828,"lon":5.39432,"is_reserved":false,"is_disabled":false,"rental_uris":{"android":"levelo://app?vid=b75b2a1b-765c-49a1-ad44-3cc82f70368b","ios":"levelo://app?vid=b75b2a1b-765c-49a1-ad44-3cc82f70368b"},"vehicle_type_id":"4","last_reported":1753539002,"current_range_meters":16000,"station_id":"ce4bhip2rcd13ifvqft0","pricing_plan_id":"cebpf4jnsgd1na2vs0mg"},{"bike_id":"c34587a8-a019-4b34-8b52-b2a04d65fdd5","system_id":"levelo_inurba_marseille","lat":43.26028,"lon":5.37553,"is_reserved":false,"is_disabled":false,"rental_uris":{"android":"levelo://app?vid=c34587a8-a019-4b34-8b52-b2a04d65fdd5","ios":"levelo://app?vid=c34587a8-a019-4b34-8b52-b2a04d65fdd5"},"vehicle_type_id":"4","last_reported":1753539002,"current_range_meters":16000,"station_id":"ce4bhgh2rcd13ifvqfa0","pricing_plan_id":"cebpf4jnsgd1na2vs0mg"},{"bike_id":"36e6bf97-6485-443c-94bf-9c9cb3f33000","system_id":"levelo_inurba_marseille","lat":43.29288,"lon":5.38435,"is_reserved":false,"is_disabled":true,"rental_uris":{"android":"levelo://app?vid=36e6bf97-6485-443c-94bf-9c9cb3f33000","ios":"levelo://app?vid=36e6bf97-6485-443c-94bf-9c9cb3f33000"},"vehicle_type_id":"4","last_reported":1753539002,"current_range_meters":16000,"station_id":"ce4bh692rcd13ifvqea0","pricing_plan_id":"cebpf4jnsgd1na2vs0mg"},{"bike_id":"e3ea7b8c-ec2b-4e90-9fb8-78bd951aed6d","system_id":"levelo_inurba_marseille","lat":43.21737,"lon":5.34625,"is_reserved":false,"is_disabled":false,"rental_uris":{"android":"levelo://app?vid=e3ea7b8c-ec2b-4e90-9fb8-78bd951aed6d","ios":"levelo://app?vid=e3ea7b8c-ec2b-4e90-9fb8-78bd951aed6d"},"vehicle_type_id":"4","last_reported":1753539002,"current_range_meters":16000,"station_id":"","pricing_plan_id":"cebpf4jnsgd1na2vs0mg"},{"bike_id":"7e65c5ea-0429-45f5-a396-bd32e67f0744","system_id":"levelo_inurba_marseille","lat":43.33476,"lon":5.40034,"is_reserved":false,"is_disabled":false,"rental_uris":{"android":"levelo://app?vid=7e65c5ea-0429-45f5-a396-bd32e67f0744","ios":"levelo://app?vid=7e65c5ea-0429-45f5-a396-bd32e67f0744"},"vehicle_type_id":"4","last_reported":1753539002,"current_range_meters":16000,"station_id":"","pricing_plan_id":"cebpf4jnsgd1na2vs0mg"},{"bike_id":"b4b83b82-6d1c-4b44-ab9f-111b5c8d40a5","system_id":"levelo_inurba_marseille","lat":43.27061,"lon":5.40263,"is_reserved":false,"is_disabled":false,"rental_uris":{"android":"levelo://app?vid=b4b83b82-6d1c-4b44-ab9f-111b5c8d40a5","ios":"levelo://app?vid=b4b83b82-6d1c-4b44-ab9f-111b5c8d40a5"},"vehicle_type_id":"4","last_reported":1753539002,"current_range_meters":16400,"station_id":"ce4bhk92rcd13ifvqgc0","pricing_plan_id":"cebpf4jnsgd1na2vs0mg"},{"bike_id":"0c11f6c1-8064-42f4-a9d5-3b25c443f052","system_id":"levelo_inurba_marseille","lat":43.22956,"lon":5.3543,"is_reserved":false,"is_disabled":false,"rental_uris":{"android":"levelo://app?vid=0c11f6c1-8064-42f4-a9d5-3b25c443f052","ios":"levelo://app?vid=0c11f6c1-8064-42f4-a9d5-3b25c443f052"},"vehicle_type_id":"4","last_reported":1753539002,"current_range_meters":16400,"station_id":"","pricing_plan_id":"cebpf4jnsgd1na2vs0mg"},{"bike_id":"9dfdeb8a-ee13-4931-94b4-ad2b5f23aa4b","system_id":"levelo_inurba_marseille","lat":43.23187,"lon":5.39993,"is_reserved":false,"is_disabled":true,"rental_uris":{"android":"levelo://app?vid=9dfdeb8a-ee13-4931-94b4-ad2b5f23aa4b","ios":"levelo://app?vid=9dfdeb8a-ee13-4931-94b4-ad2b5f23aa4b"},"vehicle_type_id":"4","last_reported":1753539002,"current_range_meters":16400,"station_id":"ce4bhn12rcd13ifvqgqg","pricing_plan_id":"cebpf4jnsgd1na2vs0mg"},{"bike_id":"bdc8ef21-146d-46ff-9c91-249dba0037c7","system_id":"levelo_inurba_marseille","lat":43.22943,"lon":5.35365,"is_reserved":false,"is_disabled":false,"rental_uris":{"android":"levelo://app?vid=bdc8ef21-146d-46ff-9c91-249dba0037c7","ios":"levelo://app?vid=bdc8ef21-146d-46ff-9c91-249dba0037c7"},"vehicle_type_id":"4","last_reported":1753539002,"current_range_meters":16400,"station_id":"cpo3532slgdg3j2ikp40","pricing_plan_id":"cebpf4jnsgd1na2vs0mg"},{"bike_id":"1444dafd-5008-4b1a-9a9f-e08b1176637d","system_id":"levelo_inurba_marseille","lat":43.27303,"lon":5.39102,"is_reserved":false,"is_disabled":false,"rental_uris":{"android":"levelo://app?vid=1444dafd-5008-4b1a-9a9f-e08b1176637d","ios":"levelo://app?vid=1444dafd-5008-4b1a-9a9f-e08b1176637d"},"vehicle_type_id":"4","last_reported":1753539002,"current_range_meters":16400,"station_id":"ce4bhgp2rcd13ifvqfe0","pricing_plan_id":"cebpf4jnsgd1na2vs0mg"},{"bike_id":"a24435f4-7150-4a58-a756-6f374baf7b51","system_id":"levelo_inurba_marseille","lat":43.28297,"lon":5.3509,"is_reserved":false,"is_disabled":false,"rental_uris":{"android":"levelo://app?vid=a24435f4-7150-4a58-a756-6f374baf7b51","ios":"levelo://app?vid=a24435f4-7150-4a58-a756-6f374baf7b51"},"vehicle_type_id":"4","last_reported":1753539002,"current_range_meters":16400,"station_id":"ce4bhbp2rcd13ifvqerg","pricing_plan_id":"cebpf4jnsgd1na2vs0mg"},{"bike_id":"38d94f99-ae22-49f7-b2ae-83e22dcaa946","system_id":"levelo_inurba_marseille","lat":43.29018,"lon":5.35631,"is_reserved":false,"is_disabled":false,"rental_uris":{"android":"levelo://app?vid=38d94f99-ae22-49f7-b2ae-83e22dcaa946","ios":"levelo://app?vid=38d94f99-ae22-49f7-b2ae-83e22dcaa946"},"vehicle_type_id":"4","last_reported":1753539002,"current_range_meters":16000,"station_id":"ce4bhb92rcd13ifvqen0","pricing_plan_id":"cebpf4jnsgd1na2vs0mg"},{"bike_id":"43dbc09e-d0e4-4ddb-bafe-4f55874d23a9","system_id":"levelo_inurba_marseille","lat":43.30241,"lon":5.38231,"is_reserved":false,"is_disabled":false,"rental_uris":{"android":"levelo://app?vid=43dbc09e-d0e4-4ddb-bafe-4f55874d23a9","ios":"levelo://app?vid=43dbc09e-d0e4-4ddb-bafe-4f55874d23a9"},"vehicle_type_id":"4","last_reported":1753539002,"current_range_meters":16400,"station_id":"","pricing_plan_id":"cebpf4jnsgd1na2vs0mg"},{"bike_id":"048dcbd0-ab4d-4755-8498-72989c8229c0","system_id":"levelo_inurba_marseille","lat":43.243896,"lon":5.370777,"is_reserved":false,"is_disabled":false,"rental_uris":{"android":"levelo://app?vid=048dcbd0-ab4d-4755-8498-72989c8229c0","ios":"levelo://app?vid=048dcbd0-ab4d-4755-8498-72989c8229c0"},"vehicle_type_id":"4","last_reported":1753539002,"current_range_meters":16400,"station_id":"ce4bhhh2rcd13ifvqfk0","pricing_plan_id":"cebpf4jnsgd1na2vs0mg"},{"bike_id":"267abc53-7023-4eb0-85c9-680aefb0812a","system_id":"levelo_inurba_marseille","lat":43.23053,"lon":5.35487,"is_reserved":false,"is_disabled":false,"rental_uris":{"android":"levelo://app?vid=267abc53-7023-4eb0-85c9-680aefb0812a","ios":"levelo://app?vid=267abc53-7023-4eb0-85c9-680aefb0812a"},"vehicle_type_id":"4","last_reported":1753539002,"current_range_meters":16800,"station_id":"cpo3342slgdg3j2ifvpg","pricing_plan_id":"cebpf4jnsgd1na2vs0mg"},{"bike_id":"5fc666d4-7509-40b3-b359-a141ffaa9f74","system_id":"levelo_inurba_marseille","lat":43.27497,"lon":5.42463,"is_reserved":false,"is_disabled":false,"rental_uris":{"android":"levelo://app?vid=5fc666d4-7509-40b3-b359-a141ffaa9f74","ios":"levelo://app?vid=5fc666d4-7509-40b3-b359-a141ffaa9f74"},"vehicle_type_id":"4","last_reported":1753539002,"current_range_meters":16800,"station_id":"ce4bhn92rcd13ifvqgrg","pricing_plan_id":"cebpf4jnsgd1na2vs0mg"},{"bike_id":"8ac83c10-1774-4144-9880-dfef0570bec1","system_id":"levelo_inurba_marseille","lat":43.26553,"lon":5.37284,"is_reserved":false,"is_disabled":false,"rental_uris":{"android":"levelo://app?vid=8ac83c10-1774-4144-9880-dfef0570bec1","ios":"levelo://app?vid=8ac83c10-1774-4144-9880-dfef0570bec1"},"vehicle_type_id":"4","last_reported":1753539002,"current_range_meters":16800,"station_id":"ce4bhg12rcd13ifvqf70","pricing_plan_id":"cebpf4jnsgd1na2vs0mg"},{"bike_id":"97e03b86-3d42-448c-ac76-0b5a2719eea4","system_id":"levelo_inurba_marseille","lat":43.28841,"lon":5.3585,"is_reserved":false,"is_disabled":false,"rental_uris":{"android":"levelo://app?vid=97e03b86-3d42-448c-ac76-0b5a2719eea4","ios":"levelo://app?vid=97e03b86-3d42-448c-ac76-0b5a2719eea4"},"vehicle_type_id":"4","last_reported":1753539002,"current_range_meters":16800,"station_id":"ce4bhb12rcd13ifvqem0","pricing_plan_id":"cebpf4jnsgd1na2vs0mg"},{"bike_id":"2928863f-7f62-4113-94fc-2c8c44f7b1be","system_id":"levelo_inurba_marseille","lat":43.292724,"lon":5.384415,"is_reserved":false,"is_disabled":false,"rental_uris":{"android":"levelo://app?vid=2928863f-7f62-4113-94fc-2c8c44f7b1be","ios":"levelo://app?vid=2928863f-7f62-4113-94fc-2c8c44f7b1be"},"vehicle_type_id":"4","last_reported":1753539002,"current_range_meters":16800,"station_id":"ce4bh692rcd13ifvqea0","pricing_plan_id":"cebpf4jnsgd1na2vs0mg"},{"bike_id":"224d26c2-939d-4cbe-a747-a86a4b78bd4e","system_id":"levelo_inurba_marseille","lat":43.28846,"lon":5.35871,"is_reserved":false,"is_disabled":false,"rental_uris":{"android":"levelo://app?vid=224d26c2-939d-4cbe-a747-a86a4b78bd4e","ios":"levelo://app?vid=224d26c2-939d-4cbe-a747-a86a4b78bd4e"},"vehicle_type_id":"4","last_reported":1753539002,"current_range_meters":16800,"station_id":"ce4bhb12rcd13ifvqem0","pricing_plan_id":"cebpf4jnsgd1na2vs0mg"},{"bike_id":"c5794c7a-bb35-409f-9175-7d8933c8fd68","system_id":"levelo_inurba_marseille","lat":43.3112,"lon":5.39628,"is_reserved":false,"is_disabled":false,"rental_uris":{"android":"levelo://app?vid=c5794c7a-bb35-409f-9175-7d8933c8fd68","ios":"levelo://app?vid=c5794c7a-bb35-409f-9175-7d8933c8fd68"},"vehicle_type_id":"4","last_reported":1753539002,"current_range_meters":16800,"station_id":"","pricing_plan_id":"cebpf4jnsgd1na2vs0mg"},{"bike_id":"25f3e258-0c7a-499b-b187-4c4dddf45bcd","system_id":"levelo_inurba_marseille","lat":43.29286,"lon":5.36843,"is_reserved":false,"is_disabled":true,"rental_uris":{"android":"levelo://app?vid=25f3e258-0c7a-499b-b187-4c4dddf45bcd","ios":"levelo://app?vid=25f3e258-0c7a-499b-b187-4c4dddf45bcd"},"vehicle_type_id":"4","last_reported":1753539002,"current_range_meters":16800,"station_id":"ce4bhbp2rcd13ifvqesg","pricing_plan_id":"cebpf4jnsgd1na2vs0mg"},{"bike_id":"131d301f-d5a3-4c0e-98e4-453c2e958561","system_id":"levelo_inurba_marseille","lat":43.29011,"lon":5.3561,"is_reserved":false,"is_disabled":false,"rental_uris":{"android":"levelo://app?vid=131d301f-d5a3-4c0e-98e4-453c2e958561","ios":"levelo://app?vid=131d301f-d5a3-4c0e-98e4-453c2e958561"},"vehicle_type_id":"4","last_reported":1753539002,"current_range_meters":17200,"station_id":"ce4bhb92rcd13ifvqen0","pricing_plan_id":"cebpf4jnsgd1na2vs0mg"},{"bike_id":"f8622cd6-d131-484c-a7c2-e6e39bb8b906","system_id":"levelo_inurba_marseille","lat":43.21751,"lon":5.34615,"is_reserved":false,"is_disabled":false,"rental_uris":{"android":"levelo://app?vid=f8622cd6-d131-484c-a7c2-e6e39bb8b906","ios":"levelo://app?vid=f8622cd6-d131-484c-a7c2-e6e39bb8b906"},"vehicle_type_id":"4","last_reported":1753539002,"current_range_meters":17200,"station_id":"st_cvj6r9ubvosntc0bgbag","pricing_plan_id":"cebpf4jnsgd1na2vs0mg"},{"bike_id":"8362c329-d292-4c5c-95e6-bd7045291b1e","system_id":"levelo_inurba_marseille","lat":43.29695,"lon":5.37279,"is_reserved":false,"is_disabled":false,"rental_uris":{"android":"levelo://app?vid=8362c329-d292-4c5c-95e6-bd7045291b1e","ios":"levelo://app?vid=8362c329-d292-4c5c-95e6-bd7045291b1e"},"vehicle_type_id":"4","last_reported":1753539002,"current_range_meters":17200,"station_id":"ce4bgk12rcd13ifvqbj0","pricing_plan_id":"cebpf4jnsgd1na2vs0mg"},{"bike_id":"7f8b9d3d-e5ba-4f27-9152-6fb226bd6b3c","system_id":"levelo_inurba_marseille","lat":43.26196,"lon":5.37449,"is_reserved":false,"is_disabled":false,"rental_uris":{"android":"levelo://app?vid=7f8b9d3d-e5ba-4f27-9152-6fb226bd6b3c","ios":"levelo://app?vid=7f8b9d3d-e5ba-4f27-9152-6fb226bd6b3c"},"vehicle_type_id":"4","last_reported":1753539002,"current_range_meters":17200,"station_id":"ce4bhgp2rcd13ifvqfc0","pricing_plan_id":"cebpf4jnsgd1na2vs0mg"},{"bike_id":"17fc2f1f-5abe-4cd4-9a51-d45ca1258e83","system_id":"levelo_inurba_marseille","lat":43.28421,"lon":5.34979,"is_reserved":false,"is_disabled":false,"rental_uris":{"android":"levelo://app?vid=17fc2f1f-5abe-4cd4-9a51-d45ca1258e83","ios":"levelo://app?vid=17fc2f1f-5abe-4cd4-9a51-d45ca1258e83"},"vehicle_type_id":"4","last_reported":1753539002,"current_range_meters":17200,"station_id":"ce4bhbh2rcd13ifvqepg","pricing_plan_id":"cebpf4jnsgd1na2vs0mg"},{"bike_id":"4fc563e5-5af3-4e66-b309-4f545577a0a4","system_id":"levelo_inurba_marseille","lat":43.217445,"lon":5.346039,"is_reserved":false,"is_disabled":false,"rental_uris":{"android":"levelo://app?vid=4fc563e5-5af3-4e66-b309-4f545577a0a4","ios":"levelo://app?vid=4fc563e5-5af3-4e66-b309-4f545577a0a4"},"vehicle_type_id":"4","last_reported":1753539002,"current_range_meters":17200,"station_id":"","pricing_plan_id":"cebpf4jnsgd1na2vs0mg"},{"bike_id":"ddc71cff-a54b-4821-b577-35926c1b4a46","system_id":"levelo_inurba_marseille","lat":43.2923,"lon":5.36073,"is_reserved":false,"is_disabled":false,"rental_uris":{"android":"levelo://app?vid=ddc71cff-a54b-4821-b577-35926c1b4a46","ios":"levelo://app?vid=ddc71cff-a54b-4821-b577-35926c1b4a46"},"vehicle_type_id":"4","last_reported":1753539002,"current_range_meters":17200,"station_id":"ce4bhbh2rcd13ifvqeqg","pricing_plan_id":"cebpf4jnsgd1na2vs0mg"},{"bike_id":"69eb2053-6469-4f9b-869a-7285bd1bf1c0","system_id":"levelo_inurba_marseille","lat":43.22522,"lon":5.34807,"is_reserved":false,"is_disabled":false,"rental_uris":{"android":"levelo://app?vid=69eb2053-6469-4f9b-869a-7285bd1bf1c0","ios":"levelo://app?vid=69eb2053-6469-4f9b-869a-7285bd1bf1c0"},"vehicle_type_id":"4","last_reported":1753539002,"current_range_meters":17200,"station_id":"st_cvj5dfep6f1abm77gieg","pricing_plan_id":"cebpf4jnsgd1na2vs0mg"},{"bike_id":"02cab979-ccb2-40ce-bd89-cd624415fc04","system_id":"levelo_inurba_marseille","lat":43.27782,"lon":5.3995,"is_reserved":false,"is_disabled":false,"rental_uris":{"android":"levelo://app?vid=02cab979-ccb2-40ce-bd89-cd624415fc04","ios":"levelo://app?vid=02cab979-ccb2-40ce-bd89-cd624415fc04"},"vehicle_type_id":"4","last_reported":1753539002,"current_range_meters":17200,"station_id":"","pricing_plan_id":"cebpf4jnsgd1na2vs0mg"},{"bike_id":"779da6d3-7f74-4e4c-aad5-accc2b02611a","system_id":"levelo_inurba_marseille","lat":43.29015,"lon":5.35611,"is_reserved":false,"is_disabled":false,"rental_uris":{"android":"levelo://app?vid=779da6d3-7f74-4e4c-aad5-accc2b02611a","ios":"levelo://app?vid=779da6d3-7f74-4e4c-aad5-accc2b02611a"},"vehicle_type_id":"4","last_reported":1753539002,"current_range_meters":17200,"station_id":"ce4bhb92rcd13ifvqen0","pricing_plan_id":"cebpf4jnsgd1na2vs0mg"},{"bike_id":"c0cd141e-968c-4be4-a9f1-b8aece5dd0ff","system_id":"levelo_inurba_marseille","lat":43.2175,"lon":5.34599,"is_reserved":false,"is_disabled":false,"rental_uris":{"android":"levelo://app?vid=c0cd141e-968c-4be4-a9f1-b8aece5dd0ff","ios":"levelo://app?vid=c0cd141e-968c-4be4-a9f1-b8aece5dd0ff"},"vehicle_type_id":"4","last_reported":1753539002,"current_range_meters":17200,"station_id":"st_cvj6r9ubvosntc0bgbag","pricing_plan_id":"cebpf4jnsgd1na2vs0mg"},{"bike_id":"3dcd3c56-cdba-4f8c-8ff7-bb42fd214f6d","system_id":"levelo_inurba_marseille","lat":43.29372,"lon":5.37845,"is_reserved":false,"is_disabled":false,"rental_uris":{"android":"levelo://app?vid=3dcd3c56-cdba-4f8c-8ff7-bb42fd214f6d","ios":"levelo://app?vid=3dcd3c56-cdba-4f8c-8ff7-bb42fd214f6d"},"vehicle_type_id":"4","last_reported":1753539002,"current_range_meters":17200,"station_id":"ce4bgjh2rcd13ifvqbf0","pricing_plan_id":"cebpf4jnsgd1na2vs0mg"},{"bike_id":"1a749bd6-d81f-4d79-86b3-e3569cb037eb","system_id":"levelo_inurba_marseille","lat":43.28269,"lon":5.35061,"is_reserved":false,"is_disabled":false,"rental_uris":{"android":"levelo://app?vid=1a749bd6-d81f-4d79-86b3-e3569cb037eb","ios":"levelo://app?vid=1a749bd6-d81f-4d79-86b3-e3569cb037eb"},"vehicle_type_id":"4","last_reported":1753539002,"current_range_meters":17200,"station_id":"ce4bhbp2rcd13ifvqerg","pricing_plan_id":"cebpf4jnsgd1na2vs0mg"},{"bike_id":"4af0e3d2-3908-4ccb-92be-4239dac0aae4","system_id":"levelo_inurba_marseille","lat":43.28418,"lon":5.34965,"is_reserved":false,"is_disabled":false,"rental_uris":{"android":"levelo://app?vid=4af0e3d2-3908-4ccb-92be-4239dac0aae4","ios":"levelo://app?vid=4af0e3d2-3908-4ccb-92be-4239dac0aae4"},"vehicle_type_id":"4","last_reported":1753539002,"current_range_meters":17600,"station_id":"ce4bhbh2rcd13ifvqepg","pricing_plan_id":"cebpf4jnsgd1na2vs0mg"},{"bike_id":"859be9dd-21c3-4d6f-b783-5ba15e54c14c","system_id":"levelo_inurba_marseille","lat":43.2827,"lon":5.35073,"is_reserved":false,"is_disabled":false,"rental_uris":{"android":"levelo://app?vid=859be9dd-21c3-4d6f-b783-5ba15e54c14c","ios":"levelo://app?vid=859be9dd-21c3-4d6f-b783-5ba15e54c14c"},"vehicle_type_id":"4","last_reported":1753539002,"current_range_meters":17600,"station_id":"ce4bhbp2rcd13ifvqerg","pricing_plan_id":"cebpf4jnsgd1na2vs0mg"},{"bike_id":"54405b04-0f04-4c64-af8f-9ccbb34ae9ba","system_id":"levelo_inurba_marseille","lat":43.28048,"lon":5.36939,"is_reserved":false,"is_disabled":false,"rental_uris":{"android":"levelo://app?vid=54405b04-0f04-4c64-af8f-9ccbb34ae9ba","ios":"levelo://app?vid=54405b04-0f04-4c64-af8f-9ccbb34ae9ba"},"vehicle_type_id":"4","last_reported":1753539002,"current_range_meters":17600,"station_id":"ce4bha12rcd13ifvqef0","pricing_plan_id":"cebpf4jnsgd1na2vs0mg"},{"bike_id":"ab89ad68-bbc8-4c4b-b6d9-ae6c5a05eefd","system_id":"levelo_inurba_marseille","lat":43.28362,"lon":5.38636,"is_reserved":false,"is_disabled":false,"rental_uris":{"android":"levelo://app?vid=ab89ad68-bbc8-4c4b-b6d9-ae6c5a05eefd","ios":"levelo://app?vid=ab89ad68-bbc8-4c4b-b6d9-ae6c5a05eefd"},"vehicle_type_id":"4","last_reported":1753539002,"current_range_meters":17600,"station_id":"ce4bh492rcd13ifvqdvg","pricing_plan_id":"cebpf4jnsgd1na2vs0mg"},{"bike_id":"37562319-1ab7-4052-84cd-19474c696578","system_id":"levelo_inurba_marseille","lat":43.27618,"lon":5.36115,"is_reserved":false,"is_disabled":false,"rental_uris":{"android":"levelo://app?vid=37562319-1ab7-4052-84cd-19474c696578","ios":"levelo://app?vid=37562319-1ab7-4052-84cd-19474c696578"},"vehicle_type_id":"4","last_reported":1753539002,"current_range_meters":17600,"station_id":"ce4bgj92rcd13ifvqbe0","pricing_plan_id":"cebpf4jnsgd1na2vs0mg"},{"bike_id":"04579f34-748d-4774-acd8-061f61361a17","system_id":"levelo_inurba_marseille","lat":43.28412,"lon":5.34984,"is_reserved":false,"is_disabled":false,"rental_uris":{"android":"levelo://app?vid=04579f34-748d-4774-acd8-061f61361a17","ios":"levelo://app?vid=04579f34-748d-4774-acd8-061f61361a17"},"vehicle_type_id":"4","last_reported":1753539002,"current_range_meters":17600,"station_id":"ce4bhbh2rcd13ifvqepg","pricing_plan_id":"cebpf4jnsgd1na2vs0mg"},{"bike_id":"4ca91b2f-eee9-4073-81df-e159e17c03ca","system_id":"levelo_inurba_marseille","lat":43.24075,"lon":5.37741,"is_reserved":false,"is_disabled":false,"rental_uris":{"android":"levelo://app?vid=4ca91b2f-eee9-4073-81df-e159e17c03ca","ios":"levelo://app?vid=4ca91b2f-eee9-4073-81df-e159e17c03ca"},"vehicle_type_id":"4","last_reported":1753539002,"current_range_meters":17600,"station_id":"ce4bhnp2rcd13ifvqgvg","pricing_plan_id":"cebpf4jnsgd1na2vs0mg"},{"bike_id":"819d09cf-6575-47db-bb8a-3ef2fa733e87","system_id":"levelo_inurba_marseille","lat":43.29262,"lon":5.3845,"is_reserved":false,"is_disabled":false,"rental_uris":{"android":"levelo://app?vid=819d09cf-6575-47db-bb8a-3ef2fa733e87","ios":"levelo://app?vid=819d09cf-6575-47db-bb8a-3ef2fa733e87"},"vehicle_type_id":"4","last_reported":1753539002,"current_range_meters":17600,"station_id":"ce4bh692rcd13ifvqea0","pricing_plan_id":"cebpf4jnsgd1na2vs0mg"},{"bike_id":"03d4250b-69f9-4399-a884-7539b2b7ba8d","system_id":"levelo_inurba_marseille","lat":43.28626,"lon":5.35094,"is_reserved":false,"is_disabled":false,"rental_uris":{"android":"levelo://app?vid=03d4250b-69f9-4399-a884-7539b2b7ba8d","ios":"levelo://app?vid=03d4250b-69f9-4399-a884-7539b2b7ba8d"},"vehicle_type_id":"4","last_reported":1753539002,"current_range_meters":17600,"station_id":"ce4bhch2rcd13ifvqeug","pricing_plan_id":"cebpf4jnsgd1na2vs0mg"},{"bike_id":"2d71f026-41f1-4d44-b1a5-abf052b37bd7","system_id":"levelo_inurba_marseille","lat":43.28419,"lon":5.34976,"is_reserved":false,"is_disabled":false,"rental_uris":{"android":"levelo://app?vid=2d71f026-41f1-4d44-b1a5-abf052b37bd7","ios":"levelo://app?vid=2d71f026-41f1-4d44-b1a5-abf052b37bd7"},"vehicle_type_id":"4","last_reported":1753539002,"current_range_meters":17600,"station_id":"ce4bhbh2rcd13ifvqepg","pricing_plan_id":"cebpf4jnsgd1na2vs0mg"},{"bike_id":"2dbf3677-20e9-4da8-bcba-0ed64e694e4e","system_id":"levelo_inurba_marseille","lat":43.27828,"lon":5.3922,"is_reserved":false,"is_disabled":false,"rental_uris":{"android":"levelo://app?vid=2dbf3677-20e9-4da8-bcba-0ed64e694e4e","ios":"levelo://app?vid=2dbf3677-20e9-4da8-bcba-0ed64e694e4e"},"vehicle_type_id":"4","last_reported":1753539002,"current_range_meters":17600,"station_id":"ce4bhjp2rcd13ifvqga0","pricing_plan_id":"cebpf4jnsgd1na2vs0mg"},{"bike_id":"d8ede7a6-2370-4585-9b4e-834634539090","system_id":"levelo_inurba_marseille","lat":43.22521,"lon":5.34765,"is_reserved":false,"is_disabled":false,"rental_uris":{"android":"levelo://app?vid=d8ede7a6-2370-4585-9b4e-834634539090","ios":"levelo://app?vid=d8ede7a6-2370-4585-9b4e-834634539090"},"vehicle_type_id":"4","last_reported":1753539002,"current_range_meters":18000,"station_id":"st_cvj5dfep6f1abm77gieg","pricing_plan_id":"cebpf4jnsgd1na2vs0mg"},{"bike_id":"3215b0be-0ec1-482c-8e92-948433afed76","system_id":"levelo_inurba_marseille","lat":43.244148,"lon":5.370712,"is_reserved":false,"is_disabled":false,"rental_uris":{"android":"levelo://app?vid=3215b0be-0ec1-482c-8e92-948433afed76","ios":"levelo://app?vid=3215b0be-0ec1-482c-8e92-948433afed76"},"vehicle_type_id":"4","last_reported":1753539002,"current_range_meters":18000,"station_id":"cpo3532slgdg3j2ikp40","pricing_plan_id":"cebpf4jnsgd1na2vs0mg"},{"bike_id":"f5d35bb9-022f-4b33-ab96-4c8a7845427f","system_id":"levelo_inurba_marseille","lat":43.30344,"lon":5.41886,"is_reserved":false,"is_disabled":false,"rental_uris":{"android":"levelo://app?vid=f5d35bb9-022f-4b33-ab96-4c8a7845427f","ios":"levelo://app?vid=f5d35bb9-022f-4b33-ab96-4c8a7845427f"},"vehicle_type_id":"4","last_reported":1753539002,"current_range_meters":18000,"station_id":"ce4bhop2rcd13ifvqh7g","pricing_plan_id":"cebpf4jnsgd1na2vs0mg"},{"bike_id":"dfc4e85c-408c-4d4d-9439-281cf527abe9","system_id":"levelo_inurba_marseille","lat":43.2797,"lon":5.38723,"is_reserved":false,"is_disabled":false,"rental_uris":{"android":"levelo://app?vid=dfc4e85c-408c-4d4d-9439-281cf527abe9","ios":"levelo://app?vid=dfc4e85c-408c-4d4d-9439-281cf527abe9"},"vehicle_type_id":"4","last_reported":1753539002,"current_range_meters":18000,"station_id":"ce4bhg12rcd13ifvqf80","pricing_plan_id":"cebpf4jnsgd1na2vs0mg"},{"bike_id":"adbc006e-c51d-4434-863c-610344ea30cd","system_id":"levelo_inurba_marseille","lat":43.21752,"lon":5.34605,"is_reserved":false,"is_disabled":true,"rental_uris":{"android":"levelo://app?vid=adbc006e-c51d-4434-863c-610344ea30cd","ios":"levelo://app?vid=adbc006e-c51d-4434-863c-610344ea30cd"},"vehicle_type_id":"4","last_reported":1753539002,"current_range_meters":18000,"station_id":"st_cvj6r9ubvosntc0bgbag","pricing_plan_id":"cebpf4jnsgd1na2vs0mg"},{"bike_id":"47980abc-a508-49d0-ad72-0d53771e9c9d","system_id":"levelo_inurba_marseille","lat":43.28421,"lon":5.34989,"is_reserved":false,"is_disabled":false,"rental_uris":{"android":"levelo://app?vid=47980abc-a508-49d0-ad72-0d53771e9c9d","ios":"levelo://app?vid=47980abc-a508-49d0-ad72-0d53771e9c9d"},"vehicle_type_id":"4","last_reported":1753539002,"current_range_meters":18000,"station_id":"ce4bhbh2rcd13ifvqepg","pricing_plan_id":"cebpf4jnsgd1na2vs0mg"},{"bike_id":"a85d0d7b-3731-4b06-b13e-849916f6749f","system_id":"levelo_inurba_marseille","lat":43.28267,"lon":5.35086,"is_reserved":false,"is_disabled":false,"rental_uris":{"android":"levelo://app?vid=a85d0d7b-3731-4b06-b13e-849916f6749f","ios":"levelo://app?vid=a85d0d7b-3731-4b06-b13e-849916f6749f"},"vehicle_type_id":"4","last_reported":1753539002,"current_range_meters":18000,"station_id":"ce4bhbp2rcd13ifvqerg","pricing_plan_id":"cebpf4jnsgd1na2vs0mg"},{"bike_id":"484ce80f-12be-41fa-9586-784b84db2ffe","system_id":"levelo_inurba_marseille","lat":43.2483,"lon":5.3744,"is_reserved":false,"is_disabled":false,"rental_uris":{"android":"levelo://app?vid=484ce80f-12be-41fa-9586-784b84db2ffe","ios":"levelo://app?vid=484ce80f-12be-41fa-9586-784b84db2ffe"},"vehicle_type_id":"4","last_reported":1753539002,"current_range_meters":18800,"station_id":"ce4bhgh2rcd13ifvqfb0","pricing_plan_id":"cebpf4jnsgd1na2vs0mg"},{"bike_id":"8e9a70e8-b347-4022-8b67-05e54bffdf31","system_id":"levelo_inurba_marseille","lat":43.31246,"lon":5.36917,"is_reserved":false,"is_disabled":false,"rental_uris":{"android":"levelo://app?vid=8e9a70e8-b347-4022-8b67-05e54bffdf31","ios":"levelo://app?vid=8e9a70e8-b347-4022-8b67-05e54bffdf31"},"vehicle_type_id":"4","last_reported":1753539002,"current_range_meters":18800,"station_id":"","pricing_plan_id":"cebpf4jnsgd1na2vs0mg"},{"bike_id":"d74d43d8-7061-47d6-ac6f-f11fa89027dd","system_id":"levelo_inurba_marseille","lat":43.23211,"lon":5.35549,"is_reserved":false,"is_disabled":false,"rental_uris":{"android":"levelo://app?vid=d74d43d8-7061-47d6-ac6f-f11fa89027dd","ios":"levelo://app?vid=d74d43d8-7061-47d6-ac6f-f11fa89027dd"},"vehicle_type_id":"4","last_reported":1753539002,"current_range_meters":18800,"station_id":"ce4bhu92rcd13ifvqi70","pricing_plan_id":"cebpf4jnsgd1na2vs0mg"},{"bike_id":"bbd86c7e-d307-4e0d-b170-7a8eb703d3fa","system_id":"levelo_inurba_marseille","lat":43.21741,"lon":5.3462,"is_reserved":false,"is_disabled":false,"rental_uris":{"android":"levelo://app?vid=bbd86c7e-d307-4e0d-b170-7a8eb703d3fa","ios":"levelo://app?vid=bbd86c7e-d307-4e0d-b170-7a8eb703d3fa"},"vehicle_type_id":"4","last_reported":1753539002,"current_range_meters":18800,"station_id":"","pricing_plan_id":"cebpf4jnsgd1na2vs0mg"},{"bike_id":"dfc13d34-d3d9-4597-a0ed-173ca0e857b9","system_id":"levelo_inurba_marseille","lat":43.27226,"lon":5.39166,"is_reserved":false,"is_disabled":false,"rental_uris":{"android":"levelo://app?vid=dfc13d34-d3d9-4597-a0ed-173ca0e857b9","ios":"levelo://app?vid=dfc13d34-d3d9-4597-a0ed-173ca0e857b9"},"vehicle_type_id":"4","last_reported":1753539002,"current_range_meters":18800,"station_id":"ce4bhhp2rcd13ifvqfm0","pricing_plan_id":"cebpf4jnsgd1na2vs0mg"},{"bike_id":"ce6e5a17-1c60-4915-abd1-cac1f5c4018e","system_id":"levelo_inurba_marseille","lat":43.21751,"lon":5.34603,"is_reserved":false,"is_disabled":false,"rental_uris":{"android":"levelo://app?vid=ce6e5a17-1c60-4915-abd1-cac1f5c4018e","ios":"levelo://app?vid=ce6e5a17-1c60-4915-abd1-cac1f5c4018e"},"vehicle_type_id":"4","last_reported":1753539002,"current_range_meters":18800,"station_id":"st_cvj6r9ubvosntc0bgbag","pricing_plan_id":"cebpf4jnsgd1na2vs0mg"},{"bike_id":"7937854b-57f6-458e-a2d6-a8a29e357f29","system_id":"levelo_inurba_marseille","lat":43.23068,"lon":5.3549,"is_reserved":false,"is_disabled":false,"rental_uris":{"android":"levelo://app?vid=7937854b-57f6-458e-a2d6-a8a29e357f29","ios":"levelo://app?vid=7937854b-57f6-458e-a2d6-a8a29e357f29"},"vehicle_type_id":"4","last_reported":1753539002,"current_range_meters":16800,"station_id":"cpo3342slgdg3j2ifvpg","pricing_plan_id":"cebpf4jnsgd1na2vs0mg"},{"bike_id":"5a096e93-ca4c-4f2e-8e75-f247b842490c","system_id":"levelo_inurba_marseille","lat":43.291962,"lon":5.358108,"is_reserved":false,"is_disabled":false,"rental_uris":{"android":"levelo://app?vid=5a096e93-ca4c-4f2e-8e75-f247b842490c","ios":"levelo://app?vid=5a096e93-ca4c-4f2e-8e75-f247b842490c"},"vehicle_type_id":"4","last_reported":1753539002,"current_range_meters":18800,"station_id":"ce4bhb12rcd13ifvqel0","pricing_plan_id":"cebpf4jnsgd1na2vs0mg"},{"bike_id":"22256e74-ee3e-44a8-804d-7317fbca0724","system_id":"levelo_inurba_marseille","lat":43.273712,"lon":5.362611,"is_reserved":false,"is_disabled":false,"rental_uris":{"android":"levelo://app?vid=22256e74-ee3e-44a8-804d-7317fbca0724","ios":"levelo://app?vid=22256e74-ee3e-44a8-804d-7317fbca0724"},"vehicle_type_id":"4","last_reported":1753539002,"current_range_meters":18800,"station_id":"","pricing_plan_id":"cebpf4jnsgd1na2vs0mg"},{"bike_id":"bc667fa7-88be-4d9b-9317-6163182d7112","system_id":"levelo_inurba_marseille","lat":43.29614,"lon":5.37716,"is_reserved":false,"is_disabled":false,"rental_uris":{"android":"levelo://app?vid=bc667fa7-88be-4d9b-9317-6163182d7112","ios":"levelo://app?vid=bc667fa7-88be-4d9b-9317-6163182d7112"},"vehicle_type_id":"4","last_reported":1753539002,"current_range_meters":18800,"station_id":"","pricing_plan_id":"cebpf4jnsgd1na2vs0mg"},{"bike_id":"60662c55-85ba-45b4-a323-3135deac02a5","system_id":"levelo_inurba_marseille","lat":43.29046,"lon":5.35911,"is_reserved":false,"is_disabled":false,"rental_uris":{"android":"levelo://app?vid=60662c55-85ba-45b4-a323-3135deac02a5","ios":"levelo://app?vid=60662c55-85ba-45b4-a323-3135deac02a5"},"vehicle_type_id":"4","last_reported":1753539002,"current_range_meters":18800,"station_id":"ce4bha92rcd13ifvqeg0","pricing_plan_id":"cebpf4jnsgd1na2vs0mg"},{"bike_id":"4f1b2aef-6e02-4a3c-ad1c-f375f00f9c7b","system_id":"levelo_inurba_marseille","lat":43.217512,"lon":5.345994,"is_reserved":false,"is_disabled":false,"rental_uris":{"android":"levelo://app?vid=4f1b2aef-6e02-4a3c-ad1c-f375f00f9c7b","ios":"levelo://app?vid=4f1b2aef-6e02-4a3c-ad1c-f375f00f9c7b"},"vehicle_type_id":"4","last_reported":1753539002,"current_range_meters":19200,"station_id":"","pricing_plan_id":"cebpf4jnsgd1na2vs0mg"},{"bike_id":"9aa27ca9-751c-427e-86ce-d214970474fa","system_id":"levelo_inurba_marseille","lat":43.31113,"lon":5.37784,"is_reserved":false,"is_disabled":false,"rental_uris":{"android":"levelo://app?vid=9aa27ca9-751c-427e-86ce-d214970474fa","ios":"levelo://app?vid=9aa27ca9-751c-427e-86ce-d214970474fa"},"vehicle_type_id":"4","last_reported":1753539002,"current_range_meters":19200,"station_id":"ce4bgt92rcd13ifvqcg0","pricing_plan_id":"cebpf4jnsgd1na2vs0mg"},{"bike_id":"10aa7cfd-97a8-40d9-a069-e3a0cfc6d0b9","system_id":"levelo_inurba_marseille","lat":43.286257,"lon":5.350886,"is_reserved":false,"is_disabled":false,"rental_uris":{"android":"levelo://app?vid=10aa7cfd-97a8-40d9-a069-e3a0cfc6d0b9","ios":"levelo://app?vid=10aa7cfd-97a8-40d9-a069-e3a0cfc6d0b9"},"vehicle_type_id":"4","last_reported":1753539002,"current_range_meters":19200,"station_id":"ce4bhch2rcd13ifvqeug","pricing_plan_id":"cebpf4jnsgd1na2vs0mg"},{"bike_id":"b2b7aac2-cb4a-4014-b34a-2a3123ce30d8","system_id":"levelo_inurba_marseille","lat":43.273766,"lon":5.362551,"is_reserved":false,"is_disabled":false,"rental_uris":{"android":"levelo://app?vid=b2b7aac2-cb4a-4014-b34a-2a3123ce30d8","ios":"levelo://app?vid=b2b7aac2-cb4a-4014-b34a-2a3123ce30d8"},"vehicle_type_id":"4","last_reported":1753539002,"current_range_meters":19200,"station_id":"ce4bhbh2rcd13ifvqeo0","pricing_plan_id":"cebpf4jnsgd1na2vs0mg"},{"bike_id":"b64dad25-8e0d-4258-bfd2-304c64c6d313","system_id":"levelo_inurba_marseille","lat":43.31718,"lon":5.3776,"is_reserved":false,"is_disabled":false,"rental_uris":{"android":"levelo://app?vid=b64dad25-8e0d-4258-bfd2-304c64c6d313","ios":"levelo://app?vid=b64dad25-8e0d-4258-bfd2-304c64c6d313"},"vehicle_type_id":"4","last_reported":1753539002,"current_range_meters":19200,"station_id":"ce4bgth2rcd13ifvqch0","pricing_plan_id":"cebpf4jnsgd1na2vs0mg"},{"bike_id":"55661540-733b-4bd0-ad5d-bb688398f06e","system_id":"levelo_inurba_marseille","lat":43.22511,"lon":5.34783,"is_reserved":false,"is_disabled":false,"rental_uris":{"android":"levelo://app?vid=55661540-733b-4bd0-ad5d-bb688398f06e","ios":"levelo://app?vid=55661540-733b-4bd0-ad5d-bb688398f06e"},"vehicle_type_id":"4","last_reported":1753539002,"current_range_meters":19200,"station_id":"st_cvj5dfep6f1abm77gieg","pricing_plan_id":"cebpf4jnsgd1na2vs0mg"},{"bike_id":"e9499808-d1bd-4294-b894-9036ccc9d997","system_id":"levelo_inurba_marseille","lat":43.284291,"lon":5.391985,"is_reserved":false,"is_disabled":false,"rental_uris":{"android":"levelo://app?vid=e9499808-d1bd-4294-b894-9036ccc9d997","ios":"levelo://app?vid=e9499808-d1bd-4294-b894-9036ccc9d997"},"vehicle_type_id":"4","last_reported":1753539002,"current_range_meters":19200,"station_id":"ce4bhoh2rcd13ifvqh5g","pricing_plan_id":"cebpf4jnsgd1na2vs0mg"},{"bike_id":"b4f15512-f383-4fcc-b989-3e4863e8cb71","system_id":"levelo_inurba_marseille","lat":43.21749,"lon":5.34601,"is_reserved":false,"is_disabled":false,"rental_uris":{"android":"levelo://app?vid=b4f15512-f383-4fcc-b989-3e4863e8cb71","ios":"levelo://app?vid=b4f15512-f383-4fcc-b989-3e4863e8cb71"},"vehicle_type_id":"4","last_reported":1753539002,"current_range_meters":19200,"station_id":"st_cvj6r9ubvosntc0bgbag","pricing_plan_id":"cebpf4jnsgd1na2vs0mg"},{"bike_id":"d5c9a4e7-b491-48a2-83da-c9ae04108f60","system_id":"levelo_inurba_marseille","lat":43.21714,"lon":5.34616,"is_reserved":false,"is_disabled":false,"rental_uris":{"android":"levelo://app?vid=d5c9a4e7-b491-48a2-83da-c9ae04108f60","ios":"levelo://app?vid=d5c9a4e7-b491-48a2-83da-c9ae04108f60"},"vehicle_type_id":"4","last_reported":1753539002,"current_range_meters":19200,"station_id":"st_cvj6r9ubvosntc0bgbag","pricing_plan_id":"cebpf4jnsgd1na2vs0mg"},{"bike_id":"e3afd35c-88c0-459b-b05e-8109cd22ce51","system_id":"levelo_inurba_marseille","lat":43.28267,"lon":5.35072,"is_reserved":false,"is_disabled":false,"rental_uris":{"android":"levelo://app?vid=e3afd35c-88c0-459b-b05e-8109cd22ce51","ios":"levelo://app?vid=e3afd35c-88c0-459b-b05e-8109cd22ce51"},"vehicle_type_id":"4","last_reported":1753539002,"current_range_meters":19200,"station_id":"ce4bhbp2rcd13ifvqerg","pricing_plan_id":"cebpf4jnsgd1na2vs0mg"},{"bike_id":"ce9eab99-22dc-4fd9-a464-be63e9848a82","system_id":"levelo_inurba_marseille","lat":43.30212,"lon":5.38088,"is_reserved":false,"is_disabled":false,"rental_uris":{"android":"levelo://app?vid=ce9eab99-22dc-4fd9-a464-be63e9848a82","ios":"levelo://app?vid=ce9eab99-22dc-4fd9-a464-be63e9848a82"},"vehicle_type_id":"4","last_reported":1753539002,"current_range_meters":19600,"station_id":"","pricing_plan_id":"cebpf4jnsgd1na2vs0mg"},{"bike_id":"45d79218-6af9-4c2a-9962-140328a1dfe0","system_id":"levelo_inurba_marseille","lat":43.21746,"lon":5.34599,"is_reserved":false,"is_disabled":false,"rental_uris":{"android":"levelo://app?vid=45d79218-6af9-4c2a-9962-140328a1dfe0","ios":"levelo://app?vid=45d79218-6af9-4c2a-9962-140328a1dfe0"},"vehicle_type_id":"4","last_reported":1753539002,"current_range_meters":19600,"station_id":"st_cvj6r9ubvosntc0bgbag","pricing_plan_id":"cebpf4jnsgd1na2vs0mg"},{"bike_id":"94966ce8-bdec-420c-aae2-fa2687207b15","system_id":"levelo_inurba_marseille","lat":43.28604,"lon":5.35104,"is_reserved":false,"is_disabled":false,"rental_uris":{"android":"levelo://app?vid=94966ce8-bdec-420c-aae2-fa2687207b15","ios":"levelo://app?vid=94966ce8-bdec-420c-aae2-fa2687207b15"},"vehicle_type_id":"4","last_reported":1753539002,"current_range_meters":19600,"station_id":"ce4bhch2rcd13ifvqeug","pricing_plan_id":"cebpf4jnsgd1na2vs0mg"},{"bike_id":"20d3643a-b7a0-40a9-bedf-52c8ca88d648","system_id":"levelo_inurba_marseille","lat":43.31454,"lon":5.37375,"is_reserved":false,"is_disabled":false,"rental_uris":{"android":"levelo://app?vid=20d3643a-b7a0-40a9-bedf-52c8ca88d648","ios":"levelo://app?vid=20d3643a-b7a0-40a9-bedf-52c8ca88d648"},"vehicle_type_id":"4","last_reported":1753539002,"current_range_meters":19600,"station_id":"","pricing_plan_id":"cebpf4jnsgd1na2vs0mg"},{"bike_id":"f0a5bf42-f644-4ab5-9855-d6ce6714832d","system_id":"levelo_inurba_marseille","lat":43.30474,"lon":5.3653,"is_reserved":false,"is_disabled":false,"rental_uris":{"android":"levelo://app?vid=f0a5bf42-f644-4ab5-9855-d6ce6714832d","ios":"levelo://app?vid=f0a5bf42-f644-4ab5-9855-d6ce6714832d"},"vehicle_type_id":"4","last_reported":1753539002,"current_range_meters":19600,"station_id":"ce4bgs12rcd13ifvqcag","pricing_plan_id":"cebpf4jnsgd1na2vs0mg"},{"bike_id":"730b0172-c089-4078-a171-38b706ff8be3","system_id":"levelo_inurba_marseille","lat":43.28271,"lon":5.3508,"is_reserved":false,"is_disabled":false,"rental_uris":{"android":"levelo://app?vid=730b0172-c089-4078-a171-38b706ff8be3","ios":"levelo://app?vid=730b0172-c089-4078-a171-38b706ff8be3"},"vehicle_type_id":"4","last_reported":1753539002,"current_range_meters":19600,"station_id":"ce4bhbp2rcd13ifvqerg","pricing_plan_id":"cebpf4jnsgd1na2vs0mg"},{"bike_id":"37ec236f-77e5-4cf6-80a5-87bf9f01b183","system_id":"levelo_inurba_marseille","lat":43.23505,"lon":5.36038,"is_reserved":false,"is_disabled":false,"rental_uris":{"android":"levelo://app?vid=37ec236f-77e5-4cf6-80a5-87bf9f01b183","ios":"levelo://app?vid=37ec236f-77e5-4cf6-80a5-87bf9f01b183"},"vehicle_type_id":"4","last_reported":1753539002,"current_range_meters":19600,"station_id":"","pricing_plan_id":"cebpf4jnsgd1na2vs0mg"},{"bike_id":"6c17f6f6-a8d8-4559-a952-a479db4a8339","system_id":"levelo_inurba_marseille","lat":43.23201,"lon":5.35591,"is_reserved":false,"is_disabled":false,"rental_uris":{"android":"levelo://app?vid=6c17f6f6-a8d8-4559-a952-a479db4a8339","ios":"levelo://app?vid=6c17f6f6-a8d8-4559-a952-a479db4a8339"},"vehicle_type_id":"4","last_reported":1753539002,"current_range_meters":19600,"station_id":"ce4bhu92rcd13ifvqi70","pricing_plan_id":"cebpf4jnsgd1na2vs0mg"},{"bike_id":"de371cad-f183-45e5-8b2b-9372798e789a","system_id":"levelo_inurba_marseille","lat":43.2826,"lon":5.35079,"is_reserved":false,"is_disabled":false,"rental_uris":{"android":"levelo://app?vid=de371cad-f183-45e5-8b2b-9372798e789a","ios":"levelo://app?vid=de371cad-f183-45e5-8b2b-9372798e789a"},"vehicle_type_id":"4","last_reported":1753539002,"current_range_meters":19600,"station_id":"ce4bhbp2rcd13ifvqerg","pricing_plan_id":"cebpf4jnsgd1na2vs0mg"},{"bike_id":"25886276-7bf4-4822-a5aa-3fbd734b02a7","system_id":"levelo_inurba_marseille","lat":43.28703,"lon":5.37367,"is_reserved":false,"is_disabled":false,"rental_uris":{"android":"levelo://app?vid=25886276-7bf4-4822-a5aa-3fbd734b02a7","ios":"levelo://app?vid=25886276-7bf4-4822-a5aa-3fbd734b02a7"},"vehicle_type_id":"4","last_reported":1753539002,"current_range_meters":19200,"station_id":"ce4bh3p2rcd13ifvqdq0","pricing_plan_id":"cebpf4jnsgd1na2vs0mg"},{"bike_id":"e5e4e1f6-5bf3-4f7f-ac6a-ca45a6e8be5b","system_id":"levelo_inurba_marseille","lat":43.3053,"lon":5.36511,"is_reserved":false,"is_disabled":false,"rental_uris":{"android":"levelo://app?vid=e5e4e1f6-5bf3-4f7f-ac6a-ca45a6e8be5b","ios":"levelo://app?vid=e5e4e1f6-5bf3-4f7f-ac6a-ca45a6e8be5b"},"vehicle_type_id":"4","last_reported":1753539002,"current_range_meters":19600,"station_id":"ce4bgs12rcd13ifvqcag","pricing_plan_id":"cebpf4jnsgd1na2vs0mg"},{"bike_id":"3152576e-d602-4c3f-980e-717f41aed773","system_id":"levelo_inurba_marseille","lat":43.33737,"lon":5.37465,"is_reserved":false,"is_disabled":false,"rental_uris":{"android":"levelo://app?vid=3152576e-d602-4c3f-980e-717f41aed773","ios":"levelo://app?vid=3152576e-d602-4c3f-980e-717f41aed773"},"vehicle_type_id":"4","last_reported":1753539002,"current_range_meters":19600,"station_id":"","pricing_plan_id":"cebpf4jnsgd1na2vs0mg"},