{"last_updated":1701500763,"ttl":30,"version":"2.2","data":{"bikes":[{"bike_id":"a8435106-7329-4bca-9363-04322549ee76","system_id":"levelo_inurba_marseille","lat":43.313391,"lon":5.36706,"is_reserved":false,"is_disabled":false,"rental_uris":{"android":"levelo://app?vid=a8435106-7329-4bca-9363-04322549ee76","ios":"levelo://app?vid=a8435106-7329-4bca-9363-04322549ee76"},"vehicle_type_id":"4","last_reported":1701500763,"current_range_meters":26000,"station_id":"ce4bgr92rcd13ifvqc6g","pricing_plan_id":"free"},{"bike_id":"726f707e-382f-4ee3-9de7-dae3fa14ae03","system_id":"levelo_inurba_marseille","lat":43.314976,"lon":5.373044,"is_reserved":false,"is_disabled":false,"rental_uris":{"android":"levelo://app?vid=726f707e-382f-4ee3-9de7-dae3fa14ae03","ios":"levelo://app?vid=726f707e-382f-4ee3-9de7-dae3fa14ae03"},"vehicle_type_id":"4","last_reported":1701500763,"current_range_meters":0,"station_id":"ce4bgt12rcd13ifvqcd0","pricing_plan_id":"free"},{"bike_id":"c250ceb4-17f5-435d-bf4d-635ba059999f","system_id":"levelo_inurba_marseille","lat":43.309039,"lon":5.371797,"is_reserved":false,"is_disabled":false,"rental_uris":{"android":"levelo://app?vid=c250ceb4-17f5-435d-bf4d-635ba059999f","ios":"levelo://app?vid=c250ceb4-17f5-435d-bf4d-635ba059999f"},"vehicle_type_id":"4","last_reported":1701500763,"current_range_meters":31200,"station_id":"ce4bguh2rcd13ifvqckg","pricing_plan_id":"free"},{"bike_id":"e98eb580-0759-4230-ad80-44e61349e9e0","system_id":"levelo_inurba_marseille","lat":43.305712,"lon":5.365641,"is_reserved":false,"is_disabled":false,"rental_uris":{"android":"levelo://app?vid=e98eb580-0759-4230-ad80-44e61349e9e0","ios":"levelo://app?vid=e98eb580-0759-4230-ad80-44e61349e9e0"},"vehicle_type_id":"4","last_reported":1701500763,"current_range_meters":24400,"station_id":"ce4bgs12rcd13ifvqcag","pricing_plan_id":"free"},{"bike_id":"df8ed9dd-5083-493f-bcd3-d33b6c6564b9","system_id":"levelo_inurba_marseille","lat":43.305712,"lon":5.365641,"is_reserved":false,"is_disabled":false,"rental_uris":{"android":"levelo://app?vid=df8ed9dd-5083-493f-bcd3-d33b6c6564b9","ios":"levelo://app?vid=df8ed9dd-5083-493f-bcd3-d33b6c6564b9"},"vehicle_type_id":"4","last_reported":1701500763,"current_range_meters":28000,"station_id":"ce4bgs12rcd13ifvqcag","pricing_plan_id":"free"},{"bike_id":"8e2b412b-aad9-42bf-ad73-a1e7f7ef83f0","system_id":"levelo_inurba_marseille","lat":43.305712,"lon":5.365641,"is_reserved":false,"is_disabled":false,"rental_uris":{"android":"levelo://app?vid=8e2b412b-aad9-42bf-ad73-a1e7f7ef83f0","ios":"levelo://app?vid=8e2b412b-aad9-42bf-ad73-a1e7f7ef83f0"},"vehicle_type_id":"4","last_reported":1701500763,"current_range_meters":26400,"station_id":"ce4bgs12rcd13ifvqcag","pricing_plan_id":"free"},{"bike_id":"0d4921e3-7600-46d1-a148-f34bad6adf33","system_id":"levelo_inurba_marseille","lat":43.305368,"lon":5.367343,"is_reserved":false,"is_disabled":false,"rental_uris":{"android":"levelo://app?vid=0d4921e3-7600-46d1-a148-f34bad6adf33","ios":"levelo://app?vid=0d4921e3-7600-46d1-a148-f34bad6adf33"},"vehicle_type_id":"4","last_reported":1701500763,"current_range_meters":21200,"station_id":"ce4bgrp2rcd13ifvqc9g","pricing_plan_id":"free"},{"bike_id":"347eb81c-09d8-487c-a10f-4aeed7e4697e","system_id":"levelo_inurba_marseille","lat":43.305706,"lon":5.365654,"is_reserved":false,"is_disabled":false,"rental_uris":{"android":"levelo://app?vid=347eb81c-09d8-487c-a10f-4aeed7e4697e","ios":"levelo://app?vid=347eb81c-09d8-487c-a10f-4aeed7e4697e"},"vehicle_type_id":"4","last_reported":1701500763,"current_range_meters":29200,"station_id":"ce4bgs12rcd13ifvqcag","pricing_plan_id":"free"},{"bike_id":"d8d534ef-b643-4355-abb6-1175c712746f","system_id":"levelo_inurba_marseille","lat":43.30534,"lon":5.36703,"is_reserved":false,"is_disabled":false,"rental_uris":{"android":"levelo://app?vid=d8d534ef-b643-4355-abb6-1175c712746f","ios":"levelo://app?vid=d8d534ef-b643-4355-abb6-1175c712746f"},"vehicle_type_id":"4","last_reported":1701500763,"current_range_meters":25200,"station_id":"ce4bgrp2rcd13ifvqc9g","pricing_plan_id":"free"},{"bike_id":"fc0e95bf-c0d1-4eae-8f8e-8d09ab8159b9","system_id":"levelo_inurba_marseille","lat":43.305368,"lon":5.367343,"is_reserved":false,"is_disabled":false,"rental_uris":{"android":"levelo://app?vid=fc0e95bf-c0d1-4eae-8f8e-8d09ab8159b9","ios":"levelo://app?vid=fc0e95bf-c0d1-4eae-8f8e-8d09ab8159b9"},"vehicle_type_id":"4","last_reported":1701500763,"current_range_meters":20800,"station_id":"ce4bgrp2rcd13ifvqc9g","pricing_plan_id":"free"},{"bike_id":"94f6c913-8bf4-4879-bafb-44767fcbc1a8","system_id":"levelo_inurba_marseille","lat":43.305706,"lon":5.365654,"is_reserved":false,"is_disabled":false,"rental_uris":{"android":"levelo://app?vid=94f6c913-8bf4-4879-bafb-44767fcbc1a8","ios":"levelo://app?vid=94f6c913-8bf4-4879-bafb-44767fcbc1a8"},"vehicle_type_id":"4","last_reported":1701500763,"current_range_meters":22000,"station_id":"ce4bgs12rcd13ifvqcag","pricing_plan_id":"free"},{"bike_id":"4e6f5d1c-bd9e-419c-aabb-bb75f9aefa42","system_id":"levelo_inurba_marseille","lat":43.305714,"lon":5.365633,"is_reserved":false,"is_disabled":false,"rental_uris":{"android":"levelo://app?vid=4e6f5d1c-bd9e-419c-aabb-bb75f9aefa42","ios":"levelo://app?vid=4e6f5d1c-bd9e-419c-aabb-bb75f9aefa42"},"vehicle_type_id":"4","last_reported":1701500763,"current_range_meters":22800,"station_id":"ce4bgs12rcd13ifvqcag","pricing_plan_id":"free"},{"bike_id":"e7bd8103-096e-4179-a87d-71e961ce1d7a","system_id":"levelo_inurba_marseille","lat":43.305706,"lon":5.365654,"is_reserved":false,"is_disabled":false,"rental_uris":{"android":"levelo://app?vid=e7bd8103-096e-4179-a87d-71e961ce1d7a","ios":"levelo://app?vid=e7bd8103-096e-4179-a87d-71e961ce1d7a"},"vehicle_type_id":"4","last_reported":1701500763,"current_range_meters":26000,"station_id":"ce4bgs12rcd13ifvqcag","pricing_plan_id":"free"},{"bike_id":"23b85a18-04ed-4af9-aad4-f57844ec2d09","system_id":"levelo_inurba_marseille","lat":43.305989,"lon":5.37225,"is_reserved":false,"is_disabled":false,"rental_uris":{"android":"levelo://app?vid=23b85a18-04ed-4af9-aad4-f57844ec2d09","ios":"levelo://app?vid=23b85a18-04ed-4af9-aad4-f57844ec2d09"},"vehicle_type_id":"4","last_reported":1701500763,"current_range_meters":28800,"station_id":"ce4bgqh2rcd13ifvqc4g","pricing_plan_id":"free"},{"bike_id":"472d2878-6175-4fa6-ab1c-5606dff29b5d","system_id":"levelo_inurba_marseille","lat":43.305989,"lon":5.37225,"is_reserved":false,"is_disabled":false,"rental_uris":{"android":"levelo://app?vid=472d2878-6175-4fa6-ab1c-5606dff29b5d","ios":"levelo://app?vid=472d2878-6175-4fa6-ab1c-5606dff29b5d"},"vehicle_type_id":"4","last_reported":1701500763,"current_range_meters":29200,"station_id":"ce4bgqh2rcd13ifvqc4g","pricing_plan_id":"free"},{"bike_id":"7bdbcfe9-924e-49e5-849f-fb7276f261aa","system_id":"levelo_inurba_marseille","lat":43.31055,"lon":5.377404,"is_reserved":false,"is_disabled":false,"rental_uris":{"android":"levelo://app?vid=7bdbcfe9-924e-49e5-849f-fb7276f261aa","ios":"levelo://app?vid=7bdbcfe9-924e-49e5-849f-fb7276f261aa"},"vehicle_type_id":"4","last_reported":1701500763,"current_range_meters":7200,"station_id":"","pricing_plan_id":"free"},{"bike_id":"b6756954-57f2-4f72-8684-210644fc26c2","system_id":"levelo_inurba_marseille","lat":43.311237,"lon":5.377634,"is_reserved":false,"is_disabled":false,"rental_uris":{"android":"levelo://app?vid=b6756954-57f2-4f72-8684-210644fc26c2","ios":"levelo://app?vid=b6756954-57f2-4f72-8684-210644fc26c2"},"vehicle_type_id":"4","last_reported":1701500763,"current_range_meters":2400,"station_id":"ce4bgt92rcd13ifvqcg0","pricing_plan_id":"free"},{"bike_id":"0db8f7ea-57ca-4c71-aa38-b1046508f9ef","system_id":"levelo_inurba_marseille","lat":43.311125,"lon":5.377624,"is_reserved":false,"is_disabled":false,"rental_uris":{"android":"levelo://app?vid=0db8f7ea-57ca-4c71-aa38-b1046508f9ef","ios":"levelo://app?vid=0db8f7ea-57ca-4c71-aa38-b1046508f9ef"},"vehicle_type_id":"4","last_reported":1701500763,"current_range_meters":22400,"station_id":"ce4bgt92rcd13ifvqcg0","pricing_plan_id":"free"},{"bike_id":"0fc726e2-9c47-4801-a40b-116b1db695e9","system_id":"levelo_inurba_marseille","lat":43.31111,"lon":5.3777,"is_reserved":false,"is_disabled":false,"rental_uris":{"android":"levelo://app?vid=0fc726e2-9c47-4801-a40b-116b1db695e9","ios":"levelo://app?vid=0fc726e2-9c47-4801-a40b-116b1db695e9"},"vehicle_type_id":"4","last_reported":1701500763,"current_range_meters":17200,"station_id":"ce4bgt92rcd13ifvqcg0","pricing_plan_id":"free"},{"bike_id":"ab1a45bc-5c86-4dc9-86c5-b3cdd9eb5b1a","system_id":"levelo_inurba_marseille","lat":43.32038,"lon":5.3717,"is_reserved":false,"is_disabled":false,"rental_uris":{"android":"levelo://app?vid=ab1a45bc-5c86-4dc9-86c5-b3cdd9eb5b1a","ios":"levelo://app?vid=ab1a45bc-5c86-4dc9-86c5-b3cdd9eb5b1a"},"vehicle_type_id":"4","last_reported":1701500763,"current_range_meters":0,"station_id":"","pricing_plan_id":"free"},{"bike_id":"cfd3bb51-5657-4943-be4a-4ca2f802bb01","system_id":"levelo_inurba_marseille","lat":43.308165,"lon":5.376656,"is_reserved":false,"is_disabled":false,"rental_uris":{"android":"levelo://app?vid=cfd3bb51-5657-4943-be4a-4ca2f802bb01","ios":"levelo://app?vid=cfd3bb51-5657-4943-be4a-4ca2f802bb01"},"vehicle_type_id":"4","last_reported":1701500763,"current_range_meters":12000,"station_id":"ce4bgv92rcd13ifvqcq0","pricing_plan_id":"free"},{"bike_id":"f427a2c3-6e4a-446b-ae2f-9be8aa7f4122","system_id":"levelo_inurba_marseille","lat":43.31719,"lon":5.376813,"is_reserved":false,"is_disabled":false,"rental_uris":{"android":"levelo://app?vid=f427a2c3-6e4a-446b-ae2f-9be8aa7f4122","ios":"levelo://app?vid=f427a2c3-6e4a-446b-ae2f-9be8aa7f4122"},"vehicle_type_id":"4","last_reported":1701500763,"current_range_meters":0,"station_id":"","pricing_plan_id":"free"},{"bike_id":"e913f328-1e31-4c22-bd87-f809ea246de4","system_id":"levelo_inurba_marseille","lat":43.317168,"lon":5.376883,"is_reserved":false,"is_disabled":false,"rental_uris":{"android":"levelo://app?vid=e913f328-1e31-4c22-bd87-f809ea246de4","ios":"levelo://app?vid=e913f328-1e31-4c22-bd87-f809ea246de4"},"vehicle_type_id":"4","last_reported":1701500763,"current_range_meters":1200,"station_id":"","pricing_plan_id":"free"},{"bike_id":"016cf6d8-febc-4a39-b584-d99d4927b6d7","system_id":"levelo_inurba_marseille","lat":43.307945,"lon":5.376487,"is_reserved":false,"is_disabled":false,"rental_uris":{"android":"levelo://app?vid=016cf6d8-febc-4a39-b584-d99d4927b6d7","ios":"levelo://app?vid=016cf6d8-febc-4a39-b584-d99d4927b6d7"},"vehicle_type_id":"4","last_reported":1701500763,"current_range_meters":28000,"station_id":"ce4bgv92rcd13ifvqcq0","pricing_plan_id":"free"},{"bike_id":"6347e083-648a-4823-9e56-6c63431da41b","system_id":"levelo_inurba_marseille","lat":43.307945,"lon":5.376487,"is_reserved":false,"is_disabled":false,"rental_uris":{"android":"levelo://app?vid=6347e083-648a-4823-9e56-6c63431da41b","ios":"levelo://app?vid=6347e083-648a-4823-9e56-6c63431da41b"},"vehicle_type_id":"4","last_reported":1701500763,"current_range_meters":26400,"station_id":"ce4bgv92rcd13ifvqcq0","pricing_plan_id":"free"},{"bike_id":"b5b924cc-90b5-44be-a54f-a03b9368df8f","system_id":"levelo_inurba_marseille","lat":43.307945,"lon":5.376487,"is_reserved":false,"is_disabled":false,"rental_uris":{"android":"levelo://app?vid=b5b924cc-90b5-44be-a54f-a03b9368df8f","ios":"levelo://app?vid=b5b924cc-90b5-44be-a54f-a03b9368df8f"},"vehicle_type_id":"4","last_reported":1701500763,"current_range_meters":25200,"station_id":"ce4bgv92rcd13ifvqcq0","pricing_plan_id":"free"},{"bike_id":"3cf1b362-621e-4d10-ad89-2014ac3baf3b","system_id":"levelo_inurba_marseille","lat":43.317075,"lon":5.377367,"is_reserved":false,"is_disabled":false,"rental_uris":{"android":"levelo://app?vid=3cf1b362-621e-4d10-ad89-2014ac3baf3b","ios":"levelo://app?vid=3cf1b362-621e-4d10-ad89-2014ac3baf3b"},"vehicle_type_id":"4","last_reported":1701500763,"current_range_meters":27200,"station_id":"ce4bgth2rcd13ifvqch0","pricing_plan_id":"free"},{"bike_id":"fb6fd937-527b-4585-9058-0dfdc6436ac8","system_id":"levelo_inurba_marseille","lat":43.31351,"lon":5.37909,"is_reserved":false,"is_disabled":false,"rental_uris":{"android":"levelo://app?vid=fb6fd937-527b-4585-9058-0dfdc6436ac8","ios":"levelo://app?vid=fb6fd937-527b-4585-9058-0dfdc6436ac8"},"vehicle_type_id":"4","last_reported":1701500763,"current_range_meters":22800,"station_id":"","pricing_plan_id":"free"},{"bike_id":"92d8af04-b91c-4fe9-87f2-3d7cc202feb7","system_id":"levelo_inurba_marseille","lat":43.317075,"lon":5.377367,"is_reserved":false,"is_disabled":false,"rental_uris":{"android":"levelo://app?vid=92d8af04-b91c-4fe9-87f2-3d7cc202feb7","ios":"levelo://app?vid=92d8af04-b91c-4fe9-87f2-3d7cc202feb7"},"vehicle_type_id":"4","last_reported":1701500763,"current_range_meters":24800,"station_id":"ce4bgth2rcd13ifvqch0","pricing_plan_id":"free"},{"bike_id":"593babd9-c3d2-4b6a-af9f-be560bf08fbf","system_id":"levelo_inurba_marseille","lat":43.308635,"lon":5.37898,"is_reserved":false,"is_disabled":false,"rental_uris":{"android":"levelo://app?vid=593babd9-c3d2-4b6a-af9f-be560bf08fbf","ios":"levelo://app?vid=593babd9-c3d2-4b6a-af9f-be560bf08fbf"},"vehicle_type_id":"4","last_reported":1701500763,"current_range_meters":3600,"station_id":"","pricing_plan_id":"free"},{"bike_id":"194ff67d-738d-48c1-a517-c6d5095fe7b4","system_id":"levelo_inurba_marseille","lat":43.315302,"lon":5.380413,"is_reserved":false,"is_disabled":false,"rental_uris":{"android":"levelo://app?vid=194ff67d-738d-48c1-a517-c6d5095fe7b4","ios":"levelo://app?vid=194ff67d-738d-48c1-a517-c6d5095fe7b4"},"vehicle_type_id":"4","last_reported":1701500763,"current_range_meters":17600,"station_id":"ce4bhsp2rcd13ifvqi50","pricing_plan_id":"free"},{"bike_id":"ee619e24-4069-4ced-9f68-7dfd9fbc3f39","system_id":"levelo_inurba_marseille","lat":43.304606,"lon":5.379026,"is_reserved":false,"is_disabled":false,"rental_uris":{"android":"levelo://app?vid=ee619e24-4069-4ced-9f68-7dfd9fbc3f39","ios":"levelo://app?vid=ee619e24-4069-4ced-9f68-7dfd9fbc3f39"},"vehicle_type_id":"4","last_reported":1701500763,"current_range_meters":30000,"station_id":"ce4bgup2rcd13ifvqcn0","pricing_plan_id":"free"},{"bike_id":"c6d52433-ae1f-4f2e-bf9c-c4fbac3abb8d","system_id":"levelo_inurba_marseille","lat":43.304606,"lon":5.379026,"is_reserved":false,"is_disabled":false,"rental_uris":{"android":"levelo://app?vid=c6d52433-ae1f-4f2e-bf9c-c4fbac3abb8d","ios":"levelo://app?vid=c6d52433-ae1f-4f2e-bf9c-c4fbac3abb8d"},"vehicle_type_id":"4","last_reported":1701500763,"current_range_meters":16000,"station_id":"ce4bgup2rcd13ifvqcn0","pricing_plan_id":"free"},{"bike_id":"fccd31c7-a9fc-4221-9434-82baae76a9e4","system_id":"levelo_inurba_marseille","lat":43.304606,"lon":5.379026,"is_reserved":false,"is_disabled":false,"rental_uris":{"android":"levelo://app?vid=fccd31c7-a9fc-4221-9434-82baae76a9e4","ios":"levelo://app?vid=fccd31c7-a9fc-4221-9434-82baae76a9e4"},"vehicle_type_id":"4","last_reported":1701500763,"current_range_meters":21200,"station_id":"ce4bgup2rcd13ifvqcn0","pricing_plan_id":"free"},{"bike_id":"b2f0af68-5b9f-4fe9-abc8-dee4734637cb","system_id":"levelo_inurba_marseille","lat":43.304606,"lon":5.379026,"is_reserved":false,"is_disabled":false,"rental_uris":{"android":"levelo://app?vid=b2f0af68-5b9f-4fe9-abc8-dee4734637cb","ios":"levelo://app?vid=b2f0af68-5b9f-4fe9-abc8-dee4734637cb"},"vehicle_type_id":"4","last_reported":1701500763,"current_range_meters":30000,"station_id":"ce4bgup2rcd13ifvqcn0","pricing_plan_id":"free"},{"bike_id":"d3808db5-19ec-4618-939a-996e24161832","system_id":"levelo_inurba_marseille","lat":43.30458,"lon":5.37901,"is_reserved":false,"is_disabled":false,"rental_uris":{"android":"levelo://app?vid=d3808db5-19ec-4618-939a-996e24161832","ios":"levelo://app?vid=d3808db5-19ec-4618-939a-996e24161832"},"vehicle_type_id":"4","last_reported":1701500763,"current_range_meters":28000,"station_id":"ce4bgup2rcd13ifvqcn0","pricing_plan_id":"free"},{"bike_id":"12e46c86-a00b-4037-b5f1-6a4e3adac05c","system_id":"levelo_inurba_marseille","lat":43.304606,"lon":5.379026,"is_reserved":false,"is_disabled":false,"rental_uris":{"android":"levelo://app?vid=12e46c86-a00b-4037-b5f1-6a4e3adac05c","ios":"levelo://app?vid=12e46c86-a00b-4037-b5f1-6a4e3adac05c"},"vehicle_type_id":"4","last_reported":1701500763,"current_range_meters":27200,"station_id":"ce4bgup2rcd13ifvqcn0","pricing_plan_id":"free"},{"bike_id":"37909269-d6aa-4be8-8729-69ab4ad4383d","system_id":"levelo_inurba_marseille","lat":43.304606,"lon":5.379026,"is_reserved":false,"is_disabled":false,"rental_uris":{"android":"levelo://app?vid=37909269-d6aa-4be8-8729-69ab4ad4383d","ios":"levelo://app?vid=37909269-d6aa-4be8-8729-69ab4ad4383d"},"vehicle_type_id":"4","last_reported":1701500763,"current_range_meters":1600,"station_id":"ce4bgup2rcd13ifvqcn0","pricing_plan_id":"free"},{"bike_id":"a6475a8a-11b3-4af0-85f3-fd2cabbfdd22","system_id":"levelo_inurba_marseille","lat":43.32474,"lon":5.36558,"is_reserved":false,"is_disabled":false,"rental_uris":{"android":"levelo://app?vid=a6475a8a-11b3-4af0-85f3-fd2cabbfdd22","ios":"levelo://app?vid=a6475a8a-11b3-4af0-85f3-fd2cabbfdd22"},"vehicle_type_id":"4","last_reported":1701500763,"current_range_meters":19200,"station_id":"ce4bhs12rcd13ifvqhvg","pricing_plan_id":"free"},{"bike_id":"6c0095e5-a092-47ca-a0e6-d87953fd4acb","system_id":"levelo_inurba_marseille","lat":43.304606,"lon":5.379026,"is_reserved":false,"is_disabled":false,"rental_uris":{"android":"levelo://app?vid=6c0095e5-a092-47ca-a0e6-d87953fd4acb","ios":"levelo://app?vid=6c0095e5-a092-47ca-a0e6-d87953fd4acb"},"vehicle_type_id":"4","last_reported":1701500763,"current_range_meters":17600,"station_id":"ce4bgup2rcd13ifvqcn0","pricing_plan_id":"free"},{"bike_id":"e56c4c03-d6ac-416d-8380-bbaf7fb49559","system_id":"levelo_inurba_marseille","lat":43.324771,"lon":5.36557,"is_reserved":false,"is_disabled":false,"rental_uris":{"android":"levelo://app?vid=e56c4c03-d6ac-416d-8380-bbaf7fb49559","ios":"levelo://app?vid=e56c4c03-d6ac-416d-8380-bbaf7fb49559"},"vehicle_type_id":"4","last_reported":1701500763,"current_range_meters":3600,"station_id":"ce4bhs12rcd13ifvqhvg","pricing_plan_id":"free"},{"bike_id":"19dcde97-826d-4c77-b8cf-d90ba7f775b0","system_id":"levelo_inurba_marseille","lat":43.324771,"lon":5.36557,"is_reserved":false,"is_disabled":false,"rental_uris":{"android":"levelo://app?vid=19dcde97-826d-4c77-b8cf-d90ba7f775b0","ios":"levelo://app?vid=19dcde97-826d-4c77-b8cf-d90ba7f775b0"},"vehicle_type_id":"4","last_reported":1701500763,"current_range_meters":15200,"station_id":"ce4bhs12rcd13ifvqhvg","pricing_plan_id":"free"},{"bike_id":"c8487d0e-259a-47b3-acde-475d6b8cf58e","system_id":"levelo_inurba_marseille","lat":43.302784,"lon":5.377158,"is_reserved":false,"is_disabled":false,"rental_uris":{"android":"levelo://app?vid=c8487d0e-259a-47b3-acde-475d6b8cf58e","ios":"levelo://app?vid=c8487d0e-259a-47b3-acde-475d6b8cf58e"},"vehicle_type_id":"4","last_reported":1701500763,"current_range_meters":24000,"station_id":"ce4bguh2rcd13ifvqcj0","pricing_plan_id":"free"},{"bike_id":"2275aca5-3158-4c2c-8022-ca5d2714bc86","system_id":"levelo_inurba_marseille","lat":43.319997,"lon":5.381594,"is_reserved":false,"is_disabled":false,"rental_uris":{"android":"levelo://app?vid=2275aca5-3158-4c2c-8022-ca5d2714bc86","ios":"levelo://app?vid=2275aca5-3158-4c2c-8022-ca5d2714bc86"},"vehicle_type_id":"4","last_reported":1701500763,"current_range_meters":16400,"station_id":"ce4bhr12rcd13ifvqhpg","pricing_plan_id":"free"},{"bike_id":"6a325d43-43fa-4b6f-9467-2c1a49ad3a1e","system_id":"levelo_inurba_marseille","lat":43.313571,"lon":5.384829,"is_reserved":false,"is_disabled":false,"rental_uris":{"android":"levelo://app?vid=6a325d43-43fa-4b6f-9467-2c1a49ad3a1e","ios":"levelo://app?vid=6a325d43-43fa-4b6f-9467-2c1a49ad3a1e"},"vehicle_type_id":"4","last_reported":1701500763,"current_range_meters":21200,"station_id":"ce4bgt92rcd13ifvqcf0","pricing_plan_id":"free"},{"bike_id":"3240a428-be7b-4ff5-97ee-35180b1dbf71","system_id":"levelo_inurba_marseille","lat":43.313571,"lon":5.384829,"is_reserved":false,"is_disabled":false,"rental_uris":{"android":"levelo://app?vid=3240a428-be7b-4ff5-97ee-35180b1dbf71","ios":"levelo://app?vid=3240a428-be7b-4ff5-97ee-35180b1dbf71"},"vehicle_type_id":"4","last_reported":1701500763,"current_range_meters":31200,"station_id":"ce4bgt92rcd13ifvqcf0","pricing_plan_id":"free"},{"bike_id":"79bb6607-cc78-4995-9caf-aebfa08ae6a3","system_id":"levelo_inurba_marseille","lat":43.313571,"lon":5.384829,"is_reserved":false,"is_disabled":false,"rental_uris":{"android":"levelo://app?vid=79bb6607-cc78-4995-9caf-aebfa08ae6a3","ios":"levelo://app?vid=79bb6607-cc78-4995-9caf-aebfa08ae6a3"},"vehicle_type_id":"4","last_reported":1701500763,"current_range_meters":30800,"station_id":"ce4bgt92rcd13ifvqcf0","pricing_plan_id":"free"},{"bike_id":"9fdb7f97-586d-42d2-befd-15216ba2e422","system_id":"levelo_inurba_marseille","lat":43.31183,"lon":5.38523,"is_reserved":false,"is_disabled":false,"rental_uris":{"android":"levelo://app?vid=9fdb7f97-586d-42d2-befd-15216ba2e422","ios":"levelo://app?vid=9fdb7f97-586d-42d2-befd-15216ba2e422"},"vehicle_type_id":"4","last_reported":1701500763,"current_range_meters":2400,"station_id":"","pricing_plan_id":"free"},{"bike_id":"748d12ab-8e09-4ecd-b2d2-cbe0ea9624f6","system_id":"levelo_inurba_marseille","lat":43.298521,"lon":5.367559,"is_reserved":false,"is_disabled":false,"rental_uris":{"android":"levelo://app?vid=748d12ab-8e09-4ecd-b2d2-cbe0ea9624f6","ios":"levelo://app?vid=748d12ab-8e09-4ecd-b2d2-cbe0ea9624f6"},"vehicle_type_id":"4","last_reported":1701500763,"current_range_meters":7600,"station_id":"","pricing_plan_id":"free"},{"bike_id":"4a4eb50c-75bb-4e6b-9faa-8e5527e44948","system_id":"levelo_inurba_marseille","lat":43.311609,"lon":5.38685,"is_reserved":false,"is_disabled":false,"rental_uris":{"android":"levelo://app?vid=4a4eb50c-75bb-4e6b-9faa-8e5527e44948","ios":"levelo://app?vid=4a4eb50c-75bb-4e6b-9faa-8e5527e44948"},"vehicle_type_id":"4","last_reported":1701500763,"current_range_meters":5200,"station_id":"ce4bgv12rcd13ifvqcp0","pricing_plan_id":"free"},{"bike_id":"1f3f095c-5df7-40e2-a625-ff731d2757f1","system_id":"levelo_inurba_marseille","lat":43.299243,"lon":5.37481,"is_reserved":false,"is_disabled":false,"rental_uris":{"android":"levelo://app?vid=1f3f095c-5df7-40e2-a625-ff731d2757f1","ios":"levelo://app?vid=1f3f095c-5df7-40e2-a625-ff731d2757f1"},"vehicle_type_id":"4","last_reported":1701500763,"current_range_meters":28400,"station_id":"ce4bgjh2rcd13ifvqbg0","pricing_plan_id":"free"},{"bike_id":"fb861d31-3608-471e-bcf7-f64a2c81bd8a","system_id":"levelo_inurba_marseille","lat":43.297794,"lon":5.370888,"is_reserved":false,"is_disabled":false,"rental_uris":{"android":"levelo://app?vid=fb861d31-3608-471e-bcf7-f64a2c81bd8a","ios":"levelo://app?vid=fb861d31-3608-471e-bcf7-f64a2c81bd8a"},"vehicle_type_id":"4","last_reported":1701500763,"current_range_meters":30000,"station_id":"ce4bgop2rcd13ifvqc1g","pricing_plan_id":"free"},{"bike_id":"8b448fe8-eefb-4ea1-8528-34e6e9e0ae0c","system_id":"levelo_inurba_marseille","lat":43.297774,"lon":5.370875,"is_reserved":false,"is_disabled":false,"rental_uris":{"android":"levelo://app?vid=8b448fe8-eefb-4ea1-8528-34e6e9e0ae0c","ios":"levelo://app?vid=8b448fe8-eefb-4ea1-8528-34e6e9e0ae0c"},"vehicle_type_id":"4","last_reported":1701500763,"current_range_meters":30400,"station_id":"ce4bgop2rcd13ifvqc1g","pricing_plan_id":"free"},{"bike_id":"863e68e6-f678-4404-9035-1f0c001016cb","system_id":"levelo_inurba_marseille","lat":43.328086,"lon":5.366825,"is_reserved":false,"is_disabled":false,"rental_uris":{"android":"levelo://app?vid=863e68e6-f678-4404-9035-1f0c001016cb","ios":"levelo://app?vid=863e68e6-f678-4404-9035-1f0c001016cb"},"vehicle_type_id":"4","last_reported":1701500763,"current_range_meters":18400,"station_id":"ce4bhs92rcd13ifvqi0g","pricing_plan_id":"free"},{"bike_id":"65073be3-64d5-4947-9113-fd11101b78dd","system_id":"levelo_inurba_marseille","lat":43.322872,"lon":5.382756,"is_reserved":false,"is_disabled":false,"rental_uris":{"android":"levelo://app?vid=65073be3-64d5-4947-9113-fd11101b78dd","ios":"levelo://app?vid=65073be3-64d5-4947-9113-fd11101b78dd"},"vehicle_type_id":"4","last_reported":1701500763,"current_range_meters":10000,"station_id":"ce4bhr12rcd13ifvqhqg","pricing_plan_id":"free"},{"bike_id":"3c6eacad-63e8-42f7-9988-09cf64b64dd8","system_id":"levelo_inurba_marseille","lat":43.328371,"lon":5.366909,"is_reserved":false,"is_disabled":false,"rental_uris":{"android":"levelo://app?vid=3c6eacad-63e8-42f7-9988-09cf64b64dd8","ios":"levelo://app?vid=3c6eacad-63e8-42f7-9988-09cf64b64dd8"},"vehicle_type_id":"4","last_reported":1701500763,"current_range_meters":9200,"station_id":"ce4bhs92rcd13ifvqi0g","pricing_plan_id":"free"},{"bike_id":"5c26bdfb-7b7c-43fb-8a01-250128a1a6f8","system_id":"levelo_inurba_marseille","lat":43.328371,"lon":5.366909,"is_reserved":false,"is_disabled":false,"rental_uris":{"android":"levelo://app?vid=5c26bdfb-7b7c-43fb-8a01-250128a1a6f8","ios":"levelo://app?vid=5c26bdfb-7b7c-43fb-8a01-250128a1a6f8"},"vehicle_type_id":"4","last_reported":1701500763,"current_range_meters":22000,"station_id":"ce4bhs92rcd13ifvqi0g","pricing_plan_id":"free"},{"bike_id":"c0284961-478e-4ccd-b43e-321d6e4c5580","system_id":"levelo_inurba_marseille","lat":43.328371,"lon":5.366909,"is_reserved":false,"is_disabled":false,"rental_uris":{"android":"levelo://app?vid=c0284961-478e-4ccd-b43e-321d6e4c5580","ios":"levelo://app?vid=c0284961-478e-4ccd-b43e-321d6e4c5580"},"vehicle_type_id":"4","last_reported":1701500763,"current_range_meters":4000,"station_id":"ce4bhs92rcd13ifvqi0g","pricing_plan_id":"free"},{"bike_id":"8dfb8556-c118-4aa5-9d02-f1f29333e064","system_id":"levelo_inurba_marseille","lat":43.2968,"lon":5.37291,"is_reserved":false,"is_disabled":false,"rental_uris":{"android":"levelo://app?vid=8dfb8556-c118-4aa5-9d02-f1f29333e064","ios":"levelo://app?vid=8dfb8556-c118-4aa5-9d02-f1f29333e064"},"vehicle_type_id":"4","last_reported":1701500763,"current_range_meters":28000,"station_id":"ce4bgk12rcd13ifvqbj0","pricing_plan_id":"free"},{"bike_id":"eaa0e7e7-2390-47fa-909b-7b240952cbef","system_id":"levelo_inurba_marseille","lat":43.316595,"lon":5.389136,"is_reserved":false,"is_disabled":false,"rental_uris":{"android":"levelo://app?vid=eaa0e7e7-2390-47fa-909b-7b240952cbef","ios":"levelo://app?vid=eaa0e7e7-2390-47fa-909b-7b240952cbef"},"vehicle_type_id":"4","last_reported":1701500763,"current_range_meters":18000,"station_id":"","pricing_plan_id":"free"},{"bike_id":"030a3a88-a1f7-48c4-b822-068e625025d9","system_id":"levelo_inurba_marseille","lat":43.29573,"lon":5.367355,"is_reserved":false,"is_disabled":false,"rental_uris":{"android":"levelo://app?vid=030a3a88-a1f7-48c4-b822-068e625025d9","ios":"levelo://app?vid=030a3a88-a1f7-48c4-b822-068e625025d9"},"vehicle_type_id":"4","last_reported":1701500763,"current_range_meters":27200,"station_id":"ce4bgph2rcd13ifvqc2g","pricing_plan_id":"free"},{"bike_id":"c9a793b6-383f-4ac4-bb57-1a38a504f0fb","system_id":"levelo_inurba_marseille","lat":43.317557,"lon":5.390173,"is_reserved":false,"is_disabled":false,"rental_uris":{"android":"levelo://app?vid=c9a793b6-383f-4ac4-bb57-1a38a504f0fb","ios":"levelo://app?vid=c9a793b6-383f-4ac4-bb57-1a38a504f0fb"},"vehicle_type_id":"4","last_reported":1701500763,"current_range_meters":31200,"station_id":"ce4bhqp2rcd13ifvqhng","pricing_plan_id":"free"},{"bike_id":"e5f26c5e-2074-4536-953e-a3eb912ac3be","system_id":"levelo_inurba_marseille","lat":43.317557,"lon":5.390173,"is_reserved":false,"is_disabled":false,"rental_uris":{"android":"levelo://app?vid=e5f26c5e-2074-4536-953e-a3eb912ac3be","ios":"levelo://app?vid=e5f26c5e-2074-4536-953e-a3eb912ac3be"},"vehicle_type_id":"4","last_reported":1701500763,"current_range_meters":7200,"station_id":"ce4bhqp2rcd13ifvqhng","pricing_plan_id":"free"},{"bike_id":"7bcd35e6-44e8-4083-bf96-9a8c7d65b8b9","system_id":"levelo_inurba_marseille","lat":43.298037,"lon":5.381066,"is_reserved":false,"is_disabled":false,"rental_uris":{"android":"levelo://app?vid=7bcd35e6-44e8-4083-bf96-9a8c7d65b8b9","ios":"levelo://app?vid=7bcd35e6-44e8-4083-bf96-9a8c7d65b8b9"},"vehicle_type_id":"4","last_reported":1701500763,"current_range_meters":30400,"station_id":"ce4bgip2rcd13ifvqbb0","pricing_plan_id":"free"},{"bike_id":"586fee39-68f0-4d87-b9a0-1d51fc40f0f8","system_id":"levelo_inurba_marseille","lat":43.298037,"lon":5.381066,"is_reserved":false,"is_disabled":false,"rental_uris":{"android":"levelo://app?vid=586fee39-68f0-4d87-b9a0-1d51fc40f0f8","ios":"levelo://app?vid=586fee39-68f0-4d87-b9a0-1d51fc40f0f8"},"vehicle_type_id":"4","last_reported":1701500763,"current_range_meters":31200,"station_id":"ce4bgip2rcd13ifvqbb0","pricing_plan_id":"free"},{"bike_id":"d5da257f-3554-4b57-884c-3c7ced803996","system_id":"levelo_inurba_marseille","lat":43.304274,"lon":5.388873,"is_reserved":false,"is_disabled":false,"rental_uris":{"android":"levelo://app?vid=d5da257f-3554-4b57-884c-3c7ced803996","ios":"levelo://app?vid=d5da257f-3554-4b57-884c-3c7ced803996"},"vehicle_type_id":"4","last_reported":1701500763,"current_range_meters":30000,"station_id":"ce4bgk12rcd13ifvqbi0","pricing_plan_id":"free"},{"bike_id":"a1c95082-a1c4-4780-9926-d3b509a6b2fa","system_id":"levelo_inurba_marseille","lat":43.298037,"lon":5.381066,"is_reserved":false,"is_disabled":false,"rental_uris":{"android":"levelo://app?vid=a1c95082-a1c4-4780-9926-d3b509a6b2fa","ios":"levelo://app?vid=a1c95082-a1c4-4780-9926-d3b509a6b2fa"},"vehicle_type_id":"4","last_reported":1701500763,"current_range_meters":29600,"station_id":"ce4bgip2rcd13ifvqbb0","pricing_plan_id":"free"},{"bike_id":"fde3d4ba-8d08-4c85-a26d-cb3ca7c40d7c","system_id":"levelo_inurba_marseille","lat":43.298037,"lon":5.381066,"is_reserved":false,"is_disabled":false,"rental_uris":{"android":"levelo://app?vid=fde3d4ba-8d08-4c85-a26d-cb3ca7c40d7c","ios":"levelo://app?vid=fde3d4ba-8d08-4c85-a26d-cb3ca7c40d7c"},"vehicle_type_id":"4","last_reported":1701500763,"current_range_meters":24800,"station_id":"ce4bgip2rcd13ifvqbb0","pricing_plan_id":"free"},{"bike_id":"13ca97e5-82b5-4e06-8d78-e9793b7e594e","system_id":"levelo_inurba_marseille","lat":43.297142,"lon":5.379705,"is_reserved":false,"is_disabled":false,"rental_uris":{"android":"levelo://app?vid=13ca97e5-82b5-4e06-8d78-e9793b7e594e","ios":"levelo://app?vid=13ca97e5-82b5-4e06-8d78-e9793b7e594e"},"vehicle_type_id":"4","last_reported":1701500763,"current_range_meters":20000,"station_id":"","pricing_plan_id":"free"},{"bike_id":"5ad9d792-ab27-4b13-93b9-8f3c8e62744d","system_id":"levelo_inurba_marseille","lat":43.299916,"lon":5.384996,"is_reserved":false,"is_disabled":false,"rental_uris":{"android":"levelo://app?vid=5ad9d792-ab27-4b13-93b9-8f3c8e62744d","ios":"levelo://app?vid=5ad9d792-ab27-4b13-93b9-8f3c8e62744d"},"vehicle_type_id":"4","last_reported":1701500763,"current_range_meters":22000,"station_id":"ce4bh092rcd13ifvqd20","pricing_plan_id":"free"},{"bike_id":"24c08b2a-087a-493d-9325-e435454850da","system_id":"levelo_inurba_marseille","lat":43.29601,"lon":5.381084,"is_reserved":false,"is_disabled":false,"rental_uris":{"android":"levelo://app?vid=24c08b2a-087a-493d-9325-e435454850da","ios":"levelo://app?vid=24c08b2a-087a-493d-9325-e435454850da"},"vehicle_type_id":"4","last_reported":1701500763,"current_range_meters":26000,"station_id":"ce4bgl12rcd13ifvqbo0","pricing_plan_id":"free"},{"bike_id":"e8c19fa2-18c4-40b4-ae4b-468faa9b7446","system_id":"levelo_inurba_marseille","lat":43.293009,"lon":5.374584,"is_reserved":false,"is_disabled":false,"rental_uris":{"android":"levelo://app?vid=e8c19fa2-18c4-40b4-ae4b-468faa9b7446","ios":"levelo://app?vid=e8c19fa2-18c4-40b4-ae4b-468faa9b7446"},"vehicle_type_id":"4","last_reported":1701500763,"current_range_meters":31200,"station_id":"ce4bgi12rcd13ifvqb70","pricing_plan_id":"free"},{"bike_id":"eb024d90-a556-4742-8439-aabe2b258658","system_id":"levelo_inurba_marseille","lat":43.293009,"lon":5.374584,"is_reserved":false,"is_disabled":false,"rental_uris":{"android":"levelo://app?vid=eb024d90-a556-4742-8439-aabe2b258658","ios":"levelo://app?vid=eb024d90-a556-4742-8439-aabe2b258658"},"vehicle_type_id":"4","last_reported":1701500763,"current_range_meters":14000,"station_id":"ce4bgi12rcd13ifvqb70","pricing_plan_id":"free"},{"bike_id":"1a01cd71-bffe-4fab-8d40-71f2a9c3bb4d","system_id":"levelo_inurba_marseille","lat":43.293009,"lon":5.374584,"is_reserved":false,"is_disabled":false,"rental_uris":{"android":"levelo://app?vid=1a01cd71-bffe-4fab-8d40-71f2a9c3bb4d","ios":"levelo://app?vid=1a01cd71-bffe-4fab-8d40-71f2a9c3bb4d"},"vehicle_type_id":"4","last_reported":1701500763,"current_range_meters":29600,"station_id":"ce4bgi12rcd13ifvqb70","pricing_plan_id":"free"},{"bike_id":"09993f15-e3e3-42b3-9a84-f3c3609f169d","system_id":"levelo_inurba_marseille","lat":43.305994,"lon":5.393687,"is_reserved":false,"is_disabled":false,"rental_uris":{"android":"levelo://app?vid=09993f15-e3e3-42b3-9a84-f3c3609f169d","ios":"levelo://app?vid=09993f15-e3e3-42b3-9a84-f3c3609f169d"},"vehicle_type_id":"4","last_reported":1701500763,"current_range_meters":27200,"station_id":"ce4bh0p2rcd13ifvqd80","pricing_plan_id":"free"},{"bike_id":"4fa94223-eff4-4e1b-a7b3-4721360c0b34","system_id":"levelo_inurba_marseille","lat":43.305994,"lon":5.393687,"is_reserved":false,"is_disabled":false,"rental_uris":{"android":"levelo://app?vid=4fa94223-eff4-4e1b-a7b3-4721360c0b34","ios":"levelo://app?vid=4fa94223-eff4-4e1b-a7b3-4721360c0b34"},"vehicle_type_id":"4","last_reported":1701500763,"current_range_meters":24400,"station_id":"ce4bh0p2rcd13ifvqd80","pricing_plan_id":"free"},{"bike_id":"c830a766-635c-420f-9d9f-623674a96387","system_id":"levelo_inurba_marseille","lat":43.305994,"lon":5.393687,"is_reserved":false,"is_disabled":false,"rental_uris":{"android":"levelo://app?vid=c830a766-635c-420f-9d9f-623674a96387","ios":"levelo://app?vid=c830a766-635c-420f-9d9f-623674a96387"},"vehicle_type_id":"4","last_reported":1701500763,"current_range_meters":23200,"station_id":"ce4bh0p2rcd13ifvqd80","pricing_plan_id":"free"},{"bike_id":"664e3fbb-3583-47be-8501-fd61f0b79eb8","system_id":"levelo_inurba_marseille","lat":43.305994,"lon":5.393687,"is_reserved":false,"is_disabled":false,"rental_uris":{"android":"levelo://app?vid=664e3fbb-3583-47be-8501-fd61f0b79eb8","ios":"levelo://app?vid=664e3fbb-3583-47be-8501-fd61f0b79eb8"},"vehicle_type_id":"4","last_reported":1701500763,"current_range_meters":26800,"station_id":"ce4bh0p2rcd13ifvqd80","pricing_plan_id":"free"},{"bike_id":"7adf724e-633e-4d9e-a192-23482acf3de1","system_id":"levelo_inurba_marseille","lat":43.293009,"lon":5.374584,"is_reserved":false,"is_disabled":false,"rental_uris":{"android":"levelo://app?vid=7adf724e-633e-4d9e-a192-23482acf3de1","ios":"levelo://app?vid=7adf724e-633e-4d9e-a192-23482acf3de1"},"vehicle_type_id":"4","last_reported":1701500763,"current_range_meters":20000,"station_id":"ce4bgi12rcd13ifvqb70","pricing_plan_id":"free"},{"bike_id":"460c72c6-c4f9-4e9e-87b8-44f389b236f7","system_id":"levelo_inurba_marseille","lat":43.293824,"lon":5.378559,"is_reserved":false,"is_disabled":false,"rental_uris":{"android":"levelo://app?vid=460c72c6-c4f9-4e9e-87b8-44f389b236f7","ios":"levelo://app?vid=460c72c6-c4f9-4e9e-87b8-44f389b236f7"},"vehicle_type_id":"4","last_reported":1701500763,"current_range_meters":30400,"station_id":"ce4bgjh2rcd13ifvqbf0","pricing_plan_id":"free"},{"bike_id":"853b3535-6302-494f-8718-aed77339e538","system_id":"levelo_inurba_marseille","lat":43.2936,"lon":5.37835,"is_reserved":false,"is_disabled":false,"rental_uris":{"android":"levelo://app?vid=853b3535-6302-494f-8718-aed77339e538","ios":"levelo://app?vid=853b3535-6302-494f-8718-aed77339e538"},"vehicle_type_id":"4","last_reported":1701500763,"current_range_meters":28000,"station_id":"ce4bgjh2rcd13ifvqbf0","pricing_plan_id":"free"},{"bike_id":"0e8c036b-d968-4a2a-9338-84e71130389f","system_id":"levelo_inurba_marseille","lat":43.30595,"lon":5.394217,"is_reserved":false,"is_disabled":false,"rental_uris":{"android":"levelo://app?vid=0e8c036b-d968-4a2a-9338-84e71130389f","ios":"levelo://app?vid=0e8c036b-d968-4a2a-9338-84e71130389f"},"vehicle_type_id":"4","last_reported":1701500763,"current_range_meters":27600,"station_id":"","pricing_plan_id":"free"},{"bike_id":"447a3f45-bc34-4e80-b2fb-c066da341f17","system_id":"levelo_inurba_marseille","lat":43.302008,"lon":5.394694,"is_reserved":false,"is_disabled":false,"rental_uris":{"android":"levelo://app?vid=447a3f45-bc34-4e80-b2fb-c066da341f17","ios":"levelo://app?vid=447a3f45-bc34-4e80-b2fb-c066da341f17"},"vehicle_type_id":"4","last_reported":1701500763,"current_range_meters":29600,"station_id":"ce4bh0p2rcd13ifvqd70","pricing_plan_id":"free"},{"bike_id":"b38135b0-bb14-4c25-bf29-b49d406cc922","system_id":"levelo_inurba_marseille","lat":43.330442,"lon":5.389148,"is_reserved":false,"is_disabled":false,"rental_uris":{"android":"levelo://app?vid=b38135b0-bb14-4c25-bf29-b49d406cc922","ios":"levelo://app?vid=b38135b0-bb14-4c25-bf29-b49d406cc922"},"vehicle_type_id":"4","last_reported":1701500763,"current_range_meters":2000,"station_id":"ce4bhr92rcd13ifvqhrg","pricing_plan_id":"free"},{"bike_id":"c58b39fe-f050-44d5-bbe7-4abcb7249795","system_id":"levelo_inurba_marseille","lat":43.291541,"lon":5.380542,"is_reserved":false,"is_disabled":false,"rental_uris":{"android":"levelo://app?vid=c58b39fe-f050-44d5-bbe7-4abcb7249795","ios":"levelo://app?vid=c58b39fe-f050-44d5-bbe7-4abcb7249795"},"vehicle_type_id":"4","last_reported":1701500763,"current_range_meters":15600,"station_id":"ce4bhn92rcd13ifvqgrg","pricing_plan_id":"free"},{"bike_id":"65ac5f69-fce7-47ef-9056-4949b0e0591e","system_id":"levelo_inurba_marseille","lat":43.30926,"lon":5.40146,"is_reserved":false,"is_disabled":false,"rental_uris":{"android":"levelo://app?vid=65ac5f69-fce7-47ef-9056-4949b0e0591e","ios":"levelo://app?vid=65ac5f69-fce7-47ef-9056-4949b0e0591e"},"vehicle_type_id":"4","last_reported":1701500763,"current_range_meters":25200,"station_id":"ce4bgvp2rcd13ifvqct0","pricing_plan_id":"free"},{"bike_id":"0beb987f-0a44-47f6-96cb-9c3244a5825a","system_id":"levelo_inurba_marseille","lat":43.309371,"lon":5.401449,"is_reserved":false,"is_disabled":false,"rental_uris":{"android":"levelo://app?vid=0beb987f-0a44-47f6-96cb-9c3244a5825a","ios":"levelo://app?vid=0beb987f-0a44-47f6-96cb-9c3244a5825a"},"vehicle_type_id":"4","last_reported":1701500763,"current_range_meters":21600,"station_id":"ce4bgvp2rcd13ifvqct0","pricing_plan_id":"free"},{"bike_id":"dd06d97c-c441-4bca-9e32-15fd0ebed003","system_id":"levelo_inurba_marseille","lat":43.309371,"lon":5.401449,"is_reserved":false,"is_disabled":false,"rental_uris":{"android":"levelo://app?vid=dd06d97c-c441-4bca-9e32-15fd0ebed003","ios":"levelo://app?vid=dd06d97c-c441-4bca-9e32-15fd0ebed003"},"vehicle_type_id":"4","last_reported":1701500763,"current_range_meters":6800,"station_id":"ce4bgvp2rcd13ifvqct0","pricing_plan_id":"free"},{"bike_id":"c55048a9-aae6-4c35-919f-ecfe5cd1bef9","system_id":"levelo_inurba_marseille","lat":43.30642,"lon":5.401031,"is_reserved":false,"is_disabled":false,"rental_uris":{"android":"levelo://app?vid=c55048a9-aae6-4c35-919f-ecfe5cd1bef9","ios":"levelo://app?vid=c55048a9-aae6-4c35-919f-ecfe5cd1bef9"},"vehicle_type_id":"4","last_reported":1701500763,"current_range_meters":30800,"station_id":"ce4bh112rcd13ifvqda0","pricing_plan_id":"free"},{"bike_id":"f0921399-6f79-4b04-826c-73cf4cedc066","system_id":"levelo_inurba_marseille","lat":43.30642,"lon":5.401031,"is_reserved":false,"is_disabled":false,"rental_uris":{"android":"levelo://app?vid=f0921399-6f79-4b04-826c-73cf4cedc066","ios":"levelo://app?vid=f0921399-6f79-4b04-826c-73cf4cedc066"},"vehicle_type_id":"4","last_reported":1701500763,"current_range_meters":30000,"station_id":"ce4bh112rcd13ifvqda0","pricing_plan_id":"free"},{"bike_id":"e17c114d-ae2e-42d2-bd50-794f50d899eb","system_id":"levelo_inurba_marseille","lat":43.287261,"lon":5.360893,"is_reserved":false,"is_disabled":false,"rental_uris":{"android":"levelo://app?vid=e17c114d-ae2e-42d2-bd50-794f50d899eb","ios":"levelo://app?vid=e17c114d-ae2e-42d2-bd50-794f50d899eb"},"vehicle_type_id":"4","last_reported":1701500763,"current_range_meters":26400,"station_id":"cki0cbj6b192h4jlfktg","pricing_plan_id":"free"},{"bike_id":"3ac0013b-c355-4382-8b75-acd62b1e57a8","system_id":"levelo_inurba_marseille","lat":43.298681,"lon":5.397225,"is_reserved":false,"is_disabled":false,"rental_uris":{"android":"levelo://app?vid=3ac0013b-c355-4382-8b75-acd62b1e57a8","ios":"levelo://app?vid=3ac0013b-c355-4382-8b75-acd62b1e57a8"},"vehicle_type_id":"4","last_reported":1701500763,"current_range_meters":23200,"station_id":"ce4bh0h2rcd13ifvqd50","pricing_plan_id":"free"},{"bike_id":"84dcca8f-9a06-4dbd-bb3a-c7d38c195516","system_id":"levelo_inurba_marseille","lat":43.289307,"lon":5.38406,"is_reserved":false,"is_disabled":false,"rental_uris":{"android":"levelo://app?vid=84dcca8f-9a06-4dbd-bb3a-c7d38c195516","ios":"levelo://app?vid=84dcca8f-9a06-4dbd-bb3a-c7d38c195516"},"vehicle_type_id":"4","last_reported":1701500763,"current_range_meters":22400,"station_id":"ce4bh612rcd13ifvqe6g","pricing_plan_id":"free"},{"bike_id":"6eb8f6e0-6e8f-4f2e-8275-7e34ab91e865","system_id":"levelo_inurba_marseille","lat":43.302458,"lon":5.400556,"is_reserved":false,"is_disabled":false,"rental_uris":{"android":"levelo://app?vid=6eb8f6e0-6e8f-4f2e-8275-7e34ab91e865","ios":"levelo://app?vid=6eb8f6e0-6e8f-4f2e-8275-7e34ab91e865"},"vehicle_type_id":"4","last_reported":1701500763,"current_range_meters":24000,"station_id":"ce4bgvh2rcd13ifvqcs0","pricing_plan_id":"free"},{"bike_id":"40b013a4-8905-48ea-afb9-3ba70bd67899","system_id":"levelo_inurba_marseille","lat":43.28614,"lon":5.37062,"is_reserved":false,"is_disabled":false,"rental_uris":{"android":"levelo://app?vid=40b013a4-8905-48ea-afb9-3ba70bd67899","ios":"levelo://app?vid=40b013a4-8905-48ea-afb9-3ba70bd67899"},"vehicle_type_id":"4","last_reported":1701500763,"current_range_meters":5200,"station_id":"ce4bht12rcd13ifvqi60","pricing_plan_id":"free"},{"bike_id":"69d1a230-a3c0-4fb4-bb4e-2d8437eb6511","system_id":"levelo_inurba_marseille","lat":43.287184,"lon":5.37937,"is_reserved":false,"is_disabled":false,"rental_uris":{"android":"levelo://app?vid=69d1a230-a3c0-4fb4-bb4e-2d8437eb6511","ios":"levelo://app?vid=69d1a230-a3c0-4fb4-bb4e-2d8437eb6511"},"vehicle_type_id":"4","last_reported":1701500763,"current_range_meters":30400,"station_id":"ce4bh9p2rcd13ifvqec0","pricing_plan_id":"free"},{"bike_id":"6876ca3c-4536-4659-b150-3e9e6d87cd51","system_id":"levelo_inurba_marseille","lat":43.284534,"lon":5.358662,"is_reserved":false,"is_disabled":false,"rental_uris":{"android":"levelo://app?vid=6876ca3c-4536-4659-b150-3e9e6d87cd51","ios":"levelo://app?vid=6876ca3c-4536-4659-b150-3e9e6d87cd51"},"vehicle_type_id":"4","last_reported":1701500763,"current_range_meters":31200,"station_id":"ce4bhah2rcd13ifvqei0","pricing_plan_id":"free"},{"bike_id":"5f7069c3-d3c3-45fb-9e62-764a4f1ae3f3","system_id":"levelo_inurba_marseille","lat":43.284538,"lon":5.358657,"is_reserved":false,"is_disabled":false,"rental_uris":{"android":"levelo://app?vid=5f7069c3-d3c3-45fb-9e62-764a4f1ae3f3","ios":"levelo://app?vid=5f7069c3-d3c3-45fb-9e62-764a4f1ae3f3"},"vehicle_type_id":"4","last_reported":1701500763,"current_range_meters":27200,"station_id":"ce4bhah2rcd13ifvqei0","pricing_plan_id":"free"},{"bike_id":"d602a3d1-e3f7-4a70-9183-9c49798f1d01","system_id":"levelo_inurba_marseille","lat":43.284538,"lon":5.358657,"is_reserved":false,"is_disabled":false,"rental_uris":{"android":"levelo://app?vid=d602a3d1-e3f7-4a70-9183-9c49798f1d01","ios":"levelo://app?vid=d602a3d1-e3f7-4a70-9183-9c49798f1d01"},"vehicle_type_id":"4","last_reported":1701500763,"current_range_meters":31200,"station_id":"ce4bhah2rcd13ifvqei0","pricing_plan_id":"free"},{"bike_id":"189622c6-31d0-4222-82db-9ef7fb206284","system_id":"levelo_inurba_marseille","lat":43.284534,"lon":5.358662,"is_reserved":false,"is_disabled":false,"rental_uris":{"android":"levelo://app?vid=189622c6-31d0-4222-82db-9ef7fb206284","ios":"levelo://app?vid=189622c6-31d0-4222-82db-9ef7fb206284"},"vehicle_type_id":"4","last_reported":1701500763,"current_range_meters":2400,"station_id":"ce4bhah2rcd13ifvqei0","pricing_plan_id":"free"},{"bike_id":"17f3ee28-4a08-4b51-bb88-b24a1fdcee57","system_id":"levelo_inurba_marseille","lat":43.284538,"lon":5.358657,"is_reserved":false,"is_disabled":false,"rental_uris":{"android":"levelo://app?vid=17f3ee28-4a08-4b51-bb88-b24a1fdcee57","ios":"levelo://app?vid=17f3ee28-4a08-4b51-bb88-b24a1fdcee57"},"vehicle_type_id":"4","last_reported":1701500763,"current_range_meters":31200,"station_id":"ce4bhah2rcd13ifvqei0","pricing_plan_id":"free"},{"bike_id":"62720c14-5e46-4d7a-8274-80646bf8be6b","system_id":"levelo_inurba_marseille","lat":43.284534,"lon":5.358662,"is_reserved":false,"is_disabled":false,"rental_uris":{"android":"levelo://app?vid=62720c14-5e46-4d7a-8274-80646bf8be6b","ios":"levelo://app?vid=62720c14-5e46-4d7a-8274-80646bf8be6b"},"vehicle_type_id":"4","last_reported":1701500763,"current_range_meters":6400,"station_id":"ce4bhah2rcd13ifvqei0","pricing_plan_id":"free"},{"bike_id":"f9c4ef53-a1cb-47bf-87da-7f7c34cdd376","system_id":"levelo_inurba_marseille","lat":43.284538,"lon":5.358657,"is_reserved":false,"is_disabled":false,"rental_uris":{"android":"levelo://app?vid=f9c4ef53-a1cb-47bf-87da-7f7c34cdd376","ios":"levelo://app?vid=f9c4ef53-a1cb-47bf-87da-7f7c34cdd376"},"vehicle_type_id":"4","last_reported":1701500763,"current_range_meters":26400,"station_id":"ce4bhah2rcd13ifvqei0","pricing_plan_id":"free"},{"bike_id":"c8124233-8250-4dcc-97e2-8fce9e8a5b7f","system_id":"levelo_inurba_marseille","lat":43.284534,"lon":5.358662,"is_reserved":false,"is_disabled":false,"rental_uris":{"android":"levelo://app?vid=c8124233-8250-4dcc-97e2-8fce9e8a5b7f","ios":"levelo://app?vid=c8124233-8250-4dcc-97e2-8fce9e8a5b7f"},"vehicle_type_id":"4","last_reported":1701500763,"current_range_meters":20800,"station_id":"ce4bhah2rcd13ifvqei0","pricing_plan_id":"free"},{"bike_id":"a18ecf0e-fc7b-48d9-97d6-5da25d796a5e","system_id":"levelo_inurba_marseille","lat":43.284534,"lon":5.358662,"is_reserved":false,"is_disabled":false,"rental_uris":{"android":"levelo://app?vid=a18ecf0e-fc7b-48d9-97d6-5da25d796a5e","ios":"levelo://app?vid=a18ecf0e-fc7b-48d9-97d6-5da25d796a5e"},"vehicle_type_id":"4","last_reported":1701500763,"current_range_meters":9600,"station_id":"ce4bhah2rcd13ifvqei0","pricing_plan_id":"free"},{"bike_id":"9a5760a0-d4c2-4eac-a199-ac5e3ca66b52","system_id":"levelo_inurba_marseille","lat":43.295713,"lon":5.399639,"is_reserved":false,"is_disabled":false,"rental_uris":{"android":"levelo://app?vid=9a5760a0-d4c2-4eac-a199-ac5e3ca66b52","ios":"levelo://app?vid=9a5760a0-d4c2-4eac-a199-ac5e3ca66b52"},"vehicle_type_id":"4","last_reported":1701500763,"current_range_meters":28800,"station_id":"ce4bh312rcd13ifvqdj0","pricing_plan_id":"free"},{"bike_id":"eb63e17f-a373-4022-b6a6-bf4ce259727a","system_id":"levelo_inurba_marseille","lat":43.283998,"lon":5.375062,"is_reserved":false,"is_disabled":false,"rental_uris":{"android":"levelo://app?vid=eb63e17f-a373-4022-b6a6-bf4ce259727a","ios":"levelo://app?vid=eb63e17f-a373-4022-b6a6-bf4ce259727a"},"vehicle_type_id":"4","last_reported":1701500763,"current_range_meters":22000,"station_id":"ce4bh412rcd13ifvqds0","pricing_plan_id":"free"},{"bike_id":"596c5ff3-8caa-4a75-9675-d0fdb87a8441","system_id":"levelo_inurba_marseille","lat":43.286595,"lon":5.386795,"is_reserved":false,"is_disabled":false,"rental_uris":{"android":"levelo://app?vid=596c5ff3-8caa-4a75-9675-d0fdb87a8441","ios":"levelo://app?vid=596c5ff3-8caa-4a75-9675-d0fdb87a8441"},"vehicle_type_id":"4","last_reported":1701500763,"current_range_meters":27600,"station_id":"ce4bh492rcd13ifvqdug","pricing_plan_id":"free"},{"bike_id":"0d5d7ab8-9ae7-432f-9189-bf46aad59761","system_id":"levelo_inurba_marseille","lat":43.319179,"lon":5.407725,"is_reserved":false,"is_disabled":false,"rental_uris":{"android":"levelo://app?vid=0d5d7ab8-9ae7-432f-9189-bf46aad59761","ios":"levelo://app?vid=0d5d7ab8-9ae7-432f-9189-bf46aad59761"},"vehicle_type_id":"4","last_reported":1701500763,"current_range_meters":31200,"station_id":"ce4bhq12rcd13ifvqhig","pricing_plan_id":"free"},{"bike_id":"7f458fab-3a0c-4609-8310-733ff5bbba57","system_id":"levelo_inurba_marseille","lat":43.33717,"lon":5.391857,"is_reserved":false,"is_disabled":false,"rental_uris":{"android":"levelo://app?vid=7f458fab-3a0c-4609-8310-733ff5bbba57","ios":"levelo://app?vid=7f458fab-3a0c-4609-8310-733ff5bbba57"},"vehicle_type_id":"4","last_reported":1701500763,"current_range_meters":30400,"station_id":"ce4bhr92rcd13ifvqhsg","pricing_plan_id":"free"},{"bike_id":"f99fc4d8-709b-4cee-a32c-2cdd6f1e8b1e","system_id":"levelo_inurba_marseille","lat":43.337168,"lon":5.391825,"is_reserved":false,"is_disabled":false,"rental_uris":{"android":"levelo://app?vid=f99fc4d8-709b-4cee-a32c-2cdd6f1e8b1e","ios":"levelo://app?vid=f99fc4d8-709b-4cee-a32c-2cdd6f1e8b1e"},"vehicle_type_id":"4","last_reported":1701500763,"current_range_meters":26400,"station_id":"ce4bhr92rcd13ifvqhsg","pricing_plan_id":"free"},{"bike_id":"4714f7cd-5ff4-41d0-870b-3e9261538b58","system_id":"levelo_inurba_marseille","lat":43.323464,"lon":5.406297,"is_reserved":false,"is_disabled":false,"rental_uris":{"android":"levelo://app?vid=4714f7cd-5ff4-41d0-870b-3e9261538b58","ios":"levelo://app?vid=4714f7cd-5ff4-41d0-870b-3e9261538b58"},"vehicle_type_id":"4","last_reported":1701500763,"current_range_meters":28000,"station_id":"ce4bhq92rcd13ifvqhjg","pricing_plan_id":"free"},{"bike_id":"1533b5af-79f1-4dbe-883a-97401c2d5e9c","system_id":"levelo_inurba_marseille","lat":43.284793,"lon":5.384113,"is_reserved":false,"is_disabled":false,"rental_uris":{"android":"levelo://app?vid=1533b5af-79f1-4dbe-883a-97401c2d5e9c","ios":"levelo://app?vid=1533b5af-79f1-4dbe-883a-97401c2d5e9c"},"vehicle_type_id":"4","last_reported":1701500763,"current_range_meters":29200,"station_id":"ce4bh512rcd13ifvqe3g","pricing_plan_id":"free"},{"bike_id":"4092b413-a8f0-49fd-8cc3-69bf3f509a40","system_id":"levelo_inurba_marseille","lat":43.323384,"lon":5.406315,"is_reserved":false,"is_disabled":false,"rental_uris":{"android":"levelo://app?vid=4092b413-a8f0-49fd-8cc3-69bf3f509a40","ios":"levelo://app?vid=4092b413-a8f0-49fd-8cc3-69bf3f509a40"},"vehicle_type_id":"4","last_reported":1701500763,"current_range_meters":11200,"station_id":"ce4bhq92rcd13ifvqhjg","pricing_plan_id":"free"},{"bike_id":"20cca29d-7899-4851-92b6-975712188d15","system_id":"levelo_inurba_marseille","lat":43.288501,"lon":5.393087,"is_reserved":false,"is_disabled":false,"rental_uris":{"android":"levelo://app?vid=20cca29d-7899-4851-92b6-975712188d15","ios":"levelo://app?vid=20cca29d-7899-4851-92b6-975712188d15"},"vehicle_type_id":"4","last_reported":1701500763,"current_range_meters":15600,"station_id":"ce4bh2p2rcd13ifvqdi0","pricing_plan_id":"free"},{"bike_id":"bc8877b1-6ce8-4ed3-9094-d74d02597d08","system_id":"levelo_inurba_marseille","lat":43.283498,"lon":5.380948,"is_reserved":false,"is_disabled":false,"rental_uris":{"android":"levelo://app?vid=bc8877b1-6ce8-4ed3-9094-d74d02597d08","ios":"levelo://app?vid=bc8877b1-6ce8-4ed3-9094-d74d02597d08"},"vehicle_type_id":"4","last_reported":1701500763,"current_range_meters":28400,"station_id":"ce4bh412rcd13ifvqdr0","pricing_plan_id":"free"},{"bike_id":"c518fd69-72e2-4494-9986-675bd479b438","system_id":"levelo_inurba_marseille","lat":43.28946,"lon":5.39633,"is_reserved":false,"is_disabled":false,"rental_uris":{"android":"levelo://app?vid=c518fd69-72e2-4494-9986-675bd479b438","ios":"levelo://app?vid=c518fd69-72e2-4494-9986-675bd479b438"},"vehicle_type_id":"4","last_reported":1701500763,"current_range_meters":6000,"station_id":"ce4bh3h2rcd13ifvqdn0","pricing_plan_id":"free"},{"bike_id":"84662e5e-3bb5-4049-8bc9-79bd5b649eff","system_id":"levelo_inurba_marseille","lat":43.289363,"lon":5.396322,"is_reserved":false,"is_disabled":false,"rental_uris":{"android":"levelo://app?vid=84662e5e-3bb5-4049-8bc9-79bd5b649eff","ios":"levelo://app?vid=84662e5e-3bb5-4049-8bc9-79bd5b649eff"},"vehicle_type_id":"4","last_reported":1701500763,"current_range_meters":30000,"station_id":"ce4bh3h2rcd13ifvqdn0","pricing_plan_id":"free"},{"bike_id":"29eada14-62ae-44b7-8e80-82679b247872","system_id":"levelo_inurba_marseille","lat":43.292724,"lon":5.401131,"is_reserved":false,"is_disabled":false,"rental_uris":{"android":"levelo://app?vid=29eada14-62ae-44b7-8e80-82679b247872","ios":"levelo://app?vid=29eada14-62ae-44b7-8e80-82679b247872"},"vehicle_type_id":"4","last_reported":1701500763,"current_range_meters":30400,"station_id":"ce4bh312rcd13ifvqdk0","pricing_plan_id":"free"},{"bike_id":"9228b679-a081-4c22-835c-fa72278ded5d","system_id":"levelo_inurba_marseille","lat":43.282744,"lon":5.350533,"is_reserved":false,"is_disabled":false,"rental_uris":{"android":"levelo://app?vid=9228b679-a081-4c22-835c-fa72278ded5d","ios":"levelo://app?vid=9228b679-a081-4c22-835c-fa72278ded5d"},"vehicle_type_id":"4","last_reported":1701500763,"current_range_meters":31200,"station_id":"ce4bhbp2rcd13ifvqerg","pricing_plan_id":"free"},{"bike_id":"c0e2fc9f-ba89-4f16-aad4-e724ae738cf0","system_id":"levelo_inurba_marseille","lat":43.28039,"lon":5.369297,"is_reserved":false,"is_disabled":false,"rental_uris":{"android":"levelo://app?vid=c0e2fc9f-ba89-4f16-aad4-e724ae738cf0","ios":"levelo://app?vid=c0e2fc9f-ba89-4f16-aad4-e724ae738cf0"},"vehicle_type_id":"4","last_reported":1701500763,"current_range_meters":12400,"station_id":"ce4bha12rcd13ifvqef0","pricing_plan_id":"free"},{"bike_id":"9ef94a84-4076-4435-85f6-f5bdcee061fc","system_id":"levelo_inurba_marseille","lat":43.28364,"lon":5.38645,"is_reserved":false,"is_disabled":false,"rental_uris":{"android":"levelo://app?vid=9ef94a84-4076-4435-85f6-f5bdcee061fc","ios":"levelo://app?vid=9ef94a84-4076-4435-85f6-f5bdcee061fc"},"vehicle_type_id":"4","last_reported":1701500763,"current_range_meters":27600,"station_id":"ce4bh492rcd13ifvqdvg","pricing_plan_id":"free"},{"bike_id":"384e313f-492c-4d83-a1a6-c31122558ed0","system_id":"levelo_inurba_marseille","lat":43.280382,"lon":5.369291,"is_reserved":false,"is_disabled":false,"rental_uris":{"android":"levelo://app?vid=384e313f-492c-4d83-a1a6-c31122558ed0","ios":"levelo://app?vid=384e313f-492c-4d83-a1a6-c31122558ed0"},"vehicle_type_id":"4","last_reported":1701500763,"current_range_meters":29600,"station_id":"ce4bha12rcd13ifvqef0","pricing_plan_id":"free"},{"bike_id":"da9c69a8-f034-4bc4-bd6f-19169039de2b","system_id":"levelo_inurba_marseille","lat":43.280382,"lon":5.369291,"is_reserved":false,"is_disabled":false,"rental_uris":{"android":"levelo://app?vid=da9c69a8-f034-4bc4-bd6f-19169039de2b","ios":"levelo://app?vid=da9c69a8-f034-4bc4-bd6f-19169039de2b"},"vehicle_type_id":"4","last_reported":1701500763,"current_range_meters":27200,"station_id":"ce4bha12rcd13ifvqef0","pricing_plan_id":"free"},{"bike_id":"df0f17b8-cf1c-4e75-bceb-dc47585400a0","system_id":"levelo_inurba_marseille","lat":43.290412,"lon":5.399633,"is_reserved":false,"is_disabled":false,"rental_uris":{"android":"levelo://app?vid=df0f17b8-cf1c-4e75-bceb-dc47585400a0","ios":"levelo://app?vid=df0f17b8-cf1c-4e75-bceb-dc47585400a0"},"vehicle_type_id":"4","last_reported":1701500763,"current_range_meters":30400,"station_id":"ce4bh392rcd13ifvqdm0","pricing_plan_id":"free"},{"bike_id":"4efbe882-a394-444b-b940-c98897ea4e8b","system_id":"levelo_inurba_marseille","lat":43.290441,"lon":5.399596,"is_reserved":false,"is_disabled":false,"rental_uris":{"android":"levelo://app?vid=4efbe882-a394-444b-b940-c98897ea4e8b","ios":"levelo://app?vid=4efbe882-a394-444b-b940-c98897ea4e8b"},"vehicle_type_id":"4","last_reported":1701500763,"current_range_meters":26000,"station_id":"ce4bh392rcd13ifvqdm0","pricing_plan_id":"free"},{"bike_id":"4d537adc-f0ff-4dae-8548-3af217d690f0","system_id":"levelo_inurba_marseille","lat":43.29041,"lon":5.39956,"is_reserved":false,"is_disabled":false,"rental_uris":{"android":"levelo://app?vid=4d537adc-f0ff-4dae-8548-3af217d690f0","ios":"levelo://app?vid=4d537adc-f0ff-4dae-8548-3af217d690f0"},"vehicle_type_id":"4","last_reported":1701500763,"current_range_meters":23200,"station_id":"ce4bh392rcd13ifvqdm0","pricing_plan_id":"free"},{"bike_id":"d359069a-20bb-43eb-9f46-058f90c18e1d","system_id":"levelo_inurba_marseille","lat":43.2811,"lon":5.37837,"is_reserved":false,"is_disabled":false,"rental_uris":{"android":"levelo://app?vid=d359069a-20bb-43eb-9f46-058f90c18e1d","ios":"levelo://app?vid=d359069a-20bb-43eb-9f46-058f90c18e1d"},"vehicle_type_id":"4","last_reported":1701500763,"current_range_meters":23600,"station_id":"ce4bha12rcd13ifvqee0","pricing_plan_id":"free"},{"bike_id":"0a35d642-f071-4392-8646-da8c032536ab","system_id":"levelo_inurba_marseille","lat":43.290328,"lon":5.399778,"is_reserved":false,"is_disabled":false,"rental_uris":{"android":"levelo://app?vid=0a35d642-f071-4392-8646-da8c032536ab","ios":"levelo://app?vid=0a35d642-f071-4392-8646-da8c032536ab"},"vehicle_type_id":"4","last_reported":1701500763,"current_range_meters":27600,"station_id":"ce4bh392rcd13ifvqdm0","pricing_plan_id":"free"},{"bike_id":"c81d63d5-2efd-4b1d-9e0e-316ba3180473","system_id":"levelo_inurba_marseille","lat":43.296263,"lon":5.40601,"is_reserved":false,"is_disabled":false,"rental_uris":{"android":"levelo://app?vid=c81d63d5-2efd-4b1d-9e0e-316ba3180473","ios":"levelo://app?vid=c81d63d5-2efd-4b1d-9e0e-316ba3180473"},"vehicle_type_id":"4","last_reported":1701500763,"current_range_meters":18800,"station_id":"ce4bh0h2rcd13ifvqd60","pricing_plan_id":"free"},{"bike_id":"6306cf92-f06d-48c3-ac28-f9f349cb0b22","system_id":"levelo_inurba_marseille","lat":43.284462,"lon":5.392121,"is_reserved":false,"is_disabled":false,"rental_uris":{"android":"levelo://app?vid=6306cf92-f06d-48c3-ac28-f9f349cb0b22","ios":"levelo://app?vid=6306cf92-f06d-48c3-ac28-f9f349cb0b22"},"vehicle_type_id":"4","last_reported":1701500763,"current_range_meters":29600,"station_id":"ce4bhoh2rcd13ifvqh5g","pricing_plan_id":"free"},{"bike_id":"e4a61532-43ec-43eb-a818-fdbce2c8988a","system_id":"levelo_inurba_marseille","lat":43.284462,"lon":5.392121,"is_reserved":false,"is_disabled":false,"rental_uris":{"android":"levelo://app?vid=e4a61532-43ec-43eb-a818-fdbce2c8988a","ios":"levelo://app?vid=e4a61532-43ec-43eb-a818-fdbce2c8988a"},"vehicle_type_id":"4","last_reported":1701500763,"current_range_meters":28800,"station_id":"ce4bhoh2rcd13ifvqh5g","pricing_plan_id":"free"},{"bike_id":"d2e46f76-891a-45d8-b95b-615141a167ed","system_id":"levelo_inurba_marseille","lat":43.28573,"lon":5.394992,"is_reserved":false,"is_disabled":false,"rental_uris":{"android":"levelo://app?vid=d2e46f76-891a-45d8-b95b-615141a167ed","ios":"levelo://app?vid=d2e46f76-891a-45d8-b95b-615141a167ed"},"vehicle_type_id":"4","last_reported":1701500763,"current_range_meters":2400,"station_id":"ce4bh292rcd13ifvqdg0","pricing_plan_id":"free"},{"bike_id":"44b01b27-bfd5-491f-9e75-6434d7fa44f1","system_id":"levelo_inurba_marseille","lat":43.28713,"lon":5.39991,"is_reserved":false,"is_disabled":false,"rental_uris":{"android":"levelo://app?vid=44b01b27-bfd5-491f-9e75-6434d7fa44f1","ios":"levelo://app?vid=44b01b27-bfd5-491f-9e75-6434d7fa44f1"},"vehicle_type_id":"4","last_reported":1701500763,"current_range_meters":24800,"station_id":"ce4bho92rcd13ifvqh3g","pricing_plan_id":"free"},{"bike_id":"c4cd0b9d-0c41-4d84-aa06-fab71e60a157","system_id":"levelo_inurba_marseille","lat":43.287154,"lon":5.399979,"is_reserved":false,"is_disabled":false,"rental_uris":{"android":"levelo://app?vid=c4cd0b9d-0c41-4d84-aa06-fab71e60a157","ios":"levelo://app?vid=c4cd0b9d-0c41-4d84-aa06-fab71e60a157"},"vehicle_type_id":"4","last_reported":1701500763,"current_range_meters":30800,"station_id":"ce4bho92rcd13ifvqh3g","pricing_plan_id":"free"},{"bike_id":"2a48ec58-a18d-49d2-9fda-72b787fa06c4","system_id":"levelo_inurba_marseille","lat":43.28698,"lon":5.3998,"is_reserved":false,"is_disabled":false,"rental_uris":{"android":"levelo://app?vid=2a48ec58-a18d-49d2-9fda-72b787fa06c4","ios":"levelo://app?vid=2a48ec58-a18d-49d2-9fda-72b787fa06c4"},"vehicle_type_id":"4","last_reported":1701500763,"current_range_meters":0,"station_id":"","pricing_plan_id":"free"},{"bike_id":"02de4afa-8991-4a7c-a777-a9d88a7535c9","system_id":"levelo_inurba_marseille","lat":43.287154,"lon":5.399979,"is_reserved":false,"is_disabled":false,"rental_uris":{"android":"levelo://app?vid=02de4afa-8991-4a7c-a777-a9d88a7535c9","ios":"levelo://app?vid=02de4afa-8991-4a7c-a777-a9d88a7535c9"},"vehicle_type_id":"4","last_reported":1701500763,"current_range_meters":30400,"station_id":"ce4bho92rcd13ifvqh3g","pricing_plan_id":"free"},{"bike_id":"84670559-fe6e-4f57-871f-b282b2f07ee5","system_id":"levelo_inurba_marseille","lat":43.286581,"lon":5.400385,"is_reserved":false,"is_disabled":false,"rental_uris":{"android":"levelo://app?vid=84670559-fe6e-4f57-871f-b282b2f07ee5","ios":"levelo://app?vid=84670559-fe6e-4f57-871f-b282b2f07ee5"},"vehicle_type_id":"4","last_reported":1701500763,"current_range_meters":7200,"station_id":"","pricing_plan_id":"free"},{"bike_id":"1e32e512-d079-4c6c-9906-c887f1597982","system_id":"levelo_inurba_marseille","lat":43.279742,"lon":5.38744,"is_reserved":false,"is_disabled":false,"rental_uris":{"android":"levelo://app?vid=1e32e512-d079-4c6c-9906-c887f1597982","ios":"levelo://app?vid=1e32e512-d079-4c6c-9906-c887f1597982"},"vehicle_type_id":"4","last_reported":1701500763,"current_range_meters":29600,"station_id":"ce4bhg12rcd13ifvqf80","pricing_plan_id":"free"},{"bike_id":"e98d2c16-1d7e-45f0-b787-2dadea2f58dc","system_id":"levelo_inurba_marseille","lat":43.279742,"lon":5.38744,"is_reserved":false,"is_disabled":false,"rental_uris":{"android":"levelo://app?vid=e98d2c16-1d7e-45f0-b787-2dadea2f58dc","ios":"levelo://app?vid=e98d2c16-1d7e-45f0-b787-2dadea2f58dc"},"vehicle_type_id":"4","last_reported":1701500763,"current_range_meters":1600,"station_id":"ce4bhg12rcd13ifvqf80","pricing_plan_id":"free"},{"bike_id":"4c8779d0-2b36-4f36-9c49-4aa72a0c8831","system_id":"levelo_inurba_marseille","lat":43.292571,"lon":5.409107,"is_reserved":false,"is_disabled":false,"rental_uris":{"android":"levelo://app?vid=4c8779d0-2b36-4f36-9c49-4aa72a0c8831","ios":"levelo://app?vid=4c8779d0-2b36-4f36-9c49-4aa72a0c8831"},"vehicle_type_id":"4","last_reported":1701500763,"current_range_meters":22000,"station_id":"ce4bh192rcd13ifvqdc0","pricing_plan_id":"free"},{"bike_id":"8d658da3-deb2-4333-853f-5caa4f21164e","system_id":"levelo_inurba_marseille","lat":43.29252,"lon":5.40895,"is_reserved":false,"is_disabled":false,"rental_uris":{"android":"levelo://app?vid=8d658da3-deb2-4333-853f-5caa4f21164e","ios":"levelo://app?vid=8d658da3-deb2-4333-853f-5caa4f21164e"},"vehicle_type_id":"4","last_reported":1701500763,"current_range_meters":15600,"station_id":"ce4bh192rcd13ifvqdc0","pricing_plan_id":"free"},{"bike_id":"9c68f388-ff8b-4344-aa1a-87a5b91b0bae","system_id":"levelo_inurba_marseille","lat":43.292571,"lon":5.409107,"is_reserved":false,"is_disabled":false,"rental_uris":{"android":"levelo://app?vid=9c68f388-ff8b-4344-aa1a-87a5b91b0bae","ios":"levelo://app?vid=9c68f388-ff8b-4344-aa1a-87a5b91b0bae"},"vehicle_type_id":"4","last_reported":1701500763,"current_range_meters":24400,"station_id":"ce4bh192rcd13ifvqdc0","pricing_plan_id":"free"},{"bike_id":"81c3d2e1-d711-4403-8a56-f859e0dd931b","system_id":"levelo_inurba_marseille","lat":43.292647,"lon":5.409162,"is_reserved":false,"is_disabled":false,"rental_uris":{"android":"levelo://app?vid=81c3d2e1-d711-4403-8a56-f859e0dd931b","ios":"levelo://app?vid=81c3d2e1-d711-4403-8a56-f859e0dd931b"},"vehicle_type_id":"4","last_reported":1701500763,"current_range_meters":21200,"station_id":"","pricing_plan_id":"free"},{"bike_id":"662d7ac0-b60c-4589-b775-59c466096683","system_id":"levelo_inurba_marseille","lat":43.325233,"lon":5.414318,"is_reserved":false,"is_disabled":false,"rental_uris":{"android":"levelo://app?vid=662d7ac0-b60c-4589-b775-59c466096683","ios":"levelo://app?vid=662d7ac0-b60c-4589-b775-59c466096683"},"vehicle_type_id":"4","last_reported":1701500763,"current_range_meters":31200,"station_id":"ce4bhq12rcd13ifvqhhg","pricing_plan_id":"free"},{"bike_id":"50f7840e-a9cf-4f40-b946-216ee75649a2","system_id":"levelo_inurba_marseille","lat":43.27611,"lon":5.36108,"is_reserved":false,"is_disabled":false,"rental_uris":{"android":"levelo://app?vid=50f7840e-a9cf-4f40-b946-216ee75649a2","ios":"levelo://app?vid=50f7840e-a9cf-4f40-b946-216ee75649a2"},"vehicle_type_id":"4","last_reported":1701500763,"current_range_meters":3200,"station_id":"ce4bgj92rcd13ifvqbe0","pricing_plan_id":"free"},{"bike_id":"a6d5863c-49f4-43c9-a227-e9384f60b0ce","system_id":"levelo_inurba_marseille","lat":43.276111,"lon":5.361044,"is_reserved":false,"is_disabled":false,"rental_uris":{"android":"levelo://app?vid=a6d5863c-49f4-43c9-a227-e9384f60b0ce","ios":"levelo://app?vid=a6d5863c-49f4-43c9-a227-e9384f60b0ce"},"vehicle_type_id":"4","last_reported":1701500763,"current_range_meters":20000,"station_id":"ce4bgj92rcd13ifvqbe0","pricing_plan_id":"free"},{"bike_id":"0e213d99-3509-4b22-8ea3-187711179b82","system_id":"levelo_inurba_marseille","lat":43.325233,"lon":5.414318,"is_reserved":false,"is_disabled":false,"rental_uris":{"android":"levelo://app?vid=0e213d99-3509-4b22-8ea3-187711179b82","ios":"levelo://app?vid=0e213d99-3509-4b22-8ea3-187711179b82"},"vehicle_type_id":"4","last_reported":1701500763,"current_range_meters":14400,"station_id":"ce4bhq12rcd13ifvqhhg","pricing_plan_id":"free"},{"bike_id":"bcdb50df-13be-4393-adc8-1a79a4e56c43","system_id":"levelo_inurba_marseille","lat":43.28619,"lon":5.40406,"is_reserved":false,"is_disabled":false,"rental_uris":{"android":"levelo://app?vid=bcdb50df-13be-4393-adc8-1a79a4e56c43","ios":"levelo://app?vid=bcdb50df-13be-4393-adc8-1a79a4e56c43"},"vehicle_type_id":"4","last_reported":1701500763,"current_range_meters":400,"station_id":"","pricing_plan_id":"free"},{"bike_id":"f80edf8c-d1c6-4bcf-accf-1373e7b052e3","system_id":"levelo_inurba_marseille","lat":43.280784,"lon":5.396622,"is_reserved":false,"is_disabled":false,"rental_uris":{"android":"levelo://app?vid=f80edf8c-d1c6-4bcf-accf-1373e7b052e3","ios":"levelo://app?vid=f80edf8c-d1c6-4bcf-accf-1373e7b052e3"},"vehicle_type_id":"4","last_reported":1701500763,"current_range_meters":26800,"station_id":"ce4bho12rcd13ifvqh2g","pricing_plan_id":"free"},{"bike_id":"86e7d7d4-9cc6-4c07-8b8c-a501053e5584","system_id":"levelo_inurba_marseille","lat":43.303837,"lon":5.418724,"is_reserved":false,"is_disabled":false,"rental_uris":{"android":"levelo://app?vid=86e7d7d4-9cc6-4c07-8b8c-a501053e5584","ios":"levelo://app?vid=86e7d7d4-9cc6-4c07-8b8c-a501053e5584"},"vehicle_type_id":"4","last_reported":1701500763,"current_range_meters":14400,"station_id":"ce4bhop2rcd13ifvqh7g","pricing_plan_id":"free"},{"bike_id":"dad9420d-36bf-47cb-8906-3c62e7ceb4b7","system_id":"levelo_inurba_marseille","lat":43.30359,"lon":5.41887,"is_reserved":false,"is_disabled":false,"rental_uris":{"android":"levelo://app?vid=dad9420d-36bf-47cb-8906-3c62e7ceb4b7","ios":"levelo://app?vid=dad9420d-36bf-47cb-8906-3c62e7ceb4b7"},"vehicle_type_id":"4","last_reported":1701500763,"current_range_meters":17600,"station_id":"ce4bhop2rcd13ifvqh7g","pricing_plan_id":"free"},{"bike_id":"975d9307-3328-456b-998b-a9c7d3275461","system_id":"levelo_inurba_marseille","lat":43.336148,"lon":5.410349,"is_reserved":false,"is_disabled":false,"rental_uris":{"android":"levelo://app?vid=975d9307-3328-456b-998b-a9c7d3275461","ios":"levelo://app?vid=975d9307-3328-456b-998b-a9c7d3275461"},"vehicle_type_id":"4","last_reported":1701500763,"current_range_meters":26800,"station_id":"ce4bhqh2rcd13ifvqhmg","pricing_plan_id":"free"},{"bike_id":"fc529af3-6020-4b1f-b6e4-1a769a4d8510","system_id":"levelo_inurba_marseille","lat":43.336134,"lon":5.410341,"is_reserved":false,"is_disabled":false,"rental_uris":{"android":"levelo://app?vid=fc529af3-6020-4b1f-b6e4-1a769a4d8510","ios":"levelo://app?vid=fc529af3-6020-4b1f-b6e4-1a769a4d8510"},"vehicle_type_id":"4","last_reported":1701500763,"current_range_meters":28000,"station_id":"ce4bhqh2rcd13ifvqhmg","pricing_plan_id":"free"},{"bike_id":"e42ce7d8-bbf9-46ae-a19b-1f85aea0f865","system_id":"levelo_inurba_marseille","lat":43.33612,"lon":5.410321,"is_reserved":false,"is_disabled":false,"rental_uris":{"android":"levelo://app?vid=e42ce7d8-bbf9-46ae-a19b-1f85aea0f865","ios":"levelo://app?vid=e42ce7d8-bbf9-46ae-a19b-1f85aea0f865"},"vehicle_type_id":"4","last_reported":1701500763,"current_range_meters":24400,"station_id":"ce4bhqh2rcd13ifvqhmg","pricing_plan_id":"free"},{"bike_id":"451e5711-912b-4e6f-ba92-14f20d0093e3","system_id":"levelo_inurba_marseille","lat":43.33612,"lon":5.410321,"is_reserved":false,"is_disabled":false,"rental_uris":{"android":"levelo://app?vid=451e5711-912b-4e6f-ba92-14f20d0093e3","ios":"levelo://app?vid=451e5711-912b-4e6f-ba92-14f20d0093e3"},"vehicle_type_id":"4","last_reported":1701500763,"current_range_meters":21600,"station_id":"ce4bhqh2rcd13ifvqhmg","pricing_plan_id":"free"},{"bike_id":"0256d9f5-c275-485b-a67b-c6d8e2bee501","system_id":"levelo_inurba_marseille","lat":43.317121,"lon":5.423936,"is_reserved":false,"is_disabled":false,"rental_uris":{"android":"levelo://app?vid=0256d9f5-c275-485b-a67b-c6d8e2bee501","ios":"levelo://app?vid=0256d9f5-c275-485b-a67b-c6d8e2bee501"},"vehicle_type_id":"4","last_reported":1701500763,"current_range_meters":29200,"station_id":"ce4bhp92rcd13ifvqhbg","pricing_plan_id":"free"},{"bike_id":"4aa97cd1-6a39-4439-81f1-99ae1420ed06","system_id":"levelo_inurba_marseille","lat":43.310785,"lon":5.424305,"is_reserved":false,"is_disabled":false,"rental_uris":{"android":"levelo://app?vid=4aa97cd1-6a39-4439-81f1-99ae1420ed06","ios":"levelo://app?vid=4aa97cd1-6a39-4439-81f1-99ae1420ed06"},"vehicle_type_id":"4","last_reported":1701500763,"current_range_meters":28400,"station_id":"ce4bhp92rcd13ifvqhag","pricing_plan_id":"free"},{"bike_id":"894f6494-585b-4b1b-a39f-39b137cf17d0","system_id":"levelo_inurba_marseille","lat":43.310785,"lon":5.424305,"is_reserved":false,"is_disabled":false,"rental_uris":{"android":"levelo://app?vid=894f6494-585b-4b1b-a39f-39b137cf17d0","ios":"levelo://app?vid=894f6494-585b-4b1b-a39f-39b137cf17d0"},"vehicle_type_id":"4","last_reported":1701500763,"current_range_meters":10800,"station_id":"ce4bhp92rcd13ifvqhag","pricing_plan_id":"free"},{"bike_id":"9edcabe8-94c8-40df-bf5c-819e838b7050","system_id":"levelo_inurba_marseille","lat":43.340804,"lon":5.410219,"is_reserved":false,"is_disabled":false,"rental_uris":{"android":"levelo://app?vid=9edcabe8-94c8-40df-bf5c-819e838b7050","ios":"levelo://app?vid=9edcabe8-94c8-40df-bf5c-819e838b7050"},"vehicle_type_id":"4","last_reported":1701500763,"current_range_meters":16000,"station_id":"ce4bhqh2rcd13ifvqhlg","pricing_plan_id":"free"},{"bike_id":"ec8cda27-8133-4ca8-abd6-6a978c40f976","system_id":"levelo_inurba_marseille","lat":43.340804,"lon":5.410219,"is_reserved":false,"is_disabled":false,"rental_uris":{"android":"levelo://app?vid=ec8cda27-8133-4ca8-abd6-6a978c40f976","ios":"levelo://app?vid=ec8cda27-8133-4ca8-abd6-6a978c40f976"},"vehicle_type_id":"4","last_reported":1701500763,"current_range_meters":31200,"station_id":"ce4bhqh2rcd13ifvqhlg","pricing_plan_id":"free"},{"bike_id":"209aad89-6ad1-4be7-b24f-a81813d47839","system_id":"levelo_inurba_marseille","lat":43.340804,"lon":5.410219,"is_reserved":false,"is_disabled":false,"rental_uris":{"android":"levelo://app?vid=209aad89-6ad1-4be7-b24f-a81813d47839","ios":"levelo://app?vid=209aad89-6ad1-4be7-b24f-a81813d47839"},"vehicle_type_id":"4","last_reported":1701500763,"current_range_meters":8800,"station_id":"ce4bhqh2rcd13ifvqhlg","pricing_plan_id":"free"},{"bike_id":"7729778a-d587-4a31-9e2a-fc6f9d799c22","system_id":"levelo_inurba_marseille","lat":43.340804,"lon":5.410219,"is_reserved":false,"is_disabled":false,"rental_uris":{"android":"levelo://app?vid=7729778a-d587-4a31-9e2a-fc6f9d799c22","ios":"levelo://app?vid=7729778a-d587-4a31-9e2a-fc6f9d799c22"},"vehicle_type_id":"4","last_reported":1701500763,"current_range_meters":29600,"station_id":"ce4bhqh2rcd13ifvqhlg","pricing_plan_id":"free"},{"bike_id":"77ea5544-221c-41d5-9d0d-96a805abb3d4","system_id":"levelo_inurba_marseille","lat":43.274103,"lon":5.394016,"is_reserved":false,"is_disabled":false,"rental_uris":{"android":"levelo://app?vid=77ea5544-221c-41d5-9d0d-96a805abb3d4","ios":"levelo://app?vid=77ea5544-221c-41d5-9d0d-96a805abb3d4"},"vehicle_type_id":"4","last_reported":1701500763,"current_range_meters":31200,"station_id":"ce4bhdp2rcd13ifvqf20","pricing_plan_id":"free"},{"bike_id":"c0c04cc4-a717-4722-a246-757fbde82c2e","system_id":"levelo_inurba_marseille","lat":43.273129,"lon":5.390725,"is_reserved":false,"is_disabled":false,"rental_uris":{"android":"levelo://app?vid=c0c04cc4-a717-4722-a246-757fbde82c2e","ios":"levelo://app?vid=c0c04cc4-a717-4722-a246-757fbde82c2e"},"vehicle_type_id":"4","last_reported":1701500763,"current_range_meters":24800,"station_id":"ce4bhgp2rcd13ifvqfe0","pricing_plan_id":"free"},{"bike_id":"5cb2a0c4-ebfe-4138-ac4b-a91d569f0c9d","system_id":"levelo_inurba_marseille","lat":43.273125,"lon":5.390731,"is_reserved":false,"is_disabled":false,"rental_uris":{"android":"levelo://app?vid=5cb2a0c4-ebfe-4138-ac4b-a91d569f0c9d","ios":"levelo://app?vid=5cb2a0c4-ebfe-4138-ac4b-a91d569f0c9d"},"vehicle_type_id":"4","last_reported":1701500763,"current_range_meters":29600,"station_id":"ce4bhgp2rcd13ifvqfe0","pricing_plan_id":"free"},{"bike_id":"a3527c32-1fa7-4ebe-9b65-a997c7b104de","system_id":"levelo_inurba_marseille","lat":43.30413,"lon":5.42536,"is_reserved":false,"is_disabled":false,"rental_uris":{"android":"levelo://app?vid=a3527c32-1fa7-4ebe-9b65-a997c7b104de","ios":"levelo://app?vid=a3527c32-1fa7-4ebe-9b65-a997c7b104de"},"vehicle_type_id":"4","last_reported":1701500763,"current_range_meters":15600,"station_id":"ce4bhoh2rcd13ifvqh6g","pricing_plan_id":"free"},{"bike_id":"7ed57e64-d5e4-414f-8eb1-b422e851258b","system_id":"levelo_inurba_marseille","lat":43.295523,"lon":5.422926,"is_reserved":false,"is_disabled":false,"rental_uris":{"android":"levelo://app?vid=7ed57e64-d5e4-414f-8eb1-b422e851258b","ios":"levelo://app?vid=7ed57e64-d5e4-414f-8eb1-b422e851258b"},"vehicle_type_id":"4","last_reported":1701500763,"current_range_meters":25600,"station_id":"ce4bhph2rcd13ifvqhdg","pricing_plan_id":"free"},{"bike_id":"9d89a30e-a148-4064-81e9-03b55b9015f4","system_id":"levelo_inurba_marseille","lat":43.272116,"lon":5.391763,"is_reserved":false,"is_disabled":false,"rental_uris":{"android":"levelo://app?vid=9d89a30e-a148-4064-81e9-03b55b9015f4","ios":"levelo://app?vid=9d89a30e-a148-4064-81e9-03b55b9015f4"},"vehicle_type_id":"4","last_reported":1701500763,"current_range_meters":27600,"station_id":"ce4bhhp2rcd13ifvqfm0","pricing_plan_id":"free"},{"bike_id":"d783046e-c430-4080-a3fa-5cedff0852f8","system_id":"levelo_inurba_marseille","lat":43.278128,"lon":5.407195,"is_reserved":false,"is_disabled":false,"rental_uris":{"android":"levelo://app?vid=d783046e-c430-4080-a3fa-5cedff0852f8","ios":"levelo://app?vid=d783046e-c430-4080-a3fa-5cedff0852f8"},"vehicle_type_id":"4","last_reported":1701500763,"current_range_meters":31200,"station_id":"ce4bhnh2rcd13ifvqgtg","pricing_plan_id":"free"},{"bike_id":"bb88f6d9-70cc-4908-9af4-1ccee985e522","system_id":"levelo_inurba_marseille","lat":43.278128,"lon":5.407195,"is_reserved":false,"is_disabled":false,"rental_uris":{"android":"levelo://app?vid=bb88f6d9-70cc-4908-9af4-1ccee985e522","ios":"levelo://app?vid=bb88f6d9-70cc-4908-9af4-1ccee985e522"},"vehicle_type_id":"4","last_reported":1701500763,"current_range_meters":27600,"station_id":"ce4bhnh2rcd13ifvqgtg","pricing_plan_id":"free"},{"bike_id":"d24693a5-4983-4c3e-9bf5-09ae29fff921","system_id":"levelo_inurba_marseille","lat":43.269467,"lon":5.386439,"is_reserved":false,"is_disabled":false,"rental_uris":{"android":"levelo://app?vid=d24693a5-4983-4c3e-9bf5-09ae29fff921","ios":"levelo://app?vid=d24693a5-4983-4c3e-9bf5-09ae29fff921"},"vehicle_type_id":"4","last_reported":1701500763,"current_range_meters":30400,"station_id":"ce4bhh92rcd13ifvqfh0","pricing_plan_id":"free"},{"bike_id":"58e74047-65e4-4d03-8882-ac70be0a0d9b","system_id":"levelo_inurba_marseille","lat":43.269467,"lon":5.386439,"is_reserved":false,"is_disabled":false,"rental_uris":{"android":"levelo://app?vid=58e74047-65e4-4d03-8882-ac70be0a0d9b","ios":"levelo://app?vid=58e74047-65e4-4d03-8882-ac70be0a0d9b"},"vehicle_type_id":"4","last_reported":1701500763,"current_range_meters":27600,"station_id":"ce4bhh92rcd13ifvqfh0","pricing_plan_id":"free"},{"bike_id":"43088efb-217b-4e64-8c5d-be3c1718bfaf","system_id":"levelo_inurba_marseille","lat":43.269319,"lon":5.389397,"is_reserved":false,"is_disabled":false,"rental_uris":{"android":"levelo://app?vid=43088efb-217b-4e64-8c5d-be3c1718bfaf","ios":"levelo://app?vid=43088efb-217b-4e64-8c5d-be3c1718bfaf"},"vehicle_type_id":"4","last_reported":1701500763,"current_range_meters":28000,"station_id":"ce4bhhh2rcd13ifvqfl0","pricing_plan_id":"free"},{"bike_id":"57d7111f-fb23-4ada-af85-b112245d6401","system_id":"levelo_inurba_marseille","lat":43.269319,"lon":5.389397,"is_reserved":false,"is_disabled":false,"rental_uris":{"android":"levelo://app?vid=57d7111f-fb23-4ada-af85-b112245d6401","ios":"levelo://app?vid=57d7111f-fb23-4ada-af85-b112245d6401"},"vehicle_type_id":"4","last_reported":1701500763,"current_range_meters":31200,"station_id":"ce4bhhh2rcd13ifvqfl0","pricing_plan_id":"free"},{"bike_id":"a2d420dd-14be-462d-a1c6-cb06f97f2ed5","system_id":"levelo_inurba_marseille","lat":43.27996,"lon":5.416624,"is_reserved":false,"is_disabled":false,"rental_uris":{"android":"levelo://app?vid=a2d420dd-14be-462d-a1c6-cb06f97f2ed5","ios":"levelo://app?vid=a2d420dd-14be-462d-a1c6-cb06f97f2ed5"},"vehicle_type_id":"4","last_reported":1701500763,"current_range_meters":31200,"station_id":"ce4bho12rcd13ifvqh1g","pricing_plan_id":"free"},{"bike_id":"8a5a972f-0927-4808-b102-cafd69087f2d","system_id":"levelo_inurba_marseille","lat":43.27986,"lon":5.41666,"is_reserved":false,"is_disabled":false,"rental_uris":{"android":"levelo://app?vid=8a5a972f-0927-4808-b102-cafd69087f2d","ios":"levelo://app?vid=8a5a972f-0927-4808-b102-cafd69087f2d"},"vehicle_type_id":"4","last_reported":1701500763,"current_range_meters":12800,"station_id":"ce4bho12rcd13ifvqh1g","pricing_plan_id":"free"},{"bike_id":"759812df-0eb6-40a6-ad6a-406c9a951569","system_id":"levelo_inurba_marseille","lat":43.267966,"lon":5.393976,"is_reserved":false,"is_disabled":false,"rental_uris":{"android":"levelo://app?vid=759812df-0eb6-40a6-ad6a-406c9a951569","ios":"levelo://app?vid=759812df-0eb6-40a6-ad6a-406c9a951569"},"vehicle_type_id":"4","last_reported":1701500763,"current_range_meters":27600,"station_id":"ce4bhh12rcd13ifvqfg0","pricing_plan_id":"free"},{"bike_id":"90afca6f-e8f9-4fca-a84e-a9e37ac4635b","system_id":"levelo_inurba_marseille","lat":43.265571,"lon":5.390032,"is_reserved":false,"is_disabled":false,"rental_uris":{"android":"levelo://app?vid=90afca6f-e8f9-4fca-a84e-a9e37ac4635b","ios":"levelo://app?vid=90afca6f-e8f9-4fca-a84e-a9e37ac4635b"},"vehicle_type_id":"4","last_reported":1701500763,"current_range_meters":26800,"station_id":"ce4bhe12rcd13ifvqf30","pricing_plan_id":"free"},{"bike_id":"55b33a5c-1177-4dd9-b3a0-e993463bd4e2","system_id":"levelo_inurba_marseille","lat":43.308051,"lon":5.43527,"is_reserved":false,"is_disabled":false,"rental_uris":{"android":"levelo://app?vid=55b33a5c-1177-4dd9-b3a0-e993463bd4e2","ios":"levelo://app?vid=55b33a5c-1177-4dd9-b3a0-e993463bd4e2"},"vehicle_type_id":"4","last_reported":1701500763,"current_range_meters":30000,"station_id":"ce4bhph2rcd13ifvqheg","pricing_plan_id":"free"},{"bike_id":"13b133ea-fc07-4145-9d1a-90894369bf9d","system_id":"levelo_inurba_marseille","lat":43.26567,"lon":5.39007,"is_reserved":false,"is_disabled":false,"rental_uris":{"android":"levelo://app?vid=13b133ea-fc07-4145-9d1a-90894369bf9d","ios":"levelo://app?vid=13b133ea-fc07-4145-9d1a-90894369bf9d"},"vehicle_type_id":"4","last_reported":1701500763,"current_range_meters":30400,"station_id":"ce4bhe12rcd13ifvqf30","pricing_plan_id":"free"},{"bike_id":"f953a590-6e63-48a1-8c9a-f0c79614e5b1","system_id":"levelo_inurba_marseille","lat":43.26566,"lon":5.39004,"is_reserved":false,"is_disabled":false,"rental_uris":{"android":"levelo://app?vid=f953a590-6e63-48a1-8c9a-f0c79614e5b1","ios":"levelo://app?vid=f953a590-6e63-48a1-8c9a-f0c79614e5b1"},"vehicle_type_id":"4","last_reported":1701500763,"current_range_meters":1600,"station_id":"ce4bhe12rcd13ifvqf30","pricing_plan_id":"free"},{"bike_id":"31062b17-44a0-427c-837b-96ecf5c8d1aa","system_id":"levelo_inurba_marseille","lat":43.265569,"lon":5.390047,"is_reserved":false,"is_disabled":false,"rental_uris":{"android":"levelo://app?vid=31062b17-44a0-427c-837b-96ecf5c8d1aa","ios":"levelo://app?vid=31062b17-44a0-427c-837b-96ecf5c8d1aa"},"vehicle_type_id":"4","last_reported":1701500763,"current_range_meters":26400,"station_id":"ce4bhe12rcd13ifvqf30","pricing_plan_id":"free"},{"bike_id":"8b45f22c-9fb7-415f-9223-f8f6a44193da","system_id":"levelo_inurba_marseille","lat":43.265569,"lon":5.390047,"is_reserved":false,"is_disabled":false,"rental_uris":{"android":"levelo://app?vid=8b45f22c-9fb7-415f-9223-f8f6a44193da","ios":"levelo://app?vid=8b45f22c-9fb7-415f-9223-f8f6a44193da"},"vehicle_type_id":"4","last_reported":1701500763,"current_range_meters":14400,"station_id":"ce4bhe12rcd13ifvqf30","pricing_plan_id":"free"},{"bike_id":"3be3e945-2454-4533-a750-4a1c767ca5f7","system_id":"levelo_inurba_marseille","lat":43.26565,"lon":5.39008,"is_reserved":false,"is_disabled":false,"rental_uris":{"android":"levelo://app?vid=3be3e945-2454-4533-a750-4a1c767ca5f7","ios":"levelo://app?vid=3be3e945-2454-4533-a750-4a1c767ca5f7"},"vehicle_type_id":"4","last_reported":1701500763,"current_range_meters":24400,"station_id":"ce4bhe12rcd13ifvqf30","pricing_plan_id":"free"},{"bike_id":"fae5d103-843d-40a3-a56d-a3566852e11a","system_id":"levelo_inurba_marseille","lat":43.265569,"lon":5.390047,"is_reserved":false,"is_disabled":false,"rental_uris":{"android":"levelo://app?vid=fae5d103-843d-40a3-a56d-a3566852e11a","ios":"levelo://app?vid=fae5d103-843d-40a3-a56d-a3566852e11a"},"vehicle_type_id":"4","last_reported":1701500763,"current_range_meters":15200,"station_id":"ce4bhe12rcd13ifvqf30","pricing_plan_id":"free"},{"bike_id":"3566be00-75b6-403d-b6df-62c4cf4d0f7c","system_id":"levelo_inurba_marseille","lat":43.26942,"lon":5.40263,"is_reserved":false,"is_disabled":false,"rental_uris":{"android":"levelo://app?vid=3566be00-75b6-403d-b6df-62c4cf4d0f7c","ios":"levelo://app?vid=3566be00-75b6-403d-b6df-62c4cf4d0f7c"},"vehicle_type_id":"4","last_reported":1701500763,"current_range_meters":24000,"station_id":"cjm6bp8fraef2m0cb0m0","pricing_plan_id":"free"},{"bike_id":"cf20c175-6988-4473-8c7d-b67449351266","system_id":"levelo_inurba_marseille","lat":43.317104,"lon":5.436818,"is_reserved":false,"is_disabled":false,"rental_uris":{"android":"levelo://app?vid=cf20c175-6988-4473-8c7d-b67449351266","ios":"levelo://app?vid=cf20c175-6988-4473-8c7d-b67449351266"},"vehicle_type_id":"4","last_reported":1701500763,"current_range_meters":29600,"station_id":"ce4bhp92rcd13ifvqhcg","pricing_plan_id":"free"},{"bike_id":"c71160fc-c7b7-4c0b-8b7c-da5014dcb825","system_id":"levelo_inurba_marseille","lat":43.317104,"lon":5.436818,"is_reserved":false,"is_disabled":false,"rental_uris":{"android":"levelo://app?vid=c71160fc-c7b7-4c0b-8b7c-da5014dcb825","ios":"levelo://app?vid=c71160fc-c7b7-4c0b-8b7c-da5014dcb825"},"vehicle_type_id":"4","last_reported":1701500763,"current_range_meters":31200,"station_id":"ce4bhp92rcd13ifvqhcg","pricing_plan_id":"free"},{"bike_id":"f9cac9a5-67a1-4158-a2a6-203ab176f26c","system_id":"levelo_inurba_marseille","lat":43.271388,"lon":5.409269,"is_reserved":false,"is_disabled":false,"rental_uris":{"android":"levelo://app?vid=f9cac9a5-67a1-4158-a2a6-203ab176f26c","ios":"levelo://app?vid=f9cac9a5-67a1-4158-a2a6-203ab176f26c"},"vehicle_type_id":"4","last_reported":1701500763,"current_range_meters":31200,"station_id":"ce4bhl12rcd13ifvqgf0","pricing_plan_id":"free"},{"bike_id":"e023fcae-9e32-401b-a85c-78f48248b0bc","system_id":"levelo_inurba_marseille","lat":43.271368,"lon":5.40928,"is_reserved":false,"is_disabled":false,"rental_uris":{"android":"levelo://app?vid=e023fcae-9e32-401b-a85c-78f48248b0bc","ios":"levelo://app?vid=e023fcae-9e32-401b-a85c-78f48248b0bc"},"vehicle_type_id":"4","last_reported":1701500763,"current_range_meters":31200,"station_id":"ce4bhl12rcd13ifvqgf0","pricing_plan_id":"free"},{"bike_id":"62f6648c-6f6e-407f-b8b6-e2d8c5cf7299","system_id":"levelo_inurba_marseille","lat":43.271368,"lon":5.40928,"is_reserved":false,"is_disabled":false,"rental_uris":{"android":"levelo://app?vid=62f6648c-6f6e-407f-b8b6-e2d8c5cf7299","ios":"levelo://app?vid=62f6648c-6f6e-407f-b8b6-e2d8c5cf7299"},"vehicle_type_id":"4","last_reported":1701500763,"current_range_meters":7600,"station_id":"ce4bhl12rcd13ifvqgf0","pricing_plan_id":"free"},{"bike_id":"2ba9db67-bc08-4181-91bc-5b87bbc9227d","system_id":"levelo_inurba_marseille","lat":43.26202,"lon":5.379299,"is_reserved":false,"is_disabled":false,"rental_uris":{"android":"levelo://app?vid=2ba9db67-bc08-4181-91bc-5b87bbc9227d","ios":"levelo://app?vid=2ba9db67-bc08-4181-91bc-5b87bbc9227d"},"vehicle_type_id":"4","last_reported":1701500763,"current_range_meters":28400,"station_id":"ce4bhjp2rcd13ifvqg90","pricing_plan_id":"free"},{"bike_id":"755eb63e-5a2f-4860-9b00-08b82981fdb5","system_id":"levelo_inurba_marseille","lat":43.271368,"lon":5.40928,"is_reserved":false,"is_disabled":false,"rental_uris":{"android":"levelo://app?vid=755eb63e-5a2f-4860-9b00-08b82981fdb5","ios":"levelo://app?vid=755eb63e-5a2f-4860-9b00-08b82981fdb5"},"vehicle_type_id":"4","last_reported":1701500763,"current_range_meters":22800,"station_id":"ce4bhl12rcd13ifvqgf0","pricing_plan_id":"free"},{"bike_id":"be554e14-baf6-4d39-bbf3-064c681b17e0","system_id":"levelo_inurba_marseille","lat":43.267959,"lon":5.402687,"is_reserved":false,"is_disabled":false,"rental_uris":{"android":"levelo://app?vid=be554e14-baf6-4d39-bbf3-064c681b17e0","ios":"levelo://app?vid=be554e14-baf6-4d39-bbf3-064c681b17e0"},"vehicle_type_id":"4","last_reported":1701500763,"current_range_meters":28800,"station_id":"ce501612rcd8frsf0b60","pricing_plan_id":"free"},{"bike_id":"a265f57d-2203-4406-8278-bc194922c399","system_id":"levelo_inurba_marseille","lat":43.28155,"lon":5.42636,"is_reserved":false,"is_disabled":false,"rental_uris":{"android":"levelo://app?vid=a265f57d-2203-4406-8278-bc194922c399","ios":"levelo://app?vid=a265f57d-2203-4406-8278-bc194922c399"},"vehicle_type_id":"4","last_reported":1701500763,"current_range_meters":29200,"station_id":"ce4bhnh2rcd13ifvqgug","pricing_plan_id":"free"},{"bike_id":"ec886ae1-741d-43da-acce-0b8b52a6f8b1","system_id":"levelo_inurba_marseille","lat":43.28156,"lon":5.4264,"is_reserved":false,"is_disabled":false,"rental_uris":{"android":"levelo://app?vid=ec886ae1-741d-43da-acce-0b8b52a6f8b1","ios":"levelo://app?vid=ec886ae1-741d-43da-acce-0b8b52a6f8b1"},"vehicle_type_id":"4","last_reported":1701500763,"current_range_meters":4400,"station_id":"ce4bhnh2rcd13ifvqgug","pricing_plan_id":"free"},{"bike_id":"b802834e-51f4-41a4-96cb-c31681473515","system_id":"levelo_inurba_marseille","lat":43.281511,"lon":5.42645,"is_reserved":false,"is_disabled":false,"rental_uris":{"android":"levelo://app?vid=b802834e-51f4-41a4-96cb-c31681473515","ios":"levelo://app?vid=b802834e-51f4-41a4-96cb-c31681473515"},"vehicle_type_id":"4","last_reported":1701500763,"current_range_meters":30400,"station_id":"ce4bhnh2rcd13ifvqgug","pricing_plan_id":"free"},{"bike_id":"3de40b48-7293-4590-b1e4-a9c54e991d0a","system_id":"levelo_inurba_marseille","lat":43.28154,"lon":5.42648,"is_reserved":false,"is_disabled":false,"rental_uris":{"android":"levelo://app?vid=3de40b48-7293-4590-b1e4-a9c54e991d0a","ios":"levelo://app?vid=3de40b48-7293-4590-b1e4-a9c54e991d0a"},"vehicle_type_id":"4","last_reported":1701500763,"current_range_meters":16000,"station_id":"ce4bhnh2rcd13ifvqgug","pricing_plan_id":"free"},{"bike_id":"3532a786-7312-4db1-88be-2e5e8a274941","system_id":"levelo_inurba_marseille","lat":43.281527,"lon":5.426484,"is_reserved":false,"is_disabled":false,"rental_uris":{"android":"levelo://app?vid=3532a786-7312-4db1-88be-2e5e8a274941","ios":"levelo://app?vid=3532a786-7312-4db1-88be-2e5e8a274941"},"vehicle_type_id":"4","last_reported":1701500763,"current_range_meters":24800,"station_id":"ce4bhnh2rcd13ifvqgug","pricing_plan_id":"free"},{"bike_id":"aa32d31c-2cc3-4bda-a3f0-5b3d1a2f9ae5","system_id":"levelo_inurba_marseille","lat":43.28148,"lon":5.42644,"is_reserved":false,"is_disabled":false,"rental_uris":{"android":"levelo://app?vid=aa32d31c-2cc3-4bda-a3f0-5b3d1a2f9ae5","ios":"levelo://app?vid=aa32d31c-2cc3-4bda-a3f0-5b3d1a2f9ae5"},"vehicle_type_id":"4","last_reported":1701500763,"current_range_meters":4800,"station_id":"ce4bhnh2rcd13ifvqgug","pricing_plan_id":"free"},{"bike_id":"81f4f34a-8d36-4c09-961e-e42c57ef3483","system_id":"levelo_inurba_marseille","lat":43.28147,"lon":5.42645,"is_reserved":false,"is_disabled":false,"rental_uris":{"android":"levelo://app?vid=81f4f34a-8d36-4c09-961e-e42c57ef3483","ios":"levelo://app?vid=81f4f34a-8d36-4c09-961e-e42c57ef3483"},"vehicle_type_id":"4","last_reported":1701500763,"current_range_meters":800,"station_id":"ce4bhnh2rcd13ifvqgug","pricing_plan_id":"free"},{"bike_id":"d3df04f1-aa36-401c-b9f0-16ea3bba87de","system_id":"levelo_inurba_marseille","lat":43.28155,"lon":5.42653,"is_reserved":false,"is_disabled":false,"rental_uris":{"android":"levelo://app?vid=d3df04f1-aa36-401c-b9f0-16ea3bba87de","ios":"levelo://app?vid=d3df04f1-aa36-401c-b9f0-16ea3bba87de"},"vehicle_type_id":"4","last_reported":1701500763,"current_range_meters":14400,"station_id":"ce4bhnh2rcd13ifvqgug","pricing_plan_id":"free"},{"bike_id":"134ca5b8-0967-4a97-a0ab-58c282331702","system_id":"levelo_inurba_marseille","lat":43.2607,"lon":5.393983,"is_reserved":false,"is_disabled":false,"rental_uris":{"android":"levelo://app?vid=134ca5b8-0967-4a97-a0ab-58c282331702","ios":"levelo://app?vid=134ca5b8-0967-4a97-a0ab-58c282331702"},"vehicle_type_id":"4","last_reported":1701500763,"current_range_meters":23600,"station_id":"ce4bhh92rcd13ifvqfj0","pricing_plan_id":"free"},{"bike_id":"a11d4f74-80a0-4f6c-a0a0-23c43cd9392b","system_id":"levelo_inurba_marseille","lat":43.275028,"lon":5.424534,"is_reserved":false,"is_disabled":false,"rental_uris":{"android":"levelo://app?vid=a11d4f74-80a0-4f6c-a0a0-23c43cd9392b","ios":"levelo://app?vid=a11d4f74-80a0-4f6c-a0a0-23c43cd9392b"},"vehicle_type_id":"4","last_reported":1701500763,"current_range_meters":20000,"station_id":"ce4bhn92rcd13ifvqgrg","pricing_plan_id":"free"},{"bike_id":"710b3daf-bf5f-41e4-82c6-d8fd52027520","system_id":"levelo_inurba_marseille","lat":43.275028,"lon":5.424534,"is_reserved":false,"is_disabled":false,"rental_uris":{"android":"levelo://app?vid=710b3daf-bf5f-41e4-82c6-d8fd52027520","ios":"levelo://app?vid=710b3daf-bf5f-41e4-82c6-d8fd52027520"},"vehicle_type_id":"4","last_reported":1701500763,"current_range_meters":24800,"station_id":"ce4bhn92rcd13ifvqgrg","pricing_plan_id":"free"},{"bike_id":"5465ab4d-f99f-48b0-9201-2349ea9fec71","system_id":"levelo_inurba_marseille","lat":43.275028,"lon":5.424534,"is_reserved":false,"is_disabled":false,"rental_uris":{"android":"levelo://app?vid=5465ab4d-f99f-48b0-9201-2349ea9fec71","ios":"levelo://app?vid=5465ab4d-f99f-48b0-9201-2349ea9fec71"},"vehicle_type_id":"4","last_reported":1701500763,"current_range_meters":19200,"station_id":"ce4bhn92rcd13ifvqgrg","pricing_plan_id":"free"},{"bike_id":"d5f43b51-2df4-40a4-8cb3-7a5ecaaf3f28","system_id":"levelo_inurba_marseille","lat":43.275028,"lon":5.424534,"is_reserved":false,"is_disabled":false,"rental_uris":{"android":"levelo://app?vid=d5f43b51-2df4-40a4-8cb3-7a5ecaaf3f28","ios":"levelo://app?vid=d5f43b51-2df4-40a4-8cb3-7a5ecaaf3f28"},"vehicle_type_id":"4","last_reported":1701500763,"current_range_meters":16800,"station_id":"ce4bhn92rcd13ifvqgrg","pricing_plan_id":"free"},{"bike_id":"994caf70-8e1f-40de-af4c-a7ce43a6b2d4","system_id":"levelo_inurba_marseille","lat":43.275028,"lon":5.424534,"is_reserved":false,"is_disabled":false,"rental_uris":{"android":"levelo://app?vid=994caf70-8e1f-40de-af4c-a7ce43a6b2d4","ios":"levelo://app?vid=994caf70-8e1f-40de-af4c-a7ce43a6b2d4"},"vehicle_type_id":"4","last_reported":1701500763,"current_range_meters":30800,"station_id":"ce4bhn92rcd13ifvqgrg","pricing_plan_id":"free"},{"bike_id":"bca0fa38-5660-402d-8eb6-c035f953ba94","system_id":"levelo_inurba_marseille","lat":43.2608,"lon":5.39768,"is_reserved":false,"is_disabled":false,"rental_uris":{"android":"levelo://app?vid=bca0fa38-5660-402d-8eb6-c035f953ba94","ios":"levelo://app?vid=bca0fa38-5660-402d-8eb6-c035f953ba94"},"vehicle_type_id":"4","last_reported":1701500763,"current_range_meters":12400,"station_id":"","pricing_plan_id":"free"},{"bike_id":"ff9ba92e-f8fb-4a62-b39c-7d6deea29a74","system_id":"levelo_inurba_marseille","lat":43.25578,"lon":5.38236,"is_reserved":false,"is_disabled":false,"rental_uris":{"android":"levelo://app?vid=ff9ba92e-f8fb-4a62-b39c-7d6deea29a74","ios":"levelo://app?vid=ff9ba92e-f8fb-4a62-b39c-7d6deea29a74"},"vehicle_type_id":"4","last_reported":1701500763,"current_range_meters":8000,"station_id":"ce4bhih2rcd13ifvqfs0","pricing_plan_id":"free"},{"bike_id":"bcbaa63e-900e-4166-8d83-d6f28426bdc8","system_id":"levelo_inurba_marseille","lat":43.255749,"lon":5.382313,"is_reserved":false,"is_disabled":false,"rental_uris":{"android":"levelo://app?vid=bcbaa63e-900e-4166-8d83-d6f28426bdc8","ios":"levelo://app?vid=bcbaa63e-900e-4166-8d83-d6f28426bdc8"},"vehicle_type_id":"4","last_reported":1701500763,"current_range_meters":19200,"station_id":"ce4bhih2rcd13ifvqfs0","pricing_plan_id":"free"},{"bike_id":"b50e7963-680b-40e1-ab37-36504f3646f3","system_id":"levelo_inurba_marseille","lat":43.258224,"lon":5.394369,"is_reserved":false,"is_disabled":false,"rental_uris":{"android":"levelo://app?vid=b50e7963-680b-40e1-ab37-36504f3646f3","ios":"levelo://app?vid=b50e7963-680b-40e1-ab37-36504f3646f3"},"vehicle_type_id":"4","last_reported":1701500763,"current_range_meters":28400,"station_id":"ce4bhip2rcd13ifvqft0","pricing_plan_id":"free"},{"bike_id":"5f957d95-e4f6-4778-bd7f-a7990ab59efd","system_id":"levelo_inurba_marseille","lat":43.254947,"lon":5.376454,"is_reserved":false,"is_disabled":false,"rental_uris":{"android":"levelo://app?vid=5f957d95-e4f6-4778-bd7f-a7990ab59efd","ios":"levelo://app?vid=5f957d95-e4f6-4778-bd7f-a7990ab59efd"},"vehicle_type_id":"4","last_reported":1701500763,"current_range_meters":31600,"station_id":"ce4bhh12rcd13ifvqff0","pricing_plan_id":"free"},{"bike_id":"86c1bbfb-43d0-485a-8564-32eb4d98fae5","system_id":"levelo_inurba_marseille","lat":43.254947,"lon":5.376454,"is_reserved":false,"is_disabled":false,"rental_uris":{"android":"levelo://app?vid=86c1bbfb-43d0-485a-8564-32eb4d98fae5","ios":"levelo://app?vid=86c1bbfb-43d0-485a-8564-32eb4d98fae5"},"vehicle_type_id":"4","last_reported":1701500763,"current_range_meters":25200,"station_id":"ce4bhh12rcd13ifvqff0","pricing_plan_id":"free"},{"bike_id":"6b55de0b-bf22-4d3b-bb7b-9bfacee3cb65","system_id":"levelo_inurba_marseille","lat":43.270721,"lon":5.422764,"is_reserved":false,"is_disabled":false,"rental_uris":{"android":"levelo://app?vid=6b55de0b-bf22-4d3b-bb7b-9bfacee3cb65","ios":"levelo://app?vid=6b55de0b-bf22-4d3b-bb7b-9bfacee3cb65"},"vehicle_type_id":"4","last_reported":1701500763,"current_range_meters":31200,"station_id":"ce4bhk92rcd13ifvqgb0","pricing_plan_id":"free"},{"bike_id":"292a6f9a-7610-4701-bedc-5c382c13353c","system_id":"levelo_inurba_marseille","lat":43.270676,"lon":5.422735,"is_reserved":false,"is_disabled":false,"rental_uris":{"android":"levelo://app?vid=292a6f9a-7610-4701-bedc-5c382c13353c","ios":"levelo://app?vid=292a6f9a-7610-4701-bedc-5c382c13353c"},"vehicle_type_id":"4","last_reported":1701500763,"current_range_meters":18400,"station_id":"ce4bhk92rcd13ifvqgb0","pricing_plan_id":"free"},{"bike_id":"56de3f0e-b18c-485a-8c58-e4c4956ba711","system_id":"levelo_inurba_marseille","lat":43.270721,"lon":5.422764,"is_reserved":false,"is_disabled":false,"rental_uris":{"android":"levelo://app?vid=56de3f0e-b18c-485a-8c58-e4c4956ba711","ios":"levelo://app?vid=56de3f0e-b18c-485a-8c58-e4c4956ba711"},"vehicle_type_id":"4","last_reported":1701500763,"current_range_meters":31200,"station_id":"ce4bhk92rcd13ifvqgb0","pricing_plan_id":"free"},{"bike_id":"13d41cfa-759c-4a72-a18b-0525b390fe5c","system_id":"levelo_inurba_marseille","lat":43.270721,"lon":5.422764,"is_reserved":false,"is_disabled":false,"rental_uris":{"android":"levelo://app?vid=13d41cfa-759c-4a72-a18b-0525b390fe5c","ios":"levelo://app?vid=13d41cfa-759c-4a72-a18b-0525b390fe5c"},"vehicle_type_id":"4","last_reported":1701500763,"current_range_meters":30400,"station_id":"ce4bhk92rcd13ifvqgb0","pricing_plan_id":"free"},{"bike_id":"e9983c04-8ba2-4199-91ff-f23b5efe00a0","system_id":"levelo_inurba_marseille","lat":43.258658,"lon":5.398935,"is_reserved":false,"is_disabled":false,"rental_uris":{"android":"levelo://app?vid=e9983c04-8ba2-4199-91ff-f23b5efe00a0","ios":"levelo://app?vid=e9983c04-8ba2-4199-91ff-f23b5efe00a0"},"vehicle_type_id":"4","last_reported":1701500763,"current_range_meters":29200,"station_id":"ce4bhl92rcd13ifvqghg","pricing_plan_id":"free"},{"bike_id":"acce3b6b-c95f-46c6-b4b6-edf03f7be051","system_id":"levelo_inurba_marseille","lat":43.258658,"lon":5.398935,"is_reserved":false,"is_disabled":false,"rental_uris":{"android":"levelo://app?vid=acce3b6b-c95f-46c6-b4b6-edf03f7be051","ios":"levelo://app?vid=acce3b6b-c95f-46c6-b4b6-edf03f7be051"},"vehicle_type_id":"4","last_reported":1701500763,"current_range_meters":31200,"station_id":"ce4bhl92rcd13ifvqghg","pricing_plan_id":"free"},{"bike_id":"68fbda5d-5144-450e-a41d-17c7fc221bd0","system_id":"levelo_inurba_marseille","lat":43.258658,"lon":5.398935,"is_reserved":false,"is_disabled":false,"rental_uris":{"android":"levelo://app?vid=68fbda5d-5144-450e-a41d-17c7fc221bd0","ios":"levelo://app?vid=68fbda5d-5144-450e-a41d-17c7fc221bd0"},"vehicle_type_id":"4","last_reported":1701500763,"current_range_meters":30800,"station_id":"ce4bhl92rcd13ifvqghg","pricing_plan_id":"free"},{"bike_id":"d66c0fdb-df4a-47e6-92d7-19705d3322ce","system_id":"levelo_inurba_marseille","lat":43.258658,"lon":5.398935,"is_reserved":false,"is_disabled":false,"rental_uris":{"android":"levelo://app?vid=d66c0fdb-df4a-47e6-92d7-19705d3322ce","ios":"levelo://app?vid=d66c0fdb-df4a-47e6-92d7-19705d3322ce"},"vehicle_type_id":"4","last_reported":1701500763,"current_range_meters":31200,"station_id":"ce4bhl92rcd13ifvqghg","pricing_plan_id":"free"},{"bike_id":"8260938c-99a0-41e0-9eca-ebe62e09f8e6","system_id":"levelo_inurba_marseille","lat":43.259336,"lon":5.409127,"is_reserved":false,"is_disabled":false,"rental_uris":{"android":"levelo://app?vid=8260938c-99a0-41e0-9eca-ebe62e09f8e6","ios":"levelo://app?vid=8260938c-99a0-41e0-9eca-ebe62e09f8e6"},"vehicle_type_id":"4","last_reported":1701500763,"current_range_meters":21200,"station_id":"ce4bhm92rcd13ifvqglg","pricing_plan_id":"free"},{"bike_id":"99ee76bf-253b-45b6-98c6-870f3c2c3282","system_id":"levelo_inurba_marseille","lat":43.257079,"lon":5.411051,"is_reserved":false,"is_disabled":false,"rental_uris":{"android":"levelo://app?vid=99ee76bf-253b-45b6-98c6-870f3c2c3282","ios":"levelo://app?vid=99ee76bf-253b-45b6-98c6-870f3c2c3282"},"vehicle_type_id":"4","last_reported":1701500763,"current_range_meters":18800,"station_id":"ce4bhkp2rcd13ifvqgd0","pricing_plan_id":"free"},{"bike_id":"f779deaf-feb2-4b7c-b8af-6bb335c0327a","system_id":"levelo_inurba_marseille","lat":43.250009,"lon":5.389195,"is_reserved":false,"is_disabled":false,"rental_uris":{"android":"levelo://app?vid=f779deaf-feb2-4b7c-b8af-6bb335c0327a","ios":"levelo://app?vid=f779deaf-feb2-4b7c-b8af-6bb335c0327a"},"vehicle_type_id":"4","last_reported":1701500763,"current_range_meters":22000,"station_id":"ce4bhgp2rcd13ifvqfd0","pricing_plan_id":"free"},