{"last_updated":1737176864,"ttl":60,"version":"2.2","data":{"bikes":[{"bike_id":"52072248-2047-4f45-baf6-969856ab7a45","system_id":"levelo_inurba_marseille","lat":43.29785,"lon":5.39343,"is_reserved":false,"is_disabled":false,"rental_uris":{"android":"levelo://app?vid=52072248-2047-4f45-baf6-969856ab7a45","ios":"levelo://app?vid=52072248-2047-4f45-baf6-969856ab7a45"},"vehicle_type_id":"4","last_reported":1737176864,"current_range_meters":33200,"station_id":"chh1huq6cuj3fo74tm60","pricing_plan_id":"cebpf4jnsgd1na2vs0mg"},{"bike_id":"0f881e68-539f-46b7-ac38-4fc68735aa91","system_id":"levelo_inurba_marseille","lat":43.28666,"lon":5.36347,"is_reserved":false,"is_disabled":false,"rental_uris":{"android":"levelo://app?vid=0f881e68-539f-46b7-ac38-4fc68735aa91","ios":"levelo://app?vid=0f881e68-539f-46b7-ac38-4fc68735aa91"},"vehicle_type_id":"4","last_reported":1737176864,"current_range_meters":39200,"station_id":"ce4bhah2rcd13ifvqej0","pricing_plan_id":"cebpf4jnsgd1na2vs0mg"},{"bike_id":"02441001-2171-4533-8d00-cde9d711c640","system_id":"levelo_inurba_marseille","lat":43.23962,"lon":5.36625,"is_reserved":false,"is_disabled":false,"rental_uris":{"android":"levelo://app?vid=02441001-2171-4533-8d00-cde9d711c640","ios":"levelo://app?vid=02441001-2171-4533-8d00-cde9d711c640"},"vehicle_type_id":"4","last_reported":1737176864,"current_range_meters":35200,"station_id":"ce4bhi12rcd13ifvqfp0","pricing_plan_id":"cebpf4jnsgd1na2vs0mg"},{"bike_id":"83423ef3-b993-424a-99e2-60978295cc1a","system_id":"levelo_inurba_marseille","lat":43.27989,"lon":5.41662,"is_reserved":false,"is_disabled":false,"rental_uris":{"android":"levelo://app?vid=83423ef3-b993-424a-99e2-60978295cc1a","ios":"levelo://app?vid=83423ef3-b993-424a-99e2-60978295cc1a"},"vehicle_type_id":"4","last_reported":1737176864,"current_range_meters":10800,"station_id":"ce4bho12rcd13ifvqh1g","pricing_plan_id":"cebpf4jnsgd1na2vs0mg"},{"bike_id":"e84b691f-df6c-4038-8188-902ca43a09e5","system_id":"levelo_inurba_marseille","lat":43.30657,"lon":5.40068,"is_reserved":false,"is_disabled":false,"rental_uris":{"android":"levelo://app?vid=e84b691f-df6c-4038-8188-902ca43a09e5","ios":"levelo://app?vid=e84b691f-df6c-4038-8188-902ca43a09e5"},"vehicle_type_id":"4","last_reported":1737176864,"current_range_meters":39200,"station_id":"ce4bh112rcd13ifvqda0","pricing_plan_id":"cebpf4jnsgd1na2vs0mg"},{"bike_id":"ffba9e4f-6eab-475c-a02b-053418152215","system_id":"levelo_inurba_marseille","lat":43.254975,"lon":5.376528,"is_reserved":false,"is_disabled":false,"rental_uris":{"android":"levelo://app?vid=ffba9e4f-6eab-475c-a02b-053418152215","ios":"levelo://app?vid=ffba9e4f-6eab-475c-a02b-053418152215"},"vehicle_type_id":"4","last_reported":1737176864,"current_range_meters":39200,"station_id":"ce4bhh12rcd13ifvqff0","pricing_plan_id":"cebpf4jnsgd1na2vs0mg"},{"bike_id":"b3cba4ee-4550-47d5-b440-5d744bbdbb65","system_id":"levelo_inurba_marseille","lat":43.29636,"lon":5.40608,"is_reserved":false,"is_disabled":false,"rental_uris":{"android":"levelo://app?vid=b3cba4ee-4550-47d5-b440-5d744bbdbb65","ios":"levelo://app?vid=b3cba4ee-4550-47d5-b440-5d744bbdbb65"},"vehicle_type_id":"4","last_reported":1737176864,"current_range_meters":39200,"station_id":"ce4bh0h2rcd13ifvqd60","pricing_plan_id":"cebpf4jnsgd1na2vs0mg"},{"bike_id":"12dd2448-1029-4b7c-89ec-d387df87cf8f","system_id":"levelo_inurba_marseille","lat":43.30801,"lon":5.38157,"is_reserved":false,"is_disabled":false,"rental_uris":{"android":"levelo://app?vid=12dd2448-1029-4b7c-89ec-d387df87cf8f","ios":"levelo://app?vid=12dd2448-1029-4b7c-89ec-d387df87cf8f"},"vehicle_type_id":"4","last_reported":1737176864,"current_range_meters":38800,"station_id":"ce4bgt12rcd13ifvqce0","pricing_plan_id":"cebpf4jnsgd1na2vs0mg"},{"bike_id":"c86b28e8-8d5a-470d-9cf2-27fc2f94c6b2","system_id":"levelo_inurba_marseille","lat":43.28104,"lon":5.37848,"is_reserved":false,"is_disabled":false,"rental_uris":{"android":"levelo://app?vid=c86b28e8-8d5a-470d-9cf2-27fc2f94c6b2","ios":"levelo://app?vid=c86b28e8-8d5a-470d-9cf2-27fc2f94c6b2"},"vehicle_type_id":"4","last_reported":1737176864,"current_range_meters":16800,"station_id":"ce4bha12rcd13ifvqee0","pricing_plan_id":"cebpf4jnsgd1na2vs0mg"},{"bike_id":"b5f69fe0-a4a5-4828-bcfc-720b5636daf0","system_id":"levelo_inurba_marseille","lat":43.2396,"lon":5.36646,"is_reserved":false,"is_disabled":false,"rental_uris":{"android":"levelo://app?vid=b5f69fe0-a4a5-4828-bcfc-720b5636daf0","ios":"levelo://app?vid=b5f69fe0-a4a5-4828-bcfc-720b5636daf0"},"vehicle_type_id":"4","last_reported":1737176864,"current_range_meters":9600,"station_id":"ce4bhi12rcd13ifvqfp0","pricing_plan_id":"cebpf4jnsgd1na2vs0mg"},{"bike_id":"aea0287f-4f91-4afc-9a41-49d56054a64b","system_id":"levelo_inurba_marseille","lat":43.317004,"lon":5.404603,"is_reserved":false,"is_disabled":false,"rental_uris":{"android":"levelo://app?vid=aea0287f-4f91-4afc-9a41-49d56054a64b","ios":"levelo://app?vid=aea0287f-4f91-4afc-9a41-49d56054a64b"},"vehicle_type_id":"4","last_reported":1737176864,"current_range_meters":16800,"station_id":"ce4bh012rcd13ifvqd00","pricing_plan_id":"cebpf4jnsgd1na2vs0mg"},{"bike_id":"5ff1c1c1-92c2-43f7-8f5e-7f9a3f2cf9a0","system_id":"levelo_inurba_marseille","lat":43.24182,"lon":5.39713,"is_reserved":false,"is_disabled":false,"rental_uris":{"android":"levelo://app?vid=5ff1c1c1-92c2-43f7-8f5e-7f9a3f2cf9a0","ios":"levelo://app?vid=5ff1c1c1-92c2-43f7-8f5e-7f9a3f2cf9a0"},"vehicle_type_id":"4","last_reported":1737176864,"current_range_meters":38400,"station_id":"ce4bhn12rcd13ifvqgpg","pricing_plan_id":"cebpf4jnsgd1na2vs0mg"},{"bike_id":"da0080f8-7d77-4266-9654-4ff013a18db1","system_id":"levelo_inurba_marseille","lat":43.31183,"lon":5.38709,"is_reserved":false,"is_disabled":false,"rental_uris":{"android":"levelo://app?vid=da0080f8-7d77-4266-9654-4ff013a18db1","ios":"levelo://app?vid=da0080f8-7d77-4266-9654-4ff013a18db1"},"vehicle_type_id":"4","last_reported":1737176864,"current_range_meters":29600,"station_id":"ce4bgv12rcd13ifvqcp0","pricing_plan_id":"cebpf4jnsgd1na2vs0mg"},{"bike_id":"01605beb-4537-4676-a338-55111b0cf0a7","system_id":"levelo_inurba_marseille","lat":43.28706,"lon":5.37385,"is_reserved":false,"is_disabled":false,"rental_uris":{"android":"levelo://app?vid=01605beb-4537-4676-a338-55111b0cf0a7","ios":"levelo://app?vid=01605beb-4537-4676-a338-55111b0cf0a7"},"vehicle_type_id":"4","last_reported":1737176864,"current_range_meters":8000,"station_id":"ce4bh3p2rcd13ifvqdq0","pricing_plan_id":"cebpf4jnsgd1na2vs0mg"},{"bike_id":"dcc35296-8012-490c-a5f6-166043cf1a42","system_id":"levelo_inurba_marseille","lat":43.29572,"lon":5.39977,"is_reserved":false,"is_disabled":false,"rental_uris":{"android":"levelo://app?vid=dcc35296-8012-490c-a5f6-166043cf1a42","ios":"levelo://app?vid=dcc35296-8012-490c-a5f6-166043cf1a42"},"vehicle_type_id":"4","last_reported":1737176864,"current_range_meters":39200,"station_id":"ce4bh312rcd13ifvqdj0","pricing_plan_id":"cebpf4jnsgd1na2vs0mg"},{"bike_id":"f57aec44-1728-458c-a50e-548d613a9de7","system_id":"levelo_inurba_marseille","lat":43.31315,"lon":5.39715,"is_reserved":false,"is_disabled":false,"rental_uris":{"android":"levelo://app?vid=f57aec44-1728-458c-a50e-548d613a9de7","ios":"levelo://app?vid=f57aec44-1728-458c-a50e-548d613a9de7"},"vehicle_type_id":"4","last_reported":1737176864,"current_range_meters":37600,"station_id":"ce4bgvp2rcd13ifvqcu0","pricing_plan_id":"cebpf4jnsgd1na2vs0mg"},{"bike_id":"a5dcdfc0-546b-4a35-a983-5f8da8f6014c","system_id":"levelo_inurba_marseille","lat":43.309329,"lon":5.401432,"is_reserved":false,"is_disabled":false,"rental_uris":{"android":"levelo://app?vid=a5dcdfc0-546b-4a35-a983-5f8da8f6014c","ios":"levelo://app?vid=a5dcdfc0-546b-4a35-a983-5f8da8f6014c"},"vehicle_type_id":"4","last_reported":1737176864,"current_range_meters":38000,"station_id":"ce4bgvp2rcd13ifvqct0","pricing_plan_id":"cebpf4jnsgd1na2vs0mg"},{"bike_id":"7c4d7825-a39f-4880-ae4c-f2e7f542b813","system_id":"levelo_inurba_marseille","lat":43.29007,"lon":5.35609,"is_reserved":false,"is_disabled":false,"rental_uris":{"android":"levelo://app?vid=7c4d7825-a39f-4880-ae4c-f2e7f542b813","ios":"levelo://app?vid=7c4d7825-a39f-4880-ae4c-f2e7f542b813"},"vehicle_type_id":"4","last_reported":1737176864,"current_range_meters":32800,"station_id":"ce4bhb92rcd13ifvqen0","pricing_plan_id":"cebpf4jnsgd1na2vs0mg"},{"bike_id":"d8876122-ff1e-42bb-a9ac-c66c39d72467","system_id":"levelo_inurba_marseille","lat":43.24378,"lon":5.37067,"is_reserved":false,"is_disabled":false,"rental_uris":{"android":"levelo://app?vid=d8876122-ff1e-42bb-a9ac-c66c39d72467","ios":"levelo://app?vid=d8876122-ff1e-42bb-a9ac-c66c39d72467"},"vehicle_type_id":"4","last_reported":1737176864,"current_range_meters":28000,"station_id":"ce4bhhh2rcd13ifvqfk0","pricing_plan_id":"cebpf4jnsgd1na2vs0mg"},{"bike_id":"29cb8a32-e9f9-4658-bd20-77050ade4ff3","system_id":"levelo_inurba_marseille","lat":43.30877,"lon":5.39634,"is_reserved":false,"is_disabled":false,"rental_uris":{"android":"levelo://app?vid=29cb8a32-e9f9-4658-bd20-77050ade4ff3","ios":"levelo://app?vid=29cb8a32-e9f9-4658-bd20-77050ade4ff3"},"vehicle_type_id":"4","last_reported":1737176864,"current_range_meters":28000,"station_id":"ce4bh012rcd13ifvqcv0","pricing_plan_id":"cebpf4jnsgd1na2vs0mg"},{"bike_id":"9f4eda05-5555-4a46-be23-94ad8fd3d22e","system_id":"levelo_inurba_marseille","lat":43.30144,"lon":5.38778,"is_reserved":false,"is_disabled":false,"rental_uris":{"android":"levelo://app?vid=9f4eda05-5555-4a46-be23-94ad8fd3d22e","ios":"levelo://app?vid=9f4eda05-5555-4a46-be23-94ad8fd3d22e"},"vehicle_type_id":"4","last_reported":1737176864,"current_range_meters":36800,"station_id":"ce4bhoh2rcd13ifvqh6g","pricing_plan_id":"cebpf4jnsgd1na2vs0mg"},{"bike_id":"b8fec1c1-401a-47ca-bedf-01b3cfadb88f","system_id":"levelo_inurba_marseille","lat":43.31274,"lon":5.4017,"is_reserved":false,"is_disabled":false,"rental_uris":{"android":"levelo://app?vid=b8fec1c1-401a-47ca-bedf-01b3cfadb88f","ios":"levelo://app?vid=b8fec1c1-401a-47ca-bedf-01b3cfadb88f"},"vehicle_type_id":"4","last_reported":1737176864,"current_range_meters":34000,"station_id":"ce4bh092rcd13ifvqd30","pricing_plan_id":"cebpf4jnsgd1na2vs0mg"},{"bike_id":"453b4a42-026b-40d5-9f5c-2f1a04698821","system_id":"levelo_inurba_marseille","lat":43.31261,"lon":5.40176,"is_reserved":false,"is_disabled":false,"rental_uris":{"android":"levelo://app?vid=453b4a42-026b-40d5-9f5c-2f1a04698821","ios":"levelo://app?vid=453b4a42-026b-40d5-9f5c-2f1a04698821"},"vehicle_type_id":"4","last_reported":1737176864,"current_range_meters":38800,"station_id":"ce4bh092rcd13ifvqd30","pricing_plan_id":"cebpf4jnsgd1na2vs0mg"},{"bike_id":"f0697377-05d1-4f73-8f0e-bbabf07a6e33","system_id":"levelo_inurba_marseille","lat":43.28846,"lon":5.39313,"is_reserved":false,"is_disabled":false,"rental_uris":{"android":"levelo://app?vid=f0697377-05d1-4f73-8f0e-bbabf07a6e33","ios":"levelo://app?vid=f0697377-05d1-4f73-8f0e-bbabf07a6e33"},"vehicle_type_id":"4","last_reported":1737176864,"current_range_meters":38400,"station_id":"ce4bh2p2rcd13ifvqdi0","pricing_plan_id":"cebpf4jnsgd1na2vs0mg"},{"bike_id":"807d4de6-5d99-4c88-8346-3837866aea2c","system_id":"levelo_inurba_marseille","lat":43.29016,"lon":5.39978,"is_reserved":false,"is_disabled":false,"rental_uris":{"android":"levelo://app?vid=807d4de6-5d99-4c88-8346-3837866aea2c","ios":"levelo://app?vid=807d4de6-5d99-4c88-8346-3837866aea2c"},"vehicle_type_id":"4","last_reported":1737176864,"current_range_meters":31200,"station_id":"ce4bh392rcd13ifvqdm0","pricing_plan_id":"cebpf4jnsgd1na2vs0mg"},{"bike_id":"afff1649-59f3-4475-b17f-4286047a72cf","system_id":"levelo_inurba_marseille","lat":43.30937,"lon":5.40143,"is_reserved":false,"is_disabled":false,"rental_uris":{"android":"levelo://app?vid=afff1649-59f3-4475-b17f-4286047a72cf","ios":"levelo://app?vid=afff1649-59f3-4475-b17f-4286047a72cf"},"vehicle_type_id":"4","last_reported":1737176864,"current_range_meters":19600,"station_id":"ce4bgvp2rcd13ifvqct0","pricing_plan_id":"cebpf4jnsgd1na2vs0mg"},{"bike_id":"f3c94274-f861-4c89-8bb1-1ebe1a531935","system_id":"levelo_inurba_marseille","lat":43.25016,"lon":5.38921,"is_reserved":false,"is_disabled":true,"rental_uris":{"android":"levelo://app?vid=f3c94274-f861-4c89-8bb1-1ebe1a531935","ios":"levelo://app?vid=f3c94274-f861-4c89-8bb1-1ebe1a531935"},"vehicle_type_id":"4","last_reported":1737176864,"current_range_meters":2800,"station_id":"ce4bhgp2rcd13ifvqfd0","pricing_plan_id":"cebpf4jnsgd1na2vs0mg"},{"bike_id":"40d0191c-e810-4a36-a422-bc4c430d36d5","system_id":"levelo_inurba_marseille","lat":43.281519,"lon":5.426551,"is_reserved":false,"is_disabled":false,"rental_uris":{"android":"levelo://app?vid=40d0191c-e810-4a36-a422-bc4c430d36d5","ios":"levelo://app?vid=40d0191c-e810-4a36-a422-bc4c430d36d5"},"vehicle_type_id":"4","last_reported":1737176864,"current_range_meters":19200,"station_id":"ce4bhnh2rcd13ifvqgug","pricing_plan_id":"cebpf4jnsgd1na2vs0mg"},{"bike_id":"ea820ade-d81d-428e-82b9-7f165f7e8e75","system_id":"levelo_inurba_marseille","lat":43.31804,"lon":5.37366,"is_reserved":false,"is_disabled":false,"rental_uris":{"android":"levelo://app?vid=ea820ade-d81d-428e-82b9-7f165f7e8e75","ios":"levelo://app?vid=ea820ade-d81d-428e-82b9-7f165f7e8e75"},"vehicle_type_id":"4","last_reported":1737176864,"current_range_meters":24400,"station_id":"","pricing_plan_id":"cebpf4jnsgd1na2vs0mg"},{"bike_id":"ff4b68f1-ba61-49bc-bc42-1ee83da4c2ee","system_id":"levelo_inurba_marseille","lat":43.30894,"lon":5.39623,"is_reserved":false,"is_disabled":false,"rental_uris":{"android":"levelo://app?vid=ff4b68f1-ba61-49bc-bc42-1ee83da4c2ee","ios":"levelo://app?vid=ff4b68f1-ba61-49bc-bc42-1ee83da4c2ee"},"vehicle_type_id":"4","last_reported":1737176864,"current_range_meters":36800,"station_id":"ce4bh012rcd13ifvqcv0","pricing_plan_id":"cebpf4jnsgd1na2vs0mg"},{"bike_id":"84020291-e3ee-488e-a74c-f035fe041e83","system_id":"levelo_inurba_marseille","lat":43.26954,"lon":5.40257,"is_reserved":false,"is_disabled":false,"rental_uris":{"android":"levelo://app?vid=84020291-e3ee-488e-a74c-f035fe041e83","ios":"levelo://app?vid=84020291-e3ee-488e-a74c-f035fe041e83"},"vehicle_type_id":"4","last_reported":1737176864,"current_range_meters":38400,"station_id":"cjm6bp8fraef2m0cb0m0","pricing_plan_id":"cebpf4jnsgd1na2vs0mg"},{"bike_id":"15c9bac7-063b-4008-8233-689b3351f329","system_id":"levelo_inurba_marseille","lat":43.24814,"lon":5.37444,"is_reserved":false,"is_disabled":false,"rental_uris":{"android":"levelo://app?vid=15c9bac7-063b-4008-8233-689b3351f329","ios":"levelo://app?vid=15c9bac7-063b-4008-8233-689b3351f329"},"vehicle_type_id":"4","last_reported":1737176864,"current_range_meters":38800,"station_id":"ce4bhgh2rcd13ifvqfb0","pricing_plan_id":"cebpf4jnsgd1na2vs0mg"},{"bike_id":"8c854656-dcbb-4282-96d8-4a8ea876f913","system_id":"levelo_inurba_marseille","lat":43.30329,"lon":5.4045,"is_reserved":false,"is_disabled":false,"rental_uris":{"android":"levelo://app?vid=8c854656-dcbb-4282-96d8-4a8ea876f913","ios":"levelo://app?vid=8c854656-dcbb-4282-96d8-4a8ea876f913"},"vehicle_type_id":"4","last_reported":1737176864,"current_range_meters":32800,"station_id":"ce4bh012rcd13ifvqd10","pricing_plan_id":"cebpf4jnsgd1na2vs0mg"},{"bike_id":"6498e19f-09d8-439e-85f8-b19c70bc779d","system_id":"levelo_inurba_marseille","lat":43.30929,"lon":5.40147,"is_reserved":false,"is_disabled":false,"rental_uris":{"android":"levelo://app?vid=6498e19f-09d8-439e-85f8-b19c70bc779d","ios":"levelo://app?vid=6498e19f-09d8-439e-85f8-b19c70bc779d"},"vehicle_type_id":"4","last_reported":1737176864,"current_range_meters":36800,"station_id":"ce4bgvp2rcd13ifvqct0","pricing_plan_id":"cebpf4jnsgd1na2vs0mg"},{"bike_id":"996cc7ad-31ae-48de-8584-bf53e40d5297","system_id":"levelo_inurba_marseille","lat":43.28102,"lon":5.37835,"is_reserved":false,"is_disabled":true,"rental_uris":{"android":"levelo://app?vid=996cc7ad-31ae-48de-8584-bf53e40d5297","ios":"levelo://app?vid=996cc7ad-31ae-48de-8584-bf53e40d5297"},"vehicle_type_id":"4","last_reported":1737176864,"current_range_meters":1200,"station_id":"ce4bha12rcd13ifvqee0","pricing_plan_id":"cebpf4jnsgd1na2vs0mg"},{"bike_id":"b672b566-ae6e-4181-a2cb-0155be334a04","system_id":"levelo_inurba_marseille","lat":43.28941,"lon":5.36628,"is_reserved":false,"is_disabled":true,"rental_uris":{"android":"levelo://app?vid=b672b566-ae6e-4181-a2cb-0155be334a04","ios":"levelo://app?vid=b672b566-ae6e-4181-a2cb-0155be334a04"},"vehicle_type_id":"4","last_reported":1737176864,"current_range_meters":800,"station_id":"ce4bhap2rcd13ifvqek0","pricing_plan_id":"cebpf4jnsgd1na2vs0mg"},{"bike_id":"264e5736-5f1f-488b-9894-7a93e48763e1","system_id":"levelo_inurba_marseille","lat":43.28441,"lon":5.35905,"is_reserved":false,"is_disabled":false,"rental_uris":{"android":"levelo://app?vid=264e5736-5f1f-488b-9894-7a93e48763e1","ios":"levelo://app?vid=264e5736-5f1f-488b-9894-7a93e48763e1"},"vehicle_type_id":"4","last_reported":1737176864,"current_range_meters":14000,"station_id":"ce4bhah2rcd13ifvqei0","pricing_plan_id":"cebpf4jnsgd1na2vs0mg"},{"bike_id":"fd32118a-1e10-4bd3-9c96-03160537b3f3","system_id":"levelo_inurba_marseille","lat":43.28739,"lon":5.36079,"is_reserved":false,"is_disabled":false,"rental_uris":{"android":"levelo://app?vid=fd32118a-1e10-4bd3-9c96-03160537b3f3","ios":"levelo://app?vid=fd32118a-1e10-4bd3-9c96-03160537b3f3"},"vehicle_type_id":"4","last_reported":1737176864,"current_range_meters":24800,"station_id":"cki0cbj6b192h4jlfktg","pricing_plan_id":"cebpf4jnsgd1na2vs0mg"},{"bike_id":"691b9807-39e4-49d3-99ef-db40ae478116","system_id":"levelo_inurba_marseille","lat":43.28271,"lon":5.35072,"is_reserved":false,"is_disabled":false,"rental_uris":{"android":"levelo://app?vid=691b9807-39e4-49d3-99ef-db40ae478116","ios":"levelo://app?vid=691b9807-39e4-49d3-99ef-db40ae478116"},"vehicle_type_id":"4","last_reported":1737176864,"current_range_meters":38000,"station_id":"ce4bhbp2rcd13ifvqerg","pricing_plan_id":"cebpf4jnsgd1na2vs0mg"},{"bike_id":"66ec8711-3dbc-48f7-b091-25773ac6b77c","system_id":"levelo_inurba_marseille","lat":43.28193,"lon":5.44247,"is_reserved":false,"is_disabled":true,"rental_uris":{"android":"levelo://app?vid=66ec8711-3dbc-48f7-b091-25773ac6b77c","ios":"levelo://app?vid=66ec8711-3dbc-48f7-b091-25773ac6b77c"},"vehicle_type_id":"4","last_reported":1737176864,"current_range_meters":0,"station_id":"","pricing_plan_id":"cebpf4jnsgd1na2vs0mg"},{"bike_id":"67c47ba5-b634-4ed4-91c0-15a5c98a5dc9","system_id":"levelo_inurba_marseille","lat":43.28447,"lon":5.35884,"is_reserved":false,"is_disabled":false,"rental_uris":{"android":"levelo://app?vid=67c47ba5-b634-4ed4-91c0-15a5c98a5dc9","ios":"levelo://app?vid=67c47ba5-b634-4ed4-91c0-15a5c98a5dc9"},"vehicle_type_id":"4","last_reported":1737176864,"current_range_meters":28400,"station_id":"ce4bhah2rcd13ifvqei0","pricing_plan_id":"cebpf4jnsgd1na2vs0mg"},{"bike_id":"d9baf2b2-4c58-4ff8-a38f-55c983d26890","system_id":"levelo_inurba_marseille","lat":43.28953,"lon":5.36632,"is_reserved":false,"is_disabled":false,"rental_uris":{"android":"levelo://app?vid=d9baf2b2-4c58-4ff8-a38f-55c983d26890","ios":"levelo://app?vid=d9baf2b2-4c58-4ff8-a38f-55c983d26890"},"vehicle_type_id":"4","last_reported":1737176864,"current_range_meters":24800,"station_id":"ce4bhap2rcd13ifvqek0","pricing_plan_id":"cebpf4jnsgd1na2vs0mg"},{"bike_id":"5e143f2e-5809-48e3-af3c-832b93623f81","system_id":"levelo_inurba_marseille","lat":43.29809,"lon":5.40402,"is_reserved":false,"is_disabled":false,"rental_uris":{"android":"levelo://app?vid=5e143f2e-5809-48e3-af3c-832b93623f81","ios":"levelo://app?vid=5e143f2e-5809-48e3-af3c-832b93623f81"},"vehicle_type_id":"4","last_reported":1737176864,"current_range_meters":39200,"station_id":"ce4bh112rcd13ifvqd90","pricing_plan_id":"cebpf4jnsgd1na2vs0mg"},{"bike_id":"b00fa8b1-43f4-4cb6-87c6-8c029bc12829","system_id":"levelo_inurba_marseille","lat":43.27353,"lon":5.36212,"is_reserved":false,"is_disabled":false,"rental_uris":{"android":"levelo://app?vid=b00fa8b1-43f4-4cb6-87c6-8c029bc12829","ios":"levelo://app?vid=b00fa8b1-43f4-4cb6-87c6-8c029bc12829"},"vehicle_type_id":"4","last_reported":1737176864,"current_range_meters":25200,"station_id":"ce4bhbh2rcd13ifvqeo0","pricing_plan_id":"cebpf4jnsgd1na2vs0mg"},{"bike_id":"d6504604-c486-4686-8ae1-1b87000a920e","system_id":"levelo_inurba_marseille","lat":43.24047,"lon":5.37713,"is_reserved":false,"is_disabled":false,"rental_uris":{"android":"levelo://app?vid=d6504604-c486-4686-8ae1-1b87000a920e","ios":"levelo://app?vid=d6504604-c486-4686-8ae1-1b87000a920e"},"vehicle_type_id":"4","last_reported":1737176864,"current_range_meters":26800,"station_id":"ce4bhnp2rcd13ifvqgvg","pricing_plan_id":"cebpf4jnsgd1na2vs0mg"},{"bike_id":"205bad44-c621-4d52-b263-e1e130d381fc","system_id":"levelo_inurba_marseille","lat":43.30425,"lon":5.39788,"is_reserved":false,"is_disabled":false,"rental_uris":{"android":"levelo://app?vid=205bad44-c621-4d52-b263-e1e130d381fc","ios":"levelo://app?vid=205bad44-c621-4d52-b263-e1e130d381fc"},"vehicle_type_id":"4","last_reported":1737176864,"current_range_meters":14400,"station_id":"ce4bh092rcd13ifvqd20","pricing_plan_id":"cebpf4jnsgd1na2vs0mg"},{"bike_id":"b6727c2a-0037-431b-96be-59029d8169fa","system_id":"levelo_inurba_marseille","lat":43.31218,"lon":5.36815,"is_reserved":false,"is_disabled":false,"rental_uris":{"android":"levelo://app?vid=b6727c2a-0037-431b-96be-59029d8169fa","ios":"levelo://app?vid=b6727c2a-0037-431b-96be-59029d8169fa"},"vehicle_type_id":"4","last_reported":1737176864,"current_range_meters":28000,"station_id":"ce4bgl92rcd13ifvqbq0","pricing_plan_id":"cebpf4jnsgd1na2vs0mg"},{"bike_id":"0ce2ff96-cf7c-44da-8785-cacc89ceb5f3","system_id":"levelo_inurba_marseille","lat":43.275581,"lon":5.384261,"is_reserved":false,"is_disabled":false,"rental_uris":{"android":"levelo://app?vid=0ce2ff96-cf7c-44da-8785-cacc89ceb5f3","ios":"levelo://app?vid=0ce2ff96-cf7c-44da-8785-cacc89ceb5f3"},"vehicle_type_id":"4","last_reported":1737176864,"current_range_meters":38800,"station_id":"ce4bhh92rcd13ifvqfi0","pricing_plan_id":"cebpf4jnsgd1na2vs0mg"},{"bike_id":"fae596ec-c4c8-4303-a419-c17ca93b0494","system_id":"levelo_inurba_marseille","lat":43.28281,"lon":5.35068,"is_reserved":false,"is_disabled":false,"rental_uris":{"android":"levelo://app?vid=fae596ec-c4c8-4303-a419-c17ca93b0494","ios":"levelo://app?vid=fae596ec-c4c8-4303-a419-c17ca93b0494"},"vehicle_type_id":"4","last_reported":1737176864,"current_range_meters":16000,"station_id":"ce4bhbp2rcd13ifvqerg","pricing_plan_id":"cebpf4jnsgd1na2vs0mg"},{"bike_id":"4db02bf0-6e87-4f69-8331-383a454d338f","system_id":"levelo_inurba_marseille","lat":43.25122,"lon":5.40323,"is_reserved":false,"is_disabled":false,"rental_uris":{"android":"levelo://app?vid=4db02bf0-6e87-4f69-8331-383a454d338f","ios":"levelo://app?vid=4db02bf0-6e87-4f69-8331-383a454d338f"},"vehicle_type_id":"4","last_reported":1737176864,"current_range_meters":16800,"station_id":"ce4bhlh2rcd13ifvqgig","pricing_plan_id":"cebpf4jnsgd1na2vs0mg"},{"bike_id":"8a976244-dead-4ea1-8752-b392d9189278","system_id":"levelo_inurba_marseille","lat":43.28946,"lon":5.36402,"is_reserved":false,"is_disabled":false,"rental_uris":{"android":"levelo://app?vid=8a976244-dead-4ea1-8752-b392d9189278","ios":"levelo://app?vid=8a976244-dead-4ea1-8752-b392d9189278"},"vehicle_type_id":"4","last_reported":1737176864,"current_range_meters":36400,"station_id":"ce4bhc92rcd13ifvqetg","pricing_plan_id":"cebpf4jnsgd1na2vs0mg"},{"bike_id":"fc859d01-f07f-4c72-80b1-d3120f1453f2","system_id":"levelo_inurba_marseille","lat":43.29887,"lon":5.38909,"is_reserved":false,"is_disabled":false,"rental_uris":{"android":"levelo://app?vid=fc859d01-f07f-4c72-80b1-d3120f1453f2","ios":"levelo://app?vid=fc859d01-f07f-4c72-80b1-d3120f1453f2"},"vehicle_type_id":"4","last_reported":1737176864,"current_range_meters":37600,"station_id":"ce4bh392rcd13ifvqdl0","pricing_plan_id":"cebpf4jnsgd1na2vs0mg"},{"bike_id":"7290a960-a5a5-4813-ae34-1769183e58f7","system_id":"levelo_inurba_marseille","lat":43.30634,"lon":5.40062,"is_reserved":false,"is_disabled":false,"rental_uris":{"android":"levelo://app?vid=7290a960-a5a5-4813-ae34-1769183e58f7","ios":"levelo://app?vid=7290a960-a5a5-4813-ae34-1769183e58f7"},"vehicle_type_id":"4","last_reported":1737176864,"current_range_meters":8400,"station_id":"ce4bh112rcd13ifvqda0","pricing_plan_id":"cebpf4jnsgd1na2vs0mg"},{"bike_id":"d538085c-342a-4314-81c7-b4e115511ca7","system_id":"levelo_inurba_marseille","lat":43.30323,"lon":5.40447,"is_reserved":false,"is_disabled":false,"rental_uris":{"android":"levelo://app?vid=d538085c-342a-4314-81c7-b4e115511ca7","ios":"levelo://app?vid=d538085c-342a-4314-81c7-b4e115511ca7"},"vehicle_type_id":"4","last_reported":1737176864,"current_range_meters":30400,"station_id":"ce4bh012rcd13ifvqd10","pricing_plan_id":"cebpf4jnsgd1na2vs0mg"},{"bike_id":"e27e6e83-5180-4cf4-86d5-a9546d7a7eec","system_id":"levelo_inurba_marseille","lat":43.28353,"lon":5.38098,"is_reserved":false,"is_disabled":false,"rental_uris":{"android":"levelo://app?vid=e27e6e83-5180-4cf4-86d5-a9546d7a7eec","ios":"levelo://app?vid=e27e6e83-5180-4cf4-86d5-a9546d7a7eec"},"vehicle_type_id":"4","last_reported":1737176864,"current_range_meters":29600,"station_id":"ce4bh412rcd13ifvqdr0","pricing_plan_id":"cebpf4jnsgd1na2vs0mg"},{"bike_id":"2ee0ccc1-a9e0-4e15-a20f-a75b9ce52b18","system_id":"levelo_inurba_marseille","lat":43.28465,"lon":5.35884,"is_reserved":false,"is_disabled":false,"rental_uris":{"android":"levelo://app?vid=2ee0ccc1-a9e0-4e15-a20f-a75b9ce52b18","ios":"levelo://app?vid=2ee0ccc1-a9e0-4e15-a20f-a75b9ce52b18"},"vehicle_type_id":"4","last_reported":1737176864,"current_range_meters":39200,"station_id":"ce4bhah2rcd13ifvqei0","pricing_plan_id":"cebpf4jnsgd1na2vs0mg"},{"bike_id":"43607897-74cd-4a14-a1a4-281ba6123cbd","system_id":"levelo_inurba_marseille","lat":43.28846,"lon":5.3931,"is_reserved":false,"is_disabled":false,"rental_uris":{"android":"levelo://app?vid=43607897-74cd-4a14-a1a4-281ba6123cbd","ios":"levelo://app?vid=43607897-74cd-4a14-a1a4-281ba6123cbd"},"vehicle_type_id":"4","last_reported":1737176864,"current_range_meters":37600,"station_id":"ce4bh2p2rcd13ifvqdi0","pricing_plan_id":"cebpf4jnsgd1na2vs0mg"},{"bike_id":"ddd0f931-cbac-4c6f-a954-99f4c395d4da","system_id":"levelo_inurba_marseille","lat":43.27973,"lon":5.38713,"is_reserved":false,"is_disabled":false,"rental_uris":{"android":"levelo://app?vid=ddd0f931-cbac-4c6f-a954-99f4c395d4da","ios":"levelo://app?vid=ddd0f931-cbac-4c6f-a954-99f4c395d4da"},"vehicle_type_id":"4","last_reported":1737176864,"current_range_meters":36000,"station_id":"ce4bhg12rcd13ifvqf80","pricing_plan_id":"cebpf4jnsgd1na2vs0mg"},{"bike_id":"e44d3b46-7a6c-48a1-bfde-c63c43f92cf0","system_id":"levelo_inurba_marseille","lat":43.28637,"lon":5.35095,"is_reserved":false,"is_disabled":false,"rental_uris":{"android":"levelo://app?vid=e44d3b46-7a6c-48a1-bfde-c63c43f92cf0","ios":"levelo://app?vid=e44d3b46-7a6c-48a1-bfde-c63c43f92cf0"},"vehicle_type_id":"4","last_reported":1737176864,"current_range_meters":30400,"station_id":"ce4bhch2rcd13ifvqeug","pricing_plan_id":"cebpf4jnsgd1na2vs0mg"},{"bike_id":"25332f52-1e5b-488b-9e27-b2b6a2102903","system_id":"levelo_inurba_marseille","lat":43.28943,"lon":5.3663,"is_reserved":false,"is_disabled":false,"rental_uris":{"android":"levelo://app?vid=25332f52-1e5b-488b-9e27-b2b6a2102903","ios":"levelo://app?vid=25332f52-1e5b-488b-9e27-b2b6a2102903"},"vehicle_type_id":"4","last_reported":1737176864,"current_range_meters":39200,"station_id":"ce4bhap2rcd13ifvqek0","pricing_plan_id":"cebpf4jnsgd1na2vs0mg"},{"bike_id":"034764a4-57b8-404a-9faa-15d67a8b57f9","system_id":"levelo_inurba_marseille","lat":43.28058,"lon":5.39616,"is_reserved":false,"is_disabled":false,"rental_uris":{"android":"levelo://app?vid=034764a4-57b8-404a-9faa-15d67a8b57f9","ios":"levelo://app?vid=034764a4-57b8-404a-9faa-15d67a8b57f9"},"vehicle_type_id":"4","last_reported":1737176864,"current_range_meters":8000,"station_id":"ce4bho12rcd13ifvqh2g","pricing_plan_id":"cebpf4jnsgd1na2vs0mg"},{"bike_id":"0dc6f470-e107-4a62-9e24-59aa7a910dcd","system_id":"levelo_inurba_marseille","lat":43.309249,"lon":5.40148,"is_reserved":false,"is_disabled":false,"rental_uris":{"android":"levelo://app?vid=0dc6f470-e107-4a62-9e24-59aa7a910dcd","ios":"levelo://app?vid=0dc6f470-e107-4a62-9e24-59aa7a910dcd"},"vehicle_type_id":"4","last_reported":1737176864,"current_range_meters":32800,"station_id":"ce4bgvp2rcd13ifvqct0","pricing_plan_id":"cebpf4jnsgd1na2vs0mg"},{"bike_id":"a8e68905-4196-41cc-90d8-ce6a1fbe0294","system_id":"levelo_inurba_marseille","lat":43.279069,"lon":5.38009,"is_reserved":false,"is_disabled":false,"rental_uris":{"android":"levelo://app?vid=a8e68905-4196-41cc-90d8-ce6a1fbe0294","ios":"levelo://app?vid=a8e68905-4196-41cc-90d8-ce6a1fbe0294"},"vehicle_type_id":"4","last_reported":1737176864,"current_range_meters":3600,"station_id":"ce4bhf92rcd13ifvqf50","pricing_plan_id":"cebpf4jnsgd1na2vs0mg"},{"bike_id":"50dff923-6637-4623-b3c6-12a3cea221cd","system_id":"levelo_inurba_marseille","lat":43.28448,"lon":5.35863,"is_reserved":false,"is_disabled":false,"rental_uris":{"android":"levelo://app?vid=50dff923-6637-4623-b3c6-12a3cea221cd","ios":"levelo://app?vid=50dff923-6637-4623-b3c6-12a3cea221cd"},"vehicle_type_id":"4","last_reported":1737176864,"current_range_meters":39200,"station_id":"ce4bhah2rcd13ifvqei0","pricing_plan_id":"cebpf4jnsgd1na2vs0mg"},{"bike_id":"8926b51e-df5d-4d8d-9a11-c3df764a0fbf","system_id":"levelo_inurba_marseille","lat":43.30787,"lon":5.37648,"is_reserved":false,"is_disabled":false,"rental_uris":{"android":"levelo://app?vid=8926b51e-df5d-4d8d-9a11-c3df764a0fbf","ios":"levelo://app?vid=8926b51e-df5d-4d8d-9a11-c3df764a0fbf"},"vehicle_type_id":"4","last_reported":1737176864,"current_range_meters":30000,"station_id":"ce4bgv92rcd13ifvqcq0","pricing_plan_id":"cebpf4jnsgd1na2vs0mg"},{"bike_id":"e1eea23d-75a8-456c-b1ac-bde77546b9f8","system_id":"levelo_inurba_marseille","lat":43.28439,"lon":5.39215,"is_reserved":false,"is_disabled":false,"rental_uris":{"android":"levelo://app?vid=e1eea23d-75a8-456c-b1ac-bde77546b9f8","ios":"levelo://app?vid=e1eea23d-75a8-456c-b1ac-bde77546b9f8"},"vehicle_type_id":"4","last_reported":1737176864,"current_range_meters":37600,"station_id":"ce4bhoh2rcd13ifvqh5g","pricing_plan_id":"cebpf4jnsgd1na2vs0mg"},{"bike_id":"335add6e-5c1e-455f-ae9b-7387a8e18f37","system_id":"levelo_inurba_marseille","lat":43.27371,"lon":5.36269,"is_reserved":false,"is_disabled":false,"rental_uris":{"android":"levelo://app?vid=335add6e-5c1e-455f-ae9b-7387a8e18f37","ios":"levelo://app?vid=335add6e-5c1e-455f-ae9b-7387a8e18f37"},"vehicle_type_id":"4","last_reported":1737176864,"current_range_meters":10800,"station_id":"ce4bhbh2rcd13ifvqeo0","pricing_plan_id":"cebpf4jnsgd1na2vs0mg"},{"bike_id":"c6b2298b-e3ea-4ff5-9aea-4dedd2e2a126","system_id":"levelo_inurba_marseille","lat":43.29534,"lon":5.3903,"is_reserved":false,"is_disabled":true,"rental_uris":{"android":"levelo://app?vid=c6b2298b-e3ea-4ff5-9aea-4dedd2e2a126","ios":"levelo://app?vid=c6b2298b-e3ea-4ff5-9aea-4dedd2e2a126"},"vehicle_type_id":"4","last_reported":1737176864,"current_range_meters":29600,"station_id":"ce4bh3p2rcd13ifvqdp0","pricing_plan_id":"cebpf4jnsgd1na2vs0mg"},{"bike_id":"6802b89c-8da4-4173-a497-131430ef9a30","system_id":"levelo_inurba_marseille","lat":43.29764,"lon":5.3807,"is_reserved":false,"is_disabled":false,"rental_uris":{"android":"levelo://app?vid=6802b89c-8da4-4173-a497-131430ef9a30","ios":"levelo://app?vid=6802b89c-8da4-4173-a497-131430ef9a30"},"vehicle_type_id":"4","last_reported":1737176864,"current_range_meters":4000,"station_id":"","pricing_plan_id":"cebpf4jnsgd1na2vs0mg"},{"bike_id":"a7235c95-ae81-406d-8ca5-290dcb232d31","system_id":"levelo_inurba_marseille","lat":43.28621,"lon":5.37048,"is_reserved":false,"is_disabled":false,"rental_uris":{"android":"levelo://app?vid=a7235c95-ae81-406d-8ca5-290dcb232d31","ios":"levelo://app?vid=a7235c95-ae81-406d-8ca5-290dcb232d31"},"vehicle_type_id":"4","last_reported":1737176864,"current_range_meters":29600,"station_id":"ce4bht12rcd13ifvqi60","pricing_plan_id":"cebpf4jnsgd1na2vs0mg"},{"bike_id":"c73975e6-ce75-4567-b1ed-6f701549cfcd","system_id":"levelo_inurba_marseille","lat":43.25863,"lon":5.39916,"is_reserved":false,"is_disabled":false,"rental_uris":{"android":"levelo://app?vid=c73975e6-ce75-4567-b1ed-6f701549cfcd","ios":"levelo://app?vid=c73975e6-ce75-4567-b1ed-6f701549cfcd"},"vehicle_type_id":"4","last_reported":1737176864,"current_range_meters":28000,"station_id":"ce4bhl92rcd13ifvqghg","pricing_plan_id":"cebpf4jnsgd1na2vs0mg"},{"bike_id":"e174d81a-f0d8-4ee0-a732-d6081a625def","system_id":"levelo_inurba_marseille","lat":43.27181,"lon":5.40976,"is_reserved":false,"is_disabled":false,"rental_uris":{"android":"levelo://app?vid=e174d81a-f0d8-4ee0-a732-d6081a625def","ios":"levelo://app?vid=e174d81a-f0d8-4ee0-a732-d6081a625def"},"vehicle_type_id":"4","last_reported":1737176864,"current_range_meters":36800,"station_id":"ce4bhl12rcd13ifvqgf0","pricing_plan_id":"cebpf4jnsgd1na2vs0mg"},{"bike_id":"6ea4d259-06b8-4e0f-9494-4eae2040b46d","system_id":"levelo_inurba_marseille","lat":43.2417,"lon":5.39701,"is_reserved":false,"is_disabled":false,"rental_uris":{"android":"levelo://app?vid=6ea4d259-06b8-4e0f-9494-4eae2040b46d","ios":"levelo://app?vid=6ea4d259-06b8-4e0f-9494-4eae2040b46d"},"vehicle_type_id":"4","last_reported":1737176864,"current_range_meters":25600,"station_id":"ce4bhn12rcd13ifvqgpg","pricing_plan_id":"cebpf4jnsgd1na2vs0mg"},{"bike_id":"6320cd65-695a-44cd-9024-6b57dc9c6920","system_id":"levelo_inurba_marseille","lat":43.29245,"lon":5.40914,"is_reserved":false,"is_disabled":false,"rental_uris":{"android":"levelo://app?vid=6320cd65-695a-44cd-9024-6b57dc9c6920","ios":"levelo://app?vid=6320cd65-695a-44cd-9024-6b57dc9c6920"},"vehicle_type_id":"4","last_reported":1737176864,"current_range_meters":38800,"station_id":"ce4bh192rcd13ifvqdc0","pricing_plan_id":"cebpf4jnsgd1na2vs0mg"},{"bike_id":"b148288c-2873-49ad-b940-1e1b71e69393","system_id":"levelo_inurba_marseille","lat":43.23146,"lon":5.43725,"is_reserved":false,"is_disabled":false,"rental_uris":{"android":"levelo://app?vid=b148288c-2873-49ad-b940-1e1b71e69393","ios":"levelo://app?vid=b148288c-2873-49ad-b940-1e1b71e69393"},"vehicle_type_id":"4","last_reported":1737176864,"current_range_meters":36800,"station_id":"ce4bhmp2rcd13ifvqgog","pricing_plan_id":"cebpf4jnsgd1na2vs0mg"},{"bike_id":"0aacbbb4-b4df-4112-9f3e-9c8b0c3a36b2","system_id":"levelo_inurba_marseille","lat":43.243924,"lon":5.370447,"is_reserved":false,"is_disabled":false,"rental_uris":{"android":"levelo://app?vid=0aacbbb4-b4df-4112-9f3e-9c8b0c3a36b2","ios":"levelo://app?vid=0aacbbb4-b4df-4112-9f3e-9c8b0c3a36b2"},"vehicle_type_id":"4","last_reported":1737176864,"current_range_meters":38800,"station_id":"ce4bhhh2rcd13ifvqfk0","pricing_plan_id":"cebpf4jnsgd1na2vs0mg"},{"bike_id":"4195a369-a7ca-4062-b0c4-11dcec0d9a33","system_id":"levelo_inurba_marseille","lat":43.30302,"lon":5.39189,"is_reserved":false,"is_disabled":true,"rental_uris":{"android":"levelo://app?vid=4195a369-a7ca-4062-b0c4-11dcec0d9a33","ios":"levelo://app?vid=4195a369-a7ca-4062-b0c4-11dcec0d9a33"},"vehicle_type_id":"4","last_reported":1737176864,"current_range_meters":37600,"station_id":"ce4bgkh2rcd13ifvqbk0","pricing_plan_id":"cebpf4jnsgd1na2vs0mg"},{"bike_id":"1c47bd0b-03b1-499e-b800-21ee976a9516","system_id":"levelo_inurba_marseille","lat":43.25867,"lon":5.39915,"is_reserved":false,"is_disabled":false,"rental_uris":{"android":"levelo://app?vid=1c47bd0b-03b1-499e-b800-21ee976a9516","ios":"levelo://app?vid=1c47bd0b-03b1-499e-b800-21ee976a9516"},"vehicle_type_id":"4","last_reported":1737176864,"current_range_meters":30800,"station_id":"ce4bhl92rcd13ifvqghg","pricing_plan_id":"cebpf4jnsgd1na2vs0mg"},{"bike_id":"891d5aa4-b1b0-4e0c-90ac-49e97bf9c382","system_id":"levelo_inurba_marseille","lat":43.23199,"lon":5.4,"is_reserved":false,"is_disabled":false,"rental_uris":{"android":"levelo://app?vid=891d5aa4-b1b0-4e0c-90ac-49e97bf9c382","ios":"levelo://app?vid=891d5aa4-b1b0-4e0c-90ac-49e97bf9c382"},"vehicle_type_id":"4","last_reported":1737176864,"current_range_meters":30800,"station_id":"ce4bhn12rcd13ifvqgqg","pricing_plan_id":"cebpf4jnsgd1na2vs0mg"},{"bike_id":"56fd95d7-387f-4701-b2ed-67ccefca57fa","system_id":"levelo_inurba_marseille","lat":43.30445,"lon":5.37928,"is_reserved":false,"is_disabled":false,"rental_uris":{"android":"levelo://app?vid=56fd95d7-387f-4701-b2ed-67ccefca57fa","ios":"levelo://app?vid=56fd95d7-387f-4701-b2ed-67ccefca57fa"},"vehicle_type_id":"4","last_reported":1737176864,"current_range_meters":38800,"station_id":"ce4bgup2rcd13ifvqcn0","pricing_plan_id":"cebpf4jnsgd1na2vs0mg"},{"bike_id":"77762a9c-0185-4cbd-94a7-6ad9ec8b319e","system_id":"levelo_inurba_marseille","lat":43.29034,"lon":5.35906,"is_reserved":false,"is_disabled":false,"rental_uris":{"android":"levelo://app?vid=77762a9c-0185-4cbd-94a7-6ad9ec8b319e","ios":"levelo://app?vid=77762a9c-0185-4cbd-94a7-6ad9ec8b319e"},"vehicle_type_id":"4","last_reported":1737176864,"current_range_meters":28800,"station_id":"ce4bha92rcd13ifvqeg0","pricing_plan_id":"cebpf4jnsgd1na2vs0mg"},{"bike_id":"357eaeda-fef2-41f2-9ad0-621ae2cc5c09","system_id":"levelo_inurba_marseille","lat":43.33768,"lon":5.37496,"is_reserved":false,"is_disabled":false,"rental_uris":{"android":"levelo://app?vid=357eaeda-fef2-41f2-9ad0-621ae2cc5c09","ios":"levelo://app?vid=357eaeda-fef2-41f2-9ad0-621ae2cc5c09"},"vehicle_type_id":"4","last_reported":1737176864,"current_range_meters":32800,"station_id":"","pricing_plan_id":"cebpf4jnsgd1na2vs0mg"},{"bike_id":"54c9f7de-8fe5-4fd6-a934-8372e9cad70a","system_id":"levelo_inurba_marseille","lat":43.288551,"lon":5.39326,"is_reserved":false,"is_disabled":false,"rental_uris":{"android":"levelo://app?vid=54c9f7de-8fe5-4fd6-a934-8372e9cad70a","ios":"levelo://app?vid=54c9f7de-8fe5-4fd6-a934-8372e9cad70a"},"vehicle_type_id":"4","last_reported":1737176864,"current_range_meters":24000,"station_id":"ce4bh2p2rcd13ifvqdi0","pricing_plan_id":"cebpf4jnsgd1na2vs0mg"},{"bike_id":"863581bf-4740-457c-9a9b-0e3dac23703c","system_id":"levelo_inurba_marseille","lat":43.31079,"lon":5.38362,"is_reserved":false,"is_disabled":false,"rental_uris":{"android":"levelo://app?vid=863581bf-4740-457c-9a9b-0e3dac23703c","ios":"levelo://app?vid=863581bf-4740-457c-9a9b-0e3dac23703c"},"vehicle_type_id":"4","last_reported":1737176864,"current_range_meters":14400,"station_id":"ce4bgv92rcd13ifvqcr0","pricing_plan_id":"cebpf4jnsgd1na2vs0mg"},{"bike_id":"965180f8-1362-4aa2-b1a9-a6f654197703","system_id":"levelo_inurba_marseille","lat":43.23191,"lon":5.39971,"is_reserved":false,"is_disabled":false,"rental_uris":{"android":"levelo://app?vid=965180f8-1362-4aa2-b1a9-a6f654197703","ios":"levelo://app?vid=965180f8-1362-4aa2-b1a9-a6f654197703"},"vehicle_type_id":"4","last_reported":1737176864,"current_range_meters":38800,"station_id":"ce4bhn12rcd13ifvqgqg","pricing_plan_id":"cebpf4jnsgd1na2vs0mg"},{"bike_id":"b034b553-114b-4cfc-829d-01c5c89561f4","system_id":"levelo_inurba_marseille","lat":43.27591,"lon":5.42317,"is_reserved":false,"is_disabled":false,"rental_uris":{"android":"levelo://app?vid=b034b553-114b-4cfc-829d-01c5c89561f4","ios":"levelo://app?vid=b034b553-114b-4cfc-829d-01c5c89561f4"},"vehicle_type_id":"4","last_reported":1737176864,"current_range_meters":8400,"station_id":"","pricing_plan_id":"cebpf4jnsgd1na2vs0mg"},{"bike_id":"c16af295-34ba-47e2-83f5-588ec70db48a","system_id":"levelo_inurba_marseille","lat":43.290425,"lon":5.399648,"is_reserved":false,"is_disabled":false,"rental_uris":{"android":"levelo://app?vid=c16af295-34ba-47e2-83f5-588ec70db48a","ios":"levelo://app?vid=c16af295-34ba-47e2-83f5-588ec70db48a"},"vehicle_type_id":"4","last_reported":1737176864,"current_range_meters":38800,"station_id":"ce4bh392rcd13ifvqdm0","pricing_plan_id":"cebpf4jnsgd1na2vs0mg"},{"bike_id":"312b622b-01c5-426d-8513-fedfcbcce3bf","system_id":"levelo_inurba_marseille","lat":43.30805,"lon":5.43525,"is_reserved":false,"is_disabled":false,"rental_uris":{"android":"levelo://app?vid=312b622b-01c5-426d-8513-fedfcbcce3bf","ios":"levelo://app?vid=312b622b-01c5-426d-8513-fedfcbcce3bf"},"vehicle_type_id":"4","last_reported":1737176864,"current_range_meters":22800,"station_id":"ce4bhph2rcd13ifvqheg","pricing_plan_id":"cebpf4jnsgd1na2vs0mg"},{"bike_id":"a90ae30c-66aa-49bc-8d81-67c17854523b","system_id":"levelo_inurba_marseille","lat":43.28449,"lon":5.35893,"is_reserved":false,"is_disabled":false,"rental_uris":{"android":"levelo://app?vid=a90ae30c-66aa-49bc-8d81-67c17854523b","ios":"levelo://app?vid=a90ae30c-66aa-49bc-8d81-67c17854523b"},"vehicle_type_id":"4","last_reported":1737176864,"current_range_meters":36400,"station_id":"ce4bhah2rcd13ifvqei0","pricing_plan_id":"cebpf4jnsgd1na2vs0mg"},{"bike_id":"01e1c8b1-a097-42f4-9d00-9a160ca3dd88","system_id":"levelo_inurba_marseille","lat":43.274241,"lon":5.394127,"is_reserved":false,"is_disabled":false,"rental_uris":{"android":"levelo://app?vid=01e1c8b1-a097-42f4-9d00-9a160ca3dd88","ios":"levelo://app?vid=01e1c8b1-a097-42f4-9d00-9a160ca3dd88"},"vehicle_type_id":"4","last_reported":1737176864,"current_range_meters":36000,"station_id":"ce4bhdp2rcd13ifvqf20","pricing_plan_id":"cebpf4jnsgd1na2vs0mg"},{"bike_id":"7975a0c2-37ee-487f-804f-1164e539cf9a","system_id":"levelo_inurba_marseille","lat":43.24664,"lon":5.38162,"is_reserved":false,"is_disabled":false,"rental_uris":{"android":"levelo://app?vid=7975a0c2-37ee-487f-804f-1164e539cf9a","ios":"levelo://app?vid=7975a0c2-37ee-487f-804f-1164e539cf9a"},"vehicle_type_id":"4","last_reported":1737176864,"current_range_meters":38800,"station_id":"ce4bhih2rcd13ifvqfr0","pricing_plan_id":"cebpf4jnsgd1na2vs0mg"},{"bike_id":"e3a3e3ba-73ac-4d95-a679-4b552818bf8b","system_id":"levelo_inurba_marseille","lat":43.30153,"lon":5.38087,"is_reserved":false,"is_disabled":false,"rental_uris":{"android":"levelo://app?vid=e3a3e3ba-73ac-4d95-a679-4b552818bf8b","ios":"levelo://app?vid=e3a3e3ba-73ac-4d95-a679-4b552818bf8b"},"vehicle_type_id":"4","last_reported":1737176864,"current_range_meters":35200,"station_id":"ce4bgjp2rcd13ifvqbh0","pricing_plan_id":"cebpf4jnsgd1na2vs0mg"},{"bike_id":"503cdc04-d4e5-49c8-a5cb-4bfd40417ea9","system_id":"levelo_inurba_marseille","lat":43.311722,"lon":5.387094,"is_reserved":false,"is_disabled":false,"rental_uris":{"android":"levelo://app?vid=503cdc04-d4e5-49c8-a5cb-4bfd40417ea9","ios":"levelo://app?vid=503cdc04-d4e5-49c8-a5cb-4bfd40417ea9"},"vehicle_type_id":"4","last_reported":1737176864,"current_range_meters":32400,"station_id":"ce4bgv12rcd13ifvqcp0","pricing_plan_id":"cebpf4jnsgd1na2vs0mg"},{"bike_id":"01a07bd9-36a1-4c19-a88b-7c9e3a6ee490","system_id":"levelo_inurba_marseille","lat":43.25105,"lon":5.39521,"is_reserved":false,"is_disabled":false,"rental_uris":{"android":"levelo://app?vid=01a07bd9-36a1-4c19-a88b-7c9e3a6ee490","ios":"levelo://app?vid=01a07bd9-36a1-4c19-a88b-7c9e3a6ee490"},"vehicle_type_id":"4","last_reported":1737176864,"current_range_meters":37600,"station_id":"ce4bhm12rcd13ifvqgkg","pricing_plan_id":"cebpf4jnsgd1na2vs0mg"},{"bike_id":"2a3b699b-a78d-4b73-b754-0a42dc395da3","system_id":"levelo_inurba_marseille","lat":43.30136,"lon":5.37431,"is_reserved":false,"is_disabled":false,"rental_uris":{"android":"levelo://app?vid=2a3b699b-a78d-4b73-b754-0a42dc395da3","ios":"levelo://app?vid=2a3b699b-a78d-4b73-b754-0a42dc395da3"},"vehicle_type_id":"4","last_reported":1737176864,"current_range_meters":39200,"station_id":"ce4bgs92rcd13ifvqcc0","pricing_plan_id":"cebpf4jnsgd1na2vs0mg"},{"bike_id":"d615d74e-143c-44d0-9a61-fef9d499e25b","system_id":"levelo_inurba_marseille","lat":43.26029,"lon":5.37546,"is_reserved":false,"is_disabled":false,"rental_uris":{"android":"levelo://app?vid=d615d74e-143c-44d0-9a61-fef9d499e25b","ios":"levelo://app?vid=d615d74e-143c-44d0-9a61-fef9d499e25b"},"vehicle_type_id":"4","last_reported":1737176864,"current_range_meters":38800,"station_id":"ce4bhgh2rcd13ifvqfa0","pricing_plan_id":"cebpf4jnsgd1na2vs0mg"},{"bike_id":"4ffb2fd7-5f5b-4f82-8ddf-9fe95e000c38","system_id":"levelo_inurba_marseille","lat":43.25432,"lon":5.41673,"is_reserved":false,"is_disabled":true,"rental_uris":{"android":"levelo://app?vid=4ffb2fd7-5f5b-4f82-8ddf-9fe95e000c38","ios":"levelo://app?vid=4ffb2fd7-5f5b-4f82-8ddf-9fe95e000c38"},"vehicle_type_id":"4","last_reported":1737176864,"current_range_meters":0,"station_id":"","pricing_plan_id":"cebpf4jnsgd1na2vs0mg"},{"bike_id":"9be957d2-26d1-49a4-9f85-b06ee3432064","system_id":"levelo_inurba_marseille","lat":43.33739,"lon":5.39191,"is_reserved":false,"is_disabled":false,"rental_uris":{"android":"levelo://app?vid=9be957d2-26d1-49a4-9f85-b06ee3432064","ios":"levelo://app?vid=9be957d2-26d1-49a4-9f85-b06ee3432064"},"vehicle_type_id":"4","last_reported":1737176864,"current_range_meters":27600,"station_id":"ce4bhr92rcd13ifvqhsg","pricing_plan_id":"cebpf4jnsgd1na2vs0mg"},{"bike_id":"0e431ba6-2ca8-4886-8c92-261db676533e","system_id":"levelo_inurba_marseille","lat":43.28448,"lon":5.35893,"is_reserved":false,"is_disabled":false,"rental_uris":{"android":"levelo://app?vid=0e431ba6-2ca8-4886-8c92-261db676533e","ios":"levelo://app?vid=0e431ba6-2ca8-4886-8c92-261db676533e"},"vehicle_type_id":"4","last_reported":1737176864,"current_range_meters":30000,"station_id":"ce4bhah2rcd13ifvqei0","pricing_plan_id":"cebpf4jnsgd1na2vs0mg"},{"bike_id":"7474cf9f-a50a-4064-8ee9-625b0bfc2233","system_id":"levelo_inurba_marseille","lat":43.29179,"lon":5.37139,"is_reserved":false,"is_disabled":true,"rental_uris":{"android":"levelo://app?vid=7474cf9f-a50a-4064-8ee9-625b0bfc2233","ios":"levelo://app?vid=7474cf9f-a50a-4064-8ee9-625b0bfc2233"},"vehicle_type_id":"4","last_reported":1737176864,"current_range_meters":0,"station_id":"ce4bha92rcd13ifvqeh0","pricing_plan_id":"cebpf4jnsgd1na2vs0mg"},{"bike_id":"9d571973-919f-4d9a-8263-16469bc08d16","system_id":"levelo_inurba_marseille","lat":43.31291,"lon":5.3838,"is_reserved":false,"is_disabled":false,"rental_uris":{"android":"levelo://app?vid=9d571973-919f-4d9a-8263-16469bc08d16","ios":"levelo://app?vid=9d571973-919f-4d9a-8263-16469bc08d16"},"vehicle_type_id":"4","last_reported":1737176864,"current_range_meters":17200,"station_id":"","pricing_plan_id":"cebpf4jnsgd1na2vs0mg"},{"bike_id":"93eaaa03-9c47-4080-88a3-408e4b6ee6c4","system_id":"levelo_inurba_marseille","lat":43.30887,"lon":5.37195,"is_reserved":false,"is_disabled":true,"rental_uris":{"android":"levelo://app?vid=93eaaa03-9c47-4080-88a3-408e4b6ee6c4","ios":"levelo://app?vid=93eaaa03-9c47-4080-88a3-408e4b6ee6c4"},"vehicle_type_id":"4","last_reported":1737176864,"current_range_meters":0,"station_id":"ce4bguh2rcd13ifvqckg","pricing_plan_id":"cebpf4jnsgd1na2vs0mg"},{"bike_id":"fd153fd4-8c71-4200-95f4-e02852c298c7","system_id":"levelo_inurba_marseille","lat":43.25084,"lon":5.39513,"is_reserved":false,"is_disabled":false,"rental_uris":{"android":"levelo://app?vid=fd153fd4-8c71-4200-95f4-e02852c298c7","ios":"levelo://app?vid=fd153fd4-8c71-4200-95f4-e02852c298c7"},"vehicle_type_id":"4","last_reported":1737176864,"current_range_meters":37600,"station_id":"ce4bhm12rcd13ifvqgkg","pricing_plan_id":"cebpf4jnsgd1na2vs0mg"},{"bike_id":"bdd103a3-1000-427a-86a5-dc091d61902e","system_id":"levelo_inurba_marseille","lat":43.241743,"lon":5.397274,"is_reserved":false,"is_disabled":false,"rental_uris":{"android":"levelo://app?vid=bdd103a3-1000-427a-86a5-dc091d61902e","ios":"levelo://app?vid=bdd103a3-1000-427a-86a5-dc091d61902e"},"vehicle_type_id":"4","last_reported":1737176864,"current_range_meters":24000,"station_id":"ce4bhn12rcd13ifvqgpg","pricing_plan_id":"cebpf4jnsgd1na2vs0mg"},{"bike_id":"8b24fbb9-4171-44d5-9669-7d4f85bb3376","system_id":"levelo_inurba_marseille","lat":43.282748,"lon":5.350812,"is_reserved":false,"is_disabled":false,"rental_uris":{"android":"levelo://app?vid=8b24fbb9-4171-44d5-9669-7d4f85bb3376","ios":"levelo://app?vid=8b24fbb9-4171-44d5-9669-7d4f85bb3376"},"vehicle_type_id":"4","last_reported":1737176864,"current_range_meters":33600,"station_id":"ce4bhbp2rcd13ifvqerg","pricing_plan_id":"cebpf4jnsgd1na2vs0mg"},{"bike_id":"2fa40be4-237a-4713-9b7d-7f32afaf1503","system_id":"levelo_inurba_marseille","lat":43.29809,"lon":5.38098,"is_reserved":false,"is_disabled":true,"rental_uris":{"android":"levelo://app?vid=2fa40be4-237a-4713-9b7d-7f32afaf1503","ios":"levelo://app?vid=2fa40be4-237a-4713-9b7d-7f32afaf1503"},"vehicle_type_id":"4","last_reported":1737176864,"current_range_meters":36800,"station_id":"ce4bgip2rcd13ifvqbb0","pricing_plan_id":"cebpf4jnsgd1na2vs0mg"},{"bike_id":"a8cadae5-86ce-44a1-afff-878cc34ffe0b","system_id":"levelo_inurba_marseille","lat":43.24673,"lon":5.38155,"is_reserved":false,"is_disabled":false,"rental_uris":{"android":"levelo://app?vid=a8cadae5-86ce-44a1-afff-878cc34ffe0b","ios":"levelo://app?vid=a8cadae5-86ce-44a1-afff-878cc34ffe0b"},"vehicle_type_id":"4","last_reported":1737176864,"current_range_meters":8000,"station_id":"ce4bhih2rcd13ifvqfr0","pricing_plan_id":"cebpf4jnsgd1na2vs0mg"},{"bike_id":"2b06177c-21a4-4000-9872-a16383eb7f13","system_id":"levelo_inurba_marseille","lat":43.298094,"lon":5.403993,"is_reserved":false,"is_disabled":false,"rental_uris":{"android":"levelo://app?vid=2b06177c-21a4-4000-9872-a16383eb7f13","ios":"levelo://app?vid=2b06177c-21a4-4000-9872-a16383eb7f13"},"vehicle_type_id":"4","last_reported":1737176864,"current_range_meters":39200,"station_id":"ce4bh112rcd13ifvqd90","pricing_plan_id":"cebpf4jnsgd1na2vs0mg"},{"bike_id":"2ed2c465-7afc-4456-bb98-74121b1a973f","system_id":"levelo_inurba_marseille","lat":43.31168,"lon":5.38708,"is_reserved":false,"is_disabled":false,"rental_uris":{"android":"levelo://app?vid=2ed2c465-7afc-4456-bb98-74121b1a973f","ios":"levelo://app?vid=2ed2c465-7afc-4456-bb98-74121b1a973f"},"vehicle_type_id":"4","last_reported":1737176864,"current_range_meters":38800,"station_id":"ce4bgv12rcd13ifvqcp0","pricing_plan_id":"cebpf4jnsgd1na2vs0mg"},{"bike_id":"16f6bb15-2a9a-4945-a1f1-ef033407af4e","system_id":"levelo_inurba_marseille","lat":43.28683,"lon":5.38663,"is_reserved":false,"is_disabled":false,"rental_uris":{"android":"levelo://app?vid=16f6bb15-2a9a-4945-a1f1-ef033407af4e","ios":"levelo://app?vid=16f6bb15-2a9a-4945-a1f1-ef033407af4e"},"vehicle_type_id":"4","last_reported":1737176864,"current_range_meters":24000,"station_id":"ce4bh492rcd13ifvqdug","pricing_plan_id":"cebpf4jnsgd1na2vs0mg"},{"bike_id":"de1f8d9a-961d-41a2-ac6e-036d6954faf1","system_id":"levelo_inurba_marseille","lat":43.33028,"lon":5.390333,"is_reserved":false,"is_disabled":false,"rental_uris":{"android":"levelo://app?vid=de1f8d9a-961d-41a2-ac6e-036d6954faf1","ios":"levelo://app?vid=de1f8d9a-961d-41a2-ac6e-036d6954faf1"},"vehicle_type_id":"4","last_reported":1737176864,"current_range_meters":29600,"station_id":"ce4bhr92rcd13ifvqhrg","pricing_plan_id":"cebpf4jnsgd1na2vs0mg"},{"bike_id":"e0253450-c7b5-4733-9baa-fb060c3eef88","system_id":"levelo_inurba_marseille","lat":43.24655,"lon":5.38882,"is_reserved":false,"is_disabled":false,"rental_uris":{"android":"levelo://app?vid=e0253450-c7b5-4733-9baa-fb060c3eef88","ios":"levelo://app?vid=e0253450-c7b5-4733-9baa-fb060c3eef88"},"vehicle_type_id":"4","last_reported":1737176864,"current_range_meters":38800,"station_id":"ce4bhg12rcd13ifvqf60","pricing_plan_id":"cebpf4jnsgd1na2vs0mg"},{"bike_id":"1e54990a-c5ca-47e0-bda7-781a2b523702","system_id":"levelo_inurba_marseille","lat":43.28448,"lon":5.35889,"is_reserved":false,"is_disabled":false,"rental_uris":{"android":"levelo://app?vid=1e54990a-c5ca-47e0-bda7-781a2b523702","ios":"levelo://app?vid=1e54990a-c5ca-47e0-bda7-781a2b523702"},"vehicle_type_id":"4","last_reported":1737176864,"current_range_meters":37600,"station_id":"ce4bhah2rcd13ifvqei0","pricing_plan_id":"cebpf4jnsgd1na2vs0mg"},{"bike_id":"6e2d34e8-0cfc-462e-a352-d0455c7f78af","system_id":"levelo_inurba_marseille","lat":43.292536,"lon":5.409016,"is_reserved":false,"is_disabled":false,"rental_uris":{"android":"levelo://app?vid=6e2d34e8-0cfc-462e-a352-d0455c7f78af","ios":"levelo://app?vid=6e2d34e8-0cfc-462e-a352-d0455c7f78af"},"vehicle_type_id":"4","last_reported":1737176864,"current_range_meters":38800,"station_id":"ce4bh192rcd13ifvqdc0","pricing_plan_id":"cebpf4jnsgd1na2vs0mg"},{"bike_id":"3ebde46f-7bc5-4f24-a802-cc7973a857e2","system_id":"levelo_inurba_marseille","lat":43.2998,"lon":5.38481,"is_reserved":false,"is_disabled":false,"rental_uris":{"android":"levelo://app?vid=3ebde46f-7bc5-4f24-a802-cc7973a857e2","ios":"levelo://app?vid=3ebde46f-7bc5-4f24-a802-cc7973a857e2"},"vehicle_type_id":"4","last_reported":1737176864,"current_range_meters":38000,"station_id":"ce4bgj92rcd13ifvqbd0","pricing_plan_id":"cebpf4jnsgd1na2vs0mg"},{"bike_id":"72ee35ea-34ee-4b89-a819-27a2e564f7ec","system_id":"levelo_inurba_marseille","lat":43.258229,"lon":5.394418,"is_reserved":false,"is_disabled":false,"rental_uris":{"android":"levelo://app?vid=72ee35ea-34ee-4b89-a819-27a2e564f7ec","ios":"levelo://app?vid=72ee35ea-34ee-4b89-a819-27a2e564f7ec"},"vehicle_type_id":"4","last_reported":1737176864,"current_range_meters":12800,"station_id":"ce4bhip2rcd13ifvqft0","pricing_plan_id":"cebpf4jnsgd1na2vs0mg"},{"bike_id":"fae143cc-e0b7-42e0-ac41-6327643321d0","system_id":"levelo_inurba_marseille","lat":43.25822,"lon":5.39439,"is_reserved":false,"is_disabled":false,"rental_uris":{"android":"levelo://app?vid=fae143cc-e0b7-42e0-ac41-6327643321d0","ios":"levelo://app?vid=fae143cc-e0b7-42e0-ac41-6327643321d0"},"vehicle_type_id":"4","last_reported":1737176864,"current_range_meters":33600,"station_id":"ce4bhip2rcd13ifvqft0","pricing_plan_id":"cebpf4jnsgd1na2vs0mg"},{"bike_id":"06ba7cdd-0114-43e0-b37e-17f50586e28b","system_id":"levelo_inurba_marseille","lat":43.3087,"lon":5.39633,"is_reserved":false,"is_disabled":false,"rental_uris":{"android":"levelo://app?vid=06ba7cdd-0114-43e0-b37e-17f50586e28b","ios":"levelo://app?vid=06ba7cdd-0114-43e0-b37e-17f50586e28b"},"vehicle_type_id":"4","last_reported":1737176864,"current_range_meters":24400,"station_id":"ce4bh012rcd13ifvqcv0","pricing_plan_id":"cebpf4jnsgd1na2vs0mg"},{"bike_id":"3b86c408-dab3-4c6f-80eb-a86687ef0e80","system_id":"levelo_inurba_marseille","lat":43.30757,"lon":5.37657,"is_reserved":false,"is_disabled":false,"rental_uris":{"android":"levelo://app?vid=3b86c408-dab3-4c6f-80eb-a86687ef0e80","ios":"levelo://app?vid=3b86c408-dab3-4c6f-80eb-a86687ef0e80"},"vehicle_type_id":"4","last_reported":1737176864,"current_range_meters":14800,"station_id":"ce4bgv92rcd13ifvqcq0","pricing_plan_id":"cebpf4jnsgd1na2vs0mg"},{"bike_id":"bbbb65ee-7bd9-45c8-9ae6-33a5e1e600b8","system_id":"levelo_inurba_marseille","lat":43.28614,"lon":5.35107,"is_reserved":false,"is_disabled":false,"rental_uris":{"android":"levelo://app?vid=bbbb65ee-7bd9-45c8-9ae6-33a5e1e600b8","ios":"levelo://app?vid=bbbb65ee-7bd9-45c8-9ae6-33a5e1e600b8"},"vehicle_type_id":"4","last_reported":1737176864,"current_range_meters":16000,"station_id":"ce4bhch2rcd13ifvqeug","pricing_plan_id":"cebpf4jnsgd1na2vs0mg"},{"bike_id":"20ff09b8-a222-445d-b049-232d89fb3e88","system_id":"levelo_inurba_marseille","lat":43.30943,"lon":5.4015,"is_reserved":false,"is_disabled":false,"rental_uris":{"android":"levelo://app?vid=20ff09b8-a222-445d-b049-232d89fb3e88","ios":"levelo://app?vid=20ff09b8-a222-445d-b049-232d89fb3e88"},"vehicle_type_id":"4","last_reported":1737176864,"current_range_meters":39200,"station_id":"ce4bgvp2rcd13ifvqct0","pricing_plan_id":"cebpf4jnsgd1na2vs0mg"},{"bike_id":"f4a4a406-b0a5-42fc-9236-32e93ac6f6b2","system_id":"levelo_inurba_marseille","lat":43.231548,"lon":5.436989,"is_reserved":false,"is_disabled":true,"rental_uris":{"android":"levelo://app?vid=f4a4a406-b0a5-42fc-9236-32e93ac6f6b2","ios":"levelo://app?vid=f4a4a406-b0a5-42fc-9236-32e93ac6f6b2"},"vehicle_type_id":"4","last_reported":1737176864,"current_range_meters":30400,"station_id":"ce4bhmp2rcd13ifvqgog","pricing_plan_id":"cebpf4jnsgd1na2vs0mg"},{"bike_id":"e41ae004-35f3-4a84-9470-334d3f185da1","system_id":"levelo_inurba_marseille","lat":43.314919,"lon":5.373047,"is_reserved":false,"is_disabled":false,"rental_uris":{"android":"levelo://app?vid=e41ae004-35f3-4a84-9470-334d3f185da1","ios":"levelo://app?vid=e41ae004-35f3-4a84-9470-334d3f185da1"},"vehicle_type_id":"4","last_reported":1737176864,"current_range_meters":39200,"station_id":"ce4bgt12rcd13ifvqcd0","pricing_plan_id":"cebpf4jnsgd1na2vs0mg"},{"bike_id":"29f57eee-1531-46d8-941b-78675a4eb39d","system_id":"levelo_inurba_marseille","lat":43.33016,"lon":5.39033,"is_reserved":false,"is_disabled":false,"rental_uris":{"android":"levelo://app?vid=29f57eee-1531-46d8-941b-78675a4eb39d","ios":"levelo://app?vid=29f57eee-1531-46d8-941b-78675a4eb39d"},"vehicle_type_id":"4","last_reported":1737176864,"current_range_meters":37600,"station_id":"ce4bhr92rcd13ifvqhrg","pricing_plan_id":"cebpf4jnsgd1na2vs0mg"},{"bike_id":"4d7dc323-6666-4be9-a627-f2c5a8c93a8b","system_id":"levelo_inurba_marseille","lat":43.30596,"lon":5.39351,"is_reserved":false,"is_disabled":false,"rental_uris":{"android":"levelo://app?vid=4d7dc323-6666-4be9-a627-f2c5a8c93a8b","ios":"levelo://app?vid=4d7dc323-6666-4be9-a627-f2c5a8c93a8b"},"vehicle_type_id":"4","last_reported":1737176864,"current_range_meters":38000,"station_id":"ce4bh0p2rcd13ifvqd80","pricing_plan_id":"cebpf4jnsgd1na2vs0mg"},{"bike_id":"0f8a6241-7b84-426e-9fe5-e45583d860b3","system_id":"levelo_inurba_marseille","lat":43.318926,"lon":5.40726,"is_reserved":false,"is_disabled":false,"rental_uris":{"android":"levelo://app?vid=0f8a6241-7b84-426e-9fe5-e45583d860b3","ios":"levelo://app?vid=0f8a6241-7b84-426e-9fe5-e45583d860b3"},"vehicle_type_id":"4","last_reported":1737176864,"current_range_meters":37600,"station_id":"ce4bhq12rcd13ifvqhig","pricing_plan_id":"cebpf4jnsgd1na2vs0mg"},{"bike_id":"11cc40fc-2886-40cc-8b38-432bf44a4683","system_id":"levelo_inurba_marseille","lat":43.30447,"lon":5.38895,"is_reserved":false,"is_disabled":false,"rental_uris":{"android":"levelo://app?vid=11cc40fc-2886-40cc-8b38-432bf44a4683","ios":"levelo://app?vid=11cc40fc-2886-40cc-8b38-432bf44a4683"},"vehicle_type_id":"4","last_reported":1737176864,"current_range_meters":38000,"station_id":"ce4bgk12rcd13ifvqbi0","pricing_plan_id":"cebpf4jnsgd1na2vs0mg"},{"bike_id":"908a3229-e651-4c42-8314-ecef54f2d2a9","system_id":"levelo_inurba_marseille","lat":43.31177,"lon":5.38709,"is_reserved":false,"is_disabled":false,"rental_uris":{"android":"levelo://app?vid=908a3229-e651-4c42-8314-ecef54f2d2a9","ios":"levelo://app?vid=908a3229-e651-4c42-8314-ecef54f2d2a9"},"vehicle_type_id":"4","last_reported":1737176864,"current_range_meters":18000,"station_id":"ce4bgv12rcd13ifvqcp0","pricing_plan_id":"cebpf4jnsgd1na2vs0mg"},{"bike_id":"f2b9871f-1186-41e6-8a60-001205f747a7","system_id":"levelo_inurba_marseille","lat":43.24674,"lon":5.38156,"is_reserved":false,"is_disabled":false,"rental_uris":{"android":"levelo://app?vid=f2b9871f-1186-41e6-8a60-001205f747a7","ios":"levelo://app?vid=f2b9871f-1186-41e6-8a60-001205f747a7"},"vehicle_type_id":"4","last_reported":1737176864,"current_range_meters":8800,"station_id":"ce4bhih2rcd13ifvqfr0","pricing_plan_id":"cebpf4jnsgd1na2vs0mg"},{"bike_id":"67c549d5-ce81-408a-a146-d43915340e7f","system_id":"levelo_inurba_marseille","lat":43.33716,"lon":5.39185,"is_reserved":false,"is_disabled":false,"rental_uris":{"android":"levelo://app?vid=67c549d5-ce81-408a-a146-d43915340e7f","ios":"levelo://app?vid=67c549d5-ce81-408a-a146-d43915340e7f"},"vehicle_type_id":"4","last_reported":1737176864,"current_range_meters":38800,"station_id":"ce4bhr92rcd13ifvqhsg","pricing_plan_id":"cebpf4jnsgd1na2vs0mg"},{"bike_id":"fa546e5c-a68a-4a86-a5bb-1d856af38d7e","system_id":"levelo_inurba_marseille","lat":43.23612,"lon":5.43603,"is_reserved":false,"is_disabled":true,"rental_uris":{"android":"levelo://app?vid=fa546e5c-a68a-4a86-a5bb-1d856af38d7e","ios":"levelo://app?vid=fa546e5c-a68a-4a86-a5bb-1d856af38d7e"},"vehicle_type_id":"4","last_reported":1737176864,"current_range_meters":0,"station_id":"","pricing_plan_id":"cebpf4jnsgd1na2vs0mg"},{"bike_id":"34b4297c-3aa9-49ec-8c3e-4dc835fa76e0","system_id":"levelo_inurba_marseille","lat":43.31322,"lon":5.39704,"is_reserved":false,"is_disabled":false,"rental_uris":{"android":"levelo://app?vid=34b4297c-3aa9-49ec-8c3e-4dc835fa76e0","ios":"levelo://app?vid=34b4297c-3aa9-49ec-8c3e-4dc835fa76e0"},"vehicle_type_id":"4","last_reported":1737176864,"current_range_meters":30000,"station_id":"ce4bgvp2rcd13ifvqcu0","pricing_plan_id":"cebpf4jnsgd1na2vs0mg"},{"bike_id":"18c88f3d-7d60-4017-8ae5-e574f26839a4","system_id":"levelo_inurba_marseille","lat":43.26038,"lon":5.37546,"is_reserved":false,"is_disabled":false,"rental_uris":{"android":"levelo://app?vid=18c88f3d-7d60-4017-8ae5-e574f26839a4","ios":"levelo://app?vid=18c88f3d-7d60-4017-8ae5-e574f26839a4"},"vehicle_type_id":"4","last_reported":1737176864,"current_range_meters":31200,"station_id":"ce4bhgh2rcd13ifvqfa0","pricing_plan_id":"cebpf4jnsgd1na2vs0mg"},{"bike_id":"b936ffa6-9085-46b5-a0df-a1a2f8dd85b8","system_id":"levelo_inurba_marseille","lat":43.25002,"lon":5.38927,"is_reserved":false,"is_disabled":false,"rental_uris":{"android":"levelo://app?vid=b936ffa6-9085-46b5-a0df-a1a2f8dd85b8","ios":"levelo://app?vid=b936ffa6-9085-46b5-a0df-a1a2f8dd85b8"},"vehicle_type_id":"4","last_reported":1737176864,"current_range_meters":38000,"station_id":"ce4bhgp2rcd13ifvqfd0","pricing_plan_id":"cebpf4jnsgd1na2vs0mg"},{"bike_id":"f7d7974d-3656-4ef0-b182-9cc31261d5cf","system_id":"levelo_inurba_marseille","lat":43.30145,"lon":5.39892,"is_reserved":false,"is_disabled":false,"rental_uris":{"android":"levelo://app?vid=f7d7974d-3656-4ef0-b182-9cc31261d5cf","ios":"levelo://app?vid=f7d7974d-3656-4ef0-b182-9cc31261d5cf"},"vehicle_type_id":"4","last_reported":1737176864,"current_range_meters":38800,"station_id":"ce4bh0h2rcd13ifvqd40","pricing_plan_id":"cebpf4jnsgd1na2vs0mg"},{"bike_id":"b3bdae09-75e3-4ffe-9142-e4ae1a8f5a20","system_id":"levelo_inurba_marseille","lat":43.32649,"lon":5.4096,"is_reserved":false,"is_disabled":false,"rental_uris":{"android":"levelo://app?vid=b3bdae09-75e3-4ffe-9142-e4ae1a8f5a20","ios":"levelo://app?vid=b3bdae09-75e3-4ffe-9142-e4ae1a8f5a20"},"vehicle_type_id":"4","last_reported":1737176864,"current_range_meters":8400,"station_id":"ce4bhpp2rcd13ifvqhgg","pricing_plan_id":"cebpf4jnsgd1na2vs0mg"},{"bike_id":"48389a4d-3522-4d2d-a678-108033b697ac","system_id":"levelo_inurba_marseille","lat":43.27908,"lon":5.38017,"is_reserved":false,"is_disabled":false,"rental_uris":{"android":"levelo://app?vid=48389a4d-3522-4d2d-a678-108033b697ac","ios":"levelo://app?vid=48389a4d-3522-4d2d-a678-108033b697ac"},"vehicle_type_id":"4","last_reported":1737176864,"current_range_meters":9200,"station_id":"ce4bhf92rcd13ifvqf50","pricing_plan_id":"cebpf4jnsgd1na2vs0mg"},{"bike_id":"34709e64-d1c8-4538-88a5-33805792c0a5","system_id":"levelo_inurba_marseille","lat":43.25864,"lon":5.39385,"is_reserved":false,"is_disabled":false,"rental_uris":{"android":"levelo://app?vid=34709e64-d1c8-4538-88a5-33805792c0a5","ios":"levelo://app?vid=34709e64-d1c8-4538-88a5-33805792c0a5"},"vehicle_type_id":"4","last_reported":1737176864,"current_range_meters":36800,"station_id":"","pricing_plan_id":"cebpf4jnsgd1na2vs0mg"},{"bike_id":"d4c5158e-511e-4c0e-af6f-6a3bbf5cc0e5","system_id":"levelo_inurba_marseille","lat":43.27133,"lon":5.42241,"is_reserved":false,"is_disabled":true,"rental_uris":{"android":"levelo://app?vid=d4c5158e-511e-4c0e-af6f-6a3bbf5cc0e5","ios":"levelo://app?vid=d4c5158e-511e-4c0e-af6f-6a3bbf5cc0e5"},"vehicle_type_id":"4","last_reported":1737176864,"current_range_meters":0,"station_id":"","pricing_plan_id":"cebpf4jnsgd1na2vs0mg"},{"bike_id":"dbab92e3-f3c0-4308-9874-b220ed7649f0","system_id":"levelo_inurba_marseille","lat":43.31169,"lon":5.38704,"is_reserved":false,"is_disabled":false,"rental_uris":{"android":"levelo://app?vid=dbab92e3-f3c0-4308-9874-b220ed7649f0","ios":"levelo://app?vid=dbab92e3-f3c0-4308-9874-b220ed7649f0"},"vehicle_type_id":"4","last_reported":1737176864,"current_range_meters":36000,"station_id":"ce4bgv12rcd13ifvqcp0","pricing_plan_id":"cebpf4jnsgd1na2vs0mg"},{"bike_id":"350daef6-4877-4c3c-805c-ecbd41cf21cc","system_id":"levelo_inurba_marseille","lat":43.28655,"lon":5.36337,"is_reserved":false,"is_disabled":false,"rental_uris":{"android":"levelo://app?vid=350daef6-4877-4c3c-805c-ecbd41cf21cc","ios":"levelo://app?vid=350daef6-4877-4c3c-805c-ecbd41cf21cc"},"vehicle_type_id":"4","last_reported":1737176864,"current_range_meters":34800,"station_id":"ce4bhah2rcd13ifvqej0","pricing_plan_id":"cebpf4jnsgd1na2vs0mg"},{"bike_id":"37feb261-44b2-4b27-b3ae-078664007b08","system_id":"levelo_inurba_marseille","lat":43.32474,"lon":5.36576,"is_reserved":false,"is_disabled":false,"rental_uris":{"android":"levelo://app?vid=37feb261-44b2-4b27-b3ae-078664007b08","ios":"levelo://app?vid=37feb261-44b2-4b27-b3ae-078664007b08"},"vehicle_type_id":"4","last_reported":1737176864,"current_range_meters":7200,"station_id":"ce4bhs12rcd13ifvqhvg","pricing_plan_id":"cebpf4jnsgd1na2vs0mg"},{"bike_id":"4fde6ab5-286c-4c38-abd8-f85fbb4e25ac","system_id":"levelo_inurba_marseille","lat":43.28697,"lon":5.39982,"is_reserved":false,"is_disabled":false,"rental_uris":{"android":"levelo://app?vid=4fde6ab5-286c-4c38-abd8-f85fbb4e25ac","ios":"levelo://app?vid=4fde6ab5-286c-4c38-abd8-f85fbb4e25ac"},"vehicle_type_id":"4","last_reported":1737176864,"current_range_meters":34000,"station_id":"ce4bho92rcd13ifvqh3g","pricing_plan_id":"cebpf4jnsgd1na2vs0mg"},{"bike_id":"f8aad85d-54d6-4ca2-81ac-46c1a831eb57","system_id":"levelo_inurba_marseille","lat":43.28084,"lon":5.39658,"is_reserved":false,"is_disabled":false,"rental_uris":{"android":"levelo://app?vid=f8aad85d-54d6-4ca2-81ac-46c1a831eb57","ios":"levelo://app?vid=f8aad85d-54d6-4ca2-81ac-46c1a831eb57"},"vehicle_type_id":"4","last_reported":1737176864,"current_range_meters":34000,"station_id":"ce4bho12rcd13ifvqh2g","pricing_plan_id":"cebpf4jnsgd1na2vs0mg"},{"bike_id":"6c78eede-12bd-44fe-bdd5-15bdcf3e3cdc","system_id":"levelo_inurba_marseille","lat":43.28355,"lon":5.38621,"is_reserved":false,"is_disabled":false,"rental_uris":{"android":"levelo://app?vid=6c78eede-12bd-44fe-bdd5-15bdcf3e3cdc","ios":"levelo://app?vid=6c78eede-12bd-44fe-bdd5-15bdcf3e3cdc"},"vehicle_type_id":"4","last_reported":1737176864,"current_range_meters":38800,"station_id":"ce4bh492rcd13ifvqdvg","pricing_plan_id":"cebpf4jnsgd1na2vs0mg"},{"bike_id":"15d0e428-92a2-4ce5-9dfa-de49af04e1a0","system_id":"levelo_inurba_marseille","lat":43.28704,"lon":5.37381,"is_reserved":false,"is_disabled":false,"rental_uris":{"android":"levelo://app?vid=15d0e428-92a2-4ce5-9dfa-de49af04e1a0","ios":"levelo://app?vid=15d0e428-92a2-4ce5-9dfa-de49af04e1a0"},"vehicle_type_id":"4","last_reported":1737176864,"current_range_meters":26000,"station_id":"ce4bh3p2rcd13ifvqdq0","pricing_plan_id":"cebpf4jnsgd1na2vs0mg"},{"bike_id":"56b8e9bc-f750-4815-bc98-9098414d16db","system_id":"levelo_inurba_marseille","lat":43.23191,"lon":5.35569,"is_reserved":false,"is_disabled":true,"rental_uris":{"android":"levelo://app?vid=56b8e9bc-f750-4815-bc98-9098414d16db","ios":"levelo://app?vid=56b8e9bc-f750-4815-bc98-9098414d16db"},"vehicle_type_id":"4","last_reported":1737176864,"current_range_meters":0,"station_id":"ce4bhu92rcd13ifvqi70","pricing_plan_id":"cebpf4jnsgd1na2vs0mg"},{"bike_id":"0e91b70c-1e42-4d65-a90a-72cbd40954b0","system_id":"levelo_inurba_marseille","lat":43.31858,"lon":5.37463,"is_reserved":false,"is_disabled":false,"rental_uris":{"android":"levelo://app?vid=0e91b70c-1e42-4d65-a90a-72cbd40954b0","ios":"levelo://app?vid=0e91b70c-1e42-4d65-a90a-72cbd40954b0"},"vehicle_type_id":"4","last_reported":1737176864,"current_range_meters":12400,"station_id":"","pricing_plan_id":"cebpf4jnsgd1na2vs0mg"},{"bike_id":"a4fcc6fc-d624-482e-bc29-ec0a0a3eb429","system_id":"levelo_inurba_marseille","lat":43.3032,"lon":5.40448,"is_reserved":false,"is_disabled":false,"rental_uris":{"android":"levelo://app?vid=a4fcc6fc-d624-482e-bc29-ec0a0a3eb429","ios":"levelo://app?vid=a4fcc6fc-d624-482e-bc29-ec0a0a3eb429"},"vehicle_type_id":"4","last_reported":1737176864,"current_range_meters":22000,"station_id":"ce4bh012rcd13ifvqd10","pricing_plan_id":"cebpf4jnsgd1na2vs0mg"},{"bike_id":"4916c5da-e318-4472-84cf-aee3a54ce3c4","system_id":"levelo_inurba_marseille","lat":43.24645,"lon":5.43499,"is_reserved":false,"is_disabled":true,"rental_uris":{"android":"levelo://app?vid=4916c5da-e318-4472-84cf-aee3a54ce3c4","ios":"levelo://app?vid=4916c5da-e318-4472-84cf-aee3a54ce3c4"},"vehicle_type_id":"4","last_reported":1737176864,"current_range_meters":0,"station_id":"","pricing_plan_id":"cebpf4jnsgd1na2vs0mg"},{"bike_id":"476669f5-e9f1-4e60-98c4-0e855d07e3b3","system_id":"levelo_inurba_marseille","lat":43.304615,"lon":5.378996,"is_reserved":false,"is_disabled":false,"rental_uris":{"android":"levelo://app?vid=476669f5-e9f1-4e60-98c4-0e855d07e3b3","ios":"levelo://app?vid=476669f5-e9f1-4e60-98c4-0e855d07e3b3"},"vehicle_type_id":"4","last_reported":1737176864,"current_range_meters":39200,"station_id":"ce4bgup2rcd13ifvqcn0","pricing_plan_id":"cebpf4jnsgd1na2vs0mg"},{"bike_id":"71c1c95c-6888-4627-a9e0-5ec673ce9935","system_id":"levelo_inurba_marseille","lat":43.254995,"lon":5.376536,"is_reserved":false,"is_disabled":false,"rental_uris":{"android":"levelo://app?vid=71c1c95c-6888-4627-a9e0-5ec673ce9935","ios":"levelo://app?vid=71c1c95c-6888-4627-a9e0-5ec673ce9935"},"vehicle_type_id":"4","last_reported":1737176864,"current_range_meters":28400,"station_id":"ce4bhh12rcd13ifvqff0","pricing_plan_id":"cebpf4jnsgd1na2vs0mg"},{"bike_id":"c60c9972-38a7-49b0-9555-c0f589822982","system_id":"levelo_inurba_marseille","lat":43.3414,"lon":5.40909,"is_reserved":false,"is_disabled":false,"rental_uris":{"android":"levelo://app?vid=c60c9972-38a7-49b0-9555-c0f589822982","ios":"levelo://app?vid=c60c9972-38a7-49b0-9555-c0f589822982"},"vehicle_type_id":"4","last_reported":1737176864,"current_range_meters":37600,"station_id":"ce4bhqh2rcd13ifvqhlg","pricing_plan_id":"cebpf4jnsgd1na2vs0mg"},{"bike_id":"1b0abdf0-ebc9-477b-9a5c-20d604bc88e3","system_id":"levelo_inurba_marseille","lat":43.25088,"lon":5.39513,"is_reserved":false,"is_disabled":false,"rental_uris":{"android":"levelo://app?vid=1b0abdf0-ebc9-477b-9a5c-20d604bc88e3","ios":"levelo://app?vid=1b0abdf0-ebc9-477b-9a5c-20d604bc88e3"},"vehicle_type_id":"4","last_reported":1737176864,"current_range_meters":38800,"station_id":"ce4bhm12rcd13ifvqgkg","pricing_plan_id":"cebpf4jnsgd1na2vs0mg"},{"bike_id":"424dca1e-8779-4b6f-842e-21c8a559ff8d","system_id":"levelo_inurba_marseille","lat":43.28734,"lon":5.36079,"is_reserved":false,"is_disabled":false,"rental_uris":{"android":"levelo://app?vid=424dca1e-8779-4b6f-842e-21c8a559ff8d","ios":"levelo://app?vid=424dca1e-8779-4b6f-842e-21c8a559ff8d"},"vehicle_type_id":"4","last_reported":1737176864,"current_range_meters":36400,"station_id":"cki0cbj6b192h4jlfktg","pricing_plan_id":"cebpf4jnsgd1na2vs0mg"},{"bike_id":"b987a07f-a5e3-45e2-9549-2a61720f39ae","system_id":"levelo_inurba_marseille","lat":43.28701,"lon":5.37374,"is_reserved":false,"is_disabled":false,"rental_uris":{"android":"levelo://app?vid=b987a07f-a5e3-45e2-9549-2a61720f39ae","ios":"levelo://app?vid=b987a07f-a5e3-45e2-9549-2a61720f39ae"},"vehicle_type_id":"4","last_reported":1737176864,"current_range_meters":36400,"station_id":"ce4bh3p2rcd13ifvqdq0","pricing_plan_id":"cebpf4jnsgd1na2vs0mg"},{"bike_id":"6058ae9f-7230-4dc1-8303-9dfef7b41dd4","system_id":"levelo_inurba_marseille","lat":43.30312,"lon":5.39202,"is_reserved":false,"is_disabled":false,"rental_uris":{"android":"levelo://app?vid=6058ae9f-7230-4dc1-8303-9dfef7b41dd4","ios":"levelo://app?vid=6058ae9f-7230-4dc1-8303-9dfef7b41dd4"},"vehicle_type_id":"4","last_reported":1737176864,"current_range_meters":12400,"station_id":"ce4bgkh2rcd13ifvqbk0","pricing_plan_id":"cebpf4jnsgd1na2vs0mg"},{"bike_id":"57cb6125-13ef-4b3f-8c04-c66200689843","system_id":"levelo_inurba_marseille","lat":43.30877,"lon":5.39626,"is_reserved":false,"is_disabled":false,"rental_uris":{"android":"levelo://app?vid=57cb6125-13ef-4b3f-8c04-c66200689843","ios":"levelo://app?vid=57cb6125-13ef-4b3f-8c04-c66200689843"},"vehicle_type_id":"4","last_reported":1737176864,"current_range_meters":39200,"station_id":"ce4bh012rcd13ifvqcv0","pricing_plan_id":"cebpf4jnsgd1na2vs0mg"},{"bike_id":"76e3d49c-0a7f-4b54-929b-b10b86469cfb","system_id":"levelo_inurba_marseille","lat":43.2972,"lon":5.37686,"is_reserved":false,"is_disabled":false,"rental_uris":{"android":"levelo://app?vid=76e3d49c-0a7f-4b54-929b-b10b86469cfb","ios":"levelo://app?vid=76e3d49c-0a7f-4b54-929b-b10b86469cfb"},"vehicle_type_id":"4","last_reported":1737176864,"current_range_meters":38000,"station_id":"ce4bgkh2rcd13ifvqbl0","pricing_plan_id":"cebpf4jnsgd1na2vs0mg"},{"bike_id":"22465212-93af-4e0b-b803-6ee82bba56d5","system_id":"levelo_inurba_marseille","lat":43.33763,"lon":5.37492,"is_reserved":false,"is_disabled":false,"rental_uris":{"android":"levelo://app?vid=22465212-93af-4e0b-b803-6ee82bba56d5","ios":"levelo://app?vid=22465212-93af-4e0b-b803-6ee82bba56d5"},"vehicle_type_id":"4","last_reported":1737176864,"current_range_meters":30400,"station_id":"","pricing_plan_id":"cebpf4jnsgd1na2vs0mg"},{"bike_id":"383804a9-bc85-4456-8f1f-230200312aa2","system_id":"levelo_inurba_marseille","lat":43.29026,"lon":5.39976,"is_reserved":false,"is_disabled":false,"rental_uris":{"android":"levelo://app?vid=383804a9-bc85-4456-8f1f-230200312aa2","ios":"levelo://app?vid=383804a9-bc85-4456-8f1f-230200312aa2"},"vehicle_type_id":"4","last_reported":1737176864,"current_range_meters":38800,"station_id":"ce4bh392rcd13ifvqdm0","pricing_plan_id":"cebpf4jnsgd1na2vs0mg"},{"bike_id":"979d7a5c-00ce-4dcf-a15c-0fc9c9e35c10","system_id":"levelo_inurba_marseille","lat":43.33783,"lon":5.37456,"is_reserved":false,"is_disabled":false,"rental_uris":{"android":"levelo://app?vid=979d7a5c-00ce-4dcf-a15c-0fc9c9e35c10","ios":"levelo://app?vid=979d7a5c-00ce-4dcf-a15c-0fc9c9e35c10"},"vehicle_type_id":"4","last_reported":1737176864,"current_range_meters":26800,"station_id":"","pricing_plan_id":"cebpf4jnsgd1na2vs0mg"},{"bike_id":"730df4ba-4772-4a0e-9e4a-bb6bde6caaeb","system_id":"levelo_inurba_marseille","lat":43.301421,"lon":5.398755,"is_reserved":false,"is_disabled":true,"rental_uris":{"android":"levelo://app?vid=730df4ba-4772-4a0e-9e4a-bb6bde6caaeb","ios":"levelo://app?vid=730df4ba-4772-4a0e-9e4a-bb6bde6caaeb"},"vehicle_type_id":"4","last_reported":1737176864,"current_range_meters":36800,"station_id":"ce4bh0h2rcd13ifvqd40","pricing_plan_id":"cebpf4jnsgd1na2vs0mg"},{"bike_id":"2669dc48-d52c-4df4-a185-3258641e3a0a","system_id":"levelo_inurba_marseille","lat":43.279812,"lon":5.387412,"is_reserved":false,"is_disabled":true,"rental_uris":{"android":"levelo://app?vid=2669dc48-d52c-4df4-a185-3258641e3a0a","ios":"levelo://app?vid=2669dc48-d52c-4df4-a185-3258641e3a0a"},"vehicle_type_id":"4","last_reported":1737176864,"current_range_meters":400,"station_id":"ce4bhg12rcd13ifvqf80","pricing_plan_id":"cebpf4jnsgd1na2vs0mg"},{"bike_id":"a9761dde-4c88-4594-b55b-2341bdc2a36d","system_id":"levelo_inurba_marseille","lat":43.30608,"lon":5.37232,"is_reserved":false,"is_disabled":false,"rental_uris":{"android":"levelo://app?vid=a9761dde-4c88-4594-b55b-2341bdc2a36d","ios":"levelo://app?vid=a9761dde-4c88-4594-b55b-2341bdc2a36d"},"vehicle_type_id":"4","last_reported":1737176864,"current_range_meters":24400,"station_id":"ce4bgqh2rcd13ifvqc4g","pricing_plan_id":"cebpf4jnsgd1na2vs0mg"},{"bike_id":"492bb2a4-bb26-45e4-9edc-d3f9691e28d1","system_id":"levelo_inurba_marseille","lat":43.31766,"lon":5.39017,"is_reserved":false,"is_disabled":false,"rental_uris":{"android":"levelo://app?vid=492bb2a4-bb26-45e4-9edc-d3f9691e28d1","ios":"levelo://app?vid=492bb2a4-bb26-45e4-9edc-d3f9691e28d1"},"vehicle_type_id":"4","last_reported":1737176864,"current_range_meters":37600,"station_id":"ce4bhqp2rcd13ifvqhng","pricing_plan_id":"cebpf4jnsgd1na2vs0mg"},{"bike_id":"b0ae9043-30ae-4be6-bba1-965e81baaec3","system_id":"levelo_inurba_marseille","lat":43.286004,"lon":5.370654,"is_reserved":false,"is_disabled":false,"rental_uris":{"android":"levelo://app?vid=b0ae9043-30ae-4be6-bba1-965e81baaec3","ios":"levelo://app?vid=b0ae9043-30ae-4be6-bba1-965e81baaec3"},"vehicle_type_id":"4","last_reported":1737176864,"current_range_meters":22000,"station_id":"ce4bht12rcd13ifvqi60","pricing_plan_id":"cebpf4jnsgd1na2vs0mg"},{"bike_id":"2852113b-49ee-4cbf-9a16-ea68797906c2","system_id":"levelo_inurba_marseille","lat":43.33781,"lon":5.37446,"is_reserved":false,"is_disabled":false,"rental_uris":{"android":"levelo://app?vid=2852113b-49ee-4cbf-9a16-ea68797906c2","ios":"levelo://app?vid=2852113b-49ee-4cbf-9a16-ea68797906c2"},"vehicle_type_id":"4","last_reported":1737176864,"current_range_meters":37600,"station_id":"","pricing_plan_id":"cebpf4jnsgd1na2vs0mg"},{"bike_id":"f44c6782-5650-44af-bdfe-5de6412a3d83","system_id":"levelo_inurba_marseille","lat":43.3031,"lon":5.36899,"is_reserved":false,"is_disabled":false,"rental_uris":{"android":"levelo://app?vid=f44c6782-5650-44af-bdfe-5de6412a3d83","ios":"levelo://app?vid=f44c6782-5650-44af-bdfe-5de6412a3d83"},"vehicle_type_id":"4","last_reported":1737176864,"current_range_meters":30800,"station_id":"ce4bgqh2rcd13ifvqc5g","pricing_plan_id":"cebpf4jnsgd1na2vs0mg"},{"bike_id":"d3bcae62-6d5d-45f6-acfa-c8b6603a3285","system_id":"levelo_inurba_marseille","lat":43.31467,"lon":5.38957,"is_reserved":false,"is_disabled":false,"rental_uris":{"android":"levelo://app?vid=d3bcae62-6d5d-45f6-acfa-c8b6603a3285","ios":"levelo://app?vid=d3bcae62-6d5d-45f6-acfa-c8b6603a3285"},"vehicle_type_id":"4","last_reported":1737176864,"current_range_meters":27600,"station_id":"","pricing_plan_id":"cebpf4jnsgd1na2vs0mg"},{"bike_id":"b663f53e-1e42-4f0c-a05f-fde242cb0184","system_id":"levelo_inurba_marseille","lat":43.286185,"lon":5.350967,"is_reserved":false,"is_disabled":false,"rental_uris":{"android":"levelo://app?vid=b663f53e-1e42-4f0c-a05f-fde242cb0184","ios":"levelo://app?vid=b663f53e-1e42-4f0c-a05f-fde242cb0184"},"vehicle_type_id":"4","last_reported":1737176864,"current_range_meters":26800,"station_id":"ce4bhch2rcd13ifvqeug","pricing_plan_id":"cebpf4jnsgd1na2vs0mg"},{"bike_id":"642bb700-8dbb-42db-a943-18edeccd7c0a","system_id":"levelo_inurba_marseille","lat":43.27821,"lon":5.40708,"is_reserved":false,"is_disabled":false,"rental_uris":{"android":"levelo://app?vid=642bb700-8dbb-42db-a943-18edeccd7c0a","ios":"levelo://app?vid=642bb700-8dbb-42db-a943-18edeccd7c0a"},"vehicle_type_id":"4","last_reported":1737176864,"current_range_meters":38800,"station_id":"ce4bhnh2rcd13ifvqgtg","pricing_plan_id":"cebpf4jnsgd1na2vs0mg"},{"bike_id":"1db2e11f-620f-403f-b1b3-cd7ce8d8adee","system_id":"levelo_inurba_marseille","lat":43.2892,"lon":5.35854,"is_reserved":false,"is_disabled":false,"rental_uris":{"android":"levelo://app?vid=1db2e11f-620f-403f-b1b3-cd7ce8d8adee","ios":"levelo://app?vid=1db2e11f-620f-403f-b1b3-cd7ce8d8adee"},"vehicle_type_id":"4","last_reported":1737176864,"current_range_meters":12800,"station_id":"","pricing_plan_id":"cebpf4jnsgd1na2vs0mg"},{"bike_id":"82eafdac-bd81-479d-a7b0-05db8ca76c26","system_id":"levelo_inurba_marseille","lat":43.25841,"lon":5.3944,"is_reserved":false,"is_disabled":true,"rental_uris":{"android":"levelo://app?vid=82eafdac-bd81-479d-a7b0-05db8ca76c26","ios":"levelo://app?vid=82eafdac-bd81-479d-a7b0-05db8ca76c26"},"vehicle_type_id":"4","last_reported":1737176864,"current_range_meters":400,"station_id":"ce4bhip2rcd13ifvqft0","pricing_plan_id":"cebpf4jnsgd1na2vs0mg"},{"bike_id":"3a253418-85b0-4f34-a831-b42c6a9a20b9","system_id":"levelo_inurba_marseille","lat":43.2849,"lon":5.38439,"is_reserved":false,"is_disabled":false,"rental_uris":{"android":"levelo://app?vid=3a253418-85b0-4f34-a831-b42c6a9a20b9","ios":"levelo://app?vid=3a253418-85b0-4f34-a831-b42c6a9a20b9"},"vehicle_type_id":"4","last_reported":1737176864,"current_range_meters":25600,"station_id":"ce4bh512rcd13ifvqe3g","pricing_plan_id":"cebpf4jnsgd1na2vs0mg"},{"bike_id":"cefc250c-1baa-4a78-8fed-eb20c7fbb95c","system_id":"levelo_inurba_marseille","lat":43.23185,"lon":5.35561,"is_reserved":false,"is_disabled":false,"rental_uris":{"android":"levelo://app?vid=cefc250c-1baa-4a78-8fed-eb20c7fbb95c","ios":"levelo://app?vid=cefc250c-1baa-4a78-8fed-eb20c7fbb95c"},"vehicle_type_id":"4","last_reported":1737176864,"current_range_meters":38000,"station_id":"ce4bhu92rcd13ifvqi70","pricing_plan_id":"cebpf4jnsgd1na2vs0mg"},{"bike_id":"6a7366d7-ed8c-4629-bf0c-70c2abcda36d","system_id":"levelo_inurba_marseille","lat":43.23202,"lon":5.35569,"is_reserved":false,"is_disabled":false,"rental_uris":{"android":"levelo://app?vid=6a7366d7-ed8c-4629-bf0c-70c2abcda36d","ios":"levelo://app?vid=6a7366d7-ed8c-4629-bf0c-70c2abcda36d"},"vehicle_type_id":"4","last_reported":1737176864,"current_range_meters":38800,"station_id":"ce4bhu92rcd13ifvqi70","pricing_plan_id":"cebpf4jnsgd1na2vs0mg"},{"bike_id":"2bfb81d2-63b8-4cd2-b9a9-33760811e6c2","system_id":"levelo_inurba_marseille","lat":43.24638,"lon":5.38902,"is_reserved":false,"is_disabled":false,"rental_uris":{"android":"levelo://app?vid=2bfb81d2-63b8-4cd2-b9a9-33760811e6c2","ios":"levelo://app?vid=2bfb81d2-63b8-4cd2-b9a9-33760811e6c2"},"vehicle_type_id":"4","last_reported":1737176864,"current_range_meters":38800,"station_id":"ce4bhg12rcd13ifvqf60","pricing_plan_id":"cebpf4jnsgd1na2vs0mg"},{"bike_id":"b37e6289-9ccc-400e-9483-a79f58a29200","system_id":"levelo_inurba_marseille","lat":43.25083,"lon":5.39519,"is_reserved":false,"is_disabled":false,"rental_uris":{"android":"levelo://app?vid=b37e6289-9ccc-400e-9483-a79f58a29200","ios":"levelo://app?vid=b37e6289-9ccc-400e-9483-a79f58a29200"},"vehicle_type_id":"4","last_reported":1737176864,"current_range_meters":14800,"station_id":"ce4bhm12rcd13ifvqgkg","pricing_plan_id":"cebpf4jnsgd1na2vs0mg"},{"bike_id":"92815373-594e-473e-8a91-850f96a6d88f","system_id":"levelo_inurba_marseille","lat":43.311191,"lon":5.377651,"is_reserved":false,"is_disabled":false,"rental_uris":{"android":"levelo://app?vid=92815373-594e-473e-8a91-850f96a6d88f","ios":"levelo://app?vid=92815373-594e-473e-8a91-850f96a6d88f"},"vehicle_type_id":"4","last_reported":1737176864,"current_range_meters":28000,"station_id":"ce4bgt92rcd13ifvqcg0","pricing_plan_id":"cebpf4jnsgd1na2vs0mg"},{"bike_id":"c5e9582c-f791-48cb-b29f-91f8675f074e","system_id":"levelo_inurba_marseille","lat":43.32003,"lon":5.38144,"is_reserved":false,"is_disabled":false,"rental_uris":{"android":"levelo://app?vid=c5e9582c-f791-48cb-b29f-91f8675f074e","ios":"levelo://app?vid=c5e9582c-f791-48cb-b29f-91f8675f074e"},"vehicle_type_id":"4","last_reported":1737176864,"current_range_meters":39200,"station_id":"ce4bhr12rcd13ifvqhpg","pricing_plan_id":"cebpf4jnsgd1na2vs0mg"},{"bike_id":"35deb437-7ef2-4ee7-9ea5-27ce0001ca7b","system_id":"levelo_inurba_marseille","lat":43.260632,"lon":5.393953,"is_reserved":false,"is_disabled":false,"rental_uris":{"android":"levelo://app?vid=35deb437-7ef2-4ee7-9ea5-27ce0001ca7b","ios":"levelo://app?vid=35deb437-7ef2-4ee7-9ea5-27ce0001ca7b"},"vehicle_type_id":"4","last_reported":1737176864,"current_range_meters":38800,"station_id":"ce4bhh92rcd13ifvqfj0","pricing_plan_id":"cebpf4jnsgd1na2vs0mg"},{"bike_id":"8950ad97-12b3-4231-a25a-a92e6e418d6d","system_id":"levelo_inurba_marseille","lat":43.28607,"lon":5.37074,"is_reserved":false,"is_disabled":false,"rental_uris":{"android":"levelo://app?vid=8950ad97-12b3-4231-a25a-a92e6e418d6d","ios":"levelo://app?vid=8950ad97-12b3-4231-a25a-a92e6e418d6d"},"vehicle_type_id":"4","last_reported":1737176864,"current_range_meters":16400,"station_id":"ce4bht12rcd13ifvqi60","pricing_plan_id":"cebpf4jnsgd1na2vs0mg"},{"bike_id":"3f365e46-1820-41a8-b556-5a78950765a9","system_id":"levelo_inurba_marseille","lat":43.28383,"lon":5.38654,"is_reserved":false,"is_disabled":false,"rental_uris":{"android":"levelo://app?vid=3f365e46-1820-41a8-b556-5a78950765a9","ios":"levelo://app?vid=3f365e46-1820-41a8-b556-5a78950765a9"},"vehicle_type_id":"4","last_reported":1737176864,"current_range_meters":38800,"station_id":"ce4bh492rcd13ifvqdvg","pricing_plan_id":"cebpf4jnsgd1na2vs0mg"},{"bike_id":"f2390374-e060-4fe1-bcfa-cb2711193e58","system_id":"levelo_inurba_marseille","lat":43.25098,"lon":5.3952,"is_reserved":false,"is_disabled":false,"rental_uris":{"android":"levelo://app?vid=f2390374-e060-4fe1-bcfa-cb2711193e58","ios":"levelo://app?vid=f2390374-e060-4fe1-bcfa-cb2711193e58"},"vehicle_type_id":"4","last_reported":1737176864,"current_range_meters":11600,"station_id":"ce4bhm12rcd13ifvqgkg","pricing_plan_id":"cebpf4jnsgd1na2vs0mg"},{"bike_id":"12aeebdf-9e20-443e-a190-514b03e8d72a","system_id":"levelo_inurba_marseille","lat":43.308831,"lon":5.371938,"is_reserved":false,"is_disabled":false,"rental_uris":{"android":"levelo://app?vid=12aeebdf-9e20-443e-a190-514b03e8d72a","ios":"levelo://app?vid=12aeebdf-9e20-443e-a190-514b03e8d72a"},"vehicle_type_id":"4","last_reported":1737176864,"current_range_meters":37600,"station_id":"ce4bguh2rcd13ifvqckg","pricing_plan_id":"cebpf4jnsgd1na2vs0mg"},{"bike_id":"3baee328-1960-43a9-a18f-d51a435b6348","system_id":"levelo_inurba_marseille","lat":43.27841,"lon":5.40713,"is_reserved":false,"is_disabled":false,"rental_uris":{"android":"levelo://app?vid=3baee328-1960-43a9-a18f-d51a435b6348","ios":"levelo://app?vid=3baee328-1960-43a9-a18f-d51a435b6348"},"vehicle_type_id":"4","last_reported":1737176864,"current_range_meters":30800,"station_id":"ce4bhnh2rcd13ifvqgtg","pricing_plan_id":"cebpf4jnsgd1na2vs0mg"},{"bike_id":"1803bcce-5410-4043-899f-585e033b34fc","system_id":"levelo_inurba_marseille","lat":43.30143,"lon":5.39894,"is_reserved":false,"is_disabled":false,"rental_uris":{"android":"levelo://app?vid=1803bcce-5410-4043-899f-585e033b34fc","ios":"levelo://app?vid=1803bcce-5410-4043-899f-585e033b34fc"},"vehicle_type_id":"4","last_reported":1737176864,"current_range_meters":24400,"station_id":"ce4bh0h2rcd13ifvqd40","pricing_plan_id":"cebpf4jnsgd1na2vs0mg"},{"bike_id":"a8c1b154-f41c-4d41-9d3c-cf0101fd1f79","system_id":"levelo_inurba_marseille","lat":43.31328,"lon":5.39697,"is_reserved":false,"is_disabled":false,"rental_uris":{"android":"levelo://app?vid=a8c1b154-f41c-4d41-9d3c-cf0101fd1f79","ios":"levelo://app?vid=a8c1b154-f41c-4d41-9d3c-cf0101fd1f79"},"vehicle_type_id":"4","last_reported":1737176864,"current_range_meters":38000,"station_id":"ce4bgvp2rcd13ifvqcu0","pricing_plan_id":"cebpf4jnsgd1na2vs0mg"},{"bike_id":"fb0e3bf0-d49f-4b40-9e9c-373475dbd664","system_id":"levelo_inurba_marseille","lat":43.281033,"lon":5.378506,"is_reserved":false,"is_disabled":false,"rental_uris":{"android":"levelo://app?vid=fb0e3bf0-d49f-4b40-9e9c-373475dbd664","ios":"levelo://app?vid=fb0e3bf0-d49f-4b40-9e9c-373475dbd664"},"vehicle_type_id":"4","last_reported":1737176864,"current_range_meters":10000,"station_id":"ce4bha12rcd13ifvqee0","pricing_plan_id":"cebpf4jnsgd1na2vs0mg"},{"bike_id":"cd4a107c-2d72-46d4-9e07-4d6e3e144097","system_id":"levelo_inurba_marseille","lat":43.29553,"lon":5.42281,"is_reserved":false,"is_disabled":false,"rental_uris":{"android":"levelo://app?vid=cd4a107c-2d72-46d4-9e07-4d6e3e144097","ios":"levelo://app?vid=cd4a107c-2d72-46d4-9e07-4d6e3e144097"},"vehicle_type_id":"4","last_reported":1737176864,"current_range_meters":39200,"station_id":"ce4bhph2rcd13ifvqhdg","pricing_plan_id":"cebpf4jnsgd1na2vs0mg"},{"bike_id":"7ae468b0-0e73-4609-b947-3b7dfb1c3890","system_id":"levelo_inurba_marseille","lat":43.28436,"lon":5.37523,"is_reserved":false,"is_disabled":false,"rental_uris":{"android":"levelo://app?vid=7ae468b0-0e73-4609-b947-3b7dfb1c3890","ios":"levelo://app?vid=7ae468b0-0e73-4609-b947-3b7dfb1c3890"},"vehicle_type_id":"4","last_reported":1737176864,"current_range_meters":33200,"station_id":"ce4bh412rcd13ifvqds0","pricing_plan_id":"cebpf4jnsgd1na2vs0mg"},{"bike_id":"c4ab3838-1d61-4e29-a39f-fbac00aa12d4","system_id":"levelo_inurba_marseille","lat":43.31212,"lon":5.36843,"is_reserved":false,"is_disabled":false,"rental_uris":{"android":"levelo://app?vid=c4ab3838-1d61-4e29-a39f-fbac00aa12d4","ios":"levelo://app?vid=c4ab3838-1d61-4e29-a39f-fbac00aa12d4"},"vehicle_type_id":"4","last_reported":1737176864,"current_range_meters":38000,"station_id":"ce4bgl92rcd13ifvqbq0","pricing_plan_id":"cebpf4jnsgd1na2vs0mg"},{"bike_id":"54a3efb5-08d3-4f3d-934b-412f3f6ff3fa","system_id":"levelo_inurba_marseille","lat":43.305363,"lon":5.367047,"is_reserved":false,"is_disabled":false,"rental_uris":{"android":"levelo://app?vid=54a3efb5-08d3-4f3d-934b-412f3f6ff3fa","ios":"levelo://app?vid=54a3efb5-08d3-4f3d-934b-412f3f6ff3fa"},"vehicle_type_id":"4","last_reported":1737176864,"current_range_meters":8400,"station_id":"ce4bgrp2rcd13ifvqc9g","pricing_plan_id":"cebpf4jnsgd1na2vs0mg"},{"bike_id":"c38d5461-87c4-4390-b717-7801f5097318","system_id":"levelo_inurba_marseille","lat":43.28971,"lon":5.37836,"is_reserved":false,"is_disabled":false,"rental_uris":{"android":"levelo://app?vid=c38d5461-87c4-4390-b717-7801f5097318","ios":"levelo://app?vid=c38d5461-87c4-4390-b717-7801f5097318"},"vehicle_type_id":"4","last_reported":1737176864,"current_range_meters":38000,"station_id":"ce4bh9p2rcd13ifvqed0","pricing_plan_id":"cebpf4jnsgd1na2vs0mg"},{"bike_id":"9bab668f-3bf8-42aa-aa16-f178b61b2b81","system_id":"levelo_inurba_marseille","lat":43.28821,"lon":5.40029,"is_reserved":false,"is_disabled":false,"rental_uris":{"android":"levelo://app?vid=9bab668f-3bf8-42aa-aa16-f178b61b2b81","ios":"levelo://app?vid=9bab668f-3bf8-42aa-aa16-f178b61b2b81"},"vehicle_type_id":"4","last_reported":1737176864,"current_range_meters":30800,"station_id":"","pricing_plan_id":"cebpf4jnsgd1na2vs0mg"},{"bike_id":"29115170-c3f9-497a-8ac2-7733237abe9e","system_id":"levelo_inurba_marseille","lat":43.307799,"lon":5.37647,"is_reserved":false,"is_disabled":false,"rental_uris":{"android":"levelo://app?vid=29115170-c3f9-497a-8ac2-7733237abe9e","ios":"levelo://app?vid=29115170-c3f9-497a-8ac2-7733237abe9e"},"vehicle_type_id":"4","last_reported":1737176864,"current_range_meters":27600,"station_id":"ce4bgv92rcd13ifvqcq0","pricing_plan_id":"cebpf4jnsgd1na2vs0mg"},{"bike_id":"80cb3c14-e0c3-4218-bba9-504a8f28a4f9","system_id":"levelo_inurba_marseille","lat":43.28682,"lon":5.38654,"is_reserved":false,"is_disabled":false,"rental_uris":{"android":"levelo://app?vid=80cb3c14-e0c3-4218-bba9-504a8f28a4f9","ios":"levelo://app?vid=80cb3c14-e0c3-4218-bba9-504a8f28a4f9"},"vehicle_type_id":"4","last_reported":1737176864,"current_range_meters":8800,"station_id":"ce4bh492rcd13ifvqdug","pricing_plan_id":"cebpf4jnsgd1na2vs0mg"},{"bike_id":"246f2aa1-d855-40ee-b8e2-0e541013d632","system_id":"levelo_inurba_marseille","lat":43.278146,"lon":5.407097,"is_reserved":false,"is_disabled":true,"rental_uris":{"android":"levelo://app?vid=246f2aa1-d855-40ee-b8e2-0e541013d632","ios":"levelo://app?vid=246f2aa1-d855-40ee-b8e2-0e541013d632"},"vehicle_type_id":"4","last_reported":1737176864,"current_range_meters":2000,"station_id":"ce4bhnh2rcd13ifvqgtg","pricing_plan_id":"cebpf4jnsgd1na2vs0mg"},{"bike_id":"c248864c-e161-4718-8c42-20a1064043b4","system_id":"levelo_inurba_marseille","lat":43.28414,"lon":5.37517,"is_reserved":false,"is_disabled":false,"rental_uris":{"android":"levelo://app?vid=c248864c-e161-4718-8c42-20a1064043b4","ios":"levelo://app?vid=c248864c-e161-4718-8c42-20a1064043b4"},"vehicle_type_id":"4","last_reported":1737176864,"current_range_meters":22800,"station_id":"ce4bh412rcd13ifvqds0","pricing_plan_id":"cebpf4jnsgd1na2vs0mg"},{"bike_id":"7802f421-1c53-4fcb-b117-f9e526affd2e","system_id":"levelo_inurba_marseille","lat":43.31194,"lon":5.36877,"is_reserved":false,"is_disabled":false,"rental_uris":{"android":"levelo://app?vid=7802f421-1c53-4fcb-b117-f9e526affd2e","ios":"levelo://app?vid=7802f421-1c53-4fcb-b117-f9e526affd2e"},"vehicle_type_id":"4","last_reported":1737176864,"current_range_meters":38000,"station_id":"ce4bgl92rcd13ifvqbq0","pricing_plan_id":"cebpf4jnsgd1na2vs0mg"},{"bike_id":"72ca0742-1df6-4026-87cc-098e9e8db1ab","system_id":"levelo_inurba_marseille","lat":43.23957,"lon":5.36626,"is_reserved":false,"is_disabled":false,"rental_uris":{"android":"levelo://app?vid=72ca0742-1df6-4026-87cc-098e9e8db1ab","ios":"levelo://app?vid=72ca0742-1df6-4026-87cc-098e9e8db1ab"},"vehicle_type_id":"4","last_reported":1737176864,"current_range_meters":26000,"station_id":"ce4bhi12rcd13ifvqfp0","pricing_plan_id":"cebpf4jnsgd1na2vs0mg"},{"bike_id":"1e2f115e-489f-4c45-b5ad-3280ad4c66fe","system_id":"levelo_inurba_marseille","lat":43.31695,"lon":5.43689,"is_reserved":false,"is_disabled":false,"rental_uris":{"android":"levelo://app?vid=1e2f115e-489f-4c45-b5ad-3280ad4c66fe","ios":"levelo://app?vid=1e2f115e-489f-4c45-b5ad-3280ad4c66fe"},"vehicle_type_id":"4","last_reported":1737176864,"current_range_meters":20400,"station_id":"ce4bhp92rcd13ifvqhcg","pricing_plan_id":"cebpf4jnsgd1na2vs0mg"},{"bike_id":"e9948edc-04e6-4552-b1df-26d3e5828acf","system_id":"levelo_inurba_marseille","lat":43.2582,"lon":5.39426,"is_reserved":false,"is_disabled":false,"rental_uris":{"android":"levelo://app?vid=e9948edc-04e6-4552-b1df-26d3e5828acf","ios":"levelo://app?vid=e9948edc-04e6-4552-b1df-26d3e5828acf"},"vehicle_type_id":"4","last_reported":1737176864,"current_range_meters":8400,"station_id":"ce4bhip2rcd13ifvqft0","pricing_plan_id":"cebpf4jnsgd1na2vs0mg"},{"bike_id":"99ee94b8-cdd4-4237-8287-de2fd426fc26","system_id":"levelo_inurba_marseille","lat":43.30255,"lon":5.40059,"is_reserved":false,"is_disabled":false,"rental_uris":{"android":"levelo://app?vid=99ee94b8-cdd4-4237-8287-de2fd426fc26","ios":"levelo://app?vid=99ee94b8-cdd4-4237-8287-de2fd426fc26"},"vehicle_type_id":"4","last_reported":1737176864,"current_range_meters":36000,"station_id":"ce4bgvh2rcd13ifvqcs0","pricing_plan_id":"cebpf4jnsgd1na2vs0mg"},{"bike_id":"5ed39e30-6df6-4cb7-b9e5-8eddd4f008ab","system_id":"levelo_inurba_marseille","lat":43.30346,"lon":5.391,"is_reserved":false,"is_disabled":true,"rental_uris":{"android":"levelo://app?vid=5ed39e30-6df6-4cb7-b9e5-8eddd4f008ab","ios":"levelo://app?vid=5ed39e30-6df6-4cb7-b9e5-8eddd4f008ab"},"vehicle_type_id":"4","last_reported":1737176864,"current_range_meters":0,"station_id":"ce4bgkh2rcd13ifvqbk0","pricing_plan_id":"cebpf4jnsgd1na2vs0mg"},{"bike_id":"5f14310a-75fd-4a5b-a1bd-aaf290600cc6","system_id":"levelo_inurba_marseille","lat":43.255,"lon":5.37647,"is_reserved":false,"is_disabled":false,"rental_uris":{"android":"levelo://app?vid=5f14310a-75fd-4a5b-a1bd-aaf290600cc6","ios":"levelo://app?vid=5f14310a-75fd-4a5b-a1bd-aaf290600cc6"},"vehicle_type_id":"4","last_reported":1737176864,"current_range_meters":37600,"station_id":"ce4bhh12rcd13ifvqff0","pricing_plan_id":"cebpf4jnsgd1na2vs0mg"},{"bike_id":"b7c9c525-7e64-4f64-8d0a-383577c8c574","system_id":"levelo_inurba_marseille","lat":43.3229,"lon":5.38278,"is_reserved":false,"is_disabled":false,"rental_uris":{"android":"levelo://app?vid=b7c9c525-7e64-4f64-8d0a-383577c8c574","ios":"levelo://app?vid=b7c9c525-7e64-4f64-8d0a-383577c8c574"},"vehicle_type_id":"4","last_reported":1737176864,"current_range_meters":31200,"station_id":"ce4bhr12rcd13ifvqhqg","pricing_plan_id":"cebpf4jnsgd1na2vs0mg"},{"bike_id":"0b938576-3591-451b-87bf-9390e1a3ed62","system_id":"levelo_inurba_marseille","lat":43.30647,"lon":5.40057,"is_reserved":false,"is_disabled":false,"rental_uris":{"android":"levelo://app?vid=0b938576-3591-451b-87bf-9390e1a3ed62","ios":"levelo://app?vid=0b938576-3591-451b-87bf-9390e1a3ed62"},"vehicle_type_id":"4","last_reported":1737176864,"current_range_meters":22000,"station_id":"ce4bh112rcd13ifvqda0","pricing_plan_id":"cebpf4jnsgd1na2vs0mg"},{"bike_id":"7383474c-b45a-4438-837c-99d7ae866fe7","system_id":"levelo_inurba_marseille","lat":43.260594,"lon":5.393917,"is_reserved":false,"is_disabled":false,"rental_uris":{"android":"levelo://app?vid=7383474c-b45a-4438-837c-99d7ae866fe7","ios":"levelo://app?vid=7383474c-b45a-4438-837c-99d7ae866fe7"},"vehicle_type_id":"4","last_reported":1737176864,"current_range_meters":38800,"station_id":"ce4bhh92rcd13ifvqfj0","pricing_plan_id":"cebpf4jnsgd1na2vs0mg"},{"bike_id":"4b62f61e-9a6c-4324-9eb8-ea40df5b2b54","system_id":"levelo_inurba_marseille","lat":43.2846,"lon":5.35888,"is_reserved":false,"is_disabled":false,"rental_uris":{"android":"levelo://app?vid=4b62f61e-9a6c-4324-9eb8-ea40df5b2b54","ios":"levelo://app?vid=4b62f61e-9a6c-4324-9eb8-ea40df5b2b54"},"vehicle_type_id":"4","last_reported":1737176864,"current_range_meters":39200,"station_id":"ce4bhah2rcd13ifvqei0","pricing_plan_id":"cebpf4jnsgd1na2vs0mg"},{"bike_id":"0352da0f-67b9-4f9c-95b6-4b5452c943f6","system_id":"levelo_inurba_marseille","lat":43.27911,"lon":5.38012,"is_reserved":false,"is_disabled":false,"rental_uris":{"android":"levelo://app?vid=0352da0f-67b9-4f9c-95b6-4b5452c943f6","ios":"levelo://app?vid=0352da0f-67b9-4f9c-95b6-4b5452c943f6"},"vehicle_type_id":"4","last_reported":1737176864,"current_range_meters":30400,"station_id":"ce4bhf92rcd13ifvqf50","pricing_plan_id":"cebpf4jnsgd1na2vs0mg"},{"bike_id":"47e8be31-eb92-45b3-a380-6a7fd785464e","system_id":"levelo_inurba_marseille","lat":43.24653,"lon":5.38898,"is_reserved":false,"is_disabled":false,"rental_uris":{"android":"levelo://app?vid=47e8be31-eb92-45b3-a380-6a7fd785464e","ios":"levelo://app?vid=47e8be31-eb92-45b3-a380-6a7fd785464e"},"vehicle_type_id":"4","last_reported":1737176864,"current_range_meters":37600,"station_id":"ce4bhg12rcd13ifvqf60","pricing_plan_id":"cebpf4jnsgd1na2vs0mg"},{"bike_id":"61b0c2f3-448f-49d3-8a4a-899110ba1116","system_id":"levelo_inurba_marseille","lat":43.32357,"lon":5.40634,"is_reserved":false,"is_disabled":false,"rental_uris":{"android":"levelo://app?vid=61b0c2f3-448f-49d3-8a4a-899110ba1116","ios":"levelo://app?vid=61b0c2f3-448f-49d3-8a4a-899110ba1116"},"vehicle_type_id":"4","last_reported":1737176864,"current_range_meters":34000,"station_id":"ce4bhq92rcd13ifvqhjg","pricing_plan_id":"cebpf4jnsgd1na2vs0mg"},{"bike_id":"35855600-b7a7-4a4d-b402-fa49f62670ff","system_id":"levelo_inurba_marseille","lat":43.31126,"lon":5.37751,"is_reserved":false,"is_disabled":false,"rental_uris":{"android":"levelo://app?vid=35855600-b7a7-4a4d-b402-fa49f62670ff","ios":"levelo://app?vid=35855600-b7a7-4a4d-b402-fa49f62670ff"},"vehicle_type_id":"4","last_reported":1737176864,"current_range_meters":38400,"station_id":"ce4bgt92rcd13ifvqcg0","pricing_plan_id":"cebpf4jnsgd1na2vs0mg"},{"bike_id":"0c06eeb6-c68d-4436-bc0a-579bb379ca0d","system_id":"levelo_inurba_marseille","lat":43.24714,"lon":5.37744,"is_reserved":false,"is_disabled":true,"rental_uris":{"android":"levelo://app?vid=0c06eeb6-c68d-4436-bc0a-579bb379ca0d","ios":"levelo://app?vid=0c06eeb6-c68d-4436-bc0a-579bb379ca0d"},"vehicle_type_id":"4","last_reported":1737176864,"current_range_meters":36800,"station_id":"","pricing_plan_id":"cebpf4jnsgd1na2vs0mg"},{"bike_id":"44bccd7b-e954-4fef-a58a-1bfa0b432213","system_id":"levelo_inurba_marseille","lat":43.28276,"lon":5.35085,"is_reserved":false,"is_disabled":false,"rental_uris":{"android":"levelo://app?vid=44bccd7b-e954-4fef-a58a-1bfa0b432213","ios":"levelo://app?vid=44bccd7b-e954-4fef-a58a-1bfa0b432213"},"vehicle_type_id":"4","last_reported":1737176864,"current_range_meters":38800,"station_id":"ce4bhbp2rcd13ifvqerg","pricing_plan_id":"cebpf4jnsgd1na2vs0mg"},{"bike_id":"230bef5b-3f3d-4ae2-901e-7cede6e0c8f2","system_id":"levelo_inurba_marseille","lat":43.307917,"lon":5.37659,"is_reserved":false,"is_disabled":false,"rental_uris":{"android":"levelo://app?vid=230bef5b-3f3d-4ae2-901e-7cede6e0c8f2","ios":"levelo://app?vid=230bef5b-3f3d-4ae2-901e-7cede6e0c8f2"},"vehicle_type_id":"4","last_reported":1737176864,"current_range_meters":20800,"station_id":"ce4bgv92rcd13ifvqcq0","pricing_plan_id":"cebpf4jnsgd1na2vs0mg"},{"bike_id":"ef74c085-e254-493f-8bad-ac87926b563d","system_id":"levelo_inurba_marseille","lat":43.2924,"lon":5.40915,"is_reserved":false,"is_disabled":false,"rental_uris":{"android":"levelo://app?vid=ef74c085-e254-493f-8bad-ac87926b563d","ios":"levelo://app?vid=ef74c085-e254-493f-8bad-ac87926b563d"},"vehicle_type_id":"4","last_reported":1737176864,"current_range_meters":39200,"station_id":"ce4bh192rcd13ifvqdc0","pricing_plan_id":"cebpf4jnsgd1na2vs0mg"},