{"last_updated":1753384293,"ttl":60,"version":"2.2","data":{"bikes":[{"bike_id":"9ae7d50c-a3ea-4136-8080-315c191e000a","system_id":"levelo_inurba_marseille","lat":43.28766,"lon":5.38403,"is_reserved":false,"is_disabled":false,"rental_uris":{"android":"levelo://app?vid=9ae7d50c-a3ea-4136-8080-315c191e000a","ios":"levelo://app?vid=9ae7d50c-a3ea-4136-8080-315c191e000a"},"vehicle_type_id":"4","last_reported":1753384293,"current_range_meters":2800,"station_id":"","pricing_plan_id":"cebpf4jnsgd1na2vs0mg"},{"bike_id":"12aa18e6-54b4-4f17-8d75-27573f932a0c","system_id":"levelo_inurba_marseille","lat":43.296823,"lon":5.372723,"is_reserved":false,"is_disabled":true,"rental_uris":{"android":"levelo://app?vid=12aa18e6-54b4-4f17-8d75-27573f932a0c","ios":"levelo://app?vid=12aa18e6-54b4-4f17-8d75-27573f932a0c"},"vehicle_type_id":"4","last_reported":1753384293,"current_range_meters":3200,"station_id":"ce4bgk12rcd13ifvqbj0","pricing_plan_id":"cebpf4jnsgd1na2vs0mg"},{"bike_id":"27d32bb7-cbb3-404d-9f39-2af0e82d8c5c","system_id":"levelo_inurba_marseille","lat":43.284149,"lon":5.349784,"is_reserved":false,"is_disabled":false,"rental_uris":{"android":"levelo://app?vid=27d32bb7-cbb3-404d-9f39-2af0e82d8c5c","ios":"levelo://app?vid=27d32bb7-cbb3-404d-9f39-2af0e82d8c5c"},"vehicle_type_id":"4","last_reported":1753384293,"current_range_meters":2800,"station_id":"ce4bhbh2rcd13ifvqepg","pricing_plan_id":"cebpf4jnsgd1na2vs0mg"},{"bike_id":"4023483f-3ba3-4c42-9344-97a39fb1ff87","system_id":"levelo_inurba_marseille","lat":43.22502,"lon":5.34778,"is_reserved":false,"is_disabled":false,"rental_uris":{"android":"levelo://app?vid=4023483f-3ba3-4c42-9344-97a39fb1ff87","ios":"levelo://app?vid=4023483f-3ba3-4c42-9344-97a39fb1ff87"},"vehicle_type_id":"4","last_reported":1753384293,"current_range_meters":3200,"station_id":"st_cvj5dfep6f1abm77gieg","pricing_plan_id":"cebpf4jnsgd1na2vs0mg"},{"bike_id":"70d5d5a1-3bc2-4f3c-872b-4a2e8b5fb6cc","system_id":"levelo_inurba_marseille","lat":43.28608,"lon":5.37062,"is_reserved":false,"is_disabled":false,"rental_uris":{"android":"levelo://app?vid=70d5d5a1-3bc2-4f3c-872b-4a2e8b5fb6cc","ios":"levelo://app?vid=70d5d5a1-3bc2-4f3c-872b-4a2e8b5fb6cc"},"vehicle_type_id":"4","last_reported":1753384293,"current_range_meters":3200,"station_id":"ce4bht12rcd13ifvqi60","pricing_plan_id":"cebpf4jnsgd1na2vs0mg"},{"bike_id":"034d462b-6e03-4c67-a5c3-584ac1009281","system_id":"levelo_inurba_marseille","lat":43.31892,"lon":5.40727,"is_reserved":false,"is_disabled":false,"rental_uris":{"android":"levelo://app?vid=034d462b-6e03-4c67-a5c3-584ac1009281","ios":"levelo://app?vid=034d462b-6e03-4c67-a5c3-584ac1009281"},"vehicle_type_id":"4","last_reported":1753384293,"current_range_meters":3200,"station_id":"ce4bhq12rcd13ifvqhig","pricing_plan_id":"cebpf4jnsgd1na2vs0mg"},{"bike_id":"c8cbe188-8c80-4aac-881d-65feb870e521","system_id":"levelo_inurba_marseille","lat":43.33024,"lon":5.38049,"is_reserved":false,"is_disabled":false,"rental_uris":{"android":"levelo://app?vid=c8cbe188-8c80-4aac-881d-65feb870e521","ios":"levelo://app?vid=c8cbe188-8c80-4aac-881d-65feb870e521"},"vehicle_type_id":"4","last_reported":1753384293,"current_range_meters":3200,"station_id":"","pricing_plan_id":"cebpf4jnsgd1na2vs0mg"},{"bike_id":"a61c3ffa-f010-453d-a8ff-d64e52ad67dc","system_id":"levelo_inurba_marseille","lat":43.28649,"lon":5.37737,"is_reserved":false,"is_disabled":false,"rental_uris":{"android":"levelo://app?vid=a61c3ffa-f010-453d-a8ff-d64e52ad67dc","ios":"levelo://app?vid=a61c3ffa-f010-453d-a8ff-d64e52ad67dc"},"vehicle_type_id":"4","last_reported":1753384293,"current_range_meters":3600,"station_id":"","pricing_plan_id":"cebpf4jnsgd1na2vs0mg"},{"bike_id":"c701780f-755d-4a8b-93f5-639bd48fca2e","system_id":"levelo_inurba_marseille","lat":43.27174,"lon":5.40993,"is_reserved":false,"is_disabled":false,"rental_uris":{"android":"levelo://app?vid=c701780f-755d-4a8b-93f5-639bd48fca2e","ios":"levelo://app?vid=c701780f-755d-4a8b-93f5-639bd48fca2e"},"vehicle_type_id":"4","last_reported":1753384293,"current_range_meters":3600,"station_id":"ce4bhl12rcd13ifvqgf0","pricing_plan_id":"cebpf4jnsgd1na2vs0mg"},{"bike_id":"68dff73d-836e-438e-bec0-36be300c01b3","system_id":"levelo_inurba_marseille","lat":43.282721,"lon":5.350583,"is_reserved":false,"is_disabled":false,"rental_uris":{"android":"levelo://app?vid=68dff73d-836e-438e-bec0-36be300c01b3","ios":"levelo://app?vid=68dff73d-836e-438e-bec0-36be300c01b3"},"vehicle_type_id":"4","last_reported":1753384293,"current_range_meters":4000,"station_id":"ce4bhbp2rcd13ifvqerg","pricing_plan_id":"cebpf4jnsgd1na2vs0mg"},{"bike_id":"09a8bc6a-ab3a-4c9e-b873-b672b12f169e","system_id":"levelo_inurba_marseille","lat":43.29791,"lon":5.37081,"is_reserved":false,"is_disabled":true,"rental_uris":{"android":"levelo://app?vid=09a8bc6a-ab3a-4c9e-b873-b672b12f169e","ios":"levelo://app?vid=09a8bc6a-ab3a-4c9e-b873-b672b12f169e"},"vehicle_type_id":"4","last_reported":1753384293,"current_range_meters":4000,"station_id":"ce4bgop2rcd13ifvqc1g","pricing_plan_id":"cebpf4jnsgd1na2vs0mg"},{"bike_id":"8034fb1e-f43a-4c54-9089-1288cff16e07","system_id":"levelo_inurba_marseille","lat":43.29308,"lon":5.37172,"is_reserved":false,"is_disabled":false,"rental_uris":{"android":"levelo://app?vid=8034fb1e-f43a-4c54-9089-1288cff16e07","ios":"levelo://app?vid=8034fb1e-f43a-4c54-9089-1288cff16e07"},"vehicle_type_id":"4","last_reported":1753384293,"current_range_meters":4000,"station_id":"ce4bgh92rcd13ifvqb40","pricing_plan_id":"cebpf4jnsgd1na2vs0mg"},{"bike_id":"afff4dc4-bd71-4f2a-b61a-a901255c0b2f","system_id":"levelo_inurba_marseille","lat":43.29257,"lon":5.38436,"is_reserved":false,"is_disabled":false,"rental_uris":{"android":"levelo://app?vid=afff4dc4-bd71-4f2a-b61a-a901255c0b2f","ios":"levelo://app?vid=afff4dc4-bd71-4f2a-b61a-a901255c0b2f"},"vehicle_type_id":"4","last_reported":1753384293,"current_range_meters":4000,"station_id":"ce4bh692rcd13ifvqea0","pricing_plan_id":"cebpf4jnsgd1na2vs0mg"},{"bike_id":"0db4f7f9-07de-4a11-90e0-30774f276549","system_id":"levelo_inurba_marseille","lat":43.29618,"lon":5.37152,"is_reserved":false,"is_disabled":false,"rental_uris":{"android":"levelo://app?vid=0db4f7f9-07de-4a11-90e0-30774f276549","ios":"levelo://app?vid=0db4f7f9-07de-4a11-90e0-30774f276549"},"vehicle_type_id":"4","last_reported":1753384293,"current_range_meters":4400,"station_id":"ce4bgnh2rcd13ifvqc0g","pricing_plan_id":"cebpf4jnsgd1na2vs0mg"},{"bike_id":"483180d4-8699-4f73-80e9-e631137a856d","system_id":"levelo_inurba_marseille","lat":43.22931,"lon":5.35376,"is_reserved":false,"is_disabled":false,"rental_uris":{"android":"levelo://app?vid=483180d4-8699-4f73-80e9-e631137a856d","ios":"levelo://app?vid=483180d4-8699-4f73-80e9-e631137a856d"},"vehicle_type_id":"4","last_reported":1753384293,"current_range_meters":4400,"station_id":"cpo3532slgdg3j2ikp40","pricing_plan_id":"cebpf4jnsgd1na2vs0mg"},{"bike_id":"daa2983d-51fa-425f-8540-e5d2f4ce301d","system_id":"levelo_inurba_marseille","lat":43.28597,"lon":5.37053,"is_reserved":false,"is_disabled":false,"rental_uris":{"android":"levelo://app?vid=daa2983d-51fa-425f-8540-e5d2f4ce301d","ios":"levelo://app?vid=daa2983d-51fa-425f-8540-e5d2f4ce301d"},"vehicle_type_id":"4","last_reported":1753384293,"current_range_meters":4400,"station_id":"ce4bht12rcd13ifvqi60","pricing_plan_id":"cebpf4jnsgd1na2vs0mg"},{"bike_id":"8a82d5f6-16d9-4f74-8e28-8158d7dc937a","system_id":"levelo_inurba_marseille","lat":43.30319,"lon":5.40441,"is_reserved":false,"is_disabled":false,"rental_uris":{"android":"levelo://app?vid=8a82d5f6-16d9-4f74-8e28-8158d7dc937a","ios":"levelo://app?vid=8a82d5f6-16d9-4f74-8e28-8158d7dc937a"},"vehicle_type_id":"4","last_reported":1753384293,"current_range_meters":4400,"station_id":"ce4bh012rcd13ifvqd10","pricing_plan_id":"cebpf4jnsgd1na2vs0mg"},{"bike_id":"7a8f92fc-2f00-4c9f-aa80-ab087511f14c","system_id":"levelo_inurba_marseille","lat":43.29254,"lon":5.38444,"is_reserved":false,"is_disabled":false,"rental_uris":{"android":"levelo://app?vid=7a8f92fc-2f00-4c9f-aa80-ab087511f14c","ios":"levelo://app?vid=7a8f92fc-2f00-4c9f-aa80-ab087511f14c"},"vehicle_type_id":"4","last_reported":1753384293,"current_range_meters":4400,"station_id":"ce4bh692rcd13ifvqea0","pricing_plan_id":"cebpf4jnsgd1na2vs0mg"},{"bike_id":"a40fcf4f-5b77-43b0-9399-6e367684ca6a","system_id":"levelo_inurba_marseille","lat":43.28159,"lon":5.426483,"is_reserved":false,"is_disabled":false,"rental_uris":{"android":"levelo://app?vid=a40fcf4f-5b77-43b0-9399-6e367684ca6a","ios":"levelo://app?vid=a40fcf4f-5b77-43b0-9399-6e367684ca6a"},"vehicle_type_id":"4","last_reported":1753384293,"current_range_meters":4800,"station_id":"ce4bhnh2rcd13ifvqgug","pricing_plan_id":"cebpf4jnsgd1na2vs0mg"},{"bike_id":"28229b56-823c-4c62-bd34-c10bf14f50ec","system_id":"levelo_inurba_marseille","lat":43.28728,"lon":5.36082,"is_reserved":false,"is_disabled":false,"rental_uris":{"android":"levelo://app?vid=28229b56-823c-4c62-bd34-c10bf14f50ec","ios":"levelo://app?vid=28229b56-823c-4c62-bd34-c10bf14f50ec"},"vehicle_type_id":"4","last_reported":1753384293,"current_range_meters":4800,"station_id":"cki0cbj6b192h4jlfktg","pricing_plan_id":"cebpf4jnsgd1na2vs0mg"},{"bike_id":"c9dbd36b-479c-4a5c-b200-3aa7673340d9","system_id":"levelo_inurba_marseille","lat":43.241448,"lon":5.363743,"is_reserved":false,"is_disabled":false,"rental_uris":{"android":"levelo://app?vid=c9dbd36b-479c-4a5c-b200-3aa7673340d9","ios":"levelo://app?vid=c9dbd36b-479c-4a5c-b200-3aa7673340d9"},"vehicle_type_id":"4","last_reported":1753384293,"current_range_meters":4800,"station_id":"","pricing_plan_id":"cebpf4jnsgd1na2vs0mg"},{"bike_id":"8d52b39a-52fd-40b0-8027-7984e918164f","system_id":"levelo_inurba_marseille","lat":43.30537,"lon":5.36555,"is_reserved":false,"is_disabled":false,"rental_uris":{"android":"levelo://app?vid=8d52b39a-52fd-40b0-8027-7984e918164f","ios":"levelo://app?vid=8d52b39a-52fd-40b0-8027-7984e918164f"},"vehicle_type_id":"4","last_reported":1753384293,"current_range_meters":5600,"station_id":"ce4bgs12rcd13ifvqcag","pricing_plan_id":"cebpf4jnsgd1na2vs0mg"},{"bike_id":"feacb564-f858-4aa0-8523-7cc16e25331f","system_id":"levelo_inurba_marseille","lat":43.27918,"lon":5.41206,"is_reserved":false,"is_disabled":false,"rental_uris":{"android":"levelo://app?vid=feacb564-f858-4aa0-8523-7cc16e25331f","ios":"levelo://app?vid=feacb564-f858-4aa0-8523-7cc16e25331f"},"vehicle_type_id":"4","last_reported":1753384293,"current_range_meters":6000,"station_id":"","pricing_plan_id":"cebpf4jnsgd1na2vs0mg"},{"bike_id":"e95674d2-0194-4c04-a1cd-b641d06478f5","system_id":"levelo_inurba_marseille","lat":43.27181,"lon":5.40986,"is_reserved":false,"is_disabled":false,"rental_uris":{"android":"levelo://app?vid=e95674d2-0194-4c04-a1cd-b641d06478f5","ios":"levelo://app?vid=e95674d2-0194-4c04-a1cd-b641d06478f5"},"vehicle_type_id":"4","last_reported":1753384293,"current_range_meters":6000,"station_id":"ce4bhl12rcd13ifvqgf0","pricing_plan_id":"cebpf4jnsgd1na2vs0mg"},{"bike_id":"51435d99-03b8-48b5-9696-b48740339612","system_id":"levelo_inurba_marseille","lat":43.320429,"lon":5.415576,"is_reserved":false,"is_disabled":false,"rental_uris":{"android":"levelo://app?vid=51435d99-03b8-48b5-9696-b48740339612","ios":"levelo://app?vid=51435d99-03b8-48b5-9696-b48740339612"},"vehicle_type_id":"4","last_reported":1753384293,"current_range_meters":5600,"station_id":"ce4bhq92rcd13ifvqhkg","pricing_plan_id":"cebpf4jnsgd1na2vs0mg"},{"bike_id":"055fd4b7-09b9-4dea-a348-674b1d2b4392","system_id":"levelo_inurba_marseille","lat":43.30596,"lon":5.39335,"is_reserved":false,"is_disabled":false,"rental_uris":{"android":"levelo://app?vid=055fd4b7-09b9-4dea-a348-674b1d2b4392","ios":"levelo://app?vid=055fd4b7-09b9-4dea-a348-674b1d2b4392"},"vehicle_type_id":"4","last_reported":1753384293,"current_range_meters":6400,"station_id":"ce4bh0p2rcd13ifvqd80","pricing_plan_id":"cebpf4jnsgd1na2vs0mg"},{"bike_id":"1cbae63a-8cc1-4638-8c65-7a60f104e322","system_id":"levelo_inurba_marseille","lat":43.29706,"lon":5.36606,"is_reserved":false,"is_disabled":false,"rental_uris":{"android":"levelo://app?vid=1cbae63a-8cc1-4638-8c65-7a60f104e322","ios":"levelo://app?vid=1cbae63a-8cc1-4638-8c65-7a60f104e322"},"vehicle_type_id":"4","last_reported":1753384293,"current_range_meters":6400,"station_id":"ce4bgn12rcd13ifvqbt0","pricing_plan_id":"cebpf4jnsgd1na2vs0mg"},{"bike_id":"83808487-2b8f-460f-bbd3-de81df814a72","system_id":"levelo_inurba_marseille","lat":43.29616,"lon":5.37156,"is_reserved":false,"is_disabled":false,"rental_uris":{"android":"levelo://app?vid=83808487-2b8f-460f-bbd3-de81df814a72","ios":"levelo://app?vid=83808487-2b8f-460f-bbd3-de81df814a72"},"vehicle_type_id":"4","last_reported":1753384293,"current_range_meters":6400,"station_id":"ce4bgnh2rcd13ifvqc0g","pricing_plan_id":"cebpf4jnsgd1na2vs0mg"},{"bike_id":"59a15ad2-15d7-4154-b27a-a8773758dd23","system_id":"levelo_inurba_marseille","lat":43.298182,"lon":5.370916,"is_reserved":false,"is_disabled":true,"rental_uris":{"android":"levelo://app?vid=59a15ad2-15d7-4154-b27a-a8773758dd23","ios":"levelo://app?vid=59a15ad2-15d7-4154-b27a-a8773758dd23"},"vehicle_type_id":"4","last_reported":1753384293,"current_range_meters":6800,"station_id":"","pricing_plan_id":"cebpf4jnsgd1na2vs0mg"},{"bike_id":"77959ec5-4447-45ed-941e-7a9077aadb9a","system_id":"levelo_inurba_marseille","lat":43.29615,"lon":5.37727,"is_reserved":false,"is_disabled":false,"rental_uris":{"android":"levelo://app?vid=77959ec5-4447-45ed-941e-7a9077aadb9a","ios":"levelo://app?vid=77959ec5-4447-45ed-941e-7a9077aadb9a"},"vehicle_type_id":"4","last_reported":1753384293,"current_range_meters":6800,"station_id":"ce4bgi92rcd13ifvqb90","pricing_plan_id":"cebpf4jnsgd1na2vs0mg"},{"bike_id":"5ce78090-f84f-4b0d-87f6-bcee23da5c03","system_id":"levelo_inurba_marseille","lat":43.287141,"lon":5.360693,"is_reserved":false,"is_disabled":false,"rental_uris":{"android":"levelo://app?vid=5ce78090-f84f-4b0d-87f6-bcee23da5c03","ios":"levelo://app?vid=5ce78090-f84f-4b0d-87f6-bcee23da5c03"},"vehicle_type_id":"4","last_reported":1753384293,"current_range_meters":6800,"station_id":"cki0cbj6b192h4jlfktg","pricing_plan_id":"cebpf4jnsgd1na2vs0mg"},{"bike_id":"a9c8f085-dc97-450d-8bf0-3d5cd62633f6","system_id":"levelo_inurba_marseille","lat":43.29711,"lon":5.36615,"is_reserved":false,"is_disabled":false,"rental_uris":{"android":"levelo://app?vid=a9c8f085-dc97-450d-8bf0-3d5cd62633f6","ios":"levelo://app?vid=a9c8f085-dc97-450d-8bf0-3d5cd62633f6"},"vehicle_type_id":"4","last_reported":1753384293,"current_range_meters":6800,"station_id":"ce4bgn12rcd13ifvqbt0","pricing_plan_id":"cebpf4jnsgd1na2vs0mg"},{"bike_id":"96f4bb18-7ca6-48be-9980-7fa9fb04a42d","system_id":"levelo_inurba_marseille","lat":43.304286,"lon":5.397393,"is_reserved":false,"is_disabled":false,"rental_uris":{"android":"levelo://app?vid=96f4bb18-7ca6-48be-9980-7fa9fb04a42d","ios":"levelo://app?vid=96f4bb18-7ca6-48be-9980-7fa9fb04a42d"},"vehicle_type_id":"4","last_reported":1753384293,"current_range_meters":6800,"station_id":"ce4bh092rcd13ifvqd20","pricing_plan_id":"cebpf4jnsgd1na2vs0mg"},{"bike_id":"8f0d6465-6c93-4a9d-9b72-b1314c1586f7","system_id":"levelo_inurba_marseille","lat":43.30785,"lon":5.37639,"is_reserved":false,"is_disabled":false,"rental_uris":{"android":"levelo://app?vid=8f0d6465-6c93-4a9d-9b72-b1314c1586f7","ios":"levelo://app?vid=8f0d6465-6c93-4a9d-9b72-b1314c1586f7"},"vehicle_type_id":"4","last_reported":1753384293,"current_range_meters":11200,"station_id":"ce4bgv92rcd13ifvqcq0","pricing_plan_id":"cebpf4jnsgd1na2vs0mg"},{"bike_id":"e2adfc69-2d66-409f-9a5e-47a76f3512af","system_id":"levelo_inurba_marseille","lat":43.26782,"lon":5.39419,"is_reserved":false,"is_disabled":false,"rental_uris":{"android":"levelo://app?vid=e2adfc69-2d66-409f-9a5e-47a76f3512af","ios":"levelo://app?vid=e2adfc69-2d66-409f-9a5e-47a76f3512af"},"vehicle_type_id":"4","last_reported":1753384293,"current_range_meters":5600,"station_id":"ce4bhh12rcd13ifvqfg0","pricing_plan_id":"cebpf4jnsgd1na2vs0mg"},{"bike_id":"e355fcb0-c359-48e7-94a5-35a9e7a88bb4","system_id":"levelo_inurba_marseille","lat":43.30132,"lon":5.39898,"is_reserved":false,"is_disabled":false,"rental_uris":{"android":"levelo://app?vid=e355fcb0-c359-48e7-94a5-35a9e7a88bb4","ios":"levelo://app?vid=e355fcb0-c359-48e7-94a5-35a9e7a88bb4"},"vehicle_type_id":"4","last_reported":1753384293,"current_range_meters":7200,"station_id":"ce4bh0h2rcd13ifvqd40","pricing_plan_id":"cebpf4jnsgd1na2vs0mg"},{"bike_id":"3f61ff66-7fe7-46cd-bf7f-28466c5c227a","system_id":"levelo_inurba_marseille","lat":43.28665,"lon":5.386555,"is_reserved":false,"is_disabled":false,"rental_uris":{"android":"levelo://app?vid=3f61ff66-7fe7-46cd-bf7f-28466c5c227a","ios":"levelo://app?vid=3f61ff66-7fe7-46cd-bf7f-28466c5c227a"},"vehicle_type_id":"4","last_reported":1753384293,"current_range_meters":7200,"station_id":"ce4bh492rcd13ifvqdug","pricing_plan_id":"cebpf4jnsgd1na2vs0mg"},{"bike_id":"8d4c0420-d0a3-4380-bcc1-62c045f8d4b9","system_id":"levelo_inurba_marseille","lat":43.26568,"lon":5.389983,"is_reserved":false,"is_disabled":true,"rental_uris":{"android":"levelo://app?vid=8d4c0420-d0a3-4380-bcc1-62c045f8d4b9","ios":"levelo://app?vid=8d4c0420-d0a3-4380-bcc1-62c045f8d4b9"},"vehicle_type_id":"4","last_reported":1753384293,"current_range_meters":7200,"station_id":"ce4bhe12rcd13ifvqf30","pricing_plan_id":"cebpf4jnsgd1na2vs0mg"},{"bike_id":"c0f4bc1d-859c-4371-ada4-3e8258f11578","system_id":"levelo_inurba_marseille","lat":43.25106,"lon":5.40324,"is_reserved":false,"is_disabled":false,"rental_uris":{"android":"levelo://app?vid=c0f4bc1d-859c-4371-ada4-3e8258f11578","ios":"levelo://app?vid=c0f4bc1d-859c-4371-ada4-3e8258f11578"},"vehicle_type_id":"4","last_reported":1753384293,"current_range_meters":8000,"station_id":"ce4bhlh2rcd13ifvqgig","pricing_plan_id":"cebpf4jnsgd1na2vs0mg"},{"bike_id":"55314a22-0098-4641-9809-da3f74d786f5","system_id":"levelo_inurba_marseille","lat":43.29491,"lon":5.38709,"is_reserved":false,"is_disabled":false,"rental_uris":{"android":"levelo://app?vid=55314a22-0098-4641-9809-da3f74d786f5","ios":"levelo://app?vid=55314a22-0098-4641-9809-da3f74d786f5"},"vehicle_type_id":"4","last_reported":1753384293,"current_range_meters":8400,"station_id":"","pricing_plan_id":"cebpf4jnsgd1na2vs0mg"},{"bike_id":"6b171128-a7d4-440d-a987-45fad1964d81","system_id":"levelo_inurba_marseille","lat":43.292659,"lon":5.384409,"is_reserved":false,"is_disabled":false,"rental_uris":{"android":"levelo://app?vid=6b171128-a7d4-440d-a987-45fad1964d81","ios":"levelo://app?vid=6b171128-a7d4-440d-a987-45fad1964d81"},"vehicle_type_id":"4","last_reported":1753384293,"current_range_meters":8000,"station_id":"","pricing_plan_id":"cebpf4jnsgd1na2vs0mg"},{"bike_id":"da053e6a-15f2-492e-8bc1-42b1d66cc329","system_id":"levelo_inurba_marseille","lat":43.28382,"lon":5.43229,"is_reserved":false,"is_disabled":false,"rental_uris":{"android":"levelo://app?vid=da053e6a-15f2-492e-8bc1-42b1d66cc329","ios":"levelo://app?vid=da053e6a-15f2-492e-8bc1-42b1d66cc329"},"vehicle_type_id":"4","last_reported":1753384293,"current_range_meters":8000,"station_id":"","pricing_plan_id":"cebpf4jnsgd1na2vs0mg"},{"bike_id":"5f6f2248-71eb-4b74-b9b5-c8e06d42f995","system_id":"levelo_inurba_marseille","lat":43.28668,"lon":5.38657,"is_reserved":false,"is_disabled":false,"rental_uris":{"android":"levelo://app?vid=5f6f2248-71eb-4b74-b9b5-c8e06d42f995","ios":"levelo://app?vid=5f6f2248-71eb-4b74-b9b5-c8e06d42f995"},"vehicle_type_id":"4","last_reported":1753384293,"current_range_meters":8000,"station_id":"ce4bh492rcd13ifvqdug","pricing_plan_id":"cebpf4jnsgd1na2vs0mg"},{"bike_id":"ac512c90-3d3c-441b-a8a7-8bf5aa5740fb","system_id":"levelo_inurba_marseille","lat":43.29529,"lon":5.3852,"is_reserved":false,"is_disabled":false,"rental_uris":{"android":"levelo://app?vid=ac512c90-3d3c-441b-a8a7-8bf5aa5740fb","ios":"levelo://app?vid=ac512c90-3d3c-441b-a8a7-8bf5aa5740fb"},"vehicle_type_id":"4","last_reported":1753384293,"current_range_meters":8000,"station_id":"ce4bgih2rcd13ifvqba0","pricing_plan_id":"cebpf4jnsgd1na2vs0mg"},{"bike_id":"e0f4556b-1525-4eff-ac19-a1270436371d","system_id":"levelo_inurba_marseille","lat":43.278,"lon":5.39803,"is_reserved":false,"is_disabled":false,"rental_uris":{"android":"levelo://app?vid=e0f4556b-1525-4eff-ac19-a1270436371d","ios":"levelo://app?vid=e0f4556b-1525-4eff-ac19-a1270436371d"},"vehicle_type_id":"4","last_reported":1753384293,"current_range_meters":8400,"station_id":"","pricing_plan_id":"cebpf4jnsgd1na2vs0mg"},{"bike_id":"e1382436-ba43-468f-8f0a-4d0b8a4dc1e9","system_id":"levelo_inurba_marseille","lat":43.296142,"lon":5.377232,"is_reserved":false,"is_disabled":false,"rental_uris":{"android":"levelo://app?vid=e1382436-ba43-468f-8f0a-4d0b8a4dc1e9","ios":"levelo://app?vid=e1382436-ba43-468f-8f0a-4d0b8a4dc1e9"},"vehicle_type_id":"4","last_reported":1753384293,"current_range_meters":8400,"station_id":"ce4bgi92rcd13ifvqb90","pricing_plan_id":"cebpf4jnsgd1na2vs0mg"},{"bike_id":"1ee27ea9-2c77-4328-88d5-5830c63ea21b","system_id":"levelo_inurba_marseille","lat":43.27051,"lon":5.40271,"is_reserved":false,"is_disabled":false,"rental_uris":{"android":"levelo://app?vid=1ee27ea9-2c77-4328-88d5-5830c63ea21b","ios":"levelo://app?vid=1ee27ea9-2c77-4328-88d5-5830c63ea21b"},"vehicle_type_id":"4","last_reported":1753384293,"current_range_meters":8400,"station_id":"ce4bhk92rcd13ifvqgc0","pricing_plan_id":"cebpf4jnsgd1na2vs0mg"},{"bike_id":"7b7524ae-8ecd-499f-93b7-a6de3bab91d4","system_id":"levelo_inurba_marseille","lat":43.298941,"lon":5.436565,"is_reserved":false,"is_disabled":false,"rental_uris":{"android":"levelo://app?vid=7b7524ae-8ecd-499f-93b7-a6de3bab91d4","ios":"levelo://app?vid=7b7524ae-8ecd-499f-93b7-a6de3bab91d4"},"vehicle_type_id":"4","last_reported":1753384293,"current_range_meters":8400,"station_id":"ce4bhpp2rcd13ifvqhfg","pricing_plan_id":"cebpf4jnsgd1na2vs0mg"},{"bike_id":"d7873221-c0bd-47bd-8776-f520eecbbf3d","system_id":"levelo_inurba_marseille","lat":43.29263,"lon":5.38446,"is_reserved":false,"is_disabled":false,"rental_uris":{"android":"levelo://app?vid=d7873221-c0bd-47bd-8776-f520eecbbf3d","ios":"levelo://app?vid=d7873221-c0bd-47bd-8776-f520eecbbf3d"},"vehicle_type_id":"4","last_reported":1753384293,"current_range_meters":8400,"station_id":"ce4bh692rcd13ifvqea0","pricing_plan_id":"cebpf4jnsgd1na2vs0mg"},{"bike_id":"eeb18ad9-73f2-4ef0-aa75-27568a78d545","system_id":"levelo_inurba_marseille","lat":43.311755,"lon":5.387135,"is_reserved":false,"is_disabled":false,"rental_uris":{"android":"levelo://app?vid=eeb18ad9-73f2-4ef0-aa75-27568a78d545","ios":"levelo://app?vid=eeb18ad9-73f2-4ef0-aa75-27568a78d545"},"vehicle_type_id":"4","last_reported":1753384293,"current_range_meters":8400,"station_id":"ce4bgv12rcd13ifvqcp0","pricing_plan_id":"cebpf4jnsgd1na2vs0mg"},{"bike_id":"ce0ffc32-a366-4e8b-b135-ca54d0fd6cbb","system_id":"levelo_inurba_marseille","lat":43.26184,"lon":5.37456,"is_reserved":false,"is_disabled":true,"rental_uris":{"android":"levelo://app?vid=ce0ffc32-a366-4e8b-b135-ca54d0fd6cbb","ios":"levelo://app?vid=ce0ffc32-a366-4e8b-b135-ca54d0fd6cbb"},"vehicle_type_id":"4","last_reported":1753384293,"current_range_meters":8800,"station_id":"ce4bhgp2rcd13ifvqfc0","pricing_plan_id":"cebpf4jnsgd1na2vs0mg"},{"bike_id":"11f892f3-f076-488f-b874-1a1f1f99de59","system_id":"levelo_inurba_marseille","lat":43.29526,"lon":5.38547,"is_reserved":false,"is_disabled":false,"rental_uris":{"android":"levelo://app?vid=11f892f3-f076-488f-b874-1a1f1f99de59","ios":"levelo://app?vid=11f892f3-f076-488f-b874-1a1f1f99de59"},"vehicle_type_id":"4","last_reported":1753384293,"current_range_meters":8800,"station_id":"ce4bgih2rcd13ifvqba0","pricing_plan_id":"cebpf4jnsgd1na2vs0mg"},{"bike_id":"87d9cc9e-fb09-41d9-ab2e-0f924589aaeb","system_id":"levelo_inurba_marseille","lat":43.3124,"lon":5.36878,"is_reserved":false,"is_disabled":true,"rental_uris":{"android":"levelo://app?vid=87d9cc9e-fb09-41d9-ab2e-0f924589aaeb","ios":"levelo://app?vid=87d9cc9e-fb09-41d9-ab2e-0f924589aaeb"},"vehicle_type_id":"4","last_reported":1753384293,"current_range_meters":8800,"station_id":"ce4bgl92rcd13ifvqbq0","pricing_plan_id":"cebpf4jnsgd1na2vs0mg"},{"bike_id":"24e46cd1-8d02-4c88-8a9c-e64ea0f04016","system_id":"levelo_inurba_marseille","lat":43.2695,"lon":5.38634,"is_reserved":false,"is_disabled":false,"rental_uris":{"android":"levelo://app?vid=24e46cd1-8d02-4c88-8a9c-e64ea0f04016","ios":"levelo://app?vid=24e46cd1-8d02-4c88-8a9c-e64ea0f04016"},"vehicle_type_id":"4","last_reported":1753384293,"current_range_meters":8800,"station_id":"ce4bhh92rcd13ifvqfh0","pricing_plan_id":"cebpf4jnsgd1na2vs0mg"},{"bike_id":"39156e71-4562-4a50-9545-0953cce2fef7","system_id":"levelo_inurba_marseille","lat":43.29851,"lon":5.36282,"is_reserved":false,"is_disabled":false,"rental_uris":{"android":"levelo://app?vid=39156e71-4562-4a50-9545-0953cce2fef7","ios":"levelo://app?vid=39156e71-4562-4a50-9545-0953cce2fef7"},"vehicle_type_id":"4","last_reported":1753384293,"current_range_meters":8800,"station_id":"ce4bgpp2rcd13ifvqc3g","pricing_plan_id":"cebpf4jnsgd1na2vs0mg"},{"bike_id":"fb9750f2-c887-4965-a008-0d58a938a146","system_id":"levelo_inurba_marseille","lat":43.31724,"lon":5.42388,"is_reserved":false,"is_disabled":false,"rental_uris":{"android":"levelo://app?vid=fb9750f2-c887-4965-a008-0d58a938a146","ios":"levelo://app?vid=fb9750f2-c887-4965-a008-0d58a938a146"},"vehicle_type_id":"4","last_reported":1753384293,"current_range_meters":8800,"station_id":"ce4bhp92rcd13ifvqhbg","pricing_plan_id":"cebpf4jnsgd1na2vs0mg"},{"bike_id":"953467ef-df90-4273-bcf6-edba54162057","system_id":"levelo_inurba_marseille","lat":43.29066,"lon":5.37158,"is_reserved":false,"is_disabled":true,"rental_uris":{"android":"levelo://app?vid=953467ef-df90-4273-bcf6-edba54162057","ios":"levelo://app?vid=953467ef-df90-4273-bcf6-edba54162057"},"vehicle_type_id":"4","last_reported":1753384293,"current_range_meters":8800,"station_id":"ce4bh5p2rcd13ifvqe4g","pricing_plan_id":"cebpf4jnsgd1na2vs0mg"},{"bike_id":"b982e5a3-88f5-4403-a53a-38d90073ed80","system_id":"levelo_inurba_marseille","lat":43.29444,"lon":5.43244,"is_reserved":false,"is_disabled":false,"rental_uris":{"android":"levelo://app?vid=b982e5a3-88f5-4403-a53a-38d90073ed80","ios":"levelo://app?vid=b982e5a3-88f5-4403-a53a-38d90073ed80"},"vehicle_type_id":"4","last_reported":1753384293,"current_range_meters":8800,"station_id":"","pricing_plan_id":"cebpf4jnsgd1na2vs0mg"},{"bike_id":"8fc40684-9b2f-4471-90f0-d80318962260","system_id":"levelo_inurba_marseille","lat":43.28557,"lon":5.37766,"is_reserved":false,"is_disabled":false,"rental_uris":{"android":"levelo://app?vid=8fc40684-9b2f-4471-90f0-d80318962260","ios":"levelo://app?vid=8fc40684-9b2f-4471-90f0-d80318962260"},"vehicle_type_id":"4","last_reported":1753384293,"current_range_meters":8800,"station_id":"","pricing_plan_id":"cebpf4jnsgd1na2vs0mg"},{"bike_id":"405ec4c7-091f-4263-bd96-47e13aa5d141","system_id":"levelo_inurba_marseille","lat":43.29308,"lon":5.37166,"is_reserved":false,"is_disabled":false,"rental_uris":{"android":"levelo://app?vid=405ec4c7-091f-4263-bd96-47e13aa5d141","ios":"levelo://app?vid=405ec4c7-091f-4263-bd96-47e13aa5d141"},"vehicle_type_id":"4","last_reported":1753384293,"current_range_meters":9200,"station_id":"ce4bgh92rcd13ifvqb40","pricing_plan_id":"cebpf4jnsgd1na2vs0mg"},{"bike_id":"0358604e-c8ee-41b2-9ec9-0f3488c8b4ee","system_id":"levelo_inurba_marseille","lat":43.25089,"lon":5.39518,"is_reserved":false,"is_disabled":false,"rental_uris":{"android":"levelo://app?vid=0358604e-c8ee-41b2-9ec9-0f3488c8b4ee","ios":"levelo://app?vid=0358604e-c8ee-41b2-9ec9-0f3488c8b4ee"},"vehicle_type_id":"4","last_reported":1753384293,"current_range_meters":9200,"station_id":"ce4bhm12rcd13ifvqgkg","pricing_plan_id":"cebpf4jnsgd1na2vs0mg"},{"bike_id":"511cba7a-1908-456a-8d33-005fb634328f","system_id":"levelo_inurba_marseille","lat":43.29255,"lon":5.38446,"is_reserved":false,"is_disabled":false,"rental_uris":{"android":"levelo://app?vid=511cba7a-1908-456a-8d33-005fb634328f","ios":"levelo://app?vid=511cba7a-1908-456a-8d33-005fb634328f"},"vehicle_type_id":"4","last_reported":1753384293,"current_range_meters":9200,"station_id":"ce4bh692rcd13ifvqea0","pricing_plan_id":"cebpf4jnsgd1na2vs0mg"},{"bike_id":"bc20f4ef-32ad-4973-9273-af14279017f4","system_id":"levelo_inurba_marseille","lat":43.32959,"lon":5.36774,"is_reserved":false,"is_disabled":false,"rental_uris":{"android":"levelo://app?vid=bc20f4ef-32ad-4973-9273-af14279017f4","ios":"levelo://app?vid=bc20f4ef-32ad-4973-9273-af14279017f4"},"vehicle_type_id":"4","last_reported":1753384293,"current_range_meters":9200,"station_id":"","pricing_plan_id":"cebpf4jnsgd1na2vs0mg"},{"bike_id":"f3217e35-0bb5-43ab-beb0-dd5e233a7114","system_id":"levelo_inurba_marseille","lat":43.25578,"lon":5.382244,"is_reserved":false,"is_disabled":true,"rental_uris":{"android":"levelo://app?vid=f3217e35-0bb5-43ab-beb0-dd5e233a7114","ios":"levelo://app?vid=f3217e35-0bb5-43ab-beb0-dd5e233a7114"},"vehicle_type_id":"4","last_reported":1753384293,"current_range_meters":9200,"station_id":"ce4bhih2rcd13ifvqfs0","pricing_plan_id":"cebpf4jnsgd1na2vs0mg"},{"bike_id":"23676bb6-ebf4-4de2-a907-47cd4c593fa5","system_id":"levelo_inurba_marseille","lat":43.29532,"lon":5.38542,"is_reserved":false,"is_disabled":false,"rental_uris":{"android":"levelo://app?vid=23676bb6-ebf4-4de2-a907-47cd4c593fa5","ios":"levelo://app?vid=23676bb6-ebf4-4de2-a907-47cd4c593fa5"},"vehicle_type_id":"4","last_reported":1753384293,"current_range_meters":9200,"station_id":"ce4bgih2rcd13ifvqba0","pricing_plan_id":"cebpf4jnsgd1na2vs0mg"},{"bike_id":"eed94e3f-1e35-4e4a-a06e-bdfe5dc9a28e","system_id":"levelo_inurba_marseille","lat":43.30798,"lon":5.38155,"is_reserved":false,"is_disabled":false,"rental_uris":{"android":"levelo://app?vid=eed94e3f-1e35-4e4a-a06e-bdfe5dc9a28e","ios":"levelo://app?vid=eed94e3f-1e35-4e4a-a06e-bdfe5dc9a28e"},"vehicle_type_id":"4","last_reported":1753384293,"current_range_meters":9200,"station_id":"ce4bgt12rcd13ifvqce0","pricing_plan_id":"cebpf4jnsgd1na2vs0mg"},{"bike_id":"cb373e39-db45-46ca-9592-6d7a51dbc260","system_id":"levelo_inurba_marseille","lat":43.28158,"lon":5.42632,"is_reserved":false,"is_disabled":false,"rental_uris":{"android":"levelo://app?vid=cb373e39-db45-46ca-9592-6d7a51dbc260","ios":"levelo://app?vid=cb373e39-db45-46ca-9592-6d7a51dbc260"},"vehicle_type_id":"4","last_reported":1753384293,"current_range_meters":9200,"station_id":"ce4bhnh2rcd13ifvqgug","pricing_plan_id":"cebpf4jnsgd1na2vs0mg"},{"bike_id":"bbcc6aec-9fcd-4ac5-8894-11c585b97ce0","system_id":"levelo_inurba_marseille","lat":43.301491,"lon":5.374142,"is_reserved":false,"is_disabled":false,"rental_uris":{"android":"levelo://app?vid=bbcc6aec-9fcd-4ac5-8894-11c585b97ce0","ios":"levelo://app?vid=bbcc6aec-9fcd-4ac5-8894-11c585b97ce0"},"vehicle_type_id":"4","last_reported":1753384293,"current_range_meters":9600,"station_id":"ce4bgs92rcd13ifvqcc0","pricing_plan_id":"cebpf4jnsgd1na2vs0mg"},{"bike_id":"2936456c-77f6-4f82-a181-4bc2dd541746","system_id":"levelo_inurba_marseille","lat":43.29198,"lon":5.35807,"is_reserved":false,"is_disabled":true,"rental_uris":{"android":"levelo://app?vid=2936456c-77f6-4f82-a181-4bc2dd541746","ios":"levelo://app?vid=2936456c-77f6-4f82-a181-4bc2dd541746"},"vehicle_type_id":"4","last_reported":1753384293,"current_range_meters":9600,"station_id":"ce4bhb12rcd13ifvqel0","pricing_plan_id":"cebpf4jnsgd1na2vs0mg"},{"bike_id":"7af2f0f8-99a1-45bf-bb00-366862ccacb8","system_id":"levelo_inurba_marseille","lat":43.29272,"lon":5.38435,"is_reserved":false,"is_disabled":false,"rental_uris":{"android":"levelo://app?vid=7af2f0f8-99a1-45bf-bb00-366862ccacb8","ios":"levelo://app?vid=7af2f0f8-99a1-45bf-bb00-366862ccacb8"},"vehicle_type_id":"4","last_reported":1753384293,"current_range_meters":9600,"station_id":"ce4bh692rcd13ifvqea0","pricing_plan_id":"cebpf4jnsgd1na2vs0mg"},{"bike_id":"16d185a6-21cd-4f57-a54c-773d3ff4d037","system_id":"levelo_inurba_marseille","lat":43.29526,"lon":5.38556,"is_reserved":false,"is_disabled":false,"rental_uris":{"android":"levelo://app?vid=16d185a6-21cd-4f57-a54c-773d3ff4d037","ios":"levelo://app?vid=16d185a6-21cd-4f57-a54c-773d3ff4d037"},"vehicle_type_id":"4","last_reported":1753384293,"current_range_meters":9600,"station_id":"ce4bgih2rcd13ifvqba0","pricing_plan_id":"cebpf4jnsgd1na2vs0mg"},{"bike_id":"bbc2b271-396f-4875-9f1d-0fcc163d87b6","system_id":"levelo_inurba_marseille","lat":43.29082,"lon":5.39855,"is_reserved":false,"is_disabled":false,"rental_uris":{"android":"levelo://app?vid=bbc2b271-396f-4875-9f1d-0fcc163d87b6","ios":"levelo://app?vid=bbc2b271-396f-4875-9f1d-0fcc163d87b6"},"vehicle_type_id":"4","last_reported":1753384293,"current_range_meters":9600,"station_id":"","pricing_plan_id":"cebpf4jnsgd1na2vs0mg"},{"bike_id":"7250624a-63df-4e44-9e5a-1056e5f8a90f","system_id":"levelo_inurba_marseille","lat":43.29138,"lon":5.40796,"is_reserved":false,"is_disabled":false,"rental_uris":{"android":"levelo://app?vid=7250624a-63df-4e44-9e5a-1056e5f8a90f","ios":"levelo://app?vid=7250624a-63df-4e44-9e5a-1056e5f8a90f"},"vehicle_type_id":"4","last_reported":1753384293,"current_range_meters":9600,"station_id":"","pricing_plan_id":"cebpf4jnsgd1na2vs0mg"},{"bike_id":"b5ce8d93-17c0-45a5-b2b1-eefce45c2d79","system_id":"levelo_inurba_marseille","lat":43.29294,"lon":5.44571,"is_reserved":false,"is_disabled":false,"rental_uris":{"android":"levelo://app?vid=b5ce8d93-17c0-45a5-b2b1-eefce45c2d79","ios":"levelo://app?vid=b5ce8d93-17c0-45a5-b2b1-eefce45c2d79"},"vehicle_type_id":"4","last_reported":1753384293,"current_range_meters":9600,"station_id":"","pricing_plan_id":"cebpf4jnsgd1na2vs0mg"},{"bike_id":"7daede50-8864-41b3-b244-1131fa1103dd","system_id":"levelo_inurba_marseille","lat":43.296206,"lon":5.373622,"is_reserved":false,"is_disabled":false,"rental_uris":{"android":"levelo://app?vid=7daede50-8864-41b3-b244-1131fa1103dd","ios":"levelo://app?vid=7daede50-8864-41b3-b244-1131fa1103dd"},"vehicle_type_id":"4","last_reported":1753384293,"current_range_meters":9600,"station_id":"ce4bgi92rcd13ifvqb90","pricing_plan_id":"cebpf4jnsgd1na2vs0mg"},{"bike_id":"06667231-9491-402b-a9ce-661f9818def9","system_id":"levelo_inurba_marseille","lat":43.23219,"lon":5.35438,"is_reserved":false,"is_disabled":true,"rental_uris":{"android":"levelo://app?vid=06667231-9491-402b-a9ce-661f9818def9","ios":"levelo://app?vid=06667231-9491-402b-a9ce-661f9818def9"},"vehicle_type_id":"4","last_reported":1753384293,"current_range_meters":9600,"station_id":"","pricing_plan_id":"cebpf4jnsgd1na2vs0mg"},{"bike_id":"21cbd3bf-f8af-49d9-9a81-f5428e4fcff0","system_id":"levelo_inurba_marseille","lat":43.2954,"lon":5.38521,"is_reserved":false,"is_disabled":false,"rental_uris":{"android":"levelo://app?vid=21cbd3bf-f8af-49d9-9a81-f5428e4fcff0","ios":"levelo://app?vid=21cbd3bf-f8af-49d9-9a81-f5428e4fcff0"},"vehicle_type_id":"4","last_reported":1753384293,"current_range_meters":9600,"station_id":"ce4bgih2rcd13ifvqba0","pricing_plan_id":"cebpf4jnsgd1na2vs0mg"},{"bike_id":"98d81ccc-d5a8-49fb-be26-1aa0d7cea6bd","system_id":"levelo_inurba_marseille","lat":43.28621,"lon":5.35084,"is_reserved":false,"is_disabled":false,"rental_uris":{"android":"levelo://app?vid=98d81ccc-d5a8-49fb-be26-1aa0d7cea6bd","ios":"levelo://app?vid=98d81ccc-d5a8-49fb-be26-1aa0d7cea6bd"},"vehicle_type_id":"4","last_reported":1753384293,"current_range_meters":9600,"station_id":"ce4bhch2rcd13ifvqeug","pricing_plan_id":"cebpf4jnsgd1na2vs0mg"},{"bike_id":"f9392d6c-b35e-40bc-b1a7-ee8e2382d230","system_id":"levelo_inurba_marseille","lat":43.30555,"lon":5.36684,"is_reserved":false,"is_disabled":true,"rental_uris":{"android":"levelo://app?vid=f9392d6c-b35e-40bc-b1a7-ee8e2382d230","ios":"levelo://app?vid=f9392d6c-b35e-40bc-b1a7-ee8e2382d230"},"vehicle_type_id":"4","last_reported":1753384293,"current_range_meters":9600,"station_id":"ce4bgrp2rcd13ifvqc9g","pricing_plan_id":"cebpf4jnsgd1na2vs0mg"},{"bike_id":"584eeb59-2f98-4790-bf2f-ee49bd5a7915","system_id":"levelo_inurba_marseille","lat":43.29599,"lon":5.38101,"is_reserved":false,"is_disabled":false,"rental_uris":{"android":"levelo://app?vid=584eeb59-2f98-4790-bf2f-ee49bd5a7915","ios":"levelo://app?vid=584eeb59-2f98-4790-bf2f-ee49bd5a7915"},"vehicle_type_id":"4","last_reported":1753384293,"current_range_meters":10000,"station_id":"ce4bgl12rcd13ifvqbo0","pricing_plan_id":"cebpf4jnsgd1na2vs0mg"},{"bike_id":"7c82c748-0042-4b81-9fce-702da5956e00","system_id":"levelo_inurba_marseille","lat":43.28568,"lon":5.39487,"is_reserved":false,"is_disabled":false,"rental_uris":{"android":"levelo://app?vid=7c82c748-0042-4b81-9fce-702da5956e00","ios":"levelo://app?vid=7c82c748-0042-4b81-9fce-702da5956e00"},"vehicle_type_id":"4","last_reported":1753384293,"current_range_meters":10000,"station_id":"ce4bh292rcd13ifvqdg0","pricing_plan_id":"cebpf4jnsgd1na2vs0mg"},{"bike_id":"300a4756-01bd-4e0c-90d5-87daadcf6e14","system_id":"levelo_inurba_marseille","lat":43.290972,"lon":5.359105,"is_reserved":false,"is_disabled":true,"rental_uris":{"android":"levelo://app?vid=300a4756-01bd-4e0c-90d5-87daadcf6e14","ios":"levelo://app?vid=300a4756-01bd-4e0c-90d5-87daadcf6e14"},"vehicle_type_id":"4","last_reported":1753384293,"current_range_meters":10000,"station_id":"","pricing_plan_id":"cebpf4jnsgd1na2vs0mg"},{"bike_id":"46251932-fb41-490d-8e45-03a49d280329","system_id":"levelo_inurba_marseille","lat":43.305313,"lon":5.391635,"is_reserved":false,"is_disabled":false,"rental_uris":{"android":"levelo://app?vid=46251932-fb41-490d-8e45-03a49d280329","ios":"levelo://app?vid=46251932-fb41-490d-8e45-03a49d280329"},"vehicle_type_id":"4","last_reported":1753384293,"current_range_meters":10000,"station_id":"ce4bgv12rcd13ifvqcp0","pricing_plan_id":"cebpf4jnsgd1na2vs0mg"},{"bike_id":"fbff8f0e-d0d6-4715-8692-f47546d626b9","system_id":"levelo_inurba_marseille","lat":43.288545,"lon":5.358527,"is_reserved":false,"is_disabled":false,"rental_uris":{"android":"levelo://app?vid=fbff8f0e-d0d6-4715-8692-f47546d626b9","ios":"levelo://app?vid=fbff8f0e-d0d6-4715-8692-f47546d626b9"},"vehicle_type_id":"4","last_reported":1753384293,"current_range_meters":10000,"station_id":"","pricing_plan_id":"cebpf4jnsgd1na2vs0mg"},{"bike_id":"bf774168-5756-4aef-b5b4-cea176b083fc","system_id":"levelo_inurba_marseille","lat":43.29707,"lon":5.36617,"is_reserved":false,"is_disabled":false,"rental_uris":{"android":"levelo://app?vid=bf774168-5756-4aef-b5b4-cea176b083fc","ios":"levelo://app?vid=bf774168-5756-4aef-b5b4-cea176b083fc"},"vehicle_type_id":"4","last_reported":1753384293,"current_range_meters":10000,"station_id":"ce4bgn12rcd13ifvqbt0","pricing_plan_id":"cebpf4jnsgd1na2vs0mg"},{"bike_id":"276a2451-1daf-4f46-abea-55fc341b9e1e","system_id":"levelo_inurba_marseille","lat":43.31076,"lon":5.42448,"is_reserved":false,"is_disabled":false,"rental_uris":{"android":"levelo://app?vid=276a2451-1daf-4f46-abea-55fc341b9e1e","ios":"levelo://app?vid=276a2451-1daf-4f46-abea-55fc341b9e1e"},"vehicle_type_id":"4","last_reported":1753384293,"current_range_meters":10000,"station_id":"ce4bhp92rcd13ifvqhag","pricing_plan_id":"cebpf4jnsgd1na2vs0mg"},{"bike_id":"27dc3ac3-6dca-4d4b-a164-0479bbc3b62f","system_id":"levelo_inurba_marseille","lat":43.303056,"lon":5.368643,"is_reserved":false,"is_disabled":false,"rental_uris":{"android":"levelo://app?vid=27dc3ac3-6dca-4d4b-a164-0479bbc3b62f","ios":"levelo://app?vid=27dc3ac3-6dca-4d4b-a164-0479bbc3b62f"},"vehicle_type_id":"4","last_reported":1753384293,"current_range_meters":10800,"station_id":"ce4bgqh2rcd13ifvqc5g","pricing_plan_id":"cebpf4jnsgd1na2vs0mg"},{"bike_id":"20b3ac39-d220-4d0b-8848-1b7f328b0525","system_id":"levelo_inurba_marseille","lat":43.26226,"lon":5.40445,"is_reserved":false,"is_disabled":true,"rental_uris":{"android":"levelo://app?vid=20b3ac39-d220-4d0b-8848-1b7f328b0525","ios":"levelo://app?vid=20b3ac39-d220-4d0b-8848-1b7f328b0525"},"vehicle_type_id":"4","last_reported":1753384293,"current_range_meters":10800,"station_id":"ce4bhmh2rcd13ifvqgmg","pricing_plan_id":"cebpf4jnsgd1na2vs0mg"},{"bike_id":"ae131367-d818-44a0-9e1d-4aa65dcdb16a","system_id":"levelo_inurba_marseille","lat":43.27519,"lon":5.39635,"is_reserved":false,"is_disabled":false,"rental_uris":{"android":"levelo://app?vid=ae131367-d818-44a0-9e1d-4aa65dcdb16a","ios":"levelo://app?vid=ae131367-d818-44a0-9e1d-4aa65dcdb16a"},"vehicle_type_id":"4","last_reported":1753384293,"current_range_meters":10800,"station_id":"","pricing_plan_id":"cebpf4jnsgd1na2vs0mg"},{"bike_id":"6024e304-d050-4a0f-9956-1495f33b125a","system_id":"levelo_inurba_marseille","lat":43.29935,"lon":5.36555,"is_reserved":false,"is_disabled":false,"rental_uris":{"android":"levelo://app?vid=6024e304-d050-4a0f-9956-1495f33b125a","ios":"levelo://app?vid=6024e304-d050-4a0f-9956-1495f33b125a"},"vehicle_type_id":"4","last_reported":1753384293,"current_range_meters":10800,"station_id":"ce4bgm92rcd13ifvqbr0","pricing_plan_id":"cebpf4jnsgd1na2vs0mg"},{"bike_id":"3cd09fc8-9554-4236-8496-0931a7be09d1","system_id":"levelo_inurba_marseille","lat":43.21207,"lon":5.35047,"is_reserved":false,"is_disabled":false,"rental_uris":{"android":"levelo://app?vid=3cd09fc8-9554-4236-8496-0931a7be09d1","ios":"levelo://app?vid=3cd09fc8-9554-4236-8496-0931a7be09d1"},"vehicle_type_id":"4","last_reported":1753384293,"current_range_meters":10800,"station_id":"st_cvj6sg6p6f1abm77japg","pricing_plan_id":"cebpf4jnsgd1na2vs0mg"},{"bike_id":"e76dae55-25f5-4544-a450-7488ccc6deb5","system_id":"levelo_inurba_marseille","lat":43.29256,"lon":5.36845,"is_reserved":false,"is_disabled":false,"rental_uris":{"android":"levelo://app?vid=e76dae55-25f5-4544-a450-7488ccc6deb5","ios":"levelo://app?vid=e76dae55-25f5-4544-a450-7488ccc6deb5"},"vehicle_type_id":"4","last_reported":1753384293,"current_range_meters":10800,"station_id":"ce4bhbp2rcd13ifvqesg","pricing_plan_id":"cebpf4jnsgd1na2vs0mg"},{"bike_id":"a4b946b9-d774-4aa8-a674-ad0eb8d743ec","system_id":"levelo_inurba_marseille","lat":43.29063,"lon":5.37174,"is_reserved":false,"is_disabled":false,"rental_uris":{"android":"levelo://app?vid=a4b946b9-d774-4aa8-a674-ad0eb8d743ec","ios":"levelo://app?vid=a4b946b9-d774-4aa8-a674-ad0eb8d743ec"},"vehicle_type_id":"4","last_reported":1753384293,"current_range_meters":10800,"station_id":"ce4bh5p2rcd13ifvqe4g","pricing_plan_id":"cebpf4jnsgd1na2vs0mg"},{"bike_id":"2ae83899-90fd-4b59-b691-4169c75aef1a","system_id":"levelo_inurba_marseille","lat":43.33764,"lon":5.37427,"is_reserved":false,"is_disabled":false,"rental_uris":{"android":"levelo://app?vid=2ae83899-90fd-4b59-b691-4169c75aef1a","ios":"levelo://app?vid=2ae83899-90fd-4b59-b691-4169c75aef1a"},"vehicle_type_id":"4","last_reported":1753384293,"current_range_meters":10800,"station_id":"","pricing_plan_id":"cebpf4jnsgd1na2vs0mg"},{"bike_id":"dee4195d-144e-48a1-b1b2-c9add9058ef2","system_id":"levelo_inurba_marseille","lat":43.296166,"lon":5.371695,"is_reserved":false,"is_disabled":false,"rental_uris":{"android":"levelo://app?vid=dee4195d-144e-48a1-b1b2-c9add9058ef2","ios":"levelo://app?vid=dee4195d-144e-48a1-b1b2-c9add9058ef2"},"vehicle_type_id":"4","last_reported":1753384293,"current_range_meters":11200,"station_id":"ce4bgnh2rcd13ifvqc0g","pricing_plan_id":"cebpf4jnsgd1na2vs0mg"},{"bike_id":"5ac85406-65d0-4336-aa89-4b04b2e6689e","system_id":"levelo_inurba_marseille","lat":43.33262,"lon":5.41987,"is_reserved":false,"is_disabled":false,"rental_uris":{"android":"levelo://app?vid=5ac85406-65d0-4336-aa89-4b04b2e6689e","ios":"levelo://app?vid=5ac85406-65d0-4336-aa89-4b04b2e6689e"},"vehicle_type_id":"4","last_reported":1753384293,"current_range_meters":11200,"station_id":"","pricing_plan_id":"cebpf4jnsgd1na2vs0mg"},{"bike_id":"c056311f-78c9-4e18-8685-91c659ddb125","system_id":"levelo_inurba_marseille","lat":43.31613,"lon":5.38971,"is_reserved":false,"is_disabled":false,"rental_uris":{"android":"levelo://app?vid=c056311f-78c9-4e18-8685-91c659ddb125","ios":"levelo://app?vid=c056311f-78c9-4e18-8685-91c659ddb125"},"vehicle_type_id":"4","last_reported":1753384293,"current_range_meters":11200,"station_id":"","pricing_plan_id":"cebpf4jnsgd1na2vs0mg"},{"bike_id":"b89d6267-55af-48a1-8887-3f0adc5ff195","system_id":"levelo_inurba_marseille","lat":43.301319,"lon":5.39874,"is_reserved":false,"is_disabled":false,"rental_uris":{"android":"levelo://app?vid=b89d6267-55af-48a1-8887-3f0adc5ff195","ios":"levelo://app?vid=b89d6267-55af-48a1-8887-3f0adc5ff195"},"vehicle_type_id":"4","last_reported":1753384293,"current_range_meters":11200,"station_id":"","pricing_plan_id":"cebpf4jnsgd1na2vs0mg"},{"bike_id":"90baef95-d8f8-4784-893d-8a0418fdd837","system_id":"levelo_inurba_marseille","lat":43.29552,"lon":5.38517,"is_reserved":false,"is_disabled":false,"rental_uris":{"android":"levelo://app?vid=90baef95-d8f8-4784-893d-8a0418fdd837","ios":"levelo://app?vid=90baef95-d8f8-4784-893d-8a0418fdd837"},"vehicle_type_id":"4","last_reported":1753384293,"current_range_meters":11200,"station_id":"ce4bgih2rcd13ifvqba0","pricing_plan_id":"cebpf4jnsgd1na2vs0mg"},{"bike_id":"2006d6ab-c619-4a15-b9f3-97c1160843f0","system_id":"levelo_inurba_marseille","lat":43.28155,"lon":5.36097,"is_reserved":false,"is_disabled":false,"rental_uris":{"android":"levelo://app?vid=2006d6ab-c619-4a15-b9f3-97c1160843f0","ios":"levelo://app?vid=2006d6ab-c619-4a15-b9f3-97c1160843f0"},"vehicle_type_id":"4","last_reported":1753384293,"current_range_meters":11200,"station_id":"","pricing_plan_id":"cebpf4jnsgd1na2vs0mg"},{"bike_id":"6496ea72-fdde-4f3f-bc6d-a59a5737c7cc","system_id":"levelo_inurba_marseille","lat":43.29749,"lon":5.37066,"is_reserved":false,"is_disabled":false,"rental_uris":{"android":"levelo://app?vid=6496ea72-fdde-4f3f-bc6d-a59a5737c7cc","ios":"levelo://app?vid=6496ea72-fdde-4f3f-bc6d-a59a5737c7cc"},"vehicle_type_id":"4","last_reported":1753384293,"current_range_meters":11200,"station_id":"ce4bgop2rcd13ifvqc1g","pricing_plan_id":"cebpf4jnsgd1na2vs0mg"},{"bike_id":"75921511-23bf-408f-9470-1062209789d6","system_id":"levelo_inurba_marseille","lat":43.25571,"lon":5.38213,"is_reserved":false,"is_disabled":false,"rental_uris":{"android":"levelo://app?vid=75921511-23bf-408f-9470-1062209789d6","ios":"levelo://app?vid=75921511-23bf-408f-9470-1062209789d6"},"vehicle_type_id":"4","last_reported":1753384293,"current_range_meters":11600,"station_id":"ce4bhih2rcd13ifvqfs0","pricing_plan_id":"cebpf4jnsgd1na2vs0mg"},{"bike_id":"c0f2e8f9-eb82-4ce0-9741-2df6b7bb6b45","system_id":"levelo_inurba_marseille","lat":43.25079,"lon":5.39515,"is_reserved":false,"is_disabled":false,"rental_uris":{"android":"levelo://app?vid=c0f2e8f9-eb82-4ce0-9741-2df6b7bb6b45","ios":"levelo://app?vid=c0f2e8f9-eb82-4ce0-9741-2df6b7bb6b45"},"vehicle_type_id":"4","last_reported":1753384293,"current_range_meters":11600,"station_id":"ce4bhm12rcd13ifvqgkg","pricing_plan_id":"cebpf4jnsgd1na2vs0mg"},{"bike_id":"0836f668-bebb-41e9-a6dd-df53647bdc7f","system_id":"levelo_inurba_marseille","lat":43.25584,"lon":5.38245,"is_reserved":false,"is_disabled":false,"rental_uris":{"android":"levelo://app?vid=0836f668-bebb-41e9-a6dd-df53647bdc7f","ios":"levelo://app?vid=0836f668-bebb-41e9-a6dd-df53647bdc7f"},"vehicle_type_id":"4","last_reported":1753384293,"current_range_meters":11600,"station_id":"ce4bhih2rcd13ifvqfs0","pricing_plan_id":"cebpf4jnsgd1na2vs0mg"},{"bike_id":"198254d0-596e-4ad4-af7c-00986c49448c","system_id":"levelo_inurba_marseille","lat":43.24401,"lon":5.37046,"is_reserved":false,"is_disabled":false,"rental_uris":{"android":"levelo://app?vid=198254d0-596e-4ad4-af7c-00986c49448c","ios":"levelo://app?vid=198254d0-596e-4ad4-af7c-00986c49448c"},"vehicle_type_id":"4","last_reported":1753384293,"current_range_meters":11200,"station_id":"ce4bhhh2rcd13ifvqfk0","pricing_plan_id":"cebpf4jnsgd1na2vs0mg"},{"bike_id":"6a95c831-81fc-4eff-8256-834e950cede6","system_id":"levelo_inurba_marseille","lat":43.26559,"lon":5.3729,"is_reserved":false,"is_disabled":false,"rental_uris":{"android":"levelo://app?vid=6a95c831-81fc-4eff-8256-834e950cede6","ios":"levelo://app?vid=6a95c831-81fc-4eff-8256-834e950cede6"},"vehicle_type_id":"4","last_reported":1753384293,"current_range_meters":11600,"station_id":"","pricing_plan_id":"cebpf4jnsgd1na2vs0mg"},{"bike_id":"61669521-2c65-4931-bc2c-4bdfe86f873c","system_id":"levelo_inurba_marseille","lat":43.21759,"lon":5.34587,"is_reserved":false,"is_disabled":false,"rental_uris":{"android":"levelo://app?vid=61669521-2c65-4931-bc2c-4bdfe86f873c","ios":"levelo://app?vid=61669521-2c65-4931-bc2c-4bdfe86f873c"},"vehicle_type_id":"4","last_reported":1753384293,"current_range_meters":11600,"station_id":"","pricing_plan_id":"cebpf4jnsgd1na2vs0mg"},{"bike_id":"88d5e54c-9e78-4a4b-8e2b-ec40e9a8c3ae","system_id":"levelo_inurba_marseille","lat":43.25095,"lon":5.40338,"is_reserved":false,"is_disabled":false,"rental_uris":{"android":"levelo://app?vid=88d5e54c-9e78-4a4b-8e2b-ec40e9a8c3ae","ios":"levelo://app?vid=88d5e54c-9e78-4a4b-8e2b-ec40e9a8c3ae"},"vehicle_type_id":"4","last_reported":1753384293,"current_range_meters":12000,"station_id":"ce4bhlh2rcd13ifvqgig","pricing_plan_id":"cebpf4jnsgd1na2vs0mg"},{"bike_id":"9dc1b928-5d14-4a0b-83ef-8aed4f90511d","system_id":"levelo_inurba_marseille","lat":43.29842,"lon":5.36267,"is_reserved":false,"is_disabled":false,"rental_uris":{"android":"levelo://app?vid=9dc1b928-5d14-4a0b-83ef-8aed4f90511d","ios":"levelo://app?vid=9dc1b928-5d14-4a0b-83ef-8aed4f90511d"},"vehicle_type_id":"4","last_reported":1753384293,"current_range_meters":12000,"station_id":"ce4bgpp2rcd13ifvqc3g","pricing_plan_id":"cebpf4jnsgd1na2vs0mg"},{"bike_id":"3ac9e330-1df6-4fa0-8e3b-17f5d696b48c","system_id":"levelo_inurba_marseille","lat":43.27376,"lon":5.36242,"is_reserved":false,"is_disabled":false,"rental_uris":{"android":"levelo://app?vid=3ac9e330-1df6-4fa0-8e3b-17f5d696b48c","ios":"levelo://app?vid=3ac9e330-1df6-4fa0-8e3b-17f5d696b48c"},"vehicle_type_id":"4","last_reported":1753384293,"current_range_meters":12000,"station_id":"ce4bhbh2rcd13ifvqeo0","pricing_plan_id":"cebpf4jnsgd1na2vs0mg"},{"bike_id":"75b8b406-8b87-4489-8c37-cd23672562bf","system_id":"levelo_inurba_marseille","lat":43.29554,"lon":5.42289,"is_reserved":false,"is_disabled":false,"rental_uris":{"android":"levelo://app?vid=75b8b406-8b87-4489-8c37-cd23672562bf","ios":"levelo://app?vid=75b8b406-8b87-4489-8c37-cd23672562bf"},"vehicle_type_id":"4","last_reported":1753384293,"current_range_meters":11600,"station_id":"ce4bhph2rcd13ifvqhdg","pricing_plan_id":"cebpf4jnsgd1na2vs0mg"},{"bike_id":"b57f5444-81ff-4a62-9ea3-1b3feaeafb55","system_id":"levelo_inurba_marseille","lat":43.28347,"lon":5.38104,"is_reserved":false,"is_disabled":true,"rental_uris":{"android":"levelo://app?vid=b57f5444-81ff-4a62-9ea3-1b3feaeafb55","ios":"levelo://app?vid=b57f5444-81ff-4a62-9ea3-1b3feaeafb55"},"vehicle_type_id":"4","last_reported":1753384293,"current_range_meters":12000,"station_id":"ce4bh412rcd13ifvqdr0","pricing_plan_id":"cebpf4jnsgd1na2vs0mg"},{"bike_id":"dead0002-8c83-4a50-b038-9734e3b1808b","system_id":"levelo_inurba_marseille","lat":43.23193,"lon":5.35547,"is_reserved":false,"is_disabled":false,"rental_uris":{"android":"levelo://app?vid=dead0002-8c83-4a50-b038-9734e3b1808b","ios":"levelo://app?vid=dead0002-8c83-4a50-b038-9734e3b1808b"},"vehicle_type_id":"4","last_reported":1753384293,"current_range_meters":12000,"station_id":"ce4bhu92rcd13ifvqi70","pricing_plan_id":"cebpf4jnsgd1na2vs0mg"},{"bike_id":"6bb1f31c-9335-4f39-9585-31374a4775f9","system_id":"levelo_inurba_marseille","lat":43.325583,"lon":5.379059,"is_reserved":false,"is_disabled":false,"rental_uris":{"android":"levelo://app?vid=6bb1f31c-9335-4f39-9585-31374a4775f9","ios":"levelo://app?vid=6bb1f31c-9335-4f39-9585-31374a4775f9"},"vehicle_type_id":"4","last_reported":1753384293,"current_range_meters":12000,"station_id":"","pricing_plan_id":"cebpf4jnsgd1na2vs0mg"},{"bike_id":"18b86593-4f21-41ed-81b3-f3a5b378dc91","system_id":"levelo_inurba_marseille","lat":43.31217,"lon":5.38067,"is_reserved":false,"is_disabled":false,"rental_uris":{"android":"levelo://app?vid=18b86593-4f21-41ed-81b3-f3a5b378dc91","ios":"levelo://app?vid=18b86593-4f21-41ed-81b3-f3a5b378dc91"},"vehicle_type_id":"4","last_reported":1753384293,"current_range_meters":12000,"station_id":"","pricing_plan_id":"cebpf4jnsgd1na2vs0mg"},{"bike_id":"413eb561-98cb-45dd-9c1c-d6fead88532f","system_id":"levelo_inurba_marseille","lat":43.29299,"lon":5.37471,"is_reserved":false,"is_disabled":false,"rental_uris":{"android":"levelo://app?vid=413eb561-98cb-45dd-9c1c-d6fead88532f","ios":"levelo://app?vid=413eb561-98cb-45dd-9c1c-d6fead88532f"},"vehicle_type_id":"4","last_reported":1753384293,"current_range_meters":12000,"station_id":"ce4bgi12rcd13ifvqb70","pricing_plan_id":"cebpf4jnsgd1na2vs0mg"},{"bike_id":"1ad257b5-7f83-42c1-867f-92635ff1abbf","system_id":"levelo_inurba_marseille","lat":43.22931,"lon":5.35384,"is_reserved":false,"is_disabled":false,"rental_uris":{"android":"levelo://app?vid=1ad257b5-7f83-42c1-867f-92635ff1abbf","ios":"levelo://app?vid=1ad257b5-7f83-42c1-867f-92635ff1abbf"},"vehicle_type_id":"4","last_reported":1753384293,"current_range_meters":12000,"station_id":"cpo3532slgdg3j2ikp40","pricing_plan_id":"cebpf4jnsgd1na2vs0mg"},{"bike_id":"5227bb01-4761-42d0-9193-840f0b89b287","system_id":"levelo_inurba_marseille","lat":43.30796,"lon":5.38167,"is_reserved":false,"is_disabled":false,"rental_uris":{"android":"levelo://app?vid=5227bb01-4761-42d0-9193-840f0b89b287","ios":"levelo://app?vid=5227bb01-4761-42d0-9193-840f0b89b287"},"vehicle_type_id":"4","last_reported":1753384293,"current_range_meters":12000,"station_id":"ce4bgt12rcd13ifvqce0","pricing_plan_id":"cebpf4jnsgd1na2vs0mg"},{"bike_id":"7bb4ae9d-7aef-43e4-86f2-1d28530a480b","system_id":"levelo_inurba_marseille","lat":43.31685,"lon":5.40472,"is_reserved":false,"is_disabled":false,"rental_uris":{"android":"levelo://app?vid=7bb4ae9d-7aef-43e4-86f2-1d28530a480b","ios":"levelo://app?vid=7bb4ae9d-7aef-43e4-86f2-1d28530a480b"},"vehicle_type_id":"4","last_reported":1753384293,"current_range_meters":12400,"station_id":"ce4bh012rcd13ifvqd00","pricing_plan_id":"cebpf4jnsgd1na2vs0mg"},{"bike_id":"939aed78-fbd4-40a3-bf23-4b0c73f437c9","system_id":"levelo_inurba_marseille","lat":43.289398,"lon":5.364042,"is_reserved":false,"is_disabled":false,"rental_uris":{"android":"levelo://app?vid=939aed78-fbd4-40a3-bf23-4b0c73f437c9","ios":"levelo://app?vid=939aed78-fbd4-40a3-bf23-4b0c73f437c9"},"vehicle_type_id":"4","last_reported":1753384293,"current_range_meters":12400,"station_id":"ce4bhc92rcd13ifvqetg","pricing_plan_id":"cebpf4jnsgd1na2vs0mg"},{"bike_id":"f42bdab2-ae6b-415c-9053-9b7eb318b65a","system_id":"levelo_inurba_marseille","lat":43.29373,"lon":5.37848,"is_reserved":false,"is_disabled":false,"rental_uris":{"android":"levelo://app?vid=f42bdab2-ae6b-415c-9053-9b7eb318b65a","ios":"levelo://app?vid=f42bdab2-ae6b-415c-9053-9b7eb318b65a"},"vehicle_type_id":"4","last_reported":1753384293,"current_range_meters":12400,"station_id":"ce4bgjh2rcd13ifvqbf0","pricing_plan_id":"cebpf4jnsgd1na2vs0mg"},{"bike_id":"91f77987-46bc-4c22-9cc3-2e2abe630c23","system_id":"levelo_inurba_marseille","lat":43.282684,"lon":5.350454,"is_reserved":false,"is_disabled":false,"rental_uris":{"android":"levelo://app?vid=91f77987-46bc-4c22-9cc3-2e2abe630c23","ios":"levelo://app?vid=91f77987-46bc-4c22-9cc3-2e2abe630c23"},"vehicle_type_id":"4","last_reported":1753384293,"current_range_meters":12400,"station_id":"ce4bhbp2rcd13ifvqerg","pricing_plan_id":"cebpf4jnsgd1na2vs0mg"},{"bike_id":"959c968c-1c72-43d7-8981-f0484be1c298","system_id":"levelo_inurba_marseille","lat":43.27071,"lon":5.42241,"is_reserved":false,"is_disabled":false,"rental_uris":{"android":"levelo://app?vid=959c968c-1c72-43d7-8981-f0484be1c298","ios":"levelo://app?vid=959c968c-1c72-43d7-8981-f0484be1c298"},"vehicle_type_id":"4","last_reported":1753384293,"current_range_meters":12400,"station_id":"ce4bhk92rcd13ifvqgb0","pricing_plan_id":"cebpf4jnsgd1na2vs0mg"},{"bike_id":"9d0cc42a-c4c4-40ca-92b4-4e8e40e649d4","system_id":"levelo_inurba_marseille","lat":43.29259,"lon":5.38439,"is_reserved":false,"is_disabled":false,"rental_uris":{"android":"levelo://app?vid=9d0cc42a-c4c4-40ca-92b4-4e8e40e649d4","ios":"levelo://app?vid=9d0cc42a-c4c4-40ca-92b4-4e8e40e649d4"},"vehicle_type_id":"4","last_reported":1753384293,"current_range_meters":12400,"station_id":"ce4bh692rcd13ifvqea0","pricing_plan_id":"cebpf4jnsgd1na2vs0mg"},{"bike_id":"c551fb4d-5da3-4d02-8400-0b61c6371b48","system_id":"levelo_inurba_marseille","lat":43.29255,"lon":5.38445,"is_reserved":false,"is_disabled":false,"rental_uris":{"android":"levelo://app?vid=c551fb4d-5da3-4d02-8400-0b61c6371b48","ios":"levelo://app?vid=c551fb4d-5da3-4d02-8400-0b61c6371b48"},"vehicle_type_id":"4","last_reported":1753384293,"current_range_meters":12400,"station_id":"ce4bh692rcd13ifvqea0","pricing_plan_id":"cebpf4jnsgd1na2vs0mg"},{"bike_id":"15764e5c-9dbf-4127-b7d5-4ec1473657e5","system_id":"levelo_inurba_marseille","lat":43.28931,"lon":5.36391,"is_reserved":false,"is_disabled":false,"rental_uris":{"android":"levelo://app?vid=15764e5c-9dbf-4127-b7d5-4ec1473657e5","ios":"levelo://app?vid=15764e5c-9dbf-4127-b7d5-4ec1473657e5"},"vehicle_type_id":"4","last_reported":1753384293,"current_range_meters":12400,"station_id":"ce4bhc92rcd13ifvqetg","pricing_plan_id":"cebpf4jnsgd1na2vs0mg"},{"bike_id":"3ec311a9-a32b-4001-91d6-375453161c80","system_id":"levelo_inurba_marseille","lat":43.26559,"lon":5.37283,"is_reserved":false,"is_disabled":false,"rental_uris":{"android":"levelo://app?vid=3ec311a9-a32b-4001-91d6-375453161c80","ios":"levelo://app?vid=3ec311a9-a32b-4001-91d6-375453161c80"},"vehicle_type_id":"4","last_reported":1753384293,"current_range_meters":12400,"station_id":"ce4bhg12rcd13ifvqf70","pricing_plan_id":"cebpf4jnsgd1na2vs0mg"},{"bike_id":"05a6c877-acd1-424b-857e-0d7810ee4b3c","system_id":"levelo_inurba_marseille","lat":43.2962,"lon":5.37154,"is_reserved":false,"is_disabled":false,"rental_uris":{"android":"levelo://app?vid=05a6c877-acd1-424b-857e-0d7810ee4b3c","ios":"levelo://app?vid=05a6c877-acd1-424b-857e-0d7810ee4b3c"},"vehicle_type_id":"4","last_reported":1753384293,"current_range_meters":12400,"station_id":"ce4bgnh2rcd13ifvqc0g","pricing_plan_id":"cebpf4jnsgd1na2vs0mg"},{"bike_id":"89a8529e-8879-4124-8039-b907686611bc","system_id":"levelo_inurba_marseille","lat":43.29533,"lon":5.38529,"is_reserved":false,"is_disabled":false,"rental_uris":{"android":"levelo://app?vid=89a8529e-8879-4124-8039-b907686611bc","ios":"levelo://app?vid=89a8529e-8879-4124-8039-b907686611bc"},"vehicle_type_id":"4","last_reported":1753384293,"current_range_meters":12800,"station_id":"ce4bgih2rcd13ifvqba0","pricing_plan_id":"cebpf4jnsgd1na2vs0mg"},{"bike_id":"ba03717e-5687-4264-8033-709e18fb43d3","system_id":"levelo_inurba_marseille","lat":43.29637,"lon":5.377368,"is_reserved":false,"is_disabled":false,"rental_uris":{"android":"levelo://app?vid=ba03717e-5687-4264-8033-709e18fb43d3","ios":"levelo://app?vid=ba03717e-5687-4264-8033-709e18fb43d3"},"vehicle_type_id":"4","last_reported":1753384293,"current_range_meters":12800,"station_id":"ce4bgi92rcd13ifvqb90","pricing_plan_id":"cebpf4jnsgd1na2vs0mg"},{"bike_id":"b913c24d-ffa7-4a46-9ee5-97549d6a74ee","system_id":"levelo_inurba_marseille","lat":43.26763,"lon":5.39434,"is_reserved":false,"is_disabled":true,"rental_uris":{"android":"levelo://app?vid=b913c24d-ffa7-4a46-9ee5-97549d6a74ee","ios":"levelo://app?vid=b913c24d-ffa7-4a46-9ee5-97549d6a74ee"},"vehicle_type_id":"4","last_reported":1753384293,"current_range_meters":12800,"station_id":"ce4bhh12rcd13ifvqfg0","pricing_plan_id":"cebpf4jnsgd1na2vs0mg"},{"bike_id":"afc36c35-cbf0-4469-a570-0d0b16f2bac6","system_id":"levelo_inurba_marseille","lat":43.29578,"lon":5.36743,"is_reserved":false,"is_disabled":false,"rental_uris":{"android":"levelo://app?vid=afc36c35-cbf0-4469-a570-0d0b16f2bac6","ios":"levelo://app?vid=afc36c35-cbf0-4469-a570-0d0b16f2bac6"},"vehicle_type_id":"4","last_reported":1753384293,"current_range_meters":12800,"station_id":"ce4bgph2rcd13ifvqc2g","pricing_plan_id":"cebpf4jnsgd1na2vs0mg"},{"bike_id":"a5ec0df8-a141-453d-bf18-19268a53af5b","system_id":"levelo_inurba_marseille","lat":43.28147,"lon":5.42637,"is_reserved":false,"is_disabled":false,"rental_uris":{"android":"levelo://app?vid=a5ec0df8-a141-453d-bf18-19268a53af5b","ios":"levelo://app?vid=a5ec0df8-a141-453d-bf18-19268a53af5b"},"vehicle_type_id":"4","last_reported":1753384293,"current_range_meters":12800,"station_id":"ce4bhnh2rcd13ifvqgug","pricing_plan_id":"cebpf4jnsgd1na2vs0mg"},{"bike_id":"7ae4980d-ac6a-47ed-8d0d-1fa6aeceec9b","system_id":"levelo_inurba_marseille","lat":43.29264,"lon":5.38435,"is_reserved":false,"is_disabled":false,"rental_uris":{"android":"levelo://app?vid=7ae4980d-ac6a-47ed-8d0d-1fa6aeceec9b","ios":"levelo://app?vid=7ae4980d-ac6a-47ed-8d0d-1fa6aeceec9b"},"vehicle_type_id":"4","last_reported":1753384293,"current_range_meters":12800,"station_id":"ce4bh692rcd13ifvqea0","pricing_plan_id":"cebpf4jnsgd1na2vs0mg"},{"bike_id":"a4bd8a96-2bb9-4e62-b563-4fd33a52cd04","system_id":"levelo_inurba_marseille","lat":43.28861,"lon":5.35851,"is_reserved":false,"is_disabled":false,"rental_uris":{"android":"levelo://app?vid=a4bd8a96-2bb9-4e62-b563-4fd33a52cd04","ios":"levelo://app?vid=a4bd8a96-2bb9-4e62-b563-4fd33a52cd04"},"vehicle_type_id":"4","last_reported":1753384293,"current_range_meters":12800,"station_id":"ce4bhb12rcd13ifvqem0","pricing_plan_id":"cebpf4jnsgd1na2vs0mg"},{"bike_id":"7f911594-af57-4477-9d29-6e5895a8d144","system_id":"levelo_inurba_marseille","lat":43.2696,"lon":5.40221,"is_reserved":false,"is_disabled":false,"rental_uris":{"android":"levelo://app?vid=7f911594-af57-4477-9d29-6e5895a8d144","ios":"levelo://app?vid=7f911594-af57-4477-9d29-6e5895a8d144"},"vehicle_type_id":"4","last_reported":1753384293,"current_range_meters":12800,"station_id":"cjm6bp8fraef2m0cb0m0","pricing_plan_id":"cebpf4jnsgd1na2vs0mg"},{"bike_id":"9437277c-d886-4a0b-9535-11724bd91051","system_id":"levelo_inurba_marseille","lat":43.27063,"lon":5.42275,"is_reserved":false,"is_disabled":false,"rental_uris":{"android":"levelo://app?vid=9437277c-d886-4a0b-9535-11724bd91051","ios":"levelo://app?vid=9437277c-d886-4a0b-9535-11724bd91051"},"vehicle_type_id":"4","last_reported":1753384293,"current_range_meters":12800,"station_id":"ce4bhk92rcd13ifvqgb0","pricing_plan_id":"cebpf4jnsgd1na2vs0mg"},{"bike_id":"c5145a51-2e33-441d-8065-b00c5a15bad7","system_id":"levelo_inurba_marseille","lat":43.2959,"lon":5.38109,"is_reserved":false,"is_disabled":false,"rental_uris":{"android":"levelo://app?vid=c5145a51-2e33-441d-8065-b00c5a15bad7","ios":"levelo://app?vid=c5145a51-2e33-441d-8065-b00c5a15bad7"},"vehicle_type_id":"4","last_reported":1753384293,"current_range_meters":13600,"station_id":"ce4bgl12rcd13ifvqbo0","pricing_plan_id":"cebpf4jnsgd1na2vs0mg"},{"bike_id":"37b9389e-258d-465b-a007-f58e3e55dc20","system_id":"levelo_inurba_marseille","lat":43.288686,"lon":5.358564,"is_reserved":false,"is_disabled":false,"rental_uris":{"android":"levelo://app?vid=37b9389e-258d-465b-a007-f58e3e55dc20","ios":"levelo://app?vid=37b9389e-258d-465b-a007-f58e3e55dc20"},"vehicle_type_id":"4","last_reported":1753384293,"current_range_meters":13600,"station_id":"ce4bhb12rcd13ifvqem0","pricing_plan_id":"cebpf4jnsgd1na2vs0mg"},{"bike_id":"5f824980-27aa-4ef2-856d-b766bebead8a","system_id":"levelo_inurba_marseille","lat":43.22496,"lon":5.34799,"is_reserved":false,"is_disabled":false,"rental_uris":{"android":"levelo://app?vid=5f824980-27aa-4ef2-856d-b766bebead8a","ios":"levelo://app?vid=5f824980-27aa-4ef2-856d-b766bebead8a"},"vehicle_type_id":"4","last_reported":1753384293,"current_range_meters":13600,"station_id":"st_cvj5dfep6f1abm77gieg","pricing_plan_id":"cebpf4jnsgd1na2vs0mg"},{"bike_id":"8bdb7f56-e47d-4ebf-85c0-a9ee2f1f0abb","system_id":"levelo_inurba_marseille","lat":43.296,"lon":5.37677,"is_reserved":false,"is_disabled":false,"rental_uris":{"android":"levelo://app?vid=8bdb7f56-e47d-4ebf-85c0-a9ee2f1f0abb","ios":"levelo://app?vid=8bdb7f56-e47d-4ebf-85c0-a9ee2f1f0abb"},"vehicle_type_id":"4","last_reported":1753384293,"current_range_meters":13600,"station_id":"","pricing_plan_id":"cebpf4jnsgd1na2vs0mg"},{"bike_id":"46e5b704-0f49-498f-92f3-b52af67ca47c","system_id":"levelo_inurba_marseille","lat":43.2958,"lon":5.38107,"is_reserved":false,"is_disabled":false,"rental_uris":{"android":"levelo://app?vid=46e5b704-0f49-498f-92f3-b52af67ca47c","ios":"levelo://app?vid=46e5b704-0f49-498f-92f3-b52af67ca47c"},"vehicle_type_id":"4","last_reported":1753384293,"current_range_meters":13600,"station_id":"ce4bgl12rcd13ifvqbo0","pricing_plan_id":"cebpf4jnsgd1na2vs0mg"},{"bike_id":"b7fbbd5d-d745-4d16-bb3e-afa01b4cd517","system_id":"levelo_inurba_marseille","lat":43.31167,"lon":5.38713,"is_reserved":false,"is_disabled":false,"rental_uris":{"android":"levelo://app?vid=b7fbbd5d-d745-4d16-bb3e-afa01b4cd517","ios":"levelo://app?vid=b7fbbd5d-d745-4d16-bb3e-afa01b4cd517"},"vehicle_type_id":"4","last_reported":1753384293,"current_range_meters":13600,"station_id":"ce4bgv12rcd13ifvqcp0","pricing_plan_id":"cebpf4jnsgd1na2vs0mg"},{"bike_id":"5b60f57d-b8df-45b1-a77e-1a26de4cd1e1","system_id":"levelo_inurba_marseille","lat":43.307758,"lon":5.376456,"is_reserved":false,"is_disabled":false,"rental_uris":{"android":"levelo://app?vid=5b60f57d-b8df-45b1-a77e-1a26de4cd1e1","ios":"levelo://app?vid=5b60f57d-b8df-45b1-a77e-1a26de4cd1e1"},"vehicle_type_id":"4","last_reported":1753384293,"current_range_meters":13600,"station_id":"ce4bgv92rcd13ifvqcq0","pricing_plan_id":"cebpf4jnsgd1na2vs0mg"},{"bike_id":"3bebb7c7-3de2-4cc9-867e-5f7515d17bec","system_id":"levelo_inurba_marseille","lat":43.296967,"lon":5.36606,"is_reserved":false,"is_disabled":true,"rental_uris":{"android":"levelo://app?vid=3bebb7c7-3de2-4cc9-867e-5f7515d17bec","ios":"levelo://app?vid=3bebb7c7-3de2-4cc9-867e-5f7515d17bec"},"vehicle_type_id":"4","last_reported":1753384293,"current_range_meters":13600,"station_id":"ce4bgn12rcd13ifvqbt0","pricing_plan_id":"cebpf4jnsgd1na2vs0mg"},{"bike_id":"b7b1026a-bb88-436b-b87c-e08c0877def6","system_id":"levelo_inurba_marseille","lat":43.28335,"lon":5.38103,"is_reserved":false,"is_disabled":false,"rental_uris":{"android":"levelo://app?vid=b7b1026a-bb88-436b-b87c-e08c0877def6","ios":"levelo://app?vid=b7b1026a-bb88-436b-b87c-e08c0877def6"},"vehicle_type_id":"4","last_reported":1753384293,"current_range_meters":14000,"station_id":"ce4bh412rcd13ifvqdr0","pricing_plan_id":"cebpf4jnsgd1na2vs0mg"},{"bike_id":"9772306b-e760-4410-bf74-3106938d7c35","system_id":"levelo_inurba_marseille","lat":43.27613,"lon":5.36104,"is_reserved":false,"is_disabled":false,"rental_uris":{"android":"levelo://app?vid=9772306b-e760-4410-bf74-3106938d7c35","ios":"levelo://app?vid=9772306b-e760-4410-bf74-3106938d7c35"},"vehicle_type_id":"4","last_reported":1753384293,"current_range_meters":14000,"station_id":"ce4bgj92rcd13ifvqbe0","pricing_plan_id":"cebpf4jnsgd1na2vs0mg"},{"bike_id":"4de9a30f-2408-4636-a906-9f9a9345ca1b","system_id":"levelo_inurba_marseille","lat":43.27378,"lon":5.3627,"is_reserved":false,"is_disabled":false,"rental_uris":{"android":"levelo://app?vid=4de9a30f-2408-4636-a906-9f9a9345ca1b","ios":"levelo://app?vid=4de9a30f-2408-4636-a906-9f9a9345ca1b"},"vehicle_type_id":"4","last_reported":1753384293,"current_range_meters":14000,"station_id":"ce4bhbh2rcd13ifvqeo0","pricing_plan_id":"cebpf4jnsgd1na2vs0mg"},{"bike_id":"5e64d8b9-df26-4e01-a1fe-0ccbff720b69","system_id":"levelo_inurba_marseille","lat":43.28456,"lon":5.35886,"is_reserved":false,"is_disabled":false,"rental_uris":{"android":"levelo://app?vid=5e64d8b9-df26-4e01-a1fe-0ccbff720b69","ios":"levelo://app?vid=5e64d8b9-df26-4e01-a1fe-0ccbff720b69"},"vehicle_type_id":"4","last_reported":1753384293,"current_range_meters":14000,"station_id":"ce4bhah2rcd13ifvqei0","pricing_plan_id":"cebpf4jnsgd1na2vs0mg"},{"bike_id":"af3c0459-7abd-4761-823b-cf0b16d24321","system_id":"levelo_inurba_marseille","lat":43.29964,"lon":5.3849,"is_reserved":false,"is_disabled":false,"rental_uris":{"android":"levelo://app?vid=af3c0459-7abd-4761-823b-cf0b16d24321","ios":"levelo://app?vid=af3c0459-7abd-4761-823b-cf0b16d24321"},"vehicle_type_id":"4","last_reported":1753384293,"current_range_meters":14000,"station_id":"ce4bgj92rcd13ifvqbd0","pricing_plan_id":"cebpf4jnsgd1na2vs0mg"},{"bike_id":"35a86048-76dd-4de0-afb2-7da8772fad44","system_id":"levelo_inurba_marseille","lat":43.21533,"lon":5.34722,"is_reserved":false,"is_disabled":false,"rental_uris":{"android":"levelo://app?vid=35a86048-76dd-4de0-afb2-7da8772fad44","ios":"levelo://app?vid=35a86048-76dd-4de0-afb2-7da8772fad44"},"vehicle_type_id":"4","last_reported":1753384293,"current_range_meters":14000,"station_id":"","pricing_plan_id":"cebpf4jnsgd1na2vs0mg"},{"bike_id":"de993af1-8c6e-4fcd-aa11-3cbf2991a890","system_id":"levelo_inurba_marseille","lat":43.231981,"lon":5.355524,"is_reserved":false,"is_disabled":false,"rental_uris":{"android":"levelo://app?vid=de993af1-8c6e-4fcd-aa11-3cbf2991a890","ios":"levelo://app?vid=de993af1-8c6e-4fcd-aa11-3cbf2991a890"},"vehicle_type_id":"4","last_reported":1753384293,"current_range_meters":14000,"station_id":"ce4bhu92rcd13ifvqi70","pricing_plan_id":"cebpf4jnsgd1na2vs0mg"},{"bike_id":"cc5dbab6-22b7-4bf7-83b4-2f2dc7b1ca62","system_id":"levelo_inurba_marseille","lat":43.25117,"lon":5.40318,"is_reserved":false,"is_disabled":false,"rental_uris":{"android":"levelo://app?vid=cc5dbab6-22b7-4bf7-83b4-2f2dc7b1ca62","ios":"levelo://app?vid=cc5dbab6-22b7-4bf7-83b4-2f2dc7b1ca62"},"vehicle_type_id":"4","last_reported":1753384293,"current_range_meters":14400,"station_id":"ce4bhlh2rcd13ifvqgig","pricing_plan_id":"cebpf4jnsgd1na2vs0mg"},{"bike_id":"eaea15aa-98ae-4f78-b37a-80e2e4524837","system_id":"levelo_inurba_marseille","lat":43.297916,"lon":5.381026,"is_reserved":false,"is_disabled":false,"rental_uris":{"android":"levelo://app?vid=eaea15aa-98ae-4f78-b37a-80e2e4524837","ios":"levelo://app?vid=eaea15aa-98ae-4f78-b37a-80e2e4524837"},"vehicle_type_id":"4","last_reported":1753384293,"current_range_meters":14400,"station_id":"","pricing_plan_id":"cebpf4jnsgd1na2vs0mg"},{"bike_id":"7f5018cc-9b53-42cc-a46e-56d3b1cb092f","system_id":"levelo_inurba_marseille","lat":43.22931,"lon":5.35378,"is_reserved":false,"is_disabled":false,"rental_uris":{"android":"levelo://app?vid=7f5018cc-9b53-42cc-a46e-56d3b1cb092f","ios":"levelo://app?vid=7f5018cc-9b53-42cc-a46e-56d3b1cb092f"},"vehicle_type_id":"4","last_reported":1753384293,"current_range_meters":14400,"station_id":"cpo3532slgdg3j2ikp40","pricing_plan_id":"cebpf4jnsgd1na2vs0mg"},{"bike_id":"f7f07796-c7c9-4a74-80e9-fb85744448b8","system_id":"levelo_inurba_marseille","lat":43.22922,"lon":5.35362,"is_reserved":false,"is_disabled":false,"rental_uris":{"android":"levelo://app?vid=f7f07796-c7c9-4a74-80e9-fb85744448b8","ios":"levelo://app?vid=f7f07796-c7c9-4a74-80e9-fb85744448b8"},"vehicle_type_id":"4","last_reported":1753384293,"current_range_meters":14400,"station_id":"cpo3532slgdg3j2ikp40","pricing_plan_id":"cebpf4jnsgd1na2vs0mg"},{"bike_id":"8ec965d1-09d7-4663-a986-051ebcbee4a1","system_id":"levelo_inurba_marseille","lat":43.292582,"lon":5.38443,"is_reserved":false,"is_disabled":false,"rental_uris":{"android":"levelo://app?vid=8ec965d1-09d7-4663-a986-051ebcbee4a1","ios":"levelo://app?vid=8ec965d1-09d7-4663-a986-051ebcbee4a1"},"vehicle_type_id":"4","last_reported":1753384293,"current_range_meters":14400,"station_id":"ce4bh692rcd13ifvqea0","pricing_plan_id":"cebpf4jnsgd1na2vs0mg"},{"bike_id":"99acb2d3-cd80-403c-a650-fa7d45e16848","system_id":"levelo_inurba_marseille","lat":43.28928,"lon":5.36642,"is_reserved":false,"is_disabled":false,"rental_uris":{"android":"levelo://app?vid=99acb2d3-cd80-403c-a650-fa7d45e16848","ios":"levelo://app?vid=99acb2d3-cd80-403c-a650-fa7d45e16848"},"vehicle_type_id":"4","last_reported":1753384293,"current_range_meters":14400,"station_id":"ce4bhap2rcd13ifvqek0","pricing_plan_id":"cebpf4jnsgd1na2vs0mg"},{"bike_id":"27b5acbc-b1fd-4385-9be5-bae49e9e4f6a","system_id":"levelo_inurba_marseille","lat":43.24804,"lon":5.3745,"is_reserved":false,"is_disabled":false,"rental_uris":{"android":"levelo://app?vid=27b5acbc-b1fd-4385-9be5-bae49e9e4f6a","ios":"levelo://app?vid=27b5acbc-b1fd-4385-9be5-bae49e9e4f6a"},"vehicle_type_id":"4","last_reported":1753384293,"current_range_meters":14400,"station_id":"ce4bhgh2rcd13ifvqfb0","pricing_plan_id":"cebpf4jnsgd1na2vs0mg"},{"bike_id":"fbda76a5-068e-4d90-b9ba-25721acd9298","system_id":"levelo_inurba_marseille","lat":43.29028,"lon":5.43971,"is_reserved":false,"is_disabled":false,"rental_uris":{"android":"levelo://app?vid=fbda76a5-068e-4d90-b9ba-25721acd9298","ios":"levelo://app?vid=fbda76a5-068e-4d90-b9ba-25721acd9298"},"vehicle_type_id":"4","last_reported":1753384293,"current_range_meters":14800,"station_id":"","pricing_plan_id":"cebpf4jnsgd1na2vs0mg"},{"bike_id":"629a8c5a-969c-4341-8268-ff1cd308a1c9","system_id":"levelo_inurba_marseille","lat":43.25826,"lon":5.39425,"is_reserved":false,"is_disabled":false,"rental_uris":{"android":"levelo://app?vid=629a8c5a-969c-4341-8268-ff1cd308a1c9","ios":"levelo://app?vid=629a8c5a-969c-4341-8268-ff1cd308a1c9"},"vehicle_type_id":"4","last_reported":1753384293,"current_range_meters":14800,"station_id":"ce4bhip2rcd13ifvqft0","pricing_plan_id":"cebpf4jnsgd1na2vs0mg"},{"bike_id":"14e3ef8e-2649-4e46-a7af-e3534e8c8749","system_id":"levelo_inurba_marseille","lat":43.268022,"lon":5.402654,"is_reserved":false,"is_disabled":false,"rental_uris":{"android":"levelo://app?vid=14e3ef8e-2649-4e46-a7af-e3534e8c8749","ios":"levelo://app?vid=14e3ef8e-2649-4e46-a7af-e3534e8c8749"},"vehicle_type_id":"4","last_reported":1753384293,"current_range_meters":14800,"station_id":"ce501612rcd8frsf0b60","pricing_plan_id":"cebpf4jnsgd1na2vs0mg"},{"bike_id":"8631cce2-08ae-4482-bb26-58326cde646d","system_id":"levelo_inurba_marseille","lat":43.29299,"lon":5.37439,"is_reserved":false,"is_disabled":false,"rental_uris":{"android":"levelo://app?vid=8631cce2-08ae-4482-bb26-58326cde646d","ios":"levelo://app?vid=8631cce2-08ae-4482-bb26-58326cde646d"},"vehicle_type_id":"4","last_reported":1753384293,"current_range_meters":14800,"station_id":"ce4bgi12rcd13ifvqb70","pricing_plan_id":"cebpf4jnsgd1na2vs0mg"},{"bike_id":"ad25e224-b15c-4949-92a3-53289b1bd1fb","system_id":"levelo_inurba_marseille","lat":43.28772,"lon":5.38477,"is_reserved":false,"is_disabled":false,"rental_uris":{"android":"levelo://app?vid=ad25e224-b15c-4949-92a3-53289b1bd1fb","ios":"levelo://app?vid=ad25e224-b15c-4949-92a3-53289b1bd1fb"},"vehicle_type_id":"4","last_reported":1753384293,"current_range_meters":14800,"station_id":"","pricing_plan_id":"cebpf4jnsgd1na2vs0mg"},{"bike_id":"df52031d-f6ba-4af3-a318-cddaa787b97a","system_id":"levelo_inurba_marseille","lat":43.27085,"lon":5.40234,"is_reserved":false,"is_disabled":false,"rental_uris":{"android":"levelo://app?vid=df52031d-f6ba-4af3-a318-cddaa787b97a","ios":"levelo://app?vid=df52031d-f6ba-4af3-a318-cddaa787b97a"},"vehicle_type_id":"4","last_reported":1753384293,"current_range_meters":14800,"station_id":"ce4bhk92rcd13ifvqgc0","pricing_plan_id":"cebpf4jnsgd1na2vs0mg"},{"bike_id":"b0012f3d-bbdc-430e-b374-569519f08cde","system_id":"levelo_inurba_marseille","lat":43.30081,"lon":5.3908,"is_reserved":false,"is_disabled":false,"rental_uris":{"android":"levelo://app?vid=b0012f3d-bbdc-430e-b374-569519f08cde","ios":"levelo://app?vid=b0012f3d-bbdc-430e-b374-569519f08cde"},"vehicle_type_id":"4","last_reported":1753384293,"current_range_meters":14800,"station_id":"ce4bh192rcd13ifvqdb0","pricing_plan_id":"cebpf4jnsgd1na2vs0mg"},{"bike_id":"4da55d0f-3b68-4c28-aa8e-e710ae8ebf16","system_id":"levelo_inurba_marseille","lat":43.28866,"lon":5.35855,"is_reserved":false,"is_disabled":false,"rental_uris":{"android":"levelo://app?vid=4da55d0f-3b68-4c28-aa8e-e710ae8ebf16","ios":"levelo://app?vid=4da55d0f-3b68-4c28-aa8e-e710ae8ebf16"},"vehicle_type_id":"4","last_reported":1753384293,"current_range_meters":14800,"station_id":"ce4bhb12rcd13ifvqem0","pricing_plan_id":"cebpf4jnsgd1na2vs0mg"},{"bike_id":"1f39eb17-34c7-4235-9069-0f68f613789c","system_id":"levelo_inurba_marseille","lat":43.26886,"lon":5.36871,"is_reserved":false,"is_disabled":false,"rental_uris":{"android":"levelo://app?vid=1f39eb17-34c7-4235-9069-0f68f613789c","ios":"levelo://app?vid=1f39eb17-34c7-4235-9069-0f68f613789c"},"vehicle_type_id":"4","last_reported":1753384293,"current_range_meters":15200,"station_id":"","pricing_plan_id":"cebpf4jnsgd1na2vs0mg"},{"bike_id":"05dc9b5e-dea0-45ef-aced-4a513f7276ce","system_id":"levelo_inurba_marseille","lat":43.28083,"lon":5.39648,"is_reserved":false,"is_disabled":false,"rental_uris":{"android":"levelo://app?vid=05dc9b5e-dea0-45ef-aced-4a513f7276ce","ios":"levelo://app?vid=05dc9b5e-dea0-45ef-aced-4a513f7276ce"},"vehicle_type_id":"4","last_reported":1753384293,"current_range_meters":15200,"station_id":"ce4bho12rcd13ifvqh2g","pricing_plan_id":"cebpf4jnsgd1na2vs0mg"},{"bike_id":"f4e32961-206e-49e5-9c71-5c9e60402e26","system_id":"levelo_inurba_marseille","lat":43.27056,"lon":5.40257,"is_reserved":false,"is_disabled":false,"rental_uris":{"android":"levelo://app?vid=f4e32961-206e-49e5-9c71-5c9e60402e26","ios":"levelo://app?vid=f4e32961-206e-49e5-9c71-5c9e60402e26"},"vehicle_type_id":"4","last_reported":1753384293,"current_range_meters":15200,"station_id":"ce4bhk92rcd13ifvqgc0","pricing_plan_id":"cebpf4jnsgd1na2vs0mg"},{"bike_id":"86d9b615-762a-42fb-b7c8-9bdec9fbbfc4","system_id":"levelo_inurba_marseille","lat":43.29173,"lon":5.37151,"is_reserved":false,"is_disabled":false,"rental_uris":{"android":"levelo://app?vid=86d9b615-762a-42fb-b7c8-9bdec9fbbfc4","ios":"levelo://app?vid=86d9b615-762a-42fb-b7c8-9bdec9fbbfc4"},"vehicle_type_id":"4","last_reported":1753384293,"current_range_meters":15200,"station_id":"ce4bha92rcd13ifvqeh0","pricing_plan_id":"cebpf4jnsgd1na2vs0mg"},{"bike_id":"cd46d7a3-2aff-40e0-9e50-73919cfa0e11","system_id":"levelo_inurba_marseille","lat":43.27377,"lon":5.36255,"is_reserved":false,"is_disabled":false,"rental_uris":{"android":"levelo://app?vid=cd46d7a3-2aff-40e0-9e50-73919cfa0e11","ios":"levelo://app?vid=cd46d7a3-2aff-40e0-9e50-73919cfa0e11"},"vehicle_type_id":"4","last_reported":1753384293,"current_range_meters":15200,"station_id":"ce4bhbh2rcd13ifvqeo0","pricing_plan_id":"cebpf4jnsgd1na2vs0mg"},{"bike_id":"3f94cca8-8ca9-4713-8017-eed8acb78034","system_id":"levelo_inurba_marseille","lat":43.24169,"lon":5.36393,"is_reserved":false,"is_disabled":false,"rental_uris":{"android":"levelo://app?vid=3f94cca8-8ca9-4713-8017-eed8acb78034","ios":"levelo://app?vid=3f94cca8-8ca9-4713-8017-eed8acb78034"},"vehicle_type_id":"4","last_reported":1753384293,"current_range_meters":15200,"station_id":"cpo36qri1sfpv3e86is0","pricing_plan_id":"cebpf4jnsgd1na2vs0mg"},{"bike_id":"f0ec3f2b-99d6-4143-b9d2-f44852809e36","system_id":"levelo_inurba_marseille","lat":43.254833,"lon":5.401318,"is_reserved":false,"is_disabled":false,"rental_uris":{"android":"levelo://app?vid=f0ec3f2b-99d6-4143-b9d2-f44852809e36","ios":"levelo://app?vid=f0ec3f2b-99d6-4143-b9d2-f44852809e36"},"vehicle_type_id":"4","last_reported":1753384293,"current_range_meters":15200,"station_id":"ce4bhlh2rcd13ifvqgig","pricing_plan_id":"cebpf4jnsgd1na2vs0mg"},{"bike_id":"3bbe661b-090d-492c-a06c-4150d5afc5d0","system_id":"levelo_inurba_marseille","lat":43.330173,"lon":5.390517,"is_reserved":false,"is_disabled":false,"rental_uris":{"android":"levelo://app?vid=3bbe661b-090d-492c-a06c-4150d5afc5d0","ios":"levelo://app?vid=3bbe661b-090d-492c-a06c-4150d5afc5d0"},"vehicle_type_id":"4","last_reported":1753384293,"current_range_meters":15200,"station_id":"ce4bhr92rcd13ifvqhrg","pricing_plan_id":"cebpf4jnsgd1na2vs0mg"},{"bike_id":"f7f2157f-effd-43ab-80cb-e8fe0ec86a59","system_id":"levelo_inurba_marseille","lat":43.29532,"lon":5.38537,"is_reserved":false,"is_disabled":false,"rental_uris":{"android":"levelo://app?vid=f7f2157f-effd-43ab-80cb-e8fe0ec86a59","ios":"levelo://app?vid=f7f2157f-effd-43ab-80cb-e8fe0ec86a59"},"vehicle_type_id":"4","last_reported":1753384293,"current_range_meters":15200,"station_id":"ce4bgih2rcd13ifvqba0","pricing_plan_id":"cebpf4jnsgd1na2vs0mg"},{"bike_id":"ac96d0d2-7b82-4352-9804-df694e7d34c5","system_id":"levelo_inurba_marseille","lat":43.30987,"lon":5.39027,"is_reserved":false,"is_disabled":false,"rental_uris":{"android":"levelo://app?vid=ac96d0d2-7b82-4352-9804-df694e7d34c5","ios":"levelo://app?vid=ac96d0d2-7b82-4352-9804-df694e7d34c5"},"vehicle_type_id":"4","last_reported":1753384293,"current_range_meters":15200,"station_id":"ce4bgup2rcd13ifvqco0","pricing_plan_id":"cebpf4jnsgd1na2vs0mg"},{"bike_id":"2636887d-0604-4440-8994-018ecca224dc","system_id":"levelo_inurba_marseille","lat":43.28934,"lon":5.36638,"is_reserved":false,"is_disabled":false,"rental_uris":{"android":"levelo://app?vid=2636887d-0604-4440-8994-018ecca224dc","ios":"levelo://app?vid=2636887d-0604-4440-8994-018ecca224dc"},"vehicle_type_id":"4","last_reported":1753384293,"current_range_meters":15200,"station_id":"ce4bhap2rcd13ifvqek0","pricing_plan_id":"cebpf4jnsgd1na2vs0mg"},{"bike_id":"17a985d5-d275-4396-995d-fa7cf5985a85","system_id":"levelo_inurba_marseille","lat":43.25647,"lon":5.38241,"is_reserved":false,"is_disabled":false,"rental_uris":{"android":"levelo://app?vid=17a985d5-d275-4396-995d-fa7cf5985a85","ios":"levelo://app?vid=17a985d5-d275-4396-995d-fa7cf5985a85"},"vehicle_type_id":"4","last_reported":1753384293,"current_range_meters":16000,"station_id":"","pricing_plan_id":"cebpf4jnsgd1na2vs0mg"},{"bike_id":"cf776233-7766-4109-aadc-a0d3c334d400","system_id":"levelo_inurba_marseille","lat":43.24057,"lon":5.37752,"is_reserved":false,"is_disabled":false,"rental_uris":{"android":"levelo://app?vid=cf776233-7766-4109-aadc-a0d3c334d400","ios":"levelo://app?vid=cf776233-7766-4109-aadc-a0d3c334d400"},"vehicle_type_id":"4","last_reported":1753384293,"current_range_meters":16000,"station_id":"ce4bhnp2rcd13ifvqgvg","pricing_plan_id":"cebpf4jnsgd1na2vs0mg"},{"bike_id":"0328ec12-5a05-4c30-bd25-27f5ce8bb3b4","system_id":"levelo_inurba_marseille","lat":43.31064,"lon":5.40081,"is_reserved":false,"is_disabled":false,"rental_uris":{"android":"levelo://app?vid=0328ec12-5a05-4c30-bd25-27f5ce8bb3b4","ios":"levelo://app?vid=0328ec12-5a05-4c30-bd25-27f5ce8bb3b4"},"vehicle_type_id":"4","last_reported":1753384293,"current_range_meters":16000,"station_id":"","pricing_plan_id":"cebpf4jnsgd1na2vs0mg"},{"bike_id":"b2595d51-83b5-4d43-847d-52f1d04ed6aa","system_id":"levelo_inurba_marseille","lat":43.29052,"lon":5.35903,"is_reserved":false,"is_disabled":false,"rental_uris":{"android":"levelo://app?vid=b2595d51-83b5-4d43-847d-52f1d04ed6aa","ios":"levelo://app?vid=b2595d51-83b5-4d43-847d-52f1d04ed6aa"},"vehicle_type_id":"4","last_reported":1753384293,"current_range_meters":16000,"station_id":"ce4bha92rcd13ifvqeg0","pricing_plan_id":"cebpf4jnsgd1na2vs0mg"},{"bike_id":"672fb618-dfc9-4113-9e8d-6418c5b1d606","system_id":"levelo_inurba_marseille","lat":43.28724,"lon":5.36082,"is_reserved":false,"is_disabled":false,"rental_uris":{"android":"levelo://app?vid=672fb618-dfc9-4113-9e8d-6418c5b1d606","ios":"levelo://app?vid=672fb618-dfc9-4113-9e8d-6418c5b1d606"},"vehicle_type_id":"4","last_reported":1753384293,"current_range_meters":16000,"station_id":"cki0cbj6b192h4jlfktg","pricing_plan_id":"cebpf4jnsgd1na2vs0mg"},{"bike_id":"0aa2d153-96d1-4d69-83b8-d39119aa9dd5","system_id":"levelo_inurba_marseille","lat":43.33523,"lon":5.36229,"is_reserved":false,"is_disabled":false,"rental_uris":{"android":"levelo://app?vid=0aa2d153-96d1-4d69-83b8-d39119aa9dd5","ios":"levelo://app?vid=0aa2d153-96d1-4d69-83b8-d39119aa9dd5"},"vehicle_type_id":"4","last_reported":1753384293,"current_range_meters":16000,"station_id":"","pricing_plan_id":"cebpf4jnsgd1na2vs0mg"},{"bike_id":"d2c1d56d-6a3a-4ae3-b7ab-84022ad7ad84","system_id":"levelo_inurba_marseille","lat":43.29827,"lon":5.37614,"is_reserved":false,"is_disabled":false,"rental_uris":{"android":"levelo://app?vid=d2c1d56d-6a3a-4ae3-b7ab-84022ad7ad84","ios":"levelo://app?vid=d2c1d56d-6a3a-4ae3-b7ab-84022ad7ad84"},"vehicle_type_id":"4","last_reported":1753384293,"current_range_meters":16000,"station_id":"","pricing_plan_id":"cebpf4jnsgd1na2vs0mg"},{"bike_id":"622af20d-224f-4b3c-b0c8-986465e7da29","system_id":"levelo_inurba_marseille","lat":43.28858,"lon":5.35846,"is_reserved":false,"is_disabled":false,"rental_uris":{"android":"levelo://app?vid=622af20d-224f-4b3c-b0c8-986465e7da29","ios":"levelo://app?vid=622af20d-224f-4b3c-b0c8-986465e7da29"},"vehicle_type_id":"4","last_reported":1753384293,"current_range_meters":16000,"station_id":"ce4bhb12rcd13ifvqem0","pricing_plan_id":"cebpf4jnsgd1na2vs0mg"},{"bike_id":"d40c33a9-f40e-45aa-b3fa-af49177afd3d","system_id":"levelo_inurba_marseille","lat":43.26203,"lon":5.37444,"is_reserved":false,"is_disabled":false,"rental_uris":{"android":"levelo://app?vid=d40c33a9-f40e-45aa-b3fa-af49177afd3d","ios":"levelo://app?vid=d40c33a9-f40e-45aa-b3fa-af49177afd3d"},"vehicle_type_id":"4","last_reported":1753384293,"current_range_meters":16400,"station_id":"ce4bhgp2rcd13ifvqfc0","pricing_plan_id":"cebpf4jnsgd1na2vs0mg"},{"bike_id":"9c83eb9e-d2aa-42a2-8b65-38baef4029a4","system_id":"levelo_inurba_marseille","lat":43.32477,"lon":5.36561,"is_reserved":false,"is_disabled":false,"rental_uris":{"android":"levelo://app?vid=9c83eb9e-d2aa-42a2-8b65-38baef4029a4","ios":"levelo://app?vid=9c83eb9e-d2aa-42a2-8b65-38baef4029a4"},"vehicle_type_id":"4","last_reported":1753384293,"current_range_meters":16400,"station_id":"ce4bhs12rcd13ifvqhvg","pricing_plan_id":"cebpf4jnsgd1na2vs0mg"},{"bike_id":"dae46347-8590-42fd-8db3-0dddab6acd2a","system_id":"levelo_inurba_marseille","lat":43.30146,"lon":5.39848,"is_reserved":false,"is_disabled":false,"rental_uris":{"android":"levelo://app?vid=dae46347-8590-42fd-8db3-0dddab6acd2a","ios":"levelo://app?vid=dae46347-8590-42fd-8db3-0dddab6acd2a"},"vehicle_type_id":"4","last_reported":1753384293,"current_range_meters":16400,"station_id":"ce4bh0h2rcd13ifvqd40","pricing_plan_id":"cebpf4jnsgd1na2vs0mg"},{"bike_id":"d8ab8225-ebfc-48f1-9981-f15e3b9960ea","system_id":"levelo_inurba_marseille","lat":43.22922,"lon":5.35376,"is_reserved":false,"is_disabled":false,"rental_uris":{"android":"levelo://app?vid=d8ab8225-ebfc-48f1-9981-f15e3b9960ea","ios":"levelo://app?vid=d8ab8225-ebfc-48f1-9981-f15e3b9960ea"},"vehicle_type_id":"4","last_reported":1753384293,"current_range_meters":16400,"station_id":"cpo3532slgdg3j2ikp40","pricing_plan_id":"cebpf4jnsgd1na2vs0mg"},{"bike_id":"481351de-e3d5-4a6f-aa67-c1762e7ed223","system_id":"levelo_inurba_marseille","lat":43.27064,"lon":5.42283,"is_reserved":false,"is_disabled":false,"rental_uris":{"android":"levelo://app?vid=481351de-e3d5-4a6f-aa67-c1762e7ed223","ios":"levelo://app?vid=481351de-e3d5-4a6f-aa67-c1762e7ed223"},"vehicle_type_id":"4","last_reported":1753384293,"current_range_meters":16400,"station_id":"ce4bhk92rcd13ifvqgb0","pricing_plan_id":"cebpf4jnsgd1na2vs0mg"},{"bike_id":"0a7e2862-d8ec-4c77-89d9-cfcdd51f8d75","system_id":"levelo_inurba_marseille","lat":43.31783,"lon":5.3688,"is_reserved":false,"is_disabled":false,"rental_uris":{"android":"levelo://app?vid=0a7e2862-d8ec-4c77-89d9-cfcdd51f8d75","ios":"levelo://app?vid=0a7e2862-d8ec-4c77-89d9-cfcdd51f8d75"},"vehicle_type_id":"4","last_reported":1753384293,"current_range_meters":16400,"station_id":"","pricing_plan_id":"cebpf4jnsgd1na2vs0mg"},{"bike_id":"0a2aa375-1039-49db-9de4-cbd9a97ca2a5","system_id":"levelo_inurba_marseille","lat":43.25584,"lon":5.38235,"is_reserved":false,"is_disabled":false,"rental_uris":{"android":"levelo://app?vid=0a2aa375-1039-49db-9de4-cbd9a97ca2a5","ios":"levelo://app?vid=0a2aa375-1039-49db-9de4-cbd9a97ca2a5"},"vehicle_type_id":"4","last_reported":1753384293,"current_range_meters":16800,"station_id":"ce4bhih2rcd13ifvqfs0","pricing_plan_id":"cebpf4jnsgd1na2vs0mg"},{"bike_id":"eee05789-f787-4601-865f-9112c2e8e323","system_id":"levelo_inurba_marseille","lat":43.296463,"lon":5.371835,"is_reserved":false,"is_disabled":false,"rental_uris":{"android":"levelo://app?vid=eee05789-f787-4601-865f-9112c2e8e323","ios":"levelo://app?vid=eee05789-f787-4601-865f-9112c2e8e323"},"vehicle_type_id":"4","last_reported":1753384293,"current_range_meters":16800,"station_id":"ce4bgnh2rcd13ifvqc0g","pricing_plan_id":"cebpf4jnsgd1na2vs0mg"},{"bike_id":"6768c445-9e67-4d98-871a-4946d11b626e","system_id":"levelo_inurba_marseille","lat":43.29529,"lon":5.38538,"is_reserved":false,"is_disabled":false,"rental_uris":{"android":"levelo://app?vid=6768c445-9e67-4d98-871a-4946d11b626e","ios":"levelo://app?vid=6768c445-9e67-4d98-871a-4946d11b626e"},"vehicle_type_id":"4","last_reported":1753384293,"current_range_meters":16800,"station_id":"ce4bgih2rcd13ifvqba0","pricing_plan_id":"cebpf4jnsgd1na2vs0mg"},{"bike_id":"ce193c8e-90e0-4599-95e2-d02b7d163b03","system_id":"levelo_inurba_marseille","lat":43.24084,"lon":5.37734,"is_reserved":false,"is_disabled":false,"rental_uris":{"android":"levelo://app?vid=ce193c8e-90e0-4599-95e2-d02b7d163b03","ios":"levelo://app?vid=ce193c8e-90e0-4599-95e2-d02b7d163b03"},"vehicle_type_id":"4","last_reported":1753384293,"current_range_meters":16800,"station_id":"ce4bhnp2rcd13ifvqgvg","pricing_plan_id":"cebpf4jnsgd1na2vs0mg"},{"bike_id":"b96c42cc-f372-4d75-91ab-f7d6111838b9","system_id":"levelo_inurba_marseille","lat":43.29255,"lon":5.38451,"is_reserved":false,"is_disabled":false,"rental_uris":{"android":"levelo://app?vid=b96c42cc-f372-4d75-91ab-f7d6111838b9","ios":"levelo://app?vid=b96c42cc-f372-4d75-91ab-f7d6111838b9"},"vehicle_type_id":"4","last_reported":1753384293,"current_range_meters":16800,"station_id":"ce4bh692rcd13ifvqea0","pricing_plan_id":"cebpf4jnsgd1na2vs0mg"},{"bike_id":"39d5d8c8-01b0-4a59-91a6-074cb7825aee","system_id":"levelo_inurba_marseille","lat":43.29073,"lon":5.37175,"is_reserved":false,"is_disabled":false,"rental_uris":{"android":"levelo://app?vid=39d5d8c8-01b0-4a59-91a6-074cb7825aee","ios":"levelo://app?vid=39d5d8c8-01b0-4a59-91a6-074cb7825aee"},"vehicle_type_id":"4","last_reported":1753384293,"current_range_meters":16800,"station_id":"ce4bh5p2rcd13ifvqe4g","pricing_plan_id":"cebpf4jnsgd1na2vs0mg"},{"bike_id":"e729acab-1ca7-4144-8e04-18d0eff1672e","system_id":"levelo_inurba_marseille","lat":43.29199,"lon":5.39315,"is_reserved":false,"is_disabled":false,"rental_uris":{"android":"levelo://app?vid=e729acab-1ca7-4144-8e04-18d0eff1672e","ios":"levelo://app?vid=e729acab-1ca7-4144-8e04-18d0eff1672e"},"vehicle_type_id":"4","last_reported":1753384293,"current_range_meters":16400,"station_id":"ce4bh192rcd13ifvqdd0","pricing_plan_id":"cebpf4jnsgd1na2vs0mg"},{"bike_id":"f98d314f-ceb2-4dee-8719-07b156cb26bd","system_id":"levelo_inurba_marseille","lat":43.26207,"lon":5.37425,"is_reserved":false,"is_disabled":false,"rental_uris":{"android":"levelo://app?vid=f98d314f-ceb2-4dee-8719-07b156cb26bd","ios":"levelo://app?vid=f98d314f-ceb2-4dee-8719-07b156cb26bd"},"vehicle_type_id":"4","last_reported":1753384293,"current_range_meters":16800,"station_id":"ce4bhgp2rcd13ifvqfc0","pricing_plan_id":"cebpf4jnsgd1na2vs0mg"},{"bike_id":"37a6bccb-0b1e-436a-be3a-4e6d618dc372","system_id":"levelo_inurba_marseille","lat":43.29528,"lon":5.38546,"is_reserved":false,"is_disabled":false,"rental_uris":{"android":"levelo://app?vid=37a6bccb-0b1e-436a-be3a-4e6d618dc372","ios":"levelo://app?vid=37a6bccb-0b1e-436a-be3a-4e6d618dc372"},"vehicle_type_id":"4","last_reported":1753384293,"current_range_meters":16800,"station_id":"ce4bgih2rcd13ifvqba0","pricing_plan_id":"cebpf4jnsgd1na2vs0mg"},{"bike_id":"3b1f94f1-9936-4306-b48a-4378e63a03be","system_id":"levelo_inurba_marseille","lat":43.28575,"lon":5.3515,"is_reserved":false,"is_disabled":false,"rental_uris":{"android":"levelo://app?vid=3b1f94f1-9936-4306-b48a-4378e63a03be","ios":"levelo://app?vid=3b1f94f1-9936-4306-b48a-4378e63a03be"},"vehicle_type_id":"4","last_reported":1753384293,"current_range_meters":16800,"station_id":"ce4bhch2rcd13ifvqeug","pricing_plan_id":"cebpf4jnsgd1na2vs0mg"},{"bike_id":"ad7f924d-5443-4b14-80c3-fdbe71f8752e","system_id":"levelo_inurba_marseille","lat":43.26086,"lon":5.3728,"is_reserved":false,"is_disabled":false,"rental_uris":{"android":"levelo://app?vid=ad7f924d-5443-4b14-80c3-fdbe71f8752e","ios":"levelo://app?vid=ad7f924d-5443-4b14-80c3-fdbe71f8752e"},"vehicle_type_id":"4","last_reported":1753384293,"current_range_meters":16800,"station_id":"","pricing_plan_id":"cebpf4jnsgd1na2vs0mg"},{"bike_id":"6b4ebec4-52b1-484d-b344-50b095939dd7","system_id":"levelo_inurba_marseille","lat":43.28732,"lon":5.36077,"is_reserved":false,"is_disabled":false,"rental_uris":{"android":"levelo://app?vid=6b4ebec4-52b1-484d-b344-50b095939dd7","ios":"levelo://app?vid=6b4ebec4-52b1-484d-b344-50b095939dd7"},"vehicle_type_id":"4","last_reported":1753384293,"current_range_meters":16800,"station_id":"cki0cbj6b192h4jlfktg","pricing_plan_id":"cebpf4jnsgd1na2vs0mg"},{"bike_id":"ffab4a34-82e9-461f-8967-2ccafce68b3b","system_id":"levelo_inurba_marseille","lat":43.265518,"lon":5.372796,"is_reserved":false,"is_disabled":false,"rental_uris":{"android":"levelo://app?vid=ffab4a34-82e9-461f-8967-2ccafce68b3b","ios":"levelo://app?vid=ffab4a34-82e9-461f-8967-2ccafce68b3b"},"vehicle_type_id":"4","last_reported":1753384293,"current_range_meters":16800,"station_id":"ce4bhg12rcd13ifvqf70","pricing_plan_id":"cebpf4jnsgd1na2vs0mg"},{"bike_id":"668d3622-317d-4af1-bbd6-1f8c2bb0f9b0","system_id":"levelo_inurba_marseille","lat":43.28934,"lon":5.36624,"is_reserved":false,"is_disabled":false,"rental_uris":{"android":"levelo://app?vid=668d3622-317d-4af1-bbd6-1f8c2bb0f9b0","ios":"levelo://app?vid=668d3622-317d-4af1-bbd6-1f8c2bb0f9b0"},"vehicle_type_id":"4","last_reported":1753384293,"current_range_meters":16800,"station_id":"ce4bhap2rcd13ifvqek0","pricing_plan_id":"cebpf4jnsgd1na2vs0mg"},{"bike_id":"3d970b41-ca64-42c3-8fd3-4009aeace65d","system_id":"levelo_inurba_marseille","lat":43.29261,"lon":5.38445,"is_reserved":false,"is_disabled":false,"rental_uris":{"android":"levelo://app?vid=3d970b41-ca64-42c3-8fd3-4009aeace65d","ios":"levelo://app?vid=3d970b41-ca64-42c3-8fd3-4009aeace65d"},"vehicle_type_id":"4","last_reported":1753384293,"current_range_meters":17200,"station_id":"ce4bh692rcd13ifvqea0","pricing_plan_id":"cebpf4jnsgd1na2vs0mg"},{"bike_id":"f2ca3887-7e82-498b-8c49-e80cd18a3051","system_id":"levelo_inurba_marseille","lat":43.23973,"lon":5.3662,"is_reserved":false,"is_disabled":false,"rental_uris":{"android":"levelo://app?vid=f2ca3887-7e82-498b-8c49-e80cd18a3051","ios":"levelo://app?vid=f2ca3887-7e82-498b-8c49-e80cd18a3051"},"vehicle_type_id":"4","last_reported":1753384293,"current_range_meters":17200,"station_id":"ce4bhi12rcd13ifvqfp0","pricing_plan_id":"cebpf4jnsgd1na2vs0mg"},{"bike_id":"40cfdebd-3144-4f64-9ccd-fcc8e367a18f","system_id":"levelo_inurba_marseille","lat":43.29052,"lon":5.37165,"is_reserved":false,"is_disabled":false,"rental_uris":{"android":"levelo://app?vid=40cfdebd-3144-4f64-9ccd-fcc8e367a18f","ios":"levelo://app?vid=40cfdebd-3144-4f64-9ccd-fcc8e367a18f"},"vehicle_type_id":"4","last_reported":1753384293,"current_range_meters":17200,"station_id":"ce4bh5p2rcd13ifvqe4g","pricing_plan_id":"cebpf4jnsgd1na2vs0mg"},{"bike_id":"cbe11f05-0f11-409a-af43-8187c9ae1368","system_id":"levelo_inurba_marseille","lat":43.31996,"lon":5.38163,"is_reserved":false,"is_disabled":false,"rental_uris":{"android":"levelo://app?vid=cbe11f05-0f11-409a-af43-8187c9ae1368","ios":"levelo://app?vid=cbe11f05-0f11-409a-af43-8187c9ae1368"},"vehicle_type_id":"4","last_reported":1753384293,"current_range_meters":17200,"station_id":"ce4bhr12rcd13ifvqhpg","pricing_plan_id":"cebpf4jnsgd1na2vs0mg"},{"bike_id":"31950a22-06e6-4fd7-947e-ed0356e9a53f","system_id":"levelo_inurba_marseille","lat":43.24176,"lon":5.39725,"is_reserved":false,"is_disabled":false,"rental_uris":{"android":"levelo://app?vid=31950a22-06e6-4fd7-947e-ed0356e9a53f","ios":"levelo://app?vid=31950a22-06e6-4fd7-947e-ed0356e9a53f"},"vehicle_type_id":"4","last_reported":1753384293,"current_range_meters":17200,"station_id":"ce4bhn12rcd13ifvqgpg","pricing_plan_id":"cebpf4jnsgd1na2vs0mg"},{"bike_id":"261d4bb0-7bb9-4c80-93f3-cd6f68b7285e","system_id":"levelo_inurba_marseille","lat":43.31364,"lon":5.37107,"is_reserved":false,"is_disabled":false,"rental_uris":{"android":"levelo://app?vid=261d4bb0-7bb9-4c80-93f3-cd6f68b7285e","ios":"levelo://app?vid=261d4bb0-7bb9-4c80-93f3-cd6f68b7285e"},"vehicle_type_id":"4","last_reported":1753384293,"current_range_meters":17200,"station_id":"","pricing_plan_id":"cebpf4jnsgd1na2vs0mg"},{"bike_id":"1e9cf983-3afc-4620-a4d4-2dd094704fd1","system_id":"levelo_inurba_marseille","lat":43.22501,"lon":5.34774,"is_reserved":false,"is_disabled":false,"rental_uris":{"android":"levelo://app?vid=1e9cf983-3afc-4620-a4d4-2dd094704fd1","ios":"levelo://app?vid=1e9cf983-3afc-4620-a4d4-2dd094704fd1"},"vehicle_type_id":"4","last_reported":1753384293,"current_range_meters":17200,"station_id":"st_cvj5dfep6f1abm77gieg","pricing_plan_id":"cebpf4jnsgd1na2vs0mg"},{"bike_id":"57801d36-0853-4266-9286-ddb8f43caff5","system_id":"levelo_inurba_marseille","lat":43.29261,"lon":5.38454,"is_reserved":false,"is_disabled":false,"rental_uris":{"android":"levelo://app?vid=57801d36-0853-4266-9286-ddb8f43caff5","ios":"levelo://app?vid=57801d36-0853-4266-9286-ddb8f43caff5"},"vehicle_type_id":"4","last_reported":1753384293,"current_range_meters":17200,"station_id":"ce4bh692rcd13ifvqea0","pricing_plan_id":"cebpf4jnsgd1na2vs0mg"},{"bike_id":"4b7975fd-8ffb-401c-a878-c70a7ef528e6","system_id":"levelo_inurba_marseille","lat":43.28927,"lon":5.38404,"is_reserved":false,"is_disabled":false,"rental_uris":{"android":"levelo://app?vid=4b7975fd-8ffb-401c-a878-c70a7ef528e6","ios":"levelo://app?vid=4b7975fd-8ffb-401c-a878-c70a7ef528e6"},"vehicle_type_id":"4","last_reported":1753384293,"current_range_meters":17200,"station_id":"ce4bh612rcd13ifvqe6g","pricing_plan_id":"cebpf4jnsgd1na2vs0mg"},{"bike_id":"9ac4302d-c05c-4652-b8dd-881e1b72c38a","system_id":"levelo_inurba_marseille","lat":43.2964,"lon":5.37169,"is_reserved":false,"is_disabled":false,"rental_uris":{"android":"levelo://app?vid=9ac4302d-c05c-4652-b8dd-881e1b72c38a","ios":"levelo://app?vid=9ac4302d-c05c-4652-b8dd-881e1b72c38a"},"vehicle_type_id":"4","last_reported":1753384293,"current_range_meters":17200,"station_id":"ce4bgnh2rcd13ifvqc0g","pricing_plan_id":"cebpf4jnsgd1na2vs0mg"},{"bike_id":"ef1b6f93-c417-4c8a-bbb9-44d5197b4f68","system_id":"levelo_inurba_marseille","lat":43.28941,"lon":5.36412,"is_reserved":false,"is_disabled":false,"rental_uris":{"android":"levelo://app?vid=ef1b6f93-c417-4c8a-bbb9-44d5197b4f68","ios":"levelo://app?vid=ef1b6f93-c417-4c8a-bbb9-44d5197b4f68"},"vehicle_type_id":"4","last_reported":1753384293,"current_range_meters":17600,"station_id":"ce4bhc92rcd13ifvqetg","pricing_plan_id":"cebpf4jnsgd1na2vs0mg"},{"bike_id":"e14f5fe8-a5b6-4613-9c71-a1731594e3e4","system_id":"levelo_inurba_marseille","lat":43.313262,"lon":5.396892,"is_reserved":false,"is_disabled":false,"rental_uris":{"android":"levelo://app?vid=e14f5fe8-a5b6-4613-9c71-a1731594e3e4","ios":"levelo://app?vid=e14f5fe8-a5b6-4613-9c71-a1731594e3e4"},"vehicle_type_id":"4","last_reported":1753384293,"current_range_meters":17600,"station_id":"ce4bgvp2rcd13ifvqcu0","pricing_plan_id":"cebpf4jnsgd1na2vs0mg"},{"bike_id":"e5acbaa4-48bc-4d5f-ac73-a21593def489","system_id":"levelo_inurba_marseille","lat":43.28678,"lon":5.38662,"is_reserved":false,"is_disabled":false,"rental_uris":{"android":"levelo://app?vid=e5acbaa4-48bc-4d5f-ac73-a21593def489","ios":"levelo://app?vid=e5acbaa4-48bc-4d5f-ac73-a21593def489"},"vehicle_type_id":"4","last_reported":1753384293,"current_range_meters":17600,"station_id":"ce4bh492rcd13ifvqdug","pricing_plan_id":"cebpf4jnsgd1na2vs0mg"},{"bike_id":"21bb3fef-81ef-46bb-a48d-d85402757c94","system_id":"levelo_inurba_marseille","lat":43.25441,"lon":5.3798,"is_reserved":false,"is_disabled":false,"rental_uris":{"android":"levelo://app?vid=21bb3fef-81ef-46bb-a48d-d85402757c94","ios":"levelo://app?vid=21bb3fef-81ef-46bb-a48d-d85402757c94"},"vehicle_type_id":"4","last_reported":1753384293,"current_range_meters":17600,"station_id":"","pricing_plan_id":"cebpf4jnsgd1na2vs0mg"},