{"last_updated":1773344074,"ttl":60,"version":"2.2","data":{"bikes":[{"bike_id":"e8dfe635-a703-41ae-9072-df5bb8305194","system_id":"levelo_inurba_marseille","lat":43.29717,"lon":5.36611,"is_reserved":false,"is_disabled":false,"rental_uris":{"android":"levelo://app?vid=e8dfe635-a703-41ae-9072-df5bb8305194","ios":"levelo://app?vid=e8dfe635-a703-41ae-9072-df5bb8305194"},"vehicle_type_id":"4","last_reported":1773344075,"current_range_meters":39200,"station_id":"ce4bgn12rcd13ifvqbt0","pricing_plan_id":"cebpf4jnsgd1na2vs0mg"},{"bike_id":"26019605-8d80-44f1-a366-22a6865070bb","system_id":"levelo_inurba_marseille","lat":43.29939,"lon":5.3656,"is_reserved":false,"is_disabled":false,"rental_uris":{"android":"levelo://app?vid=26019605-8d80-44f1-a366-22a6865070bb","ios":"levelo://app?vid=26019605-8d80-44f1-a366-22a6865070bb"},"vehicle_type_id":"4","last_reported":1773344075,"current_range_meters":26800,"station_id":"ce4bgm92rcd13ifvqbr0","pricing_plan_id":"cebpf4jnsgd1na2vs0mg"},{"bike_id":"9df1c08b-dfab-40a0-84f3-cd51b5c0777c","system_id":"levelo_inurba_marseille","lat":43.29605,"lon":5.38101,"is_reserved":false,"is_disabled":false,"rental_uris":{"android":"levelo://app?vid=9df1c08b-dfab-40a0-84f3-cd51b5c0777c","ios":"levelo://app?vid=9df1c08b-dfab-40a0-84f3-cd51b5c0777c"},"vehicle_type_id":"4","last_reported":1773344075,"current_range_meters":32800,"station_id":"ce4bgl12rcd13ifvqbo0","pricing_plan_id":"cebpf4jnsgd1na2vs0mg"},{"bike_id":"41afa58b-a54e-42a1-b9ef-1df677d58fa7","system_id":"levelo_inurba_marseille","lat":43.29018,"lon":5.35619,"is_reserved":false,"is_disabled":true,"rental_uris":{"android":"levelo://app?vid=41afa58b-a54e-42a1-b9ef-1df677d58fa7","ios":"levelo://app?vid=41afa58b-a54e-42a1-b9ef-1df677d58fa7"},"vehicle_type_id":"4","last_reported":1773344075,"current_range_meters":400,"station_id":"ce4bhb92rcd13ifvqen0","pricing_plan_id":"cebpf4jnsgd1na2vs0mg"},{"bike_id":"6a906307-d2b9-4e79-a7aa-e4bd81817826","system_id":"levelo_inurba_marseille","lat":43.27385,"lon":5.36268,"is_reserved":false,"is_disabled":false,"rental_uris":{"android":"levelo://app?vid=6a906307-d2b9-4e79-a7aa-e4bd81817826","ios":"levelo://app?vid=6a906307-d2b9-4e79-a7aa-e4bd81817826"},"vehicle_type_id":"4","last_reported":1773344075,"current_range_meters":4000,"station_id":"ce4bhbh2rcd13ifvqeo0","pricing_plan_id":"cebpf4jnsgd1na2vs0mg"},{"bike_id":"fe90cec3-38fb-49e4-be27-7996428a3178","system_id":"levelo_inurba_marseille","lat":43.25727,"lon":5.41124,"is_reserved":false,"is_disabled":false,"rental_uris":{"android":"levelo://app?vid=fe90cec3-38fb-49e4-be27-7996428a3178","ios":"levelo://app?vid=fe90cec3-38fb-49e4-be27-7996428a3178"},"vehicle_type_id":"4","last_reported":1773344075,"current_range_meters":28800,"station_id":"ce4bhkp2rcd13ifvqgd0","pricing_plan_id":"cebpf4jnsgd1na2vs0mg"},{"bike_id":"af1fcd4a-f45f-400a-ba1f-a400a0d2f9b8","system_id":"levelo_inurba_marseille","lat":43.2861,"lon":5.35129,"is_reserved":false,"is_disabled":false,"rental_uris":{"android":"levelo://app?vid=af1fcd4a-f45f-400a-ba1f-a400a0d2f9b8","ios":"levelo://app?vid=af1fcd4a-f45f-400a-ba1f-a400a0d2f9b8"},"vehicle_type_id":"4","last_reported":1773344075,"current_range_meters":11200,"station_id":"ce4bhch2rcd13ifvqeug","pricing_plan_id":"cebpf4jnsgd1na2vs0mg"},{"bike_id":"e8edc3ab-a478-486d-b336-6b477651bdf2","system_id":"levelo_inurba_marseille","lat":43.29165,"lon":5.40222,"is_reserved":false,"is_disabled":true,"rental_uris":{"android":"levelo://app?vid=e8edc3ab-a478-486d-b336-6b477651bdf2","ios":"levelo://app?vid=e8edc3ab-a478-486d-b336-6b477651bdf2"},"vehicle_type_id":"4","last_reported":1773344075,"current_range_meters":800,"station_id":"ce4bh312rcd13ifvqdk0","pricing_plan_id":"cebpf4jnsgd1na2vs0mg"},{"bike_id":"38a78b95-febb-4708-aab5-230addf5f4d0","system_id":"levelo_inurba_marseille","lat":43.32295,"lon":5.38287,"is_reserved":false,"is_disabled":false,"rental_uris":{"android":"levelo://app?vid=38a78b95-febb-4708-aab5-230addf5f4d0","ios":"levelo://app?vid=38a78b95-febb-4708-aab5-230addf5f4d0"},"vehicle_type_id":"4","last_reported":1773344075,"current_range_meters":28000,"station_id":"ce4bhr12rcd13ifvqhqg","pricing_plan_id":"cebpf4jnsgd1na2vs0mg"},{"bike_id":"92fb41fe-7603-49ec-a816-3eeb022f29fc","system_id":"levelo_inurba_marseille","lat":43.23199,"lon":5.39994,"is_reserved":false,"is_disabled":false,"rental_uris":{"android":"levelo://app?vid=92fb41fe-7603-49ec-a816-3eeb022f29fc","ios":"levelo://app?vid=92fb41fe-7603-49ec-a816-3eeb022f29fc"},"vehicle_type_id":"4","last_reported":1773344075,"current_range_meters":24800,"station_id":"ce4bhn12rcd13ifvqgqg","pricing_plan_id":"cebpf4jnsgd1na2vs0mg"},{"bike_id":"501ac3ce-4e32-4f11-9ff0-40917641f71f","system_id":"levelo_inurba_marseille","lat":43.3297,"lon":5.39047,"is_reserved":false,"is_disabled":false,"rental_uris":{"android":"levelo://app?vid=501ac3ce-4e32-4f11-9ff0-40917641f71f","ios":"levelo://app?vid=501ac3ce-4e32-4f11-9ff0-40917641f71f"},"vehicle_type_id":"4","last_reported":1773344075,"current_range_meters":35600,"station_id":"ce4bhr92rcd13ifvqhrg","pricing_plan_id":"cebpf4jnsgd1na2vs0mg"},{"bike_id":"9faea34b-1c48-4a1b-8f51-2bafe5184a50","system_id":"levelo_inurba_marseille","lat":43.28481,"lon":5.4839,"is_reserved":false,"is_disabled":false,"rental_uris":{"android":"levelo://app?vid=9faea34b-1c48-4a1b-8f51-2bafe5184a50","ios":"levelo://app?vid=9faea34b-1c48-4a1b-8f51-2bafe5184a50"},"vehicle_type_id":"4","last_reported":1773344075,"current_range_meters":30400,"station_id":"","pricing_plan_id":"cebpf4jnsgd1na2vs0mg"},{"bike_id":"bd0135ea-2cde-4c88-9947-7d16e31861df","system_id":"levelo_inurba_marseille","lat":43.30732,"lon":5.36712,"is_reserved":false,"is_disabled":false,"rental_uris":{"android":"levelo://app?vid=bd0135ea-2cde-4c88-9947-7d16e31861df","ios":"levelo://app?vid=bd0135ea-2cde-4c88-9947-7d16e31861df"},"vehicle_type_id":"4","last_reported":1773344075,"current_range_meters":27600,"station_id":"","pricing_plan_id":"cebpf4jnsgd1na2vs0mg"},{"bike_id":"498f2051-6dbd-4b61-b8cb-4412c924c72e","system_id":"levelo_inurba_marseille","lat":43.30596,"lon":5.37185,"is_reserved":false,"is_disabled":false,"rental_uris":{"android":"levelo://app?vid=498f2051-6dbd-4b61-b8cb-4412c924c72e","ios":"levelo://app?vid=498f2051-6dbd-4b61-b8cb-4412c924c72e"},"vehicle_type_id":"4","last_reported":1773344075,"current_range_meters":11200,"station_id":"ce4bgqh2rcd13ifvqc4g","pricing_plan_id":"cebpf4jnsgd1na2vs0mg"},{"bike_id":"c943c8f2-fd97-497f-b02c-47e60712859d","system_id":"levelo_inurba_marseille","lat":43.25834,"lon":5.39428,"is_reserved":false,"is_disabled":false,"rental_uris":{"android":"levelo://app?vid=c943c8f2-fd97-497f-b02c-47e60712859d","ios":"levelo://app?vid=c943c8f2-fd97-497f-b02c-47e60712859d"},"vehicle_type_id":"4","last_reported":1773344075,"current_range_meters":22400,"station_id":"ce4bhip2rcd13ifvqft0","pricing_plan_id":"cebpf4jnsgd1na2vs0mg"},{"bike_id":"ceb13d27-9438-4e2f-842c-ab2387368224","system_id":"levelo_inurba_marseille","lat":43.30207,"lon":5.39465,"is_reserved":false,"is_disabled":false,"rental_uris":{"android":"levelo://app?vid=ceb13d27-9438-4e2f-842c-ab2387368224","ios":"levelo://app?vid=ceb13d27-9438-4e2f-842c-ab2387368224"},"vehicle_type_id":"4","last_reported":1773344075,"current_range_meters":39200,"station_id":"ce4bh0p2rcd13ifvqd70","pricing_plan_id":"cebpf4jnsgd1na2vs0mg"},{"bike_id":"b3b8ab70-7df8-419a-b148-50abba3f7898","system_id":"levelo_inurba_marseille","lat":43.29035,"lon":5.38651,"is_reserved":false,"is_disabled":false,"rental_uris":{"android":"levelo://app?vid=b3b8ab70-7df8-419a-b148-50abba3f7898","ios":"levelo://app?vid=b3b8ab70-7df8-419a-b148-50abba3f7898"},"vehicle_type_id":"4","last_reported":1773344075,"current_range_meters":4000,"station_id":"ce4bh4p2rcd13ifvqe0g","pricing_plan_id":"cebpf4jnsgd1na2vs0mg"},{"bike_id":"ef6673b2-fd93-4dcd-a504-171dc7d5968d","system_id":"levelo_inurba_marseille","lat":43.29907,"lon":5.37399,"is_reserved":false,"is_disabled":false,"rental_uris":{"android":"levelo://app?vid=ef6673b2-fd93-4dcd-a504-171dc7d5968d","ios":"levelo://app?vid=ef6673b2-fd93-4dcd-a504-171dc7d5968d"},"vehicle_type_id":"4","last_reported":1773344075,"current_range_meters":32400,"station_id":"","pricing_plan_id":"cebpf4jnsgd1na2vs0mg"},{"bike_id":"67871f80-8e5b-4eba-b9cb-18f3261ef672","system_id":"levelo_inurba_marseille","lat":43.29538,"lon":5.38548,"is_reserved":false,"is_disabled":false,"rental_uris":{"android":"levelo://app?vid=67871f80-8e5b-4eba-b9cb-18f3261ef672","ios":"levelo://app?vid=67871f80-8e5b-4eba-b9cb-18f3261ef672"},"vehicle_type_id":"4","last_reported":1773344075,"current_range_meters":27200,"station_id":"ce4bgih2rcd13ifvqba0","pricing_plan_id":"cebpf4jnsgd1na2vs0mg"},{"bike_id":"c0e778de-76d2-4d92-a7f7-3c777a27001a","system_id":"levelo_inurba_marseille","lat":43.29615,"lon":5.38153,"is_reserved":false,"is_disabled":true,"rental_uris":{"android":"levelo://app?vid=c0e778de-76d2-4d92-a7f7-3c777a27001a","ios":"levelo://app?vid=c0e778de-76d2-4d92-a7f7-3c777a27001a"},"vehicle_type_id":"4","last_reported":1773344075,"current_range_meters":16000,"station_id":"ce4bgl12rcd13ifvqbo0","pricing_plan_id":"cebpf4jnsgd1na2vs0mg"},{"bike_id":"20bf681e-dd28-42a1-94f9-defeb2767863","system_id":"levelo_inurba_marseille","lat":43.25867,"lon":5.39941,"is_reserved":false,"is_disabled":false,"rental_uris":{"android":"levelo://app?vid=20bf681e-dd28-42a1-94f9-defeb2767863","ios":"levelo://app?vid=20bf681e-dd28-42a1-94f9-defeb2767863"},"vehicle_type_id":"4","last_reported":1773344075,"current_range_meters":24800,"station_id":"ce4bhl92rcd13ifvqghg","pricing_plan_id":"cebpf4jnsgd1na2vs0mg"},{"bike_id":"6a0de880-30e4-4115-8b8d-d4225b8128fe","system_id":"levelo_inurba_marseille","lat":43.29535,"lon":5.38566,"is_reserved":false,"is_disabled":false,"rental_uris":{"android":"levelo://app?vid=6a0de880-30e4-4115-8b8d-d4225b8128fe","ios":"levelo://app?vid=6a0de880-30e4-4115-8b8d-d4225b8128fe"},"vehicle_type_id":"4","last_reported":1773344075,"current_range_meters":39200,"station_id":"ce4bgih2rcd13ifvqba0","pricing_plan_id":"cebpf4jnsgd1na2vs0mg"},{"bike_id":"47f2105c-ec17-47dd-b471-2c4fe8d7f1f4","system_id":"levelo_inurba_marseille","lat":43.2893,"lon":5.38403,"is_reserved":false,"is_disabled":false,"rental_uris":{"android":"levelo://app?vid=47f2105c-ec17-47dd-b471-2c4fe8d7f1f4","ios":"levelo://app?vid=47f2105c-ec17-47dd-b471-2c4fe8d7f1f4"},"vehicle_type_id":"4","last_reported":1773344075,"current_range_meters":30000,"station_id":"ce4bh612rcd13ifvqe6g","pricing_plan_id":"cebpf4jnsgd1na2vs0mg"},{"bike_id":"5d2f3cfd-ba6f-4926-8978-409f265a83c2","system_id":"levelo_inurba_marseille","lat":43.28856,"lon":5.35864,"is_reserved":false,"is_disabled":false,"rental_uris":{"android":"levelo://app?vid=5d2f3cfd-ba6f-4926-8978-409f265a83c2","ios":"levelo://app?vid=5d2f3cfd-ba6f-4926-8978-409f265a83c2"},"vehicle_type_id":"4","last_reported":1773344075,"current_range_meters":28800,"station_id":"ce4bhb12rcd13ifvqem0","pricing_plan_id":"cebpf4jnsgd1na2vs0mg"},{"bike_id":"0b8bfc47-9d7d-485e-bfb6-6251bec0afa1","system_id":"levelo_inurba_marseille","lat":43.28451,"lon":5.39175,"is_reserved":false,"is_disabled":false,"rental_uris":{"android":"levelo://app?vid=0b8bfc47-9d7d-485e-bfb6-6251bec0afa1","ios":"levelo://app?vid=0b8bfc47-9d7d-485e-bfb6-6251bec0afa1"},"vehicle_type_id":"4","last_reported":1773344075,"current_range_meters":24800,"station_id":"ce4bhoh2rcd13ifvqh5g","pricing_plan_id":"cebpf4jnsgd1na2vs0mg"},{"bike_id":"bac80fb0-5c37-4895-a506-d3420b4d80ce","system_id":"levelo_inurba_marseille","lat":43.30889,"lon":5.39649,"is_reserved":false,"is_disabled":false,"rental_uris":{"android":"levelo://app?vid=bac80fb0-5c37-4895-a506-d3420b4d80ce","ios":"levelo://app?vid=bac80fb0-5c37-4895-a506-d3420b4d80ce"},"vehicle_type_id":"4","last_reported":1773344075,"current_range_meters":38000,"station_id":"ce4bh012rcd13ifvqcv0","pricing_plan_id":"cebpf4jnsgd1na2vs0mg"},{"bike_id":"463c9dfb-55cb-4643-98a9-63f734d95af1","system_id":"levelo_inurba_marseille","lat":43.28535,"lon":5.4411,"is_reserved":false,"is_disabled":false,"rental_uris":{"android":"levelo://app?vid=463c9dfb-55cb-4643-98a9-63f734d95af1","ios":"levelo://app?vid=463c9dfb-55cb-4643-98a9-63f734d95af1"},"vehicle_type_id":"4","last_reported":1773344075,"current_range_meters":35200,"station_id":"st_d3j3df2ikq2c7380ej80","pricing_plan_id":"cebpf4jnsgd1na2vs0mg"},{"bike_id":"1be54c69-6d2c-4415-ba9e-c9ead353d966","system_id":"levelo_inurba_marseille","lat":43.24173,"lon":5.36417,"is_reserved":false,"is_disabled":false,"rental_uris":{"android":"levelo://app?vid=1be54c69-6d2c-4415-ba9e-c9ead353d966","ios":"levelo://app?vid=1be54c69-6d2c-4415-ba9e-c9ead353d966"},"vehicle_type_id":"4","last_reported":1773344075,"current_range_meters":28800,"station_id":"cpo36qri1sfpv3e86is0","pricing_plan_id":"cebpf4jnsgd1na2vs0mg"},{"bike_id":"c5433ff8-918f-4cd1-b9dc-eaa009d6d6f4","system_id":"levelo_inurba_marseille","lat":43.24941,"lon":5.40483,"is_reserved":false,"is_disabled":false,"rental_uris":{"android":"levelo://app?vid=c5433ff8-918f-4cd1-b9dc-eaa009d6d6f4","ios":"levelo://app?vid=c5433ff8-918f-4cd1-b9dc-eaa009d6d6f4"},"vehicle_type_id":"4","last_reported":1773344075,"current_range_meters":23200,"station_id":"st_d2ngiaodas8pm72gd1h0","pricing_plan_id":"cebpf4jnsgd1na2vs0mg"},{"bike_id":"d2ad3383-f643-4d26-b90f-617cf364e9d2","system_id":"levelo_inurba_marseille","lat":43.29247,"lon":5.38454,"is_reserved":false,"is_disabled":false,"rental_uris":{"android":"levelo://app?vid=d2ad3383-f643-4d26-b90f-617cf364e9d2","ios":"levelo://app?vid=d2ad3383-f643-4d26-b90f-617cf364e9d2"},"vehicle_type_id":"4","last_reported":1773344075,"current_range_meters":24400,"station_id":"ce4bh692rcd13ifvqea0","pricing_plan_id":"cebpf4jnsgd1na2vs0mg"},{"bike_id":"8b010353-2360-4a8a-9b76-14130d745a42","system_id":"levelo_inurba_marseille","lat":43.27826,"lon":5.40726,"is_reserved":false,"is_disabled":false,"rental_uris":{"android":"levelo://app?vid=8b010353-2360-4a8a-9b76-14130d745a42","ios":"levelo://app?vid=8b010353-2360-4a8a-9b76-14130d745a42"},"vehicle_type_id":"4","last_reported":1773344075,"current_range_meters":8400,"station_id":"ce4bhnh2rcd13ifvqgtg","pricing_plan_id":"cebpf4jnsgd1na2vs0mg"},{"bike_id":"c605b37b-886a-4955-b4ae-bb7aa84b83d6","system_id":"levelo_inurba_marseille","lat":43.30167,"lon":5.38065,"is_reserved":false,"is_disabled":false,"rental_uris":{"android":"levelo://app?vid=c605b37b-886a-4955-b4ae-bb7aa84b83d6","ios":"levelo://app?vid=c605b37b-886a-4955-b4ae-bb7aa84b83d6"},"vehicle_type_id":"4","last_reported":1773344075,"current_range_meters":25200,"station_id":"ce4bgjp2rcd13ifvqbh0","pricing_plan_id":"cebpf4jnsgd1na2vs0mg"},{"bike_id":"05d75212-fcf3-49b0-8115-8d0b3b1fe208","system_id":"levelo_inurba_marseille","lat":43.29504,"lon":5.39032,"is_reserved":false,"is_disabled":false,"rental_uris":{"android":"levelo://app?vid=05d75212-fcf3-49b0-8115-8d0b3b1fe208","ios":"levelo://app?vid=05d75212-fcf3-49b0-8115-8d0b3b1fe208"},"vehicle_type_id":"4","last_reported":1773344075,"current_range_meters":14800,"station_id":"ce4bh3p2rcd13ifvqdp0","pricing_plan_id":"cebpf4jnsgd1na2vs0mg"},{"bike_id":"e5992785-f891-4eb7-b8cf-ab9dacd9c960","system_id":"levelo_inurba_marseille","lat":43.23063,"lon":5.35492,"is_reserved":false,"is_disabled":false,"rental_uris":{"android":"levelo://app?vid=e5992785-f891-4eb7-b8cf-ab9dacd9c960","ios":"levelo://app?vid=e5992785-f891-4eb7-b8cf-ab9dacd9c960"},"vehicle_type_id":"4","last_reported":1773344075,"current_range_meters":37600,"station_id":"cpo3342slgdg3j2ifvpg","pricing_plan_id":"cebpf4jnsgd1na2vs0mg"},{"bike_id":"748502a6-ebda-492b-9758-aa3915e37546","system_id":"levelo_inurba_marseille","lat":43.30142,"lon":5.3988,"is_reserved":false,"is_disabled":false,"rental_uris":{"android":"levelo://app?vid=748502a6-ebda-492b-9758-aa3915e37546","ios":"levelo://app?vid=748502a6-ebda-492b-9758-aa3915e37546"},"vehicle_type_id":"4","last_reported":1773344075,"current_range_meters":31200,"station_id":"ce4bh0h2rcd13ifvqd40","pricing_plan_id":"cebpf4jnsgd1na2vs0mg"},{"bike_id":"d2fbe1d8-ed29-48c3-bec2-1014a298e2cb","system_id":"levelo_inurba_marseille","lat":43.26568,"lon":5.39527,"is_reserved":false,"is_disabled":false,"rental_uris":{"android":"levelo://app?vid=d2fbe1d8-ed29-48c3-bec2-1014a298e2cb","ios":"levelo://app?vid=d2fbe1d8-ed29-48c3-bec2-1014a298e2cb"},"vehicle_type_id":"4","last_reported":1773344075,"current_range_meters":39200,"station_id":"","pricing_plan_id":"cebpf4jnsgd1na2vs0mg"},{"bike_id":"c8ca76cf-c15f-4d80-8ecc-3230dd8c2ca2","system_id":"levelo_inurba_marseille","lat":43.262,"lon":5.37911,"is_reserved":false,"is_disabled":false,"rental_uris":{"android":"levelo://app?vid=c8ca76cf-c15f-4d80-8ecc-3230dd8c2ca2","ios":"levelo://app?vid=c8ca76cf-c15f-4d80-8ecc-3230dd8c2ca2"},"vehicle_type_id":"4","last_reported":1773344075,"current_range_meters":38800,"station_id":"ce4bhjp2rcd13ifvqg90","pricing_plan_id":"cebpf4jnsgd1na2vs0mg"},{"bike_id":"184b1f72-b72e-4150-b7f3-4b394e3faa9e","system_id":"levelo_inurba_marseille","lat":43.29263,"lon":5.38426,"is_reserved":false,"is_disabled":false,"rental_uris":{"android":"levelo://app?vid=184b1f72-b72e-4150-b7f3-4b394e3faa9e","ios":"levelo://app?vid=184b1f72-b72e-4150-b7f3-4b394e3faa9e"},"vehicle_type_id":"4","last_reported":1773344075,"current_range_meters":34000,"station_id":"ce4bh692rcd13ifvqea0","pricing_plan_id":"cebpf4jnsgd1na2vs0mg"},{"bike_id":"2d139dbe-4a51-46ac-bf7e-5e630dc6608b","system_id":"levelo_inurba_marseille","lat":43.30929,"lon":5.38282,"is_reserved":false,"is_disabled":false,"rental_uris":{"android":"levelo://app?vid=2d139dbe-4a51-46ac-bf7e-5e630dc6608b","ios":"levelo://app?vid=2d139dbe-4a51-46ac-bf7e-5e630dc6608b"},"vehicle_type_id":"4","last_reported":1773344075,"current_range_meters":13600,"station_id":"","pricing_plan_id":"cebpf4jnsgd1na2vs0mg"},{"bike_id":"f283c710-9bcb-4e19-8eea-6c929eb07878","system_id":"levelo_inurba_marseille","lat":43.29545,"lon":5.37518,"is_reserved":false,"is_disabled":true,"rental_uris":{"android":"levelo://app?vid=f283c710-9bcb-4e19-8eea-6c929eb07878","ios":"levelo://app?vid=f283c710-9bcb-4e19-8eea-6c929eb07878"},"vehicle_type_id":"4","last_reported":1773344075,"current_range_meters":39200,"station_id":"ce4bgkp2rcd13ifvqbmg","pricing_plan_id":"cebpf4jnsgd1na2vs0mg"},{"bike_id":"d6ffe75a-ba8c-4166-80e1-ae75c8abdf83","system_id":"levelo_inurba_marseille","lat":43.30797,"lon":5.38164,"is_reserved":false,"is_disabled":true,"rental_uris":{"android":"levelo://app?vid=d6ffe75a-ba8c-4166-80e1-ae75c8abdf83","ios":"levelo://app?vid=d6ffe75a-ba8c-4166-80e1-ae75c8abdf83"},"vehicle_type_id":"4","last_reported":1773344075,"current_range_meters":1600,"station_id":"ce4bgt12rcd13ifvqce0","pricing_plan_id":"cebpf4jnsgd1na2vs0mg"},{"bike_id":"17ce7070-d813-4eaf-a544-6259968aa271","system_id":"levelo_inurba_marseille","lat":43.31103,"lon":5.36907,"is_reserved":false,"is_disabled":false,"rental_uris":{"android":"levelo://app?vid=17ce7070-d813-4eaf-a544-6259968aa271","ios":"levelo://app?vid=17ce7070-d813-4eaf-a544-6259968aa271"},"vehicle_type_id":"4","last_reported":1773344075,"current_range_meters":4400,"station_id":"","pricing_plan_id":"cebpf4jnsgd1na2vs0mg"},{"bike_id":"bdea4757-afc1-44db-84f1-7dc81ac4fac4","system_id":"levelo_inurba_marseille","lat":43.2918,"lon":5.35806,"is_reserved":false,"is_disabled":true,"rental_uris":{"android":"levelo://app?vid=bdea4757-afc1-44db-84f1-7dc81ac4fac4","ios":"levelo://app?vid=bdea4757-afc1-44db-84f1-7dc81ac4fac4"},"vehicle_type_id":"4","last_reported":1773344075,"current_range_meters":25200,"station_id":"ce4bhb12rcd13ifvqel0","pricing_plan_id":"cebpf4jnsgd1na2vs0mg"},{"bike_id":"90efc849-458b-47c9-a27d-bbc0dc83c03b","system_id":"levelo_inurba_marseille","lat":43.26822,"lon":5.40255,"is_reserved":false,"is_disabled":false,"rental_uris":{"android":"levelo://app?vid=90efc849-458b-47c9-a27d-bbc0dc83c03b","ios":"levelo://app?vid=90efc849-458b-47c9-a27d-bbc0dc83c03b"},"vehicle_type_id":"4","last_reported":1773344075,"current_range_meters":39200,"station_id":"ce501612rcd8frsf0b60","pricing_plan_id":"cebpf4jnsgd1na2vs0mg"},{"bike_id":"b1aa2518-3461-4134-b507-7dfefce85a73","system_id":"levelo_inurba_marseille","lat":43.29544,"lon":5.38556,"is_reserved":false,"is_disabled":false,"rental_uris":{"android":"levelo://app?vid=b1aa2518-3461-4134-b507-7dfefce85a73","ios":"levelo://app?vid=b1aa2518-3461-4134-b507-7dfefce85a73"},"vehicle_type_id":"4","last_reported":1773344075,"current_range_meters":39200,"station_id":"ce4bgih2rcd13ifvqba0","pricing_plan_id":"cebpf4jnsgd1na2vs0mg"},{"bike_id":"566d1d1a-0852-4e0d-907b-e1334e0d6bf9","system_id":"levelo_inurba_marseille","lat":43.23814,"lon":5.36632,"is_reserved":false,"is_disabled":false,"rental_uris":{"android":"levelo://app?vid=566d1d1a-0852-4e0d-907b-e1334e0d6bf9","ios":"levelo://app?vid=566d1d1a-0852-4e0d-907b-e1334e0d6bf9"},"vehicle_type_id":"4","last_reported":1773344075,"current_range_meters":38400,"station_id":"st_d3nk18o9ro0c73en2l3g","pricing_plan_id":"cebpf4jnsgd1na2vs0mg"},{"bike_id":"9ae4a329-a1f5-477d-bc12-4893aa80c621","system_id":"levelo_inurba_marseille","lat":43.30336,"lon":5.40434,"is_reserved":false,"is_disabled":true,"rental_uris":{"android":"levelo://app?vid=9ae4a329-a1f5-477d-bc12-4893aa80c621","ios":"levelo://app?vid=9ae4a329-a1f5-477d-bc12-4893aa80c621"},"vehicle_type_id":"4","last_reported":1773344075,"current_range_meters":2000,"station_id":"ce4bh012rcd13ifvqd10","pricing_plan_id":"cebpf4jnsgd1na2vs0mg"},{"bike_id":"f96117d6-7d22-4b57-9564-78f617580e63","system_id":"levelo_inurba_marseille","lat":43.29212,"lon":5.35831,"is_reserved":false,"is_disabled":false,"rental_uris":{"android":"levelo://app?vid=f96117d6-7d22-4b57-9564-78f617580e63","ios":"levelo://app?vid=f96117d6-7d22-4b57-9564-78f617580e63"},"vehicle_type_id":"4","last_reported":1773344075,"current_range_meters":12400,"station_id":"ce4bhb12rcd13ifvqel0","pricing_plan_id":"cebpf4jnsgd1na2vs0mg"},{"bike_id":"3574d99f-42cd-4f45-aac1-6135db3091d5","system_id":"levelo_inurba_marseille","lat":43.28074,"lon":5.39663,"is_reserved":false,"is_disabled":false,"rental_uris":{"android":"levelo://app?vid=3574d99f-42cd-4f45-aac1-6135db3091d5","ios":"levelo://app?vid=3574d99f-42cd-4f45-aac1-6135db3091d5"},"vehicle_type_id":"4","last_reported":1773344075,"current_range_meters":29600,"station_id":"ce4bho12rcd13ifvqh2g","pricing_plan_id":"cebpf4jnsgd1na2vs0mg"},{"bike_id":"1c573354-cf53-44d3-9111-eb37080df88e","system_id":"levelo_inurba_marseille","lat":43.31591,"lon":5.37365,"is_reserved":false,"is_disabled":false,"rental_uris":{"android":"levelo://app?vid=1c573354-cf53-44d3-9111-eb37080df88e","ios":"levelo://app?vid=1c573354-cf53-44d3-9111-eb37080df88e"},"vehicle_type_id":"4","last_reported":1773344075,"current_range_meters":8800,"station_id":"","pricing_plan_id":"cebpf4jnsgd1na2vs0mg"},{"bike_id":"61658cb4-fecd-4930-90e2-92bade25636d","system_id":"levelo_inurba_marseille","lat":43.30611,"lon":5.3723,"is_reserved":false,"is_disabled":false,"rental_uris":{"android":"levelo://app?vid=61658cb4-fecd-4930-90e2-92bade25636d","ios":"levelo://app?vid=61658cb4-fecd-4930-90e2-92bade25636d"},"vehicle_type_id":"4","last_reported":1773344075,"current_range_meters":25600,"station_id":"ce4bgqh2rcd13ifvqc4g","pricing_plan_id":"cebpf4jnsgd1na2vs0mg"},{"bike_id":"9d00aad9-bef1-449b-983d-8b78aec03017","system_id":"levelo_inurba_marseille","lat":43.27213,"lon":5.39177,"is_reserved":false,"is_disabled":false,"rental_uris":{"android":"levelo://app?vid=9d00aad9-bef1-449b-983d-8b78aec03017","ios":"levelo://app?vid=9d00aad9-bef1-449b-983d-8b78aec03017"},"vehicle_type_id":"4","last_reported":1773344075,"current_range_meters":24400,"station_id":"ce4bhhp2rcd13ifvqfm0","pricing_plan_id":"cebpf4jnsgd1na2vs0mg"},{"bike_id":"89b2413d-86d8-406e-a341-8b38f5c21796","system_id":"levelo_inurba_marseille","lat":43.29918,"lon":5.38144,"is_reserved":false,"is_disabled":false,"rental_uris":{"android":"levelo://app?vid=89b2413d-86d8-406e-a341-8b38f5c21796","ios":"levelo://app?vid=89b2413d-86d8-406e-a341-8b38f5c21796"},"vehicle_type_id":"4","last_reported":1773344075,"current_range_meters":28800,"station_id":"ce4bgj12rcd13ifvqbc0","pricing_plan_id":"cebpf4jnsgd1na2vs0mg"},{"bike_id":"e65f4c14-fbb8-41a7-a61e-e6a79d1afc8e","system_id":"levelo_inurba_marseille","lat":43.27923,"lon":5.3958,"is_reserved":false,"is_disabled":false,"rental_uris":{"android":"levelo://app?vid=e65f4c14-fbb8-41a7-a61e-e6a79d1afc8e","ios":"levelo://app?vid=e65f4c14-fbb8-41a7-a61e-e6a79d1afc8e"},"vehicle_type_id":"4","last_reported":1773344075,"current_range_meters":6800,"station_id":"ce4bhf92rcd13ifvqf40","pricing_plan_id":"cebpf4jnsgd1na2vs0mg"},{"bike_id":"98a69b82-3426-4662-b314-8ddb62a05de5","system_id":"levelo_inurba_marseille","lat":43.30078,"lon":5.43717,"is_reserved":false,"is_disabled":false,"rental_uris":{"android":"levelo://app?vid=98a69b82-3426-4662-b314-8ddb62a05de5","ios":"levelo://app?vid=98a69b82-3426-4662-b314-8ddb62a05de5"},"vehicle_type_id":"4","last_reported":1773344075,"current_range_meters":11200,"station_id":"","pricing_plan_id":"cebpf4jnsgd1na2vs0mg"},{"bike_id":"a0758522-0d2e-4a8c-8a3b-9a02faec8c48","system_id":"levelo_inurba_marseille","lat":43.29882,"lon":5.39722,"is_reserved":false,"is_disabled":false,"rental_uris":{"android":"levelo://app?vid=a0758522-0d2e-4a8c-8a3b-9a02faec8c48","ios":"levelo://app?vid=a0758522-0d2e-4a8c-8a3b-9a02faec8c48"},"vehicle_type_id":"4","last_reported":1773344075,"current_range_meters":10000,"station_id":"ce4bh0h2rcd13ifvqd50","pricing_plan_id":"cebpf4jnsgd1na2vs0mg"},{"bike_id":"a5eb7e2e-f45f-42c7-8ba3-bf76c2472338","system_id":"levelo_inurba_marseille","lat":43.30207,"lon":5.39438,"is_reserved":false,"is_disabled":false,"rental_uris":{"android":"levelo://app?vid=a5eb7e2e-f45f-42c7-8ba3-bf76c2472338","ios":"levelo://app?vid=a5eb7e2e-f45f-42c7-8ba3-bf76c2472338"},"vehicle_type_id":"4","last_reported":1773344075,"current_range_meters":18000,"station_id":"ce4bh0p2rcd13ifvqd70","pricing_plan_id":"cebpf4jnsgd1na2vs0mg"},{"bike_id":"6516a7e3-f949-4aab-a60f-5e84bde99216","system_id":"levelo_inurba_marseille","lat":43.29712,"lon":5.36624,"is_reserved":false,"is_disabled":false,"rental_uris":{"android":"levelo://app?vid=6516a7e3-f949-4aab-a60f-5e84bde99216","ios":"levelo://app?vid=6516a7e3-f949-4aab-a60f-5e84bde99216"},"vehicle_type_id":"4","last_reported":1773344075,"current_range_meters":38000,"station_id":"ce4bgn12rcd13ifvqbt0","pricing_plan_id":"cebpf4jnsgd1na2vs0mg"},{"bike_id":"950bab55-74a0-4c68-94d8-f7bcf82fb789","system_id":"levelo_inurba_marseille","lat":43.27831,"lon":5.40717,"is_reserved":false,"is_disabled":false,"rental_uris":{"android":"levelo://app?vid=950bab55-74a0-4c68-94d8-f7bcf82fb789","ios":"levelo://app?vid=950bab55-74a0-4c68-94d8-f7bcf82fb789"},"vehicle_type_id":"4","last_reported":1773344075,"current_range_meters":28800,"station_id":"ce4bhnh2rcd13ifvqgtg","pricing_plan_id":"cebpf4jnsgd1na2vs0mg"},{"bike_id":"c2f40725-1ed9-4d1d-87ac-56a67ffd2ae7","system_id":"levelo_inurba_marseille","lat":43.26062,"lon":5.39395,"is_reserved":false,"is_disabled":false,"rental_uris":{"android":"levelo://app?vid=c2f40725-1ed9-4d1d-87ac-56a67ffd2ae7","ios":"levelo://app?vid=c2f40725-1ed9-4d1d-87ac-56a67ffd2ae7"},"vehicle_type_id":"4","last_reported":1773344075,"current_range_meters":16400,"station_id":"ce4bhh92rcd13ifvqfj0","pricing_plan_id":"cebpf4jnsgd1na2vs0mg"},{"bike_id":"6d1a4920-8e11-4bfa-8529-40727e99424c","system_id":"levelo_inurba_marseille","lat":43.27957,"lon":5.38738,"is_reserved":false,"is_disabled":false,"rental_uris":{"android":"levelo://app?vid=6d1a4920-8e11-4bfa-8529-40727e99424c","ios":"levelo://app?vid=6d1a4920-8e11-4bfa-8529-40727e99424c"},"vehicle_type_id":"4","last_reported":1773344075,"current_range_meters":18800,"station_id":"ce4bhg12rcd13ifvqf80","pricing_plan_id":"cebpf4jnsgd1na2vs0mg"},{"bike_id":"05fa37af-0792-4d18-b58b-4668400518b4","system_id":"levelo_inurba_marseille","lat":43.24089,"lon":5.37763,"is_reserved":false,"is_disabled":false,"rental_uris":{"android":"levelo://app?vid=05fa37af-0792-4d18-b58b-4668400518b4","ios":"levelo://app?vid=05fa37af-0792-4d18-b58b-4668400518b4"},"vehicle_type_id":"4","last_reported":1773344075,"current_range_meters":32400,"station_id":"ce4bhnp2rcd13ifvqgvg","pricing_plan_id":"cebpf4jnsgd1na2vs0mg"},{"bike_id":"91fd971a-e95c-4480-bf20-ce7812403500","system_id":"levelo_inurba_marseille","lat":43.27058,"lon":5.38305,"is_reserved":false,"is_disabled":false,"rental_uris":{"android":"levelo://app?vid=91fd971a-e95c-4480-bf20-ce7812403500","ios":"levelo://app?vid=91fd971a-e95c-4480-bf20-ce7812403500"},"vehicle_type_id":"4","last_reported":1773344075,"current_range_meters":16800,"station_id":"st_d3n2fo6cfp8s73cte1j0","pricing_plan_id":"cebpf4jnsgd1na2vs0mg"},{"bike_id":"7711e5f1-6e58-4a75-82b2-020c6ee655ef","system_id":"levelo_inurba_marseille","lat":43.306,"lon":5.39345,"is_reserved":false,"is_disabled":false,"rental_uris":{"android":"levelo://app?vid=7711e5f1-6e58-4a75-82b2-020c6ee655ef","ios":"levelo://app?vid=7711e5f1-6e58-4a75-82b2-020c6ee655ef"},"vehicle_type_id":"4","last_reported":1773344075,"current_range_meters":30000,"station_id":"ce4bh0p2rcd13ifvqd80","pricing_plan_id":"cebpf4jnsgd1na2vs0mg"},{"bike_id":"58050a15-c5ad-4992-9d53-ca68c740d72b","system_id":"levelo_inurba_marseille","lat":43.30311,"lon":5.39202,"is_reserved":false,"is_disabled":true,"rental_uris":{"android":"levelo://app?vid=58050a15-c5ad-4992-9d53-ca68c740d72b","ios":"levelo://app?vid=58050a15-c5ad-4992-9d53-ca68c740d72b"},"vehicle_type_id":"4","last_reported":1773344075,"current_range_meters":20800,"station_id":"ce4bgkh2rcd13ifvqbk0","pricing_plan_id":"cebpf4jnsgd1na2vs0mg"},{"bike_id":"988db3b8-861f-418c-a7ec-7ae78131696e","system_id":"levelo_inurba_marseille","lat":43.24678,"lon":5.43354,"is_reserved":false,"is_disabled":false,"rental_uris":{"android":"levelo://app?vid=988db3b8-861f-418c-a7ec-7ae78131696e","ios":"levelo://app?vid=988db3b8-861f-418c-a7ec-7ae78131696e"},"vehicle_type_id":"4","last_reported":1773344075,"current_range_meters":25200,"station_id":"","pricing_plan_id":"cebpf4jnsgd1na2vs0mg"},{"bike_id":"b61cadaf-492c-4a7f-9edc-04379d033dbf","system_id":"levelo_inurba_marseille","lat":43.29822,"lon":5.38102,"is_reserved":false,"is_disabled":false,"rental_uris":{"android":"levelo://app?vid=b61cadaf-492c-4a7f-9edc-04379d033dbf","ios":"levelo://app?vid=b61cadaf-492c-4a7f-9edc-04379d033dbf"},"vehicle_type_id":"4","last_reported":1773344075,"current_range_meters":39200,"station_id":"ce4bgip2rcd13ifvqbb0","pricing_plan_id":"cebpf4jnsgd1na2vs0mg"},{"bike_id":"dd854777-f378-4132-94e6-63027cc18b82","system_id":"levelo_inurba_marseille","lat":43.29727,"lon":5.41059,"is_reserved":false,"is_disabled":false,"rental_uris":{"android":"levelo://app?vid=dd854777-f378-4132-94e6-63027cc18b82","ios":"levelo://app?vid=dd854777-f378-4132-94e6-63027cc18b82"},"vehicle_type_id":"4","last_reported":1773344075,"current_range_meters":23200,"station_id":"","pricing_plan_id":"cebpf4jnsgd1na2vs0mg"},{"bike_id":"8834cff0-6eb6-47a0-89df-f92f2d188784","system_id":"levelo_inurba_marseille","lat":43.29633,"lon":5.38786,"is_reserved":false,"is_disabled":false,"rental_uris":{"android":"levelo://app?vid=8834cff0-6eb6-47a0-89df-f92f2d188784","ios":"levelo://app?vid=8834cff0-6eb6-47a0-89df-f92f2d188784"},"vehicle_type_id":"4","last_reported":1773344075,"current_range_meters":27200,"station_id":"","pricing_plan_id":"cebpf4jnsgd1na2vs0mg"},{"bike_id":"35a82536-c165-4433-a2e7-59ec0df78006","system_id":"levelo_inurba_marseille","lat":43.32374,"lon":5.38868,"is_reserved":false,"is_disabled":false,"rental_uris":{"android":"levelo://app?vid=35a82536-c165-4433-a2e7-59ec0df78006","ios":"levelo://app?vid=35a82536-c165-4433-a2e7-59ec0df78006"},"vehicle_type_id":"4","last_reported":1773344075,"current_range_meters":3600,"station_id":"ce4bhqp2rcd13ifvqhog","pricing_plan_id":"cebpf4jnsgd1na2vs0mg"},{"bike_id":"85b5b118-e47b-4adc-aa0c-e9bbc2d708e9","system_id":"levelo_inurba_marseille","lat":43.27402,"lon":5.42483,"is_reserved":false,"is_disabled":false,"rental_uris":{"android":"levelo://app?vid=85b5b118-e47b-4adc-aa0c-e9bbc2d708e9","ios":"levelo://app?vid=85b5b118-e47b-4adc-aa0c-e9bbc2d708e9"},"vehicle_type_id":"4","last_reported":1773344075,"current_range_meters":17200,"station_id":"","pricing_plan_id":"cebpf4jnsgd1na2vs0mg"},{"bike_id":"2bfad22e-a84d-4ec7-8c60-301b2abafffe","system_id":"levelo_inurba_marseille","lat":43.30924,"lon":5.36857,"is_reserved":false,"is_disabled":false,"rental_uris":{"android":"levelo://app?vid=2bfad22e-a84d-4ec7-8c60-301b2abafffe","ios":"levelo://app?vid=2bfad22e-a84d-4ec7-8c60-301b2abafffe"},"vehicle_type_id":"4","last_reported":1773344075,"current_range_meters":14800,"station_id":"ce4bgn92rcd13ifvqbvg","pricing_plan_id":"cebpf4jnsgd1na2vs0mg"},{"bike_id":"532f1fe9-6384-4056-88f3-ddfdd084688a","system_id":"levelo_inurba_marseille","lat":43.28979,"lon":5.42582,"is_reserved":false,"is_disabled":false,"rental_uris":{"android":"levelo://app?vid=532f1fe9-6384-4056-88f3-ddfdd084688a","ios":"levelo://app?vid=532f1fe9-6384-4056-88f3-ddfdd084688a"},"vehicle_type_id":"4","last_reported":1773344075,"current_range_meters":29600,"station_id":"","pricing_plan_id":"cebpf4jnsgd1na2vs0mg"},{"bike_id":"08506998-8ae7-4962-89f3-6ccd37448f52","system_id":"levelo_inurba_marseille","lat":43.29306,"lon":5.36842,"is_reserved":false,"is_disabled":false,"rental_uris":{"android":"levelo://app?vid=08506998-8ae7-4962-89f3-6ccd37448f52","ios":"levelo://app?vid=08506998-8ae7-4962-89f3-6ccd37448f52"},"vehicle_type_id":"4","last_reported":1773344075,"current_range_meters":9200,"station_id":"ce4bhbp2rcd13ifvqesg","pricing_plan_id":"cebpf4jnsgd1na2vs0mg"},{"bike_id":"bd108c0a-2aa4-4697-8083-b96a642b271a","system_id":"levelo_inurba_marseille","lat":43.28371,"lon":5.38118,"is_reserved":false,"is_disabled":false,"rental_uris":{"android":"levelo://app?vid=bd108c0a-2aa4-4697-8083-b96a642b271a","ios":"levelo://app?vid=bd108c0a-2aa4-4697-8083-b96a642b271a"},"vehicle_type_id":"4","last_reported":1773344075,"current_range_meters":19200,"station_id":"ce4bh412rcd13ifvqdr0","pricing_plan_id":"cebpf4jnsgd1na2vs0mg"},{"bike_id":"452441a4-fd17-4cb2-8173-05348912ffe5","system_id":"levelo_inurba_marseille","lat":43.25506,"lon":5.37633,"is_reserved":false,"is_disabled":false,"rental_uris":{"android":"levelo://app?vid=452441a4-fd17-4cb2-8173-05348912ffe5","ios":"levelo://app?vid=452441a4-fd17-4cb2-8173-05348912ffe5"},"vehicle_type_id":"4","last_reported":1773344075,"current_range_meters":39200,"station_id":"ce4bhh12rcd13ifvqff0","pricing_plan_id":"cebpf4jnsgd1na2vs0mg"},{"bike_id":"714b8057-ec12-4240-acd3-7f97fc6b2ebc","system_id":"levelo_inurba_marseille","lat":43.2979,"lon":5.3712,"is_reserved":false,"is_disabled":false,"rental_uris":{"android":"levelo://app?vid=714b8057-ec12-4240-acd3-7f97fc6b2ebc","ios":"levelo://app?vid=714b8057-ec12-4240-acd3-7f97fc6b2ebc"},"vehicle_type_id":"4","last_reported":1773344075,"current_range_meters":15200,"station_id":"ce4bgop2rcd13ifvqc1g","pricing_plan_id":"cebpf4jnsgd1na2vs0mg"},{"bike_id":"937425a6-6b1f-4d7a-a720-58bd8c05238c","system_id":"levelo_inurba_marseille","lat":43.29381,"lon":5.37931,"is_reserved":false,"is_disabled":false,"rental_uris":{"android":"levelo://app?vid=937425a6-6b1f-4d7a-a720-58bd8c05238c","ios":"levelo://app?vid=937425a6-6b1f-4d7a-a720-58bd8c05238c"},"vehicle_type_id":"4","last_reported":1773344075,"current_range_meters":34800,"station_id":"","pricing_plan_id":"cebpf4jnsgd1na2vs0mg"},{"bike_id":"64987c27-f305-4d9c-82ad-26bef65383d9","system_id":"levelo_inurba_marseille","lat":43.27996,"lon":5.41691,"is_reserved":false,"is_disabled":false,"rental_uris":{"android":"levelo://app?vid=64987c27-f305-4d9c-82ad-26bef65383d9","ios":"levelo://app?vid=64987c27-f305-4d9c-82ad-26bef65383d9"},"vehicle_type_id":"4","last_reported":1773344075,"current_range_meters":12000,"station_id":"ce4bho12rcd13ifvqh1g","pricing_plan_id":"cebpf4jnsgd1na2vs0mg"},{"bike_id":"c36f0fb4-eb1a-431d-894d-6ece6d202dcc","system_id":"levelo_inurba_marseille","lat":43.31266,"lon":5.40149,"is_reserved":false,"is_disabled":false,"rental_uris":{"android":"levelo://app?vid=c36f0fb4-eb1a-431d-894d-6ece6d202dcc","ios":"levelo://app?vid=c36f0fb4-eb1a-431d-894d-6ece6d202dcc"},"vehicle_type_id":"4","last_reported":1773344075,"current_range_meters":32400,"station_id":"ce4bh092rcd13ifvqd30","pricing_plan_id":"cebpf4jnsgd1na2vs0mg"},{"bike_id":"b94c3b6d-7912-4bb7-bd16-b874ff101a3d","system_id":"levelo_inurba_marseille","lat":43.24783,"lon":5.37414,"is_reserved":false,"is_disabled":false,"rental_uris":{"android":"levelo://app?vid=b94c3b6d-7912-4bb7-bd16-b874ff101a3d","ios":"levelo://app?vid=b94c3b6d-7912-4bb7-bd16-b874ff101a3d"},"vehicle_type_id":"4","last_reported":1773344075,"current_range_meters":25200,"station_id":"ce4bhgh2rcd13ifvqfb0","pricing_plan_id":"cebpf4jnsgd1na2vs0mg"},{"bike_id":"54afb379-a9b4-4af3-8a9e-239b9433228c","system_id":"levelo_inurba_marseille","lat":43.29909,"lon":5.43656,"is_reserved":false,"is_disabled":false,"rental_uris":{"android":"levelo://app?vid=54afb379-a9b4-4af3-8a9e-239b9433228c","ios":"levelo://app?vid=54afb379-a9b4-4af3-8a9e-239b9433228c"},"vehicle_type_id":"4","last_reported":1773344075,"current_range_meters":28000,"station_id":"ce4bhpp2rcd13ifvqhfg","pricing_plan_id":"cebpf4jnsgd1na2vs0mg"},{"bike_id":"1866c223-50ab-4283-b8a6-28a247e511e9","system_id":"levelo_inurba_marseille","lat":43.33142,"lon":5.36509,"is_reserved":false,"is_disabled":false,"rental_uris":{"android":"levelo://app?vid=1866c223-50ab-4283-b8a6-28a247e511e9","ios":"levelo://app?vid=1866c223-50ab-4283-b8a6-28a247e511e9"},"vehicle_type_id":"4","last_reported":1773344075,"current_range_meters":38400,"station_id":"","pricing_plan_id":"cebpf4jnsgd1na2vs0mg"},{"bike_id":"54a39cfc-a5ce-4979-aed5-b71f4c6e4857","system_id":"levelo_inurba_marseille","lat":43.290321,"lon":5.38644,"is_reserved":false,"is_disabled":false,"rental_uris":{"android":"levelo://app?vid=54a39cfc-a5ce-4979-aed5-b71f4c6e4857","ios":"levelo://app?vid=54a39cfc-a5ce-4979-aed5-b71f4c6e4857"},"vehicle_type_id":"4","last_reported":1773344075,"current_range_meters":2800,"station_id":"ce4bh4p2rcd13ifvqe0g","pricing_plan_id":"cebpf4jnsgd1na2vs0mg"},{"bike_id":"c23cfd0f-841e-4311-970a-ae86c511637e","system_id":"levelo_inurba_marseille","lat":43.255726,"lon":5.382258,"is_reserved":false,"is_disabled":true,"rental_uris":{"android":"levelo://app?vid=c23cfd0f-841e-4311-970a-ae86c511637e","ios":"levelo://app?vid=c23cfd0f-841e-4311-970a-ae86c511637e"},"vehicle_type_id":"4","last_reported":1773344075,"current_range_meters":1200,"station_id":"ce4bhih2rcd13ifvqfs0","pricing_plan_id":"cebpf4jnsgd1na2vs0mg"},{"bike_id":"5185e339-c4db-4c65-9c9f-eb7551b39a75","system_id":"levelo_inurba_marseille","lat":43.29219,"lon":5.384,"is_reserved":false,"is_disabled":false,"rental_uris":{"android":"levelo://app?vid=5185e339-c4db-4c65-9c9f-eb7551b39a75","ios":"levelo://app?vid=5185e339-c4db-4c65-9c9f-eb7551b39a75"},"vehicle_type_id":"4","last_reported":1773344075,"current_range_meters":3600,"station_id":"","pricing_plan_id":"cebpf4jnsgd1na2vs0mg"},{"bike_id":"e417d315-99dc-461c-a5de-62ff41a2225e","system_id":"levelo_inurba_marseille","lat":43.28666,"lon":5.3635,"is_reserved":false,"is_disabled":false,"rental_uris":{"android":"levelo://app?vid=e417d315-99dc-461c-a5de-62ff41a2225e","ios":"levelo://app?vid=e417d315-99dc-461c-a5de-62ff41a2225e"},"vehicle_type_id":"4","last_reported":1773344075,"current_range_meters":28800,"station_id":"ce4bhah2rcd13ifvqej0","pricing_plan_id":"cebpf4jnsgd1na2vs0mg"},{"bike_id":"74cb2b6f-9305-47f1-bb68-6c880d035389","system_id":"levelo_inurba_marseille","lat":43.29636,"lon":5.37138,"is_reserved":false,"is_disabled":false,"rental_uris":{"android":"levelo://app?vid=74cb2b6f-9305-47f1-bb68-6c880d035389","ios":"levelo://app?vid=74cb2b6f-9305-47f1-bb68-6c880d035389"},"vehicle_type_id":"4","last_reported":1773344075,"current_range_meters":39200,"station_id":"ce4bgnh2rcd13ifvqc0g","pricing_plan_id":"cebpf4jnsgd1na2vs0mg"},{"bike_id":"58622676-75ce-48ef-b32a-ec505bb9dd92","system_id":"levelo_inurba_marseille","lat":43.31374,"lon":5.3853,"is_reserved":false,"is_disabled":false,"rental_uris":{"android":"levelo://app?vid=58622676-75ce-48ef-b32a-ec505bb9dd92","ios":"levelo://app?vid=58622676-75ce-48ef-b32a-ec505bb9dd92"},"vehicle_type_id":"4","last_reported":1773344075,"current_range_meters":33600,"station_id":"ce4bgt92rcd13ifvqcf0","pricing_plan_id":"cebpf4jnsgd1na2vs0mg"},{"bike_id":"85027943-df55-416f-9da1-ea4ca84b0bd0","system_id":"levelo_inurba_marseille","lat":43.29177,"lon":5.37157,"is_reserved":false,"is_disabled":false,"rental_uris":{"android":"levelo://app?vid=85027943-df55-416f-9da1-ea4ca84b0bd0","ios":"levelo://app?vid=85027943-df55-416f-9da1-ea4ca84b0bd0"},"vehicle_type_id":"4","last_reported":1773344075,"current_range_meters":35600,"station_id":"ce4bha92rcd13ifvqeh0","pricing_plan_id":"cebpf4jnsgd1na2vs0mg"},{"bike_id":"d0eebcb7-9745-4c49-a9e4-a6e32a030f1c","system_id":"levelo_inurba_marseille","lat":43.25574,"lon":5.38245,"is_reserved":false,"is_disabled":false,"rental_uris":{"android":"levelo://app?vid=d0eebcb7-9745-4c49-a9e4-a6e32a030f1c","ios":"levelo://app?vid=d0eebcb7-9745-4c49-a9e4-a6e32a030f1c"},"vehicle_type_id":"4","last_reported":1773344075,"current_range_meters":30000,"station_id":"ce4bhih2rcd13ifvqfs0","pricing_plan_id":"cebpf4jnsgd1na2vs0mg"},{"bike_id":"d2bcd2b3-b9c0-44b8-b65e-328220c5307e","system_id":"levelo_inurba_marseille","lat":43.29116,"lon":5.43276,"is_reserved":false,"is_disabled":false,"rental_uris":{"android":"levelo://app?vid=d2bcd2b3-b9c0-44b8-b65e-328220c5307e","ios":"levelo://app?vid=d2bcd2b3-b9c0-44b8-b65e-328220c5307e"},"vehicle_type_id":"4","last_reported":1773344075,"current_range_meters":38800,"station_id":"","pricing_plan_id":"cebpf4jnsgd1na2vs0mg"},{"bike_id":"801e310e-d83e-452a-827b-f0f43a0c1cca","system_id":"levelo_inurba_marseille","lat":43.2816,"lon":5.42667,"is_reserved":false,"is_disabled":false,"rental_uris":{"android":"levelo://app?vid=801e310e-d83e-452a-827b-f0f43a0c1cca","ios":"levelo://app?vid=801e310e-d83e-452a-827b-f0f43a0c1cca"},"vehicle_type_id":"4","last_reported":1773344075,"current_range_meters":23200,"station_id":"ce4bhnh2rcd13ifvqgug","pricing_plan_id":"cebpf4jnsgd1na2vs0mg"},{"bike_id":"a50db47c-b4f2-4a58-ae7d-0a4f7384612e","system_id":"levelo_inurba_marseille","lat":43.29912,"lon":5.3759,"is_reserved":false,"is_disabled":false,"rental_uris":{"android":"levelo://app?vid=a50db47c-b4f2-4a58-ae7d-0a4f7384612e","ios":"levelo://app?vid=a50db47c-b4f2-4a58-ae7d-0a4f7384612e"},"vehicle_type_id":"4","last_reported":1773344075,"current_range_meters":31200,"station_id":"","pricing_plan_id":"cebpf4jnsgd1na2vs0mg"},{"bike_id":"896440e6-cef8-4268-bb86-ac2c6e2de747","system_id":"levelo_inurba_marseille","lat":43.28476,"lon":5.48404,"is_reserved":false,"is_disabled":false,"rental_uris":{"android":"levelo://app?vid=896440e6-cef8-4268-bb86-ac2c6e2de747","ios":"levelo://app?vid=896440e6-cef8-4268-bb86-ac2c6e2de747"},"vehicle_type_id":"4","last_reported":1773344075,"current_range_meters":28800,"station_id":"","pricing_plan_id":"cebpf4jnsgd1na2vs0mg"},{"bike_id":"85926095-37c9-42c9-b424-84364cf9a0a9","system_id":"levelo_inurba_marseille","lat":43.28864,"lon":5.35887,"is_reserved":false,"is_disabled":true,"rental_uris":{"android":"levelo://app?vid=85926095-37c9-42c9-b424-84364cf9a0a9","ios":"levelo://app?vid=85926095-37c9-42c9-b424-84364cf9a0a9"},"vehicle_type_id":"4","last_reported":1773344075,"current_range_meters":1600,"station_id":"ce4bhb12rcd13ifvqem0","pricing_plan_id":"cebpf4jnsgd1na2vs0mg"},{"bike_id":"f638d4e1-d21e-4a82-9602-77dd36bc6d43","system_id":"levelo_inurba_marseille","lat":43.28348,"lon":5.38108,"is_reserved":false,"is_disabled":false,"rental_uris":{"android":"levelo://app?vid=f638d4e1-d21e-4a82-9602-77dd36bc6d43","ios":"levelo://app?vid=f638d4e1-d21e-4a82-9602-77dd36bc6d43"},"vehicle_type_id":"4","last_reported":1773344075,"current_range_meters":14800,"station_id":"ce4bh412rcd13ifvqdr0","pricing_plan_id":"cebpf4jnsgd1na2vs0mg"},{"bike_id":"2c1215f2-9624-4e50-bbbb-a53264cdd31e","system_id":"levelo_inurba_marseille","lat":43.28466,"lon":5.48397,"is_reserved":false,"is_disabled":false,"rental_uris":{"android":"levelo://app?vid=2c1215f2-9624-4e50-bbbb-a53264cdd31e","ios":"levelo://app?vid=2c1215f2-9624-4e50-bbbb-a53264cdd31e"},"vehicle_type_id":"4","last_reported":1773344075,"current_range_meters":16000,"station_id":"","pricing_plan_id":"cebpf4jnsgd1na2vs0mg"},{"bike_id":"42543f2f-ab9f-4a97-bb0c-8022b09f2d50","system_id":"levelo_inurba_marseille","lat":43.30596,"lon":5.3721,"is_reserved":false,"is_disabled":false,"rental_uris":{"android":"levelo://app?vid=42543f2f-ab9f-4a97-bb0c-8022b09f2d50","ios":"levelo://app?vid=42543f2f-ab9f-4a97-bb0c-8022b09f2d50"},"vehicle_type_id":"4","last_reported":1773344075,"current_range_meters":38800,"station_id":"ce4bgqh2rcd13ifvqc4g","pricing_plan_id":"cebpf4jnsgd1na2vs0mg"},{"bike_id":"c1db54c2-038e-4f3d-a503-c0e3fc6c96ed","system_id":"levelo_inurba_marseille","lat":43.33557,"lon":5.37454,"is_reserved":false,"is_disabled":false,"rental_uris":{"android":"levelo://app?vid=c1db54c2-038e-4f3d-a503-c0e3fc6c96ed","ios":"levelo://app?vid=c1db54c2-038e-4f3d-a503-c0e3fc6c96ed"},"vehicle_type_id":"4","last_reported":1773344075,"current_range_meters":14400,"station_id":"st_d46tts09ee8s73dlu43g","pricing_plan_id":"cebpf4jnsgd1na2vs0mg"},{"bike_id":"a0ab89fd-d4e3-4039-8377-577b0acf001d","system_id":"levelo_inurba_marseille","lat":43.2437,"lon":5.44105,"is_reserved":false,"is_disabled":true,"rental_uris":{"android":"levelo://app?vid=a0ab89fd-d4e3-4039-8377-577b0acf001d","ios":"levelo://app?vid=a0ab89fd-d4e3-4039-8377-577b0acf001d"},"vehicle_type_id":"4","last_reported":1773344075,"current_range_meters":8000,"station_id":"","pricing_plan_id":"cebpf4jnsgd1na2vs0mg"},{"bike_id":"a5f0fcf2-4428-466f-8d7e-9ffbba7bbbc4","system_id":"levelo_inurba_marseille","lat":43.29907,"lon":5.39754,"is_reserved":false,"is_disabled":false,"rental_uris":{"android":"levelo://app?vid=a5f0fcf2-4428-466f-8d7e-9ffbba7bbbc4","ios":"levelo://app?vid=a5f0fcf2-4428-466f-8d7e-9ffbba7bbbc4"},"vehicle_type_id":"4","last_reported":1773344075,"current_range_meters":16800,"station_id":"","pricing_plan_id":"cebpf4jnsgd1na2vs0mg"},{"bike_id":"7c132abc-3b28-430b-b4a9-1271fa7ea0c7","system_id":"levelo_inurba_marseille","lat":43.29804,"lon":5.4041,"is_reserved":false,"is_disabled":false,"rental_uris":{"android":"levelo://app?vid=7c132abc-3b28-430b-b4a9-1271fa7ea0c7","ios":"levelo://app?vid=7c132abc-3b28-430b-b4a9-1271fa7ea0c7"},"vehicle_type_id":"4","last_reported":1773344075,"current_range_meters":33600,"station_id":"ce4bh112rcd13ifvqd90","pricing_plan_id":"cebpf4jnsgd1na2vs0mg"},{"bike_id":"074abf32-ac3f-4657-8880-be02438a7ff0","system_id":"levelo_inurba_marseille","lat":43.23188,"lon":5.39977,"is_reserved":false,"is_disabled":false,"rental_uris":{"android":"levelo://app?vid=074abf32-ac3f-4657-8880-be02438a7ff0","ios":"levelo://app?vid=074abf32-ac3f-4657-8880-be02438a7ff0"},"vehicle_type_id":"4","last_reported":1773344075,"current_range_meters":40000,"station_id":"ce4bhn12rcd13ifvqgqg","pricing_plan_id":"cebpf4jnsgd1na2vs0mg"},{"bike_id":"e8b7d766-9ece-4870-a1b8-5b316a1b8e67","system_id":"levelo_inurba_marseille","lat":43.22557,"lon":5.41649,"is_reserved":false,"is_disabled":false,"rental_uris":{"android":"levelo://app?vid=e8b7d766-9ece-4870-a1b8-5b316a1b8e67","ios":"levelo://app?vid=e8b7d766-9ece-4870-a1b8-5b316a1b8e67"},"vehicle_type_id":"4","last_reported":1773344075,"current_range_meters":13600,"station_id":"st_d2o4gvlbi1j2169b742g","pricing_plan_id":"cebpf4jnsgd1na2vs0mg"},{"bike_id":"d6e33741-be01-4184-a659-f0a031ff17ef","system_id":"levelo_inurba_marseille","lat":43.28225,"lon":5.39048,"is_reserved":false,"is_disabled":true,"rental_uris":{"android":"levelo://app?vid=d6e33741-be01-4184-a659-f0a031ff17ef","ios":"levelo://app?vid=d6e33741-be01-4184-a659-f0a031ff17ef"},"vehicle_type_id":"4","last_reported":1773344075,"current_range_meters":38000,"station_id":"ce4bhn92rcd13ifvqgsg","pricing_plan_id":"cebpf4jnsgd1na2vs0mg"},{"bike_id":"7829957c-d6d0-4e67-9596-f2c0eb93d3a3","system_id":"levelo_inurba_marseille","lat":43.24641,"lon":5.38915,"is_reserved":false,"is_disabled":false,"rental_uris":{"android":"levelo://app?vid=7829957c-d6d0-4e67-9596-f2c0eb93d3a3","ios":"levelo://app?vid=7829957c-d6d0-4e67-9596-f2c0eb93d3a3"},"vehicle_type_id":"4","last_reported":1773344075,"current_range_meters":16000,"station_id":"ce4bhg12rcd13ifvqf60","pricing_plan_id":"cebpf4jnsgd1na2vs0mg"},{"bike_id":"9e204256-2c9a-4574-8b2c-581758c6488d","system_id":"levelo_inurba_marseille","lat":43.27077,"lon":5.42287,"is_reserved":false,"is_disabled":false,"rental_uris":{"android":"levelo://app?vid=9e204256-2c9a-4574-8b2c-581758c6488d","ios":"levelo://app?vid=9e204256-2c9a-4574-8b2c-581758c6488d"},"vehicle_type_id":"4","last_reported":1773344075,"current_range_meters":14000,"station_id":"ce4bhk92rcd13ifvqgb0","pricing_plan_id":"cebpf4jnsgd1na2vs0mg"},{"bike_id":"e50c6797-fb66-441b-97d0-c7fbbc3eb9c6","system_id":"levelo_inurba_marseille","lat":43.31737,"lon":5.4372,"is_reserved":false,"is_disabled":false,"rental_uris":{"android":"levelo://app?vid=e50c6797-fb66-441b-97d0-c7fbbc3eb9c6","ios":"levelo://app?vid=e50c6797-fb66-441b-97d0-c7fbbc3eb9c6"},"vehicle_type_id":"4","last_reported":1773344075,"current_range_meters":25200,"station_id":"ce4bhp92rcd13ifvqhcg","pricing_plan_id":"cebpf4jnsgd1na2vs0mg"},{"bike_id":"e1a567ea-8ddb-4718-be58-0ee3ac742fe9","system_id":"levelo_inurba_marseille","lat":43.31128,"lon":5.37796,"is_reserved":false,"is_disabled":false,"rental_uris":{"android":"levelo://app?vid=e1a567ea-8ddb-4718-be58-0ee3ac742fe9","ios":"levelo://app?vid=e1a567ea-8ddb-4718-be58-0ee3ac742fe9"},"vehicle_type_id":"4","last_reported":1773344075,"current_range_meters":28800,"station_id":"ce4bgt92rcd13ifvqcg0","pricing_plan_id":"cebpf4jnsgd1na2vs0mg"},{"bike_id":"95d1c9fd-c8e2-46c4-a894-cc37cf1e2a5f","system_id":"levelo_inurba_marseille","lat":43.30805,"lon":5.38155,"is_reserved":false,"is_disabled":false,"rental_uris":{"android":"levelo://app?vid=95d1c9fd-c8e2-46c4-a894-cc37cf1e2a5f","ios":"levelo://app?vid=95d1c9fd-c8e2-46c4-a894-cc37cf1e2a5f"},"vehicle_type_id":"4","last_reported":1773344075,"current_range_meters":10800,"station_id":"ce4bgt12rcd13ifvqce0","pricing_plan_id":"cebpf4jnsgd1na2vs0mg"},{"bike_id":"6f0a3cc3-6813-4500-a3c6-047f7386dff2","system_id":"levelo_inurba_marseille","lat":43.27169,"lon":5.40976,"is_reserved":false,"is_disabled":false,"rental_uris":{"android":"levelo://app?vid=6f0a3cc3-6813-4500-a3c6-047f7386dff2","ios":"levelo://app?vid=6f0a3cc3-6813-4500-a3c6-047f7386dff2"},"vehicle_type_id":"4","last_reported":1773344075,"current_range_meters":40000,"station_id":"ce4bhl12rcd13ifvqgf0","pricing_plan_id":"cebpf4jnsgd1na2vs0mg"},{"bike_id":"c733e625-3f7d-4ad3-808c-449678229a3f","system_id":"levelo_inurba_marseille","lat":43.29265,"lon":5.38449,"is_reserved":false,"is_disabled":false,"rental_uris":{"android":"levelo://app?vid=c733e625-3f7d-4ad3-808c-449678229a3f","ios":"levelo://app?vid=c733e625-3f7d-4ad3-808c-449678229a3f"},"vehicle_type_id":"4","last_reported":1773344075,"current_range_meters":38800,"station_id":"ce4bh692rcd13ifvqea0","pricing_plan_id":"cebpf4jnsgd1na2vs0mg"},{"bike_id":"7c5d90d1-8ba7-4d11-a859-9263fa5d367b","system_id":"levelo_inurba_marseille","lat":43.337444,"lon":5.374475,"is_reserved":false,"is_disabled":true,"rental_uris":{"android":"levelo://app?vid=7c5d90d1-8ba7-4d11-a859-9263fa5d367b","ios":"levelo://app?vid=7c5d90d1-8ba7-4d11-a859-9263fa5d367b"},"vehicle_type_id":"4","last_reported":1773344075,"current_range_meters":6000,"station_id":"","pricing_plan_id":"cebpf4jnsgd1na2vs0mg"},{"bike_id":"1fdc5e31-482d-45cd-b868-48b238ba2e13","system_id":"levelo_inurba_marseille","lat":43.29504,"lon":5.39828,"is_reserved":false,"is_disabled":false,"rental_uris":{"android":"levelo://app?vid=1fdc5e31-482d-45cd-b868-48b238ba2e13","ios":"levelo://app?vid=1fdc5e31-482d-45cd-b868-48b238ba2e13"},"vehicle_type_id":"4","last_reported":1773344075,"current_range_meters":22400,"station_id":"","pricing_plan_id":"cebpf4jnsgd1na2vs0mg"},{"bike_id":"35cb3f0d-2a79-4134-a66a-70ce086e1ca5","system_id":"levelo_inurba_marseille","lat":43.30945,"lon":5.39041,"is_reserved":false,"is_disabled":false,"rental_uris":{"android":"levelo://app?vid=35cb3f0d-2a79-4134-a66a-70ce086e1ca5","ios":"levelo://app?vid=35cb3f0d-2a79-4134-a66a-70ce086e1ca5"},"vehicle_type_id":"4","last_reported":1773344075,"current_range_meters":38400,"station_id":"ce4bgup2rcd13ifvqco0","pricing_plan_id":"cebpf4jnsgd1na2vs0mg"},{"bike_id":"7c147403-83bb-4c86-aeb3-dab08f27d6d3","system_id":"levelo_inurba_marseille","lat":43.30648,"lon":5.40098,"is_reserved":false,"is_disabled":false,"rental_uris":{"android":"levelo://app?vid=7c147403-83bb-4c86-aeb3-dab08f27d6d3","ios":"levelo://app?vid=7c147403-83bb-4c86-aeb3-dab08f27d6d3"},"vehicle_type_id":"4","last_reported":1773344075,"current_range_meters":20800,"station_id":"ce4bh112rcd13ifvqda0","pricing_plan_id":"cebpf4jnsgd1na2vs0mg"},{"bike_id":"f62cbee2-12e5-4cdd-bfbc-04088f9f32fa","system_id":"levelo_inurba_marseille","lat":43.28476,"lon":5.48393,"is_reserved":false,"is_disabled":false,"rental_uris":{"android":"levelo://app?vid=f62cbee2-12e5-4cdd-bfbc-04088f9f32fa","ios":"levelo://app?vid=f62cbee2-12e5-4cdd-bfbc-04088f9f32fa"},"vehicle_type_id":"4","last_reported":1773344075,"current_range_meters":14400,"station_id":"","pricing_plan_id":"cebpf4jnsgd1na2vs0mg"},{"bike_id":"417f56ab-a693-48a1-9a01-08fefab7c6bf","system_id":"levelo_inurba_marseille","lat":43.2889,"lon":5.38018,"is_reserved":false,"is_disabled":false,"rental_uris":{"android":"levelo://app?vid=417f56ab-a693-48a1-9a01-08fefab7c6bf","ios":"levelo://app?vid=417f56ab-a693-48a1-9a01-08fefab7c6bf"},"vehicle_type_id":"4","last_reported":1773344075,"current_range_meters":8000,"station_id":"","pricing_plan_id":"cebpf4jnsgd1na2vs0mg"},{"bike_id":"8a1abf3f-cc2b-42bf-b1b6-ce8af145558d","system_id":"levelo_inurba_marseille","lat":43.30944,"lon":5.41089,"is_reserved":false,"is_disabled":false,"rental_uris":{"android":"levelo://app?vid=8a1abf3f-cc2b-42bf-b1b6-ce8af145558d","ios":"levelo://app?vid=8a1abf3f-cc2b-42bf-b1b6-ce8af145558d"},"vehicle_type_id":"4","last_reported":1773344075,"current_range_meters":35200,"station_id":"","pricing_plan_id":"cebpf4jnsgd1na2vs0mg"},{"bike_id":"c23dc481-3ca2-42c0-8f9f-0d7f549d4b8a","system_id":"levelo_inurba_marseille","lat":43.29821,"lon":5.37088,"is_reserved":false,"is_disabled":false,"rental_uris":{"android":"levelo://app?vid=c23dc481-3ca2-42c0-8f9f-0d7f549d4b8a","ios":"levelo://app?vid=c23dc481-3ca2-42c0-8f9f-0d7f549d4b8a"},"vehicle_type_id":"4","last_reported":1773344075,"current_range_meters":28400,"station_id":"ce4bgop2rcd13ifvqc1g","pricing_plan_id":"cebpf4jnsgd1na2vs0mg"},{"bike_id":"e824a880-56b7-440e-8a54-db91d8597347","system_id":"levelo_inurba_marseille","lat":43.23197,"lon":5.35569,"is_reserved":false,"is_disabled":false,"rental_uris":{"android":"levelo://app?vid=e824a880-56b7-440e-8a54-db91d8597347","ios":"levelo://app?vid=e824a880-56b7-440e-8a54-db91d8597347"},"vehicle_type_id":"4","last_reported":1773344075,"current_range_meters":14800,"station_id":"ce4bhu92rcd13ifvqi70","pricing_plan_id":"cebpf4jnsgd1na2vs0mg"},{"bike_id":"ba3a231f-10a0-4302-b0e7-08f11861cd04","system_id":"levelo_inurba_marseille","lat":43.28481,"lon":5.48385,"is_reserved":false,"is_disabled":false,"rental_uris":{"android":"levelo://app?vid=ba3a231f-10a0-4302-b0e7-08f11861cd04","ios":"levelo://app?vid=ba3a231f-10a0-4302-b0e7-08f11861cd04"},"vehicle_type_id":"4","last_reported":1773344075,"current_range_meters":36400,"station_id":"","pricing_plan_id":"cebpf4jnsgd1na2vs0mg"},{"bike_id":"b795eaca-af14-4d70-adef-a33cf1253704","system_id":"levelo_inurba_marseille","lat":43.28367,"lon":5.38636,"is_reserved":false,"is_disabled":false,"rental_uris":{"android":"levelo://app?vid=b795eaca-af14-4d70-adef-a33cf1253704","ios":"levelo://app?vid=b795eaca-af14-4d70-adef-a33cf1253704"},"vehicle_type_id":"4","last_reported":1773344075,"current_range_meters":3200,"station_id":"ce4bh492rcd13ifvqdvg","pricing_plan_id":"cebpf4jnsgd1na2vs0mg"},{"bike_id":"5c985332-cd85-4515-8980-2f3374582f1e","system_id":"levelo_inurba_marseille","lat":43.31073,"lon":5.37279,"is_reserved":false,"is_disabled":false,"rental_uris":{"android":"levelo://app?vid=5c985332-cd85-4515-8980-2f3374582f1e","ios":"levelo://app?vid=5c985332-cd85-4515-8980-2f3374582f1e"},"vehicle_type_id":"4","last_reported":1773344075,"current_range_meters":9600,"station_id":"","pricing_plan_id":"cebpf4jnsgd1na2vs0mg"},{"bike_id":"352c9f7d-89b4-42e5-9e2e-76d972a274bd","system_id":"levelo_inurba_marseille","lat":43.28896,"lon":5.42924,"is_reserved":false,"is_disabled":false,"rental_uris":{"android":"levelo://app?vid=352c9f7d-89b4-42e5-9e2e-76d972a274bd","ios":"levelo://app?vid=352c9f7d-89b4-42e5-9e2e-76d972a274bd"},"vehicle_type_id":"4","last_reported":1773344075,"current_range_meters":6400,"station_id":"","pricing_plan_id":"cebpf4jnsgd1na2vs0mg"},{"bike_id":"150f1968-1661-43c1-904c-0f2ae38351ec","system_id":"levelo_inurba_marseille","lat":43.31117,"lon":5.37767,"is_reserved":false,"is_disabled":false,"rental_uris":{"android":"levelo://app?vid=150f1968-1661-43c1-904c-0f2ae38351ec","ios":"levelo://app?vid=150f1968-1661-43c1-904c-0f2ae38351ec"},"vehicle_type_id":"4","last_reported":1773344075,"current_range_meters":33600,"station_id":"ce4bgt92rcd13ifvqcg0","pricing_plan_id":"cebpf4jnsgd1na2vs0mg"},{"bike_id":"1ea0cc34-bde9-4651-b16b-575d247857d4","system_id":"levelo_inurba_marseille","lat":43.29577,"lon":5.39963,"is_reserved":false,"is_disabled":false,"rental_uris":{"android":"levelo://app?vid=1ea0cc34-bde9-4651-b16b-575d247857d4","ios":"levelo://app?vid=1ea0cc34-bde9-4651-b16b-575d247857d4"},"vehicle_type_id":"4","last_reported":1773344075,"current_range_meters":20400,"station_id":"ce4bh312rcd13ifvqdj0","pricing_plan_id":"cebpf4jnsgd1na2vs0mg"},{"bike_id":"c59a5209-1b70-42df-8250-859beecf23e1","system_id":"levelo_inurba_marseille","lat":43.23192,"lon":5.35548,"is_reserved":false,"is_disabled":false,"rental_uris":{"android":"levelo://app?vid=c59a5209-1b70-42df-8250-859beecf23e1","ios":"levelo://app?vid=c59a5209-1b70-42df-8250-859beecf23e1"},"vehicle_type_id":"4","last_reported":1773344075,"current_range_meters":39200,"station_id":"ce4bhu92rcd13ifvqi70","pricing_plan_id":"cebpf4jnsgd1na2vs0mg"},{"bike_id":"e96914ea-9f49-45f4-990f-f623d343ff11","system_id":"levelo_inurba_marseille","lat":43.29241,"lon":5.36095,"is_reserved":false,"is_disabled":true,"rental_uris":{"android":"levelo://app?vid=e96914ea-9f49-45f4-990f-f623d343ff11","ios":"levelo://app?vid=e96914ea-9f49-45f4-990f-f623d343ff11"},"vehicle_type_id":"4","last_reported":1773344075,"current_range_meters":8800,"station_id":"ce4bhbh2rcd13ifvqeqg","pricing_plan_id":"cebpf4jnsgd1na2vs0mg"},{"bike_id":"c224dada-3837-4b2a-afb6-a06ac527f328","system_id":"levelo_inurba_marseille","lat":43.23206,"lon":5.35559,"is_reserved":false,"is_disabled":true,"rental_uris":{"android":"levelo://app?vid=c224dada-3837-4b2a-afb6-a06ac527f328","ios":"levelo://app?vid=c224dada-3837-4b2a-afb6-a06ac527f328"},"vehicle_type_id":"4","last_reported":1773344075,"current_range_meters":800,"station_id":"ce4bhu92rcd13ifvqi70","pricing_plan_id":"cebpf4jnsgd1na2vs0mg"},{"bike_id":"fed428a6-a508-4132-94d7-783075e10fe3","system_id":"levelo_inurba_marseille","lat":43.32372,"lon":5.36745,"is_reserved":false,"is_disabled":false,"rental_uris":{"android":"levelo://app?vid=fed428a6-a508-4132-94d7-783075e10fe3","ios":"levelo://app?vid=fed428a6-a508-4132-94d7-783075e10fe3"},"vehicle_type_id":"4","last_reported":1773344075,"current_range_meters":38000,"station_id":"ce4bhsh2rcd13ifvqi2g","pricing_plan_id":"cebpf4jnsgd1na2vs0mg"},{"bike_id":"ea00e583-ef30-402a-aac4-1bed2c6ab8e2","system_id":"levelo_inurba_marseille","lat":43.21768,"lon":5.34609,"is_reserved":false,"is_disabled":false,"rental_uris":{"android":"levelo://app?vid=ea00e583-ef30-402a-aac4-1bed2c6ab8e2","ios":"levelo://app?vid=ea00e583-ef30-402a-aac4-1bed2c6ab8e2"},"vehicle_type_id":"4","last_reported":1773344075,"current_range_meters":27600,"station_id":"st_cvj6r9ubvosntc0bgbag","pricing_plan_id":"cebpf4jnsgd1na2vs0mg"},{"bike_id":"56fb3145-dc1a-4ad4-9a39-fcb71a836b26","system_id":"levelo_inurba_marseille","lat":43.27814,"lon":5.40749,"is_reserved":false,"is_disabled":false,"rental_uris":{"android":"levelo://app?vid=56fb3145-dc1a-4ad4-9a39-fcb71a836b26","ios":"levelo://app?vid=56fb3145-dc1a-4ad4-9a39-fcb71a836b26"},"vehicle_type_id":"4","last_reported":1773344075,"current_range_meters":12800,"station_id":"ce4bhnh2rcd13ifvqgtg","pricing_plan_id":"cebpf4jnsgd1na2vs0mg"},{"bike_id":"ea96b6eb-8d9f-431a-b04d-209f4015c2d4","system_id":"levelo_inurba_marseille","lat":43.24177,"lon":5.36393,"is_reserved":false,"is_disabled":false,"rental_uris":{"android":"levelo://app?vid=ea96b6eb-8d9f-431a-b04d-209f4015c2d4","ios":"levelo://app?vid=ea96b6eb-8d9f-431a-b04d-209f4015c2d4"},"vehicle_type_id":"4","last_reported":1773344075,"current_range_meters":14000,"station_id":"cpo36qri1sfpv3e86is0","pricing_plan_id":"cebpf4jnsgd1na2vs0mg"},{"bike_id":"adff5eac-6459-4951-a912-87211509a83d","system_id":"levelo_inurba_marseille","lat":43.28829,"lon":5.3585,"is_reserved":false,"is_disabled":true,"rental_uris":{"android":"levelo://app?vid=adff5eac-6459-4951-a912-87211509a83d","ios":"levelo://app?vid=adff5eac-6459-4951-a912-87211509a83d"},"vehicle_type_id":"4","last_reported":1773344075,"current_range_meters":400,"station_id":"ce4bhb12rcd13ifvqem0","pricing_plan_id":"cebpf4jnsgd1na2vs0mg"},{"bike_id":"e8e891cf-164b-4375-8667-e5eaa1ef09df","system_id":"levelo_inurba_marseille","lat":43.31752,"lon":5.39025,"is_reserved":false,"is_disabled":false,"rental_uris":{"android":"levelo://app?vid=e8e891cf-164b-4375-8667-e5eaa1ef09df","ios":"levelo://app?vid=e8e891cf-164b-4375-8667-e5eaa1ef09df"},"vehicle_type_id":"4","last_reported":1773344075,"current_range_meters":34000,"station_id":"ce4bhqp2rcd13ifvqhng","pricing_plan_id":"cebpf4jnsgd1na2vs0mg"},{"bike_id":"71215890-b208-4949-a1ef-27199c05f5b4","system_id":"levelo_inurba_marseille","lat":43.31565,"lon":5.38882,"is_reserved":false,"is_disabled":false,"rental_uris":{"android":"levelo://app?vid=71215890-b208-4949-a1ef-27199c05f5b4","ios":"levelo://app?vid=71215890-b208-4949-a1ef-27199c05f5b4"},"vehicle_type_id":"4","last_reported":1773344075,"current_range_meters":21600,"station_id":"","pricing_plan_id":"cebpf4jnsgd1na2vs0mg"},{"bike_id":"5fe19d9b-a76e-4a89-b0e0-6dd09142a221","system_id":"levelo_inurba_marseille","lat":43.29252,"lon":5.38417,"is_reserved":false,"is_disabled":false,"rental_uris":{"android":"levelo://app?vid=5fe19d9b-a76e-4a89-b0e0-6dd09142a221","ios":"levelo://app?vid=5fe19d9b-a76e-4a89-b0e0-6dd09142a221"},"vehicle_type_id":"4","last_reported":1773344075,"current_range_meters":9200,"station_id":"ce4bh692rcd13ifvqea0","pricing_plan_id":"cebpf4jnsgd1na2vs0mg"},{"bike_id":"a4fdab30-e2f6-4246-a63f-60fb81d99580","system_id":"levelo_inurba_marseille","lat":43.29887,"lon":5.39736,"is_reserved":false,"is_disabled":false,"rental_uris":{"android":"levelo://app?vid=a4fdab30-e2f6-4246-a63f-60fb81d99580","ios":"levelo://app?vid=a4fdab30-e2f6-4246-a63f-60fb81d99580"},"vehicle_type_id":"4","last_reported":1773344075,"current_range_meters":34000,"station_id":"ce4bh0h2rcd13ifvqd50","pricing_plan_id":"cebpf4jnsgd1na2vs0mg"},{"bike_id":"0623d3e8-8e06-48f4-9ba1-80d3579a4110","system_id":"levelo_inurba_marseille","lat":43.2811,"lon":5.37844,"is_reserved":false,"is_disabled":false,"rental_uris":{"android":"levelo://app?vid=0623d3e8-8e06-48f4-9ba1-80d3579a4110","ios":"levelo://app?vid=0623d3e8-8e06-48f4-9ba1-80d3579a4110"},"vehicle_type_id":"4","last_reported":1773344075,"current_range_meters":6800,"station_id":"ce4bha12rcd13ifvqee0","pricing_plan_id":"cebpf4jnsgd1na2vs0mg"},{"bike_id":"5f24ad05-f8bb-464f-a684-4b00abf8005a","system_id":"levelo_inurba_marseille","lat":43.30001,"lon":5.38538,"is_reserved":false,"is_disabled":false,"rental_uris":{"android":"levelo://app?vid=5f24ad05-f8bb-464f-a684-4b00abf8005a","ios":"levelo://app?vid=5f24ad05-f8bb-464f-a684-4b00abf8005a"},"vehicle_type_id":"4","last_reported":1773344075,"current_range_meters":14400,"station_id":"","pricing_plan_id":"cebpf4jnsgd1na2vs0mg"},{"bike_id":"eb7402b0-d2c7-4043-aa11-cd75870274a3","system_id":"levelo_inurba_marseille","lat":43.26821,"lon":5.40259,"is_reserved":false,"is_disabled":false,"rental_uris":{"android":"levelo://app?vid=eb7402b0-d2c7-4043-aa11-cd75870274a3","ios":"levelo://app?vid=eb7402b0-d2c7-4043-aa11-cd75870274a3"},"vehicle_type_id":"4","last_reported":1773344075,"current_range_meters":40000,"station_id":"ce501612rcd8frsf0b60","pricing_plan_id":"cebpf4jnsgd1na2vs0mg"},{"bike_id":"34625dbe-1ec2-455f-9087-9086aa1e5b2e","system_id":"levelo_inurba_marseille","lat":43.24551,"lon":5.39532,"is_reserved":false,"is_disabled":false,"rental_uris":{"android":"levelo://app?vid=34625dbe-1ec2-455f-9087-9086aa1e5b2e","ios":"levelo://app?vid=34625dbe-1ec2-455f-9087-9086aa1e5b2e"},"vehicle_type_id":"4","last_reported":1773344075,"current_range_meters":20400,"station_id":"ce4bhlp2rcd13ifvqgjg","pricing_plan_id":"cebpf4jnsgd1na2vs0mg"},{"bike_id":"39c348ea-6dfe-4a57-81bd-720e7531649a","system_id":"levelo_inurba_marseille","lat":43.29032,"lon":5.38626,"is_reserved":false,"is_disabled":false,"rental_uris":{"android":"levelo://app?vid=39c348ea-6dfe-4a57-81bd-720e7531649a","ios":"levelo://app?vid=39c348ea-6dfe-4a57-81bd-720e7531649a"},"vehicle_type_id":"4","last_reported":1773344075,"current_range_meters":39200,"station_id":"ce4bh4p2rcd13ifvqe0g","pricing_plan_id":"cebpf4jnsgd1na2vs0mg"},{"bike_id":"17092a17-ecc2-4869-9543-a7b9eb4bf6ef","system_id":"levelo_inurba_marseille","lat":43.21192,"lon":5.3507,"is_reserved":false,"is_disabled":false,"rental_uris":{"android":"levelo://app?vid=17092a17-ecc2-4869-9543-a7b9eb4bf6ef","ios":"levelo://app?vid=17092a17-ecc2-4869-9543-a7b9eb4bf6ef"},"vehicle_type_id":"4","last_reported":1773344075,"current_range_meters":11200,"station_id":"st_cvj6sg6p6f1abm77japg","pricing_plan_id":"cebpf4jnsgd1na2vs0mg"},{"bike_id":"0a2f9b28-6219-4106-b011-3026133a767c","system_id":"levelo_inurba_marseille","lat":43.2957,"lon":5.38154,"is_reserved":false,"is_disabled":true,"rental_uris":{"android":"levelo://app?vid=0a2f9b28-6219-4106-b011-3026133a767c","ios":"levelo://app?vid=0a2f9b28-6219-4106-b011-3026133a767c"},"vehicle_type_id":"4","last_reported":1773344075,"current_range_meters":33200,"station_id":"","pricing_plan_id":"cebpf4jnsgd1na2vs0mg"},{"bike_id":"a1f09277-e6a5-4fd5-b342-fa86eaa2b051","system_id":"levelo_inurba_marseille","lat":43.29859,"lon":5.44063,"is_reserved":false,"is_disabled":false,"rental_uris":{"android":"levelo://app?vid=a1f09277-e6a5-4fd5-b342-fa86eaa2b051","ios":"levelo://app?vid=a1f09277-e6a5-4fd5-b342-fa86eaa2b051"},"vehicle_type_id":"4","last_reported":1773344075,"current_range_meters":19200,"station_id":"st_d3jp68qikq2c7381ktn0","pricing_plan_id":"cebpf4jnsgd1na2vs0mg"},{"bike_id":"32dcb431-4125-4cb8-8498-dc595a0ab057","system_id":"levelo_inurba_marseille","lat":43.301487,"lon":5.374174,"is_reserved":false,"is_disabled":false,"rental_uris":{"android":"levelo://app?vid=32dcb431-4125-4cb8-8498-dc595a0ab057","ios":"levelo://app?vid=32dcb431-4125-4cb8-8498-dc595a0ab057"},"vehicle_type_id":"4","last_reported":1773344075,"current_range_meters":34800,"station_id":"ce4bgs92rcd13ifvqcc0","pricing_plan_id":"cebpf4jnsgd1na2vs0mg"},{"bike_id":"6874d2ca-67f5-465a-b46c-b72e27e762b8","system_id":"levelo_inurba_marseille","lat":43.31491,"lon":5.37315,"is_reserved":false,"is_disabled":false,"rental_uris":{"android":"levelo://app?vid=6874d2ca-67f5-465a-b46c-b72e27e762b8","ios":"levelo://app?vid=6874d2ca-67f5-465a-b46c-b72e27e762b8"},"vehicle_type_id":"4","last_reported":1773344075,"current_range_meters":20000,"station_id":"ce4bgt12rcd13ifvqcd0","pricing_plan_id":"cebpf4jnsgd1na2vs0mg"},{"bike_id":"97bcfeac-2126-494f-9ed9-6b67f1b064a2","system_id":"levelo_inurba_marseille","lat":43.27439,"lon":5.39421,"is_reserved":false,"is_disabled":true,"rental_uris":{"android":"levelo://app?vid=97bcfeac-2126-494f-9ed9-6b67f1b064a2","ios":"levelo://app?vid=97bcfeac-2126-494f-9ed9-6b67f1b064a2"},"vehicle_type_id":"4","last_reported":1773344075,"current_range_meters":16400,"station_id":"ce4bhdp2rcd13ifvqf20","pricing_plan_id":"cebpf4jnsgd1na2vs0mg"},{"bike_id":"6e0b0aa5-87a1-4737-820e-285f6efc96ee","system_id":"levelo_inurba_marseille","lat":43.28514,"lon":5.35023,"is_reserved":false,"is_disabled":false,"rental_uris":{"android":"levelo://app?vid=6e0b0aa5-87a1-4737-820e-285f6efc96ee","ios":"levelo://app?vid=6e0b0aa5-87a1-4737-820e-285f6efc96ee"},"vehicle_type_id":"4","last_reported":1773344075,"current_range_meters":16400,"station_id":"","pricing_plan_id":"cebpf4jnsgd1na2vs0mg"},{"bike_id":"c73dc152-9938-46ce-972e-77003c30697b","system_id":"levelo_inurba_marseille","lat":43.2585,"lon":5.39377,"is_reserved":false,"is_disabled":false,"rental_uris":{"android":"levelo://app?vid=c73dc152-9938-46ce-972e-77003c30697b","ios":"levelo://app?vid=c73dc152-9938-46ce-972e-77003c30697b"},"vehicle_type_id":"4","last_reported":1773344075,"current_range_meters":36000,"station_id":"","pricing_plan_id":"cebpf4jnsgd1na2vs0mg"},{"bike_id":"268aefa2-6343-458a-937b-4e3e958cc0ed","system_id":"levelo_inurba_marseille","lat":43.27825,"lon":5.40668,"is_reserved":false,"is_disabled":false,"rental_uris":{"android":"levelo://app?vid=268aefa2-6343-458a-937b-4e3e958cc0ed","ios":"levelo://app?vid=268aefa2-6343-458a-937b-4e3e958cc0ed"},"vehicle_type_id":"4","last_reported":1773344075,"current_range_meters":40000,"station_id":"ce4bhnh2rcd13ifvqgtg","pricing_plan_id":"cebpf4jnsgd1na2vs0mg"},{"bike_id":"2f84fe93-1733-4055-8f64-6874cc1494ae","system_id":"levelo_inurba_marseille","lat":43.2783,"lon":5.40714,"is_reserved":false,"is_disabled":false,"rental_uris":{"android":"levelo://app?vid=2f84fe93-1733-4055-8f64-6874cc1494ae","ios":"levelo://app?vid=2f84fe93-1733-4055-8f64-6874cc1494ae"},"vehicle_type_id":"4","last_reported":1773344075,"current_range_meters":37600,"station_id":"ce4bhnh2rcd13ifvqgtg","pricing_plan_id":"cebpf4jnsgd1na2vs0mg"},{"bike_id":"a975d39d-4a14-4e0c-8235-9aa6495c9757","system_id":"levelo_inurba_marseille","lat":43.27406,"lon":5.42483,"is_reserved":false,"is_disabled":false,"rental_uris":{"android":"levelo://app?vid=a975d39d-4a14-4e0c-8235-9aa6495c9757","ios":"levelo://app?vid=a975d39d-4a14-4e0c-8235-9aa6495c9757"},"vehicle_type_id":"4","last_reported":1773344075,"current_range_meters":28800,"station_id":"","pricing_plan_id":"cebpf4jnsgd1na2vs0mg"},{"bike_id":"cb2ae677-1706-4480-93e0-36b2cec99f85","system_id":"levelo_inurba_marseille","lat":43.29539,"lon":5.3858,"is_reserved":false,"is_disabled":false,"rental_uris":{"android":"levelo://app?vid=cb2ae677-1706-4480-93e0-36b2cec99f85","ios":"levelo://app?vid=cb2ae677-1706-4480-93e0-36b2cec99f85"},"vehicle_type_id":"4","last_reported":1773344075,"current_range_meters":9200,"station_id":"ce4bgih2rcd13ifvqba0","pricing_plan_id":"cebpf4jnsgd1na2vs0mg"},{"bike_id":"aa81096f-0238-4da5-9bb1-19ffb49b251d","system_id":"levelo_inurba_marseille","lat":43.29262,"lon":5.38434,"is_reserved":false,"is_disabled":false,"rental_uris":{"android":"levelo://app?vid=aa81096f-0238-4da5-9bb1-19ffb49b251d","ios":"levelo://app?vid=aa81096f-0238-4da5-9bb1-19ffb49b251d"},"vehicle_type_id":"4","last_reported":1773344075,"current_range_meters":28400,"station_id":"ce4bh692rcd13ifvqea0","pricing_plan_id":"cebpf4jnsgd1na2vs0mg"},{"bike_id":"3ae50866-943e-48e2-9688-a094c4facf44","system_id":"levelo_inurba_marseille","lat":43.29791,"lon":5.39343,"is_reserved":false,"is_disabled":false,"rental_uris":{"android":"levelo://app?vid=3ae50866-943e-48e2-9688-a094c4facf44","ios":"levelo://app?vid=3ae50866-943e-48e2-9688-a094c4facf44"},"vehicle_type_id":"4","last_reported":1773344075,"current_range_meters":33200,"station_id":"chh1huq6cuj3fo74tm60","pricing_plan_id":"cebpf4jnsgd1na2vs0mg"},{"bike_id":"8353becb-09ec-45b5-a24b-8f6218c436aa","system_id":"levelo_inurba_marseille","lat":43.24178,"lon":5.39725,"is_reserved":false,"is_disabled":true,"rental_uris":{"android":"levelo://app?vid=8353becb-09ec-45b5-a24b-8f6218c436aa","ios":"levelo://app?vid=8353becb-09ec-45b5-a24b-8f6218c436aa"},"vehicle_type_id":"4","last_reported":1773344075,"current_range_meters":6400,"station_id":"ce4bhn12rcd13ifvqgpg","pricing_plan_id":"cebpf4jnsgd1na2vs0mg"},{"bike_id":"91bbeea0-6965-480c-8348-d3f4e6e44e34","system_id":"levelo_inurba_marseille","lat":43.29536,"lon":5.38544,"is_reserved":false,"is_disabled":false,"rental_uris":{"android":"levelo://app?vid=91bbeea0-6965-480c-8348-d3f4e6e44e34","ios":"levelo://app?vid=91bbeea0-6965-480c-8348-d3f4e6e44e34"},"vehicle_type_id":"4","last_reported":1773344075,"current_range_meters":10800,"station_id":"ce4bgih2rcd13ifvqba0","pricing_plan_id":"cebpf4jnsgd1na2vs0mg"},{"bike_id":"071bbebe-54e0-456d-8928-c8b60c0700b6","system_id":"levelo_inurba_marseille","lat":43.27567,"lon":5.38411,"is_reserved":false,"is_disabled":false,"rental_uris":{"android":"levelo://app?vid=071bbebe-54e0-456d-8928-c8b60c0700b6","ios":"levelo://app?vid=071bbebe-54e0-456d-8928-c8b60c0700b6"},"vehicle_type_id":"4","last_reported":1773344075,"current_range_meters":39200,"station_id":"ce4bhh92rcd13ifvqfi0","pricing_plan_id":"cebpf4jnsgd1na2vs0mg"},{"bike_id":"c6e41b0e-a7f4-4243-a48f-6e68bec7d728","system_id":"levelo_inurba_marseille","lat":43.28947,"lon":5.36392,"is_reserved":false,"is_disabled":true,"rental_uris":{"android":"levelo://app?vid=c6e41b0e-a7f4-4243-a48f-6e68bec7d728","ios":"levelo://app?vid=c6e41b0e-a7f4-4243-a48f-6e68bec7d728"},"vehicle_type_id":"4","last_reported":1773344075,"current_range_meters":35200,"station_id":"ce4bhc92rcd13ifvqetg","pricing_plan_id":"cebpf4jnsgd1na2vs0mg"},{"bike_id":"a63d22a1-9803-47da-97c5-9eb5069b8019","system_id":"levelo_inurba_marseille","lat":43.25827,"lon":5.39449,"is_reserved":false,"is_disabled":false,"rental_uris":{"android":"levelo://app?vid=a63d22a1-9803-47da-97c5-9eb5069b8019","ios":"levelo://app?vid=a63d22a1-9803-47da-97c5-9eb5069b8019"},"vehicle_type_id":"4","last_reported":1773344075,"current_range_meters":36400,"station_id":"ce4bhip2rcd13ifvqft0","pricing_plan_id":"cebpf4jnsgd1na2vs0mg"},{"bike_id":"51b47fcd-fbcc-4dd1-8979-4a1e5bf0914d","system_id":"levelo_inurba_marseille","lat":43.31212,"lon":5.36848,"is_reserved":false,"is_disabled":false,"rental_uris":{"android":"levelo://app?vid=51b47fcd-fbcc-4dd1-8979-4a1e5bf0914d","ios":"levelo://app?vid=51b47fcd-fbcc-4dd1-8979-4a1e5bf0914d"},"vehicle_type_id":"4","last_reported":1773344075,"current_range_meters":29600,"station_id":"ce4bgl92rcd13ifvqbq0","pricing_plan_id":"cebpf4jnsgd1na2vs0mg"},{"bike_id":"82451975-68fc-4735-a647-12ad73617286","system_id":"levelo_inurba_marseille","lat":43.30588,"lon":5.37209,"is_reserved":false,"is_disabled":false,"rental_uris":{"android":"levelo://app?vid=82451975-68fc-4735-a647-12ad73617286","ios":"levelo://app?vid=82451975-68fc-4735-a647-12ad73617286"},"vehicle_type_id":"4","last_reported":1773344075,"current_range_meters":40000,"station_id":"ce4bgqh2rcd13ifvqc4g","pricing_plan_id":"cebpf4jnsgd1na2vs0mg"},{"bike_id":"8b2e521b-1101-44fe-9d4a-0344f080c81c","system_id":"levelo_inurba_marseille","lat":43.28481,"lon":5.48398,"is_reserved":false,"is_disabled":false,"rental_uris":{"android":"levelo://app?vid=8b2e521b-1101-44fe-9d4a-0344f080c81c","ios":"levelo://app?vid=8b2e521b-1101-44fe-9d4a-0344f080c81c"},"vehicle_type_id":"4","last_reported":1773344075,"current_range_meters":32400,"station_id":"","pricing_plan_id":"cebpf4jnsgd1na2vs0mg"},{"bike_id":"bcacd82e-9654-4f53-af8f-ff08c9670cfb","system_id":"levelo_inurba_marseille","lat":43.23397,"lon":5.41117,"is_reserved":false,"is_disabled":false,"rental_uris":{"android":"levelo://app?vid=bcacd82e-9654-4f53-af8f-ff08c9670cfb","ios":"levelo://app?vid=bcacd82e-9654-4f53-af8f-ff08c9670cfb"},"vehicle_type_id":"4","last_reported":1773344075,"current_range_meters":29600,"station_id":"","pricing_plan_id":"cebpf4jnsgd1na2vs0mg"},{"bike_id":"1697678c-c8a4-4c47-ade7-901915c540a8","system_id":"levelo_inurba_marseille","lat":43.29624,"lon":5.38073,"is_reserved":false,"is_disabled":true,"rental_uris":{"android":"levelo://app?vid=1697678c-c8a4-4c47-ade7-901915c540a8","ios":"levelo://app?vid=1697678c-c8a4-4c47-ade7-901915c540a8"},"vehicle_type_id":"4","last_reported":1773344075,"current_range_meters":38400,"station_id":"ce4bgl12rcd13ifvqbo0","pricing_plan_id":"cebpf4jnsgd1na2vs0mg"},{"bike_id":"8f71006c-2348-4841-8ce0-b156640e9e6a","system_id":"levelo_inurba_marseille","lat":43.28632,"lon":5.35125,"is_reserved":false,"is_disabled":false,"rental_uris":{"android":"levelo://app?vid=8f71006c-2348-4841-8ce0-b156640e9e6a","ios":"levelo://app?vid=8f71006c-2348-4841-8ce0-b156640e9e6a"},"vehicle_type_id":"4","last_reported":1773344075,"current_range_meters":9200,"station_id":"ce4bhch2rcd13ifvqeug","pricing_plan_id":"cebpf4jnsgd1na2vs0mg"},{"bike_id":"928ede9f-d7b3-4b92-b54e-1233891752ff","system_id":"levelo_inurba_marseille","lat":43.33012,"lon":5.39021,"is_reserved":false,"is_disabled":false,"rental_uris":{"android":"levelo://app?vid=928ede9f-d7b3-4b92-b54e-1233891752ff","ios":"levelo://app?vid=928ede9f-d7b3-4b92-b54e-1233891752ff"},"vehicle_type_id":"4","last_reported":1773344075,"current_range_meters":10000,"station_id":"ce4bhr92rcd13ifvqhrg","pricing_plan_id":"cebpf4jnsgd1na2vs0mg"},{"bike_id":"41bb1547-7eea-4439-8de4-4c699b90c7af","system_id":"levelo_inurba_marseille","lat":43.26573,"lon":5.40339,"is_reserved":false,"is_disabled":false,"rental_uris":{"android":"levelo://app?vid=41bb1547-7eea-4439-8de4-4c699b90c7af","ios":"levelo://app?vid=41bb1547-7eea-4439-8de4-4c699b90c7af"},"vehicle_type_id":"4","last_reported":1773344075,"current_range_meters":32000,"station_id":"ce4bhmp2rcd13ifvqgng","pricing_plan_id":"cebpf4jnsgd1na2vs0mg"},{"bike_id":"279b31e6-f012-4d9c-a7c8-086a36e72b5f","system_id":"levelo_inurba_marseille","lat":43.29527,"lon":5.3855,"is_reserved":false,"is_disabled":true,"rental_uris":{"android":"levelo://app?vid=279b31e6-f012-4d9c-a7c8-086a36e72b5f","ios":"levelo://app?vid=279b31e6-f012-4d9c-a7c8-086a36e72b5f"},"vehicle_type_id":"4","last_reported":1773344075,"current_range_meters":18800,"station_id":"ce4bgih2rcd13ifvqba0","pricing_plan_id":"cebpf4jnsgd1na2vs0mg"},{"bike_id":"8cb18c02-9074-4f7e-83f0-8e5266c7a460","system_id":"levelo_inurba_marseille","lat":43.24672,"lon":5.3818,"is_reserved":false,"is_disabled":false,"rental_uris":{"android":"levelo://app?vid=8cb18c02-9074-4f7e-83f0-8e5266c7a460","ios":"levelo://app?vid=8cb18c02-9074-4f7e-83f0-8e5266c7a460"},"vehicle_type_id":"4","last_reported":1773344075,"current_range_meters":16000,"station_id":"ce4bhih2rcd13ifvqfr0","pricing_plan_id":"cebpf4jnsgd1na2vs0mg"},{"bike_id":"1a138e41-89a4-43f0-a2a8-c03e39bfeccc","system_id":"levelo_inurba_marseille","lat":43.28396,"lon":5.34976,"is_reserved":false,"is_disabled":false,"rental_uris":{"android":"levelo://app?vid=1a138e41-89a4-43f0-a2a8-c03e39bfeccc","ios":"levelo://app?vid=1a138e41-89a4-43f0-a2a8-c03e39bfeccc"},"vehicle_type_id":"4","last_reported":1773344075,"current_range_meters":39200,"station_id":"ce4bhbh2rcd13ifvqepg","pricing_plan_id":"cebpf4jnsgd1na2vs0mg"},{"bike_id":"c2390bbc-ed39-45c5-9f2a-b8a83a668278","system_id":"levelo_inurba_marseille","lat":43.27639,"lon":5.36132,"is_reserved":false,"is_disabled":false,"rental_uris":{"android":"levelo://app?vid=c2390bbc-ed39-45c5-9f2a-b8a83a668278","ios":"levelo://app?vid=c2390bbc-ed39-45c5-9f2a-b8a83a668278"},"vehicle_type_id":"4","last_reported":1773344075,"current_range_meters":39200,"station_id":"ce4bgj92rcd13ifvqbe0","pricing_plan_id":"cebpf4jnsgd1na2vs0mg"},{"bike_id":"c8605d01-f739-409b-b7bf-dfb8e1cb0084","system_id":"levelo_inurba_marseille","lat":43.29292,"lon":5.37439,"is_reserved":false,"is_disabled":false,"rental_uris":{"android":"levelo://app?vid=c8605d01-f739-409b-b7bf-dfb8e1cb0084","ios":"levelo://app?vid=c8605d01-f739-409b-b7bf-dfb8e1cb0084"},"vehicle_type_id":"4","last_reported":1773344075,"current_range_meters":24400,"station_id":"ce4bgi12rcd13ifvqb70","pricing_plan_id":"cebpf4jnsgd1na2vs0mg"},{"bike_id":"571ce1b2-396c-4647-915f-272a4d442b97","system_id":"levelo_inurba_marseille","lat":43.30552,"lon":5.36714,"is_reserved":false,"is_disabled":false,"rental_uris":{"android":"levelo://app?vid=571ce1b2-396c-4647-915f-272a4d442b97","ios":"levelo://app?vid=571ce1b2-396c-4647-915f-272a4d442b97"},"vehicle_type_id":"4","last_reported":1773344075,"current_range_meters":26000,"station_id":"ce4bgrp2rcd13ifvqc9g","pricing_plan_id":"cebpf4jnsgd1na2vs0mg"},{"bike_id":"26a6b2e2-002a-4072-a1a2-b594f4e8b66c","system_id":"levelo_inurba_marseille","lat":43.30895,"lon":5.37329,"is_reserved":false,"is_disabled":false,"rental_uris":{"android":"levelo://app?vid=26a6b2e2-002a-4072-a1a2-b594f4e8b66c","ios":"levelo://app?vid=26a6b2e2-002a-4072-a1a2-b594f4e8b66c"},"vehicle_type_id":"4","last_reported":1773344075,"current_range_meters":28000,"station_id":"","pricing_plan_id":"cebpf4jnsgd1na2vs0mg"},{"bike_id":"34da4a33-43be-4234-816f-fdd3330c4484","system_id":"levelo_inurba_marseille","lat":43.23963,"lon":5.36643,"is_reserved":false,"is_disabled":false,"rental_uris":{"android":"levelo://app?vid=34da4a33-43be-4234-816f-fdd3330c4484","ios":"levelo://app?vid=34da4a33-43be-4234-816f-fdd3330c4484"},"vehicle_type_id":"4","last_reported":1773344075,"current_range_meters":39200,"station_id":"ce4bhi12rcd13ifvqfp0","pricing_plan_id":"cebpf4jnsgd1na2vs0mg"},{"bike_id":"66a3accb-79cb-48f5-ac37-51ce552272b3","system_id":"levelo_inurba_marseille","lat":43.29987,"lon":5.38485,"is_reserved":false,"is_disabled":false,"rental_uris":{"android":"levelo://app?vid=66a3accb-79cb-48f5-ac37-51ce552272b3","ios":"levelo://app?vid=66a3accb-79cb-48f5-ac37-51ce552272b3"},"vehicle_type_id":"4","last_reported":1773344075,"current_range_meters":25200,"station_id":"ce4bgj92rcd13ifvqbd0","pricing_plan_id":"cebpf4jnsgd1na2vs0mg"},{"bike_id":"aa8cf0d2-485a-4e07-a9cf-33fc1d3fc365","system_id":"levelo_inurba_marseille","lat":43.29975,"lon":5.37174,"is_reserved":false,"is_disabled":false,"rental_uris":{"android":"levelo://app?vid=aa8cf0d2-485a-4e07-a9cf-33fc1d3fc365","ios":"levelo://app?vid=aa8cf0d2-485a-4e07-a9cf-33fc1d3fc365"},"vehicle_type_id":"4","last_reported":1773344075,"current_range_meters":17600,"station_id":"ce4bgr92rcd13ifvqc7g","pricing_plan_id":"cebpf4jnsgd1na2vs0mg"},{"bike_id":"3d226ba7-0e14-4fb6-9b33-5d5742200ef5","system_id":"levelo_inurba_marseille","lat":43.28721,"lon":5.37948,"is_reserved":false,"is_disabled":false,"rental_uris":{"android":"levelo://app?vid=3d226ba7-0e14-4fb6-9b33-5d5742200ef5","ios":"levelo://app?vid=3d226ba7-0e14-4fb6-9b33-5d5742200ef5"},"vehicle_type_id":"4","last_reported":1773344075,"current_range_meters":14000,"station_id":"ce4bh9p2rcd13ifvqec0","pricing_plan_id":"cebpf4jnsgd1na2vs0mg"},{"bike_id":"7e54b22b-614b-444c-9eb6-1de91ceb29cd","system_id":"levelo_inurba_marseille","lat":43.2902,"lon":5.35674,"is_reserved":false,"is_disabled":false,"rental_uris":{"android":"levelo://app?vid=7e54b22b-614b-444c-9eb6-1de91ceb29cd","ios":"levelo://app?vid=7e54b22b-614b-444c-9eb6-1de91ceb29cd"},"vehicle_type_id":"4","last_reported":1773344075,"current_range_meters":28000,"station_id":"ce4bhb92rcd13ifvqen0","pricing_plan_id":"cebpf4jnsgd1na2vs0mg"},{"bike_id":"b3ec3554-eb1f-4735-9561-8fa9053610e4","system_id":"levelo_inurba_marseille","lat":43.24427,"lon":5.37074,"is_reserved":false,"is_disabled":false,"rental_uris":{"android":"levelo://app?vid=b3ec3554-eb1f-4735-9561-8fa9053610e4","ios":"levelo://app?vid=b3ec3554-eb1f-4735-9561-8fa9053610e4"},"vehicle_type_id":"4","last_reported":1773344075,"current_range_meters":39200,"station_id":"ce4bhhh2rcd13ifvqfk0","pricing_plan_id":"cebpf4jnsgd1na2vs0mg"},{"bike_id":"019b6904-c7d7-4f12-80e0-6c355f613b51","system_id":"levelo_inurba_marseille","lat":43.24815,"lon":5.37465,"is_reserved":false,"is_disabled":false,"rental_uris":{"android":"levelo://app?vid=019b6904-c7d7-4f12-80e0-6c355f613b51","ios":"levelo://app?vid=019b6904-c7d7-4f12-80e0-6c355f613b51"},"vehicle_type_id":"4","last_reported":1773344075,"current_range_meters":35600,"station_id":"ce4bhgh2rcd13ifvqfb0","pricing_plan_id":"cebpf4jnsgd1na2vs0mg"},{"bike_id":"87708520-825f-460f-a8de-0fe482e958a3","system_id":"levelo_inurba_marseille","lat":43.292,"lon":5.39324,"is_reserved":false,"is_disabled":false,"rental_uris":{"android":"levelo://app?vid=87708520-825f-460f-a8de-0fe482e958a3","ios":"levelo://app?vid=87708520-825f-460f-a8de-0fe482e958a3"},"vehicle_type_id":"4","last_reported":1773344075,"current_range_meters":17600,"station_id":"ce4bh192rcd13ifvqdd0","pricing_plan_id":"cebpf4jnsgd1na2vs0mg"},{"bike_id":"f84b2d10-221b-4e89-ba33-2e56f501cfd3","system_id":"levelo_inurba_marseille","lat":43.30217,"lon":5.39477,"is_reserved":false,"is_disabled":false,"rental_uris":{"android":"levelo://app?vid=f84b2d10-221b-4e89-ba33-2e56f501cfd3","ios":"levelo://app?vid=f84b2d10-221b-4e89-ba33-2e56f501cfd3"},"vehicle_type_id":"4","last_reported":1773344075,"current_range_meters":33600,"station_id":"ce4bh0p2rcd13ifvqd70","pricing_plan_id":"cebpf4jnsgd1na2vs0mg"},{"bike_id":"5331bf44-13b3-42fb-aad1-9b7895a1f20e","system_id":"levelo_inurba_marseille","lat":43.29883,"lon":5.39747,"is_reserved":false,"is_disabled":false,"rental_uris":{"android":"levelo://app?vid=5331bf44-13b3-42fb-aad1-9b7895a1f20e","ios":"levelo://app?vid=5331bf44-13b3-42fb-aad1-9b7895a1f20e"},"vehicle_type_id":"4","last_reported":1773344075,"current_range_meters":39200,"station_id":"ce4bh0h2rcd13ifvqd50","pricing_plan_id":"cebpf4jnsgd1na2vs0mg"},{"bike_id":"003d4be6-c37b-4aa4-9c84-f0d8c631491b","system_id":"levelo_inurba_marseille","lat":43.29028,"lon":5.38639,"is_reserved":false,"is_disabled":true,"rental_uris":{"android":"levelo://app?vid=003d4be6-c37b-4aa4-9c84-f0d8c631491b","ios":"levelo://app?vid=003d4be6-c37b-4aa4-9c84-f0d8c631491b"},"vehicle_type_id":"4","last_reported":1773344075,"current_range_meters":24800,"station_id":"ce4bh4p2rcd13ifvqe0g","pricing_plan_id":"cebpf4jnsgd1na2vs0mg"},{"bike_id":"2ef5eb3d-3b7b-4c7f-94ce-7b0f5b8582d9","system_id":"levelo_inurba_marseille","lat":43.27807,"lon":5.40725,"is_reserved":false,"is_disabled":false,"rental_uris":{"android":"levelo://app?vid=2ef5eb3d-3b7b-4c7f-94ce-7b0f5b8582d9","ios":"levelo://app?vid=2ef5eb3d-3b7b-4c7f-94ce-7b0f5b8582d9"},"vehicle_type_id":"4","last_reported":1773344075,"current_range_meters":25200,"station_id":"ce4bhnh2rcd13ifvqgtg","pricing_plan_id":"cebpf4jnsgd1na2vs0mg"},{"bike_id":"52c16493-4cbe-4009-a329-3f651a889562","system_id":"levelo_inurba_marseille","lat":43.29041,"lon":5.35919,"is_reserved":false,"is_disabled":true,"rental_uris":{"android":"levelo://app?vid=52c16493-4cbe-4009-a329-3f651a889562","ios":"levelo://app?vid=52c16493-4cbe-4009-a329-3f651a889562"},"vehicle_type_id":"4","last_reported":1773344075,"current_range_meters":400,"station_id":"ce4bha92rcd13ifvqeg0","pricing_plan_id":"cebpf4jnsgd1na2vs0mg"},{"bike_id":"8783dc88-1a33-483e-b68b-3459ceecce5a","system_id":"levelo_inurba_marseille","lat":43.30133,"lon":5.38777,"is_reserved":false,"is_disabled":false,"rental_uris":{"android":"levelo://app?vid=8783dc88-1a33-483e-b68b-3459ceecce5a","ios":"levelo://app?vid=8783dc88-1a33-483e-b68b-3459ceecce5a"},"vehicle_type_id":"4","last_reported":1773344075,"current_range_meters":26800,"station_id":"ce4bghh2rcd13ifvqb60","pricing_plan_id":"cebpf4jnsgd1na2vs0mg"},{"bike_id":"f542961d-71bd-469b-b33b-4dd936b2dbd9","system_id":"levelo_inurba_marseille","lat":43.29919,"lon":5.37479,"is_reserved":false,"is_disabled":false,"rental_uris":{"android":"levelo://app?vid=f542961d-71bd-469b-b33b-4dd936b2dbd9","ios":"levelo://app?vid=f542961d-71bd-469b-b33b-4dd936b2dbd9"},"vehicle_type_id":"4","last_reported":1773344075,"current_range_meters":20000,"station_id":"ce4bgjh2rcd13ifvqbg0","pricing_plan_id":"cebpf4jnsgd1na2vs0mg"},{"bike_id":"05e28071-265b-4d5c-bcaf-12dc4f5c6740","system_id":"levelo_inurba_marseille","lat":43.2738,"lon":5.36273,"is_reserved":false,"is_disabled":false,"rental_uris":{"android":"levelo://app?vid=05e28071-265b-4d5c-bcaf-12dc4f5c6740","ios":"levelo://app?vid=05e28071-265b-4d5c-bcaf-12dc4f5c6740"},"vehicle_type_id":"4","last_reported":1773344075,"current_range_meters":39200,"station_id":"ce4bhbh2rcd13ifvqeo0","pricing_plan_id":"cebpf4jnsgd1na2vs0mg"},{"bike_id":"e0d3800f-b03e-442e-a8e1-8c4ff7bcaab6","system_id":"levelo_inurba_marseille","lat":43.29625,"lon":5.37749,"is_reserved":false,"is_disabled":false,"rental_uris":{"android":"levelo://app?vid=e0d3800f-b03e-442e-a8e1-8c4ff7bcaab6","ios":"levelo://app?vid=e0d3800f-b03e-442e-a8e1-8c4ff7bcaab6"},"vehicle_type_id":"4","last_reported":1773344075,"current_range_meters":38400,"station_id":"ce4bgi92rcd13ifvqb90","pricing_plan_id":"cebpf4jnsgd1na2vs0mg"},{"bike_id":"8c9e1728-2e25-4e3f-884f-914f06a617c7","system_id":"levelo_inurba_marseille","lat":43.30834,"lon":5.38167,"is_reserved":false,"is_disabled":false,"rental_uris":{"android":"levelo://app?vid=8c9e1728-2e25-4e3f-884f-914f06a617c7","ios":"levelo://app?vid=8c9e1728-2e25-4e3f-884f-914f06a617c7"},"vehicle_type_id":"4","last_reported":1773344075,"current_range_meters":27600,"station_id":"ce4bgt12rcd13ifvqce0","pricing_plan_id":"cebpf4jnsgd1na2vs0mg"},{"bike_id":"a6890abc-726e-45e0-9081-48995f043ce1","system_id":"levelo_inurba_marseille","lat":43.30434,"lon":5.39754,"is_reserved":false,"is_disabled":false,"rental_uris":{"android":"levelo://app?vid=a6890abc-726e-45e0-9081-48995f043ce1","ios":"levelo://app?vid=a6890abc-726e-45e0-9081-48995f043ce1"},"vehicle_type_id":"4","last_reported":1773344075,"current_range_meters":30800,"station_id":"ce4bh092rcd13ifvqd20","pricing_plan_id":"cebpf4jnsgd1na2vs0mg"},{"bike_id":"939bc398-41d9-4727-8f5c-fd660530a23f","system_id":"levelo_inurba_marseille","lat":43.28138,"lon":5.42643,"is_reserved":false,"is_disabled":false,"rental_uris":{"android":"levelo://app?vid=939bc398-41d9-4727-8f5c-fd660530a23f","ios":"levelo://app?vid=939bc398-41d9-4727-8f5c-fd660530a23f"},"vehicle_type_id":"4","last_reported":1773344075,"current_range_meters":28400,"station_id":"ce4bhnh2rcd13ifvqgug","pricing_plan_id":"cebpf4jnsgd1na2vs0mg"},{"bike_id":"67454919-4897-4496-ac02-5ba276c6faca","system_id":"levelo_inurba_marseille","lat":43.28147,"lon":5.37892,"is_reserved":false,"is_disabled":false,"rental_uris":{"android":"levelo://app?vid=67454919-4897-4496-ac02-5ba276c6faca","ios":"levelo://app?vid=67454919-4897-4496-ac02-5ba276c6faca"},"vehicle_type_id":"4","last_reported":1773344075,"current_range_meters":9200,"station_id":"","pricing_plan_id":"cebpf4jnsgd1na2vs0mg"},{"bike_id":"7be8b778-ba45-4b62-8db3-9dc0846b8c1c","system_id":"levelo_inurba_marseille","lat":43.30618,"lon":5.37256,"is_reserved":false,"is_disabled":false,"rental_uris":{"android":"levelo://app?vid=7be8b778-ba45-4b62-8db3-9dc0846b8c1c","ios":"levelo://app?vid=7be8b778-ba45-4b62-8db3-9dc0846b8c1c"},"vehicle_type_id":"4","last_reported":1773344075,"current_range_meters":6400,"station_id":"ce4bgqh2rcd13ifvqc4g","pricing_plan_id":"cebpf4jnsgd1na2vs0mg"},{"bike_id":"eee030f9-7359-435a-8db7-cd8193b34512","system_id":"levelo_inurba_marseille","lat":43.26077,"lon":5.39401,"is_reserved":false,"is_disabled":false,"rental_uris":{"android":"levelo://app?vid=eee030f9-7359-435a-8db7-cd8193b34512","ios":"levelo://app?vid=eee030f9-7359-435a-8db7-cd8193b34512"},"vehicle_type_id":"4","last_reported":1773344075,"current_range_meters":27200,"station_id":"ce4bhh92rcd13ifvqfj0","pricing_plan_id":"cebpf4jnsgd1na2vs0mg"},{"bike_id":"54d4f9e4-068b-4c2d-b5c3-e6b11d286961","system_id":"levelo_inurba_marseille","lat":43.27626,"lon":5.36113,"is_reserved":false,"is_disabled":false,"rental_uris":{"android":"levelo://app?vid=54d4f9e4-068b-4c2d-b5c3-e6b11d286961","ios":"levelo://app?vid=54d4f9e4-068b-4c2d-b5c3-e6b11d286961"},"vehicle_type_id":"4","last_reported":1773344075,"current_range_meters":36800,"station_id":"ce4bgj92rcd13ifvqbe0","pricing_plan_id":"cebpf4jnsgd1na2vs0mg"},{"bike_id":"f489ef0a-08b2-4861-ba74-c1fc2b39eeae","system_id":"levelo_inurba_marseille","lat":43.28487,"lon":5.38598,"is_reserved":false,"is_disabled":false,"rental_uris":{"android":"levelo://app?vid=f489ef0a-08b2-4861-ba74-c1fc2b39eeae","ios":"levelo://app?vid=f489ef0a-08b2-4861-ba74-c1fc2b39eeae"},"vehicle_type_id":"4","last_reported":1773344075,"current_range_meters":12000,"station_id":"ce4bh8p2rcd13ifvqeb0","pricing_plan_id":"cebpf4jnsgd1na2vs0mg"},{"bike_id":"e3739250-f869-438f-8c25-9176b0d53f14","system_id":"levelo_inurba_marseille","lat":43.29258,"lon":5.38433,"is_reserved":false,"is_disabled":false,"rental_uris":{"android":"levelo://app?vid=e3739250-f869-438f-8c25-9176b0d53f14","ios":"levelo://app?vid=e3739250-f869-438f-8c25-9176b0d53f14"},"vehicle_type_id":"4","last_reported":1773344075,"current_range_meters":8800,"station_id":"ce4bh692rcd13ifvqea0","pricing_plan_id":"cebpf4jnsgd1na2vs0mg"},{"bike_id":"8e087949-8b03-4185-bb20-92dad1495f72","system_id":"levelo_inurba_marseille","lat":43.29614,"lon":5.37767,"is_reserved":false,"is_disabled":false,"rental_uris":{"android":"levelo://app?vid=8e087949-8b03-4185-bb20-92dad1495f72","ios":"levelo://app?vid=8e087949-8b03-4185-bb20-92dad1495f72"},"vehicle_type_id":"4","last_reported":1773344075,"current_range_meters":9600,"station_id":"ce4bgi92rcd13ifvqb90","pricing_plan_id":"cebpf4jnsgd1na2vs0mg"},{"bike_id":"47e7d7f5-2be9-471d-813a-fdc80a36beae","system_id":"levelo_inurba_marseille","lat":43.24417,"lon":5.37075,"is_reserved":false,"is_disabled":false,"rental_uris":{"android":"levelo://app?vid=47e7d7f5-2be9-471d-813a-fdc80a36beae","ios":"levelo://app?vid=47e7d7f5-2be9-471d-813a-fdc80a36beae"},"vehicle_type_id":"4","last_reported":1773344075,"current_range_meters":34800,"station_id":"ce4bhhh2rcd13ifvqfk0","pricing_plan_id":"cebpf4jnsgd1na2vs0mg"},{"bike_id":"a1955bf3-14c7-4872-b5c1-6accbfbc0f11","system_id":"levelo_inurba_marseille","lat":43.26948,"lon":5.40267,"is_reserved":false,"is_disabled":false,"rental_uris":{"android":"levelo://app?vid=a1955bf3-14c7-4872-b5c1-6accbfbc0f11","ios":"levelo://app?vid=a1955bf3-14c7-4872-b5c1-6accbfbc0f11"},"vehicle_type_id":"4","last_reported":1773344075,"current_range_meters":37600,"station_id":"cjm6bp8fraef2m0cb0m0","pricing_plan_id":"cebpf4jnsgd1na2vs0mg"},{"bike_id":"f46192ec-7d59-4e44-8070-13cbe21e98b0","system_id":"levelo_inurba_marseille","lat":43.27789,"lon":5.40731,"is_reserved":false,"is_disabled":false,"rental_uris":{"android":"levelo://app?vid=f46192ec-7d59-4e44-8070-13cbe21e98b0","ios":"levelo://app?vid=f46192ec-7d59-4e44-8070-13cbe21e98b0"},"vehicle_type_id":"4","last_reported":1773344075,"current_range_meters":12400,"station_id":"ce4bhnh2rcd13ifvqgtg","pricing_plan_id":"cebpf4jnsgd1na2vs0mg"},{"bike_id":"bee2908f-dc92-4cf4-a409-a5771887c8c1","system_id":"levelo_inurba_marseille","lat":43.2998,"lon":5.38488,"is_reserved":false,"is_disabled":false,"rental_uris":{"android":"levelo://app?vid=bee2908f-dc92-4cf4-a409-a5771887c8c1","ios":"levelo://app?vid=bee2908f-dc92-4cf4-a409-a5771887c8c1"},"vehicle_type_id":"4","last_reported":1773344075,"current_range_meters":3600,"station_id":"ce4bgj92rcd13ifvqbd0","pricing_plan_id":"cebpf4jnsgd1na2vs0mg"},{"bike_id":"cba60e58-48d2-4695-a218-c3d3f13631d8","system_id":"levelo_inurba_marseille","lat":43.29277,"lon":5.36847,"is_reserved":false,"is_disabled":false,"rental_uris":{"android":"levelo://app?vid=cba60e58-48d2-4695-a218-c3d3f13631d8","ios":"levelo://app?vid=cba60e58-48d2-4695-a218-c3d3f13631d8"},"vehicle_type_id":"4","last_reported":1773344075,"current_range_meters":10800,"station_id":"ce4bhbp2rcd13ifvqesg","pricing_plan_id":"cebpf4jnsgd1na2vs0mg"},{"bike_id":"0864731d-e776-49ce-ac1e-bf70a52eb48d","system_id":"levelo_inurba_marseille","lat":43.29531,"lon":5.39399,"is_reserved":false,"is_disabled":true,"rental_uris":{"android":"levelo://app?vid=0864731d-e776-49ce-ac1e-bf70a52eb48d","ios":"levelo://app?vid=0864731d-e776-49ce-ac1e-bf70a52eb48d"},"vehicle_type_id":"4","last_reported":1773344075,"current_range_meters":17600,"station_id":"ce4bh292rcd13ifvqdf0","pricing_plan_id":"cebpf4jnsgd1na2vs0mg"},{"bike_id":"e77d702c-6e9d-4250-820b-3ce09f62e0dd","system_id":"levelo_inurba_marseille","lat":43.225326,"lon":5.348355,"is_reserved":false,"is_disabled":false,"rental_uris":{"android":"levelo://app?vid=e77d702c-6e9d-4250-820b-3ce09f62e0dd","ios":"levelo://app?vid=e77d702c-6e9d-4250-820b-3ce09f62e0dd"},"vehicle_type_id":"4","last_reported":1773344075,"current_range_meters":16800,"station_id":"","pricing_plan_id":"cebpf4jnsgd1na2vs0mg"},{"bike_id":"cb02d665-38ae-4d1f-9856-8f7f2601fa9b","system_id":"levelo_inurba_marseille","lat":43.29815,"lon":5.38095,"is_reserved":false,"is_disabled":false,"rental_uris":{"android":"levelo://app?vid=cb02d665-38ae-4d1f-9856-8f7f2601fa9b","ios":"levelo://app?vid=cb02d665-38ae-4d1f-9856-8f7f2601fa9b"},"vehicle_type_id":"4","last_reported":1773344075,"current_range_meters":39200,"station_id":"ce4bgip2rcd13ifvqbb0","pricing_plan_id":"cebpf4jnsgd1na2vs0mg"},{"bike_id":"4cdf905d-d573-4bc7-85be-d03aa61ff4df","system_id":"levelo_inurba_marseille","lat":43.25828,"lon":5.39428,"is_reserved":false,"is_disabled":false,"rental_uris":{"android":"levelo://app?vid=4cdf905d-d573-4bc7-85be-d03aa61ff4df","ios":"levelo://app?vid=4cdf905d-d573-4bc7-85be-d03aa61ff4df"},"vehicle_type_id":"4","last_reported":1773344075,"current_range_meters":35200,"station_id":"ce4bhip2rcd13ifvqft0","pricing_plan_id":"cebpf4jnsgd1na2vs0mg"},{"bike_id":"682da1a2-9992-42a0-a763-7ba6525cc044","system_id":"levelo_inurba_marseille","lat":43.31545,"lon":5.38068,"is_reserved":false,"is_disabled":false,"rental_uris":{"android":"levelo://app?vid=682da1a2-9992-42a0-a763-7ba6525cc044","ios":"levelo://app?vid=682da1a2-9992-42a0-a763-7ba6525cc044"},"vehicle_type_id":"4","last_reported":1773344075,"current_range_meters":27200,"station_id":"ce4bhsp2rcd13ifvqi50","pricing_plan_id":"cebpf4jnsgd1na2vs0mg"},{"bike_id":"27538746-56d0-4be5-853e-86ae52dd0a53","system_id":"levelo_inurba_marseille","lat":43.24071,"lon":5.37757,"is_reserved":false,"is_disabled":true,"rental_uris":{"android":"levelo://app?vid=27538746-56d0-4be5-853e-86ae52dd0a53","ios":"levelo://app?vid=27538746-56d0-4be5-853e-86ae52dd0a53"},"vehicle_type_id":"4","last_reported":1773344075,"current_range_meters":36000,"station_id":"ce4bhnp2rcd13ifvqgvg","pricing_plan_id":"cebpf4jnsgd1na2vs0mg"},{"bike_id":"f6c8c320-c18a-41fc-a411-13305c97203d","system_id":"levelo_inurba_marseille","lat":43.29036,"lon":5.38637,"is_reserved":false,"is_disabled":false,"rental_uris":{"android":"levelo://app?vid=f6c8c320-c18a-41fc-a411-13305c97203d","ios":"levelo://app?vid=f6c8c320-c18a-41fc-a411-13305c97203d"},"vehicle_type_id":"4","last_reported":1773344075,"current_range_meters":9600,"station_id":"ce4bh4p2rcd13ifvqe0g","pricing_plan_id":"cebpf4jnsgd1na2vs0mg"},{"bike_id":"e9828655-3e9f-4bf1-900b-4524602dc318","system_id":"levelo_inurba_marseille","lat":43.2398,"lon":5.36631,"is_reserved":false,"is_disabled":false,"rental_uris":{"android":"levelo://app?vid=e9828655-3e9f-4bf1-900b-4524602dc318","ios":"levelo://app?vid=e9828655-3e9f-4bf1-900b-4524602dc318"},"vehicle_type_id":"4","last_reported":1773344075,"current_range_meters":4000,"station_id":"ce4bhi12rcd13ifvqfp0","pricing_plan_id":"cebpf4jnsgd1na2vs0mg"},{"bike_id":"84f6ef59-54a1-4152-a7ef-833d057b545d","system_id":"levelo_inurba_marseille","lat":43.30337,"lon":5.40449,"is_reserved":false,"is_disabled":false,"rental_uris":{"android":"levelo://app?vid=84f6ef59-54a1-4152-a7ef-833d057b545d","ios":"levelo://app?vid=84f6ef59-54a1-4152-a7ef-833d057b545d"},"vehicle_type_id":"4","last_reported":1773344075,"current_range_meters":36400,"station_id":"ce4bh012rcd13ifvqd10","pricing_plan_id":"cebpf4jnsgd1na2vs0mg"},