{"last_updated":1727100513,"ttl":30,"version":"2.2","data":{"bikes":[{"bike_id":"c58b18fb-2ff3-40ad-9d2c-4f6980c5a90f","system_id":"levelo_inurba_marseille","lat":43.26942,"lon":5.38908,"is_reserved":false,"is_disabled":false,"rental_uris":{"android":"levelo://app?vid=c58b18fb-2ff3-40ad-9d2c-4f6980c5a90f","ios":"levelo://app?vid=c58b18fb-2ff3-40ad-9d2c-4f6980c5a90f"},"vehicle_type_id":"4","last_reported":1727100513,"current_range_meters":15200,"station_id":"ce4bhhh2rcd13ifvqfl0","pricing_plan_id":"cebpf4jnsgd1na2vs0mg"},{"bike_id":"8ef36bea-7fc1-452a-96e4-4a0ce0295ffb","system_id":"levelo_inurba_marseille","lat":43.31755,"lon":5.3901,"is_reserved":false,"is_disabled":false,"rental_uris":{"android":"levelo://app?vid=8ef36bea-7fc1-452a-96e4-4a0ce0295ffb","ios":"levelo://app?vid=8ef36bea-7fc1-452a-96e4-4a0ce0295ffb"},"vehicle_type_id":"4","last_reported":1727100513,"current_range_meters":30400,"station_id":"ce4bhqp2rcd13ifvqhng","pricing_plan_id":"cebpf4jnsgd1na2vs0mg"},{"bike_id":"85e33060-c89e-4186-a5cc-24e7b18f8fae","system_id":"levelo_inurba_marseille","lat":43.337444,"lon":5.374475,"is_reserved":false,"is_disabled":false,"rental_uris":{"android":"levelo://app?vid=85e33060-c89e-4186-a5cc-24e7b18f8fae","ios":"levelo://app?vid=85e33060-c89e-4186-a5cc-24e7b18f8fae"},"vehicle_type_id":"4","last_reported":1727100513,"current_range_meters":28800,"station_id":"ce4bgj92rcd13ifvqbd0","pricing_plan_id":"cebpf4jnsgd1na2vs0mg"},{"bike_id":"16b5379b-2948-43c0-812f-c359eab15e56","system_id":"levelo_inurba_marseille","lat":43.3266,"lon":5.40994,"is_reserved":false,"is_disabled":false,"rental_uris":{"android":"levelo://app?vid=16b5379b-2948-43c0-812f-c359eab15e56","ios":"levelo://app?vid=16b5379b-2948-43c0-812f-c359eab15e56"},"vehicle_type_id":"4","last_reported":1727100513,"current_range_meters":38800,"station_id":"ce4bhpp2rcd13ifvqhgg","pricing_plan_id":"cebpf4jnsgd1na2vs0mg"},{"bike_id":"5dd469b3-9211-4ac8-8046-49c4b367e7fa","system_id":"levelo_inurba_marseille","lat":43.30135,"lon":5.39853,"is_reserved":false,"is_disabled":false,"rental_uris":{"android":"levelo://app?vid=5dd469b3-9211-4ac8-8046-49c4b367e7fa","ios":"levelo://app?vid=5dd469b3-9211-4ac8-8046-49c4b367e7fa"},"vehicle_type_id":"4","last_reported":1727100513,"current_range_meters":36800,"station_id":"ce4bh0h2rcd13ifvqd40","pricing_plan_id":"cebpf4jnsgd1na2vs0mg"},{"bike_id":"3e09b4e4-6c09-480b-8e92-31515e777bc4","system_id":"levelo_inurba_marseille","lat":43.28671,"lon":5.38655,"is_reserved":false,"is_disabled":false,"rental_uris":{"android":"levelo://app?vid=3e09b4e4-6c09-480b-8e92-31515e777bc4","ios":"levelo://app?vid=3e09b4e4-6c09-480b-8e92-31515e777bc4"},"vehicle_type_id":"4","last_reported":1727100513,"current_range_meters":11200,"station_id":"ce4bh492rcd13ifvqdug","pricing_plan_id":"cebpf4jnsgd1na2vs0mg"},{"bike_id":"d85fc27d-bb19-4e77-9ed0-c67c88217cd7","system_id":"levelo_inurba_marseille","lat":43.28156,"lon":5.42641,"is_reserved":false,"is_disabled":false,"rental_uris":{"android":"levelo://app?vid=d85fc27d-bb19-4e77-9ed0-c67c88217cd7","ios":"levelo://app?vid=d85fc27d-bb19-4e77-9ed0-c67c88217cd7"},"vehicle_type_id":"4","last_reported":1727100513,"current_range_meters":36400,"station_id":"ce4bhnh2rcd13ifvqgug","pricing_plan_id":"cebpf4jnsgd1na2vs0mg"},{"bike_id":"9e703b0e-ad33-471f-84f0-0b21e4b75a38","system_id":"levelo_inurba_marseille","lat":43.32293,"lon":5.40953,"is_reserved":false,"is_disabled":false,"rental_uris":{"android":"levelo://app?vid=9e703b0e-ad33-471f-84f0-0b21e4b75a38","ios":"levelo://app?vid=9e703b0e-ad33-471f-84f0-0b21e4b75a38"},"vehicle_type_id":"4","last_reported":1727100513,"current_range_meters":36400,"station_id":"ce4bhpp2rcd13ifvqhgg","pricing_plan_id":"cebpf4jnsgd1na2vs0mg"},{"bike_id":"087aba91-ea0b-4d48-9413-f2d59902b1b0","system_id":"levelo_inurba_marseille","lat":43.26498,"lon":5.39537,"is_reserved":false,"is_disabled":false,"rental_uris":{"android":"levelo://app?vid=087aba91-ea0b-4d48-9413-f2d59902b1b0","ios":"levelo://app?vid=087aba91-ea0b-4d48-9413-f2d59902b1b0"},"vehicle_type_id":"4","last_reported":1727100513,"current_range_meters":10800,"station_id":"ce4bhi12rcd13ifvqfq0","pricing_plan_id":"cebpf4jnsgd1na2vs0mg"},{"bike_id":"dfecea0a-0422-4bc0-a57a-bf86bc071c86","system_id":"levelo_inurba_marseille","lat":43.25933,"lon":5.40908,"is_reserved":false,"is_disabled":false,"rental_uris":{"android":"levelo://app?vid=dfecea0a-0422-4bc0-a57a-bf86bc071c86","ios":"levelo://app?vid=dfecea0a-0422-4bc0-a57a-bf86bc071c86"},"vehicle_type_id":"4","last_reported":1727100513,"current_range_meters":24000,"station_id":"ce4bhm92rcd13ifvqglg","pricing_plan_id":"cebpf4jnsgd1na2vs0mg"},{"bike_id":"19104d84-4c6c-467f-8132-b47fc994a766","system_id":"levelo_inurba_marseille","lat":43.29571,"lon":5.37514,"is_reserved":false,"is_disabled":false,"rental_uris":{"android":"levelo://app?vid=19104d84-4c6c-467f-8132-b47fc994a766","ios":"levelo://app?vid=19104d84-4c6c-467f-8132-b47fc994a766"},"vehicle_type_id":"4","last_reported":1727100513,"current_range_meters":20000,"station_id":"ce4bgh92rcd13ifvqb50","pricing_plan_id":"cebpf4jnsgd1na2vs0mg"},{"bike_id":"18ec8830-6b01-48f2-a7d7-2188544ece93","system_id":"levelo_inurba_marseille","lat":43.29609,"lon":5.36126,"is_reserved":false,"is_disabled":false,"rental_uris":{"android":"levelo://app?vid=18ec8830-6b01-48f2-a7d7-2188544ece93","ios":"levelo://app?vid=18ec8830-6b01-48f2-a7d7-2188544ece93"},"vehicle_type_id":"4","last_reported":1727100513,"current_range_meters":34000,"station_id":"","pricing_plan_id":"cebpf4jnsgd1na2vs0mg"},{"bike_id":"9e491187-6eae-4713-bd6c-e99251300247","system_id":"levelo_inurba_marseille","lat":43.2594,"lon":5.40901,"is_reserved":false,"is_disabled":false,"rental_uris":{"android":"levelo://app?vid=9e491187-6eae-4713-bd6c-e99251300247","ios":"levelo://app?vid=9e491187-6eae-4713-bd6c-e99251300247"},"vehicle_type_id":"4","last_reported":1727100513,"current_range_meters":28000,"station_id":"ce4bhm92rcd13ifvqglg","pricing_plan_id":"cebpf4jnsgd1na2vs0mg"},{"bike_id":"20a042f1-81aa-4cde-8548-4f002e395336","system_id":"levelo_inurba_marseille","lat":43.30195,"lon":5.39821,"is_reserved":false,"is_disabled":false,"rental_uris":{"android":"levelo://app?vid=20a042f1-81aa-4cde-8548-4f002e395336","ios":"levelo://app?vid=20a042f1-81aa-4cde-8548-4f002e395336"},"vehicle_type_id":"4","last_reported":1727100513,"current_range_meters":30400,"station_id":"ce4bgvp2rcd13ifvqct0","pricing_plan_id":"cebpf4jnsgd1na2vs0mg"},{"bike_id":"dc398505-6983-4a61-af49-e9e3eed0c864","system_id":"levelo_inurba_marseille","lat":43.30889,"lon":5.37191,"is_reserved":false,"is_disabled":false,"rental_uris":{"android":"levelo://app?vid=dc398505-6983-4a61-af49-e9e3eed0c864","ios":"levelo://app?vid=dc398505-6983-4a61-af49-e9e3eed0c864"},"vehicle_type_id":"4","last_reported":1727100513,"current_range_meters":38800,"station_id":"ce4bguh2rcd13ifvqckg","pricing_plan_id":"cebpf4jnsgd1na2vs0mg"},{"bike_id":"8caa57b5-327a-46e9-9e2b-d0d662b2674f","system_id":"levelo_inurba_marseille","lat":43.25723,"lon":5.41115,"is_reserved":false,"is_disabled":false,"rental_uris":{"android":"levelo://app?vid=8caa57b5-327a-46e9-9e2b-d0d662b2674f","ios":"levelo://app?vid=8caa57b5-327a-46e9-9e2b-d0d662b2674f"},"vehicle_type_id":"4","last_reported":1727100513,"current_range_meters":24400,"station_id":"ce4bhkp2rcd13ifvqgd0","pricing_plan_id":"cebpf4jnsgd1na2vs0mg"},{"bike_id":"e78c7345-bdab-4e40-a86a-477b9717af1e","system_id":"levelo_inurba_marseille","lat":43.24072,"lon":5.37763,"is_reserved":false,"is_disabled":false,"rental_uris":{"android":"levelo://app?vid=e78c7345-bdab-4e40-a86a-477b9717af1e","ios":"levelo://app?vid=e78c7345-bdab-4e40-a86a-477b9717af1e"},"vehicle_type_id":"4","last_reported":1727100513,"current_range_meters":34800,"station_id":"ce4bhnp2rcd13ifvqgvg","pricing_plan_id":"cebpf4jnsgd1na2vs0mg"},{"bike_id":"9021727d-d889-4091-9b8b-0f27a4d3e6c8","system_id":"levelo_inurba_marseille","lat":43.26685,"lon":5.3827,"is_reserved":false,"is_disabled":false,"rental_uris":{"android":"levelo://app?vid=9021727d-d889-4091-9b8b-0f27a4d3e6c8","ios":"levelo://app?vid=9021727d-d889-4091-9b8b-0f27a4d3e6c8"},"vehicle_type_id":"4","last_reported":1727100513,"current_range_meters":30000,"station_id":"ce4bhg92rcd13ifvqf90","pricing_plan_id":"cebpf4jnsgd1na2vs0mg"},{"bike_id":"b43b9bd8-d0a0-4706-a333-f946c76d6781","system_id":"levelo_inurba_marseille","lat":43.26212,"lon":5.3744,"is_reserved":false,"is_disabled":false,"rental_uris":{"android":"levelo://app?vid=b43b9bd8-d0a0-4706-a333-f946c76d6781","ios":"levelo://app?vid=b43b9bd8-d0a0-4706-a333-f946c76d6781"},"vehicle_type_id":"4","last_reported":1727100513,"current_range_meters":6000,"station_id":"ce4bhgp2rcd13ifvqfc0","pricing_plan_id":"cebpf4jnsgd1na2vs0mg"},{"bike_id":"f7adb0ea-e195-40b9-9d71-9b4f032c7ddb","system_id":"levelo_inurba_marseille","lat":43.23151,"lon":5.43707,"is_reserved":false,"is_disabled":false,"rental_uris":{"android":"levelo://app?vid=f7adb0ea-e195-40b9-9d71-9b4f032c7ddb","ios":"levelo://app?vid=f7adb0ea-e195-40b9-9d71-9b4f032c7ddb"},"vehicle_type_id":"4","last_reported":1727100513,"current_range_meters":38000,"station_id":"ce4bhmp2rcd13ifvqgog","pricing_plan_id":"cebpf4jnsgd1na2vs0mg"},{"bike_id":"80eca223-4a73-4a65-a903-bcf7afbbc7bd","system_id":"levelo_inurba_marseille","lat":43.23151,"lon":5.43709,"is_reserved":false,"is_disabled":false,"rental_uris":{"android":"levelo://app?vid=80eca223-4a73-4a65-a903-bcf7afbbc7bd","ios":"levelo://app?vid=80eca223-4a73-4a65-a903-bcf7afbbc7bd"},"vehicle_type_id":"4","last_reported":1727100513,"current_range_meters":38800,"station_id":"ce4bhmp2rcd13ifvqgog","pricing_plan_id":"cebpf4jnsgd1na2vs0mg"},{"bike_id":"1f1f13cc-72ab-45bc-92d5-7872d5d302ee","system_id":"levelo_inurba_marseille","lat":43.337583,"lon":5.374568,"is_reserved":false,"is_disabled":false,"rental_uris":{"android":"levelo://app?vid=1f1f13cc-72ab-45bc-92d5-7872d5d302ee","ios":"levelo://app?vid=1f1f13cc-72ab-45bc-92d5-7872d5d302ee"},"vehicle_type_id":"4","last_reported":1727100513,"current_range_meters":34000,"station_id":"","pricing_plan_id":"cebpf4jnsgd1na2vs0mg"},{"bike_id":"cd9594fa-4984-4154-89d4-223f48e1506a","system_id":"levelo_inurba_marseille","lat":43.292706,"lon":5.38419,"is_reserved":false,"is_disabled":false,"rental_uris":{"android":"levelo://app?vid=cd9594fa-4984-4154-89d4-223f48e1506a","ios":"levelo://app?vid=cd9594fa-4984-4154-89d4-223f48e1506a"},"vehicle_type_id":"4","last_reported":1727100513,"current_range_meters":22000,"station_id":"ce4bh692rcd13ifvqea0","pricing_plan_id":"cebpf4jnsgd1na2vs0mg"},{"bike_id":"7bce0dce-41e1-4498-a253-53fc28cf30cc","system_id":"levelo_inurba_marseille","lat":43.29424,"lon":5.38622,"is_reserved":false,"is_disabled":false,"rental_uris":{"android":"levelo://app?vid=7bce0dce-41e1-4498-a253-53fc28cf30cc","ios":"levelo://app?vid=7bce0dce-41e1-4498-a253-53fc28cf30cc"},"vehicle_type_id":"4","last_reported":1727100513,"current_range_meters":38800,"station_id":"ce4bh2h2rcd13ifvqdh0","pricing_plan_id":"cebpf4jnsgd1na2vs0mg"},{"bike_id":"4117225d-fbf7-489f-a9f9-a7903758f15d","system_id":"levelo_inurba_marseille","lat":43.337444,"lon":5.374475,"is_reserved":false,"is_disabled":false,"rental_uris":{"android":"levelo://app?vid=4117225d-fbf7-489f-a9f9-a7903758f15d","ios":"levelo://app?vid=4117225d-fbf7-489f-a9f9-a7903758f15d"},"vehicle_type_id":"4","last_reported":1727100513,"current_range_meters":25600,"station_id":"","pricing_plan_id":"cebpf4jnsgd1na2vs0mg"},{"bike_id":"96bba420-4282-4fe4-894f-bc1c72461062","system_id":"levelo_inurba_marseille","lat":43.31761,"lon":5.39012,"is_reserved":false,"is_disabled":false,"rental_uris":{"android":"levelo://app?vid=96bba420-4282-4fe4-894f-bc1c72461062","ios":"levelo://app?vid=96bba420-4282-4fe4-894f-bc1c72461062"},"vehicle_type_id":"4","last_reported":1727100513,"current_range_meters":34000,"station_id":"ce4bhqp2rcd13ifvqhng","pricing_plan_id":"cebpf4jnsgd1na2vs0mg"},{"bike_id":"b1889b7b-aed6-44b9-9181-8e33ba59fa99","system_id":"levelo_inurba_marseille","lat":43.2418,"lon":5.39724,"is_reserved":false,"is_disabled":false,"rental_uris":{"android":"levelo://app?vid=b1889b7b-aed6-44b9-9181-8e33ba59fa99","ios":"levelo://app?vid=b1889b7b-aed6-44b9-9181-8e33ba59fa99"},"vehicle_type_id":"4","last_reported":1727100513,"current_range_meters":16800,"station_id":"ce4bhn12rcd13ifvqgpg","pricing_plan_id":"cebpf4jnsgd1na2vs0mg"},{"bike_id":"fb393e0c-478d-4b6e-9798-120a64d86fcc","system_id":"levelo_inurba_marseille","lat":43.24176,"lon":5.364,"is_reserved":false,"is_disabled":false,"rental_uris":{"android":"levelo://app?vid=fb393e0c-478d-4b6e-9798-120a64d86fcc","ios":"levelo://app?vid=fb393e0c-478d-4b6e-9798-120a64d86fcc"},"vehicle_type_id":"4","last_reported":1727100513,"current_range_meters":36800,"station_id":"cpo36qri1sfpv3e86is0","pricing_plan_id":"cebpf4jnsgd1na2vs0mg"},{"bike_id":"685bc964-56df-43c5-84a4-6b3023273951","system_id":"levelo_inurba_marseille","lat":43.29637,"lon":5.40595,"is_reserved":false,"is_disabled":false,"rental_uris":{"android":"levelo://app?vid=685bc964-56df-43c5-84a4-6b3023273951","ios":"levelo://app?vid=685bc964-56df-43c5-84a4-6b3023273951"},"vehicle_type_id":"4","last_reported":1727100513,"current_range_meters":29600,"station_id":"ce4bh0h2rcd13ifvqd60","pricing_plan_id":"cebpf4jnsgd1na2vs0mg"},{"bike_id":"bb5ae66c-4144-423b-a10e-dff9a425ecd4","system_id":"levelo_inurba_marseille","lat":43.29963,"lon":5.41323,"is_reserved":false,"is_disabled":false,"rental_uris":{"android":"levelo://app?vid=bb5ae66c-4144-423b-a10e-dff9a425ecd4","ios":"levelo://app?vid=bb5ae66c-4144-423b-a10e-dff9a425ecd4"},"vehicle_type_id":"4","last_reported":1727100513,"current_range_meters":38800,"station_id":"ce4bhp12rcd13ifvqh9g","pricing_plan_id":"cebpf4jnsgd1na2vs0mg"},{"bike_id":"2fc34bba-a2b4-4632-bf54-64bcff937e6e","system_id":"levelo_inurba_marseille","lat":43.32487,"lon":5.36555,"is_reserved":false,"is_disabled":false,"rental_uris":{"android":"levelo://app?vid=2fc34bba-a2b4-4632-bf54-64bcff937e6e","ios":"levelo://app?vid=2fc34bba-a2b4-4632-bf54-64bcff937e6e"},"vehicle_type_id":"4","last_reported":1727100513,"current_range_meters":38400,"station_id":"ce4bhs12rcd13ifvqhvg","pricing_plan_id":"cebpf4jnsgd1na2vs0mg"},{"bike_id":"79601ad2-ce0e-41dc-94e0-5a1992d8220b","system_id":"levelo_inurba_marseille","lat":43.28352,"lon":5.3863,"is_reserved":false,"is_disabled":false,"rental_uris":{"android":"levelo://app?vid=79601ad2-ce0e-41dc-94e0-5a1992d8220b","ios":"levelo://app?vid=79601ad2-ce0e-41dc-94e0-5a1992d8220b"},"vehicle_type_id":"4","last_reported":1727100513,"current_range_meters":24800,"station_id":"ce4bh492rcd13ifvqdvg","pricing_plan_id":"cebpf4jnsgd1na2vs0mg"},{"bike_id":"48ef8390-07ba-4ed2-8f75-f8fd9eac2e7a","system_id":"levelo_inurba_marseille","lat":43.28463,"lon":5.384019,"is_reserved":false,"is_disabled":false,"rental_uris":{"android":"levelo://app?vid=48ef8390-07ba-4ed2-8f75-f8fd9eac2e7a","ios":"levelo://app?vid=48ef8390-07ba-4ed2-8f75-f8fd9eac2e7a"},"vehicle_type_id":"4","last_reported":1727100513,"current_range_meters":2800,"station_id":"ce4bh512rcd13ifvqe3g","pricing_plan_id":"cebpf4jnsgd1na2vs0mg"},{"bike_id":"a0edd235-9112-4738-ae17-f58c690ab2f4","system_id":"levelo_inurba_marseille","lat":43.32492,"lon":5.36555,"is_reserved":false,"is_disabled":false,"rental_uris":{"android":"levelo://app?vid=a0edd235-9112-4738-ae17-f58c690ab2f4","ios":"levelo://app?vid=a0edd235-9112-4738-ae17-f58c690ab2f4"},"vehicle_type_id":"4","last_reported":1727100513,"current_range_meters":39200,"station_id":"ce4bhs12rcd13ifvqhvg","pricing_plan_id":"cebpf4jnsgd1na2vs0mg"},{"bike_id":"d963db78-0f07-4923-90a3-479cbc550064","system_id":"levelo_inurba_marseille","lat":43.257202,"lon":5.411142,"is_reserved":false,"is_disabled":false,"rental_uris":{"android":"levelo://app?vid=d963db78-0f07-4923-90a3-479cbc550064","ios":"levelo://app?vid=d963db78-0f07-4923-90a3-479cbc550064"},"vehicle_type_id":"4","last_reported":1727100513,"current_range_meters":7200,"station_id":"ce4bhkp2rcd13ifvqgd0","pricing_plan_id":"cebpf4jnsgd1na2vs0mg"},{"bike_id":"eb854808-7c92-46c5-957f-652344786cca","system_id":"levelo_inurba_marseille","lat":43.24177,"lon":5.39728,"is_reserved":false,"is_disabled":false,"rental_uris":{"android":"levelo://app?vid=eb854808-7c92-46c5-957f-652344786cca","ios":"levelo://app?vid=eb854808-7c92-46c5-957f-652344786cca"},"vehicle_type_id":"4","last_reported":1727100513,"current_range_meters":11600,"station_id":"ce4bhn12rcd13ifvqgpg","pricing_plan_id":"cebpf4jnsgd1na2vs0mg"},{"bike_id":"860c8e9d-4001-4aaa-b1f1-ab02b2cccfa4","system_id":"levelo_inurba_marseille","lat":43.3249,"lon":5.36574,"is_reserved":false,"is_disabled":false,"rental_uris":{"android":"levelo://app?vid=860c8e9d-4001-4aaa-b1f1-ab02b2cccfa4","ios":"levelo://app?vid=860c8e9d-4001-4aaa-b1f1-ab02b2cccfa4"},"vehicle_type_id":"4","last_reported":1727100513,"current_range_meters":24800,"station_id":"ce4bhs12rcd13ifvqhvg","pricing_plan_id":"cebpf4jnsgd1na2vs0mg"},{"bike_id":"9f94a856-64e9-430e-a047-8d7780ee485d","system_id":"levelo_inurba_marseille","lat":43.30958,"lon":5.37944,"is_reserved":false,"is_disabled":false,"rental_uris":{"android":"levelo://app?vid=9f94a856-64e9-430e-a047-8d7780ee485d","ios":"levelo://app?vid=9f94a856-64e9-430e-a047-8d7780ee485d"},"vehicle_type_id":"4","last_reported":1727100513,"current_range_meters":38400,"station_id":"ce4bgt92rcd13ifvqcf0","pricing_plan_id":"cebpf4jnsgd1na2vs0mg"},{"bike_id":"84daa11a-5876-4f90-8c91-9e2c87df8f28","system_id":"levelo_inurba_marseille","lat":43.28154,"lon":5.42645,"is_reserved":false,"is_disabled":false,"rental_uris":{"android":"levelo://app?vid=84daa11a-5876-4f90-8c91-9e2c87df8f28","ios":"levelo://app?vid=84daa11a-5876-4f90-8c91-9e2c87df8f28"},"vehicle_type_id":"4","last_reported":1727100513,"current_range_meters":8400,"station_id":"ce4bhnh2rcd13ifvqgug","pricing_plan_id":"cebpf4jnsgd1na2vs0mg"},{"bike_id":"f3601fa0-0b0a-43f6-a7c1-10157ed5a095","system_id":"levelo_inurba_marseille","lat":43.31308,"lon":5.38615,"is_reserved":false,"is_disabled":false,"rental_uris":{"android":"levelo://app?vid=f3601fa0-0b0a-43f6-a7c1-10157ed5a095","ios":"levelo://app?vid=f3601fa0-0b0a-43f6-a7c1-10157ed5a095"},"vehicle_type_id":"4","last_reported":1727100513,"current_range_meters":8400,"station_id":"ce4bgt92rcd13ifvqcf0","pricing_plan_id":"cebpf4jnsgd1na2vs0mg"},{"bike_id":"140f78e3-6ad7-4805-8655-ec7fd5ac34ca","system_id":"levelo_inurba_marseille","lat":43.28618,"lon":5.35103,"is_reserved":false,"is_disabled":false,"rental_uris":{"android":"levelo://app?vid=140f78e3-6ad7-4805-8655-ec7fd5ac34ca","ios":"levelo://app?vid=140f78e3-6ad7-4805-8655-ec7fd5ac34ca"},"vehicle_type_id":"4","last_reported":1727100513,"current_range_meters":23200,"station_id":"ce4bhch2rcd13ifvqeug","pricing_plan_id":"cebpf4jnsgd1na2vs0mg"},{"bike_id":"3ebaaaec-15d2-494c-ab9e-13e8bcbe1874","system_id":"levelo_inurba_marseille","lat":43.29276,"lon":5.3686,"is_reserved":false,"is_disabled":false,"rental_uris":{"android":"levelo://app?vid=3ebaaaec-15d2-494c-ab9e-13e8bcbe1874","ios":"levelo://app?vid=3ebaaaec-15d2-494c-ab9e-13e8bcbe1874"},"vehicle_type_id":"4","last_reported":1727100513,"current_range_meters":30400,"station_id":"ce4bhbp2rcd13ifvqesg","pricing_plan_id":"cebpf4jnsgd1na2vs0mg"},{"bike_id":"624e3f94-9568-469c-ab6c-878c70b3a213","system_id":"levelo_inurba_marseille","lat":43.31493,"lon":5.37297,"is_reserved":false,"is_disabled":false,"rental_uris":{"android":"levelo://app?vid=624e3f94-9568-469c-ab6c-878c70b3a213","ios":"levelo://app?vid=624e3f94-9568-469c-ab6c-878c70b3a213"},"vehicle_type_id":"4","last_reported":1727100513,"current_range_meters":25600,"station_id":"ce4bgt12rcd13ifvqcd0","pricing_plan_id":"cebpf4jnsgd1na2vs0mg"},{"bike_id":"5632390e-03af-4541-960f-fec03f55a325","system_id":"levelo_inurba_marseille","lat":43.2707,"lon":5.4228,"is_reserved":false,"is_disabled":false,"rental_uris":{"android":"levelo://app?vid=5632390e-03af-4541-960f-fec03f55a325","ios":"levelo://app?vid=5632390e-03af-4541-960f-fec03f55a325"},"vehicle_type_id":"4","last_reported":1727100513,"current_range_meters":11600,"station_id":"ce4bhk92rcd13ifvqgb0","pricing_plan_id":"cebpf4jnsgd1na2vs0mg"},{"bike_id":"2b26ac36-e341-4854-a9d6-915450d3500a","system_id":"levelo_inurba_marseille","lat":43.2707,"lon":5.42275,"is_reserved":false,"is_disabled":false,"rental_uris":{"android":"levelo://app?vid=2b26ac36-e341-4854-a9d6-915450d3500a","ios":"levelo://app?vid=2b26ac36-e341-4854-a9d6-915450d3500a"},"vehicle_type_id":"4","last_reported":1727100513,"current_range_meters":37600,"station_id":"ce4bhk92rcd13ifvqgb0","pricing_plan_id":"cebpf4jnsgd1na2vs0mg"},{"bike_id":"c5e5e375-9f3d-465e-8b48-044d5ae3d565","system_id":"levelo_inurba_marseille","lat":43.30948,"lon":5.39041,"is_reserved":false,"is_disabled":false,"rental_uris":{"android":"levelo://app?vid=c5e5e375-9f3d-465e-8b48-044d5ae3d565","ios":"levelo://app?vid=c5e5e375-9f3d-465e-8b48-044d5ae3d565"},"vehicle_type_id":"4","last_reported":1727100513,"current_range_meters":30400,"station_id":"ce4bgup2rcd13ifvqco0","pricing_plan_id":"cebpf4jnsgd1na2vs0mg"},{"bike_id":"5ac02ac5-91f4-4bb5-a9b4-f7275115ed59","system_id":"levelo_inurba_marseille","lat":43.23159,"lon":5.43702,"is_reserved":false,"is_disabled":false,"rental_uris":{"android":"levelo://app?vid=5ac02ac5-91f4-4bb5-a9b4-f7275115ed59","ios":"levelo://app?vid=5ac02ac5-91f4-4bb5-a9b4-f7275115ed59"},"vehicle_type_id":"4","last_reported":1727100513,"current_range_meters":23200,"station_id":"ce4bhmp2rcd13ifvqgog","pricing_plan_id":"cebpf4jnsgd1na2vs0mg"},{"bike_id":"5a7a150b-23bd-4942-8ebd-6bf1eaac4778","system_id":"levelo_inurba_marseille","lat":43.28266,"lon":5.35068,"is_reserved":false,"is_disabled":false,"rental_uris":{"android":"levelo://app?vid=5a7a150b-23bd-4942-8ebd-6bf1eaac4778","ios":"levelo://app?vid=5a7a150b-23bd-4942-8ebd-6bf1eaac4778"},"vehicle_type_id":"4","last_reported":1727100513,"current_range_meters":25600,"station_id":"ce4bhbp2rcd13ifvqerg","pricing_plan_id":"cebpf4jnsgd1na2vs0mg"},{"bike_id":"674e68b2-4030-4087-a611-849d53ccb923","system_id":"levelo_inurba_marseille","lat":43.294639,"lon":5.374581,"is_reserved":false,"is_disabled":false,"rental_uris":{"android":"levelo://app?vid=674e68b2-4030-4087-a611-849d53ccb923","ios":"levelo://app?vid=674e68b2-4030-4087-a611-849d53ccb923"},"vehicle_type_id":"4","last_reported":1727100513,"current_range_meters":16400,"station_id":"ce4bgkp2rcd13ifvqbmg","pricing_plan_id":"cebpf4jnsgd1na2vs0mg"},{"bike_id":"0ba2cc93-d70c-4d15-b4be-a0351ddeb414","system_id":"levelo_inurba_marseille","lat":43.27071,"lon":5.42273,"is_reserved":false,"is_disabled":false,"rental_uris":{"android":"levelo://app?vid=0ba2cc93-d70c-4d15-b4be-a0351ddeb414","ios":"levelo://app?vid=0ba2cc93-d70c-4d15-b4be-a0351ddeb414"},"vehicle_type_id":"4","last_reported":1727100513,"current_range_meters":5600,"station_id":"ce4bhk92rcd13ifvqgb0","pricing_plan_id":"cebpf4jnsgd1na2vs0mg"},{"bike_id":"72cba2ba-0dd9-48e6-b5e1-649b0f5f62ed","system_id":"levelo_inurba_marseille","lat":43.2867,"lon":5.36349,"is_reserved":false,"is_disabled":false,"rental_uris":{"android":"levelo://app?vid=72cba2ba-0dd9-48e6-b5e1-649b0f5f62ed","ios":"levelo://app?vid=72cba2ba-0dd9-48e6-b5e1-649b0f5f62ed"},"vehicle_type_id":"4","last_reported":1727100513,"current_range_meters":16400,"station_id":"ce4bhah2rcd13ifvqej0","pricing_plan_id":"cebpf4jnsgd1na2vs0mg"},{"bike_id":"36c416da-9158-44af-aa3a-06b103bea7bf","system_id":"levelo_inurba_marseille","lat":43.337444,"lon":5.374475,"is_reserved":false,"is_disabled":false,"rental_uris":{"android":"levelo://app?vid=36c416da-9158-44af-aa3a-06b103bea7bf","ios":"levelo://app?vid=36c416da-9158-44af-aa3a-06b103bea7bf"},"vehicle_type_id":"4","last_reported":1727100513,"current_range_meters":23200,"station_id":"","pricing_plan_id":"cebpf4jnsgd1na2vs0mg"},{"bike_id":"0c282b17-dd26-45d8-9076-326f0c295af5","system_id":"levelo_inurba_marseille","lat":43.29559,"lon":5.39737,"is_reserved":false,"is_disabled":false,"rental_uris":{"android":"levelo://app?vid=0c282b17-dd26-45d8-9076-326f0c295af5","ios":"levelo://app?vid=0c282b17-dd26-45d8-9076-326f0c295af5"},"vehicle_type_id":"4","last_reported":1727100513,"current_range_meters":35200,"station_id":"","pricing_plan_id":"cebpf4jnsgd1na2vs0mg"},{"bike_id":"5941ac42-dfb9-41c2-9de8-46b16ef0034a","system_id":"levelo_inurba_marseille","lat":43.30912,"lon":5.36848,"is_reserved":false,"is_disabled":false,"rental_uris":{"android":"levelo://app?vid=5941ac42-dfb9-41c2-9de8-46b16ef0034a","ios":"levelo://app?vid=5941ac42-dfb9-41c2-9de8-46b16ef0034a"},"vehicle_type_id":"4","last_reported":1727100513,"current_range_meters":11200,"station_id":"ce4bgn92rcd13ifvqbvg","pricing_plan_id":"cebpf4jnsgd1na2vs0mg"},{"bike_id":"14bcbdfd-0044-4414-82b7-c589790b3645","system_id":"levelo_inurba_marseille","lat":43.29553,"lon":5.42277,"is_reserved":false,"is_disabled":false,"rental_uris":{"android":"levelo://app?vid=14bcbdfd-0044-4414-82b7-c589790b3645","ios":"levelo://app?vid=14bcbdfd-0044-4414-82b7-c589790b3645"},"vehicle_type_id":"4","last_reported":1727100513,"current_range_meters":37600,"station_id":"ce4bhph2rcd13ifvqhdg","pricing_plan_id":"cebpf4jnsgd1na2vs0mg"},{"bike_id":"f4152faf-d4f2-445e-a2a0-39155cff6b1e","system_id":"levelo_inurba_marseille","lat":43.30784,"lon":5.37645,"is_reserved":false,"is_disabled":false,"rental_uris":{"android":"levelo://app?vid=f4152faf-d4f2-445e-a2a0-39155cff6b1e","ios":"levelo://app?vid=f4152faf-d4f2-445e-a2a0-39155cff6b1e"},"vehicle_type_id":"4","last_reported":1727100513,"current_range_meters":27200,"station_id":"ce4bgv92rcd13ifvqcq0","pricing_plan_id":"cebpf4jnsgd1na2vs0mg"},{"bike_id":"5abf3738-3056-45d0-ad36-b5f63eb6c7bd","system_id":"levelo_inurba_marseille","lat":43.31713,"lon":5.43699,"is_reserved":false,"is_disabled":false,"rental_uris":{"android":"levelo://app?vid=5abf3738-3056-45d0-ad36-b5f63eb6c7bd","ios":"levelo://app?vid=5abf3738-3056-45d0-ad36-b5f63eb6c7bd"},"vehicle_type_id":"4","last_reported":1727100513,"current_range_meters":20400,"station_id":"ce4bhp92rcd13ifvqhcg","pricing_plan_id":"cebpf4jnsgd1na2vs0mg"},{"bike_id":"bcfab92a-dc6c-4038-8477-18be1eec815d","system_id":"levelo_inurba_marseille","lat":43.28158,"lon":5.42648,"is_reserved":false,"is_disabled":false,"rental_uris":{"android":"levelo://app?vid=bcfab92a-dc6c-4038-8477-18be1eec815d","ios":"levelo://app?vid=bcfab92a-dc6c-4038-8477-18be1eec815d"},"vehicle_type_id":"4","last_reported":1727100513,"current_range_meters":6400,"station_id":"ce4bhnh2rcd13ifvqgug","pricing_plan_id":"cebpf4jnsgd1na2vs0mg"},{"bike_id":"9535c4c1-db43-4da9-bd59-0e6bec13b4df","system_id":"levelo_inurba_marseille","lat":43.23151,"lon":5.43707,"is_reserved":false,"is_disabled":false,"rental_uris":{"android":"levelo://app?vid=9535c4c1-db43-4da9-bd59-0e6bec13b4df","ios":"levelo://app?vid=9535c4c1-db43-4da9-bd59-0e6bec13b4df"},"vehicle_type_id":"4","last_reported":1727100513,"current_range_meters":24400,"station_id":"ce4bhmp2rcd13ifvqgog","pricing_plan_id":"cebpf4jnsgd1na2vs0mg"},{"bike_id":"8261812b-44ce-44d0-8542-1f5eb0d4e986","system_id":"levelo_inurba_marseille","lat":43.23973,"lon":5.36629,"is_reserved":false,"is_disabled":false,"rental_uris":{"android":"levelo://app?vid=8261812b-44ce-44d0-8542-1f5eb0d4e986","ios":"levelo://app?vid=8261812b-44ce-44d0-8542-1f5eb0d4e986"},"vehicle_type_id":"4","last_reported":1727100513,"current_range_meters":16000,"station_id":"ce4bhi12rcd13ifvqfp0","pricing_plan_id":"cebpf4jnsgd1na2vs0mg"},{"bike_id":"dd719be2-980d-4ca0-969a-29016df0c0d6","system_id":"levelo_inurba_marseille","lat":43.29625,"lon":5.37167,"is_reserved":false,"is_disabled":false,"rental_uris":{"android":"levelo://app?vid=dd719be2-980d-4ca0-969a-29016df0c0d6","ios":"levelo://app?vid=dd719be2-980d-4ca0-969a-29016df0c0d6"},"vehicle_type_id":"4","last_reported":1727100513,"current_range_meters":38800,"station_id":"ce4bgnh2rcd13ifvqc0g","pricing_plan_id":"cebpf4jnsgd1na2vs0mg"},{"bike_id":"149779fc-bc45-458a-857f-33707eedaf6a","system_id":"levelo_inurba_marseille","lat":43.23196,"lon":5.3555,"is_reserved":false,"is_disabled":false,"rental_uris":{"android":"levelo://app?vid=149779fc-bc45-458a-857f-33707eedaf6a","ios":"levelo://app?vid=149779fc-bc45-458a-857f-33707eedaf6a"},"vehicle_type_id":"4","last_reported":1727100513,"current_range_meters":8800,"station_id":"ce4bhu92rcd13ifvqi70","pricing_plan_id":"cebpf4jnsgd1na2vs0mg"},{"bike_id":"dcd9b5d2-0de8-47f5-a370-a19a6ea66e01","system_id":"levelo_inurba_marseille","lat":43.28267,"lon":5.35072,"is_reserved":false,"is_disabled":false,"rental_uris":{"android":"levelo://app?vid=dcd9b5d2-0de8-47f5-a370-a19a6ea66e01","ios":"levelo://app?vid=dcd9b5d2-0de8-47f5-a370-a19a6ea66e01"},"vehicle_type_id":"4","last_reported":1727100513,"current_range_meters":32400,"station_id":"ce4bhbp2rcd13ifvqerg","pricing_plan_id":"cebpf4jnsgd1na2vs0mg"},{"bike_id":"8620dcac-2c9a-44f0-8283-969c0a44894d","system_id":"levelo_inurba_marseille","lat":43.24081,"lon":5.37744,"is_reserved":false,"is_disabled":false,"rental_uris":{"android":"levelo://app?vid=8620dcac-2c9a-44f0-8283-969c0a44894d","ios":"levelo://app?vid=8620dcac-2c9a-44f0-8283-969c0a44894d"},"vehicle_type_id":"4","last_reported":1727100513,"current_range_meters":27600,"station_id":"ce4bhnp2rcd13ifvqgvg","pricing_plan_id":"cebpf4jnsgd1na2vs0mg"},{"bike_id":"8159642d-3d51-4c2a-ad2f-702b541cf0de","system_id":"levelo_inurba_marseille","lat":43.29008,"lon":5.35612,"is_reserved":false,"is_disabled":false,"rental_uris":{"android":"levelo://app?vid=8159642d-3d51-4c2a-ad2f-702b541cf0de","ios":"levelo://app?vid=8159642d-3d51-4c2a-ad2f-702b541cf0de"},"vehicle_type_id":"4","last_reported":1727100513,"current_range_meters":30800,"station_id":"ce4bhb92rcd13ifvqen0","pricing_plan_id":"cebpf4jnsgd1na2vs0mg"},{"bike_id":"42605be8-369e-4a1c-8998-3722eda13610","system_id":"levelo_inurba_marseille","lat":43.28076,"lon":5.39657,"is_reserved":false,"is_disabled":false,"rental_uris":{"android":"levelo://app?vid=42605be8-369e-4a1c-8998-3722eda13610","ios":"levelo://app?vid=42605be8-369e-4a1c-8998-3722eda13610"},"vehicle_type_id":"4","last_reported":1727100513,"current_range_meters":8800,"station_id":"ce4bho12rcd13ifvqh2g","pricing_plan_id":"cebpf4jnsgd1na2vs0mg"},{"bike_id":"d1a5f142-f83f-44d0-8225-16faeae14601","system_id":"levelo_inurba_marseille","lat":43.31133,"lon":5.3829,"is_reserved":false,"is_disabled":false,"rental_uris":{"android":"levelo://app?vid=d1a5f142-f83f-44d0-8225-16faeae14601","ios":"levelo://app?vid=d1a5f142-f83f-44d0-8225-16faeae14601"},"vehicle_type_id":"4","last_reported":1727100513,"current_range_meters":21600,"station_id":"","pricing_plan_id":"cebpf4jnsgd1na2vs0mg"},{"bike_id":"43c9c65a-129a-4d9c-a289-ef0abbfc2f84","system_id":"levelo_inurba_marseille","lat":43.29298,"lon":5.3746,"is_reserved":false,"is_disabled":false,"rental_uris":{"android":"levelo://app?vid=43c9c65a-129a-4d9c-a289-ef0abbfc2f84","ios":"levelo://app?vid=43c9c65a-129a-4d9c-a289-ef0abbfc2f84"},"vehicle_type_id":"4","last_reported":1727100513,"current_range_meters":29600,"station_id":"ce4bgi12rcd13ifvqb70","pricing_plan_id":"cebpf4jnsgd1na2vs0mg"},{"bike_id":"edd382d6-9f76-42e1-b9cf-88738a1f6b1a","system_id":"levelo_inurba_marseille","lat":43.24548,"lon":5.39529,"is_reserved":false,"is_disabled":false,"rental_uris":{"android":"levelo://app?vid=edd382d6-9f76-42e1-b9cf-88738a1f6b1a","ios":"levelo://app?vid=edd382d6-9f76-42e1-b9cf-88738a1f6b1a"},"vehicle_type_id":"4","last_reported":1727100513,"current_range_meters":17600,"station_id":"ce4bhlp2rcd13ifvqgjg","pricing_plan_id":"cebpf4jnsgd1na2vs0mg"},{"bike_id":"366e1750-a6cf-4beb-8840-ea5f725678e1","system_id":"levelo_inurba_marseille","lat":43.29418,"lon":5.38627,"is_reserved":false,"is_disabled":false,"rental_uris":{"android":"levelo://app?vid=366e1750-a6cf-4beb-8840-ea5f725678e1","ios":"levelo://app?vid=366e1750-a6cf-4beb-8840-ea5f725678e1"},"vehicle_type_id":"4","last_reported":1727100513,"current_range_meters":32400,"station_id":"ce4bh2h2rcd13ifvqdh0","pricing_plan_id":"cebpf4jnsgd1na2vs0mg"},{"bike_id":"5d848626-f327-4779-85e1-7575ec48443c","system_id":"levelo_inurba_marseille","lat":43.30189,"lon":5.36616,"is_reserved":false,"is_disabled":false,"rental_uris":{"android":"levelo://app?vid=5d848626-f327-4779-85e1-7575ec48443c","ios":"levelo://app?vid=5d848626-f327-4779-85e1-7575ec48443c"},"vehicle_type_id":"4","last_reported":1727100513,"current_range_meters":38800,"station_id":"ce4bgrh2rcd13ifvqc8g","pricing_plan_id":"cebpf4jnsgd1na2vs0mg"},{"bike_id":"dafe2f44-ee56-49eb-8c83-6165d0f6e8ae","system_id":"levelo_inurba_marseille","lat":43.28155,"lon":5.42646,"is_reserved":false,"is_disabled":false,"rental_uris":{"android":"levelo://app?vid=dafe2f44-ee56-49eb-8c83-6165d0f6e8ae","ios":"levelo://app?vid=dafe2f44-ee56-49eb-8c83-6165d0f6e8ae"},"vehicle_type_id":"4","last_reported":1727100513,"current_range_meters":20800,"station_id":"ce4bhnh2rcd13ifvqgug","pricing_plan_id":"cebpf4jnsgd1na2vs0mg"},{"bike_id":"5e0960b3-5ac4-4497-b4a1-ff8a3f37f64c","system_id":"levelo_inurba_marseille","lat":43.24082,"lon":5.37737,"is_reserved":false,"is_disabled":false,"rental_uris":{"android":"levelo://app?vid=5e0960b3-5ac4-4497-b4a1-ff8a3f37f64c","ios":"levelo://app?vid=5e0960b3-5ac4-4497-b4a1-ff8a3f37f64c"},"vehicle_type_id":"4","last_reported":1727100513,"current_range_meters":38800,"station_id":"ce4bhnp2rcd13ifvqgvg","pricing_plan_id":"cebpf4jnsgd1na2vs0mg"},{"bike_id":"64c4e1e6-a103-4e8f-bd12-6bcb66364584","system_id":"levelo_inurba_marseille","lat":43.26565,"lon":5.38998,"is_reserved":false,"is_disabled":false,"rental_uris":{"android":"levelo://app?vid=64c4e1e6-a103-4e8f-bd12-6bcb66364584","ios":"levelo://app?vid=64c4e1e6-a103-4e8f-bd12-6bcb66364584"},"vehicle_type_id":"4","last_reported":1727100513,"current_range_meters":18000,"station_id":"ce4bhe12rcd13ifvqf30","pricing_plan_id":"cebpf4jnsgd1na2vs0mg"},{"bike_id":"a1130285-14c1-471d-a411-fb2eed577eff","system_id":"levelo_inurba_marseille","lat":43.23155,"lon":5.43691,"is_reserved":false,"is_disabled":false,"rental_uris":{"android":"levelo://app?vid=a1130285-14c1-471d-a411-fb2eed577eff","ios":"levelo://app?vid=a1130285-14c1-471d-a411-fb2eed577eff"},"vehicle_type_id":"4","last_reported":1727100513,"current_range_meters":28000,"station_id":"ce4bhmp2rcd13ifvqgog","pricing_plan_id":"cebpf4jnsgd1na2vs0mg"},{"bike_id":"320cc2ab-e32a-4a17-aa9c-41e07b7e6b23","system_id":"levelo_inurba_marseille","lat":43.28418,"lon":5.34979,"is_reserved":false,"is_disabled":false,"rental_uris":{"android":"levelo://app?vid=320cc2ab-e32a-4a17-aa9c-41e07b7e6b23","ios":"levelo://app?vid=320cc2ab-e32a-4a17-aa9c-41e07b7e6b23"},"vehicle_type_id":"4","last_reported":1727100513,"current_range_meters":16400,"station_id":"ce4bhbh2rcd13ifvqepg","pricing_plan_id":"cebpf4jnsgd1na2vs0mg"},{"bike_id":"a8feb379-7173-4f35-812f-fc4803dfd4fe","system_id":"levelo_inurba_marseille","lat":43.284668,"lon":5.392047,"is_reserved":false,"is_disabled":false,"rental_uris":{"android":"levelo://app?vid=a8feb379-7173-4f35-812f-fc4803dfd4fe","ios":"levelo://app?vid=a8feb379-7173-4f35-812f-fc4803dfd4fe"},"vehicle_type_id":"4","last_reported":1727100513,"current_range_meters":10800,"station_id":"ce4bhoh2rcd13ifvqh5g","pricing_plan_id":"cebpf4jnsgd1na2vs0mg"},{"bike_id":"0a761b4f-1539-479b-bdc1-c5b5b7f5c4e7","system_id":"levelo_inurba_marseille","lat":43.29569,"lon":5.37499,"is_reserved":false,"is_disabled":false,"rental_uris":{"android":"levelo://app?vid=0a761b4f-1539-479b-bdc1-c5b5b7f5c4e7","ios":"levelo://app?vid=0a761b4f-1539-479b-bdc1-c5b5b7f5c4e7"},"vehicle_type_id":"4","last_reported":1727100513,"current_range_meters":38800,"station_id":"ce4bgh92rcd13ifvqb50","pricing_plan_id":"cebpf4jnsgd1na2vs0mg"},{"bike_id":"e810b1ea-7589-45ed-a530-db1872157a56","system_id":"levelo_inurba_marseille","lat":43.29364,"lon":5.37822,"is_reserved":false,"is_disabled":false,"rental_uris":{"android":"levelo://app?vid=e810b1ea-7589-45ed-a530-db1872157a56","ios":"levelo://app?vid=e810b1ea-7589-45ed-a530-db1872157a56"},"vehicle_type_id":"4","last_reported":1727100513,"current_range_meters":8400,"station_id":"ce4bgjh2rcd13ifvqbf0","pricing_plan_id":"cebpf4jnsgd1na2vs0mg"},{"bike_id":"7db71906-1af6-4b22-b77d-148c4a4afa71","system_id":"levelo_inurba_marseille","lat":43.23967,"lon":5.36631,"is_reserved":false,"is_disabled":false,"rental_uris":{"android":"levelo://app?vid=7db71906-1af6-4b22-b77d-148c4a4afa71","ios":"levelo://app?vid=7db71906-1af6-4b22-b77d-148c4a4afa71"},"vehicle_type_id":"4","last_reported":1727100513,"current_range_meters":36000,"station_id":"ce4bhi12rcd13ifvqfp0","pricing_plan_id":"cebpf4jnsgd1na2vs0mg"},{"bike_id":"c0bf08f8-39b8-43bf-8302-ac2a4dd5ad58","system_id":"levelo_inurba_marseille","lat":43.29553,"lon":5.42281,"is_reserved":false,"is_disabled":false,"rental_uris":{"android":"levelo://app?vid=c0bf08f8-39b8-43bf-8302-ac2a4dd5ad58","ios":"levelo://app?vid=c0bf08f8-39b8-43bf-8302-ac2a4dd5ad58"},"vehicle_type_id":"4","last_reported":1727100513,"current_range_meters":27600,"station_id":"ce4bhph2rcd13ifvqhdg","pricing_plan_id":"cebpf4jnsgd1na2vs0mg"},{"bike_id":"88e4c0fa-72f1-440f-996a-774d6383e494","system_id":"levelo_inurba_marseille","lat":43.29844,"lon":5.36272,"is_reserved":false,"is_disabled":false,"rental_uris":{"android":"levelo://app?vid=88e4c0fa-72f1-440f-996a-774d6383e494","ios":"levelo://app?vid=88e4c0fa-72f1-440f-996a-774d6383e494"},"vehicle_type_id":"4","last_reported":1727100513,"current_range_meters":39200,"station_id":"ce4bgpp2rcd13ifvqc3g","pricing_plan_id":"cebpf4jnsgd1na2vs0mg"},{"bike_id":"44b50cd5-9fec-40b7-88e0-c89ccba3762c","system_id":"levelo_inurba_marseille","lat":43.2315,"lon":5.43707,"is_reserved":false,"is_disabled":false,"rental_uris":{"android":"levelo://app?vid=44b50cd5-9fec-40b7-88e0-c89ccba3762c","ios":"levelo://app?vid=44b50cd5-9fec-40b7-88e0-c89ccba3762c"},"vehicle_type_id":"4","last_reported":1727100513,"current_range_meters":39200,"station_id":"ce4bhmp2rcd13ifvqgog","pricing_plan_id":"cebpf4jnsgd1na2vs0mg"},{"bike_id":"50021678-8ebb-4b26-a6bd-9d7d194908b9","system_id":"levelo_inurba_marseille","lat":43.308627,"lon":5.388929,"is_reserved":false,"is_disabled":false,"rental_uris":{"android":"levelo://app?vid=50021678-8ebb-4b26-a6bd-9d7d194908b9","ios":"levelo://app?vid=50021678-8ebb-4b26-a6bd-9d7d194908b9"},"vehicle_type_id":"4","last_reported":1727100513,"current_range_meters":25600,"station_id":"","pricing_plan_id":"cebpf4jnsgd1na2vs0mg"},{"bike_id":"4cff611f-9f8d-4e14-a40e-5067293ba47c","system_id":"levelo_inurba_marseille","lat":43.240569,"lon":5.377633,"is_reserved":false,"is_disabled":false,"rental_uris":{"android":"levelo://app?vid=4cff611f-9f8d-4e14-a40e-5067293ba47c","ios":"levelo://app?vid=4cff611f-9f8d-4e14-a40e-5067293ba47c"},"vehicle_type_id":"4","last_reported":1727100513,"current_range_meters":35600,"station_id":"ce4bhnp2rcd13ifvqgvg","pricing_plan_id":"cebpf4jnsgd1na2vs0mg"},{"bike_id":"d79aca44-684b-4e6a-a4cf-1d4f7f444697","system_id":"levelo_inurba_marseille","lat":43.29884,"lon":5.38897,"is_reserved":false,"is_disabled":false,"rental_uris":{"android":"levelo://app?vid=d79aca44-684b-4e6a-a4cf-1d4f7f444697","ios":"levelo://app?vid=d79aca44-684b-4e6a-a4cf-1d4f7f444697"},"vehicle_type_id":"4","last_reported":1727100513,"current_range_meters":14000,"station_id":"ce4bh392rcd13ifvqdl0","pricing_plan_id":"cebpf4jnsgd1na2vs0mg"},{"bike_id":"3c62f824-7506-4c44-a7ff-d78b1c251a88","system_id":"levelo_inurba_marseille","lat":43.23194,"lon":5.35549,"is_reserved":false,"is_disabled":false,"rental_uris":{"android":"levelo://app?vid=3c62f824-7506-4c44-a7ff-d78b1c251a88","ios":"levelo://app?vid=3c62f824-7506-4c44-a7ff-d78b1c251a88"},"vehicle_type_id":"4","last_reported":1727100513,"current_range_meters":26000,"station_id":"ce4bhu92rcd13ifvqi70","pricing_plan_id":"cebpf4jnsgd1na2vs0mg"},{"bike_id":"6cbc2fdc-96a1-4bca-b822-56394ecb85a1","system_id":"levelo_inurba_marseille","lat":43.29557,"lon":5.42283,"is_reserved":false,"is_disabled":false,"rental_uris":{"android":"levelo://app?vid=6cbc2fdc-96a1-4bca-b822-56394ecb85a1","ios":"levelo://app?vid=6cbc2fdc-96a1-4bca-b822-56394ecb85a1"},"vehicle_type_id":"4","last_reported":1727100513,"current_range_meters":37600,"station_id":"ce4bhph2rcd13ifvqhdg","pricing_plan_id":"cebpf4jnsgd1na2vs0mg"},{"bike_id":"35909c8d-5481-401b-bf28-ace7ac383edb","system_id":"levelo_inurba_marseille","lat":43.23069,"lon":5.35493,"is_reserved":false,"is_disabled":false,"rental_uris":{"android":"levelo://app?vid=35909c8d-5481-401b-bf28-ace7ac383edb","ios":"levelo://app?vid=35909c8d-5481-401b-bf28-ace7ac383edb"},"vehicle_type_id":"4","last_reported":1727100513,"current_range_meters":10000,"station_id":"cpo3342slgdg3j2ifvpg","pricing_plan_id":"cebpf4jnsgd1na2vs0mg"},{"bike_id":"47582e93-95c9-4fa0-b589-7df1e3f081a5","system_id":"levelo_inurba_marseille","lat":43.28266,"lon":5.35069,"is_reserved":false,"is_disabled":false,"rental_uris":{"android":"levelo://app?vid=47582e93-95c9-4fa0-b589-7df1e3f081a5","ios":"levelo://app?vid=47582e93-95c9-4fa0-b589-7df1e3f081a5"},"vehicle_type_id":"4","last_reported":1727100513,"current_range_meters":38800,"station_id":"ce4bhbp2rcd13ifvqerg","pricing_plan_id":"cebpf4jnsgd1na2vs0mg"},{"bike_id":"6f6a9932-0dc5-4bcd-9168-607af425e5ac","system_id":"levelo_inurba_marseille","lat":43.29599,"lon":5.38103,"is_reserved":false,"is_disabled":false,"rental_uris":{"android":"levelo://app?vid=6f6a9932-0dc5-4bcd-9168-607af425e5ac","ios":"levelo://app?vid=6f6a9932-0dc5-4bcd-9168-607af425e5ac"},"vehicle_type_id":"4","last_reported":1727100513,"current_range_meters":6000,"station_id":"ce4bgl12rcd13ifvqbo0","pricing_plan_id":"cebpf4jnsgd1na2vs0mg"},{"bike_id":"1cd34231-e1e8-434c-abad-c03953d418ff","system_id":"levelo_inurba_marseille","lat":43.29562,"lon":5.42297,"is_reserved":false,"is_disabled":false,"rental_uris":{"android":"levelo://app?vid=1cd34231-e1e8-434c-abad-c03953d418ff","ios":"levelo://app?vid=1cd34231-e1e8-434c-abad-c03953d418ff"},"vehicle_type_id":"4","last_reported":1727100513,"current_range_meters":30000,"station_id":"ce4bhph2rcd13ifvqhdg","pricing_plan_id":"cebpf4jnsgd1na2vs0mg"},{"bike_id":"3efd4347-8f8c-41f5-9978-485fe0d08701","system_id":"levelo_inurba_marseille","lat":43.286721,"lon":5.386735,"is_reserved":false,"is_disabled":false,"rental_uris":{"android":"levelo://app?vid=3efd4347-8f8c-41f5-9978-485fe0d08701","ios":"levelo://app?vid=3efd4347-8f8c-41f5-9978-485fe0d08701"},"vehicle_type_id":"4","last_reported":1727100513,"current_range_meters":38800,"station_id":"ce4bh492rcd13ifvqdug","pricing_plan_id":"cebpf4jnsgd1na2vs0mg"},{"bike_id":"44099741-035e-4534-8c91-80464f84937f","system_id":"levelo_inurba_marseille","lat":43.26029,"lon":5.37548,"is_reserved":false,"is_disabled":false,"rental_uris":{"android":"levelo://app?vid=44099741-035e-4534-8c91-80464f84937f","ios":"levelo://app?vid=44099741-035e-4534-8c91-80464f84937f"},"vehicle_type_id":"4","last_reported":1727100513,"current_range_meters":20000,"station_id":"ce4bhgh2rcd13ifvqfa0","pricing_plan_id":"cebpf4jnsgd1na2vs0mg"},{"bike_id":"58e5abdb-c7e5-4982-98ad-4643304ace74","system_id":"levelo_inurba_marseille","lat":43.2797,"lon":5.38731,"is_reserved":false,"is_disabled":false,"rental_uris":{"android":"levelo://app?vid=58e5abdb-c7e5-4982-98ad-4643304ace74","ios":"levelo://app?vid=58e5abdb-c7e5-4982-98ad-4643304ace74"},"vehicle_type_id":"4","last_reported":1727100513,"current_range_meters":35200,"station_id":"ce4bhg12rcd13ifvqf80","pricing_plan_id":"cebpf4jnsgd1na2vs0mg"},{"bike_id":"3b2b32b1-081b-464a-b5e2-ce0b7792839b","system_id":"levelo_inurba_marseille","lat":43.2682,"lon":5.38027,"is_reserved":false,"is_disabled":false,"rental_uris":{"android":"levelo://app?vid=3b2b32b1-081b-464a-b5e2-ce0b7792839b","ios":"levelo://app?vid=3b2b32b1-081b-464a-b5e2-ce0b7792839b"},"vehicle_type_id":"4","last_reported":1727100513,"current_range_meters":24000,"station_id":"","pricing_plan_id":"cebpf4jnsgd1na2vs0mg"},{"bike_id":"e1749dfe-2710-40de-9b0b-4caf0aa58164","system_id":"levelo_inurba_marseille","lat":43.31532,"lon":5.38021,"is_reserved":false,"is_disabled":false,"rental_uris":{"android":"levelo://app?vid=e1749dfe-2710-40de-9b0b-4caf0aa58164","ios":"levelo://app?vid=e1749dfe-2710-40de-9b0b-4caf0aa58164"},"vehicle_type_id":"4","last_reported":1727100513,"current_range_meters":28000,"station_id":"ce4bhsp2rcd13ifvqi50","pricing_plan_id":"cebpf4jnsgd1na2vs0mg"},{"bike_id":"08ff513e-c5f9-46f3-bb09-f66bac6c04f9","system_id":"levelo_inurba_marseille","lat":43.2957,"lon":5.37516,"is_reserved":false,"is_disabled":false,"rental_uris":{"android":"levelo://app?vid=08ff513e-c5f9-46f3-bb09-f66bac6c04f9","ios":"levelo://app?vid=08ff513e-c5f9-46f3-bb09-f66bac6c04f9"},"vehicle_type_id":"4","last_reported":1727100513,"current_range_meters":38800,"station_id":"ce4bgh92rcd13ifvqb50","pricing_plan_id":"cebpf4jnsgd1na2vs0mg"},{"bike_id":"fea683b7-0b42-4db3-b2c4-48550e41f392","system_id":"levelo_inurba_marseille","lat":43.31486,"lon":5.37298,"is_reserved":false,"is_disabled":false,"rental_uris":{"android":"levelo://app?vid=fea683b7-0b42-4db3-b2c4-48550e41f392","ios":"levelo://app?vid=fea683b7-0b42-4db3-b2c4-48550e41f392"},"vehicle_type_id":"4","last_reported":1727100513,"current_range_meters":38800,"station_id":"ce4bgt12rcd13ifvqcd0","pricing_plan_id":"cebpf4jnsgd1na2vs0mg"},{"bike_id":"715c4804-6a86-4398-98ec-b57358573177","system_id":"levelo_inurba_marseille","lat":43.22938,"lon":5.35374,"is_reserved":false,"is_disabled":false,"rental_uris":{"android":"levelo://app?vid=715c4804-6a86-4398-98ec-b57358573177","ios":"levelo://app?vid=715c4804-6a86-4398-98ec-b57358573177"},"vehicle_type_id":"4","last_reported":1727100513,"current_range_meters":35200,"station_id":"cpo3532slgdg3j2ikp40","pricing_plan_id":"cebpf4jnsgd1na2vs0mg"},{"bike_id":"c2e0a82a-d759-495f-8efb-0e986c5a7e53","system_id":"levelo_inurba_marseille","lat":43.31767,"lon":5.39016,"is_reserved":false,"is_disabled":false,"rental_uris":{"android":"levelo://app?vid=c2e0a82a-d759-495f-8efb-0e986c5a7e53","ios":"levelo://app?vid=c2e0a82a-d759-495f-8efb-0e986c5a7e53"},"vehicle_type_id":"4","last_reported":1727100513,"current_range_meters":38800,"station_id":"ce4bhqp2rcd13ifvqhng","pricing_plan_id":"cebpf4jnsgd1na2vs0mg"},{"bike_id":"ae3bfa8a-7841-445d-931f-23a11d4b4b80","system_id":"levelo_inurba_marseille","lat":43.29848,"lon":5.36293,"is_reserved":false,"is_disabled":false,"rental_uris":{"android":"levelo://app?vid=ae3bfa8a-7841-445d-931f-23a11d4b4b80","ios":"levelo://app?vid=ae3bfa8a-7841-445d-931f-23a11d4b4b80"},"vehicle_type_id":"4","last_reported":1727100513,"current_range_meters":38000,"station_id":"ce4bgpp2rcd13ifvqc3g","pricing_plan_id":"cebpf4jnsgd1na2vs0mg"},{"bike_id":"ba2542eb-4a30-47aa-b57a-68ac954d789a","system_id":"levelo_inurba_marseille","lat":43.23192,"lon":5.35552,"is_reserved":false,"is_disabled":false,"rental_uris":{"android":"levelo://app?vid=ba2542eb-4a30-47aa-b57a-68ac954d789a","ios":"levelo://app?vid=ba2542eb-4a30-47aa-b57a-68ac954d789a"},"vehicle_type_id":"4","last_reported":1727100513,"current_range_meters":18000,"station_id":"ce4bhu92rcd13ifvqi70","pricing_plan_id":"cebpf4jnsgd1na2vs0mg"},{"bike_id":"cc3ddff0-82f0-4b1e-af91-f9c8fb85b899","system_id":"levelo_inurba_marseille","lat":43.31484,"lon":5.37301,"is_reserved":false,"is_disabled":false,"rental_uris":{"android":"levelo://app?vid=cc3ddff0-82f0-4b1e-af91-f9c8fb85b899","ios":"levelo://app?vid=cc3ddff0-82f0-4b1e-af91-f9c8fb85b899"},"vehicle_type_id":"4","last_reported":1727100513,"current_range_meters":14400,"station_id":"ce4bgt12rcd13ifvqcd0","pricing_plan_id":"cebpf4jnsgd1na2vs0mg"},{"bike_id":"6dd65d0e-8b7a-4b77-9bf9-ede98b693613","system_id":"levelo_inurba_marseille","lat":43.30331,"lon":5.36905,"is_reserved":false,"is_disabled":false,"rental_uris":{"android":"levelo://app?vid=6dd65d0e-8b7a-4b77-9bf9-ede98b693613","ios":"levelo://app?vid=6dd65d0e-8b7a-4b77-9bf9-ede98b693613"},"vehicle_type_id":"4","last_reported":1727100513,"current_range_meters":32000,"station_id":"ce4bgqh2rcd13ifvqc5g","pricing_plan_id":"cebpf4jnsgd1na2vs0mg"},{"bike_id":"9ab84b17-eb9b-4fc9-9b75-8115dd9a0898","system_id":"levelo_inurba_marseille","lat":43.28272,"lon":5.3507,"is_reserved":false,"is_disabled":false,"rental_uris":{"android":"levelo://app?vid=9ab84b17-eb9b-4fc9-9b75-8115dd9a0898","ios":"levelo://app?vid=9ab84b17-eb9b-4fc9-9b75-8115dd9a0898"},"vehicle_type_id":"4","last_reported":1727100513,"current_range_meters":16800,"station_id":"ce4bhbp2rcd13ifvqerg","pricing_plan_id":"cebpf4jnsgd1na2vs0mg"},{"bike_id":"311ce2d0-1047-4d3a-9509-ec91fb366f9b","system_id":"levelo_inurba_marseille","lat":43.28263,"lon":5.35063,"is_reserved":false,"is_disabled":false,"rental_uris":{"android":"levelo://app?vid=311ce2d0-1047-4d3a-9509-ec91fb366f9b","ios":"levelo://app?vid=311ce2d0-1047-4d3a-9509-ec91fb366f9b"},"vehicle_type_id":"4","last_reported":1727100513,"current_range_meters":2800,"station_id":"ce4bhbp2rcd13ifvqerg","pricing_plan_id":"cebpf4jnsgd1na2vs0mg"},{"bike_id":"915c30c1-e533-4519-b689-56286ad2fdd5","system_id":"levelo_inurba_marseille","lat":43.29536,"lon":5.3855,"is_reserved":false,"is_disabled":false,"rental_uris":{"android":"levelo://app?vid=915c30c1-e533-4519-b689-56286ad2fdd5","ios":"levelo://app?vid=915c30c1-e533-4519-b689-56286ad2fdd5"},"vehicle_type_id":"4","last_reported":1727100513,"current_range_meters":37600,"station_id":"ce4bgih2rcd13ifvqba0","pricing_plan_id":"cebpf4jnsgd1na2vs0mg"},{"bike_id":"6c1b457e-fb32-401b-8d63-f6965417de07","system_id":"levelo_inurba_marseille","lat":43.24184,"lon":5.39724,"is_reserved":false,"is_disabled":false,"rental_uris":{"android":"levelo://app?vid=6c1b457e-fb32-401b-8d63-f6965417de07","ios":"levelo://app?vid=6c1b457e-fb32-401b-8d63-f6965417de07"},"vehicle_type_id":"4","last_reported":1727100513,"current_range_meters":28800,"station_id":"ce4bhn12rcd13ifvqgpg","pricing_plan_id":"cebpf4jnsgd1na2vs0mg"},{"bike_id":"ee1f9b0f-dd8b-4d52-9818-385c51c4ad5f","system_id":"levelo_inurba_marseille","lat":43.26034,"lon":5.37553,"is_reserved":false,"is_disabled":false,"rental_uris":{"android":"levelo://app?vid=ee1f9b0f-dd8b-4d52-9818-385c51c4ad5f","ios":"levelo://app?vid=ee1f9b0f-dd8b-4d52-9818-385c51c4ad5f"},"vehicle_type_id":"4","last_reported":1727100513,"current_range_meters":32400,"station_id":"ce4bhgh2rcd13ifvqfa0","pricing_plan_id":"cebpf4jnsgd1na2vs0mg"},{"bike_id":"bc317d9e-48a7-4f01-b902-8e980d93cc47","system_id":"levelo_inurba_marseille","lat":43.29974,"lon":5.38494,"is_reserved":false,"is_disabled":false,"rental_uris":{"android":"levelo://app?vid=bc317d9e-48a7-4f01-b902-8e980d93cc47","ios":"levelo://app?vid=bc317d9e-48a7-4f01-b902-8e980d93cc47"},"vehicle_type_id":"4","last_reported":1727100513,"current_range_meters":16800,"station_id":"ce4bgj92rcd13ifvqbd0","pricing_plan_id":"cebpf4jnsgd1na2vs0mg"},{"bike_id":"3f1f21e6-f7ba-4e4f-a030-4d5b41f037e7","system_id":"levelo_inurba_marseille","lat":43.24081,"lon":5.37739,"is_reserved":false,"is_disabled":false,"rental_uris":{"android":"levelo://app?vid=3f1f21e6-f7ba-4e4f-a030-4d5b41f037e7","ios":"levelo://app?vid=3f1f21e6-f7ba-4e4f-a030-4d5b41f037e7"},"vehicle_type_id":"4","last_reported":1727100513,"current_range_meters":8800,"station_id":"ce4bhnp2rcd13ifvqgvg","pricing_plan_id":"cebpf4jnsgd1na2vs0mg"},{"bike_id":"2c3baefd-e174-4a0f-b3c0-c1acdaa422ad","system_id":"levelo_inurba_marseille","lat":43.25936,"lon":5.40912,"is_reserved":false,"is_disabled":false,"rental_uris":{"android":"levelo://app?vid=2c3baefd-e174-4a0f-b3c0-c1acdaa422ad","ios":"levelo://app?vid=2c3baefd-e174-4a0f-b3c0-c1acdaa422ad"},"vehicle_type_id":"4","last_reported":1727100513,"current_range_meters":32800,"station_id":"ce4bhm92rcd13ifvqglg","pricing_plan_id":"cebpf4jnsgd1na2vs0mg"},{"bike_id":"54db8160-556f-4838-beec-11d78ced79da","system_id":"levelo_inurba_marseille","lat":43.28152,"lon":5.4264,"is_reserved":false,"is_disabled":false,"rental_uris":{"android":"levelo://app?vid=54db8160-556f-4838-beec-11d78ced79da","ios":"levelo://app?vid=54db8160-556f-4838-beec-11d78ced79da"},"vehicle_type_id":"4","last_reported":1727100513,"current_range_meters":11200,"station_id":"ce4bhnh2rcd13ifvqgug","pricing_plan_id":"cebpf4jnsgd1na2vs0mg"},{"bike_id":"cf904d8e-dd56-4449-9634-5ec8fcd061ab","system_id":"levelo_inurba_marseille","lat":43.3375,"lon":5.37453,"is_reserved":false,"is_disabled":false,"rental_uris":{"android":"levelo://app?vid=cf904d8e-dd56-4449-9634-5ec8fcd061ab","ios":"levelo://app?vid=cf904d8e-dd56-4449-9634-5ec8fcd061ab"},"vehicle_type_id":"4","last_reported":1727100513,"current_range_meters":38000,"station_id":"","pricing_plan_id":"cebpf4jnsgd1na2vs0mg"},{"bike_id":"567c1d1a-885b-42b6-bd84-b4d37a5a7454","system_id":"levelo_inurba_marseille","lat":43.24082,"lon":5.37743,"is_reserved":false,"is_disabled":false,"rental_uris":{"android":"levelo://app?vid=567c1d1a-885b-42b6-bd84-b4d37a5a7454","ios":"levelo://app?vid=567c1d1a-885b-42b6-bd84-b4d37a5a7454"},"vehicle_type_id":"4","last_reported":1727100513,"current_range_meters":24800,"station_id":"ce4bhnp2rcd13ifvqgvg","pricing_plan_id":"cebpf4jnsgd1na2vs0mg"},{"bike_id":"2772836b-4837-483c-8c50-5569cfd8927c","system_id":"levelo_inurba_marseille","lat":43.29607,"lon":5.38097,"is_reserved":false,"is_disabled":false,"rental_uris":{"android":"levelo://app?vid=2772836b-4837-483c-8c50-5569cfd8927c","ios":"levelo://app?vid=2772836b-4837-483c-8c50-5569cfd8927c"},"vehicle_type_id":"4","last_reported":1727100513,"current_range_meters":16400,"station_id":"ce4bgl12rcd13ifvqbo0","pricing_plan_id":"cebpf4jnsgd1na2vs0mg"},{"bike_id":"7b73b428-3f20-4790-a66b-76c9e11c0d10","system_id":"levelo_inurba_marseille","lat":43.28264,"lon":5.35069,"is_reserved":false,"is_disabled":false,"rental_uris":{"android":"levelo://app?vid=7b73b428-3f20-4790-a66b-76c9e11c0d10","ios":"levelo://app?vid=7b73b428-3f20-4790-a66b-76c9e11c0d10"},"vehicle_type_id":"4","last_reported":1727100513,"current_range_meters":5600,"station_id":"ce4bhbp2rcd13ifvqerg","pricing_plan_id":"cebpf4jnsgd1na2vs0mg"},{"bike_id":"4691edbc-4be1-4ec0-ab2f-8a6dc562503b","system_id":"levelo_inurba_marseille","lat":43.27965,"lon":5.38744,"is_reserved":false,"is_disabled":false,"rental_uris":{"android":"levelo://app?vid=4691edbc-4be1-4ec0-ab2f-8a6dc562503b","ios":"levelo://app?vid=4691edbc-4be1-4ec0-ab2f-8a6dc562503b"},"vehicle_type_id":"4","last_reported":1727100513,"current_range_meters":16000,"station_id":"ce4bhg12rcd13ifvqf80","pricing_plan_id":"cebpf4jnsgd1na2vs0mg"},{"bike_id":"88b9e799-8ca8-4a61-b5eb-9e53190b49c1","system_id":"levelo_inurba_marseille","lat":43.28347,"lon":5.38095,"is_reserved":false,"is_disabled":false,"rental_uris":{"android":"levelo://app?vid=88b9e799-8ca8-4a61-b5eb-9e53190b49c1","ios":"levelo://app?vid=88b9e799-8ca8-4a61-b5eb-9e53190b49c1"},"vehicle_type_id":"4","last_reported":1727100513,"current_range_meters":35200,"station_id":"ce4bh412rcd13ifvqdr0","pricing_plan_id":"cebpf4jnsgd1na2vs0mg"},{"bike_id":"9fa1feed-d9b8-45d5-a825-62af101ac69c","system_id":"levelo_inurba_marseille","lat":43.31493,"lon":5.37312,"is_reserved":false,"is_disabled":false,"rental_uris":{"android":"levelo://app?vid=9fa1feed-d9b8-45d5-a825-62af101ac69c","ios":"levelo://app?vid=9fa1feed-d9b8-45d5-a825-62af101ac69c"},"vehicle_type_id":"4","last_reported":1727100513,"current_range_meters":28800,"station_id":"ce4bgt12rcd13ifvqcd0","pricing_plan_id":"cebpf4jnsgd1na2vs0mg"},{"bike_id":"3ccedb89-e60b-4314-a9fc-b337464aec61","system_id":"levelo_inurba_marseille","lat":43.29636,"lon":5.40595,"is_reserved":false,"is_disabled":false,"rental_uris":{"android":"levelo://app?vid=3ccedb89-e60b-4314-a9fc-b337464aec61","ios":"levelo://app?vid=3ccedb89-e60b-4314-a9fc-b337464aec61"},"vehicle_type_id":"4","last_reported":1727100513,"current_range_meters":36400,"station_id":"ce4bh0h2rcd13ifvqd60","pricing_plan_id":"cebpf4jnsgd1na2vs0mg"},{"bike_id":"2cb4d48c-c41a-4327-844b-c5c0fd6c0242","system_id":"levelo_inurba_marseille","lat":43.31485,"lon":5.37297,"is_reserved":false,"is_disabled":false,"rental_uris":{"android":"levelo://app?vid=2cb4d48c-c41a-4327-844b-c5c0fd6c0242","ios":"levelo://app?vid=2cb4d48c-c41a-4327-844b-c5c0fd6c0242"},"vehicle_type_id":"4","last_reported":1727100513,"current_range_meters":16000,"station_id":"ce4bgt12rcd13ifvqcd0","pricing_plan_id":"cebpf4jnsgd1na2vs0mg"},{"bike_id":"57c33fa0-eb25-4b89-8b6a-b37ca2a3d2cb","system_id":"levelo_inurba_marseille","lat":43.30209,"lon":5.39452,"is_reserved":false,"is_disabled":false,"rental_uris":{"android":"levelo://app?vid=57c33fa0-eb25-4b89-8b6a-b37ca2a3d2cb","ios":"levelo://app?vid=57c33fa0-eb25-4b89-8b6a-b37ca2a3d2cb"},"vehicle_type_id":"4","last_reported":1727100513,"current_range_meters":14400,"station_id":"ce4bh192rcd13ifvqdc0","pricing_plan_id":"cebpf4jnsgd1na2vs0mg"},{"bike_id":"fce734b4-6c36-4cb6-983c-c95238702258","system_id":"levelo_inurba_marseille","lat":43.31068,"lon":5.38105,"is_reserved":false,"is_disabled":false,"rental_uris":{"android":"levelo://app?vid=fce734b4-6c36-4cb6-983c-c95238702258","ios":"levelo://app?vid=fce734b4-6c36-4cb6-983c-c95238702258"},"vehicle_type_id":"4","last_reported":1727100513,"current_range_meters":7200,"station_id":"","pricing_plan_id":"cebpf4jnsgd1na2vs0mg"},{"bike_id":"26e48e7d-ced1-4978-920d-5f1de6d3325d","system_id":"levelo_inurba_marseille","lat":43.24656,"lon":5.38893,"is_reserved":false,"is_disabled":false,"rental_uris":{"android":"levelo://app?vid=26e48e7d-ced1-4978-920d-5f1de6d3325d","ios":"levelo://app?vid=26e48e7d-ced1-4978-920d-5f1de6d3325d"},"vehicle_type_id":"4","last_reported":1727100513,"current_range_meters":39200,"station_id":"ce4bhg12rcd13ifvqf60","pricing_plan_id":"cebpf4jnsgd1na2vs0mg"},{"bike_id":"fd0edd85-66aa-4295-8fb7-5b1f06dcdcaf","system_id":"levelo_inurba_marseille","lat":43.28253,"lon":5.35062,"is_reserved":false,"is_disabled":false,"rental_uris":{"android":"levelo://app?vid=fd0edd85-66aa-4295-8fb7-5b1f06dcdcaf","ios":"levelo://app?vid=fd0edd85-66aa-4295-8fb7-5b1f06dcdcaf"},"vehicle_type_id":"4","last_reported":1727100513,"current_range_meters":23200,"station_id":"ce4bhbp2rcd13ifvqerg","pricing_plan_id":"cebpf4jnsgd1na2vs0mg"},{"bike_id":"f016c4e5-040b-46b4-82fe-a434be5816a8","system_id":"levelo_inurba_marseille","lat":43.3019,"lon":5.36608,"is_reserved":false,"is_disabled":false,"rental_uris":{"android":"levelo://app?vid=f016c4e5-040b-46b4-82fe-a434be5816a8","ios":"levelo://app?vid=f016c4e5-040b-46b4-82fe-a434be5816a8"},"vehicle_type_id":"4","last_reported":1727100513,"current_range_meters":38800,"station_id":"ce4bgrh2rcd13ifvqc8g","pricing_plan_id":"cebpf4jnsgd1na2vs0mg"},{"bike_id":"56c9a565-5309-4191-8087-1f6ab03a11d7","system_id":"levelo_inurba_marseille","lat":43.28413,"lon":5.34974,"is_reserved":false,"is_disabled":false,"rental_uris":{"android":"levelo://app?vid=56c9a565-5309-4191-8087-1f6ab03a11d7","ios":"levelo://app?vid=56c9a565-5309-4191-8087-1f6ab03a11d7"},"vehicle_type_id":"4","last_reported":1727100513,"current_range_meters":20800,"station_id":"ce4bhbh2rcd13ifvqepg","pricing_plan_id":"cebpf4jnsgd1na2vs0mg"},{"bike_id":"e5afe0f9-2845-4770-8a8a-1f97c66f27dc","system_id":"levelo_inurba_marseille","lat":43.25934,"lon":5.40915,"is_reserved":false,"is_disabled":false,"rental_uris":{"android":"levelo://app?vid=e5afe0f9-2845-4770-8a8a-1f97c66f27dc","ios":"levelo://app?vid=e5afe0f9-2845-4770-8a8a-1f97c66f27dc"},"vehicle_type_id":"4","last_reported":1727100513,"current_range_meters":28400,"station_id":"ce4bhm92rcd13ifvqglg","pricing_plan_id":"cebpf4jnsgd1na2vs0mg"},{"bike_id":"c371314f-2cd1-4a92-8738-0c7ece0f5842","system_id":"levelo_inurba_marseille","lat":43.26808,"lon":5.40261,"is_reserved":false,"is_disabled":false,"rental_uris":{"android":"levelo://app?vid=c371314f-2cd1-4a92-8738-0c7ece0f5842","ios":"levelo://app?vid=c371314f-2cd1-4a92-8738-0c7ece0f5842"},"vehicle_type_id":"4","last_reported":1727100513,"current_range_meters":38800,"station_id":"ce501612rcd8frsf0b60","pricing_plan_id":"cebpf4jnsgd1na2vs0mg"},{"bike_id":"8808c221-dae8-4c3c-9aaf-b049fdd07712","system_id":"levelo_inurba_marseille","lat":43.27994,"lon":5.41662,"is_reserved":false,"is_disabled":false,"rental_uris":{"android":"levelo://app?vid=8808c221-dae8-4c3c-9aaf-b049fdd07712","ios":"levelo://app?vid=8808c221-dae8-4c3c-9aaf-b049fdd07712"},"vehicle_type_id":"4","last_reported":1727100513,"current_range_meters":22800,"station_id":"ce4bho12rcd13ifvqh1g","pricing_plan_id":"cebpf4jnsgd1na2vs0mg"},{"bike_id":"5d04256a-e679-4059-83c6-0ae42b4a755b","system_id":"levelo_inurba_marseille","lat":43.28273,"lon":5.35066,"is_reserved":false,"is_disabled":false,"rental_uris":{"android":"levelo://app?vid=5d04256a-e679-4059-83c6-0ae42b4a755b","ios":"levelo://app?vid=5d04256a-e679-4059-83c6-0ae42b4a755b"},"vehicle_type_id":"4","last_reported":1727100513,"current_range_meters":16400,"station_id":"ce4bhbp2rcd13ifvqerg","pricing_plan_id":"cebpf4jnsgd1na2vs0mg"},{"bike_id":"cf3e8f4b-7134-426b-90ae-4fff33a14755","system_id":"levelo_inurba_marseille","lat":43.30097,"lon":5.39076,"is_reserved":false,"is_disabled":false,"rental_uris":{"android":"levelo://app?vid=cf3e8f4b-7134-426b-90ae-4fff33a14755","ios":"levelo://app?vid=cf3e8f4b-7134-426b-90ae-4fff33a14755"},"vehicle_type_id":"4","last_reported":1727100513,"current_range_meters":38000,"station_id":"ce4bh192rcd13ifvqdb0","pricing_plan_id":"cebpf4jnsgd1na2vs0mg"},{"bike_id":"7f2e0fe0-0c42-4a0e-a7f7-25870db728ee","system_id":"levelo_inurba_marseille","lat":43.2885,"lon":5.3931,"is_reserved":false,"is_disabled":false,"rental_uris":{"android":"levelo://app?vid=7f2e0fe0-0c42-4a0e-a7f7-25870db728ee","ios":"levelo://app?vid=7f2e0fe0-0c42-4a0e-a7f7-25870db728ee"},"vehicle_type_id":"4","last_reported":1727100513,"current_range_meters":14400,"station_id":"ce4bh2p2rcd13ifvqdi0","pricing_plan_id":"cebpf4jnsgd1na2vs0mg"},{"bike_id":"fdf5d164-299c-44e2-a769-07be2e8ce2c2","system_id":"levelo_inurba_marseille","lat":43.24666,"lon":5.38163,"is_reserved":false,"is_disabled":false,"rental_uris":{"android":"levelo://app?vid=fdf5d164-299c-44e2-a769-07be2e8ce2c2","ios":"levelo://app?vid=fdf5d164-299c-44e2-a769-07be2e8ce2c2"},"vehicle_type_id":"4","last_reported":1727100513,"current_range_meters":9600,"station_id":"ce4bhih2rcd13ifvqfr0","pricing_plan_id":"cebpf4jnsgd1na2vs0mg"},{"bike_id":"6e3f1c76-110c-4206-8065-75afc7d2fd09","system_id":"levelo_inurba_marseille","lat":43.24662,"lon":5.38161,"is_reserved":false,"is_disabled":false,"rental_uris":{"android":"levelo://app?vid=6e3f1c76-110c-4206-8065-75afc7d2fd09","ios":"levelo://app?vid=6e3f1c76-110c-4206-8065-75afc7d2fd09"},"vehicle_type_id":"4","last_reported":1727100513,"current_range_meters":8800,"station_id":"ce4bhih2rcd13ifvqfr0","pricing_plan_id":"cebpf4jnsgd1na2vs0mg"},{"bike_id":"792ff2f7-c377-489e-8842-0a279001b119","system_id":"levelo_inurba_marseille","lat":43.27501,"lon":5.42459,"is_reserved":false,"is_disabled":false,"rental_uris":{"android":"levelo://app?vid=792ff2f7-c377-489e-8842-0a279001b119","ios":"levelo://app?vid=792ff2f7-c377-489e-8842-0a279001b119"},"vehicle_type_id":"4","last_reported":1727100513,"current_range_meters":38800,"station_id":"ce4bhn92rcd13ifvqgrg","pricing_plan_id":"cebpf4jnsgd1na2vs0mg"},{"bike_id":"da46798e-a7fd-4e4c-84fd-dcadbc28d20b","system_id":"levelo_inurba_marseille","lat":43.29037,"lon":5.39963,"is_reserved":false,"is_disabled":false,"rental_uris":{"android":"levelo://app?vid=da46798e-a7fd-4e4c-84fd-dcadbc28d20b","ios":"levelo://app?vid=da46798e-a7fd-4e4c-84fd-dcadbc28d20b"},"vehicle_type_id":"4","last_reported":1727100513,"current_range_meters":30000,"station_id":"ce4bh392rcd13ifvqdm0","pricing_plan_id":"cebpf4jnsgd1na2vs0mg"},{"bike_id":"25bded0a-c47c-4a72-b798-2244bb7a3a57","system_id":"levelo_inurba_marseille","lat":43.27331,"lon":5.39092,"is_reserved":false,"is_disabled":false,"rental_uris":{"android":"levelo://app?vid=25bded0a-c47c-4a72-b798-2244bb7a3a57","ios":"levelo://app?vid=25bded0a-c47c-4a72-b798-2244bb7a3a57"},"vehicle_type_id":"4","last_reported":1727100513,"current_range_meters":20400,"station_id":"ce4bhgp2rcd13ifvqfe0","pricing_plan_id":"cebpf4jnsgd1na2vs0mg"},{"bike_id":"8d350df0-102c-4574-b5dd-a6fe4cb9d2a5","system_id":"levelo_inurba_marseille","lat":43.29603,"lon":5.38084,"is_reserved":false,"is_disabled":false,"rental_uris":{"android":"levelo://app?vid=8d350df0-102c-4574-b5dd-a6fe4cb9d2a5","ios":"levelo://app?vid=8d350df0-102c-4574-b5dd-a6fe4cb9d2a5"},"vehicle_type_id":"4","last_reported":1727100513,"current_range_meters":38800,"station_id":"ce4bgl12rcd13ifvqbo0","pricing_plan_id":"cebpf4jnsgd1na2vs0mg"},{"bike_id":"21b9cf72-7bfb-435f-a917-a5ca940c11ca","system_id":"levelo_inurba_marseille","lat":43.31489,"lon":5.37305,"is_reserved":false,"is_disabled":false,"rental_uris":{"android":"levelo://app?vid=21b9cf72-7bfb-435f-a917-a5ca940c11ca","ios":"levelo://app?vid=21b9cf72-7bfb-435f-a917-a5ca940c11ca"},"vehicle_type_id":"4","last_reported":1727100513,"current_range_meters":30400,"station_id":"ce4bgt12rcd13ifvqcd0","pricing_plan_id":"cebpf4jnsgd1na2vs0mg"},{"bike_id":"7f41fee8-6658-44d0-a5c8-37f96ff88950","system_id":"levelo_inurba_marseille","lat":43.27953,"lon":5.38702,"is_reserved":false,"is_disabled":false,"rental_uris":{"android":"levelo://app?vid=7f41fee8-6658-44d0-a5c8-37f96ff88950","ios":"levelo://app?vid=7f41fee8-6658-44d0-a5c8-37f96ff88950"},"vehicle_type_id":"4","last_reported":1727100513,"current_range_meters":33600,"station_id":"ce4bhg12rcd13ifvqf80","pricing_plan_id":"cebpf4jnsgd1na2vs0mg"},{"bike_id":"2d3b8852-5535-4a6f-9a6e-4bcb153862b5","system_id":"levelo_inurba_marseille","lat":43.284711,"lon":5.3843,"is_reserved":false,"is_disabled":false,"rental_uris":{"android":"levelo://app?vid=2d3b8852-5535-4a6f-9a6e-4bcb153862b5","ios":"levelo://app?vid=2d3b8852-5535-4a6f-9a6e-4bcb153862b5"},"vehicle_type_id":"4","last_reported":1727100513,"current_range_meters":20000,"station_id":"ce4bhg12rcd13ifvqf60","pricing_plan_id":"cebpf4jnsgd1na2vs0mg"},{"bike_id":"4fbb5250-9647-470b-8d93-052750ba4685","system_id":"levelo_inurba_marseille","lat":43.287806,"lon":5.373697,"is_reserved":false,"is_disabled":false,"rental_uris":{"android":"levelo://app?vid=4fbb5250-9647-470b-8d93-052750ba4685","ios":"levelo://app?vid=4fbb5250-9647-470b-8d93-052750ba4685"},"vehicle_type_id":"4","last_reported":1727100513,"current_range_meters":19200,"station_id":"ce4bh692rcd13ifvqe90","pricing_plan_id":"cebpf4jnsgd1na2vs0mg"},{"bike_id":"cb9d4ff9-9f5d-4487-b53c-79b31724362b","system_id":"levelo_inurba_marseille","lat":43.29571,"lon":5.400193,"is_reserved":false,"is_disabled":false,"rental_uris":{"android":"levelo://app?vid=cb9d4ff9-9f5d-4487-b53c-79b31724362b","ios":"levelo://app?vid=cb9d4ff9-9f5d-4487-b53c-79b31724362b"},"vehicle_type_id":"4","last_reported":1727100513,"current_range_meters":3200,"station_id":"ce4bh312rcd13ifvqdj0","pricing_plan_id":"cebpf4jnsgd1na2vs0mg"},{"bike_id":"79b9fb56-448a-4beb-bee1-72b2929a319c","system_id":"levelo_inurba_marseille","lat":43.28276,"lon":5.35055,"is_reserved":false,"is_disabled":false,"rental_uris":{"android":"levelo://app?vid=79b9fb56-448a-4beb-bee1-72b2929a319c","ios":"levelo://app?vid=79b9fb56-448a-4beb-bee1-72b2929a319c"},"vehicle_type_id":"4","last_reported":1727100513,"current_range_meters":11600,"station_id":"ce4bhbp2rcd13ifvqerg","pricing_plan_id":"cebpf4jnsgd1na2vs0mg"},{"bike_id":"4f5f57da-1126-4ef6-9045-f7ed22bca493","system_id":"levelo_inurba_marseille","lat":43.30805,"lon":5.38161,"is_reserved":false,"is_disabled":false,"rental_uris":{"android":"levelo://app?vid=4f5f57da-1126-4ef6-9045-f7ed22bca493","ios":"levelo://app?vid=4f5f57da-1126-4ef6-9045-f7ed22bca493"},"vehicle_type_id":"4","last_reported":1727100513,"current_range_meters":6400,"station_id":"ce4bgt12rcd13ifvqce0","pricing_plan_id":"cebpf4jnsgd1na2vs0mg"},{"bike_id":"c4d81431-ee19-4b2b-9a19-a027dc40bf9b","system_id":"levelo_inurba_marseille","lat":43.27069,"lon":5.42272,"is_reserved":false,"is_disabled":false,"rental_uris":{"android":"levelo://app?vid=c4d81431-ee19-4b2b-9a19-a027dc40bf9b","ios":"levelo://app?vid=c4d81431-ee19-4b2b-9a19-a027dc40bf9b"},"vehicle_type_id":"4","last_reported":1727100513,"current_range_meters":28400,"station_id":"ce4bhk92rcd13ifvqgb0","pricing_plan_id":"cebpf4jnsgd1na2vs0mg"},{"bike_id":"7efff0bf-418d-4879-81c8-5157ce11a026","system_id":"levelo_inurba_marseille","lat":43.2842,"lon":5.3752,"is_reserved":false,"is_disabled":false,"rental_uris":{"android":"levelo://app?vid=7efff0bf-418d-4879-81c8-5157ce11a026","ios":"levelo://app?vid=7efff0bf-418d-4879-81c8-5157ce11a026"},"vehicle_type_id":"4","last_reported":1727100513,"current_range_meters":38400,"station_id":"ce4bh412rcd13ifvqds0","pricing_plan_id":"cebpf4jnsgd1na2vs0mg"},{"bike_id":"fa690805-233a-4a70-a9f3-33f1b67cdb1f","system_id":"levelo_inurba_marseille","lat":43.32289,"lon":5.38262,"is_reserved":false,"is_disabled":false,"rental_uris":{"android":"levelo://app?vid=fa690805-233a-4a70-a9f3-33f1b67cdb1f","ios":"levelo://app?vid=fa690805-233a-4a70-a9f3-33f1b67cdb1f"},"vehicle_type_id":"4","last_reported":1727100513,"current_range_meters":37600,"station_id":"ce4bhr12rcd13ifvqhqg","pricing_plan_id":"cebpf4jnsgd1na2vs0mg"},{"bike_id":"0723ecef-1ef2-4b02-bafe-89d1f78b37ad","system_id":"levelo_inurba_marseille","lat":43.2978,"lon":5.39326,"is_reserved":false,"is_disabled":false,"rental_uris":{"android":"levelo://app?vid=0723ecef-1ef2-4b02-bafe-89d1f78b37ad","ios":"levelo://app?vid=0723ecef-1ef2-4b02-bafe-89d1f78b37ad"},"vehicle_type_id":"4","last_reported":1727100513,"current_range_meters":31200,"station_id":"chh1huq6cuj3fo74tm60","pricing_plan_id":"cebpf4jnsgd1na2vs0mg"},{"bike_id":"cb6f5245-af44-45f0-a415-dc7d5990293b","system_id":"levelo_inurba_marseille","lat":43.26032,"lon":5.37544,"is_reserved":false,"is_disabled":false,"rental_uris":{"android":"levelo://app?vid=cb6f5245-af44-45f0-a415-dc7d5990293b","ios":"levelo://app?vid=cb6f5245-af44-45f0-a415-dc7d5990293b"},"vehicle_type_id":"4","last_reported":1727100513,"current_range_meters":36800,"station_id":"ce4bhgh2rcd13ifvqfa0","pricing_plan_id":"cebpf4jnsgd1na2vs0mg"},{"bike_id":"26e5f90c-8fc4-481b-acaa-2fa2ba85e127","system_id":"levelo_inurba_marseille","lat":43.29614,"lon":5.37719,"is_reserved":false,"is_disabled":false,"rental_uris":{"android":"levelo://app?vid=26e5f90c-8fc4-481b-acaa-2fa2ba85e127","ios":"levelo://app?vid=26e5f90c-8fc4-481b-acaa-2fa2ba85e127"},"vehicle_type_id":"4","last_reported":1727100513,"current_range_meters":33200,"station_id":"ce4bgi92rcd13ifvqb90","pricing_plan_id":"cebpf4jnsgd1na2vs0mg"},{"bike_id":"5d43386c-1453-4709-a7b9-daffacf6916f","system_id":"levelo_inurba_marseille","lat":43.266818,"lon":5.39491,"is_reserved":false,"is_disabled":false,"rental_uris":{"android":"levelo://app?vid=5d43386c-1453-4709-a7b9-daffacf6916f","ios":"levelo://app?vid=5d43386c-1453-4709-a7b9-daffacf6916f"},"vehicle_type_id":"4","last_reported":1727100513,"current_range_meters":8000,"station_id":"ce4bhh12rcd13ifvqfg0","pricing_plan_id":"cebpf4jnsgd1na2vs0mg"},{"bike_id":"e8a23701-7b77-4a08-9c98-f1ba21bb7288","system_id":"levelo_inurba_marseille","lat":43.30141,"lon":5.38791,"is_reserved":false,"is_disabled":false,"rental_uris":{"android":"levelo://app?vid=e8a23701-7b77-4a08-9c98-f1ba21bb7288","ios":"levelo://app?vid=e8a23701-7b77-4a08-9c98-f1ba21bb7288"},"vehicle_type_id":"4","last_reported":1727100513,"current_range_meters":8400,"station_id":"ce4bghh2rcd13ifvqb60","pricing_plan_id":"cebpf4jnsgd1na2vs0mg"},{"bike_id":"c226d175-20f4-48ea-9269-1ece994e5a4b","system_id":"levelo_inurba_marseille","lat":43.290286,"lon":5.386527,"is_reserved":false,"is_disabled":false,"rental_uris":{"android":"levelo://app?vid=c226d175-20f4-48ea-9269-1ece994e5a4b","ios":"levelo://app?vid=c226d175-20f4-48ea-9269-1ece994e5a4b"},"vehicle_type_id":"4","last_reported":1727100513,"current_range_meters":28800,"station_id":"ce4bgt12rcd13ifvqce0","pricing_plan_id":"cebpf4jnsgd1na2vs0mg"},{"bike_id":"5824546b-0a40-4dcb-a3b8-3ec2838c9508","system_id":"levelo_inurba_marseille","lat":43.27838,"lon":5.39924,"is_reserved":false,"is_disabled":false,"rental_uris":{"android":"levelo://app?vid=5824546b-0a40-4dcb-a3b8-3ec2838c9508","ios":"levelo://app?vid=5824546b-0a40-4dcb-a3b8-3ec2838c9508"},"vehicle_type_id":"4","last_reported":1727100513,"current_range_meters":18000,"station_id":"ce4bhhp2rcd13ifvqfm0","pricing_plan_id":"cebpf4jnsgd1na2vs0mg"},{"bike_id":"7ee89815-3f87-4dc0-ac87-de45448091bf","system_id":"levelo_inurba_marseille","lat":43.26038,"lon":5.37548,"is_reserved":false,"is_disabled":false,"rental_uris":{"android":"levelo://app?vid=7ee89815-3f87-4dc0-ac87-de45448091bf","ios":"levelo://app?vid=7ee89815-3f87-4dc0-ac87-de45448091bf"},"vehicle_type_id":"4","last_reported":1727100513,"current_range_meters":39200,"station_id":"ce4bhgh2rcd13ifvqfa0","pricing_plan_id":"cebpf4jnsgd1na2vs0mg"},{"bike_id":"e1b241c5-e16d-4f76-9c72-be937cda41e3","system_id":"levelo_inurba_marseille","lat":43.30532,"lon":5.38406,"is_reserved":false,"is_disabled":false,"rental_uris":{"android":"levelo://app?vid=e1b241c5-e16d-4f76-9c72-be937cda41e3","ios":"levelo://app?vid=e1b241c5-e16d-4f76-9c72-be937cda41e3"},"vehicle_type_id":"4","last_reported":1727100513,"current_range_meters":37600,"station_id":"ce4bgg92rcd13ifvqb30","pricing_plan_id":"cebpf4jnsgd1na2vs0mg"},{"bike_id":"81bd6cc0-2105-456f-9faf-e4b066662c88","system_id":"levelo_inurba_marseille","lat":43.28423,"lon":5.34998,"is_reserved":false,"is_disabled":false,"rental_uris":{"android":"levelo://app?vid=81bd6cc0-2105-456f-9faf-e4b066662c88","ios":"levelo://app?vid=81bd6cc0-2105-456f-9faf-e4b066662c88"},"vehicle_type_id":"4","last_reported":1727100513,"current_range_meters":21600,"station_id":"ce4bhbh2rcd13ifvqepg","pricing_plan_id":"cebpf4jnsgd1na2vs0mg"},{"bike_id":"3226621d-6374-40ae-bbf5-2ae24ab12ec1","system_id":"levelo_inurba_marseille","lat":43.29415,"lon":5.38623,"is_reserved":false,"is_disabled":false,"rental_uris":{"android":"levelo://app?vid=3226621d-6374-40ae-bbf5-2ae24ab12ec1","ios":"levelo://app?vid=3226621d-6374-40ae-bbf5-2ae24ab12ec1"},"vehicle_type_id":"4","last_reported":1727100513,"current_range_meters":8400,"station_id":"ce4bh2h2rcd13ifvqdh0","pricing_plan_id":"cebpf4jnsgd1na2vs0mg"},{"bike_id":"9bc1be1d-3d30-46b9-92a3-bceef644d1b2","system_id":"levelo_inurba_marseille","lat":43.2572,"lon":5.4111,"is_reserved":false,"is_disabled":false,"rental_uris":{"android":"levelo://app?vid=9bc1be1d-3d30-46b9-92a3-bceef644d1b2","ios":"levelo://app?vid=9bc1be1d-3d30-46b9-92a3-bceef644d1b2"},"vehicle_type_id":"4","last_reported":1727100513,"current_range_meters":20800,"station_id":"ce4bhkp2rcd13ifvqgd0","pricing_plan_id":"cebpf4jnsgd1na2vs0mg"},{"bike_id":"d4862c57-b941-4f92-96bf-c46bae4190ac","system_id":"levelo_inurba_marseille","lat":43.32662,"lon":5.40991,"is_reserved":false,"is_disabled":false,"rental_uris":{"android":"levelo://app?vid=d4862c57-b941-4f92-96bf-c46bae4190ac","ios":"levelo://app?vid=d4862c57-b941-4f92-96bf-c46bae4190ac"},"vehicle_type_id":"4","last_reported":1727100513,"current_range_meters":6400,"station_id":"ce4bhpp2rcd13ifvqhgg","pricing_plan_id":"cebpf4jnsgd1na2vs0mg"},{"bike_id":"e2ea9cef-4113-496e-ae63-85cae6f24f6a","system_id":"levelo_inurba_marseille","lat":43.24171,"lon":5.36394,"is_reserved":false,"is_disabled":false,"rental_uris":{"android":"levelo://app?vid=e2ea9cef-4113-496e-ae63-85cae6f24f6a","ios":"levelo://app?vid=e2ea9cef-4113-496e-ae63-85cae6f24f6a"},"vehicle_type_id":"4","last_reported":1727100513,"current_range_meters":30800,"station_id":"cpo36qri1sfpv3e86is0","pricing_plan_id":"cebpf4jnsgd1na2vs0mg"},{"bike_id":"bdc1be78-9009-4c9f-b136-89b64a630365","system_id":"levelo_inurba_marseille","lat":43.29713,"lon":5.366,"is_reserved":false,"is_disabled":false,"rental_uris":{"android":"levelo://app?vid=bdc1be78-9009-4c9f-b136-89b64a630365","ios":"levelo://app?vid=bdc1be78-9009-4c9f-b136-89b64a630365"},"vehicle_type_id":"4","last_reported":1727100513,"current_range_meters":32400,"station_id":"ce4bgn12rcd13ifvqbt0","pricing_plan_id":"cebpf4jnsgd1na2vs0mg"},{"bike_id":"b0f4d08d-9574-447c-9f76-6a11e8a82ce4","system_id":"levelo_inurba_marseille","lat":43.304626,"lon":5.379067,"is_reserved":false,"is_disabled":false,"rental_uris":{"android":"levelo://app?vid=b0f4d08d-9574-447c-9f76-6a11e8a82ce4","ios":"levelo://app?vid=b0f4d08d-9574-447c-9f76-6a11e8a82ce4"},"vehicle_type_id":"4","last_reported":1727100513,"current_range_meters":39200,"station_id":"ce4bgvp2rcd13ifvqcu0","pricing_plan_id":"cebpf4jnsgd1na2vs0mg"},{"bike_id":"ca911ea3-5f99-43be-ba0c-1a959d35b45d","system_id":"levelo_inurba_marseille","lat":43.30327,"lon":5.40431,"is_reserved":false,"is_disabled":false,"rental_uris":{"android":"levelo://app?vid=ca911ea3-5f99-43be-ba0c-1a959d35b45d","ios":"levelo://app?vid=ca911ea3-5f99-43be-ba0c-1a959d35b45d"},"vehicle_type_id":"4","last_reported":1727100513,"current_range_meters":26000,"station_id":"ce4bh012rcd13ifvqd10","pricing_plan_id":"cebpf4jnsgd1na2vs0mg"},{"bike_id":"0074696f-e649-4639-9210-689b92842bdc","system_id":"levelo_inurba_marseille","lat":43.30799,"lon":5.43521,"is_reserved":false,"is_disabled":false,"rental_uris":{"android":"levelo://app?vid=0074696f-e649-4639-9210-689b92842bdc","ios":"levelo://app?vid=0074696f-e649-4639-9210-689b92842bdc"},"vehicle_type_id":"4","last_reported":1727100513,"current_range_meters":39200,"station_id":"ce4bhph2rcd13ifvqheg","pricing_plan_id":"cebpf4jnsgd1na2vs0mg"},{"bike_id":"877753fc-658d-4c7a-bbb8-46de59f59494","system_id":"levelo_inurba_marseille","lat":43.33021,"lon":5.39062,"is_reserved":false,"is_disabled":false,"rental_uris":{"android":"levelo://app?vid=877753fc-658d-4c7a-bbb8-46de59f59494","ios":"levelo://app?vid=877753fc-658d-4c7a-bbb8-46de59f59494"},"vehicle_type_id":"4","last_reported":1727100513,"current_range_meters":4400,"station_id":"ce4bhr92rcd13ifvqhrg","pricing_plan_id":"cebpf4jnsgd1na2vs0mg"},{"bike_id":"48f266b4-12e6-4bfe-b91e-632577e826a6","system_id":"levelo_inurba_marseille","lat":43.24667,"lon":5.38163,"is_reserved":false,"is_disabled":false,"rental_uris":{"android":"levelo://app?vid=48f266b4-12e6-4bfe-b91e-632577e826a6","ios":"levelo://app?vid=48f266b4-12e6-4bfe-b91e-632577e826a6"},"vehicle_type_id":"4","last_reported":1727100513,"current_range_meters":28000,"station_id":"ce4bhih2rcd13ifvqfr0","pricing_plan_id":"cebpf4jnsgd1na2vs0mg"},{"bike_id":"6a9f45df-04c5-44d5-b656-eb73494e9cef","system_id":"levelo_inurba_marseille","lat":43.23972,"lon":5.36632,"is_reserved":false,"is_disabled":false,"rental_uris":{"android":"levelo://app?vid=6a9f45df-04c5-44d5-b656-eb73494e9cef","ios":"levelo://app?vid=6a9f45df-04c5-44d5-b656-eb73494e9cef"},"vehicle_type_id":"4","last_reported":1727100513,"current_range_meters":16400,"station_id":"ce4bhi12rcd13ifvqfp0","pricing_plan_id":"cebpf4jnsgd1na2vs0mg"},{"bike_id":"4dba677d-464b-4cab-a3b3-77beebf1b009","system_id":"levelo_inurba_marseille","lat":43.29303,"lon":5.37455,"is_reserved":false,"is_disabled":false,"rental_uris":{"android":"levelo://app?vid=4dba677d-464b-4cab-a3b3-77beebf1b009","ios":"levelo://app?vid=4dba677d-464b-4cab-a3b3-77beebf1b009"},"vehicle_type_id":"4","last_reported":1727100513,"current_range_meters":21600,"station_id":"","pricing_plan_id":"cebpf4jnsgd1na2vs0mg"},{"bike_id":"ff537eb1-80e4-46d5-ac42-a3f99864b96d","system_id":"levelo_inurba_marseille","lat":43.30124,"lon":5.39847,"is_reserved":false,"is_disabled":false,"rental_uris":{"android":"levelo://app?vid=ff537eb1-80e4-46d5-ac42-a3f99864b96d","ios":"levelo://app?vid=ff537eb1-80e4-46d5-ac42-a3f99864b96d"},"vehicle_type_id":"4","last_reported":1727100513,"current_range_meters":32400,"station_id":"ce4bh0h2rcd13ifvqd40","pricing_plan_id":"cebpf4jnsgd1na2vs0mg"},{"bike_id":"5e2f72d5-4559-41b2-b3d0-9bec673a16db","system_id":"levelo_inurba_marseille","lat":43.28277,"lon":5.35064,"is_reserved":false,"is_disabled":false,"rental_uris":{"android":"levelo://app?vid=5e2f72d5-4559-41b2-b3d0-9bec673a16db","ios":"levelo://app?vid=5e2f72d5-4559-41b2-b3d0-9bec673a16db"},"vehicle_type_id":"4","last_reported":1727100513,"current_range_meters":38800,"station_id":"ce4bhbp2rcd13ifvqerg","pricing_plan_id":"cebpf4jnsgd1na2vs0mg"},{"bike_id":"d59793b3-afdb-4f7c-a227-8a98853a554f","system_id":"levelo_inurba_marseille","lat":43.337444,"lon":5.374475,"is_reserved":false,"is_disabled":false,"rental_uris":{"android":"levelo://app?vid=d59793b3-afdb-4f7c-a227-8a98853a554f","ios":"levelo://app?vid=d59793b3-afdb-4f7c-a227-8a98853a554f"},"vehicle_type_id":"4","last_reported":1727100513,"current_range_meters":23200,"station_id":"ce4bgj92rcd13ifvqbd0","pricing_plan_id":"cebpf4jnsgd1na2vs0mg"},{"bike_id":"455be24a-1729-4e8b-9592-9af52218f198","system_id":"levelo_inurba_marseille","lat":43.26558,"lon":5.39001,"is_reserved":false,"is_disabled":false,"rental_uris":{"android":"levelo://app?vid=455be24a-1729-4e8b-9592-9af52218f198","ios":"levelo://app?vid=455be24a-1729-4e8b-9592-9af52218f198"},"vehicle_type_id":"4","last_reported":1727100513,"current_range_meters":25600,"station_id":"ce4bhe12rcd13ifvqf30","pricing_plan_id":"cebpf4jnsgd1na2vs0mg"},{"bike_id":"45df9051-e725-4f5a-af06-a6afcf9ece7e","system_id":"levelo_inurba_marseille","lat":43.26807,"lon":5.40268,"is_reserved":false,"is_disabled":false,"rental_uris":{"android":"levelo://app?vid=45df9051-e725-4f5a-af06-a6afcf9ece7e","ios":"levelo://app?vid=45df9051-e725-4f5a-af06-a6afcf9ece7e"},"vehicle_type_id":"4","last_reported":1727100513,"current_range_meters":32800,"station_id":"ce501612rcd8frsf0b60","pricing_plan_id":"cebpf4jnsgd1na2vs0mg"},{"bike_id":"5d646be7-6f08-4485-8caa-430922346353","system_id":"levelo_inurba_marseille","lat":43.32491,"lon":5.36564,"is_reserved":false,"is_disabled":false,"rental_uris":{"android":"levelo://app?vid=5d646be7-6f08-4485-8caa-430922346353","ios":"levelo://app?vid=5d646be7-6f08-4485-8caa-430922346353"},"vehicle_type_id":"4","last_reported":1727100513,"current_range_meters":38800,"station_id":"ce4bhs12rcd13ifvqhvg","pricing_plan_id":"cebpf4jnsgd1na2vs0mg"},{"bike_id":"fa389a28-fbc0-443d-ae17-61deeb7eddc4","system_id":"levelo_inurba_marseille","lat":43.29796,"lon":5.39348,"is_reserved":false,"is_disabled":false,"rental_uris":{"android":"levelo://app?vid=fa389a28-fbc0-443d-ae17-61deeb7eddc4","ios":"levelo://app?vid=fa389a28-fbc0-443d-ae17-61deeb7eddc4"},"vehicle_type_id":"4","last_reported":1727100513,"current_range_meters":36800,"station_id":"chh1huq6cuj3fo74tm60","pricing_plan_id":"cebpf4jnsgd1na2vs0mg"},{"bike_id":"5428eeec-af69-4769-a579-036caf55b1c7","system_id":"levelo_inurba_marseille","lat":43.265523,"lon":5.372866,"is_reserved":false,"is_disabled":false,"rental_uris":{"android":"levelo://app?vid=5428eeec-af69-4769-a579-036caf55b1c7","ios":"levelo://app?vid=5428eeec-af69-4769-a579-036caf55b1c7"},"vehicle_type_id":"4","last_reported":1727100513,"current_range_meters":5600,"station_id":"ce4bh2h2rcd13ifvqdh0","pricing_plan_id":"cebpf4jnsgd1na2vs0mg"},{"bike_id":"dc9c0efd-deed-4e06-b23d-bcef8fe1dde7","system_id":"levelo_inurba_marseille","lat":43.31363,"lon":5.38478,"is_reserved":false,"is_disabled":false,"rental_uris":{"android":"levelo://app?vid=dc9c0efd-deed-4e06-b23d-bcef8fe1dde7","ios":"levelo://app?vid=dc9c0efd-deed-4e06-b23d-bcef8fe1dde7"},"vehicle_type_id":"4","last_reported":1727100513,"current_range_meters":25600,"station_id":"ce4bgt92rcd13ifvqcf0","pricing_plan_id":"cebpf4jnsgd1na2vs0mg"},{"bike_id":"22161627-f907-4fe2-a63f-862955ca8862","system_id":"levelo_inurba_marseille","lat":43.24069,"lon":5.3776,"is_reserved":false,"is_disabled":false,"rental_uris":{"android":"levelo://app?vid=22161627-f907-4fe2-a63f-862955ca8862","ios":"levelo://app?vid=22161627-f907-4fe2-a63f-862955ca8862"},"vehicle_type_id":"4","last_reported":1727100513,"current_range_meters":20800,"station_id":"ce4bhnp2rcd13ifvqgvg","pricing_plan_id":"cebpf4jnsgd1na2vs0mg"},{"bike_id":"3c32f043-1ea8-4328-a79a-2cf79b688a98","system_id":"levelo_inurba_marseille","lat":43.28402,"lon":5.37508,"is_reserved":false,"is_disabled":false,"rental_uris":{"android":"levelo://app?vid=3c32f043-1ea8-4328-a79a-2cf79b688a98","ios":"levelo://app?vid=3c32f043-1ea8-4328-a79a-2cf79b688a98"},"vehicle_type_id":"4","last_reported":1727100513,"current_range_meters":20800,"station_id":"ce4bh412rcd13ifvqds0","pricing_plan_id":"cebpf4jnsgd1na2vs0mg"},{"bike_id":"c1177684-0aea-4906-9043-e5b8e8b902a6","system_id":"levelo_inurba_marseille","lat":43.28702,"lon":5.37376,"is_reserved":false,"is_disabled":false,"rental_uris":{"android":"levelo://app?vid=c1177684-0aea-4906-9043-e5b8e8b902a6","ios":"levelo://app?vid=c1177684-0aea-4906-9043-e5b8e8b902a6"},"vehicle_type_id":"4","last_reported":1727100513,"current_range_meters":28400,"station_id":"ce4bh3p2rcd13ifvqdq0","pricing_plan_id":"cebpf4jnsgd1na2vs0mg"},{"bike_id":"0b3bd655-e746-4da8-ab52-fb199122c887","system_id":"levelo_inurba_marseille","lat":43.28472,"lon":5.3842,"is_reserved":false,"is_disabled":false,"rental_uris":{"android":"levelo://app?vid=0b3bd655-e746-4da8-ab52-fb199122c887","ios":"levelo://app?vid=0b3bd655-e746-4da8-ab52-fb199122c887"},"vehicle_type_id":"4","last_reported":1727100513,"current_range_meters":24400,"station_id":"ce4bhi12rcd13ifvqfo0","pricing_plan_id":"cebpf4jnsgd1na2vs0mg"},{"bike_id":"3e2895b4-cf31-4932-aa45-b63bdcb8b899","system_id":"levelo_inurba_marseille","lat":43.28075,"lon":5.39659,"is_reserved":false,"is_disabled":false,"rental_uris":{"android":"levelo://app?vid=3e2895b4-cf31-4932-aa45-b63bdcb8b899","ios":"levelo://app?vid=3e2895b4-cf31-4932-aa45-b63bdcb8b899"},"vehicle_type_id":"4","last_reported":1727100513,"current_range_meters":32000,"station_id":"ce4bho12rcd13ifvqh2g","pricing_plan_id":"cebpf4jnsgd1na2vs0mg"},{"bike_id":"ef80ef96-f0ae-47f4-a656-30940101fb28","system_id":"levelo_inurba_marseille","lat":43.26203,"lon":5.37922,"is_reserved":false,"is_disabled":false,"rental_uris":{"android":"levelo://app?vid=ef80ef96-f0ae-47f4-a656-30940101fb28","ios":"levelo://app?vid=ef80ef96-f0ae-47f4-a656-30940101fb28"},"vehicle_type_id":"4","last_reported":1727100513,"current_range_meters":24400,"station_id":"ce4bhjp2rcd13ifvqg90","pricing_plan_id":"cebpf4jnsgd1na2vs0mg"},{"bike_id":"969959d5-9154-4d02-aaa4-a773b7fb10b7","system_id":"levelo_inurba_marseille","lat":43.31885,"lon":5.4073,"is_reserved":false,"is_disabled":false,"rental_uris":{"android":"levelo://app?vid=969959d5-9154-4d02-aaa4-a773b7fb10b7","ios":"levelo://app?vid=969959d5-9154-4d02-aaa4-a773b7fb10b7"},"vehicle_type_id":"4","last_reported":1727100513,"current_range_meters":12000,"station_id":"ce4bhq12rcd13ifvqhig","pricing_plan_id":"cebpf4jnsgd1na2vs0mg"},{"bike_id":"26e43ab1-84b6-40bf-9271-f47129192d7e","system_id":"levelo_inurba_marseille","lat":43.24389,"lon":5.37054,"is_reserved":false,"is_disabled":false,"rental_uris":{"android":"levelo://app?vid=26e43ab1-84b6-40bf-9271-f47129192d7e","ios":"levelo://app?vid=26e43ab1-84b6-40bf-9271-f47129192d7e"},"vehicle_type_id":"4","last_reported":1727100513,"current_range_meters":38800,"station_id":"ce4bhhh2rcd13ifvqfk0","pricing_plan_id":"cebpf4jnsgd1na2vs0mg"},{"bike_id":"d4cb281f-257a-4e8b-918c-18b04356060e","system_id":"levelo_inurba_marseille","lat":43.28261,"lon":5.35058,"is_reserved":false,"is_disabled":false,"rental_uris":{"android":"levelo://app?vid=d4cb281f-257a-4e8b-918c-18b04356060e","ios":"levelo://app?vid=d4cb281f-257a-4e8b-918c-18b04356060e"},"vehicle_type_id":"4","last_reported":1727100513,"current_range_meters":33600,"station_id":"ce4bhbp2rcd13ifvqerg","pricing_plan_id":"cebpf4jnsgd1na2vs0mg"},{"bike_id":"9327b15d-2365-4849-b0e4-af37adad04b2","system_id":"levelo_inurba_marseille","lat":43.323395,"lon":5.406221,"is_reserved":false,"is_disabled":false,"rental_uris":{"android":"levelo://app?vid=9327b15d-2365-4849-b0e4-af37adad04b2","ios":"levelo://app?vid=9327b15d-2365-4849-b0e4-af37adad04b2"},"vehicle_type_id":"4","last_reported":1727100513,"current_range_meters":4800,"station_id":"ce4bhq92rcd13ifvqhjg","pricing_plan_id":"cebpf4jnsgd1na2vs0mg"},{"bike_id":"b614ba4a-5b8c-4f3c-81fa-57d6f39a4b59","system_id":"levelo_inurba_marseille","lat":43.28076,"lon":5.3966,"is_reserved":false,"is_disabled":false,"rental_uris":{"android":"levelo://app?vid=b614ba4a-5b8c-4f3c-81fa-57d6f39a4b59","ios":"levelo://app?vid=b614ba4a-5b8c-4f3c-81fa-57d6f39a4b59"},"vehicle_type_id":"4","last_reported":1727100513,"current_range_meters":20000,"station_id":"ce4bho12rcd13ifvqh2g","pricing_plan_id":"cebpf4jnsgd1na2vs0mg"},{"bike_id":"ff75ae2a-6c5d-41d9-91ab-7a458e6e8996","system_id":"levelo_inurba_marseille","lat":43.31168,"lon":5.38711,"is_reserved":false,"is_disabled":false,"rental_uris":{"android":"levelo://app?vid=ff75ae2a-6c5d-41d9-91ab-7a458e6e8996","ios":"levelo://app?vid=ff75ae2a-6c5d-41d9-91ab-7a458e6e8996"},"vehicle_type_id":"4","last_reported":1727100513,"current_range_meters":3200,"station_id":"ce4bgv12rcd13ifvqcp0","pricing_plan_id":"cebpf4jnsgd1na2vs0mg"},{"bike_id":"16ae6180-f6e5-47e0-8f4b-70a0144490cf","system_id":"levelo_inurba_marseille","lat":43.30429,"lon":5.41275,"is_reserved":false,"is_disabled":false,"rental_uris":{"android":"levelo://app?vid=16ae6180-f6e5-47e0-8f4b-70a0144490cf","ios":"levelo://app?vid=16ae6180-f6e5-47e0-8f4b-70a0144490cf"},"vehicle_type_id":"4","last_reported":1727100513,"current_range_meters":14800,"station_id":"ce4bhop2rcd13ifvqh8g","pricing_plan_id":"cebpf4jnsgd1na2vs0mg"},{"bike_id":"4bc2c5ca-0da4-4ba2-a87c-f061b1588192","system_id":"levelo_inurba_marseille","lat":43.28077,"lon":5.3966,"is_reserved":false,"is_disabled":false,"rental_uris":{"android":"levelo://app?vid=4bc2c5ca-0da4-4ba2-a87c-f061b1588192","ios":"levelo://app?vid=4bc2c5ca-0da4-4ba2-a87c-f061b1588192"},"vehicle_type_id":"4","last_reported":1727100513,"current_range_meters":17200,"station_id":"ce4bho12rcd13ifvqh2g","pricing_plan_id":"cebpf4jnsgd1na2vs0mg"},{"bike_id":"9e8482d9-fe3e-4171-95bb-94487a5f8f6e","system_id":"levelo_inurba_marseille","lat":43.30556,"lon":5.36695,"is_reserved":false,"is_disabled":false,"rental_uris":{"android":"levelo://app?vid=9e8482d9-fe3e-4171-95bb-94487a5f8f6e","ios":"levelo://app?vid=9e8482d9-fe3e-4171-95bb-94487a5f8f6e"},"vehicle_type_id":"4","last_reported":1727100513,"current_range_meters":22000,"station_id":"ce4bgrp2rcd13ifvqc9g","pricing_plan_id":"cebpf4jnsgd1na2vs0mg"},{"bike_id":"840f3e47-074d-4b22-ab80-8cfe985e5e84","system_id":"levelo_inurba_marseille","lat":43.24083,"lon":5.37753,"is_reserved":false,"is_disabled":false,"rental_uris":{"android":"levelo://app?vid=840f3e47-074d-4b22-ab80-8cfe985e5e84","ios":"levelo://app?vid=840f3e47-074d-4b22-ab80-8cfe985e5e84"},"vehicle_type_id":"4","last_reported":1727100513,"current_range_meters":29600,"station_id":"ce4bhnp2rcd13ifvqgvg","pricing_plan_id":"cebpf4jnsgd1na2vs0mg"},{"bike_id":"cef3ee33-78ff-4174-ad91-6f3d62f10ae9","system_id":"levelo_inurba_marseille","lat":43.29591,"lon":5.38103,"is_reserved":false,"is_disabled":false,"rental_uris":{"android":"levelo://app?vid=cef3ee33-78ff-4174-ad91-6f3d62f10ae9","ios":"levelo://app?vid=cef3ee33-78ff-4174-ad91-6f3d62f10ae9"},"vehicle_type_id":"4","last_reported":1727100513,"current_range_meters":24800,"station_id":"ce4bgl12rcd13ifvqbo0","pricing_plan_id":"cebpf4jnsgd1na2vs0mg"},{"bike_id":"25489f93-95e9-414b-b421-61f9e2140ff2","system_id":"levelo_inurba_marseille","lat":43.28076,"lon":5.3967,"is_reserved":false,"is_disabled":false,"rental_uris":{"android":"levelo://app?vid=25489f93-95e9-414b-b421-61f9e2140ff2","ios":"levelo://app?vid=25489f93-95e9-414b-b421-61f9e2140ff2"},"vehicle_type_id":"4","last_reported":1727100513,"current_range_meters":33600,"station_id":"ce4bho12rcd13ifvqh2g","pricing_plan_id":"cebpf4jnsgd1na2vs0mg"},{"bike_id":"176f5c85-c02e-47de-9ace-bfb9204b8b3c","system_id":"levelo_inurba_marseille","lat":43.2796,"lon":5.38717,"is_reserved":false,"is_disabled":false,"rental_uris":{"android":"levelo://app?vid=176f5c85-c02e-47de-9ace-bfb9204b8b3c","ios":"levelo://app?vid=176f5c85-c02e-47de-9ace-bfb9204b8b3c"},"vehicle_type_id":"4","last_reported":1727100513,"current_range_meters":26000,"station_id":"ce4bhg12rcd13ifvqf80","pricing_plan_id":"cebpf4jnsgd1na2vs0mg"},{"bike_id":"7be630c5-8a76-4bdb-94a2-9ca505c6e9b4","system_id":"levelo_inurba_marseille","lat":43.24072,"lon":5.3776,"is_reserved":false,"is_disabled":false,"rental_uris":{"android":"levelo://app?vid=7be630c5-8a76-4bdb-94a2-9ca505c6e9b4","ios":"levelo://app?vid=7be630c5-8a76-4bdb-94a2-9ca505c6e9b4"},"vehicle_type_id":"4","last_reported":1727100513,"current_range_meters":22800,"station_id":"ce4bhnp2rcd13ifvqgvg","pricing_plan_id":"cebpf4jnsgd1na2vs0mg"},{"bike_id":"6b998741-740a-4166-bfd2-cb4b54357787","system_id":"levelo_inurba_marseille","lat":43.30602,"lon":5.37211,"is_reserved":false,"is_disabled":false,"rental_uris":{"android":"levelo://app?vid=6b998741-740a-4166-bfd2-cb4b54357787","ios":"levelo://app?vid=6b998741-740a-4166-bfd2-cb4b54357787"},"vehicle_type_id":"4","last_reported":1727100513,"current_range_meters":36000,"station_id":"ce4bgqh2rcd13ifvqc4g","pricing_plan_id":"cebpf4jnsgd1na2vs0mg"},{"bike_id":"b32b7998-9389-446d-a0d9-9cd0c927f775","system_id":"levelo_inurba_marseille","lat":43.23063,"lon":5.35492,"is_reserved":false,"is_disabled":false,"rental_uris":{"android":"levelo://app?vid=b32b7998-9389-446d-a0d9-9cd0c927f775","ios":"levelo://app?vid=b32b7998-9389-446d-a0d9-9cd0c927f775"},"vehicle_type_id":"4","last_reported":1727100513,"current_range_meters":22800,"station_id":"cpo3342slgdg3j2ifvpg","pricing_plan_id":"cebpf4jnsgd1na2vs0mg"},{"bike_id":"4b56cc0c-3ebe-44f6-8e45-c63c3fa4e46b","system_id":"levelo_inurba_marseille","lat":43.30219,"lon":5.39465,"is_reserved":false,"is_disabled":false,"rental_uris":{"android":"levelo://app?vid=4b56cc0c-3ebe-44f6-8e45-c63c3fa4e46b","ios":"levelo://app?vid=4b56cc0c-3ebe-44f6-8e45-c63c3fa4e46b"},"vehicle_type_id":"4","last_reported":1727100513,"current_range_meters":23200,"station_id":"ce4bhop2rcd13ifvqh8g","pricing_plan_id":"cebpf4jnsgd1na2vs0mg"},{"bike_id":"262fe790-702f-4ba9-8e1f-9d22a551936a","system_id":"levelo_inurba_marseille","lat":43.3079,"lon":5.376532,"is_reserved":false,"is_disabled":false,"rental_uris":{"android":"levelo://app?vid=262fe790-702f-4ba9-8e1f-9d22a551936a","ios":"levelo://app?vid=262fe790-702f-4ba9-8e1f-9d22a551936a"},"vehicle_type_id":"4","last_reported":1727100513,"current_range_meters":18000,"station_id":"ce4bgip2rcd13ifvqbb0","pricing_plan_id":"cebpf4jnsgd1na2vs0mg"},{"bike_id":"aae40804-7001-45b7-95a5-00265bdc2d2b","system_id":"levelo_inurba_marseille","lat":43.295242,"lon":5.390406,"is_reserved":false,"is_disabled":false,"rental_uris":{"android":"levelo://app?vid=aae40804-7001-45b7-95a5-00265bdc2d2b","ios":"levelo://app?vid=aae40804-7001-45b7-95a5-00265bdc2d2b"},"vehicle_type_id":"4","last_reported":1727100513,"current_range_meters":22400,"station_id":"ce4bhb92rcd13ifvqen0","pricing_plan_id":"cebpf4jnsgd1na2vs0mg"},{"bike_id":"8f9b36a4-2d14-413d-a6f6-916df00d12f8","system_id":"levelo_inurba_marseille","lat":43.27973,"lon":5.38736,"is_reserved":false,"is_disabled":false,"rental_uris":{"android":"levelo://app?vid=8f9b36a4-2d14-413d-a6f6-916df00d12f8","ios":"levelo://app?vid=8f9b36a4-2d14-413d-a6f6-916df00d12f8"},"vehicle_type_id":"4","last_reported":1727100513,"current_range_meters":33200,"station_id":"ce4bhg12rcd13ifvqf80","pricing_plan_id":"cebpf4jnsgd1na2vs0mg"},{"bike_id":"36dc71fe-bfc9-4a4d-b2ef-39ebb067c458","system_id":"levelo_inurba_marseille","lat":43.29554,"lon":5.42284,"is_reserved":false,"is_disabled":false,"rental_uris":{"android":"levelo://app?vid=36dc71fe-bfc9-4a4d-b2ef-39ebb067c458","ios":"levelo://app?vid=36dc71fe-bfc9-4a4d-b2ef-39ebb067c458"},"vehicle_type_id":"4","last_reported":1727100513,"current_range_meters":39200,"station_id":"ce4bhph2rcd13ifvqhdg","pricing_plan_id":"cebpf4jnsgd1na2vs0mg"},{"bike_id":"4e442a34-1c41-4d3c-9b65-5b0b3be50276","system_id":"levelo_inurba_marseille","lat":43.33734,"lon":5.3919,"is_reserved":false,"is_disabled":false,"rental_uris":{"android":"levelo://app?vid=4e442a34-1c41-4d3c-9b65-5b0b3be50276","ios":"levelo://app?vid=4e442a34-1c41-4d3c-9b65-5b0b3be50276"},"vehicle_type_id":"4","last_reported":1727100513,"current_range_meters":37600,"station_id":"ce4bhr92rcd13ifvqhsg","pricing_plan_id":"cebpf4jnsgd1na2vs0mg"},{"bike_id":"4b66e4d7-5c48-4d69-b9c1-f4b1f1fd90e4","system_id":"levelo_inurba_marseille","lat":43.265615,"lon":5.373359,"is_reserved":false,"is_disabled":false,"rental_uris":{"android":"levelo://app?vid=4b66e4d7-5c48-4d69-b9c1-f4b1f1fd90e4","ios":"levelo://app?vid=4b66e4d7-5c48-4d69-b9c1-f4b1f1fd90e4"},"vehicle_type_id":"4","last_reported":1727100513,"current_range_meters":7200,"station_id":"ce4bhg12rcd13ifvqf70","pricing_plan_id":"cebpf4jnsgd1na2vs0mg"},{"bike_id":"d3f8bee1-ee9a-4565-b174-8c07c2f4164f","system_id":"levelo_inurba_marseille","lat":43.30882,"lon":5.37192,"is_reserved":false,"is_disabled":false,"rental_uris":{"android":"levelo://app?vid=d3f8bee1-ee9a-4565-b174-8c07c2f4164f","ios":"levelo://app?vid=d3f8bee1-ee9a-4565-b174-8c07c2f4164f"},"vehicle_type_id":"4","last_reported":1727100513,"current_range_meters":38000,"station_id":"ce4bguh2rcd13ifvqckg","pricing_plan_id":"cebpf4jnsgd1na2vs0mg"},{"bike_id":"6aaa7330-6a5a-4948-8955-4c7f7740c446","system_id":"levelo_inurba_marseille","lat":43.28673,"lon":5.38666,"is_reserved":false,"is_disabled":false,"rental_uris":{"android":"levelo://app?vid=6aaa7330-6a5a-4948-8955-4c7f7740c446","ios":"levelo://app?vid=6aaa7330-6a5a-4948-8955-4c7f7740c446"},"vehicle_type_id":"4","last_reported":1727100513,"current_range_meters":37600,"station_id":"ce4bh492rcd13ifvqdug","pricing_plan_id":"cebpf4jnsgd1na2vs0mg"},{"bike_id":"ce1e6d58-cfb7-4ec4-bb20-35c51d94ff24","system_id":"levelo_inurba_marseille","lat":43.2826,"lon":5.3507,"is_reserved":false,"is_disabled":false,"rental_uris":{"android":"levelo://app?vid=ce1e6d58-cfb7-4ec4-bb20-35c51d94ff24","ios":"levelo://app?vid=ce1e6d58-cfb7-4ec4-bb20-35c51d94ff24"},"vehicle_type_id":"4","last_reported":1727100513,"current_range_meters":37600,"station_id":"ce4bhbp2rcd13ifvqerg","pricing_plan_id":"cebpf4jnsgd1na2vs0mg"},{"bike_id":"93489d1f-6901-45a9-80ea-600326ac4362","system_id":"levelo_inurba_marseille","lat":43.29196,"lon":5.35807,"is_reserved":false,"is_disabled":false,"rental_uris":{"android":"levelo://app?vid=93489d1f-6901-45a9-80ea-600326ac4362","ios":"levelo://app?vid=93489d1f-6901-45a9-80ea-600326ac4362"},"vehicle_type_id":"4","last_reported":1727100513,"current_range_meters":38800,"station_id":"ce4bhb12rcd13ifvqel0","pricing_plan_id":"cebpf4jnsgd1na2vs0mg"},{"bike_id":"7ae379da-9440-4378-a690-86693789de4b","system_id":"levelo_inurba_marseille","lat":43.29557,"lon":5.42272,"is_reserved":false,"is_disabled":false,"rental_uris":{"android":"levelo://app?vid=7ae379da-9440-4378-a690-86693789de4b","ios":"levelo://app?vid=7ae379da-9440-4378-a690-86693789de4b"},"vehicle_type_id":"4","last_reported":1727100513,"current_range_meters":10800,"station_id":"ce4bhph2rcd13ifvqhdg","pricing_plan_id":"cebpf4jnsgd1na2vs0mg"},{"bike_id":"02552a84-93ac-4f47-9115-b594cbf16674","system_id":"levelo_inurba_marseille","lat":43.29552,"lon":5.42278,"is_reserved":false,"is_disabled":false,"rental_uris":{"android":"levelo://app?vid=02552a84-93ac-4f47-9115-b594cbf16674","ios":"levelo://app?vid=02552a84-93ac-4f47-9115-b594cbf16674"},"vehicle_type_id":"4","last_reported":1727100513,"current_range_meters":38800,"station_id":"ce4bhph2rcd13ifvqhdg","pricing_plan_id":"cebpf4jnsgd1na2vs0mg"},{"bike_id":"0e30734c-0ce1-42b2-ab80-9e26df51b3c2","system_id":"levelo_inurba_marseille","lat":43.305511,"lon":5.398014,"is_reserved":false,"is_disabled":false,"rental_uris":{"android":"levelo://app?vid=0e30734c-0ce1-42b2-ab80-9e26df51b3c2","ios":"levelo://app?vid=0e30734c-0ce1-42b2-ab80-9e26df51b3c2"},"vehicle_type_id":"4","last_reported":1727100513,"current_range_meters":17200,"station_id":"ce4bh092rcd13ifvqd20","pricing_plan_id":"cebpf4jnsgd1na2vs0mg"},{"bike_id":"9776fe03-ae05-419d-80e7-7d248cf79e84","system_id":"levelo_inurba_marseille","lat":43.275696,"lon":5.384143,"is_reserved":false,"is_disabled":false,"rental_uris":{"android":"levelo://app?vid=9776fe03-ae05-419d-80e7-7d248cf79e84","ios":"levelo://app?vid=9776fe03-ae05-419d-80e7-7d248cf79e84"},"vehicle_type_id":"4","last_reported":1727100513,"current_range_meters":36800,"station_id":"ce4bhh92rcd13ifvqfi0","pricing_plan_id":"cebpf4jnsgd1na2vs0mg"},