{"last_updated":1703369146,"ttl":30,"version":"2.2","data":{"bikes":[{"bike_id":"1d188cd1-9cfc-46b8-8625-39847bd0beea","system_id":"levelo_inurba_marseille","lat":43.313391,"lon":5.36706,"is_reserved":false,"is_disabled":false,"rental_uris":{"android":"levelo://app?vid=1d188cd1-9cfc-46b8-8625-39847bd0beea","ios":"levelo://app?vid=1d188cd1-9cfc-46b8-8625-39847bd0beea"},"vehicle_type_id":"4","last_reported":1703369146,"current_range_meters":5600,"station_id":"ce4bgr92rcd13ifvqc6g","pricing_plan_id":"free"},{"bike_id":"4eafd6a1-96f6-4058-8b87-7e65bfb2b671","system_id":"levelo_inurba_marseille","lat":43.312239,"lon":5.368562,"is_reserved":false,"is_disabled":false,"rental_uris":{"android":"levelo://app?vid=4eafd6a1-96f6-4058-8b87-7e65bfb2b671","ios":"levelo://app?vid=4eafd6a1-96f6-4058-8b87-7e65bfb2b671"},"vehicle_type_id":"4","last_reported":1703369146,"current_range_meters":3200,"station_id":"ce4bgl92rcd13ifvqbq0","pricing_plan_id":"free"},{"bike_id":"5ce28fa0-a54d-4e31-a959-456494df4a3e","system_id":"levelo_inurba_marseille","lat":43.31228,"lon":5.36863,"is_reserved":false,"is_disabled":false,"rental_uris":{"android":"levelo://app?vid=5ce28fa0-a54d-4e31-a959-456494df4a3e","ios":"levelo://app?vid=5ce28fa0-a54d-4e31-a959-456494df4a3e"},"vehicle_type_id":"4","last_reported":1703369146,"current_range_meters":28800,"station_id":"ce4bgl92rcd13ifvqbq0","pricing_plan_id":"free"},{"bike_id":"e4bc4260-0904-47d1-8db5-e830659253da","system_id":"levelo_inurba_marseille","lat":43.309076,"lon":5.368465,"is_reserved":false,"is_disabled":false,"rental_uris":{"android":"levelo://app?vid=e4bc4260-0904-47d1-8db5-e830659253da","ios":"levelo://app?vid=e4bc4260-0904-47d1-8db5-e830659253da"},"vehicle_type_id":"4","last_reported":1703369146,"current_range_meters":23600,"station_id":"ce4bgn92rcd13ifvqbvg","pricing_plan_id":"free"},{"bike_id":"31d1cf80-c488-4187-842e-8ec1a59ec475","system_id":"levelo_inurba_marseille","lat":43.309039,"lon":5.371797,"is_reserved":false,"is_disabled":false,"rental_uris":{"android":"levelo://app?vid=31d1cf80-c488-4187-842e-8ec1a59ec475","ios":"levelo://app?vid=31d1cf80-c488-4187-842e-8ec1a59ec475"},"vehicle_type_id":"4","last_reported":1703369146,"current_range_meters":30000,"station_id":"ce4bguh2rcd13ifvqckg","pricing_plan_id":"free"},{"bike_id":"8cf8073b-e0bc-4dc6-9444-8b2e6b024775","system_id":"levelo_inurba_marseille","lat":43.309039,"lon":5.371797,"is_reserved":false,"is_disabled":false,"rental_uris":{"android":"levelo://app?vid=8cf8073b-e0bc-4dc6-9444-8b2e6b024775","ios":"levelo://app?vid=8cf8073b-e0bc-4dc6-9444-8b2e6b024775"},"vehicle_type_id":"4","last_reported":1703369146,"current_range_meters":28000,"station_id":"ce4bguh2rcd13ifvqckg","pricing_plan_id":"free"},{"bike_id":"d2be49f4-d512-450f-80de-370a6da97420","system_id":"levelo_inurba_marseille","lat":43.316595,"lon":5.373595,"is_reserved":false,"is_disabled":false,"rental_uris":{"android":"levelo://app?vid=d2be49f4-d512-450f-80de-370a6da97420","ios":"levelo://app?vid=d2be49f4-d512-450f-80de-370a6da97420"},"vehicle_type_id":"4","last_reported":1703369146,"current_range_meters":10800,"station_id":"","pricing_plan_id":"free"},{"bike_id":"254a274b-cda3-4fec-a158-9abce0a21925","system_id":"levelo_inurba_marseille","lat":43.31819,"lon":5.37254,"is_reserved":false,"is_disabled":false,"rental_uris":{"android":"levelo://app?vid=254a274b-cda3-4fec-a158-9abce0a21925","ios":"levelo://app?vid=254a274b-cda3-4fec-a158-9abce0a21925"},"vehicle_type_id":"4","last_reported":1703369146,"current_range_meters":0,"station_id":"","pricing_plan_id":"free"},{"bike_id":"f099a10f-6c40-4702-9edb-9b75c4bf595f","system_id":"levelo_inurba_marseille","lat":43.305714,"lon":5.365633,"is_reserved":false,"is_disabled":false,"rental_uris":{"android":"levelo://app?vid=f099a10f-6c40-4702-9edb-9b75c4bf595f","ios":"levelo://app?vid=f099a10f-6c40-4702-9edb-9b75c4bf595f"},"vehicle_type_id":"4","last_reported":1703369146,"current_range_meters":17600,"station_id":"ce4bgs12rcd13ifvqcag","pricing_plan_id":"free"},{"bike_id":"bab8a0d1-7d75-4c36-abf8-19b965cfee4b","system_id":"levelo_inurba_marseille","lat":43.305706,"lon":5.365654,"is_reserved":false,"is_disabled":false,"rental_uris":{"android":"levelo://app?vid=bab8a0d1-7d75-4c36-abf8-19b965cfee4b","ios":"levelo://app?vid=bab8a0d1-7d75-4c36-abf8-19b965cfee4b"},"vehicle_type_id":"4","last_reported":1703369146,"current_range_meters":28000,"station_id":"ce4bgs12rcd13ifvqcag","pricing_plan_id":"free"},{"bike_id":"4a1a6a17-171a-488a-9fd6-d42f2896bae0","system_id":"levelo_inurba_marseille","lat":43.305989,"lon":5.37225,"is_reserved":false,"is_disabled":false,"rental_uris":{"android":"levelo://app?vid=4a1a6a17-171a-488a-9fd6-d42f2896bae0","ios":"levelo://app?vid=4a1a6a17-171a-488a-9fd6-d42f2896bae0"},"vehicle_type_id":"4","last_reported":1703369146,"current_range_meters":29600,"station_id":"ce4bgqh2rcd13ifvqc4g","pricing_plan_id":"free"},{"bike_id":"af0fdf3a-2fe8-4e4c-ac9c-e8ed879b6a74","system_id":"levelo_inurba_marseille","lat":43.311125,"lon":5.377624,"is_reserved":false,"is_disabled":false,"rental_uris":{"android":"levelo://app?vid=af0fdf3a-2fe8-4e4c-ac9c-e8ed879b6a74","ios":"levelo://app?vid=af0fdf3a-2fe8-4e4c-ac9c-e8ed879b6a74"},"vehicle_type_id":"4","last_reported":1703369146,"current_range_meters":25200,"station_id":"ce4bgt92rcd13ifvqcg0","pricing_plan_id":"free"},{"bike_id":"4eaa17e2-b56f-40db-917d-3d3aeb528e85","system_id":"levelo_inurba_marseille","lat":43.307945,"lon":5.376487,"is_reserved":false,"is_disabled":false,"rental_uris":{"android":"levelo://app?vid=4eaa17e2-b56f-40db-917d-3d3aeb528e85","ios":"levelo://app?vid=4eaa17e2-b56f-40db-917d-3d3aeb528e85"},"vehicle_type_id":"4","last_reported":1703369146,"current_range_meters":28800,"station_id":"ce4bgv92rcd13ifvqcq0","pricing_plan_id":"free"},{"bike_id":"c07b921d-bb41-41e7-a6a2-0fb54ec3c72a","system_id":"levelo_inurba_marseille","lat":43.317075,"lon":5.377367,"is_reserved":false,"is_disabled":false,"rental_uris":{"android":"levelo://app?vid=c07b921d-bb41-41e7-a6a2-0fb54ec3c72a","ios":"levelo://app?vid=c07b921d-bb41-41e7-a6a2-0fb54ec3c72a"},"vehicle_type_id":"4","last_reported":1703369146,"current_range_meters":28800,"station_id":"ce4bgth2rcd13ifvqch0","pricing_plan_id":"free"},{"bike_id":"41dda955-539d-4247-aa61-c32218ebe6ae","system_id":"levelo_inurba_marseille","lat":43.317075,"lon":5.377367,"is_reserved":false,"is_disabled":false,"rental_uris":{"android":"levelo://app?vid=41dda955-539d-4247-aa61-c32218ebe6ae","ios":"levelo://app?vid=41dda955-539d-4247-aa61-c32218ebe6ae"},"vehicle_type_id":"4","last_reported":1703369146,"current_range_meters":24400,"station_id":"ce4bgth2rcd13ifvqch0","pricing_plan_id":"free"},{"bike_id":"dc53f173-5328-48a5-bf27-601d8188651d","system_id":"levelo_inurba_marseille","lat":43.303046,"lon":5.368981,"is_reserved":false,"is_disabled":false,"rental_uris":{"android":"levelo://app?vid=dc53f173-5328-48a5-bf27-601d8188651d","ios":"levelo://app?vid=dc53f173-5328-48a5-bf27-601d8188651d"},"vehicle_type_id":"4","last_reported":1703369146,"current_range_meters":15200,"station_id":"ce4bgqh2rcd13ifvqc5g","pricing_plan_id":"free"},{"bike_id":"2662382c-95fc-40fe-8a15-15c09cb3cd08","system_id":"levelo_inurba_marseille","lat":43.31534,"lon":5.38029,"is_reserved":false,"is_disabled":false,"rental_uris":{"android":"levelo://app?vid=2662382c-95fc-40fe-8a15-15c09cb3cd08","ios":"levelo://app?vid=2662382c-95fc-40fe-8a15-15c09cb3cd08"},"vehicle_type_id":"4","last_reported":1703369146,"current_range_meters":26800,"station_id":"ce4bhsp2rcd13ifvqi50","pricing_plan_id":"free"},{"bike_id":"6c5242d6-0c45-4d1c-9b32-2d86293a6097","system_id":"levelo_inurba_marseille","lat":43.308012,"lon":5.381511,"is_reserved":false,"is_disabled":false,"rental_uris":{"android":"levelo://app?vid=6c5242d6-0c45-4d1c-9b32-2d86293a6097","ios":"levelo://app?vid=6c5242d6-0c45-4d1c-9b32-2d86293a6097"},"vehicle_type_id":"4","last_reported":1703369146,"current_range_meters":19600,"station_id":"ce4bgt12rcd13ifvqce0","pricing_plan_id":"free"},{"bike_id":"094c2122-798d-4dd5-9b17-32d02ab5d833","system_id":"levelo_inurba_marseille","lat":43.304581,"lon":5.379004,"is_reserved":false,"is_disabled":false,"rental_uris":{"android":"levelo://app?vid=094c2122-798d-4dd5-9b17-32d02ab5d833","ios":"levelo://app?vid=094c2122-798d-4dd5-9b17-32d02ab5d833"},"vehicle_type_id":"4","last_reported":1703369146,"current_range_meters":0,"station_id":"ce4bgup2rcd13ifvqcn0","pricing_plan_id":"free"},{"bike_id":"bdb5cbf5-1625-4064-a8de-3eab85e47be8","system_id":"levelo_inurba_marseille","lat":43.324771,"lon":5.36557,"is_reserved":false,"is_disabled":false,"rental_uris":{"android":"levelo://app?vid=bdb5cbf5-1625-4064-a8de-3eab85e47be8","ios":"levelo://app?vid=bdb5cbf5-1625-4064-a8de-3eab85e47be8"},"vehicle_type_id":"4","last_reported":1703369146,"current_range_meters":29600,"station_id":"ce4bhs12rcd13ifvqhvg","pricing_plan_id":"free"},{"bike_id":"1abc8d0f-fd01-4d3c-8c7a-b8178468815d","system_id":"levelo_inurba_marseille","lat":43.302823,"lon":5.377007,"is_reserved":false,"is_disabled":false,"rental_uris":{"android":"levelo://app?vid=1abc8d0f-fd01-4d3c-8c7a-b8178468815d","ios":"levelo://app?vid=1abc8d0f-fd01-4d3c-8c7a-b8178468815d"},"vehicle_type_id":"4","last_reported":1703369146,"current_range_meters":29200,"station_id":"ce4bguh2rcd13ifvqcj0","pricing_plan_id":"free"},{"bike_id":"69599836-e945-413a-a849-741769f44bc7","system_id":"levelo_inurba_marseille","lat":43.3028,"lon":5.37697,"is_reserved":false,"is_disabled":false,"rental_uris":{"android":"levelo://app?vid=69599836-e945-413a-a849-741769f44bc7","ios":"levelo://app?vid=69599836-e945-413a-a849-741769f44bc7"},"vehicle_type_id":"4","last_reported":1703369146,"current_range_meters":11600,"station_id":"ce4bguh2rcd13ifvqcj0","pricing_plan_id":"free"},{"bike_id":"97886078-1a9a-408d-ae49-7e974a0c0f47","system_id":"levelo_inurba_marseille","lat":43.302821,"lon":5.377048,"is_reserved":false,"is_disabled":false,"rental_uris":{"android":"levelo://app?vid=97886078-1a9a-408d-ae49-7e974a0c0f47","ios":"levelo://app?vid=97886078-1a9a-408d-ae49-7e974a0c0f47"},"vehicle_type_id":"4","last_reported":1703369146,"current_range_meters":0,"station_id":"ce4bguh2rcd13ifvqcj0","pricing_plan_id":"free"},{"bike_id":"e741e5fd-f5d8-4637-b11e-11c8ee653921","system_id":"levelo_inurba_marseille","lat":43.302793,"lon":5.377034,"is_reserved":false,"is_disabled":false,"rental_uris":{"android":"levelo://app?vid=e741e5fd-f5d8-4637-b11e-11c8ee653921","ios":"levelo://app?vid=e741e5fd-f5d8-4637-b11e-11c8ee653921"},"vehicle_type_id":"4","last_reported":1703369146,"current_range_meters":22400,"station_id":"ce4bguh2rcd13ifvqcj0","pricing_plan_id":"free"},{"bike_id":"c952d183-a12f-4ba2-9219-8f8a86a7dec0","system_id":"levelo_inurba_marseille","lat":43.302784,"lon":5.377158,"is_reserved":false,"is_disabled":false,"rental_uris":{"android":"levelo://app?vid=c952d183-a12f-4ba2-9219-8f8a86a7dec0","ios":"levelo://app?vid=c952d183-a12f-4ba2-9219-8f8a86a7dec0"},"vehicle_type_id":"4","last_reported":1703369146,"current_range_meters":22000,"station_id":"ce4bguh2rcd13ifvqcj0","pricing_plan_id":"free"},{"bike_id":"2a2f2e89-129d-479c-9ba9-c0e20d236796","system_id":"levelo_inurba_marseille","lat":43.302784,"lon":5.377158,"is_reserved":false,"is_disabled":false,"rental_uris":{"android":"levelo://app?vid=2a2f2e89-129d-479c-9ba9-c0e20d236796","ios":"levelo://app?vid=2a2f2e89-129d-479c-9ba9-c0e20d236796"},"vehicle_type_id":"4","last_reported":1703369146,"current_range_meters":23200,"station_id":"ce4bguh2rcd13ifvqcj0","pricing_plan_id":"free"},{"bike_id":"f434426f-9bf0-4a60-814a-bd04c2c609e6","system_id":"levelo_inurba_marseille","lat":43.302784,"lon":5.377158,"is_reserved":false,"is_disabled":false,"rental_uris":{"android":"levelo://app?vid=f434426f-9bf0-4a60-814a-bd04c2c609e6","ios":"levelo://app?vid=f434426f-9bf0-4a60-814a-bd04c2c609e6"},"vehicle_type_id":"4","last_reported":1703369146,"current_range_meters":21200,"station_id":"ce4bguh2rcd13ifvqcj0","pricing_plan_id":"free"},{"bike_id":"d5c5a208-d1f4-491b-9342-fbce3f763487","system_id":"levelo_inurba_marseille","lat":43.302784,"lon":5.377158,"is_reserved":false,"is_disabled":false,"rental_uris":{"android":"levelo://app?vid=d5c5a208-d1f4-491b-9342-fbce3f763487","ios":"levelo://app?vid=d5c5a208-d1f4-491b-9342-fbce3f763487"},"vehicle_type_id":"4","last_reported":1703369146,"current_range_meters":19200,"station_id":"ce4bguh2rcd13ifvqcj0","pricing_plan_id":"free"},{"bike_id":"dc0f6af5-c02c-4610-baea-e5c6ca16f530","system_id":"levelo_inurba_marseille","lat":43.31989,"lon":5.38149,"is_reserved":false,"is_disabled":false,"rental_uris":{"android":"levelo://app?vid=dc0f6af5-c02c-4610-baea-e5c6ca16f530","ios":"levelo://app?vid=dc0f6af5-c02c-4610-baea-e5c6ca16f530"},"vehicle_type_id":"4","last_reported":1703369146,"current_range_meters":23200,"station_id":"ce4bhr12rcd13ifvqhpg","pricing_plan_id":"free"},{"bike_id":"37849b07-689a-4a22-a25e-58a502b4967e","system_id":"levelo_inurba_marseille","lat":43.319948,"lon":5.381486,"is_reserved":false,"is_disabled":false,"rental_uris":{"android":"levelo://app?vid=37849b07-689a-4a22-a25e-58a502b4967e","ios":"levelo://app?vid=37849b07-689a-4a22-a25e-58a502b4967e"},"vehicle_type_id":"4","last_reported":1703369146,"current_range_meters":19200,"station_id":"ce4bhr12rcd13ifvqhpg","pricing_plan_id":"free"},{"bike_id":"e4c0a221-feba-42f6-ab1b-9dede74548ec","system_id":"levelo_inurba_marseille","lat":43.31994,"lon":5.38152,"is_reserved":false,"is_disabled":false,"rental_uris":{"android":"levelo://app?vid=e4c0a221-feba-42f6-ab1b-9dede74548ec","ios":"levelo://app?vid=e4c0a221-feba-42f6-ab1b-9dede74548ec"},"vehicle_type_id":"4","last_reported":1703369146,"current_range_meters":7200,"station_id":"ce4bhr12rcd13ifvqhpg","pricing_plan_id":"free"},{"bike_id":"6b293ddd-1b4c-4b04-abd1-e3b793bc7eab","system_id":"levelo_inurba_marseille","lat":43.31995,"lon":5.38157,"is_reserved":false,"is_disabled":false,"rental_uris":{"android":"levelo://app?vid=6b293ddd-1b4c-4b04-abd1-e3b793bc7eab","ios":"levelo://app?vid=6b293ddd-1b4c-4b04-abd1-e3b793bc7eab"},"vehicle_type_id":"4","last_reported":1703369146,"current_range_meters":26800,"station_id":"ce4bhr12rcd13ifvqhpg","pricing_plan_id":"free"},{"bike_id":"c74e98d3-14d3-45e5-9081-a9f2b39fe4ce","system_id":"levelo_inurba_marseille","lat":43.31994,"lon":5.38167,"is_reserved":false,"is_disabled":false,"rental_uris":{"android":"levelo://app?vid=c74e98d3-14d3-45e5-9081-a9f2b39fe4ce","ios":"levelo://app?vid=c74e98d3-14d3-45e5-9081-a9f2b39fe4ce"},"vehicle_type_id":"4","last_reported":1703369146,"current_range_meters":26400,"station_id":"ce4bhr12rcd13ifvqhpg","pricing_plan_id":"free"},{"bike_id":"c2c1014d-d984-47e8-95fb-164e5b5a390a","system_id":"levelo_inurba_marseille","lat":43.31998,"lon":5.38167,"is_reserved":false,"is_disabled":false,"rental_uris":{"android":"levelo://app?vid=c2c1014d-d984-47e8-95fb-164e5b5a390a","ios":"levelo://app?vid=c2c1014d-d984-47e8-95fb-164e5b5a390a"},"vehicle_type_id":"4","last_reported":1703369146,"current_range_meters":12400,"station_id":"ce4bhr12rcd13ifvqhpg","pricing_plan_id":"free"},{"bike_id":"3038e8a8-c44b-4f87-9b3c-9c6260ab830f","system_id":"levelo_inurba_marseille","lat":43.317557,"lon":5.390173,"is_reserved":false,"is_disabled":false,"rental_uris":{"android":"levelo://app?vid=3038e8a8-c44b-4f87-9b3c-9c6260ab830f","ios":"levelo://app?vid=3038e8a8-c44b-4f87-9b3c-9c6260ab830f"},"vehicle_type_id":"4","last_reported":1703369146,"current_range_meters":16800,"station_id":"ce4bhqp2rcd13ifvqhng","pricing_plan_id":"free"},{"bike_id":"b3953f4f-9bcd-4e96-8eaf-e8c5208ebc0b","system_id":"levelo_inurba_marseille","lat":43.313571,"lon":5.384829,"is_reserved":false,"is_disabled":false,"rental_uris":{"android":"levelo://app?vid=b3953f4f-9bcd-4e96-8eaf-e8c5208ebc0b","ios":"levelo://app?vid=b3953f4f-9bcd-4e96-8eaf-e8c5208ebc0b"},"vehicle_type_id":"4","last_reported":1703369146,"current_range_meters":8000,"station_id":"ce4bgt92rcd13ifvqcf0","pricing_plan_id":"free"},{"bike_id":"7287b43b-e2d5-4c7b-b22b-7995b96c52ee","system_id":"levelo_inurba_marseille","lat":43.31366,"lon":5.38491,"is_reserved":false,"is_disabled":false,"rental_uris":{"android":"levelo://app?vid=7287b43b-e2d5-4c7b-b22b-7995b96c52ee","ios":"levelo://app?vid=7287b43b-e2d5-4c7b-b22b-7995b96c52ee"},"vehicle_type_id":"4","last_reported":1703369146,"current_range_meters":400,"station_id":"ce4bgt92rcd13ifvqcf0","pricing_plan_id":"free"},{"bike_id":"569f902b-28d3-4ce7-b870-b1bee432a103","system_id":"levelo_inurba_marseille","lat":43.313571,"lon":5.384829,"is_reserved":false,"is_disabled":false,"rental_uris":{"android":"levelo://app?vid=569f902b-28d3-4ce7-b870-b1bee432a103","ios":"levelo://app?vid=569f902b-28d3-4ce7-b870-b1bee432a103"},"vehicle_type_id":"4","last_reported":1703369146,"current_range_meters":21200,"station_id":"ce4bgt92rcd13ifvqcf0","pricing_plan_id":"free"},{"bike_id":"4658270a-07df-4a07-ba48-1c8999b89392","system_id":"levelo_inurba_marseille","lat":43.31366,"lon":5.38499,"is_reserved":false,"is_disabled":false,"rental_uris":{"android":"levelo://app?vid=4658270a-07df-4a07-ba48-1c8999b89392","ios":"levelo://app?vid=4658270a-07df-4a07-ba48-1c8999b89392"},"vehicle_type_id":"4","last_reported":1703369146,"current_range_meters":26800,"station_id":"ce4bgt92rcd13ifvqcf0","pricing_plan_id":"free"},{"bike_id":"572dd370-c819-4962-a321-083c0c8521a7","system_id":"levelo_inurba_marseille","lat":43.3136,"lon":5.385,"is_reserved":false,"is_disabled":false,"rental_uris":{"android":"levelo://app?vid=572dd370-c819-4962-a321-083c0c8521a7","ios":"levelo://app?vid=572dd370-c819-4962-a321-083c0c8521a7"},"vehicle_type_id":"4","last_reported":1703369146,"current_range_meters":16000,"station_id":"ce4bgt92rcd13ifvqcf0","pricing_plan_id":"free"},{"bike_id":"51c9545f-0ad7-4c42-8134-b889d1a3f7bb","system_id":"levelo_inurba_marseille","lat":43.313633,"lon":5.385,"is_reserved":false,"is_disabled":false,"rental_uris":{"android":"levelo://app?vid=51c9545f-0ad7-4c42-8134-b889d1a3f7bb","ios":"levelo://app?vid=51c9545f-0ad7-4c42-8134-b889d1a3f7bb"},"vehicle_type_id":"4","last_reported":1703369146,"current_range_meters":400,"station_id":"ce4bgt92rcd13ifvqcf0","pricing_plan_id":"free"},{"bike_id":"df824d1c-1f9a-42a4-a522-31e5aafdc83a","system_id":"levelo_inurba_marseille","lat":43.299209,"lon":5.365547,"is_reserved":false,"is_disabled":false,"rental_uris":{"android":"levelo://app?vid=df824d1c-1f9a-42a4-a522-31e5aafdc83a","ios":"levelo://app?vid=df824d1c-1f9a-42a4-a522-31e5aafdc83a"},"vehicle_type_id":"4","last_reported":1703369146,"current_range_meters":23200,"station_id":"ce4bgm92rcd13ifvqbr0","pricing_plan_id":"free"},{"bike_id":"12a174f3-cd22-4c72-a876-416480d087c8","system_id":"levelo_inurba_marseille","lat":43.299724,"lon":5.371829,"is_reserved":false,"is_disabled":false,"rental_uris":{"android":"levelo://app?vid=12a174f3-cd22-4c72-a876-416480d087c8","ios":"levelo://app?vid=12a174f3-cd22-4c72-a876-416480d087c8"},"vehicle_type_id":"4","last_reported":1703369146,"current_range_meters":26800,"station_id":"ce4bgr92rcd13ifvqc7g","pricing_plan_id":"free"},{"bike_id":"ef630224-53a0-41f9-9abb-fa58fbb63344","system_id":"levelo_inurba_marseille","lat":43.298433,"lon":5.362774,"is_reserved":false,"is_disabled":false,"rental_uris":{"android":"levelo://app?vid=ef630224-53a0-41f9-9abb-fa58fbb63344","ios":"levelo://app?vid=ef630224-53a0-41f9-9abb-fa58fbb63344"},"vehicle_type_id":"4","last_reported":1703369146,"current_range_meters":28800,"station_id":"ce4bgpp2rcd13ifvqc3g","pricing_plan_id":"free"},{"bike_id":"151208a1-0134-40fb-88ef-eecc18af64f4","system_id":"levelo_inurba_marseille","lat":43.298433,"lon":5.362774,"is_reserved":false,"is_disabled":false,"rental_uris":{"android":"levelo://app?vid=151208a1-0134-40fb-88ef-eecc18af64f4","ios":"levelo://app?vid=151208a1-0134-40fb-88ef-eecc18af64f4"},"vehicle_type_id":"4","last_reported":1703369146,"current_range_meters":29200,"station_id":"ce4bgpp2rcd13ifvqc3g","pricing_plan_id":"free"},{"bike_id":"5cdc20f4-4bf8-4377-810c-a02d80a0f909","system_id":"levelo_inurba_marseille","lat":43.298433,"lon":5.362774,"is_reserved":false,"is_disabled":false,"rental_uris":{"android":"levelo://app?vid=5cdc20f4-4bf8-4377-810c-a02d80a0f909","ios":"levelo://app?vid=5cdc20f4-4bf8-4377-810c-a02d80a0f909"},"vehicle_type_id":"4","last_reported":1703369146,"current_range_meters":12000,"station_id":"ce4bgpp2rcd13ifvqc3g","pricing_plan_id":"free"},{"bike_id":"3a895b22-d9d9-4ca1-939b-fe122da69e18","system_id":"levelo_inurba_marseille","lat":43.305364,"lon":5.384119,"is_reserved":false,"is_disabled":false,"rental_uris":{"android":"levelo://app?vid=3a895b22-d9d9-4ca1-939b-fe122da69e18","ios":"levelo://app?vid=3a895b22-d9d9-4ca1-939b-fe122da69e18"},"vehicle_type_id":"4","last_reported":1703369146,"current_range_meters":18400,"station_id":"ce4bgg92rcd13ifvqb30","pricing_plan_id":"free"},{"bike_id":"6532e556-0529-40e0-8083-80fd5868e7b2","system_id":"levelo_inurba_marseille","lat":43.29846,"lon":5.36274,"is_reserved":false,"is_disabled":false,"rental_uris":{"android":"levelo://app?vid=6532e556-0529-40e0-8083-80fd5868e7b2","ios":"levelo://app?vid=6532e556-0529-40e0-8083-80fd5868e7b2"},"vehicle_type_id":"4","last_reported":1703369146,"current_range_meters":22000,"station_id":"ce4bgpp2rcd13ifvqc3g","pricing_plan_id":"free"},{"bike_id":"8c17483e-4e35-4a83-b719-9cd74b78b588","system_id":"levelo_inurba_marseille","lat":43.298433,"lon":5.362774,"is_reserved":false,"is_disabled":false,"rental_uris":{"android":"levelo://app?vid=8c17483e-4e35-4a83-b719-9cd74b78b588","ios":"levelo://app?vid=8c17483e-4e35-4a83-b719-9cd74b78b588"},"vehicle_type_id":"4","last_reported":1703369146,"current_range_meters":30400,"station_id":"ce4bgpp2rcd13ifvqc3g","pricing_plan_id":"free"},{"bike_id":"04266481-2d09-4112-bf6f-0c590fd7af1a","system_id":"levelo_inurba_marseille","lat":43.298433,"lon":5.362774,"is_reserved":false,"is_disabled":false,"rental_uris":{"android":"levelo://app?vid=04266481-2d09-4112-bf6f-0c590fd7af1a","ios":"levelo://app?vid=04266481-2d09-4112-bf6f-0c590fd7af1a"},"vehicle_type_id":"4","last_reported":1703369146,"current_range_meters":15600,"station_id":"ce4bgpp2rcd13ifvqc3g","pricing_plan_id":"free"},{"bike_id":"cedce08f-7e05-4203-bc64-70767cb2f46a","system_id":"levelo_inurba_marseille","lat":43.298433,"lon":5.362774,"is_reserved":false,"is_disabled":false,"rental_uris":{"android":"levelo://app?vid=cedce08f-7e05-4203-bc64-70767cb2f46a","ios":"levelo://app?vid=cedce08f-7e05-4203-bc64-70767cb2f46a"},"vehicle_type_id":"4","last_reported":1703369146,"current_range_meters":17200,"station_id":"ce4bgpp2rcd13ifvqc3g","pricing_plan_id":"free"},{"bike_id":"82ff36ab-7aab-496f-9fd9-b7cc5d126a3a","system_id":"levelo_inurba_marseille","lat":43.298433,"lon":5.362774,"is_reserved":false,"is_disabled":false,"rental_uris":{"android":"levelo://app?vid=82ff36ab-7aab-496f-9fd9-b7cc5d126a3a","ios":"levelo://app?vid=82ff36ab-7aab-496f-9fd9-b7cc5d126a3a"},"vehicle_type_id":"4","last_reported":1703369146,"current_range_meters":31600,"station_id":"ce4bgpp2rcd13ifvqc3g","pricing_plan_id":"free"},{"bike_id":"94151c4e-07a4-4a29-a8b2-6180821a4a15","system_id":"levelo_inurba_marseille","lat":43.2984,"lon":5.36268,"is_reserved":false,"is_disabled":false,"rental_uris":{"android":"levelo://app?vid=94151c4e-07a4-4a29-a8b2-6180821a4a15","ios":"levelo://app?vid=94151c4e-07a4-4a29-a8b2-6180821a4a15"},"vehicle_type_id":"4","last_reported":1703369146,"current_range_meters":20000,"station_id":"ce4bgpp2rcd13ifvqc3g","pricing_plan_id":"free"},{"bike_id":"6781d681-f0ce-4e20-b177-2a4c03c46910","system_id":"levelo_inurba_marseille","lat":43.298433,"lon":5.362774,"is_reserved":false,"is_disabled":false,"rental_uris":{"android":"levelo://app?vid=6781d681-f0ce-4e20-b177-2a4c03c46910","ios":"levelo://app?vid=6781d681-f0ce-4e20-b177-2a4c03c46910"},"vehicle_type_id":"4","last_reported":1703369146,"current_range_meters":30400,"station_id":"ce4bgpp2rcd13ifvqc3g","pricing_plan_id":"free"},{"bike_id":"b5b5e0d8-aaff-430b-b4a4-c4bae27633e8","system_id":"levelo_inurba_marseille","lat":43.299243,"lon":5.374807,"is_reserved":false,"is_disabled":false,"rental_uris":{"android":"levelo://app?vid=b5b5e0d8-aaff-430b-b4a4-c4bae27633e8","ios":"levelo://app?vid=b5b5e0d8-aaff-430b-b4a4-c4bae27633e8"},"vehicle_type_id":"4","last_reported":1703369146,"current_range_meters":18800,"station_id":"ce4bgjh2rcd13ifvqbg0","pricing_plan_id":"free"},{"bike_id":"d525f797-3728-417b-bf54-fea450f26a68","system_id":"levelo_inurba_marseille","lat":43.299243,"lon":5.374807,"is_reserved":false,"is_disabled":false,"rental_uris":{"android":"levelo://app?vid=d525f797-3728-417b-bf54-fea450f26a68","ios":"levelo://app?vid=d525f797-3728-417b-bf54-fea450f26a68"},"vehicle_type_id":"4","last_reported":1703369146,"current_range_meters":11600,"station_id":"ce4bgjh2rcd13ifvqbg0","pricing_plan_id":"free"},{"bike_id":"712adae4-90dd-4134-bc7d-76637c3b8eb9","system_id":"levelo_inurba_marseille","lat":43.311722,"lon":5.387247,"is_reserved":false,"is_disabled":false,"rental_uris":{"android":"levelo://app?vid=712adae4-90dd-4134-bc7d-76637c3b8eb9","ios":"levelo://app?vid=712adae4-90dd-4134-bc7d-76637c3b8eb9"},"vehicle_type_id":"4","last_reported":1703369146,"current_range_meters":21600,"station_id":"ce4bgv12rcd13ifvqcp0","pricing_plan_id":"free"},{"bike_id":"f99df626-f64c-4039-93f8-4583d2e62229","system_id":"levelo_inurba_marseille","lat":43.297794,"lon":5.370888,"is_reserved":false,"is_disabled":false,"rental_uris":{"android":"levelo://app?vid=f99df626-f64c-4039-93f8-4583d2e62229","ios":"levelo://app?vid=f99df626-f64c-4039-93f8-4583d2e62229"},"vehicle_type_id":"4","last_reported":1703369146,"current_range_meters":7200,"station_id":"ce4bgop2rcd13ifvqc1g","pricing_plan_id":"free"},{"bike_id":"13eaf95c-2165-46b5-9c8a-b621dd103902","system_id":"levelo_inurba_marseille","lat":43.297794,"lon":5.370888,"is_reserved":false,"is_disabled":false,"rental_uris":{"android":"levelo://app?vid=13eaf95c-2165-46b5-9c8a-b621dd103902","ios":"levelo://app?vid=13eaf95c-2165-46b5-9c8a-b621dd103902"},"vehicle_type_id":"4","last_reported":1703369146,"current_range_meters":23600,"station_id":"ce4bgop2rcd13ifvqc1g","pricing_plan_id":"free"},{"bike_id":"9eaa8f30-1346-4fe6-b252-5cdbb07e91b4","system_id":"levelo_inurba_marseille","lat":43.297794,"lon":5.370888,"is_reserved":false,"is_disabled":false,"rental_uris":{"android":"levelo://app?vid=9eaa8f30-1346-4fe6-b252-5cdbb07e91b4","ios":"levelo://app?vid=9eaa8f30-1346-4fe6-b252-5cdbb07e91b4"},"vehicle_type_id":"4","last_reported":1703369146,"current_range_meters":25200,"station_id":"ce4bgop2rcd13ifvqc1g","pricing_plan_id":"free"},{"bike_id":"3d7fe210-68c1-416e-8fe2-a3416ecf1970","system_id":"levelo_inurba_marseille","lat":43.322872,"lon":5.382756,"is_reserved":false,"is_disabled":false,"rental_uris":{"android":"levelo://app?vid=3d7fe210-68c1-416e-8fe2-a3416ecf1970","ios":"levelo://app?vid=3d7fe210-68c1-416e-8fe2-a3416ecf1970"},"vehicle_type_id":"4","last_reported":1703369146,"current_range_meters":30400,"station_id":"ce4bhr12rcd13ifvqhqg","pricing_plan_id":"free"},{"bike_id":"3fae9465-58ef-4f4b-a861-8ea682064d68","system_id":"levelo_inurba_marseille","lat":43.322872,"lon":5.382756,"is_reserved":false,"is_disabled":false,"rental_uris":{"android":"levelo://app?vid=3fae9465-58ef-4f4b-a861-8ea682064d68","ios":"levelo://app?vid=3fae9465-58ef-4f4b-a861-8ea682064d68"},"vehicle_type_id":"4","last_reported":1703369146,"current_range_meters":28400,"station_id":"ce4bhr12rcd13ifvqhqg","pricing_plan_id":"free"},{"bike_id":"ec8d336b-b6cc-4c71-8a3b-5b04c7cb2d9e","system_id":"levelo_inurba_marseille","lat":43.328371,"lon":5.366912,"is_reserved":false,"is_disabled":false,"rental_uris":{"android":"levelo://app?vid=ec8d336b-b6cc-4c71-8a3b-5b04c7cb2d9e","ios":"levelo://app?vid=ec8d336b-b6cc-4c71-8a3b-5b04c7cb2d9e"},"vehicle_type_id":"4","last_reported":1703369146,"current_range_meters":25600,"station_id":"ce4bhs92rcd13ifvqi0g","pricing_plan_id":"free"},{"bike_id":"f87da88d-1f94-4fd6-aac5-f06bf966aeed","system_id":"levelo_inurba_marseille","lat":43.297163,"lon":5.365866,"is_reserved":false,"is_disabled":false,"rental_uris":{"android":"levelo://app?vid=f87da88d-1f94-4fd6-aac5-f06bf966aeed","ios":"levelo://app?vid=f87da88d-1f94-4fd6-aac5-f06bf966aeed"},"vehicle_type_id":"4","last_reported":1703369146,"current_range_meters":31600,"station_id":"ce4bgn12rcd13ifvqbt0","pricing_plan_id":"free"},{"bike_id":"4d8dd402-af83-4728-8e0e-b9efd90346b4","system_id":"levelo_inurba_marseille","lat":43.297163,"lon":5.365866,"is_reserved":false,"is_disabled":false,"rental_uris":{"android":"levelo://app?vid=4d8dd402-af83-4728-8e0e-b9efd90346b4","ios":"levelo://app?vid=4d8dd402-af83-4728-8e0e-b9efd90346b4"},"vehicle_type_id":"4","last_reported":1703369146,"current_range_meters":25200,"station_id":"ce4bgn12rcd13ifvqbt0","pricing_plan_id":"free"},{"bike_id":"2d8bc7e8-4e9c-4605-a07f-86601cfdadef","system_id":"levelo_inurba_marseille","lat":43.295907,"lon":5.367867,"is_reserved":false,"is_disabled":false,"rental_uris":{"android":"levelo://app?vid=2d8bc7e8-4e9c-4605-a07f-86601cfdadef","ios":"levelo://app?vid=2d8bc7e8-4e9c-4605-a07f-86601cfdadef"},"vehicle_type_id":"4","last_reported":1703369146,"current_range_meters":22800,"station_id":"","pricing_plan_id":"free"},{"bike_id":"b76be912-b73a-453c-9cc2-bb4fc254f523","system_id":"levelo_inurba_marseille","lat":43.29573,"lon":5.367355,"is_reserved":false,"is_disabled":false,"rental_uris":{"android":"levelo://app?vid=b76be912-b73a-453c-9cc2-bb4fc254f523","ios":"levelo://app?vid=b76be912-b73a-453c-9cc2-bb4fc254f523"},"vehicle_type_id":"4","last_reported":1703369146,"current_range_meters":25600,"station_id":"ce4bgph2rcd13ifvqc2g","pricing_plan_id":"free"},{"bike_id":"c5e36e56-28a8-452d-8380-3591dac4b698","system_id":"levelo_inurba_marseille","lat":43.29573,"lon":5.367355,"is_reserved":false,"is_disabled":false,"rental_uris":{"android":"levelo://app?vid=c5e36e56-28a8-452d-8380-3591dac4b698","ios":"levelo://app?vid=c5e36e56-28a8-452d-8380-3591dac4b698"},"vehicle_type_id":"4","last_reported":1703369146,"current_range_meters":22800,"station_id":"ce4bgph2rcd13ifvqc2g","pricing_plan_id":"free"},{"bike_id":"90d9cf58-1dc5-4d8a-824f-802a3b33bbc1","system_id":"levelo_inurba_marseille","lat":43.317557,"lon":5.390173,"is_reserved":false,"is_disabled":false,"rental_uris":{"android":"levelo://app?vid=90d9cf58-1dc5-4d8a-824f-802a3b33bbc1","ios":"levelo://app?vid=90d9cf58-1dc5-4d8a-824f-802a3b33bbc1"},"vehicle_type_id":"4","last_reported":1703369146,"current_range_meters":31200,"station_id":"ce4bhqp2rcd13ifvqhng","pricing_plan_id":"free"},{"bike_id":"0a08705d-c05e-4bd9-a3e5-495433ab69a8","system_id":"levelo_inurba_marseille","lat":43.317557,"lon":5.390173,"is_reserved":false,"is_disabled":false,"rental_uris":{"android":"levelo://app?vid=0a08705d-c05e-4bd9-a3e5-495433ab69a8","ios":"levelo://app?vid=0a08705d-c05e-4bd9-a3e5-495433ab69a8"},"vehicle_type_id":"4","last_reported":1703369146,"current_range_meters":11200,"station_id":"ce4bhqp2rcd13ifvqhng","pricing_plan_id":"free"},{"bike_id":"84a5b5c2-0a3d-4763-aab7-f7ece2cbc495","system_id":"levelo_inurba_marseille","lat":43.317557,"lon":5.390173,"is_reserved":false,"is_disabled":false,"rental_uris":{"android":"levelo://app?vid=84a5b5c2-0a3d-4763-aab7-f7ece2cbc495","ios":"levelo://app?vid=84a5b5c2-0a3d-4763-aab7-f7ece2cbc495"},"vehicle_type_id":"4","last_reported":1703369146,"current_range_meters":2800,"station_id":"ce4bhqp2rcd13ifvqhng","pricing_plan_id":"free"},{"bike_id":"2add3ace-ed3c-48c0-b3f4-fbd04d56e2bf","system_id":"levelo_inurba_marseille","lat":43.317557,"lon":5.390173,"is_reserved":false,"is_disabled":false,"rental_uris":{"android":"levelo://app?vid=2add3ace-ed3c-48c0-b3f4-fbd04d56e2bf","ios":"levelo://app?vid=2add3ace-ed3c-48c0-b3f4-fbd04d56e2bf"},"vehicle_type_id":"4","last_reported":1703369146,"current_range_meters":30000,"station_id":"ce4bhqp2rcd13ifvqhng","pricing_plan_id":"free"},{"bike_id":"b2f35832-5b67-4968-bfd2-8ec8c1ba32d7","system_id":"levelo_inurba_marseille","lat":43.317557,"lon":5.390173,"is_reserved":false,"is_disabled":false,"rental_uris":{"android":"levelo://app?vid=b2f35832-5b67-4968-bfd2-8ec8c1ba32d7","ios":"levelo://app?vid=b2f35832-5b67-4968-bfd2-8ec8c1ba32d7"},"vehicle_type_id":"4","last_reported":1703369146,"current_range_meters":28800,"station_id":"ce4bhqp2rcd13ifvqhng","pricing_plan_id":"free"},{"bike_id":"0107edc4-9a86-426d-8bf8-8abaf13c3c58","system_id":"levelo_inurba_marseille","lat":43.317557,"lon":5.390173,"is_reserved":false,"is_disabled":false,"rental_uris":{"android":"levelo://app?vid=0107edc4-9a86-426d-8bf8-8abaf13c3c58","ios":"levelo://app?vid=0107edc4-9a86-426d-8bf8-8abaf13c3c58"},"vehicle_type_id":"4","last_reported":1703369146,"current_range_meters":31600,"station_id":"ce4bhqp2rcd13ifvqhng","pricing_plan_id":"free"},{"bike_id":"230b5770-e1b2-4de8-b352-e4ab23aa549a","system_id":"levelo_inurba_marseille","lat":43.299707,"lon":5.384859,"is_reserved":false,"is_disabled":false,"rental_uris":{"android":"levelo://app?vid=230b5770-e1b2-4de8-b352-e4ab23aa549a","ios":"levelo://app?vid=230b5770-e1b2-4de8-b352-e4ab23aa549a"},"vehicle_type_id":"4","last_reported":1703369146,"current_range_meters":25600,"station_id":"ce4bgj92rcd13ifvqbd0","pricing_plan_id":"free"},{"bike_id":"dca8d6cc-9a59-49a2-a5f9-f8171f033b55","system_id":"levelo_inurba_marseille","lat":43.299707,"lon":5.384859,"is_reserved":false,"is_disabled":false,"rental_uris":{"android":"levelo://app?vid=dca8d6cc-9a59-49a2-a5f9-f8171f033b55","ios":"levelo://app?vid=dca8d6cc-9a59-49a2-a5f9-f8171f033b55"},"vehicle_type_id":"4","last_reported":1703369146,"current_range_meters":24400,"station_id":"ce4bgj92rcd13ifvqbd0","pricing_plan_id":"free"},{"bike_id":"7f9a4350-83bc-4bb0-a6fd-5b2032646f38","system_id":"levelo_inurba_marseille","lat":43.295279,"lon":5.375048,"is_reserved":false,"is_disabled":false,"rental_uris":{"android":"levelo://app?vid=7f9a4350-83bc-4bb0-a6fd-5b2032646f38","ios":"levelo://app?vid=7f9a4350-83bc-4bb0-a6fd-5b2032646f38"},"vehicle_type_id":"4","last_reported":1703369146,"current_range_meters":25200,"station_id":"ce4bgkp2rcd13ifvqbmg","pricing_plan_id":"free"},{"bike_id":"0d52f3dd-3ef0-4f6a-9c9a-d9da0447a67d","system_id":"levelo_inurba_marseille","lat":43.305364,"lon":5.384119,"is_reserved":false,"is_disabled":false,"rental_uris":{"android":"levelo://app?vid=0d52f3dd-3ef0-4f6a-9c9a-d9da0447a67d","ios":"levelo://app?vid=0d52f3dd-3ef0-4f6a-9c9a-d9da0447a67d"},"vehicle_type_id":"4","last_reported":1703369146,"current_range_meters":26800,"station_id":"ce4bgg92rcd13ifvqb30","pricing_plan_id":"free"},{"bike_id":"7d718a5c-3053-4d7b-a86a-24da15a36279","system_id":"levelo_inurba_marseille","lat":43.32367,"lon":5.388836,"is_reserved":false,"is_disabled":false,"rental_uris":{"android":"levelo://app?vid=7d718a5c-3053-4d7b-a86a-24da15a36279","ios":"levelo://app?vid=7d718a5c-3053-4d7b-a86a-24da15a36279"},"vehicle_type_id":"4","last_reported":1703369146,"current_range_meters":8000,"station_id":"ce4bhqp2rcd13ifvqhog","pricing_plan_id":"free"},{"bike_id":"788be91f-0ebf-4283-ab27-bc0d799b9da6","system_id":"levelo_inurba_marseille","lat":43.32367,"lon":5.388836,"is_reserved":false,"is_disabled":false,"rental_uris":{"android":"levelo://app?vid=788be91f-0ebf-4283-ab27-bc0d799b9da6","ios":"levelo://app?vid=788be91f-0ebf-4283-ab27-bc0d799b9da6"},"vehicle_type_id":"4","last_reported":1703369146,"current_range_meters":14400,"station_id":"ce4bhqp2rcd13ifvqhog","pricing_plan_id":"free"},{"bike_id":"8f41e4c8-d5d6-43c5-af6f-bd8fcbdd36d6","system_id":"levelo_inurba_marseille","lat":43.292749,"lon":5.368402,"is_reserved":false,"is_disabled":false,"rental_uris":{"android":"levelo://app?vid=8f41e4c8-d5d6-43c5-af6f-bd8fcbdd36d6","ios":"levelo://app?vid=8f41e4c8-d5d6-43c5-af6f-bd8fcbdd36d6"},"vehicle_type_id":"4","last_reported":1703369146,"current_range_meters":8400,"station_id":"ce4bhbp2rcd13ifvqesg","pricing_plan_id":"free"},{"bike_id":"f3c7614e-17ca-4b84-83ae-7d563b1be524","system_id":"levelo_inurba_marseille","lat":43.305994,"lon":5.393687,"is_reserved":false,"is_disabled":false,"rental_uris":{"android":"levelo://app?vid=f3c7614e-17ca-4b84-83ae-7d563b1be524","ios":"levelo://app?vid=f3c7614e-17ca-4b84-83ae-7d563b1be524"},"vehicle_type_id":"4","last_reported":1703369146,"current_range_meters":14800,"station_id":"ce4bh0p2rcd13ifvqd80","pricing_plan_id":"free"},{"bike_id":"cbdd82af-ae04-4efc-a7a0-c3b44c31aa0e","system_id":"levelo_inurba_marseille","lat":43.305994,"lon":5.393687,"is_reserved":false,"is_disabled":false,"rental_uris":{"android":"levelo://app?vid=cbdd82af-ae04-4efc-a7a0-c3b44c31aa0e","ios":"levelo://app?vid=cbdd82af-ae04-4efc-a7a0-c3b44c31aa0e"},"vehicle_type_id":"4","last_reported":1703369146,"current_range_meters":23600,"station_id":"ce4bh0p2rcd13ifvqd80","pricing_plan_id":"free"},{"bike_id":"0a05c6f1-2ab6-4240-a835-db0acb8bbd15","system_id":"levelo_inurba_marseille","lat":43.305994,"lon":5.393687,"is_reserved":false,"is_disabled":false,"rental_uris":{"android":"levelo://app?vid=0a05c6f1-2ab6-4240-a835-db0acb8bbd15","ios":"levelo://app?vid=0a05c6f1-2ab6-4240-a835-db0acb8bbd15"},"vehicle_type_id":"4","last_reported":1703369146,"current_range_meters":30000,"station_id":"ce4bh0p2rcd13ifvqd80","pricing_plan_id":"free"},{"bike_id":"eefa8bfb-d62a-42c8-aa3f-8213acb38630","system_id":"levelo_inurba_marseille","lat":43.305994,"lon":5.393687,"is_reserved":false,"is_disabled":false,"rental_uris":{"android":"levelo://app?vid=eefa8bfb-d62a-42c8-aa3f-8213acb38630","ios":"levelo://app?vid=eefa8bfb-d62a-42c8-aa3f-8213acb38630"},"vehicle_type_id":"4","last_reported":1703369146,"current_range_meters":28400,"station_id":"ce4bh0p2rcd13ifvqd80","pricing_plan_id":"free"},{"bike_id":"5afb113c-1a6c-432e-8874-36a1110ea4d8","system_id":"levelo_inurba_marseille","lat":43.30085,"lon":5.390856,"is_reserved":false,"is_disabled":false,"rental_uris":{"android":"levelo://app?vid=5afb113c-1a6c-432e-8874-36a1110ea4d8","ios":"levelo://app?vid=5afb113c-1a6c-432e-8874-36a1110ea4d8"},"vehicle_type_id":"4","last_reported":1703369146,"current_range_meters":23600,"station_id":"ce4bh192rcd13ifvqdb0","pricing_plan_id":"free"},{"bike_id":"e0dc8dca-e3cd-4fd0-953a-2b7071411c19","system_id":"levelo_inurba_marseille","lat":43.29428,"lon":5.38126,"is_reserved":false,"is_disabled":false,"rental_uris":{"android":"levelo://app?vid=e0dc8dca-e3cd-4fd0-953a-2b7071411c19","ios":"levelo://app?vid=e0dc8dca-e3cd-4fd0-953a-2b7071411c19"},"vehicle_type_id":"4","last_reported":1703369146,"current_range_meters":20800,"station_id":"","pricing_plan_id":"free"},{"bike_id":"6fdb7d4f-575d-42ca-8b84-3c0d59ce6dd9","system_id":"levelo_inurba_marseille","lat":43.291671,"lon":5.371575,"is_reserved":false,"is_disabled":false,"rental_uris":{"android":"levelo://app?vid=6fdb7d4f-575d-42ca-8b84-3c0d59ce6dd9","ios":"levelo://app?vid=6fdb7d4f-575d-42ca-8b84-3c0d59ce6dd9"},"vehicle_type_id":"4","last_reported":1703369146,"current_range_meters":27200,"station_id":"ce4bha92rcd13ifvqeh0","pricing_plan_id":"free"},{"bike_id":"ec40c74b-2207-445b-8f5d-74ef048d101f","system_id":"levelo_inurba_marseille","lat":43.291675,"lon":5.371583,"is_reserved":false,"is_disabled":false,"rental_uris":{"android":"levelo://app?vid=ec40c74b-2207-445b-8f5d-74ef048d101f","ios":"levelo://app?vid=ec40c74b-2207-445b-8f5d-74ef048d101f"},"vehicle_type_id":"4","last_reported":1703369146,"current_range_meters":30800,"station_id":"ce4bha92rcd13ifvqeh0","pricing_plan_id":"free"},{"bike_id":"6df7f80f-028f-4392-8fd2-d7f9585f69ba","system_id":"levelo_inurba_marseille","lat":43.298726,"lon":5.38905,"is_reserved":false,"is_disabled":false,"rental_uris":{"android":"levelo://app?vid=6df7f80f-028f-4392-8fd2-d7f9585f69ba","ios":"levelo://app?vid=6df7f80f-028f-4392-8fd2-d7f9585f69ba"},"vehicle_type_id":"4","last_reported":1703369146,"current_range_meters":3200,"station_id":"","pricing_plan_id":"free"},{"bike_id":"b7e584bb-e100-491d-8911-27db9db56e1e","system_id":"levelo_inurba_marseille","lat":43.29866,"lon":5.38902,"is_reserved":false,"is_disabled":false,"rental_uris":{"android":"levelo://app?vid=b7e584bb-e100-491d-8911-27db9db56e1e","ios":"levelo://app?vid=b7e584bb-e100-491d-8911-27db9db56e1e"},"vehicle_type_id":"4","last_reported":1703369146,"current_range_meters":17200,"station_id":"","pricing_plan_id":"free"},{"bike_id":"3cdcb3c2-e519-490b-94cf-a61eb7a872b6","system_id":"levelo_inurba_marseille","lat":43.309047,"lon":5.396551,"is_reserved":false,"is_disabled":false,"rental_uris":{"android":"levelo://app?vid=3cdcb3c2-e519-490b-94cf-a61eb7a872b6","ios":"levelo://app?vid=3cdcb3c2-e519-490b-94cf-a61eb7a872b6"},"vehicle_type_id":"4","last_reported":1703369146,"current_range_meters":28800,"station_id":"ce4bh012rcd13ifvqcv0","pricing_plan_id":"free"},{"bike_id":"efb4036f-575e-4a60-911b-a2ae05d7d728","system_id":"levelo_inurba_marseille","lat":43.309038,"lon":5.396546,"is_reserved":false,"is_disabled":false,"rental_uris":{"android":"levelo://app?vid=efb4036f-575e-4a60-911b-a2ae05d7d728","ios":"levelo://app?vid=efb4036f-575e-4a60-911b-a2ae05d7d728"},"vehicle_type_id":"4","last_reported":1703369146,"current_range_meters":28000,"station_id":"ce4bh012rcd13ifvqcv0","pricing_plan_id":"free"},{"bike_id":"5c944377-b4f6-4d97-a6b3-70a06fd38253","system_id":"levelo_inurba_marseille","lat":43.313291,"lon":5.396838,"is_reserved":false,"is_disabled":false,"rental_uris":{"android":"levelo://app?vid=5c944377-b4f6-4d97-a6b3-70a06fd38253","ios":"levelo://app?vid=5c944377-b4f6-4d97-a6b3-70a06fd38253"},"vehicle_type_id":"4","last_reported":1703369146,"current_range_meters":23200,"station_id":"ce4bgvp2rcd13ifvqcu0","pricing_plan_id":"free"},{"bike_id":"723b8705-b739-4269-9293-bfeb74383d67","system_id":"levelo_inurba_marseille","lat":43.309038,"lon":5.396546,"is_reserved":false,"is_disabled":false,"rental_uris":{"android":"levelo://app?vid=723b8705-b739-4269-9293-bfeb74383d67","ios":"levelo://app?vid=723b8705-b739-4269-9293-bfeb74383d67"},"vehicle_type_id":"4","last_reported":1703369146,"current_range_meters":3200,"station_id":"ce4bh012rcd13ifvqcv0","pricing_plan_id":"free"},{"bike_id":"5248f146-471e-4659-aad6-995371ab2b5f","system_id":"levelo_inurba_marseille","lat":43.309038,"lon":5.396546,"is_reserved":false,"is_disabled":false,"rental_uris":{"android":"levelo://app?vid=5248f146-471e-4659-aad6-995371ab2b5f","ios":"levelo://app?vid=5248f146-471e-4659-aad6-995371ab2b5f"},"vehicle_type_id":"4","last_reported":1703369146,"current_range_meters":25600,"station_id":"ce4bh012rcd13ifvqcv0","pricing_plan_id":"free"},{"bike_id":"2fe4035f-189a-43ad-b7eb-603d33d3cec6","system_id":"levelo_inurba_marseille","lat":43.29529,"lon":5.385581,"is_reserved":false,"is_disabled":false,"rental_uris":{"android":"levelo://app?vid=2fe4035f-189a-43ad-b7eb-603d33d3cec6","ios":"levelo://app?vid=2fe4035f-189a-43ad-b7eb-603d33d3cec6"},"vehicle_type_id":"4","last_reported":1703369146,"current_range_meters":4800,"station_id":"ce4bgih2rcd13ifvqba0","pricing_plan_id":"free"},{"bike_id":"9c69e09c-7f1e-4d31-8524-96a4d7b92553","system_id":"levelo_inurba_marseille","lat":43.295316,"lon":5.385429,"is_reserved":false,"is_disabled":false,"rental_uris":{"android":"levelo://app?vid=9c69e09c-7f1e-4d31-8524-96a4d7b92553","ios":"levelo://app?vid=9c69e09c-7f1e-4d31-8524-96a4d7b92553"},"vehicle_type_id":"4","last_reported":1703369146,"current_range_meters":30000,"station_id":"ce4bgih2rcd13ifvqba0","pricing_plan_id":"free"},{"bike_id":"7a2eb67d-1c86-4cc7-a1a8-52f04f5778bf","system_id":"levelo_inurba_marseille","lat":43.29529,"lon":5.385581,"is_reserved":false,"is_disabled":false,"rental_uris":{"android":"levelo://app?vid=7a2eb67d-1c86-4cc7-a1a8-52f04f5778bf","ios":"levelo://app?vid=7a2eb67d-1c86-4cc7-a1a8-52f04f5778bf"},"vehicle_type_id":"4","last_reported":1703369146,"current_range_meters":25600,"station_id":"ce4bgih2rcd13ifvqba0","pricing_plan_id":"free"},{"bike_id":"cfdbbfa8-fb15-4f1b-a321-207279fe30bf","system_id":"levelo_inurba_marseille","lat":43.295281,"lon":5.385472,"is_reserved":false,"is_disabled":false,"rental_uris":{"android":"levelo://app?vid=cfdbbfa8-fb15-4f1b-a321-207279fe30bf","ios":"levelo://app?vid=cfdbbfa8-fb15-4f1b-a321-207279fe30bf"},"vehicle_type_id":"4","last_reported":1703369146,"current_range_meters":3200,"station_id":"ce4bgih2rcd13ifvqba0","pricing_plan_id":"free"},{"bike_id":"ca9a8a72-5746-4c02-99f2-41e5db8fe4c6","system_id":"levelo_inurba_marseille","lat":43.290779,"lon":5.371482,"is_reserved":false,"is_disabled":false,"rental_uris":{"android":"levelo://app?vid=ca9a8a72-5746-4c02-99f2-41e5db8fe4c6","ios":"levelo://app?vid=ca9a8a72-5746-4c02-99f2-41e5db8fe4c6"},"vehicle_type_id":"4","last_reported":1703369146,"current_range_meters":24800,"station_id":"ce4bh5p2rcd13ifvqe4g","pricing_plan_id":"free"},{"bike_id":"f8875582-9132-4f43-a862-907001cdb6d6","system_id":"levelo_inurba_marseille","lat":43.290327,"lon":5.375711,"is_reserved":false,"is_disabled":false,"rental_uris":{"android":"levelo://app?vid=f8875582-9132-4f43-a862-907001cdb6d6","ios":"levelo://app?vid=f8875582-9132-4f43-a862-907001cdb6d6"},"vehicle_type_id":"4","last_reported":1703369146,"current_range_meters":6400,"station_id":"ce4bh692rcd13ifvqe90","pricing_plan_id":"free"},{"bike_id":"b0ec2e3a-3f07-4bc5-8f93-2da89e6774da","system_id":"levelo_inurba_marseille","lat":43.294153,"lon":5.386305,"is_reserved":false,"is_disabled":false,"rental_uris":{"android":"levelo://app?vid=b0ec2e3a-3f07-4bc5-8f93-2da89e6774da","ios":"levelo://app?vid=b0ec2e3a-3f07-4bc5-8f93-2da89e6774da"},"vehicle_type_id":"4","last_reported":1703369146,"current_range_meters":19600,"station_id":"ce4bh2h2rcd13ifvqdh0","pricing_plan_id":"free"},{"bike_id":"af7d810c-9239-461d-9383-77ad2c83a753","system_id":"levelo_inurba_marseille","lat":43.294153,"lon":5.386305,"is_reserved":false,"is_disabled":false,"rental_uris":{"android":"levelo://app?vid=af7d810c-9239-461d-9383-77ad2c83a753","ios":"levelo://app?vid=af7d810c-9239-461d-9383-77ad2c83a753"},"vehicle_type_id":"4","last_reported":1703369146,"current_range_meters":24000,"station_id":"ce4bh2h2rcd13ifvqdh0","pricing_plan_id":"free"},{"bike_id":"85478470-baa7-4301-8734-ab6feb84fcea","system_id":"levelo_inurba_marseille","lat":43.294153,"lon":5.386305,"is_reserved":false,"is_disabled":false,"rental_uris":{"android":"levelo://app?vid=85478470-baa7-4301-8734-ab6feb84fcea","ios":"levelo://app?vid=85478470-baa7-4301-8734-ab6feb84fcea"},"vehicle_type_id":"4","last_reported":1703369146,"current_range_meters":18400,"station_id":"ce4bh2h2rcd13ifvqdh0","pricing_plan_id":"free"},{"bike_id":"383ca79c-7c7a-4a2d-9cbb-e1431ca3e39d","system_id":"levelo_inurba_marseille","lat":43.294153,"lon":5.386305,"is_reserved":false,"is_disabled":false,"rental_uris":{"android":"levelo://app?vid=383ca79c-7c7a-4a2d-9cbb-e1431ca3e39d","ios":"levelo://app?vid=383ca79c-7c7a-4a2d-9cbb-e1431ca3e39d"},"vehicle_type_id":"4","last_reported":1703369146,"current_range_meters":13600,"station_id":"ce4bh2h2rcd13ifvqdh0","pricing_plan_id":"free"},{"bike_id":"a7d57132-d28f-4470-a9ce-7a196f3b717e","system_id":"levelo_inurba_marseille","lat":43.29419,"lon":5.38623,"is_reserved":false,"is_disabled":false,"rental_uris":{"android":"levelo://app?vid=a7d57132-d28f-4470-a9ce-7a196f3b717e","ios":"levelo://app?vid=a7d57132-d28f-4470-a9ce-7a196f3b717e"},"vehicle_type_id":"4","last_reported":1703369146,"current_range_meters":12000,"station_id":"ce4bh2h2rcd13ifvqdh0","pricing_plan_id":"free"},{"bike_id":"3efe5675-a296-4bfb-b88a-d5b466e04ca0","system_id":"levelo_inurba_marseille","lat":43.294162,"lon":5.386292,"is_reserved":false,"is_disabled":false,"rental_uris":{"android":"levelo://app?vid=3efe5675-a296-4bfb-b88a-d5b466e04ca0","ios":"levelo://app?vid=3efe5675-a296-4bfb-b88a-d5b466e04ca0"},"vehicle_type_id":"4","last_reported":1703369146,"current_range_meters":12000,"station_id":"ce4bh2h2rcd13ifvqdh0","pricing_plan_id":"free"},{"bike_id":"cf3235fa-c8f2-40c6-bf9e-998723fb4534","system_id":"levelo_inurba_marseille","lat":43.294162,"lon":5.386292,"is_reserved":false,"is_disabled":false,"rental_uris":{"android":"levelo://app?vid=cf3235fa-c8f2-40c6-bf9e-998723fb4534","ios":"levelo://app?vid=cf3235fa-c8f2-40c6-bf9e-998723fb4534"},"vehicle_type_id":"4","last_reported":1703369146,"current_range_meters":10800,"station_id":"ce4bh2h2rcd13ifvqdh0","pricing_plan_id":"free"},{"bike_id":"7deb7438-4bef-4a98-b090-14f64d23b947","system_id":"levelo_inurba_marseille","lat":43.290327,"lon":5.375711,"is_reserved":false,"is_disabled":false,"rental_uris":{"android":"levelo://app?vid=7deb7438-4bef-4a98-b090-14f64d23b947","ios":"levelo://app?vid=7deb7438-4bef-4a98-b090-14f64d23b947"},"vehicle_type_id":"4","last_reported":1703369146,"current_range_meters":28400,"station_id":"ce4bh692rcd13ifvqe90","pricing_plan_id":"free"},{"bike_id":"cdcb7df5-02dc-4a01-91be-11e9b68e9318","system_id":"levelo_inurba_marseille","lat":43.289468,"lon":5.363719,"is_reserved":false,"is_disabled":false,"rental_uris":{"android":"levelo://app?vid=cdcb7df5-02dc-4a01-91be-11e9b68e9318","ios":"levelo://app?vid=cdcb7df5-02dc-4a01-91be-11e9b68e9318"},"vehicle_type_id":"4","last_reported":1703369146,"current_range_meters":26800,"station_id":"ce4bhc92rcd13ifvqetg","pricing_plan_id":"free"},{"bike_id":"cadfa7eb-ff56-4a24-81f5-2091786fb4c7","system_id":"levelo_inurba_marseille","lat":43.294162,"lon":5.386292,"is_reserved":false,"is_disabled":false,"rental_uris":{"android":"levelo://app?vid=cadfa7eb-ff56-4a24-81f5-2091786fb4c7","ios":"levelo://app?vid=cadfa7eb-ff56-4a24-81f5-2091786fb4c7"},"vehicle_type_id":"4","last_reported":1703369146,"current_range_meters":25200,"station_id":"ce4bh2h2rcd13ifvqdh0","pricing_plan_id":"free"},{"bike_id":"f3bcd51e-5f00-42bc-8136-cce096e61d90","system_id":"levelo_inurba_marseille","lat":43.292642,"lon":5.384254,"is_reserved":false,"is_disabled":false,"rental_uris":{"android":"levelo://app?vid=f3bcd51e-5f00-42bc-8136-cce096e61d90","ios":"levelo://app?vid=f3bcd51e-5f00-42bc-8136-cce096e61d90"},"vehicle_type_id":"4","last_reported":1703369146,"current_range_meters":15200,"station_id":"ce4bh692rcd13ifvqea0","pricing_plan_id":"free"},{"bike_id":"fc7cc094-3a6f-4db8-9fd1-28a9da4bcaf4","system_id":"levelo_inurba_marseille","lat":43.292644,"lon":5.384257,"is_reserved":false,"is_disabled":false,"rental_uris":{"android":"levelo://app?vid=fc7cc094-3a6f-4db8-9fd1-28a9da4bcaf4","ios":"levelo://app?vid=fc7cc094-3a6f-4db8-9fd1-28a9da4bcaf4"},"vehicle_type_id":"4","last_reported":1703369146,"current_range_meters":23600,"station_id":"ce4bh692rcd13ifvqea0","pricing_plan_id":"free"},{"bike_id":"7ef43ef0-c272-432b-bee7-3c36eb4a01c5","system_id":"levelo_inurba_marseille","lat":43.292642,"lon":5.384254,"is_reserved":false,"is_disabled":false,"rental_uris":{"android":"levelo://app?vid=7ef43ef0-c272-432b-bee7-3c36eb4a01c5","ios":"levelo://app?vid=7ef43ef0-c272-432b-bee7-3c36eb4a01c5"},"vehicle_type_id":"4","last_reported":1703369146,"current_range_meters":31200,"station_id":"ce4bh692rcd13ifvqea0","pricing_plan_id":"free"},{"bike_id":"d1c2180c-444e-44f6-9fd9-2b55363c6c18","system_id":"levelo_inurba_marseille","lat":43.292642,"lon":5.384254,"is_reserved":false,"is_disabled":false,"rental_uris":{"android":"levelo://app?vid=d1c2180c-444e-44f6-9fd9-2b55363c6c18","ios":"levelo://app?vid=d1c2180c-444e-44f6-9fd9-2b55363c6c18"},"vehicle_type_id":"4","last_reported":1703369146,"current_range_meters":31200,"station_id":"ce4bh692rcd13ifvqea0","pricing_plan_id":"free"},{"bike_id":"d5189dd3-68aa-42d4-963e-d4fa416767a6","system_id":"levelo_inurba_marseille","lat":43.292642,"lon":5.384254,"is_reserved":false,"is_disabled":false,"rental_uris":{"android":"levelo://app?vid=d5189dd3-68aa-42d4-963e-d4fa416767a6","ios":"levelo://app?vid=d5189dd3-68aa-42d4-963e-d4fa416767a6"},"vehicle_type_id":"4","last_reported":1703369146,"current_range_meters":20800,"station_id":"ce4bh692rcd13ifvqea0","pricing_plan_id":"free"},{"bike_id":"43ebbe78-fbe8-4b5c-b1b6-43eb4252adec","system_id":"levelo_inurba_marseille","lat":43.292642,"lon":5.384254,"is_reserved":false,"is_disabled":false,"rental_uris":{"android":"levelo://app?vid=43ebbe78-fbe8-4b5c-b1b6-43eb4252adec","ios":"levelo://app?vid=43ebbe78-fbe8-4b5c-b1b6-43eb4252adec"},"vehicle_type_id":"4","last_reported":1703369146,"current_range_meters":26000,"station_id":"ce4bh692rcd13ifvqea0","pricing_plan_id":"free"},{"bike_id":"b4909d76-4bdb-456f-9735-ea3b31784f62","system_id":"levelo_inurba_marseille","lat":43.290104,"lon":5.356111,"is_reserved":false,"is_disabled":false,"rental_uris":{"android":"levelo://app?vid=b4909d76-4bdb-456f-9735-ea3b31784f62","ios":"levelo://app?vid=b4909d76-4bdb-456f-9735-ea3b31784f62"},"vehicle_type_id":"4","last_reported":1703369146,"current_range_meters":26000,"station_id":"ce4bhb92rcd13ifvqen0","pricing_plan_id":"free"},{"bike_id":"b12f7167-f7b9-4e9a-8084-e9013866a812","system_id":"levelo_inurba_marseille","lat":43.290103,"lon":5.356114,"is_reserved":false,"is_disabled":false,"rental_uris":{"android":"levelo://app?vid=b12f7167-f7b9-4e9a-8084-e9013866a812","ios":"levelo://app?vid=b12f7167-f7b9-4e9a-8084-e9013866a812"},"vehicle_type_id":"4","last_reported":1703369146,"current_range_meters":29600,"station_id":"ce4bhb92rcd13ifvqen0","pricing_plan_id":"free"},{"bike_id":"3eb482f1-6f0c-4f23-bfcc-8f446478543b","system_id":"levelo_inurba_marseille","lat":43.290103,"lon":5.356114,"is_reserved":false,"is_disabled":false,"rental_uris":{"android":"levelo://app?vid=3eb482f1-6f0c-4f23-bfcc-8f446478543b","ios":"levelo://app?vid=3eb482f1-6f0c-4f23-bfcc-8f446478543b"},"vehicle_type_id":"4","last_reported":1703369146,"current_range_meters":31200,"station_id":"ce4bhb92rcd13ifvqen0","pricing_plan_id":"free"},{"bike_id":"7c9847e1-e5f0-4c7d-9a68-1220f8b3597d","system_id":"levelo_inurba_marseille","lat":43.290995,"lon":5.381361,"is_reserved":false,"is_disabled":false,"rental_uris":{"android":"levelo://app?vid=7c9847e1-e5f0-4c7d-9a68-1220f8b3597d","ios":"levelo://app?vid=7c9847e1-e5f0-4c7d-9a68-1220f8b3597d"},"vehicle_type_id":"4","last_reported":1703369146,"current_range_meters":29200,"station_id":"ce4bh512rcd13ifvqe2g","pricing_plan_id":"free"},{"bike_id":"ee64b8b9-64e1-4754-926a-e0bcc52fc5dd","system_id":"levelo_inurba_marseille","lat":43.297883,"lon":5.393448,"is_reserved":false,"is_disabled":false,"rental_uris":{"android":"levelo://app?vid=ee64b8b9-64e1-4754-926a-e0bcc52fc5dd","ios":"levelo://app?vid=ee64b8b9-64e1-4754-926a-e0bcc52fc5dd"},"vehicle_type_id":"4","last_reported":1703369146,"current_range_meters":26400,"station_id":"","pricing_plan_id":"free"},{"bike_id":"8ecab373-6160-4fc7-b559-372f6fa1f9dc","system_id":"levelo_inurba_marseille","lat":43.33025,"lon":5.39046,"is_reserved":false,"is_disabled":false,"rental_uris":{"android":"levelo://app?vid=8ecab373-6160-4fc7-b559-372f6fa1f9dc","ios":"levelo://app?vid=8ecab373-6160-4fc7-b559-372f6fa1f9dc"},"vehicle_type_id":"4","last_reported":1703369146,"current_range_meters":24800,"station_id":"","pricing_plan_id":"free"},{"bike_id":"9fecf9b4-2a08-48b4-849a-deb709090cd5","system_id":"levelo_inurba_marseille","lat":43.28856,"lon":5.358371,"is_reserved":false,"is_disabled":false,"rental_uris":{"android":"levelo://app?vid=9fecf9b4-2a08-48b4-849a-deb709090cd5","ios":"levelo://app?vid=9fecf9b4-2a08-48b4-849a-deb709090cd5"},"vehicle_type_id":"4","last_reported":1703369146,"current_range_meters":17200,"station_id":"ce4bhb12rcd13ifvqem0","pricing_plan_id":"free"},{"bike_id":"08eefc75-042b-447e-837a-f48f3462db37","system_id":"levelo_inurba_marseille","lat":43.28856,"lon":5.358371,"is_reserved":false,"is_disabled":false,"rental_uris":{"android":"levelo://app?vid=08eefc75-042b-447e-837a-f48f3462db37","ios":"levelo://app?vid=08eefc75-042b-447e-837a-f48f3462db37"},"vehicle_type_id":"4","last_reported":1703369146,"current_range_meters":10000,"station_id":"ce4bhb12rcd13ifvqem0","pricing_plan_id":"free"},{"bike_id":"7b247b71-c141-4d82-974b-38dcd2be38f3","system_id":"levelo_inurba_marseille","lat":43.28856,"lon":5.358371,"is_reserved":false,"is_disabled":false,"rental_uris":{"android":"levelo://app?vid=7b247b71-c141-4d82-974b-38dcd2be38f3","ios":"levelo://app?vid=7b247b71-c141-4d82-974b-38dcd2be38f3"},"vehicle_type_id":"4","last_reported":1703369146,"current_range_meters":14400,"station_id":"ce4bhb12rcd13ifvqem0","pricing_plan_id":"free"},{"bike_id":"6f839a3f-b23d-4e3d-b15e-bb32b3960987","system_id":"levelo_inurba_marseille","lat":43.312609,"lon":5.401662,"is_reserved":false,"is_disabled":false,"rental_uris":{"android":"levelo://app?vid=6f839a3f-b23d-4e3d-b15e-bb32b3960987","ios":"levelo://app?vid=6f839a3f-b23d-4e3d-b15e-bb32b3960987"},"vehicle_type_id":"4","last_reported":1703369146,"current_range_meters":22400,"station_id":"ce4bh092rcd13ifvqd30","pricing_plan_id":"free"},{"bike_id":"3a62e62a-adc2-477a-9d1c-fe69dd8f75c6","system_id":"levelo_inurba_marseille","lat":43.337448,"lon":5.374575,"is_reserved":false,"is_disabled":false,"rental_uris":{"android":"levelo://app?vid=3a62e62a-adc2-477a-9d1c-fe69dd8f75c6","ios":"levelo://app?vid=3a62e62a-adc2-477a-9d1c-fe69dd8f75c6"},"vehicle_type_id":"4","last_reported":1703369146,"current_range_meters":22400,"station_id":"","pricing_plan_id":"free"},{"bike_id":"8ad5c024-7d8b-4929-8a9a-ba8613ad2c7a","system_id":"levelo_inurba_marseille","lat":43.309371,"lon":5.401449,"is_reserved":false,"is_disabled":false,"rental_uris":{"android":"levelo://app?vid=8ad5c024-7d8b-4929-8a9a-ba8613ad2c7a","ios":"levelo://app?vid=8ad5c024-7d8b-4929-8a9a-ba8613ad2c7a"},"vehicle_type_id":"4","last_reported":1703369146,"current_range_meters":14000,"station_id":"ce4bgvp2rcd13ifvqct0","pricing_plan_id":"free"},{"bike_id":"22c15eec-6520-463c-82ab-56bb55d66d29","system_id":"levelo_inurba_marseille","lat":43.306412,"lon":5.401035,"is_reserved":false,"is_disabled":false,"rental_uris":{"android":"levelo://app?vid=22c15eec-6520-463c-82ab-56bb55d66d29","ios":"levelo://app?vid=22c15eec-6520-463c-82ab-56bb55d66d29"},"vehicle_type_id":"4","last_reported":1703369146,"current_range_meters":18000,"station_id":"ce4bh112rcd13ifvqda0","pricing_plan_id":"free"},{"bike_id":"3024b99b-8d83-4753-b6e5-f0e358c936ac","system_id":"levelo_inurba_marseille","lat":43.33767,"lon":5.374332,"is_reserved":false,"is_disabled":false,"rental_uris":{"android":"levelo://app?vid=3024b99b-8d83-4753-b6e5-f0e358c936ac","ios":"levelo://app?vid=3024b99b-8d83-4753-b6e5-f0e358c936ac"},"vehicle_type_id":"4","last_reported":1703369146,"current_range_meters":22000,"station_id":"","pricing_plan_id":"free"},{"bike_id":"e1c00134-1e6e-4584-84e3-11663ececd7d","system_id":"levelo_inurba_marseille","lat":43.30642,"lon":5.401031,"is_reserved":false,"is_disabled":false,"rental_uris":{"android":"levelo://app?vid=e1c00134-1e6e-4584-84e3-11663ececd7d","ios":"levelo://app?vid=e1c00134-1e6e-4584-84e3-11663ececd7d"},"vehicle_type_id":"4","last_reported":1703369146,"current_range_meters":27600,"station_id":"ce4bh112rcd13ifvqda0","pricing_plan_id":"free"},{"bike_id":"e0148c44-6995-4e6b-811c-07dd561c358a","system_id":"levelo_inurba_marseille","lat":43.306412,"lon":5.401035,"is_reserved":false,"is_disabled":false,"rental_uris":{"android":"levelo://app?vid=e0148c44-6995-4e6b-811c-07dd561c358a","ios":"levelo://app?vid=e0148c44-6995-4e6b-811c-07dd561c358a"},"vehicle_type_id":"4","last_reported":1703369146,"current_range_meters":13600,"station_id":"ce4bh112rcd13ifvqda0","pricing_plan_id":"free"},{"bike_id":"ad66dd96-0396-432c-bb08-5d916d9b382f","system_id":"levelo_inurba_marseille","lat":43.301117,"lon":5.398795,"is_reserved":false,"is_disabled":false,"rental_uris":{"android":"levelo://app?vid=ad66dd96-0396-432c-bb08-5d916d9b382f","ios":"levelo://app?vid=ad66dd96-0396-432c-bb08-5d916d9b382f"},"vehicle_type_id":"4","last_reported":1703369146,"current_range_meters":21600,"station_id":"ce4bh0h2rcd13ifvqd40","pricing_plan_id":"free"},{"bike_id":"e032236f-6b8c-4157-b72d-7849bbf7e00d","system_id":"levelo_inurba_marseille","lat":43.301117,"lon":5.398795,"is_reserved":false,"is_disabled":false,"rental_uris":{"android":"levelo://app?vid=e032236f-6b8c-4157-b72d-7849bbf7e00d","ios":"levelo://app?vid=e032236f-6b8c-4157-b72d-7849bbf7e00d"},"vehicle_type_id":"4","last_reported":1703369146,"current_range_meters":31600,"station_id":"ce4bh0h2rcd13ifvqd40","pricing_plan_id":"free"},{"bike_id":"b0530d91-7762-4149-b1a2-d8305d9ff7c2","system_id":"levelo_inurba_marseille","lat":43.286961,"lon":5.373785,"is_reserved":false,"is_disabled":false,"rental_uris":{"android":"levelo://app?vid=b0530d91-7762-4149-b1a2-d8305d9ff7c2","ios":"levelo://app?vid=b0530d91-7762-4149-b1a2-d8305d9ff7c2"},"vehicle_type_id":"4","last_reported":1703369146,"current_range_meters":26400,"station_id":"ce4bh3p2rcd13ifvqdq0","pricing_plan_id":"free"},{"bike_id":"23ceb003-334e-49c1-8fad-369f194a2a47","system_id":"levelo_inurba_marseille","lat":43.286591,"lon":5.363346,"is_reserved":false,"is_disabled":false,"rental_uris":{"android":"levelo://app?vid=23ceb003-334e-49c1-8fad-369f194a2a47","ios":"levelo://app?vid=23ceb003-334e-49c1-8fad-369f194a2a47"},"vehicle_type_id":"4","last_reported":1703369146,"current_range_meters":28800,"station_id":"ce4bhah2rcd13ifvqej0","pricing_plan_id":"free"},{"bike_id":"759a727f-b449-42e1-966f-e0191b817400","system_id":"levelo_inurba_marseille","lat":43.298681,"lon":5.397225,"is_reserved":false,"is_disabled":false,"rental_uris":{"android":"levelo://app?vid=759a727f-b449-42e1-966f-e0191b817400","ios":"levelo://app?vid=759a727f-b449-42e1-966f-e0191b817400"},"vehicle_type_id":"4","last_reported":1703369146,"current_range_meters":27200,"station_id":"ce4bh0h2rcd13ifvqd50","pricing_plan_id":"free"},{"bike_id":"da830563-3160-45ab-9811-d2aecc5cfa81","system_id":"levelo_inurba_marseille","lat":43.286591,"lon":5.363346,"is_reserved":false,"is_disabled":false,"rental_uris":{"android":"levelo://app?vid=da830563-3160-45ab-9811-d2aecc5cfa81","ios":"levelo://app?vid=da830563-3160-45ab-9811-d2aecc5cfa81"},"vehicle_type_id":"4","last_reported":1703369146,"current_range_meters":24000,"station_id":"ce4bhah2rcd13ifvqej0","pricing_plan_id":"free"},{"bike_id":"34d667fc-9193-49b1-910c-89bc6972fba6","system_id":"levelo_inurba_marseille","lat":43.295194,"lon":5.39397,"is_reserved":false,"is_disabled":false,"rental_uris":{"android":"levelo://app?vid=34d667fc-9193-49b1-910c-89bc6972fba6","ios":"levelo://app?vid=34d667fc-9193-49b1-910c-89bc6972fba6"},"vehicle_type_id":"4","last_reported":1703369146,"current_range_meters":18000,"station_id":"ce4bh292rcd13ifvqdf0","pricing_plan_id":"free"},{"bike_id":"e9e85ba1-b1fc-48fc-a8a1-5c4d0587bc75","system_id":"levelo_inurba_marseille","lat":43.289307,"lon":5.38406,"is_reserved":false,"is_disabled":false,"rental_uris":{"android":"levelo://app?vid=e9e85ba1-b1fc-48fc-a8a1-5c4d0587bc75","ios":"levelo://app?vid=e9e85ba1-b1fc-48fc-a8a1-5c4d0587bc75"},"vehicle_type_id":"4","last_reported":1703369146,"current_range_meters":18400,"station_id":"ce4bh612rcd13ifvqe6g","pricing_plan_id":"free"},{"bike_id":"5cb74575-dab7-471d-8366-5837c7a3abbe","system_id":"levelo_inurba_marseille","lat":43.290345,"lon":5.38646,"is_reserved":false,"is_disabled":false,"rental_uris":{"android":"levelo://app?vid=5cb74575-dab7-471d-8366-5837c7a3abbe","ios":"levelo://app?vid=5cb74575-dab7-471d-8366-5837c7a3abbe"},"vehicle_type_id":"4","last_reported":1703369146,"current_range_meters":17200,"station_id":"ce4bh4p2rcd13ifvqe0g","pricing_plan_id":"free"},{"bike_id":"c5c1dab3-7599-4342-8f0c-f1d3750b1865","system_id":"levelo_inurba_marseille","lat":43.290345,"lon":5.38646,"is_reserved":false,"is_disabled":false,"rental_uris":{"android":"levelo://app?vid=c5c1dab3-7599-4342-8f0c-f1d3750b1865","ios":"levelo://app?vid=c5c1dab3-7599-4342-8f0c-f1d3750b1865"},"vehicle_type_id":"4","last_reported":1703369146,"current_range_meters":17200,"station_id":"ce4bh4p2rcd13ifvqe0g","pricing_plan_id":"free"},{"bike_id":"0acb229d-c3a4-4f2e-9d3c-d78a4174ddf0","system_id":"levelo_inurba_marseille","lat":43.302759,"lon":5.400793,"is_reserved":false,"is_disabled":false,"rental_uris":{"android":"levelo://app?vid=0acb229d-c3a4-4f2e-9d3c-d78a4174ddf0","ios":"levelo://app?vid=0acb229d-c3a4-4f2e-9d3c-d78a4174ddf0"},"vehicle_type_id":"4","last_reported":1703369146,"current_range_meters":26800,"station_id":"ce4bgvh2rcd13ifvqcs0","pricing_plan_id":"free"},{"bike_id":"b269c749-19b3-457a-9f11-021ccc443c55","system_id":"levelo_inurba_marseille","lat":43.286039,"lon":5.370679,"is_reserved":false,"is_disabled":false,"rental_uris":{"android":"levelo://app?vid=b269c749-19b3-457a-9f11-021ccc443c55","ios":"levelo://app?vid=b269c749-19b3-457a-9f11-021ccc443c55"},"vehicle_type_id":"4","last_reported":1703369146,"current_range_meters":14400,"station_id":"ce4bht12rcd13ifvqi60","pricing_plan_id":"free"},{"bike_id":"0f4e8056-ae0c-456d-9ccb-7c63ecd43082","system_id":"levelo_inurba_marseille","lat":43.316828,"lon":5.404723,"is_reserved":false,"is_disabled":false,"rental_uris":{"android":"levelo://app?vid=0f4e8056-ae0c-456d-9ccb-7c63ecd43082","ios":"levelo://app?vid=0f4e8056-ae0c-456d-9ccb-7c63ecd43082"},"vehicle_type_id":"4","last_reported":1703369146,"current_range_meters":27600,"station_id":"ce4bh012rcd13ifvqd00","pricing_plan_id":"free"},{"bike_id":"8af97e27-5ce4-4ab6-be96-bb9d720d5d91","system_id":"levelo_inurba_marseille","lat":43.316828,"lon":5.404723,"is_reserved":false,"is_disabled":false,"rental_uris":{"android":"levelo://app?vid=8af97e27-5ce4-4ab6-be96-bb9d720d5d91","ios":"levelo://app?vid=8af97e27-5ce4-4ab6-be96-bb9d720d5d91"},"vehicle_type_id":"4","last_reported":1703369146,"current_range_meters":8000,"station_id":"ce4bh012rcd13ifvqd00","pricing_plan_id":"free"},{"bike_id":"b9bb2ecd-2118-4fd7-93ea-1e2154c15a83","system_id":"levelo_inurba_marseille","lat":43.316828,"lon":5.404723,"is_reserved":false,"is_disabled":false,"rental_uris":{"android":"levelo://app?vid=b9bb2ecd-2118-4fd7-93ea-1e2154c15a83","ios":"levelo://app?vid=b9bb2ecd-2118-4fd7-93ea-1e2154c15a83"},"vehicle_type_id":"4","last_reported":1703369146,"current_range_meters":21600,"station_id":"ce4bh012rcd13ifvqd00","pricing_plan_id":"free"},{"bike_id":"19ca9e2e-886b-44a1-aadf-6ac8eccbe477","system_id":"levelo_inurba_marseille","lat":43.291994,"lon":5.392907,"is_reserved":false,"is_disabled":false,"rental_uris":{"android":"levelo://app?vid=19ca9e2e-886b-44a1-aadf-6ac8eccbe477","ios":"levelo://app?vid=19ca9e2e-886b-44a1-aadf-6ac8eccbe477"},"vehicle_type_id":"4","last_reported":1703369146,"current_range_meters":14400,"station_id":"ce4bh192rcd13ifvqdd0","pricing_plan_id":"free"},{"bike_id":"4eccfb46-040b-41f6-9b3e-39b01273b4b7","system_id":"levelo_inurba_marseille","lat":43.291994,"lon":5.392907,"is_reserved":false,"is_disabled":false,"rental_uris":{"android":"levelo://app?vid=4eccfb46-040b-41f6-9b3e-39b01273b4b7","ios":"levelo://app?vid=4eccfb46-040b-41f6-9b3e-39b01273b4b7"},"vehicle_type_id":"4","last_reported":1703369146,"current_range_meters":20800,"station_id":"ce4bh192rcd13ifvqdd0","pricing_plan_id":"free"},{"bike_id":"28706e7f-5022-4e80-b9fe-c261ca4d5c33","system_id":"levelo_inurba_marseille","lat":43.291994,"lon":5.392907,"is_reserved":false,"is_disabled":false,"rental_uris":{"android":"levelo://app?vid=28706e7f-5022-4e80-b9fe-c261ca4d5c33","ios":"levelo://app?vid=28706e7f-5022-4e80-b9fe-c261ca4d5c33"},"vehicle_type_id":"4","last_reported":1703369146,"current_range_meters":7200,"station_id":"ce4bh192rcd13ifvqdd0","pricing_plan_id":"free"},{"bike_id":"3a8955ee-4c96-40ed-baad-05d4126f7cce","system_id":"levelo_inurba_marseille","lat":43.291938,"lon":5.393328,"is_reserved":false,"is_disabled":false,"rental_uris":{"android":"levelo://app?vid=3a8955ee-4c96-40ed-baad-05d4126f7cce","ios":"levelo://app?vid=3a8955ee-4c96-40ed-baad-05d4126f7cce"},"vehicle_type_id":"4","last_reported":1703369146,"current_range_meters":7200,"station_id":"ce4bh192rcd13ifvqdd0","pricing_plan_id":"free"},{"bike_id":"e2adfa7c-882e-48a1-9ee4-b36e6186ebbf","system_id":"levelo_inurba_marseille","lat":43.330912,"lon":5.396935,"is_reserved":false,"is_disabled":false,"rental_uris":{"android":"levelo://app?vid=e2adfa7c-882e-48a1-9ee4-b36e6186ebbf","ios":"levelo://app?vid=e2adfa7c-882e-48a1-9ee4-b36e6186ebbf"},"vehicle_type_id":"4","last_reported":1703369146,"current_range_meters":13200,"station_id":"","pricing_plan_id":"free"},{"bike_id":"205b9ead-b63f-473f-8933-afa2c6d30105","system_id":"levelo_inurba_marseille","lat":43.284538,"lon":5.358657,"is_reserved":false,"is_disabled":false,"rental_uris":{"android":"levelo://app?vid=205b9ead-b63f-473f-8933-afa2c6d30105","ios":"levelo://app?vid=205b9ead-b63f-473f-8933-afa2c6d30105"},"vehicle_type_id":"4","last_reported":1703369146,"current_range_meters":13200,"station_id":"ce4bhah2rcd13ifvqei0","pricing_plan_id":"free"},{"bike_id":"6cfa2908-079b-4d10-a431-ee23fc4f5fdd","system_id":"levelo_inurba_marseille","lat":43.284534,"lon":5.358662,"is_reserved":false,"is_disabled":false,"rental_uris":{"android":"levelo://app?vid=6cfa2908-079b-4d10-a431-ee23fc4f5fdd","ios":"levelo://app?vid=6cfa2908-079b-4d10-a431-ee23fc4f5fdd"},"vehicle_type_id":"4","last_reported":1703369146,"current_range_meters":26000,"station_id":"ce4bhah2rcd13ifvqei0","pricing_plan_id":"free"},{"bike_id":"611167de-4031-45f1-88ce-b5159c5abd57","system_id":"levelo_inurba_marseille","lat":43.285848,"lon":5.350787,"is_reserved":false,"is_disabled":false,"rental_uris":{"android":"levelo://app?vid=611167de-4031-45f1-88ce-b5159c5abd57","ios":"levelo://app?vid=611167de-4031-45f1-88ce-b5159c5abd57"},"vehicle_type_id":"4","last_reported":1703369146,"current_range_meters":22800,"station_id":"ce4bhch2rcd13ifvqeug","pricing_plan_id":"free"},{"bike_id":"e3dc6eb1-0411-404d-a943-0eac7443e432","system_id":"levelo_inurba_marseille","lat":43.285848,"lon":5.350787,"is_reserved":false,"is_disabled":false,"rental_uris":{"android":"levelo://app?vid=e3dc6eb1-0411-404d-a943-0eac7443e432","ios":"levelo://app?vid=e3dc6eb1-0411-404d-a943-0eac7443e432"},"vehicle_type_id":"4","last_reported":1703369146,"current_range_meters":20000,"station_id":"ce4bhch2rcd13ifvqeug","pricing_plan_id":"free"},{"bike_id":"750138f0-8c65-4ea2-9d86-4a1ad444168d","system_id":"levelo_inurba_marseille","lat":43.286146,"lon":5.350978,"is_reserved":false,"is_disabled":false,"rental_uris":{"android":"levelo://app?vid=750138f0-8c65-4ea2-9d86-4a1ad444168d","ios":"levelo://app?vid=750138f0-8c65-4ea2-9d86-4a1ad444168d"},"vehicle_type_id":"4","last_reported":1703369146,"current_range_meters":11600,"station_id":"ce4bhch2rcd13ifvqeug","pricing_plan_id":"free"},{"bike_id":"9bd225aa-399e-4f1f-9e76-5f5cc9737453","system_id":"levelo_inurba_marseille","lat":43.283998,"lon":5.375062,"is_reserved":false,"is_disabled":false,"rental_uris":{"android":"levelo://app?vid=9bd225aa-399e-4f1f-9e76-5f5cc9737453","ios":"levelo://app?vid=9bd225aa-399e-4f1f-9e76-5f5cc9737453"},"vehicle_type_id":"4","last_reported":1703369146,"current_range_meters":25200,"station_id":"ce4bh412rcd13ifvqds0","pricing_plan_id":"free"},{"bike_id":"c7ecda14-7695-4932-9516-b90ac466ae97","system_id":"levelo_inurba_marseille","lat":43.283998,"lon":5.375062,"is_reserved":false,"is_disabled":false,"rental_uris":{"android":"levelo://app?vid=c7ecda14-7695-4932-9516-b90ac466ae97","ios":"levelo://app?vid=c7ecda14-7695-4932-9516-b90ac466ae97"},"vehicle_type_id":"4","last_reported":1703369146,"current_range_meters":24400,"station_id":"ce4bh412rcd13ifvqds0","pricing_plan_id":"free"},{"bike_id":"5433c347-8e70-4afb-9e28-3f4fb1cebe54","system_id":"levelo_inurba_marseille","lat":43.283998,"lon":5.375062,"is_reserved":false,"is_disabled":false,"rental_uris":{"android":"levelo://app?vid=5433c347-8e70-4afb-9e28-3f4fb1cebe54","ios":"levelo://app?vid=5433c347-8e70-4afb-9e28-3f4fb1cebe54"},"vehicle_type_id":"4","last_reported":1703369146,"current_range_meters":5600,"station_id":"ce4bh412rcd13ifvqds0","pricing_plan_id":"free"},{"bike_id":"6974a649-8793-44bb-a306-5c50c818c84f","system_id":"levelo_inurba_marseille","lat":43.295713,"lon":5.399639,"is_reserved":false,"is_disabled":false,"rental_uris":{"android":"levelo://app?vid=6974a649-8793-44bb-a306-5c50c818c84f","ios":"levelo://app?vid=6974a649-8793-44bb-a306-5c50c818c84f"},"vehicle_type_id":"4","last_reported":1703369146,"current_range_meters":28400,"station_id":"ce4bh312rcd13ifvqdj0","pricing_plan_id":"free"},{"bike_id":"abe9838b-fdb6-429a-8b5b-39e37f2aa2cf","system_id":"levelo_inurba_marseille","lat":43.295713,"lon":5.399639,"is_reserved":false,"is_disabled":false,"rental_uris":{"android":"levelo://app?vid=abe9838b-fdb6-429a-8b5b-39e37f2aa2cf","ios":"levelo://app?vid=abe9838b-fdb6-429a-8b5b-39e37f2aa2cf"},"vehicle_type_id":"4","last_reported":1703369146,"current_range_meters":3200,"station_id":"ce4bh312rcd13ifvqdj0","pricing_plan_id":"free"},{"bike_id":"82e2ea6e-b103-441e-84c7-3bc063c46410","system_id":"levelo_inurba_marseille","lat":43.295713,"lon":5.399639,"is_reserved":false,"is_disabled":false,"rental_uris":{"android":"levelo://app?vid=82e2ea6e-b103-441e-84c7-3bc063c46410","ios":"levelo://app?vid=82e2ea6e-b103-441e-84c7-3bc063c46410"},"vehicle_type_id":"4","last_reported":1703369146,"current_range_meters":29200,"station_id":"ce4bh312rcd13ifvqdj0","pricing_plan_id":"free"},{"bike_id":"d0d0a246-2997-492e-86f6-9eb04cd4f8f7","system_id":"levelo_inurba_marseille","lat":43.286595,"lon":5.386795,"is_reserved":false,"is_disabled":false,"rental_uris":{"android":"levelo://app?vid=d0d0a246-2997-492e-86f6-9eb04cd4f8f7","ios":"levelo://app?vid=d0d0a246-2997-492e-86f6-9eb04cd4f8f7"},"vehicle_type_id":"4","last_reported":1703369146,"current_range_meters":30800,"station_id":"ce4bh492rcd13ifvqdug","pricing_plan_id":"free"},{"bike_id":"ccc8dd88-662e-4843-90d1-c5e5a013c66c","system_id":"levelo_inurba_marseille","lat":43.28676,"lon":5.38666,"is_reserved":false,"is_disabled":false,"rental_uris":{"android":"levelo://app?vid=ccc8dd88-662e-4843-90d1-c5e5a013c66c","ios":"levelo://app?vid=ccc8dd88-662e-4843-90d1-c5e5a013c66c"},"vehicle_type_id":"4","last_reported":1703369146,"current_range_meters":0,"station_id":"ce4bh492rcd13ifvqdug","pricing_plan_id":"free"},{"bike_id":"9402702d-9235-4df9-82de-2e2e78269dc0","system_id":"levelo_inurba_marseille","lat":43.28678,"lon":5.38673,"is_reserved":false,"is_disabled":false,"rental_uris":{"android":"levelo://app?vid=9402702d-9235-4df9-82de-2e2e78269dc0","ios":"levelo://app?vid=9402702d-9235-4df9-82de-2e2e78269dc0"},"vehicle_type_id":"4","last_reported":1703369146,"current_range_meters":0,"station_id":"ce4bh492rcd13ifvqdug","pricing_plan_id":"free"},{"bike_id":"7244b12c-a4ed-4fcc-a53c-0222ae84e7e2","system_id":"levelo_inurba_marseille","lat":43.337329,"lon":5.391463,"is_reserved":false,"is_disabled":false,"rental_uris":{"android":"levelo://app?vid=7244b12c-a4ed-4fcc-a53c-0222ae84e7e2","ios":"levelo://app?vid=7244b12c-a4ed-4fcc-a53c-0222ae84e7e2"},"vehicle_type_id":"4","last_reported":1703369146,"current_range_meters":30000,"station_id":"ce4bhr92rcd13ifvqhsg","pricing_plan_id":"free"},{"bike_id":"f712f5b6-d352-4506-9e60-1dfe9f1218c6","system_id":"levelo_inurba_marseille","lat":43.33717,"lon":5.391857,"is_reserved":false,"is_disabled":false,"rental_uris":{"android":"levelo://app?vid=f712f5b6-d352-4506-9e60-1dfe9f1218c6","ios":"levelo://app?vid=f712f5b6-d352-4506-9e60-1dfe9f1218c6"},"vehicle_type_id":"4","last_reported":1703369146,"current_range_meters":21600,"station_id":"ce4bhr92rcd13ifvqhsg","pricing_plan_id":"free"},{"bike_id":"ff6ebe2d-10e0-4bee-8d5b-0d34d0573673","system_id":"levelo_inurba_marseille","lat":43.337168,"lon":5.391825,"is_reserved":false,"is_disabled":false,"rental_uris":{"android":"levelo://app?vid=ff6ebe2d-10e0-4bee-8d5b-0d34d0573673","ios":"levelo://app?vid=ff6ebe2d-10e0-4bee-8d5b-0d34d0573673"},"vehicle_type_id":"4","last_reported":1703369146,"current_range_meters":28400,"station_id":"ce4bhr92rcd13ifvqhsg","pricing_plan_id":"free"},{"bike_id":"7ebf0df9-5ec3-4dab-9d78-1e332be85ca8","system_id":"levelo_inurba_marseille","lat":43.33717,"lon":5.391857,"is_reserved":false,"is_disabled":false,"rental_uris":{"android":"levelo://app?vid=7ebf0df9-5ec3-4dab-9d78-1e332be85ca8","ios":"levelo://app?vid=7ebf0df9-5ec3-4dab-9d78-1e332be85ca8"},"vehicle_type_id":"4","last_reported":1703369146,"current_range_meters":31200,"station_id":"ce4bhr92rcd13ifvqhsg","pricing_plan_id":"free"},{"bike_id":"69752758-7c7b-4296-b45f-3ae2c0f3c131","system_id":"levelo_inurba_marseille","lat":43.323464,"lon":5.406297,"is_reserved":false,"is_disabled":false,"rental_uris":{"android":"levelo://app?vid=69752758-7c7b-4296-b45f-3ae2c0f3c131","ios":"levelo://app?vid=69752758-7c7b-4296-b45f-3ae2c0f3c131"},"vehicle_type_id":"4","last_reported":1703369146,"current_range_meters":16400,"station_id":"ce4bhq92rcd13ifvqhjg","pricing_plan_id":"free"},{"bike_id":"029f4306-1775-4c06-a999-472726d5f391","system_id":"levelo_inurba_marseille","lat":43.284787,"lon":5.384116,"is_reserved":false,"is_disabled":false,"rental_uris":{"android":"levelo://app?vid=029f4306-1775-4c06-a999-472726d5f391","ios":"levelo://app?vid=029f4306-1775-4c06-a999-472726d5f391"},"vehicle_type_id":"4","last_reported":1703369146,"current_range_meters":26400,"station_id":"ce4bh512rcd13ifvqe3g","pricing_plan_id":"free"},{"bike_id":"a25e1116-685e-42b7-a43e-85da774701df","system_id":"levelo_inurba_marseille","lat":43.297946,"lon":5.404063,"is_reserved":false,"is_disabled":false,"rental_uris":{"android":"levelo://app?vid=a25e1116-685e-42b7-a43e-85da774701df","ios":"levelo://app?vid=a25e1116-685e-42b7-a43e-85da774701df"},"vehicle_type_id":"4","last_reported":1703369146,"current_range_meters":24400,"station_id":"ce4bh112rcd13ifvqd90","pricing_plan_id":"free"},{"bike_id":"921b424d-ad0d-4c7a-9d74-66e3a49bfa19","system_id":"levelo_inurba_marseille","lat":43.333388,"lon":5.398644,"is_reserved":false,"is_disabled":false,"rental_uris":{"android":"levelo://app?vid=921b424d-ad0d-4c7a-9d74-66e3a49bfa19","ios":"levelo://app?vid=921b424d-ad0d-4c7a-9d74-66e3a49bfa19"},"vehicle_type_id":"4","last_reported":1703369146,"current_range_meters":29600,"station_id":"","pricing_plan_id":"free"},{"bike_id":"cee35786-5bcf-41c4-b629-3549931d1db1","system_id":"levelo_inurba_marseille","lat":43.284214,"lon":5.349706,"is_reserved":false,"is_disabled":false,"rental_uris":{"android":"levelo://app?vid=cee35786-5bcf-41c4-b629-3549931d1db1","ios":"levelo://app?vid=cee35786-5bcf-41c4-b629-3549931d1db1"},"vehicle_type_id":"4","last_reported":1703369146,"current_range_meters":30400,"station_id":"ce4bhbh2rcd13ifvqepg","pricing_plan_id":"free"},{"bike_id":"1829f5b4-96db-4b68-9f39-2d2b6078ec2a","system_id":"levelo_inurba_marseille","lat":43.282713,"lon":5.350753,"is_reserved":false,"is_disabled":false,"rental_uris":{"android":"levelo://app?vid=1829f5b4-96db-4b68-9f39-2d2b6078ec2a","ios":"levelo://app?vid=1829f5b4-96db-4b68-9f39-2d2b6078ec2a"},"vehicle_type_id":"4","last_reported":1703369146,"current_range_meters":26400,"station_id":"ce4bhbp2rcd13ifvqerg","pricing_plan_id":"free"},{"bike_id":"59f0646c-d036-47f2-b0c3-5cf025014417","system_id":"levelo_inurba_marseille","lat":43.282754,"lon":5.350519,"is_reserved":false,"is_disabled":false,"rental_uris":{"android":"levelo://app?vid=59f0646c-d036-47f2-b0c3-5cf025014417","ios":"levelo://app?vid=59f0646c-d036-47f2-b0c3-5cf025014417"},"vehicle_type_id":"4","last_reported":1703369146,"current_range_meters":22400,"station_id":"ce4bhbp2rcd13ifvqerg","pricing_plan_id":"free"},{"bike_id":"5a11dfb2-6779-4abd-a63a-a448a7090a48","system_id":"levelo_inurba_marseille","lat":43.282744,"lon":5.350533,"is_reserved":false,"is_disabled":false,"rental_uris":{"android":"levelo://app?vid=5a11dfb2-6779-4abd-a63a-a448a7090a48","ios":"levelo://app?vid=5a11dfb2-6779-4abd-a63a-a448a7090a48"},"vehicle_type_id":"4","last_reported":1703369146,"current_range_meters":23200,"station_id":"ce4bhbp2rcd13ifvqerg","pricing_plan_id":"free"},{"bike_id":"c32100a2-fba4-4a62-8230-beee7821dc7d","system_id":"levelo_inurba_marseille","lat":43.282744,"lon":5.350533,"is_reserved":false,"is_disabled":false,"rental_uris":{"android":"levelo://app?vid=c32100a2-fba4-4a62-8230-beee7821dc7d","ios":"levelo://app?vid=c32100a2-fba4-4a62-8230-beee7821dc7d"},"vehicle_type_id":"4","last_reported":1703369146,"current_range_meters":26000,"station_id":"ce4bhbp2rcd13ifvqerg","pricing_plan_id":"free"},{"bike_id":"c2682955-5a13-4692-a3eb-7c7532f560f5","system_id":"levelo_inurba_marseille","lat":43.280406,"lon":5.369531,"is_reserved":false,"is_disabled":false,"rental_uris":{"android":"levelo://app?vid=c2682955-5a13-4692-a3eb-7c7532f560f5","ios":"levelo://app?vid=c2682955-5a13-4692-a3eb-7c7532f560f5"},"vehicle_type_id":"4","last_reported":1703369146,"current_range_meters":31200,"station_id":"ce4bha12rcd13ifvqef0","pricing_plan_id":"free"},{"bike_id":"e77a9170-3d7b-4895-8c63-efae8f7fad85","system_id":"levelo_inurba_marseille","lat":43.28038,"lon":5.36945,"is_reserved":false,"is_disabled":false,"rental_uris":{"android":"levelo://app?vid=e77a9170-3d7b-4895-8c63-efae8f7fad85","ios":"levelo://app?vid=e77a9170-3d7b-4895-8c63-efae8f7fad85"},"vehicle_type_id":"4","last_reported":1703369146,"current_range_meters":19200,"station_id":"ce4bha12rcd13ifvqef0","pricing_plan_id":"free"},{"bike_id":"9700bfe6-ad36-451d-bb22-112e6b508e64","system_id":"levelo_inurba_marseille","lat":43.280363,"lon":5.369497,"is_reserved":false,"is_disabled":false,"rental_uris":{"android":"levelo://app?vid=9700bfe6-ad36-451d-bb22-112e6b508e64","ios":"levelo://app?vid=9700bfe6-ad36-451d-bb22-112e6b508e64"},"vehicle_type_id":"4","last_reported":1703369146,"current_range_meters":400,"station_id":"ce4bha12rcd13ifvqef0","pricing_plan_id":"free"},{"bike_id":"adcb2569-9214-4709-9a39-0128050aa337","system_id":"levelo_inurba_marseille","lat":43.28034,"lon":5.36948,"is_reserved":false,"is_disabled":false,"rental_uris":{"android":"levelo://app?vid=adcb2569-9214-4709-9a39-0128050aa337","ios":"levelo://app?vid=adcb2569-9214-4709-9a39-0128050aa337"},"vehicle_type_id":"4","last_reported":1703369146,"current_range_meters":0,"station_id":"ce4bha12rcd13ifvqef0","pricing_plan_id":"free"},{"bike_id":"a86f153a-aebe-42fe-a221-c21e0adf786c","system_id":"levelo_inurba_marseille","lat":43.28029,"lon":5.36951,"is_reserved":false,"is_disabled":false,"rental_uris":{"android":"levelo://app?vid=a86f153a-aebe-42fe-a221-c21e0adf786c","ios":"levelo://app?vid=a86f153a-aebe-42fe-a221-c21e0adf786c"},"vehicle_type_id":"4","last_reported":1703369146,"current_range_meters":3200,"station_id":"ce4bha12rcd13ifvqef0","pricing_plan_id":"free"},{"bike_id":"10d4c8f2-4b31-4c75-b3b2-01a8050a47a0","system_id":"levelo_inurba_marseille","lat":43.281044,"lon":5.378308,"is_reserved":false,"is_disabled":false,"rental_uris":{"android":"levelo://app?vid=10d4c8f2-4b31-4c75-b3b2-01a8050a47a0","ios":"levelo://app?vid=10d4c8f2-4b31-4c75-b3b2-01a8050a47a0"},"vehicle_type_id":"4","last_reported":1703369146,"current_range_meters":11200,"station_id":"ce4bha12rcd13ifvqee0","pricing_plan_id":"free"},{"bike_id":"f48d2f31-5857-46a7-881b-919760c7bd9f","system_id":"levelo_inurba_marseille","lat":43.281044,"lon":5.378308,"is_reserved":false,"is_disabled":false,"rental_uris":{"android":"levelo://app?vid=f48d2f31-5857-46a7-881b-919760c7bd9f","ios":"levelo://app?vid=f48d2f31-5857-46a7-881b-919760c7bd9f"},"vehicle_type_id":"4","last_reported":1703369146,"current_range_meters":31600,"station_id":"ce4bha12rcd13ifvqee0","pricing_plan_id":"free"},{"bike_id":"a31c2b36-df65-446f-8a65-e0e5fe4785df","system_id":"levelo_inurba_marseille","lat":43.284462,"lon":5.392121,"is_reserved":false,"is_disabled":false,"rental_uris":{"android":"levelo://app?vid=a31c2b36-df65-446f-8a65-e0e5fe4785df","ios":"levelo://app?vid=a31c2b36-df65-446f-8a65-e0e5fe4785df"},"vehicle_type_id":"4","last_reported":1703369146,"current_range_meters":22400,"station_id":"ce4bhoh2rcd13ifvqh5g","pricing_plan_id":"free"},{"bike_id":"ae697e63-a695-496f-bc95-7ee91a79f53f","system_id":"levelo_inurba_marseille","lat":43.326605,"lon":5.409903,"is_reserved":false,"is_disabled":false,"rental_uris":{"android":"levelo://app?vid=ae697e63-a695-496f-bc95-7ee91a79f53f","ios":"levelo://app?vid=ae697e63-a695-496f-bc95-7ee91a79f53f"},"vehicle_type_id":"4","last_reported":1703369146,"current_range_meters":30000,"station_id":"ce4bhpp2rcd13ifvqhgg","pricing_plan_id":"free"},{"bike_id":"31b7771c-f823-403e-94b0-7b03cc615768","system_id":"levelo_inurba_marseille","lat":43.304188,"lon":5.412904,"is_reserved":false,"is_disabled":false,"rental_uris":{"android":"levelo://app?vid=31b7771c-f823-403e-94b0-7b03cc615768","ios":"levelo://app?vid=31b7771c-f823-403e-94b0-7b03cc615768"},"vehicle_type_id":"4","last_reported":1703369146,"current_range_meters":30400,"station_id":"ce4bhop2rcd13ifvqh8g","pricing_plan_id":"free"},{"bike_id":"39c171c1-ea92-40f1-a0de-81b8a67baa9a","system_id":"levelo_inurba_marseille","lat":43.29219,"lon":5.40517,"is_reserved":false,"is_disabled":false,"rental_uris":{"android":"levelo://app?vid=39c171c1-ea92-40f1-a0de-81b8a67baa9a","ios":"levelo://app?vid=39c171c1-ea92-40f1-a0de-81b8a67baa9a"},"vehicle_type_id":"4","last_reported":1703369146,"current_range_meters":4400,"station_id":"","pricing_plan_id":"free"},{"bike_id":"261a50f3-bd35-417d-8ef0-e5f68ab6198d","system_id":"levelo_inurba_marseille","lat":43.279087,"lon":5.380114,"is_reserved":false,"is_disabled":false,"rental_uris":{"android":"levelo://app?vid=261a50f3-bd35-417d-8ef0-e5f68ab6198d","ios":"levelo://app?vid=261a50f3-bd35-417d-8ef0-e5f68ab6198d"},"vehicle_type_id":"4","last_reported":1703369146,"current_range_meters":30800,"station_id":"ce4bhf92rcd13ifvqf50","pricing_plan_id":"free"},{"bike_id":"29761b4f-6fae-4d77-ac28-802c05e653b0","system_id":"levelo_inurba_marseille","lat":43.279087,"lon":5.380114,"is_reserved":false,"is_disabled":false,"rental_uris":{"android":"levelo://app?vid=29761b4f-6fae-4d77-ac28-802c05e653b0","ios":"levelo://app?vid=29761b4f-6fae-4d77-ac28-802c05e653b0"},"vehicle_type_id":"4","last_reported":1703369146,"current_range_meters":31200,"station_id":"ce4bhf92rcd13ifvqf50","pricing_plan_id":"free"},{"bike_id":"36ce0b50-a3a0-4142-87c2-3bd8c65892ff","system_id":"levelo_inurba_marseille","lat":43.279087,"lon":5.380114,"is_reserved":false,"is_disabled":false,"rental_uris":{"android":"levelo://app?vid=36ce0b50-a3a0-4142-87c2-3bd8c65892ff","ios":"levelo://app?vid=36ce0b50-a3a0-4142-87c2-3bd8c65892ff"},"vehicle_type_id":"4","last_reported":1703369146,"current_range_meters":30000,"station_id":"ce4bhf92rcd13ifvqf50","pricing_plan_id":"free"},{"bike_id":"30c920a5-6154-4333-8acc-5fdc9f7c007e","system_id":"levelo_inurba_marseille","lat":43.279087,"lon":5.380114,"is_reserved":false,"is_disabled":false,"rental_uris":{"android":"levelo://app?vid=30c920a5-6154-4333-8acc-5fdc9f7c007e","ios":"levelo://app?vid=30c920a5-6154-4333-8acc-5fdc9f7c007e"},"vehicle_type_id":"4","last_reported":1703369146,"current_range_meters":24800,"station_id":"ce4bhf92rcd13ifvqf50","pricing_plan_id":"free"},{"bike_id":"fe86f6c0-7f24-428e-9d6b-0f3c044d6840","system_id":"levelo_inurba_marseille","lat":43.320045,"lon":5.415046,"is_reserved":false,"is_disabled":false,"rental_uris":{"android":"levelo://app?vid=fe86f6c0-7f24-428e-9d6b-0f3c044d6840","ios":"levelo://app?vid=fe86f6c0-7f24-428e-9d6b-0f3c044d6840"},"vehicle_type_id":"4","last_reported":1703369146,"current_range_meters":11600,"station_id":"ce4bhq92rcd13ifvqhkg","pricing_plan_id":"free"},{"bike_id":"f6d6a681-b975-411a-a883-c5657bd1ef8c","system_id":"levelo_inurba_marseille","lat":43.320045,"lon":5.415046,"is_reserved":false,"is_disabled":false,"rental_uris":{"android":"levelo://app?vid=f6d6a681-b975-411a-a883-c5657bd1ef8c","ios":"levelo://app?vid=f6d6a681-b975-411a-a883-c5657bd1ef8c"},"vehicle_type_id":"4","last_reported":1703369146,"current_range_meters":21600,"station_id":"ce4bhq92rcd13ifvqhkg","pricing_plan_id":"free"},{"bike_id":"eb86fe96-92f6-4a9a-9847-3c626ab08acd","system_id":"levelo_inurba_marseille","lat":43.320045,"lon":5.415046,"is_reserved":false,"is_disabled":false,"rental_uris":{"android":"levelo://app?vid=eb86fe96-92f6-4a9a-9847-3c626ab08acd","ios":"levelo://app?vid=eb86fe96-92f6-4a9a-9847-3c626ab08acd"},"vehicle_type_id":"4","last_reported":1703369146,"current_range_meters":18400,"station_id":"ce4bhq92rcd13ifvqhkg","pricing_plan_id":"free"},{"bike_id":"d3f52ccc-aae0-46f9-b01f-2291ef827b76","system_id":"levelo_inurba_marseille","lat":43.279742,"lon":5.38744,"is_reserved":false,"is_disabled":false,"rental_uris":{"android":"levelo://app?vid=d3f52ccc-aae0-46f9-b01f-2291ef827b76","ios":"levelo://app?vid=d3f52ccc-aae0-46f9-b01f-2291ef827b76"},"vehicle_type_id":"4","last_reported":1703369146,"current_range_meters":0,"station_id":"ce4bhg12rcd13ifvqf80","pricing_plan_id":"free"},{"bike_id":"1cb9abf0-1e2f-42b7-b655-e5033932bf4e","system_id":"levelo_inurba_marseille","lat":43.320045,"lon":5.415048,"is_reserved":false,"is_disabled":false,"rental_uris":{"android":"levelo://app?vid=1cb9abf0-1e2f-42b7-b655-e5033932bf4e","ios":"levelo://app?vid=1cb9abf0-1e2f-42b7-b655-e5033932bf4e"},"vehicle_type_id":"4","last_reported":1703369146,"current_range_meters":15200,"station_id":"ce4bhq92rcd13ifvqhkg","pricing_plan_id":"free"},{"bike_id":"aaa61ac0-a3b6-42e0-bdac-5fb02fd5d41d","system_id":"levelo_inurba_marseille","lat":43.279742,"lon":5.38744,"is_reserved":false,"is_disabled":false,"rental_uris":{"android":"levelo://app?vid=aaa61ac0-a3b6-42e0-bdac-5fb02fd5d41d","ios":"levelo://app?vid=aaa61ac0-a3b6-42e0-bdac-5fb02fd5d41d"},"vehicle_type_id":"4","last_reported":1703369146,"current_range_meters":30800,"station_id":"ce4bhg12rcd13ifvqf80","pricing_plan_id":"free"},{"bike_id":"762611b1-bea8-48a6-9898-35af4b656cde","system_id":"levelo_inurba_marseille","lat":43.27618,"lon":5.361009,"is_reserved":false,"is_disabled":false,"rental_uris":{"android":"levelo://app?vid=762611b1-bea8-48a6-9898-35af4b656cde","ios":"levelo://app?vid=762611b1-bea8-48a6-9898-35af4b656cde"},"vehicle_type_id":"4","last_reported":1703369146,"current_range_meters":14800,"station_id":"ce4bgj92rcd13ifvqbe0","pricing_plan_id":"free"},{"bike_id":"251f135d-a8e9-434d-a020-d204b71cbba3","system_id":"levelo_inurba_marseille","lat":43.27618,"lon":5.361009,"is_reserved":false,"is_disabled":false,"rental_uris":{"android":"levelo://app?vid=251f135d-a8e9-434d-a020-d204b71cbba3","ios":"levelo://app?vid=251f135d-a8e9-434d-a020-d204b71cbba3"},"vehicle_type_id":"4","last_reported":1703369146,"current_range_meters":22400,"station_id":"ce4bgj92rcd13ifvqbe0","pricing_plan_id":"free"},{"bike_id":"b857871a-8b1a-485a-88c8-83ec663e2f69","system_id":"levelo_inurba_marseille","lat":43.27618,"lon":5.361009,"is_reserved":false,"is_disabled":false,"rental_uris":{"android":"levelo://app?vid=b857871a-8b1a-485a-88c8-83ec663e2f69","ios":"levelo://app?vid=b857871a-8b1a-485a-88c8-83ec663e2f69"},"vehicle_type_id":"4","last_reported":1703369146,"current_range_meters":25600,"station_id":"ce4bgj92rcd13ifvqbe0","pricing_plan_id":"free"},{"bike_id":"a3324040-0dd4-4a21-b22a-35e58f35bf9f","system_id":"levelo_inurba_marseille","lat":43.27618,"lon":5.361009,"is_reserved":false,"is_disabled":false,"rental_uris":{"android":"levelo://app?vid=a3324040-0dd4-4a21-b22a-35e58f35bf9f","ios":"levelo://app?vid=a3324040-0dd4-4a21-b22a-35e58f35bf9f"},"vehicle_type_id":"4","last_reported":1703369146,"current_range_meters":30800,"station_id":"ce4bgj92rcd13ifvqbe0","pricing_plan_id":"free"},{"bike_id":"6d2eaa7b-6331-4909-a4f7-03b614cd71e0","system_id":"levelo_inurba_marseille","lat":43.280784,"lon":5.396622,"is_reserved":false,"is_disabled":false,"rental_uris":{"android":"levelo://app?vid=6d2eaa7b-6331-4909-a4f7-03b614cd71e0","ios":"levelo://app?vid=6d2eaa7b-6331-4909-a4f7-03b614cd71e0"},"vehicle_type_id":"4","last_reported":1703369146,"current_range_meters":28000,"station_id":"ce4bho12rcd13ifvqh2g","pricing_plan_id":"free"},{"bike_id":"0a3d3cc9-4a60-4a53-9db1-f4593d353921","system_id":"levelo_inurba_marseille","lat":43.278401,"lon":5.392152,"is_reserved":false,"is_disabled":false,"rental_uris":{"android":"levelo://app?vid=0a3d3cc9-4a60-4a53-9db1-f4593d353921","ios":"levelo://app?vid=0a3d3cc9-4a60-4a53-9db1-f4593d353921"},"vehicle_type_id":"4","last_reported":1703369146,"current_range_meters":30000,"station_id":"ce4bhjp2rcd13ifvqga0","pricing_plan_id":"free"},{"bike_id":"df6408b2-4f88-40ad-87f0-1b11d2bff036","system_id":"levelo_inurba_marseille","lat":43.27569,"lon":5.38423,"is_reserved":false,"is_disabled":false,"rental_uris":{"android":"levelo://app?vid=df6408b2-4f88-40ad-87f0-1b11d2bff036","ios":"levelo://app?vid=df6408b2-4f88-40ad-87f0-1b11d2bff036"},"vehicle_type_id":"4","last_reported":1703369146,"current_range_meters":24800,"station_id":"ce4bhh92rcd13ifvqfi0","pricing_plan_id":"free"},{"bike_id":"5b247195-8daa-48ec-b613-e66064b198fc","system_id":"levelo_inurba_marseille","lat":43.275691,"lon":5.384256,"is_reserved":false,"is_disabled":false,"rental_uris":{"android":"levelo://app?vid=5b247195-8daa-48ec-b613-e66064b198fc","ios":"levelo://app?vid=5b247195-8daa-48ec-b613-e66064b198fc"},"vehicle_type_id":"4","last_reported":1703369146,"current_range_meters":12400,"station_id":"ce4bhh92rcd13ifvqfi0","pricing_plan_id":"free"},{"bike_id":"f2dafe1a-2c9a-42eb-8ef7-cbd5a347e570","system_id":"levelo_inurba_marseille","lat":43.275674,"lon":5.384256,"is_reserved":false,"is_disabled":false,"rental_uris":{"android":"levelo://app?vid=f2dafe1a-2c9a-42eb-8ef7-cbd5a347e570","ios":"levelo://app?vid=f2dafe1a-2c9a-42eb-8ef7-cbd5a347e570"},"vehicle_type_id":"4","last_reported":1703369146,"current_range_meters":17600,"station_id":"ce4bhh92rcd13ifvqfi0","pricing_plan_id":"free"},{"bike_id":"f089b377-9bc2-41f2-a944-a8e5fdc5e19d","system_id":"levelo_inurba_marseille","lat":43.275664,"lon":5.38424,"is_reserved":false,"is_disabled":false,"rental_uris":{"android":"levelo://app?vid=f089b377-9bc2-41f2-a944-a8e5fdc5e19d","ios":"levelo://app?vid=f089b377-9bc2-41f2-a944-a8e5fdc5e19d"},"vehicle_type_id":"4","last_reported":1703369146,"current_range_meters":26400,"station_id":"ce4bhh92rcd13ifvqfi0","pricing_plan_id":"free"},{"bike_id":"3f15e03f-5b9e-4f47-8155-53f3d2b03f0b","system_id":"levelo_inurba_marseille","lat":43.273609,"lon":5.362708,"is_reserved":false,"is_disabled":false,"rental_uris":{"android":"levelo://app?vid=3f15e03f-5b9e-4f47-8155-53f3d2b03f0b","ios":"levelo://app?vid=3f15e03f-5b9e-4f47-8155-53f3d2b03f0b"},"vehicle_type_id":"4","last_reported":1703369146,"current_range_meters":15200,"station_id":"ce4bhbh2rcd13ifvqeo0","pricing_plan_id":"free"},{"bike_id":"cdc526b8-bdf0-4d42-a127-84bfdbf1fbd0","system_id":"levelo_inurba_marseille","lat":43.273609,"lon":5.362708,"is_reserved":false,"is_disabled":false,"rental_uris":{"android":"levelo://app?vid=cdc526b8-bdf0-4d42-a127-84bfdbf1fbd0","ios":"levelo://app?vid=cdc526b8-bdf0-4d42-a127-84bfdbf1fbd0"},"vehicle_type_id":"4","last_reported":1703369146,"current_range_meters":31600,"station_id":"ce4bhbh2rcd13ifvqeo0","pricing_plan_id":"free"},{"bike_id":"a2766e09-01fc-46a7-ab1f-c863c87c9533","system_id":"levelo_inurba_marseille","lat":43.27563,"lon":5.38419,"is_reserved":false,"is_disabled":false,"rental_uris":{"android":"levelo://app?vid=a2766e09-01fc-46a7-ab1f-c863c87c9533","ios":"levelo://app?vid=a2766e09-01fc-46a7-ab1f-c863c87c9533"},"vehicle_type_id":"4","last_reported":1703369146,"current_range_meters":30000,"station_id":"ce4bhh92rcd13ifvqfi0","pricing_plan_id":"free"},{"bike_id":"6ebf7d0f-1a60-4dc9-a199-4471afca8e2e","system_id":"levelo_inurba_marseille","lat":43.275625,"lon":5.384392,"is_reserved":false,"is_disabled":false,"rental_uris":{"android":"levelo://app?vid=6ebf7d0f-1a60-4dc9-a199-4471afca8e2e","ios":"levelo://app?vid=6ebf7d0f-1a60-4dc9-a199-4471afca8e2e"},"vehicle_type_id":"4","last_reported":1703369146,"current_range_meters":31600,"station_id":"ce4bhh92rcd13ifvqfi0","pricing_plan_id":"free"},{"bike_id":"55590011-617c-4d5a-8380-bd25a5668335","system_id":"levelo_inurba_marseille","lat":43.275625,"lon":5.384392,"is_reserved":false,"is_disabled":false,"rental_uris":{"android":"levelo://app?vid=55590011-617c-4d5a-8380-bd25a5668335","ios":"levelo://app?vid=55590011-617c-4d5a-8380-bd25a5668335"},"vehicle_type_id":"4","last_reported":1703369146,"current_range_meters":21600,"station_id":"ce4bhh92rcd13ifvqfi0","pricing_plan_id":"free"},{"bike_id":"5fa3851d-eac4-4734-a163-1fc2f925a50c","system_id":"levelo_inurba_marseille","lat":43.336148,"lon":5.410349,"is_reserved":false,"is_disabled":false,"rental_uris":{"android":"levelo://app?vid=5fa3851d-eac4-4734-a163-1fc2f925a50c","ios":"levelo://app?vid=5fa3851d-eac4-4734-a163-1fc2f925a50c"},"vehicle_type_id":"4","last_reported":1703369146,"current_range_meters":29200,"station_id":"ce4bhqh2rcd13ifvqhmg","pricing_plan_id":"free"},{"bike_id":"ca5379a6-0aa0-4273-a1c2-188ff020aa08","system_id":"levelo_inurba_marseille","lat":43.276771,"lon":5.388799,"is_reserved":false,"is_disabled":false,"rental_uris":{"android":"levelo://app?vid=ca5379a6-0aa0-4273-a1c2-188ff020aa08","ios":"levelo://app?vid=ca5379a6-0aa0-4273-a1c2-188ff020aa08"},"vehicle_type_id":"4","last_reported":1703369146,"current_range_meters":20800,"station_id":"ce4bhi12rcd13ifvqfo0","pricing_plan_id":"free"},{"bike_id":"41b9431d-95f2-44be-bde9-379accda6483","system_id":"levelo_inurba_marseille","lat":43.276769,"lon":5.388787,"is_reserved":false,"is_disabled":false,"rental_uris":{"android":"levelo://app?vid=41b9431d-95f2-44be-bde9-379accda6483","ios":"levelo://app?vid=41b9431d-95f2-44be-bde9-379accda6483"},"vehicle_type_id":"4","last_reported":1703369146,"current_range_meters":15600,"station_id":"ce4bhi12rcd13ifvqfo0","pricing_plan_id":"free"},{"bike_id":"a0983636-66cd-4d04-b8ce-bfd341da4973","system_id":"levelo_inurba_marseille","lat":43.317121,"lon":5.423936,"is_reserved":false,"is_disabled":false,"rental_uris":{"android":"levelo://app?vid=a0983636-66cd-4d04-b8ce-bfd341da4973","ios":"levelo://app?vid=a0983636-66cd-4d04-b8ce-bfd341da4973"},"vehicle_type_id":"4","last_reported":1703369146,"current_range_meters":30000,"station_id":"ce4bhp92rcd13ifvqhbg","pricing_plan_id":"free"},{"bike_id":"91c440ae-713f-4c4d-8e41-8a1960710f68","system_id":"levelo_inurba_marseille","lat":43.310785,"lon":5.424305,"is_reserved":false,"is_disabled":false,"rental_uris":{"android":"levelo://app?vid=91c440ae-713f-4c4d-8e41-8a1960710f68","ios":"levelo://app?vid=91c440ae-713f-4c4d-8e41-8a1960710f68"},"vehicle_type_id":"4","last_reported":1703369146,"current_range_meters":27200,"station_id":"ce4bhp92rcd13ifvqhag","pricing_plan_id":"free"},{"bike_id":"4639ee78-74db-4acc-8b58-189d1adfa650","system_id":"levelo_inurba_marseille","lat":43.304088,"lon":5.425388,"is_reserved":false,"is_disabled":false,"rental_uris":{"android":"levelo://app?vid=4639ee78-74db-4acc-8b58-189d1adfa650","ios":"levelo://app?vid=4639ee78-74db-4acc-8b58-189d1adfa650"},"vehicle_type_id":"4","last_reported":1703369146,"current_range_meters":30000,"station_id":"ce4bhoh2rcd13ifvqh6g","pricing_plan_id":"free"},{"bike_id":"5ea0c3d6-4ed0-409a-9c9f-88a4abdc7e85","system_id":"levelo_inurba_marseille","lat":43.273125,"lon":5.390731,"is_reserved":false,"is_disabled":false,"rental_uris":{"android":"levelo://app?vid=5ea0c3d6-4ed0-409a-9c9f-88a4abdc7e85","ios":"levelo://app?vid=5ea0c3d6-4ed0-409a-9c9f-88a4abdc7e85"},"vehicle_type_id":"4","last_reported":1703369146,"current_range_meters":14000,"station_id":"ce4bhgp2rcd13ifvqfe0","pricing_plan_id":"free"},{"bike_id":"9b03e84a-70c6-4719-91b9-dd8da9febb98","system_id":"levelo_inurba_marseille","lat":43.274283,"lon":5.394273,"is_reserved":false,"is_disabled":false,"rental_uris":{"android":"levelo://app?vid=9b03e84a-70c6-4719-91b9-dd8da9febb98","ios":"levelo://app?vid=9b03e84a-70c6-4719-91b9-dd8da9febb98"},"vehicle_type_id":"4","last_reported":1703369146,"current_range_meters":28400,"station_id":"ce4bhdp2rcd13ifvqf20","pricing_plan_id":"free"},{"bike_id":"051543c3-4b46-4941-a114-409823406878","system_id":"levelo_inurba_marseille","lat":43.304096,"lon":5.425385,"is_reserved":false,"is_disabled":false,"rental_uris":{"android":"levelo://app?vid=051543c3-4b46-4941-a114-409823406878","ios":"levelo://app?vid=051543c3-4b46-4941-a114-409823406878"},"vehicle_type_id":"4","last_reported":1703369146,"current_range_meters":16400,"station_id":"ce4bhoh2rcd13ifvqh6g","pricing_plan_id":"free"},