{"last_updated":1742987300,"ttl":60,"version":"2.2","data":{"bikes":[{"bike_id":"3513a6f0-dbc9-4f37-8b52-79603521c288","system_id":"levelo_inurba_marseille","lat":43.230681,"lon":5.354941,"is_reserved":false,"is_disabled":false,"rental_uris":{"android":"levelo://app?vid=3513a6f0-dbc9-4f37-8b52-79603521c288","ios":"levelo://app?vid=3513a6f0-dbc9-4f37-8b52-79603521c288"},"vehicle_type_id":"4","last_reported":1742987300,"current_range_meters":2800,"station_id":"cpo3342slgdg3j2ifvpg","pricing_plan_id":"cebpf4jnsgd1na2vs0mg"},{"bike_id":"29aaf466-faa6-4f94-9cea-844c13b15693","system_id":"levelo_inurba_marseille","lat":43.29035,"lon":5.39969,"is_reserved":false,"is_disabled":false,"rental_uris":{"android":"levelo://app?vid=29aaf466-faa6-4f94-9cea-844c13b15693","ios":"levelo://app?vid=29aaf466-faa6-4f94-9cea-844c13b15693"},"vehicle_type_id":"4","last_reported":1742987300,"current_range_meters":2800,"station_id":"ce4bh392rcd13ifvqdm0","pricing_plan_id":"cebpf4jnsgd1na2vs0mg"},{"bike_id":"4ce95c86-f1cb-4ee2-8600-1994e2d3fc65","system_id":"levelo_inurba_marseille","lat":43.31108,"lon":5.37775,"is_reserved":false,"is_disabled":false,"rental_uris":{"android":"levelo://app?vid=4ce95c86-f1cb-4ee2-8600-1994e2d3fc65","ios":"levelo://app?vid=4ce95c86-f1cb-4ee2-8600-1994e2d3fc65"},"vehicle_type_id":"4","last_reported":1742987300,"current_range_meters":3200,"station_id":"ce4bgt92rcd13ifvqcg0","pricing_plan_id":"cebpf4jnsgd1na2vs0mg"},{"bike_id":"2c0ea770-6ca2-4131-adfe-26f3b269b36c","system_id":"levelo_inurba_marseille","lat":43.28267,"lon":5.3506,"is_reserved":false,"is_disabled":false,"rental_uris":{"android":"levelo://app?vid=2c0ea770-6ca2-4131-adfe-26f3b269b36c","ios":"levelo://app?vid=2c0ea770-6ca2-4131-adfe-26f3b269b36c"},"vehicle_type_id":"4","last_reported":1742987300,"current_range_meters":3200,"station_id":"ce4bhbp2rcd13ifvqerg","pricing_plan_id":"cebpf4jnsgd1na2vs0mg"},{"bike_id":"69bab819-9f0c-486e-a1ee-c261a70261e6","system_id":"levelo_inurba_marseille","lat":43.28453,"lon":5.35887,"is_reserved":false,"is_disabled":false,"rental_uris":{"android":"levelo://app?vid=69bab819-9f0c-486e-a1ee-c261a70261e6","ios":"levelo://app?vid=69bab819-9f0c-486e-a1ee-c261a70261e6"},"vehicle_type_id":"4","last_reported":1742987300,"current_range_meters":3200,"station_id":"ce4bhah2rcd13ifvqei0","pricing_plan_id":"cebpf4jnsgd1na2vs0mg"},{"bike_id":"160ddaf5-bc91-45b1-bde0-e348596138b6","system_id":"levelo_inurba_marseille","lat":43.24808,"lon":5.37461,"is_reserved":false,"is_disabled":false,"rental_uris":{"android":"levelo://app?vid=160ddaf5-bc91-45b1-bde0-e348596138b6","ios":"levelo://app?vid=160ddaf5-bc91-45b1-bde0-e348596138b6"},"vehicle_type_id":"4","last_reported":1742987300,"current_range_meters":3600,"station_id":"ce4bhgh2rcd13ifvqfb0","pricing_plan_id":"cebpf4jnsgd1na2vs0mg"},{"bike_id":"15bacfd4-8ae0-49c0-a050-c711ca4519a5","system_id":"levelo_inurba_marseille","lat":43.28999,"lon":5.35602,"is_reserved":false,"is_disabled":false,"rental_uris":{"android":"levelo://app?vid=15bacfd4-8ae0-49c0-a050-c711ca4519a5","ios":"levelo://app?vid=15bacfd4-8ae0-49c0-a050-c711ca4519a5"},"vehicle_type_id":"4","last_reported":1742987300,"current_range_meters":3600,"station_id":"ce4bhb92rcd13ifvqen0","pricing_plan_id":"cebpf4jnsgd1na2vs0mg"},{"bike_id":"5eb00e60-b5d9-4a65-9bba-344db36c1e04","system_id":"levelo_inurba_marseille","lat":43.25821,"lon":5.39417,"is_reserved":false,"is_disabled":false,"rental_uris":{"android":"levelo://app?vid=5eb00e60-b5d9-4a65-9bba-344db36c1e04","ios":"levelo://app?vid=5eb00e60-b5d9-4a65-9bba-344db36c1e04"},"vehicle_type_id":"4","last_reported":1742987300,"current_range_meters":3600,"station_id":"ce4bhip2rcd13ifvqft0","pricing_plan_id":"cebpf4jnsgd1na2vs0mg"},{"bike_id":"c2826a42-9611-4d76-9da5-0170521c0d18","system_id":"levelo_inurba_marseille","lat":43.24655,"lon":5.38169,"is_reserved":false,"is_disabled":false,"rental_uris":{"android":"levelo://app?vid=c2826a42-9611-4d76-9da5-0170521c0d18","ios":"levelo://app?vid=c2826a42-9611-4d76-9da5-0170521c0d18"},"vehicle_type_id":"4","last_reported":1742987300,"current_range_meters":3600,"station_id":"ce4bhih2rcd13ifvqfr0","pricing_plan_id":"cebpf4jnsgd1na2vs0mg"},{"bike_id":"02c642d0-bab7-4205-b1fb-4419adeb4af1","system_id":"levelo_inurba_marseille","lat":43.29042,"lon":5.356,"is_reserved":false,"is_disabled":true,"rental_uris":{"android":"levelo://app?vid=02c642d0-bab7-4205-b1fb-4419adeb4af1","ios":"levelo://app?vid=02c642d0-bab7-4205-b1fb-4419adeb4af1"},"vehicle_type_id":"4","last_reported":1742987300,"current_range_meters":3600,"station_id":"","pricing_plan_id":"cebpf4jnsgd1na2vs0mg"},{"bike_id":"bc9e59da-24a5-43b2-9344-e686036c5b53","system_id":"levelo_inurba_marseille","lat":43.26056,"lon":5.394,"is_reserved":false,"is_disabled":false,"rental_uris":{"android":"levelo://app?vid=bc9e59da-24a5-43b2-9344-e686036c5b53","ios":"levelo://app?vid=bc9e59da-24a5-43b2-9344-e686036c5b53"},"vehicle_type_id":"4","last_reported":1742987300,"current_range_meters":3600,"station_id":"ce4bhh92rcd13ifvqfj0","pricing_plan_id":"cebpf4jnsgd1na2vs0mg"},{"bike_id":"1daf2de6-703d-45be-ae24-796c4be5fe7c","system_id":"levelo_inurba_marseille","lat":43.30212,"lon":5.39466,"is_reserved":false,"is_disabled":true,"rental_uris":{"android":"levelo://app?vid=1daf2de6-703d-45be-ae24-796c4be5fe7c","ios":"levelo://app?vid=1daf2de6-703d-45be-ae24-796c4be5fe7c"},"vehicle_type_id":"4","last_reported":1742987300,"current_range_meters":4000,"station_id":"ce4bh0p2rcd13ifvqd70","pricing_plan_id":"cebpf4jnsgd1na2vs0mg"},{"bike_id":"5ca1533c-9262-4327-8b7f-8f2a20e53a81","system_id":"levelo_inurba_marseille","lat":43.308907,"lon":5.396595,"is_reserved":false,"is_disabled":false,"rental_uris":{"android":"levelo://app?vid=5ca1533c-9262-4327-8b7f-8f2a20e53a81","ios":"levelo://app?vid=5ca1533c-9262-4327-8b7f-8f2a20e53a81"},"vehicle_type_id":"4","last_reported":1742987300,"current_range_meters":4000,"station_id":"ce4bh012rcd13ifvqcv0","pricing_plan_id":"cebpf4jnsgd1na2vs0mg"},{"bike_id":"71f21b44-3eb7-4439-bde2-3e801932d863","system_id":"levelo_inurba_marseille","lat":43.231952,"lon":5.355513,"is_reserved":false,"is_disabled":false,"rental_uris":{"android":"levelo://app?vid=71f21b44-3eb7-4439-bde2-3e801932d863","ios":"levelo://app?vid=71f21b44-3eb7-4439-bde2-3e801932d863"},"vehicle_type_id":"4","last_reported":1742987300,"current_range_meters":4000,"station_id":"ce4bhu92rcd13ifvqi70","pricing_plan_id":"cebpf4jnsgd1na2vs0mg"},{"bike_id":"38e476a3-7fa7-42ff-bc10-2fcb40220abd","system_id":"levelo_inurba_marseille","lat":43.23189,"lon":5.35551,"is_reserved":false,"is_disabled":false,"rental_uris":{"android":"levelo://app?vid=38e476a3-7fa7-42ff-bc10-2fcb40220abd","ios":"levelo://app?vid=38e476a3-7fa7-42ff-bc10-2fcb40220abd"},"vehicle_type_id":"4","last_reported":1742987300,"current_range_meters":4000,"station_id":"ce4bhu92rcd13ifvqi70","pricing_plan_id":"cebpf4jnsgd1na2vs0mg"},{"bike_id":"82ef6934-f632-4c91-90fe-a2610c0c3c4e","system_id":"levelo_inurba_marseille","lat":43.2835,"lon":5.38102,"is_reserved":false,"is_disabled":false,"rental_uris":{"android":"levelo://app?vid=82ef6934-f632-4c91-90fe-a2610c0c3c4e","ios":"levelo://app?vid=82ef6934-f632-4c91-90fe-a2610c0c3c4e"},"vehicle_type_id":"4","last_reported":1742987300,"current_range_meters":4400,"station_id":"ce4bh412rcd13ifvqdr0","pricing_plan_id":"cebpf4jnsgd1na2vs0mg"},{"bike_id":"985d97b4-003d-44ef-a771-e4eae196a68a","system_id":"levelo_inurba_marseille","lat":43.24164,"lon":5.36394,"is_reserved":false,"is_disabled":false,"rental_uris":{"android":"levelo://app?vid=985d97b4-003d-44ef-a771-e4eae196a68a","ios":"levelo://app?vid=985d97b4-003d-44ef-a771-e4eae196a68a"},"vehicle_type_id":"4","last_reported":1742987300,"current_range_meters":4400,"station_id":"cpo36qri1sfpv3e86is0","pricing_plan_id":"cebpf4jnsgd1na2vs0mg"},{"bike_id":"5a38931b-2d7b-4bf3-8299-4a90c2fd7d7b","system_id":"levelo_inurba_marseille","lat":43.24669,"lon":5.38146,"is_reserved":false,"is_disabled":false,"rental_uris":{"android":"levelo://app?vid=5a38931b-2d7b-4bf3-8299-4a90c2fd7d7b","ios":"levelo://app?vid=5a38931b-2d7b-4bf3-8299-4a90c2fd7d7b"},"vehicle_type_id":"4","last_reported":1742987300,"current_range_meters":4400,"station_id":"ce4bhih2rcd13ifvqfr0","pricing_plan_id":"cebpf4jnsgd1na2vs0mg"},{"bike_id":"2a00e69f-e8f0-4293-a71f-9f6c011d4f23","system_id":"levelo_inurba_marseille","lat":43.24994,"lon":5.38945,"is_reserved":false,"is_disabled":false,"rental_uris":{"android":"levelo://app?vid=2a00e69f-e8f0-4293-a71f-9f6c011d4f23","ios":"levelo://app?vid=2a00e69f-e8f0-4293-a71f-9f6c011d4f23"},"vehicle_type_id":"4","last_reported":1742987300,"current_range_meters":4800,"station_id":"ce4bhgp2rcd13ifvqfd0","pricing_plan_id":"cebpf4jnsgd1na2vs0mg"},{"bike_id":"a0d4632a-7a87-4031-aeeb-061ca0feaca6","system_id":"levelo_inurba_marseille","lat":43.23946,"lon":5.36623,"is_reserved":false,"is_disabled":false,"rental_uris":{"android":"levelo://app?vid=a0d4632a-7a87-4031-aeeb-061ca0feaca6","ios":"levelo://app?vid=a0d4632a-7a87-4031-aeeb-061ca0feaca6"},"vehicle_type_id":"4","last_reported":1742987300,"current_range_meters":4800,"station_id":"ce4bhi12rcd13ifvqfp0","pricing_plan_id":"cebpf4jnsgd1na2vs0mg"},{"bike_id":"66f69882-9bc0-4f69-af42-1e4faa3ed134","system_id":"levelo_inurba_marseille","lat":43.29895,"lon":5.43658,"is_reserved":false,"is_disabled":false,"rental_uris":{"android":"levelo://app?vid=66f69882-9bc0-4f69-af42-1e4faa3ed134","ios":"levelo://app?vid=66f69882-9bc0-4f69-af42-1e4faa3ed134"},"vehicle_type_id":"4","last_reported":1742987300,"current_range_meters":4800,"station_id":"ce4bhpp2rcd13ifvqhfg","pricing_plan_id":"cebpf4jnsgd1na2vs0mg"},{"bike_id":"77892976-de08-4b86-88be-caaa891cdcc1","system_id":"levelo_inurba_marseille","lat":43.26209,"lon":5.37439,"is_reserved":false,"is_disabled":false,"rental_uris":{"android":"levelo://app?vid=77892976-de08-4b86-88be-caaa891cdcc1","ios":"levelo://app?vid=77892976-de08-4b86-88be-caaa891cdcc1"},"vehicle_type_id":"4","last_reported":1742987300,"current_range_meters":4800,"station_id":"ce4bhgp2rcd13ifvqfc0","pricing_plan_id":"cebpf4jnsgd1na2vs0mg"},{"bike_id":"6debb77f-c28e-4f22-8734-001c2ef50ce2","system_id":"levelo_inurba_marseille","lat":43.27578,"lon":5.38425,"is_reserved":false,"is_disabled":false,"rental_uris":{"android":"levelo://app?vid=6debb77f-c28e-4f22-8734-001c2ef50ce2","ios":"levelo://app?vid=6debb77f-c28e-4f22-8734-001c2ef50ce2"},"vehicle_type_id":"4","last_reported":1742987300,"current_range_meters":4800,"station_id":"ce4bhh92rcd13ifvqfi0","pricing_plan_id":"cebpf4jnsgd1na2vs0mg"},{"bike_id":"403e13f3-37ff-493c-b415-9da25b2f21b2","system_id":"levelo_inurba_marseille","lat":43.31123,"lon":5.37752,"is_reserved":false,"is_disabled":false,"rental_uris":{"android":"levelo://app?vid=403e13f3-37ff-493c-b415-9da25b2f21b2","ios":"levelo://app?vid=403e13f3-37ff-493c-b415-9da25b2f21b2"},"vehicle_type_id":"4","last_reported":1742987300,"current_range_meters":5600,"station_id":"ce4bgt92rcd13ifvqcg0","pricing_plan_id":"cebpf4jnsgd1na2vs0mg"},{"bike_id":"6e38dec4-9f97-48ce-aeaf-8ff8c2a020e9","system_id":"levelo_inurba_marseille","lat":43.2593,"lon":5.40888,"is_reserved":false,"is_disabled":false,"rental_uris":{"android":"levelo://app?vid=6e38dec4-9f97-48ce-aeaf-8ff8c2a020e9","ios":"levelo://app?vid=6e38dec4-9f97-48ce-aeaf-8ff8c2a020e9"},"vehicle_type_id":"4","last_reported":1742987300,"current_range_meters":5600,"station_id":"ce4bhm92rcd13ifvqglg","pricing_plan_id":"cebpf4jnsgd1na2vs0mg"},{"bike_id":"fdea2256-7267-42dc-b112-8dc30f7b1078","system_id":"levelo_inurba_marseille","lat":43.26942,"lon":5.40247,"is_reserved":false,"is_disabled":false,"rental_uris":{"android":"levelo://app?vid=fdea2256-7267-42dc-b112-8dc30f7b1078","ios":"levelo://app?vid=fdea2256-7267-42dc-b112-8dc30f7b1078"},"vehicle_type_id":"4","last_reported":1742987300,"current_range_meters":5600,"station_id":"cjm6bp8fraef2m0cb0m0","pricing_plan_id":"cebpf4jnsgd1na2vs0mg"},{"bike_id":"3f3dc18c-6df6-4f10-bdb6-bb2ee80a2e60","system_id":"levelo_inurba_marseille","lat":43.27212,"lon":5.392,"is_reserved":false,"is_disabled":false,"rental_uris":{"android":"levelo://app?vid=3f3dc18c-6df6-4f10-bdb6-bb2ee80a2e60","ios":"levelo://app?vid=3f3dc18c-6df6-4f10-bdb6-bb2ee80a2e60"},"vehicle_type_id":"4","last_reported":1742987300,"current_range_meters":5600,"station_id":"ce4bhhp2rcd13ifvqfm0","pricing_plan_id":"cebpf4jnsgd1na2vs0mg"},{"bike_id":"b10a8c40-550e-4072-a4c6-55da87e1264d","system_id":"levelo_inurba_marseille","lat":43.23147,"lon":5.43713,"is_reserved":false,"is_disabled":false,"rental_uris":{"android":"levelo://app?vid=b10a8c40-550e-4072-a4c6-55da87e1264d","ios":"levelo://app?vid=b10a8c40-550e-4072-a4c6-55da87e1264d"},"vehicle_type_id":"4","last_reported":1742987300,"current_range_meters":5600,"station_id":"","pricing_plan_id":"cebpf4jnsgd1na2vs0mg"},{"bike_id":"2525498b-3464-4aa5-8f0b-9a3572db0219","system_id":"levelo_inurba_marseille","lat":43.30369,"lon":5.42487,"is_reserved":false,"is_disabled":false,"rental_uris":{"android":"levelo://app?vid=2525498b-3464-4aa5-8f0b-9a3572db0219","ios":"levelo://app?vid=2525498b-3464-4aa5-8f0b-9a3572db0219"},"vehicle_type_id":"4","last_reported":1742987300,"current_range_meters":5600,"station_id":"ce4bhoh2rcd13ifvqh6g","pricing_plan_id":"cebpf4jnsgd1na2vs0mg"},{"bike_id":"ce405703-bbfb-41e0-b44a-67b47c482b33","system_id":"levelo_inurba_marseille","lat":43.29322,"lon":5.37158,"is_reserved":false,"is_disabled":false,"rental_uris":{"android":"levelo://app?vid=ce405703-bbfb-41e0-b44a-67b47c482b33","ios":"levelo://app?vid=ce405703-bbfb-41e0-b44a-67b47c482b33"},"vehicle_type_id":"4","last_reported":1742987300,"current_range_meters":5600,"station_id":"ce4bgh92rcd13ifvqb40","pricing_plan_id":"cebpf4jnsgd1na2vs0mg"},{"bike_id":"6014c8c5-d179-414f-ba5e-6122a0b3b802","system_id":"levelo_inurba_marseille","lat":43.23148,"lon":5.43721,"is_reserved":false,"is_disabled":false,"rental_uris":{"android":"levelo://app?vid=6014c8c5-d179-414f-ba5e-6122a0b3b802","ios":"levelo://app?vid=6014c8c5-d179-414f-ba5e-6122a0b3b802"},"vehicle_type_id":"4","last_reported":1742987300,"current_range_meters":5600,"station_id":"ce4bhmp2rcd13ifvqgog","pricing_plan_id":"cebpf4jnsgd1na2vs0mg"},{"bike_id":"84e388a4-270d-4135-b8c0-719bc5ba2530","system_id":"levelo_inurba_marseille","lat":43.27182,"lon":5.40986,"is_reserved":false,"is_disabled":false,"rental_uris":{"android":"levelo://app?vid=84e388a4-270d-4135-b8c0-719bc5ba2530","ios":"levelo://app?vid=84e388a4-270d-4135-b8c0-719bc5ba2530"},"vehicle_type_id":"4","last_reported":1742987300,"current_range_meters":6000,"station_id":"ce4bhl12rcd13ifvqgf0","pricing_plan_id":"cebpf4jnsgd1na2vs0mg"},{"bike_id":"c31d62d8-98e3-4257-bbfa-152eefb747f9","system_id":"levelo_inurba_marseille","lat":43.27815,"lon":5.40715,"is_reserved":false,"is_disabled":false,"rental_uris":{"android":"levelo://app?vid=c31d62d8-98e3-4257-bbfa-152eefb747f9","ios":"levelo://app?vid=c31d62d8-98e3-4257-bbfa-152eefb747f9"},"vehicle_type_id":"4","last_reported":1742987300,"current_range_meters":6000,"station_id":"ce4bhnh2rcd13ifvqgtg","pricing_plan_id":"cebpf4jnsgd1na2vs0mg"},{"bike_id":"d9d5b1f3-96a3-4df5-89c0-5aa6f2f9c3ac","system_id":"levelo_inurba_marseille","lat":43.29848,"lon":5.36277,"is_reserved":false,"is_disabled":false,"rental_uris":{"android":"levelo://app?vid=d9d5b1f3-96a3-4df5-89c0-5aa6f2f9c3ac","ios":"levelo://app?vid=d9d5b1f3-96a3-4df5-89c0-5aa6f2f9c3ac"},"vehicle_type_id":"4","last_reported":1742987300,"current_range_meters":6000,"station_id":"ce4bgpp2rcd13ifvqc3g","pricing_plan_id":"cebpf4jnsgd1na2vs0mg"},{"bike_id":"7d354833-0cc9-49e9-b699-c8053c5b4d7a","system_id":"levelo_inurba_marseille","lat":43.25708,"lon":5.41118,"is_reserved":false,"is_disabled":false,"rental_uris":{"android":"levelo://app?vid=7d354833-0cc9-49e9-b699-c8053c5b4d7a","ios":"levelo://app?vid=7d354833-0cc9-49e9-b699-c8053c5b4d7a"},"vehicle_type_id":"4","last_reported":1742987300,"current_range_meters":6000,"station_id":"ce4bhkp2rcd13ifvqgd0","pricing_plan_id":"cebpf4jnsgd1na2vs0mg"},{"bike_id":"661ad638-f20a-4099-990d-7e316fc20bf4","system_id":"levelo_inurba_marseille","lat":43.26945,"lon":5.40263,"is_reserved":false,"is_disabled":false,"rental_uris":{"android":"levelo://app?vid=661ad638-f20a-4099-990d-7e316fc20bf4","ios":"levelo://app?vid=661ad638-f20a-4099-990d-7e316fc20bf4"},"vehicle_type_id":"4","last_reported":1742987300,"current_range_meters":6000,"station_id":"cjm6bp8fraef2m0cb0m0","pricing_plan_id":"cebpf4jnsgd1na2vs0mg"},{"bike_id":"fcfc4f0d-346b-4f36-8741-232ab83d1eb9","system_id":"levelo_inurba_marseille","lat":43.27559,"lon":5.38426,"is_reserved":false,"is_disabled":false,"rental_uris":{"android":"levelo://app?vid=fcfc4f0d-346b-4f36-8741-232ab83d1eb9","ios":"levelo://app?vid=fcfc4f0d-346b-4f36-8741-232ab83d1eb9"},"vehicle_type_id":"4","last_reported":1742987300,"current_range_meters":6400,"station_id":"ce4bhh92rcd13ifvqfi0","pricing_plan_id":"cebpf4jnsgd1na2vs0mg"},{"bike_id":"2a99ecb7-4bf0-4c00-89bb-11ff019b8a6d","system_id":"levelo_inurba_marseille","lat":43.22936,"lon":5.35425,"is_reserved":false,"is_disabled":false,"rental_uris":{"android":"levelo://app?vid=2a99ecb7-4bf0-4c00-89bb-11ff019b8a6d","ios":"levelo://app?vid=2a99ecb7-4bf0-4c00-89bb-11ff019b8a6d"},"vehicle_type_id":"4","last_reported":1742987300,"current_range_meters":6400,"station_id":"cpo3532slgdg3j2ikp40","pricing_plan_id":"cebpf4jnsgd1na2vs0mg"},{"bike_id":"19fdbebf-f11d-4ae8-a306-3b7c77193b59","system_id":"levelo_inurba_marseille","lat":43.307973,"lon":5.43526,"is_reserved":false,"is_disabled":false,"rental_uris":{"android":"levelo://app?vid=19fdbebf-f11d-4ae8-a306-3b7c77193b59","ios":"levelo://app?vid=19fdbebf-f11d-4ae8-a306-3b7c77193b59"},"vehicle_type_id":"4","last_reported":1742987300,"current_range_meters":6400,"station_id":"ce4bhph2rcd13ifvqheg","pricing_plan_id":"cebpf4jnsgd1na2vs0mg"},{"bike_id":"41c128db-806a-4d3b-b38d-bc690dcceabb","system_id":"levelo_inurba_marseille","lat":43.28976,"lon":5.37837,"is_reserved":false,"is_disabled":true,"rental_uris":{"android":"levelo://app?vid=41c128db-806a-4d3b-b38d-bc690dcceabb","ios":"levelo://app?vid=41c128db-806a-4d3b-b38d-bc690dcceabb"},"vehicle_type_id":"4","last_reported":1742987300,"current_range_meters":6400,"station_id":"ce4bh9p2rcd13ifvqed0","pricing_plan_id":"cebpf4jnsgd1na2vs0mg"},{"bike_id":"d9f7d8be-9425-4103-9342-1eabe2318a05","system_id":"levelo_inurba_marseille","lat":43.26679,"lon":5.38267,"is_reserved":false,"is_disabled":false,"rental_uris":{"android":"levelo://app?vid=d9f7d8be-9425-4103-9342-1eabe2318a05","ios":"levelo://app?vid=d9f7d8be-9425-4103-9342-1eabe2318a05"},"vehicle_type_id":"4","last_reported":1742987300,"current_range_meters":6400,"station_id":"ce4bhg92rcd13ifvqf90","pricing_plan_id":"cebpf4jnsgd1na2vs0mg"},{"bike_id":"c27804bd-f22b-4f5e-b0b6-7240b2cee169","system_id":"levelo_inurba_marseille","lat":43.23157,"lon":5.43715,"is_reserved":false,"is_disabled":false,"rental_uris":{"android":"levelo://app?vid=c27804bd-f22b-4f5e-b0b6-7240b2cee169","ios":"levelo://app?vid=c27804bd-f22b-4f5e-b0b6-7240b2cee169"},"vehicle_type_id":"4","last_reported":1742987300,"current_range_meters":6400,"station_id":"ce4bhmp2rcd13ifvqgog","pricing_plan_id":"cebpf4jnsgd1na2vs0mg"},{"bike_id":"ae64d049-3c54-4b63-a552-b1e07d06f548","system_id":"levelo_inurba_marseille","lat":43.2572,"lon":5.41105,"is_reserved":false,"is_disabled":false,"rental_uris":{"android":"levelo://app?vid=ae64d049-3c54-4b63-a552-b1e07d06f548","ios":"levelo://app?vid=ae64d049-3c54-4b63-a552-b1e07d06f548"},"vehicle_type_id":"4","last_reported":1742987300,"current_range_meters":6400,"station_id":"ce4bho12rcd13ifvqh1g","pricing_plan_id":"cebpf4jnsgd1na2vs0mg"},{"bike_id":"ccd7db91-2a06-4510-bd3a-6e7707ab1a6b","system_id":"levelo_inurba_marseille","lat":43.30954,"lon":5.39025,"is_reserved":false,"is_disabled":true,"rental_uris":{"android":"levelo://app?vid=ccd7db91-2a06-4510-bd3a-6e7707ab1a6b","ios":"levelo://app?vid=ccd7db91-2a06-4510-bd3a-6e7707ab1a6b"},"vehicle_type_id":"4","last_reported":1742987300,"current_range_meters":6800,"station_id":"ce4bgup2rcd13ifvqco0","pricing_plan_id":"cebpf4jnsgd1na2vs0mg"},{"bike_id":"2f3e2a92-1301-4a27-8eaa-7b0ea525530e","system_id":"levelo_inurba_marseille","lat":43.31712,"lon":5.43703,"is_reserved":false,"is_disabled":false,"rental_uris":{"android":"levelo://app?vid=2f3e2a92-1301-4a27-8eaa-7b0ea525530e","ios":"levelo://app?vid=2f3e2a92-1301-4a27-8eaa-7b0ea525530e"},"vehicle_type_id":"4","last_reported":1742987300,"current_range_meters":6800,"station_id":"ce4bhp92rcd13ifvqhcg","pricing_plan_id":"cebpf4jnsgd1na2vs0mg"},{"bike_id":"0c9cada4-2764-4013-a528-15089818cb84","system_id":"levelo_inurba_marseille","lat":43.277526,"lon":5.411653,"is_reserved":false,"is_disabled":false,"rental_uris":{"android":"levelo://app?vid=0c9cada4-2764-4013-a528-15089818cb84","ios":"levelo://app?vid=0c9cada4-2764-4013-a528-15089818cb84"},"vehicle_type_id":"4","last_reported":1742987300,"current_range_meters":6800,"station_id":"","pricing_plan_id":"cebpf4jnsgd1na2vs0mg"},{"bike_id":"22a21f30-f926-4b55-9440-4d8cdfed855e","system_id":"levelo_inurba_marseille","lat":43.2593,"lon":5.40882,"is_reserved":false,"is_disabled":false,"rental_uris":{"android":"levelo://app?vid=22a21f30-f926-4b55-9440-4d8cdfed855e","ios":"levelo://app?vid=22a21f30-f926-4b55-9440-4d8cdfed855e"},"vehicle_type_id":"4","last_reported":1742987300,"current_range_meters":7200,"station_id":"ce4bhm92rcd13ifvqglg","pricing_plan_id":"cebpf4jnsgd1na2vs0mg"},{"bike_id":"40aea8ca-b5e5-4267-a1e3-f70f6de3777b","system_id":"levelo_inurba_marseille","lat":43.25001,"lon":5.38935,"is_reserved":false,"is_disabled":false,"rental_uris":{"android":"levelo://app?vid=40aea8ca-b5e5-4267-a1e3-f70f6de3777b","ios":"levelo://app?vid=40aea8ca-b5e5-4267-a1e3-f70f6de3777b"},"vehicle_type_id":"4","last_reported":1742987300,"current_range_meters":7200,"station_id":"ce4bhgp2rcd13ifvqfd0","pricing_plan_id":"cebpf4jnsgd1na2vs0mg"},{"bike_id":"d0d17579-3cc2-4636-a736-ff0e78e57b2c","system_id":"levelo_inurba_marseille","lat":43.24382,"lon":5.37061,"is_reserved":false,"is_disabled":false,"rental_uris":{"android":"levelo://app?vid=d0d17579-3cc2-4636-a736-ff0e78e57b2c","ios":"levelo://app?vid=d0d17579-3cc2-4636-a736-ff0e78e57b2c"},"vehicle_type_id":"4","last_reported":1742987300,"current_range_meters":7200,"station_id":"ce4bhhh2rcd13ifvqfk0","pricing_plan_id":"cebpf4jnsgd1na2vs0mg"},{"bike_id":"d13c258f-bd8e-4991-abb3-001ceee78de7","system_id":"levelo_inurba_marseille","lat":43.26207,"lon":5.37442,"is_reserved":false,"is_disabled":false,"rental_uris":{"android":"levelo://app?vid=d13c258f-bd8e-4991-abb3-001ceee78de7","ios":"levelo://app?vid=d13c258f-bd8e-4991-abb3-001ceee78de7"},"vehicle_type_id":"4","last_reported":1742987300,"current_range_meters":7200,"station_id":"ce4bhgp2rcd13ifvqfc0","pricing_plan_id":"cebpf4jnsgd1na2vs0mg"},{"bike_id":"aa316640-b4e3-46a6-a983-b02f99f14049","system_id":"levelo_inurba_marseille","lat":43.26213,"lon":5.37438,"is_reserved":false,"is_disabled":false,"rental_uris":{"android":"levelo://app?vid=aa316640-b4e3-46a6-a983-b02f99f14049","ios":"levelo://app?vid=aa316640-b4e3-46a6-a983-b02f99f14049"},"vehicle_type_id":"4","last_reported":1742987300,"current_range_meters":7200,"station_id":"ce4bhgp2rcd13ifvqfc0","pricing_plan_id":"cebpf4jnsgd1na2vs0mg"},{"bike_id":"8c5e09de-c9ee-4ecd-8bf7-a9da954099c1","system_id":"levelo_inurba_marseille","lat":43.27977,"lon":5.40028,"is_reserved":false,"is_disabled":false,"rental_uris":{"android":"levelo://app?vid=8c5e09de-c9ee-4ecd-8bf7-a9da954099c1","ios":"levelo://app?vid=8c5e09de-c9ee-4ecd-8bf7-a9da954099c1"},"vehicle_type_id":"4","last_reported":1742987300,"current_range_meters":7200,"station_id":"ce4bho92rcd13ifvqh4g","pricing_plan_id":"cebpf4jnsgd1na2vs0mg"},{"bike_id":"77823725-c761-49bc-902c-64c32b686ae7","system_id":"levelo_inurba_marseille","lat":43.230561,"lon":5.354899,"is_reserved":false,"is_disabled":false,"rental_uris":{"android":"levelo://app?vid=77823725-c761-49bc-902c-64c32b686ae7","ios":"levelo://app?vid=77823725-c761-49bc-902c-64c32b686ae7"},"vehicle_type_id":"4","last_reported":1742987300,"current_range_meters":7200,"station_id":"cpo3342slgdg3j2ifvpg","pricing_plan_id":"cebpf4jnsgd1na2vs0mg"},{"bike_id":"bb8ab43e-d77e-40ca-92f3-39f857d462c7","system_id":"levelo_inurba_marseille","lat":43.29242,"lon":5.3614,"is_reserved":false,"is_disabled":false,"rental_uris":{"android":"levelo://app?vid=bb8ab43e-d77e-40ca-92f3-39f857d462c7","ios":"levelo://app?vid=bb8ab43e-d77e-40ca-92f3-39f857d462c7"},"vehicle_type_id":"4","last_reported":1742987300,"current_range_meters":7200,"station_id":"","pricing_plan_id":"cebpf4jnsgd1na2vs0mg"},{"bike_id":"5eb0e2f0-8111-4362-8b3d-f072323b11aa","system_id":"levelo_inurba_marseille","lat":43.28606,"lon":5.37059,"is_reserved":false,"is_disabled":false,"rental_uris":{"android":"levelo://app?vid=5eb0e2f0-8111-4362-8b3d-f072323b11aa","ios":"levelo://app?vid=5eb0e2f0-8111-4362-8b3d-f072323b11aa"},"vehicle_type_id":"4","last_reported":1742987300,"current_range_meters":8000,"station_id":"ce4bht12rcd13ifvqi60","pricing_plan_id":"cebpf4jnsgd1na2vs0mg"},{"bike_id":"f294d69a-8637-46e9-95b8-3d82151d6376","system_id":"levelo_inurba_marseille","lat":43.27985,"lon":5.41652,"is_reserved":false,"is_disabled":true,"rental_uris":{"android":"levelo://app?vid=f294d69a-8637-46e9-95b8-3d82151d6376","ios":"levelo://app?vid=f294d69a-8637-46e9-95b8-3d82151d6376"},"vehicle_type_id":"4","last_reported":1742987300,"current_range_meters":8000,"station_id":"ce4bho12rcd13ifvqh1g","pricing_plan_id":"cebpf4jnsgd1na2vs0mg"},{"bike_id":"9044c124-7f8b-4f46-92b4-6bb3bf42d405","system_id":"levelo_inurba_marseille","lat":43.24811,"lon":5.37465,"is_reserved":false,"is_disabled":false,"rental_uris":{"android":"levelo://app?vid=9044c124-7f8b-4f46-92b4-6bb3bf42d405","ios":"levelo://app?vid=9044c124-7f8b-4f46-92b4-6bb3bf42d405"},"vehicle_type_id":"4","last_reported":1742987300,"current_range_meters":8000,"station_id":"ce4bhgh2rcd13ifvqfb0","pricing_plan_id":"cebpf4jnsgd1na2vs0mg"},{"bike_id":"6633349b-54ae-41b8-88d5-61ec5d012302","system_id":"levelo_inurba_marseille","lat":43.32105,"lon":5.36772,"is_reserved":false,"is_disabled":false,"rental_uris":{"android":"levelo://app?vid=6633349b-54ae-41b8-88d5-61ec5d012302","ios":"levelo://app?vid=6633349b-54ae-41b8-88d5-61ec5d012302"},"vehicle_type_id":"4","last_reported":1742987300,"current_range_meters":8000,"station_id":"ce4bhrh2rcd13ifvqhug","pricing_plan_id":"cebpf4jnsgd1na2vs0mg"},{"bike_id":"74406c35-ee35-437d-be26-2d7711378046","system_id":"levelo_inurba_marseille","lat":43.32361,"lon":5.36772,"is_reserved":false,"is_disabled":false,"rental_uris":{"android":"levelo://app?vid=74406c35-ee35-437d-be26-2d7711378046","ios":"levelo://app?vid=74406c35-ee35-437d-be26-2d7711378046"},"vehicle_type_id":"4","last_reported":1742987300,"current_range_meters":8000,"station_id":"ce4bhsh2rcd13ifvqi2g","pricing_plan_id":"cebpf4jnsgd1na2vs0mg"},{"bike_id":"16e3790f-41b6-400e-8d88-6751ca433300","system_id":"levelo_inurba_marseille","lat":43.24998,"lon":5.38926,"is_reserved":false,"is_disabled":false,"rental_uris":{"android":"levelo://app?vid=16e3790f-41b6-400e-8d88-6751ca433300","ios":"levelo://app?vid=16e3790f-41b6-400e-8d88-6751ca433300"},"vehicle_type_id":"4","last_reported":1742987300,"current_range_meters":8000,"station_id":"ce4bhgp2rcd13ifvqfd0","pricing_plan_id":"cebpf4jnsgd1na2vs0mg"},{"bike_id":"c1342d82-cc37-454b-900b-cfaa0750256a","system_id":"levelo_inurba_marseille","lat":43.28476,"lon":5.3591,"is_reserved":false,"is_disabled":true,"rental_uris":{"android":"levelo://app?vid=c1342d82-cc37-454b-900b-cfaa0750256a","ios":"levelo://app?vid=c1342d82-cc37-454b-900b-cfaa0750256a"},"vehicle_type_id":"4","last_reported":1742987300,"current_range_meters":8000,"station_id":"ce4bhah2rcd13ifvqei0","pricing_plan_id":"cebpf4jnsgd1na2vs0mg"},{"bike_id":"156bb616-e629-466e-a512-20b1fb523b12","system_id":"levelo_inurba_marseille","lat":43.28618,"lon":5.35102,"is_reserved":false,"is_disabled":false,"rental_uris":{"android":"levelo://app?vid=156bb616-e629-466e-a512-20b1fb523b12","ios":"levelo://app?vid=156bb616-e629-466e-a512-20b1fb523b12"},"vehicle_type_id":"4","last_reported":1742987300,"current_range_meters":8000,"station_id":"ce4bhch2rcd13ifvqeug","pricing_plan_id":"cebpf4jnsgd1na2vs0mg"},{"bike_id":"8046ef72-cb0a-400d-b1d8-b0250c67a0d7","system_id":"levelo_inurba_marseille","lat":43.24668,"lon":5.38162,"is_reserved":false,"is_disabled":true,"rental_uris":{"android":"levelo://app?vid=8046ef72-cb0a-400d-b1d8-b0250c67a0d7","ios":"levelo://app?vid=8046ef72-cb0a-400d-b1d8-b0250c67a0d7"},"vehicle_type_id":"4","last_reported":1742987300,"current_range_meters":8000,"station_id":"ce4bhih2rcd13ifvqfr0","pricing_plan_id":"cebpf4jnsgd1na2vs0mg"},{"bike_id":"5f4806c9-955f-4cbd-8924-28ceee346b1a","system_id":"levelo_inurba_marseille","lat":43.30879,"lon":5.37199,"is_reserved":false,"is_disabled":false,"rental_uris":{"android":"levelo://app?vid=5f4806c9-955f-4cbd-8924-28ceee346b1a","ios":"levelo://app?vid=5f4806c9-955f-4cbd-8924-28ceee346b1a"},"vehicle_type_id":"4","last_reported":1742987300,"current_range_meters":8000,"station_id":"ce4bguh2rcd13ifvqckg","pricing_plan_id":"cebpf4jnsgd1na2vs0mg"},{"bike_id":"7b7e263c-61d3-4f0f-baf6-061e3a1d65a7","system_id":"levelo_inurba_marseille","lat":43.27206,"lon":5.39179,"is_reserved":false,"is_disabled":false,"rental_uris":{"android":"levelo://app?vid=7b7e263c-61d3-4f0f-baf6-061e3a1d65a7","ios":"levelo://app?vid=7b7e263c-61d3-4f0f-baf6-061e3a1d65a7"},"vehicle_type_id":"4","last_reported":1742987300,"current_range_meters":8400,"station_id":"ce4bhhp2rcd13ifvqfm0","pricing_plan_id":"cebpf4jnsgd1na2vs0mg"},{"bike_id":"5afcd286-bbce-4422-b154-0d51f8b4f957","system_id":"levelo_inurba_marseille","lat":43.28076,"lon":5.39655,"is_reserved":false,"is_disabled":false,"rental_uris":{"android":"levelo://app?vid=5afcd286-bbce-4422-b154-0d51f8b4f957","ios":"levelo://app?vid=5afcd286-bbce-4422-b154-0d51f8b4f957"},"vehicle_type_id":"4","last_reported":1742987300,"current_range_meters":8400,"station_id":"ce4bho12rcd13ifvqh2g","pricing_plan_id":"cebpf4jnsgd1na2vs0mg"},{"bike_id":"2a79e2c1-8c1d-4d16-a18f-639b8dd7ff61","system_id":"levelo_inurba_marseille","lat":43.248025,"lon":5.37451,"is_reserved":false,"is_disabled":false,"rental_uris":{"android":"levelo://app?vid=2a79e2c1-8c1d-4d16-a18f-639b8dd7ff61","ios":"levelo://app?vid=2a79e2c1-8c1d-4d16-a18f-639b8dd7ff61"},"vehicle_type_id":"4","last_reported":1742987300,"current_range_meters":8400,"station_id":"ce4bhgh2rcd13ifvqfb0","pricing_plan_id":"cebpf4jnsgd1na2vs0mg"},{"bike_id":"c5a53012-3ad4-48af-9734-3592df1799d5","system_id":"levelo_inurba_marseille","lat":43.23198,"lon":5.35546,"is_reserved":false,"is_disabled":false,"rental_uris":{"android":"levelo://app?vid=c5a53012-3ad4-48af-9734-3592df1799d5","ios":"levelo://app?vid=c5a53012-3ad4-48af-9734-3592df1799d5"},"vehicle_type_id":"4","last_reported":1742987300,"current_range_meters":8400,"station_id":"ce4bhu92rcd13ifvqi70","pricing_plan_id":"cebpf4jnsgd1na2vs0mg"},{"bike_id":"2da930a3-91f0-4b54-afc3-0359a583aa3c","system_id":"levelo_inurba_marseille","lat":43.24384,"lon":5.37055,"is_reserved":false,"is_disabled":false,"rental_uris":{"android":"levelo://app?vid=2da930a3-91f0-4b54-afc3-0359a583aa3c","ios":"levelo://app?vid=2da930a3-91f0-4b54-afc3-0359a583aa3c"},"vehicle_type_id":"4","last_reported":1742987300,"current_range_meters":8400,"station_id":"ce4bhhh2rcd13ifvqfk0","pricing_plan_id":"cebpf4jnsgd1na2vs0mg"},{"bike_id":"e5fce1cf-8504-472f-9423-3deff9361685","system_id":"levelo_inurba_marseille","lat":43.28406,"lon":5.34988,"is_reserved":false,"is_disabled":false,"rental_uris":{"android":"levelo://app?vid=e5fce1cf-8504-472f-9423-3deff9361685","ios":"levelo://app?vid=e5fce1cf-8504-472f-9423-3deff9361685"},"vehicle_type_id":"4","last_reported":1742987300,"current_range_meters":8800,"station_id":"ce4bhbh2rcd13ifvqepg","pricing_plan_id":"cebpf4jnsgd1na2vs0mg"},{"bike_id":"0d0c410c-dd15-4b51-ab1a-0e02448e9d62","system_id":"levelo_inurba_marseille","lat":43.31114,"lon":5.37756,"is_reserved":false,"is_disabled":false,"rental_uris":{"android":"levelo://app?vid=0d0c410c-dd15-4b51-ab1a-0e02448e9d62","ios":"levelo://app?vid=0d0c410c-dd15-4b51-ab1a-0e02448e9d62"},"vehicle_type_id":"4","last_reported":1742987300,"current_range_meters":8800,"station_id":"ce4bgt92rcd13ifvqcg0","pricing_plan_id":"cebpf4jnsgd1na2vs0mg"},{"bike_id":"aec1d2be-86f6-4e60-beb2-de9c370350a2","system_id":"levelo_inurba_marseille","lat":43.30136,"lon":5.3743,"is_reserved":false,"is_disabled":false,"rental_uris":{"android":"levelo://app?vid=aec1d2be-86f6-4e60-beb2-de9c370350a2","ios":"levelo://app?vid=aec1d2be-86f6-4e60-beb2-de9c370350a2"},"vehicle_type_id":"4","last_reported":1742987300,"current_range_meters":8800,"station_id":"ce4bgs92rcd13ifvqcc0","pricing_plan_id":"cebpf4jnsgd1na2vs0mg"},{"bike_id":"3082883e-716b-4940-977a-23703e6964ed","system_id":"levelo_inurba_marseille","lat":43.31323,"lon":5.39692,"is_reserved":false,"is_disabled":false,"rental_uris":{"android":"levelo://app?vid=3082883e-716b-4940-977a-23703e6964ed","ios":"levelo://app?vid=3082883e-716b-4940-977a-23703e6964ed"},"vehicle_type_id":"4","last_reported":1742987300,"current_range_meters":8800,"station_id":"ce4bgvp2rcd13ifvqcu0","pricing_plan_id":"cebpf4jnsgd1na2vs0mg"},{"bike_id":"494edb5c-8886-472a-b4b2-0033adc0ccbd","system_id":"levelo_inurba_marseille","lat":43.23186,"lon":5.39991,"is_reserved":false,"is_disabled":false,"rental_uris":{"android":"levelo://app?vid=494edb5c-8886-472a-b4b2-0033adc0ccbd","ios":"levelo://app?vid=494edb5c-8886-472a-b4b2-0033adc0ccbd"},"vehicle_type_id":"4","last_reported":1742987300,"current_range_meters":8800,"station_id":"ce4bhn12rcd13ifvqgqg","pricing_plan_id":"cebpf4jnsgd1na2vs0mg"},{"bike_id":"1c058c5f-2dec-42f5-9437-366d59841df3","system_id":"levelo_inurba_marseille","lat":43.309105,"lon":5.368428,"is_reserved":false,"is_disabled":false,"rental_uris":{"android":"levelo://app?vid=1c058c5f-2dec-42f5-9437-366d59841df3","ios":"levelo://app?vid=1c058c5f-2dec-42f5-9437-366d59841df3"},"vehicle_type_id":"4","last_reported":1742987300,"current_range_meters":9200,"station_id":"ce4bgn92rcd13ifvqbvg","pricing_plan_id":"cebpf4jnsgd1na2vs0mg"},{"bike_id":"04a04c60-72e6-4420-ad9b-eee8b1d4d6ad","system_id":"levelo_inurba_marseille","lat":43.28999,"lon":5.3561,"is_reserved":false,"is_disabled":false,"rental_uris":{"android":"levelo://app?vid=04a04c60-72e6-4420-ad9b-eee8b1d4d6ad","ios":"levelo://app?vid=04a04c60-72e6-4420-ad9b-eee8b1d4d6ad"},"vehicle_type_id":"4","last_reported":1742987300,"current_range_meters":9200,"station_id":"ce4bhb92rcd13ifvqen0","pricing_plan_id":"cebpf4jnsgd1na2vs0mg"},{"bike_id":"0f835c6e-cae3-430e-8cb1-fcfe2a010e61","system_id":"levelo_inurba_marseille","lat":43.23181,"lon":5.3999,"is_reserved":false,"is_disabled":false,"rental_uris":{"android":"levelo://app?vid=0f835c6e-cae3-430e-8cb1-fcfe2a010e61","ios":"levelo://app?vid=0f835c6e-cae3-430e-8cb1-fcfe2a010e61"},"vehicle_type_id":"4","last_reported":1742987300,"current_range_meters":9200,"station_id":"ce4bhn12rcd13ifvqgqg","pricing_plan_id":"cebpf4jnsgd1na2vs0mg"},{"bike_id":"ee28380f-2566-499f-8ab8-5a75cb1ed72f","system_id":"levelo_inurba_marseille","lat":43.288329,"lon":5.393258,"is_reserved":false,"is_disabled":true,"rental_uris":{"android":"levelo://app?vid=ee28380f-2566-499f-8ab8-5a75cb1ed72f","ios":"levelo://app?vid=ee28380f-2566-499f-8ab8-5a75cb1ed72f"},"vehicle_type_id":"4","last_reported":1742987300,"current_range_meters":9200,"station_id":"","pricing_plan_id":"cebpf4jnsgd1na2vs0mg"},{"bike_id":"1c151e15-7548-4596-95c6-c13f68f00c8a","system_id":"levelo_inurba_marseille","lat":43.26681,"lon":5.38259,"is_reserved":false,"is_disabled":false,"rental_uris":{"android":"levelo://app?vid=1c151e15-7548-4596-95c6-c13f68f00c8a","ios":"levelo://app?vid=1c151e15-7548-4596-95c6-c13f68f00c8a"},"vehicle_type_id":"4","last_reported":1742987300,"current_range_meters":9200,"station_id":"ce4bhg92rcd13ifvqf90","pricing_plan_id":"cebpf4jnsgd1na2vs0mg"},{"bike_id":"4fb2f98f-f413-4758-8955-bb1720f5cdcf","system_id":"levelo_inurba_marseille","lat":43.27919,"lon":5.39576,"is_reserved":false,"is_disabled":false,"rental_uris":{"android":"levelo://app?vid=4fb2f98f-f413-4758-8955-bb1720f5cdcf","ios":"levelo://app?vid=4fb2f98f-f413-4758-8955-bb1720f5cdcf"},"vehicle_type_id":"4","last_reported":1742987300,"current_range_meters":9200,"station_id":"ce4bhf92rcd13ifvqf40","pricing_plan_id":"cebpf4jnsgd1na2vs0mg"},{"bike_id":"f2b83fd0-776b-4331-928a-a93885bce4ad","system_id":"levelo_inurba_marseille","lat":43.29417,"lon":5.38628,"is_reserved":false,"is_disabled":false,"rental_uris":{"android":"levelo://app?vid=f2b83fd0-776b-4331-928a-a93885bce4ad","ios":"levelo://app?vid=f2b83fd0-776b-4331-928a-a93885bce4ad"},"vehicle_type_id":"4","last_reported":1742987300,"current_range_meters":9600,"station_id":"ce4bh2h2rcd13ifvqdh0","pricing_plan_id":"cebpf4jnsgd1na2vs0mg"},{"bike_id":"7fdecdeb-36cb-4cf4-9c98-d803f5809435","system_id":"levelo_inurba_marseille","lat":43.26101,"lon":5.39791,"is_reserved":false,"is_disabled":false,"rental_uris":{"android":"levelo://app?vid=7fdecdeb-36cb-4cf4-9c98-d803f5809435","ios":"levelo://app?vid=7fdecdeb-36cb-4cf4-9c98-d803f5809435"},"vehicle_type_id":"4","last_reported":1742987300,"current_range_meters":9600,"station_id":"","pricing_plan_id":"cebpf4jnsgd1na2vs0mg"},{"bike_id":"fa14eb3a-1fdb-4bc8-8092-af468e8ded60","system_id":"levelo_inurba_marseille","lat":43.27997,"lon":5.40011,"is_reserved":false,"is_disabled":false,"rental_uris":{"android":"levelo://app?vid=fa14eb3a-1fdb-4bc8-8092-af468e8ded60","ios":"levelo://app?vid=fa14eb3a-1fdb-4bc8-8092-af468e8ded60"},"vehicle_type_id":"4","last_reported":1742987300,"current_range_meters":9600,"station_id":"ce4bho92rcd13ifvqh4g","pricing_plan_id":"cebpf4jnsgd1na2vs0mg"},{"bike_id":"acfd3267-b42b-4347-b324-4479e6981bd3","system_id":"levelo_inurba_marseille","lat":43.28609,"lon":5.35106,"is_reserved":false,"is_disabled":false,"rental_uris":{"android":"levelo://app?vid=acfd3267-b42b-4347-b324-4479e6981bd3","ios":"levelo://app?vid=acfd3267-b42b-4347-b324-4479e6981bd3"},"vehicle_type_id":"4","last_reported":1742987300,"current_range_meters":9600,"station_id":"ce4bhch2rcd13ifvqeug","pricing_plan_id":"cebpf4jnsgd1na2vs0mg"},{"bike_id":"efbcaaa6-b11f-400a-9240-cc4b1a3b098a","system_id":"levelo_inurba_marseille","lat":43.3061,"lon":5.39374,"is_reserved":false,"is_disabled":true,"rental_uris":{"android":"levelo://app?vid=efbcaaa6-b11f-400a-9240-cc4b1a3b098a","ios":"levelo://app?vid=efbcaaa6-b11f-400a-9240-cc4b1a3b098a"},"vehicle_type_id":"4","last_reported":1742987300,"current_range_meters":9600,"station_id":"ce4bh0p2rcd13ifvqd80","pricing_plan_id":"cebpf4jnsgd1na2vs0mg"},{"bike_id":"8a9602e7-e6f2-4dac-845f-cea224e49dd5","system_id":"levelo_inurba_marseille","lat":43.230641,"lon":5.3549,"is_reserved":false,"is_disabled":false,"rental_uris":{"android":"levelo://app?vid=8a9602e7-e6f2-4dac-845f-cea224e49dd5","ios":"levelo://app?vid=8a9602e7-e6f2-4dac-845f-cea224e49dd5"},"vehicle_type_id":"4","last_reported":1742987300,"current_range_meters":10000,"station_id":"cpo3342slgdg3j2ifvpg","pricing_plan_id":"cebpf4jnsgd1na2vs0mg"},{"bike_id":"01cbffb0-3fb0-4769-96f8-4c2dd20b8277","system_id":"levelo_inurba_marseille","lat":43.28487,"lon":5.40541,"is_reserved":false,"is_disabled":true,"rental_uris":{"android":"levelo://app?vid=01cbffb0-3fb0-4769-96f8-4c2dd20b8277","ios":"levelo://app?vid=01cbffb0-3fb0-4769-96f8-4c2dd20b8277"},"vehicle_type_id":"4","last_reported":1742987300,"current_range_meters":10000,"station_id":"","pricing_plan_id":"cebpf4jnsgd1na2vs0mg"},{"bike_id":"34ff9dfa-f521-4b06-a88c-c4e4d9d74f39","system_id":"levelo_inurba_marseille","lat":43.278142,"lon":5.407151,"is_reserved":false,"is_disabled":true,"rental_uris":{"android":"levelo://app?vid=34ff9dfa-f521-4b06-a88c-c4e4d9d74f39","ios":"levelo://app?vid=34ff9dfa-f521-4b06-a88c-c4e4d9d74f39"},"vehicle_type_id":"4","last_reported":1742987300,"current_range_meters":10000,"station_id":"ce4bhnh2rcd13ifvqgtg","pricing_plan_id":"cebpf4jnsgd1na2vs0mg"},{"bike_id":"b4a70f96-34af-442d-9999-a7fb47c8398e","system_id":"levelo_inurba_marseille","lat":43.25582,"lon":5.38223,"is_reserved":false,"is_disabled":false,"rental_uris":{"android":"levelo://app?vid=b4a70f96-34af-442d-9999-a7fb47c8398e","ios":"levelo://app?vid=b4a70f96-34af-442d-9999-a7fb47c8398e"},"vehicle_type_id":"4","last_reported":1742987300,"current_range_meters":10000,"station_id":"ce4bhih2rcd13ifvqfs0","pricing_plan_id":"cebpf4jnsgd1na2vs0mg"},{"bike_id":"974f5876-effd-44d0-911c-76ea7a107a8c","system_id":"levelo_inurba_marseille","lat":43.33351,"lon":5.35975,"is_reserved":false,"is_disabled":false,"rental_uris":{"android":"levelo://app?vid=974f5876-effd-44d0-911c-76ea7a107a8c","ios":"levelo://app?vid=974f5876-effd-44d0-911c-76ea7a107a8c"},"vehicle_type_id":"4","last_reported":1742987300,"current_range_meters":10000,"station_id":"","pricing_plan_id":"cebpf4jnsgd1na2vs0mg"},{"bike_id":"8de7059d-00de-4eed-a842-00ac61b0e1a8","system_id":"levelo_inurba_marseille","lat":43.29594,"lon":5.38088,"is_reserved":false,"is_disabled":true,"rental_uris":{"android":"levelo://app?vid=8de7059d-00de-4eed-a842-00ac61b0e1a8","ios":"levelo://app?vid=8de7059d-00de-4eed-a842-00ac61b0e1a8"},"vehicle_type_id":"4","last_reported":1742987300,"current_range_meters":10800,"station_id":"ce4bgl12rcd13ifvqbo0","pricing_plan_id":"cebpf4jnsgd1na2vs0mg"},{"bike_id":"e969a44b-dcb1-4108-a5c5-4497b1c4f4ee","system_id":"levelo_inurba_marseille","lat":43.26936,"lon":5.40255,"is_reserved":false,"is_disabled":false,"rental_uris":{"android":"levelo://app?vid=e969a44b-dcb1-4108-a5c5-4497b1c4f4ee","ios":"levelo://app?vid=e969a44b-dcb1-4108-a5c5-4497b1c4f4ee"},"vehicle_type_id":"4","last_reported":1742987300,"current_range_meters":10800,"station_id":"cjm6bp8fraef2m0cb0m0","pricing_plan_id":"cebpf4jnsgd1na2vs0mg"},{"bike_id":"8e1b69fe-38a9-404e-9145-427fd10d244c","system_id":"levelo_inurba_marseille","lat":43.28432,"lon":5.34998,"is_reserved":false,"is_disabled":false,"rental_uris":{"android":"levelo://app?vid=8e1b69fe-38a9-404e-9145-427fd10d244c","ios":"levelo://app?vid=8e1b69fe-38a9-404e-9145-427fd10d244c"},"vehicle_type_id":"4","last_reported":1742987300,"current_range_meters":10800,"station_id":"ce4bhbh2rcd13ifvqepg","pricing_plan_id":"cebpf4jnsgd1na2vs0mg"},{"bike_id":"84a7a785-5392-42bc-8088-fb903bcc7f5c","system_id":"levelo_inurba_marseille","lat":43.230763,"lon":5.354926,"is_reserved":false,"is_disabled":false,"rental_uris":{"android":"levelo://app?vid=84a7a785-5392-42bc-8088-fb903bcc7f5c","ios":"levelo://app?vid=84a7a785-5392-42bc-8088-fb903bcc7f5c"},"vehicle_type_id":"4","last_reported":1742987300,"current_range_meters":10800,"station_id":"cpo3342slgdg3j2ifvpg","pricing_plan_id":"cebpf4jnsgd1na2vs0mg"},{"bike_id":"a446a54f-4fbf-40df-b247-11c1431d2281","system_id":"levelo_inurba_marseille","lat":43.31226,"lon":5.36868,"is_reserved":false,"is_disabled":false,"rental_uris":{"android":"levelo://app?vid=a446a54f-4fbf-40df-b247-11c1431d2281","ios":"levelo://app?vid=a446a54f-4fbf-40df-b247-11c1431d2281"},"vehicle_type_id":"4","last_reported":1742987300,"current_range_meters":10800,"station_id":"ce4bgl92rcd13ifvqbq0","pricing_plan_id":"cebpf4jnsgd1na2vs0mg"},{"bike_id":"f6788da0-87a8-4558-ba51-aba48bf0e8c0","system_id":"levelo_inurba_marseille","lat":43.3054,"lon":5.36701,"is_reserved":false,"is_disabled":false,"rental_uris":{"android":"levelo://app?vid=f6788da0-87a8-4558-ba51-aba48bf0e8c0","ios":"levelo://app?vid=f6788da0-87a8-4558-ba51-aba48bf0e8c0"},"vehicle_type_id":"4","last_reported":1742987300,"current_range_meters":10800,"station_id":"ce4bgrp2rcd13ifvqc9g","pricing_plan_id":"cebpf4jnsgd1na2vs0mg"},{"bike_id":"9c7b67ef-a80b-4d76-beff-aa96c2a3469a","system_id":"levelo_inurba_marseille","lat":43.27996,"lon":5.39992,"is_reserved":false,"is_disabled":false,"rental_uris":{"android":"levelo://app?vid=9c7b67ef-a80b-4d76-beff-aa96c2a3469a","ios":"levelo://app?vid=9c7b67ef-a80b-4d76-beff-aa96c2a3469a"},"vehicle_type_id":"4","last_reported":1742987300,"current_range_meters":10800,"station_id":"ce4bho92rcd13ifvqh4g","pricing_plan_id":"cebpf4jnsgd1na2vs0mg"},{"bike_id":"dda938c5-e868-46a8-8d0a-d2088581ff54","system_id":"levelo_inurba_marseille","lat":43.24379,"lon":5.37031,"is_reserved":false,"is_disabled":false,"rental_uris":{"android":"levelo://app?vid=dda938c5-e868-46a8-8d0a-d2088581ff54","ios":"levelo://app?vid=dda938c5-e868-46a8-8d0a-d2088581ff54"},"vehicle_type_id":"4","last_reported":1742987300,"current_range_meters":10800,"station_id":"ce4bhhh2rcd13ifvqfk0","pricing_plan_id":"cebpf4jnsgd1na2vs0mg"},{"bike_id":"240e2301-6fa5-4bfa-a86f-afcfa555dd21","system_id":"levelo_inurba_marseille","lat":43.30189,"lon":5.366155,"is_reserved":false,"is_disabled":false,"rental_uris":{"android":"levelo://app?vid=240e2301-6fa5-4bfa-a86f-afcfa555dd21","ios":"levelo://app?vid=240e2301-6fa5-4bfa-a86f-afcfa555dd21"},"vehicle_type_id":"4","last_reported":1742987300,"current_range_meters":10800,"station_id":"ce4bgrh2rcd13ifvqc8g","pricing_plan_id":"cebpf4jnsgd1na2vs0mg"},{"bike_id":"ba6a46e1-2737-444a-9c29-0a44b16eab2c","system_id":"levelo_inurba_marseille","lat":43.30546,"lon":5.36551,"is_reserved":false,"is_disabled":false,"rental_uris":{"android":"levelo://app?vid=ba6a46e1-2737-444a-9c29-0a44b16eab2c","ios":"levelo://app?vid=ba6a46e1-2737-444a-9c29-0a44b16eab2c"},"vehicle_type_id":"4","last_reported":1742987300,"current_range_meters":10800,"station_id":"ce4bgs12rcd13ifvqcag","pricing_plan_id":"cebpf4jnsgd1na2vs0mg"},{"bike_id":"1f349a48-5d3f-4158-95e1-3d91d393d783","system_id":"levelo_inurba_marseille","lat":43.23181,"lon":5.39987,"is_reserved":false,"is_disabled":false,"rental_uris":{"android":"levelo://app?vid=1f349a48-5d3f-4158-95e1-3d91d393d783","ios":"levelo://app?vid=1f349a48-5d3f-4158-95e1-3d91d393d783"},"vehicle_type_id":"4","last_reported":1742987300,"current_range_meters":10800,"station_id":"ce4bhn12rcd13ifvqgqg","pricing_plan_id":"cebpf4jnsgd1na2vs0mg"},{"bike_id":"b418d168-f2ad-4db0-9a6f-e88743ba94c8","system_id":"levelo_inurba_marseille","lat":43.2926,"lon":5.37622,"is_reserved":false,"is_disabled":true,"rental_uris":{"android":"levelo://app?vid=b418d168-f2ad-4db0-9a6f-e88743ba94c8","ios":"levelo://app?vid=b418d168-f2ad-4db0-9a6f-e88743ba94c8"},"vehicle_type_id":"4","last_reported":1742987300,"current_range_meters":11200,"station_id":"ce4bgi12rcd13ifvqb80","pricing_plan_id":"cebpf4jnsgd1na2vs0mg"},{"bike_id":"d1f0bfd4-c951-4e4e-b8ea-91fef0511b94","system_id":"levelo_inurba_marseille","lat":43.3236,"lon":5.36754,"is_reserved":false,"is_disabled":false,"rental_uris":{"android":"levelo://app?vid=d1f0bfd4-c951-4e4e-b8ea-91fef0511b94","ios":"levelo://app?vid=d1f0bfd4-c951-4e4e-b8ea-91fef0511b94"},"vehicle_type_id":"4","last_reported":1742987300,"current_range_meters":11200,"station_id":"ce4bhsh2rcd13ifvqi2g","pricing_plan_id":"cebpf4jnsgd1na2vs0mg"},{"bike_id":"d45a2f6c-957b-46cd-bd89-ee8e58d1536e","system_id":"levelo_inurba_marseille","lat":43.27719,"lon":5.40776,"is_reserved":false,"is_disabled":false,"rental_uris":{"android":"levelo://app?vid=d45a2f6c-957b-46cd-bd89-ee8e58d1536e","ios":"levelo://app?vid=d45a2f6c-957b-46cd-bd89-ee8e58d1536e"},"vehicle_type_id":"4","last_reported":1742987300,"current_range_meters":11200,"station_id":"","pricing_plan_id":"cebpf4jnsgd1na2vs0mg"},{"bike_id":"e3afe5d8-8846-4a46-b89a-acb7b0094b2c","system_id":"levelo_inurba_marseille","lat":43.25925,"lon":5.40906,"is_reserved":false,"is_disabled":false,"rental_uris":{"android":"levelo://app?vid=e3afe5d8-8846-4a46-b89a-acb7b0094b2c","ios":"levelo://app?vid=e3afe5d8-8846-4a46-b89a-acb7b0094b2c"},"vehicle_type_id":"4","last_reported":1742987300,"current_range_meters":11200,"station_id":"ce4bhm92rcd13ifvqglg","pricing_plan_id":"cebpf4jnsgd1na2vs0mg"},{"bike_id":"82219511-549c-4b63-baf5-ff8405cca9d7","system_id":"levelo_inurba_marseille","lat":43.31708,"lon":5.43692,"is_reserved":false,"is_disabled":false,"rental_uris":{"android":"levelo://app?vid=82219511-549c-4b63-baf5-ff8405cca9d7","ios":"levelo://app?vid=82219511-549c-4b63-baf5-ff8405cca9d7"},"vehicle_type_id":"4","last_reported":1742987300,"current_range_meters":11200,"station_id":"ce4bhp92rcd13ifvqhcg","pricing_plan_id":"cebpf4jnsgd1na2vs0mg"},{"bike_id":"dd3c2c21-8058-4ad2-bb2d-1b89c01c402f","system_id":"levelo_inurba_marseille","lat":43.30538,"lon":5.36535,"is_reserved":false,"is_disabled":false,"rental_uris":{"android":"levelo://app?vid=dd3c2c21-8058-4ad2-bb2d-1b89c01c402f","ios":"levelo://app?vid=dd3c2c21-8058-4ad2-bb2d-1b89c01c402f"},"vehicle_type_id":"4","last_reported":1742987300,"current_range_meters":11200,"station_id":"ce4bgs12rcd13ifvqcag","pricing_plan_id":"cebpf4jnsgd1na2vs0mg"},{"bike_id":"2349ea78-e5ff-44c1-8a9d-5755df83b4b0","system_id":"levelo_inurba_marseille","lat":43.28122,"lon":5.42718,"is_reserved":false,"is_disabled":false,"rental_uris":{"android":"levelo://app?vid=2349ea78-e5ff-44c1-8a9d-5755df83b4b0","ios":"levelo://app?vid=2349ea78-e5ff-44c1-8a9d-5755df83b4b0"},"vehicle_type_id":"4","last_reported":1742987300,"current_range_meters":11200,"station_id":"","pricing_plan_id":"cebpf4jnsgd1na2vs0mg"},{"bike_id":"41a3dd54-69c8-4a8c-8cb4-82f3648e8acc","system_id":"levelo_inurba_marseille","lat":43.2737,"lon":5.36251,"is_reserved":false,"is_disabled":false,"rental_uris":{"android":"levelo://app?vid=41a3dd54-69c8-4a8c-8cb4-82f3648e8acc","ios":"levelo://app?vid=41a3dd54-69c8-4a8c-8cb4-82f3648e8acc"},"vehicle_type_id":"4","last_reported":1742987300,"current_range_meters":11200,"station_id":"ce4bhbh2rcd13ifvqeo0","pricing_plan_id":"cebpf4jnsgd1na2vs0mg"},{"bike_id":"589f1146-20bc-4a88-9ab7-60ee275b3000","system_id":"levelo_inurba_marseille","lat":43.29683,"lon":5.38007,"is_reserved":false,"is_disabled":false,"rental_uris":{"android":"levelo://app?vid=589f1146-20bc-4a88-9ab7-60ee275b3000","ios":"levelo://app?vid=589f1146-20bc-4a88-9ab7-60ee275b3000"},"vehicle_type_id":"4","last_reported":1742987300,"current_range_meters":11600,"station_id":"","pricing_plan_id":"cebpf4jnsgd1na2vs0mg"},{"bike_id":"7e4b498a-163b-450a-94ab-936e7be9c83c","system_id":"levelo_inurba_marseille","lat":43.32361,"lon":5.36751,"is_reserved":false,"is_disabled":false,"rental_uris":{"android":"levelo://app?vid=7e4b498a-163b-450a-94ab-936e7be9c83c","ios":"levelo://app?vid=7e4b498a-163b-450a-94ab-936e7be9c83c"},"vehicle_type_id":"4","last_reported":1742987300,"current_range_meters":12000,"station_id":"ce4bhsh2rcd13ifvqi2g","pricing_plan_id":"cebpf4jnsgd1na2vs0mg"},{"bike_id":"5c1f3ef0-e1c8-48b3-b3d1-00509b648686","system_id":"levelo_inurba_marseille","lat":43.24551,"lon":5.39531,"is_reserved":false,"is_disabled":false,"rental_uris":{"android":"levelo://app?vid=5c1f3ef0-e1c8-48b3-b3d1-00509b648686","ios":"levelo://app?vid=5c1f3ef0-e1c8-48b3-b3d1-00509b648686"},"vehicle_type_id":"4","last_reported":1742987300,"current_range_meters":12000,"station_id":"ce4bhlp2rcd13ifvqgjg","pricing_plan_id":"cebpf4jnsgd1na2vs0mg"},{"bike_id":"6aedbb19-d0ae-4861-b637-8764b6d419ff","system_id":"levelo_inurba_marseille","lat":43.32479,"lon":5.36563,"is_reserved":false,"is_disabled":false,"rental_uris":{"android":"levelo://app?vid=6aedbb19-d0ae-4861-b637-8764b6d419ff","ios":"levelo://app?vid=6aedbb19-d0ae-4861-b637-8764b6d419ff"},"vehicle_type_id":"4","last_reported":1742987300,"current_range_meters":12000,"station_id":"ce4bhs12rcd13ifvqhvg","pricing_plan_id":"cebpf4jnsgd1na2vs0mg"},{"bike_id":"a4845b3d-7eee-45f4-b131-9949b18b9c93","system_id":"levelo_inurba_marseille","lat":43.28491,"lon":5.38416,"is_reserved":false,"is_disabled":false,"rental_uris":{"android":"levelo://app?vid=a4845b3d-7eee-45f4-b131-9949b18b9c93","ios":"levelo://app?vid=a4845b3d-7eee-45f4-b131-9949b18b9c93"},"vehicle_type_id":"4","last_reported":1742987300,"current_range_meters":12400,"station_id":"ce4bh512rcd13ifvqe3g","pricing_plan_id":"cebpf4jnsgd1na2vs0mg"},{"bike_id":"0181f5ad-52e0-40ad-8476-a4c26e28863e","system_id":"levelo_inurba_marseille","lat":43.26121,"lon":5.38751,"is_reserved":false,"is_disabled":false,"rental_uris":{"android":"levelo://app?vid=0181f5ad-52e0-40ad-8476-a4c26e28863e","ios":"levelo://app?vid=0181f5ad-52e0-40ad-8476-a4c26e28863e"},"vehicle_type_id":"4","last_reported":1742987300,"current_range_meters":12400,"station_id":"","pricing_plan_id":"cebpf4jnsgd1na2vs0mg"},{"bike_id":"089ae6e5-60d1-46bc-b01d-3e05e53f1e24","system_id":"levelo_inurba_marseille","lat":43.28155,"lon":5.42643,"is_reserved":false,"is_disabled":false,"rental_uris":{"android":"levelo://app?vid=089ae6e5-60d1-46bc-b01d-3e05e53f1e24","ios":"levelo://app?vid=089ae6e5-60d1-46bc-b01d-3e05e53f1e24"},"vehicle_type_id":"4","last_reported":1742987300,"current_range_meters":12400,"station_id":"ce4bhnh2rcd13ifvqgug","pricing_plan_id":"cebpf4jnsgd1na2vs0mg"},{"bike_id":"e91da42b-d22f-4aad-8fb0-8875c4386c0f","system_id":"levelo_inurba_marseille","lat":43.29001,"lon":5.35603,"is_reserved":false,"is_disabled":false,"rental_uris":{"android":"levelo://app?vid=e91da42b-d22f-4aad-8fb0-8875c4386c0f","ios":"levelo://app?vid=e91da42b-d22f-4aad-8fb0-8875c4386c0f"},"vehicle_type_id":"4","last_reported":1742987300,"current_range_meters":12400,"station_id":"ce4bhb92rcd13ifvqen0","pricing_plan_id":"cebpf4jnsgd1na2vs0mg"},{"bike_id":"ad737e2f-11da-423b-a467-d138055342bd","system_id":"levelo_inurba_marseille","lat":43.23148,"lon":5.43707,"is_reserved":false,"is_disabled":false,"rental_uris":{"android":"levelo://app?vid=ad737e2f-11da-423b-a467-d138055342bd","ios":"levelo://app?vid=ad737e2f-11da-423b-a467-d138055342bd"},"vehicle_type_id":"4","last_reported":1742987300,"current_range_meters":12400,"station_id":"","pricing_plan_id":"cebpf4jnsgd1na2vs0mg"},{"bike_id":"484928c8-8c60-48c3-a758-e3e274268153","system_id":"levelo_inurba_marseille","lat":43.24178,"lon":5.363817,"is_reserved":false,"is_disabled":false,"rental_uris":{"android":"levelo://app?vid=484928c8-8c60-48c3-a758-e3e274268153","ios":"levelo://app?vid=484928c8-8c60-48c3-a758-e3e274268153"},"vehicle_type_id":"4","last_reported":1742987300,"current_range_meters":12400,"station_id":"cpo36qri1sfpv3e86is0","pricing_plan_id":"cebpf4jnsgd1na2vs0mg"},{"bike_id":"7e7a371c-b9b4-41ba-9c03-4ba1bef7f880","system_id":"levelo_inurba_marseille","lat":43.23149,"lon":5.43719,"is_reserved":false,"is_disabled":false,"rental_uris":{"android":"levelo://app?vid=7e7a371c-b9b4-41ba-9c03-4ba1bef7f880","ios":"levelo://app?vid=7e7a371c-b9b4-41ba-9c03-4ba1bef7f880"},"vehicle_type_id":"4","last_reported":1742987300,"current_range_meters":12400,"station_id":"ce4bhmp2rcd13ifvqgog","pricing_plan_id":"cebpf4jnsgd1na2vs0mg"},{"bike_id":"bd3481f8-0d67-4f32-b846-3137f51bf813","system_id":"levelo_inurba_marseille","lat":43.26938,"lon":5.40261,"is_reserved":false,"is_disabled":false,"rental_uris":{"android":"levelo://app?vid=bd3481f8-0d67-4f32-b846-3137f51bf813","ios":"levelo://app?vid=bd3481f8-0d67-4f32-b846-3137f51bf813"},"vehicle_type_id":"4","last_reported":1742987300,"current_range_meters":12400,"station_id":"cjm6bp8fraef2m0cb0m0","pricing_plan_id":"cebpf4jnsgd1na2vs0mg"},{"bike_id":"a7752a5b-ca9d-4c71-86bd-8858eb1b9e63","system_id":"levelo_inurba_marseille","lat":43.26061,"lon":5.39393,"is_reserved":false,"is_disabled":false,"rental_uris":{"android":"levelo://app?vid=a7752a5b-ca9d-4c71-86bd-8858eb1b9e63","ios":"levelo://app?vid=a7752a5b-ca9d-4c71-86bd-8858eb1b9e63"},"vehicle_type_id":"4","last_reported":1742987300,"current_range_meters":12400,"station_id":"ce4bhh92rcd13ifvqfj0","pricing_plan_id":"cebpf4jnsgd1na2vs0mg"},{"bike_id":"ceb50989-9a96-4a68-a2a6-d517e965d2d6","system_id":"levelo_inurba_marseille","lat":43.29259,"lon":5.37624,"is_reserved":false,"is_disabled":false,"rental_uris":{"android":"levelo://app?vid=ceb50989-9a96-4a68-a2a6-d517e965d2d6","ios":"levelo://app?vid=ceb50989-9a96-4a68-a2a6-d517e965d2d6"},"vehicle_type_id":"4","last_reported":1742987300,"current_range_meters":12400,"station_id":"ce4bgi12rcd13ifvqb80","pricing_plan_id":"cebpf4jnsgd1na2vs0mg"},{"bike_id":"ccdfac36-22da-4f2d-bd50-7bf147cc0fff","system_id":"levelo_inurba_marseille","lat":43.29898,"lon":5.43654,"is_reserved":false,"is_disabled":false,"rental_uris":{"android":"levelo://app?vid=ccdfac36-22da-4f2d-bd50-7bf147cc0fff","ios":"levelo://app?vid=ccdfac36-22da-4f2d-bd50-7bf147cc0fff"},"vehicle_type_id":"4","last_reported":1742987300,"current_range_meters":12800,"station_id":"ce4bhpp2rcd13ifvqhfg","pricing_plan_id":"cebpf4jnsgd1na2vs0mg"},{"bike_id":"06386015-1121-49bb-aa6e-b2a42338e148","system_id":"levelo_inurba_marseille","lat":43.33021,"lon":5.39037,"is_reserved":false,"is_disabled":false,"rental_uris":{"android":"levelo://app?vid=06386015-1121-49bb-aa6e-b2a42338e148","ios":"levelo://app?vid=06386015-1121-49bb-aa6e-b2a42338e148"},"vehicle_type_id":"4","last_reported":1742987300,"current_range_meters":12800,"station_id":"ce4bhr92rcd13ifvqhrg","pricing_plan_id":"cebpf4jnsgd1na2vs0mg"},{"bike_id":"87952e4d-75ff-4f3c-a639-24952b80be5d","system_id":"levelo_inurba_marseille","lat":43.28041,"lon":5.36948,"is_reserved":false,"is_disabled":false,"rental_uris":{"android":"levelo://app?vid=87952e4d-75ff-4f3c-a639-24952b80be5d","ios":"levelo://app?vid=87952e4d-75ff-4f3c-a639-24952b80be5d"},"vehicle_type_id":"4","last_reported":1742987300,"current_range_meters":12800,"station_id":"ce4bha12rcd13ifvqef0","pricing_plan_id":"cebpf4jnsgd1na2vs0mg"},{"bike_id":"379879bf-1f7f-45f5-9cac-b09d574b3620","system_id":"levelo_inurba_marseille","lat":43.23164,"lon":5.4372,"is_reserved":false,"is_disabled":false,"rental_uris":{"android":"levelo://app?vid=379879bf-1f7f-45f5-9cac-b09d574b3620","ios":"levelo://app?vid=379879bf-1f7f-45f5-9cac-b09d574b3620"},"vehicle_type_id":"4","last_reported":1742987300,"current_range_meters":12800,"station_id":"ce4bhmp2rcd13ifvqgog","pricing_plan_id":"cebpf4jnsgd1na2vs0mg"},{"bike_id":"9490ab3f-b563-4312-b2ed-009944c7886e","system_id":"levelo_inurba_marseille","lat":43.32478,"lon":5.36556,"is_reserved":false,"is_disabled":false,"rental_uris":{"android":"levelo://app?vid=9490ab3f-b563-4312-b2ed-009944c7886e","ios":"levelo://app?vid=9490ab3f-b563-4312-b2ed-009944c7886e"},"vehicle_type_id":"4","last_reported":1742987300,"current_range_meters":12800,"station_id":"ce4bhs12rcd13ifvqhvg","pricing_plan_id":"cebpf4jnsgd1na2vs0mg"},{"bike_id":"1d386a8e-8d6c-4e60-ab59-c0e85c672baf","system_id":"levelo_inurba_marseille","lat":43.30902,"lon":5.3684,"is_reserved":false,"is_disabled":false,"rental_uris":{"android":"levelo://app?vid=1d386a8e-8d6c-4e60-ab59-c0e85c672baf","ios":"levelo://app?vid=1d386a8e-8d6c-4e60-ab59-c0e85c672baf"},"vehicle_type_id":"4","last_reported":1742987300,"current_range_meters":12800,"station_id":"ce4bgn92rcd13ifvqbvg","pricing_plan_id":"cebpf4jnsgd1na2vs0mg"},{"bike_id":"2623a753-dcde-4ffa-9bf1-3275e6037e7a","system_id":"levelo_inurba_marseille","lat":43.32498,"lon":5.36553,"is_reserved":false,"is_disabled":false,"rental_uris":{"android":"levelo://app?vid=2623a753-dcde-4ffa-9bf1-3275e6037e7a","ios":"levelo://app?vid=2623a753-dcde-4ffa-9bf1-3275e6037e7a"},"vehicle_type_id":"4","last_reported":1742987300,"current_range_meters":12800,"station_id":"ce4bhs12rcd13ifvqhvg","pricing_plan_id":"cebpf4jnsgd1na2vs0mg"},{"bike_id":"1d165c56-236e-4374-8632-8a15f8f79471","system_id":"levelo_inurba_marseille","lat":43.31201,"lon":5.36824,"is_reserved":false,"is_disabled":false,"rental_uris":{"android":"levelo://app?vid=1d165c56-236e-4374-8632-8a15f8f79471","ios":"levelo://app?vid=1d165c56-236e-4374-8632-8a15f8f79471"},"vehicle_type_id":"4","last_reported":1742987300,"current_range_meters":12800,"station_id":"ce4bgl92rcd13ifvqbq0","pricing_plan_id":"cebpf4jnsgd1na2vs0mg"},{"bike_id":"d5c4270d-4def-48aa-99a1-67e19a2d11a6","system_id":"levelo_inurba_marseille","lat":43.24161,"lon":5.36392,"is_reserved":false,"is_disabled":false,"rental_uris":{"android":"levelo://app?vid=d5c4270d-4def-48aa-99a1-67e19a2d11a6","ios":"levelo://app?vid=d5c4270d-4def-48aa-99a1-67e19a2d11a6"},"vehicle_type_id":"4","last_reported":1742987300,"current_range_meters":12800,"station_id":"cpo36qri1sfpv3e86is0","pricing_plan_id":"cebpf4jnsgd1na2vs0mg"},{"bike_id":"ddb80a09-7364-48e1-b291-527dbdfef5d0","system_id":"levelo_inurba_marseille","lat":43.268061,"lon":5.40253,"is_reserved":false,"is_disabled":false,"rental_uris":{"android":"levelo://app?vid=ddb80a09-7364-48e1-b291-527dbdfef5d0","ios":"levelo://app?vid=ddb80a09-7364-48e1-b291-527dbdfef5d0"},"vehicle_type_id":"4","last_reported":1742987300,"current_range_meters":12800,"station_id":"ce501612rcd8frsf0b60","pricing_plan_id":"cebpf4jnsgd1na2vs0mg"},{"bike_id":"feb02021-c91c-4994-8c83-a0f717e424da","system_id":"levelo_inurba_marseille","lat":43.25012,"lon":5.38915,"is_reserved":false,"is_disabled":false,"rental_uris":{"android":"levelo://app?vid=feb02021-c91c-4994-8c83-a0f717e424da","ios":"levelo://app?vid=feb02021-c91c-4994-8c83-a0f717e424da"},"vehicle_type_id":"4","last_reported":1742987300,"current_range_meters":12800,"station_id":"ce4bhgp2rcd13ifvqfd0","pricing_plan_id":"cebpf4jnsgd1na2vs0mg"},{"bike_id":"eb9f678f-782e-47b6-bc32-6c4888246d76","system_id":"levelo_inurba_marseille","lat":43.27569,"lon":5.38415,"is_reserved":false,"is_disabled":false,"rental_uris":{"android":"levelo://app?vid=eb9f678f-782e-47b6-bc32-6c4888246d76","ios":"levelo://app?vid=eb9f678f-782e-47b6-bc32-6c4888246d76"},"vehicle_type_id":"4","last_reported":1742987300,"current_range_meters":12800,"station_id":"ce4bhh92rcd13ifvqfi0","pricing_plan_id":"cebpf4jnsgd1na2vs0mg"},{"bike_id":"e1286bcb-31ee-4020-bfdf-b33e9a0bfa99","system_id":"levelo_inurba_marseille","lat":43.24663,"lon":5.38167,"is_reserved":false,"is_disabled":false,"rental_uris":{"android":"levelo://app?vid=e1286bcb-31ee-4020-bfdf-b33e9a0bfa99","ios":"levelo://app?vid=e1286bcb-31ee-4020-bfdf-b33e9a0bfa99"},"vehicle_type_id":"4","last_reported":1742987300,"current_range_meters":12800,"station_id":"ce4bhih2rcd13ifvqfr0","pricing_plan_id":"cebpf4jnsgd1na2vs0mg"},{"bike_id":"5b830359-30b8-45d9-a902-126192112277","system_id":"levelo_inurba_marseille","lat":43.23211,"lon":5.35542,"is_reserved":false,"is_disabled":false,"rental_uris":{"android":"levelo://app?vid=5b830359-30b8-45d9-a902-126192112277","ios":"levelo://app?vid=5b830359-30b8-45d9-a902-126192112277"},"vehicle_type_id":"4","last_reported":1742987300,"current_range_meters":13600,"station_id":"ce4bhu92rcd13ifvqi70","pricing_plan_id":"cebpf4jnsgd1na2vs0mg"},{"bike_id":"72297f85-fbfc-44cc-8430-07726aba3f87","system_id":"levelo_inurba_marseille","lat":43.26499,"lon":5.39533,"is_reserved":false,"is_disabled":false,"rental_uris":{"android":"levelo://app?vid=72297f85-fbfc-44cc-8430-07726aba3f87","ios":"levelo://app?vid=72297f85-fbfc-44cc-8430-07726aba3f87"},"vehicle_type_id":"4","last_reported":1742987300,"current_range_meters":13600,"station_id":"ce4bhi12rcd13ifvqfq0","pricing_plan_id":"cebpf4jnsgd1na2vs0mg"},{"bike_id":"f1414457-b578-4c46-b2bf-7e89a08e69ff","system_id":"levelo_inurba_marseille","lat":43.30539,"lon":5.36548,"is_reserved":false,"is_disabled":false,"rental_uris":{"android":"levelo://app?vid=f1414457-b578-4c46-b2bf-7e89a08e69ff","ios":"levelo://app?vid=f1414457-b578-4c46-b2bf-7e89a08e69ff"},"vehicle_type_id":"4","last_reported":1742987300,"current_range_meters":13600,"station_id":"ce4bgs12rcd13ifvqcag","pricing_plan_id":"cebpf4jnsgd1na2vs0mg"},{"bike_id":"db2c5f3f-875e-4745-8fb5-8feb269bcd6a","system_id":"levelo_inurba_marseille","lat":43.29045,"lon":5.35909,"is_reserved":false,"is_disabled":false,"rental_uris":{"android":"levelo://app?vid=db2c5f3f-875e-4745-8fb5-8feb269bcd6a","ios":"levelo://app?vid=db2c5f3f-875e-4745-8fb5-8feb269bcd6a"},"vehicle_type_id":"4","last_reported":1742987300,"current_range_meters":13600,"station_id":"ce4bha92rcd13ifvqeg0","pricing_plan_id":"cebpf4jnsgd1na2vs0mg"},{"bike_id":"9e4dae27-4c9b-4b7d-bc96-eb2a33a07992","system_id":"levelo_inurba_marseille","lat":43.25929,"lon":5.40915,"is_reserved":false,"is_disabled":false,"rental_uris":{"android":"levelo://app?vid=9e4dae27-4c9b-4b7d-bc96-eb2a33a07992","ios":"levelo://app?vid=9e4dae27-4c9b-4b7d-bc96-eb2a33a07992"},"vehicle_type_id":"4","last_reported":1742987300,"current_range_meters":13600,"station_id":"ce4bhm92rcd13ifvqglg","pricing_plan_id":"cebpf4jnsgd1na2vs0mg"},{"bike_id":"404e7333-1096-4149-800f-16029bab22de","system_id":"levelo_inurba_marseille","lat":43.26033,"lon":5.37547,"is_reserved":false,"is_disabled":false,"rental_uris":{"android":"levelo://app?vid=404e7333-1096-4149-800f-16029bab22de","ios":"levelo://app?vid=404e7333-1096-4149-800f-16029bab22de"},"vehicle_type_id":"4","last_reported":1742987300,"current_range_meters":13600,"station_id":"ce4bhgh2rcd13ifvqfa0","pricing_plan_id":"cebpf4jnsgd1na2vs0mg"},{"bike_id":"49749916-1602-4a67-bcc3-803f3f931eb7","system_id":"levelo_inurba_marseille","lat":43.303846,"lon":5.424753,"is_reserved":false,"is_disabled":false,"rental_uris":{"android":"levelo://app?vid=49749916-1602-4a67-bcc3-803f3f931eb7","ios":"levelo://app?vid=49749916-1602-4a67-bcc3-803f3f931eb7"},"vehicle_type_id":"4","last_reported":1742987300,"current_range_meters":13600,"station_id":"ce4bhoh2rcd13ifvqh6g","pricing_plan_id":"cebpf4jnsgd1na2vs0mg"},{"bike_id":"f12c222c-db6b-4879-8121-b2d2cab8b55b","system_id":"levelo_inurba_marseille","lat":43.24664,"lon":5.38154,"is_reserved":false,"is_disabled":false,"rental_uris":{"android":"levelo://app?vid=f12c222c-db6b-4879-8121-b2d2cab8b55b","ios":"levelo://app?vid=f12c222c-db6b-4879-8121-b2d2cab8b55b"},"vehicle_type_id":"4","last_reported":1742987300,"current_range_meters":14000,"station_id":"ce4bhih2rcd13ifvqfr0","pricing_plan_id":"cebpf4jnsgd1na2vs0mg"},{"bike_id":"68d42813-4eb5-41fe-a58d-c64b32f2b935","system_id":"levelo_inurba_marseille","lat":43.323602,"lon":5.367604,"is_reserved":false,"is_disabled":false,"rental_uris":{"android":"levelo://app?vid=68d42813-4eb5-41fe-a58d-c64b32f2b935","ios":"levelo://app?vid=68d42813-4eb5-41fe-a58d-c64b32f2b935"},"vehicle_type_id":"4","last_reported":1742987300,"current_range_meters":14000,"station_id":"ce4bhsh2rcd13ifvqi2g","pricing_plan_id":"cebpf4jnsgd1na2vs0mg"},{"bike_id":"0f98b1cf-6367-4c5f-b80d-54ddf72efd03","system_id":"levelo_inurba_marseille","lat":43.24641,"lon":5.38886,"is_reserved":false,"is_disabled":false,"rental_uris":{"android":"levelo://app?vid=0f98b1cf-6367-4c5f-b80d-54ddf72efd03","ios":"levelo://app?vid=0f98b1cf-6367-4c5f-b80d-54ddf72efd03"},"vehicle_type_id":"4","last_reported":1742987300,"current_range_meters":14000,"station_id":"ce4bhg12rcd13ifvqf60","pricing_plan_id":"cebpf4jnsgd1na2vs0mg"},{"bike_id":"46bc7627-5963-437b-83ed-b3f9497370e8","system_id":"levelo_inurba_marseille","lat":43.29894,"lon":5.43665,"is_reserved":false,"is_disabled":false,"rental_uris":{"android":"levelo://app?vid=46bc7627-5963-437b-83ed-b3f9497370e8","ios":"levelo://app?vid=46bc7627-5963-437b-83ed-b3f9497370e8"},"vehicle_type_id":"4","last_reported":1742987300,"current_range_meters":14000,"station_id":"ce4bhpp2rcd13ifvqhfg","pricing_plan_id":"cebpf4jnsgd1na2vs0mg"},{"bike_id":"ff7f3494-8a2b-481e-b308-a06ee7a71334","system_id":"levelo_inurba_marseille","lat":43.26932,"lon":5.4026,"is_reserved":false,"is_disabled":false,"rental_uris":{"android":"levelo://app?vid=ff7f3494-8a2b-481e-b308-a06ee7a71334","ios":"levelo://app?vid=ff7f3494-8a2b-481e-b308-a06ee7a71334"},"vehicle_type_id":"4","last_reported":1742987300,"current_range_meters":14000,"station_id":"cjm6bp8fraef2m0cb0m0","pricing_plan_id":"cebpf4jnsgd1na2vs0mg"},{"bike_id":"c57e4222-efbc-4eb5-807f-dd36c16becc2","system_id":"levelo_inurba_marseille","lat":43.30545,"lon":5.367087,"is_reserved":false,"is_disabled":false,"rental_uris":{"android":"levelo://app?vid=c57e4222-efbc-4eb5-807f-dd36c16becc2","ios":"levelo://app?vid=c57e4222-efbc-4eb5-807f-dd36c16becc2"},"vehicle_type_id":"4","last_reported":1742987300,"current_range_meters":14000,"station_id":"ce4bgrp2rcd13ifvqc9g","pricing_plan_id":"cebpf4jnsgd1na2vs0mg"},{"bike_id":"899c176d-82ad-4498-8c9d-c34a9cc4f9c2","system_id":"levelo_inurba_marseille","lat":43.28663,"lon":5.3866,"is_reserved":false,"is_disabled":false,"rental_uris":{"android":"levelo://app?vid=899c176d-82ad-4498-8c9d-c34a9cc4f9c2","ios":"levelo://app?vid=899c176d-82ad-4498-8c9d-c34a9cc4f9c2"},"vehicle_type_id":"4","last_reported":1742987300,"current_range_meters":14400,"station_id":"ce4bh492rcd13ifvqdug","pricing_plan_id":"cebpf4jnsgd1na2vs0mg"},{"bike_id":"00a6566c-9629-4dce-b6c6-f9a859b388e2","system_id":"levelo_inurba_marseille","lat":43.29005,"lon":5.35616,"is_reserved":false,"is_disabled":false,"rental_uris":{"android":"levelo://app?vid=00a6566c-9629-4dce-b6c6-f9a859b388e2","ios":"levelo://app?vid=00a6566c-9629-4dce-b6c6-f9a859b388e2"},"vehicle_type_id":"4","last_reported":1742987300,"current_range_meters":14400,"station_id":"ce4bhb92rcd13ifvqen0","pricing_plan_id":"cebpf4jnsgd1na2vs0mg"},{"bike_id":"d0bbc1d2-538e-4cd3-b32f-a41c9f73b8e1","system_id":"levelo_inurba_marseille","lat":43.27985,"lon":5.41661,"is_reserved":false,"is_disabled":false,"rental_uris":{"android":"levelo://app?vid=d0bbc1d2-538e-4cd3-b32f-a41c9f73b8e1","ios":"levelo://app?vid=d0bbc1d2-538e-4cd3-b32f-a41c9f73b8e1"},"vehicle_type_id":"4","last_reported":1742987300,"current_range_meters":14400,"station_id":"ce4bho12rcd13ifvqh1g","pricing_plan_id":"cebpf4jnsgd1na2vs0mg"},{"bike_id":"8a1d064b-8562-46a4-8539-94286ec64257","system_id":"levelo_inurba_marseille","lat":43.25876,"lon":5.39908,"is_reserved":false,"is_disabled":false,"rental_uris":{"android":"levelo://app?vid=8a1d064b-8562-46a4-8539-94286ec64257","ios":"levelo://app?vid=8a1d064b-8562-46a4-8539-94286ec64257"},"vehicle_type_id":"4","last_reported":1742987300,"current_range_meters":14400,"station_id":"ce4bhl92rcd13ifvqghg","pricing_plan_id":"cebpf4jnsgd1na2vs0mg"},{"bike_id":"3b3e577b-dcf6-40b6-b55c-6058e93f8510","system_id":"levelo_inurba_marseille","lat":43.27977,"lon":5.38744,"is_reserved":false,"is_disabled":false,"rental_uris":{"android":"levelo://app?vid=3b3e577b-dcf6-40b6-b55c-6058e93f8510","ios":"levelo://app?vid=3b3e577b-dcf6-40b6-b55c-6058e93f8510"},"vehicle_type_id":"4","last_reported":1742987300,"current_range_meters":14400,"station_id":"ce4bhg12rcd13ifvqf80","pricing_plan_id":"cebpf4jnsgd1na2vs0mg"},{"bike_id":"c6e3452b-f8d0-48b5-b208-01d642929070","system_id":"levelo_inurba_marseille","lat":43.30545,"lon":5.36574,"is_reserved":false,"is_disabled":false,"rental_uris":{"android":"levelo://app?vid=c6e3452b-f8d0-48b5-b208-01d642929070","ios":"levelo://app?vid=c6e3452b-f8d0-48b5-b208-01d642929070"},"vehicle_type_id":"4","last_reported":1742987300,"current_range_meters":14400,"station_id":"ce4bgs12rcd13ifvqcag","pricing_plan_id":"cebpf4jnsgd1na2vs0mg"},{"bike_id":"cddb2d48-ad91-422a-9966-039925cdc3aa","system_id":"levelo_inurba_marseille","lat":43.301399,"lon":5.374232,"is_reserved":false,"is_disabled":false,"rental_uris":{"android":"levelo://app?vid=cddb2d48-ad91-422a-9966-039925cdc3aa","ios":"levelo://app?vid=cddb2d48-ad91-422a-9966-039925cdc3aa"},"vehicle_type_id":"4","last_reported":1742987300,"current_range_meters":14400,"station_id":"ce4bgs92rcd13ifvqcc0","pricing_plan_id":"cebpf4jnsgd1na2vs0mg"},{"bike_id":"d72b2321-ec34-48cf-868e-8c5e65afe96e","system_id":"levelo_inurba_marseille","lat":43.27908,"lon":5.39576,"is_reserved":false,"is_disabled":false,"rental_uris":{"android":"levelo://app?vid=d72b2321-ec34-48cf-868e-8c5e65afe96e","ios":"levelo://app?vid=d72b2321-ec34-48cf-868e-8c5e65afe96e"},"vehicle_type_id":"4","last_reported":1742987300,"current_range_meters":14800,"station_id":"ce4bhf92rcd13ifvqf40","pricing_plan_id":"cebpf4jnsgd1na2vs0mg"},{"bike_id":"ab255577-419b-4b2c-b48f-5c6fb00afdfd","system_id":"levelo_inurba_marseille","lat":43.32364,"lon":5.36742,"is_reserved":false,"is_disabled":false,"rental_uris":{"android":"levelo://app?vid=ab255577-419b-4b2c-b48f-5c6fb00afdfd","ios":"levelo://app?vid=ab255577-419b-4b2c-b48f-5c6fb00afdfd"},"vehicle_type_id":"4","last_reported":1742987300,"current_range_meters":14800,"station_id":"ce4bhsh2rcd13ifvqi2g","pricing_plan_id":"cebpf4jnsgd1na2vs0mg"},{"bike_id":"8418c990-e6d9-4a60-8ade-e0d4d0dd8692","system_id":"levelo_inurba_marseille","lat":43.29002,"lon":5.35613,"is_reserved":false,"is_disabled":false,"rental_uris":{"android":"levelo://app?vid=8418c990-e6d9-4a60-8ade-e0d4d0dd8692","ios":"levelo://app?vid=8418c990-e6d9-4a60-8ade-e0d4d0dd8692"},"vehicle_type_id":"4","last_reported":1742987300,"current_range_meters":14800,"station_id":"ce4bhb92rcd13ifvqen0","pricing_plan_id":"cebpf4jnsgd1na2vs0mg"},{"bike_id":"9adfb358-7f61-48b2-bd47-d99e0bf065a2","system_id":"levelo_inurba_marseille","lat":43.2602,"lon":5.41751,"is_reserved":false,"is_disabled":false,"rental_uris":{"android":"levelo://app?vid=9adfb358-7f61-48b2-bd47-d99e0bf065a2","ios":"levelo://app?vid=9adfb358-7f61-48b2-bd47-d99e0bf065a2"},"vehicle_type_id":"4","last_reported":1742987300,"current_range_meters":14800,"station_id":"","pricing_plan_id":"cebpf4jnsgd1na2vs0mg"},{"bike_id":"5a86a0ff-a812-42dc-84dd-dff8f4cf06da","system_id":"levelo_inurba_marseille","lat":43.2813,"lon":5.37859,"is_reserved":false,"is_disabled":false,"rental_uris":{"android":"levelo://app?vid=5a86a0ff-a812-42dc-84dd-dff8f4cf06da","ios":"levelo://app?vid=5a86a0ff-a812-42dc-84dd-dff8f4cf06da"},"vehicle_type_id":"4","last_reported":1742987300,"current_range_meters":14800,"station_id":"ce4bha12rcd13ifvqee0","pricing_plan_id":"cebpf4jnsgd1na2vs0mg"},{"bike_id":"1a3a7b9e-a026-4052-a69f-272d652f4ec3","system_id":"levelo_inurba_marseille","lat":43.294147,"lon":5.386259,"is_reserved":false,"is_disabled":false,"rental_uris":{"android":"levelo://app?vid=1a3a7b9e-a026-4052-a69f-272d652f4ec3","ios":"levelo://app?vid=1a3a7b9e-a026-4052-a69f-272d652f4ec3"},"vehicle_type_id":"4","last_reported":1742987300,"current_range_meters":14800,"station_id":"ce4bh0h2rcd13ifvqd40","pricing_plan_id":"cebpf4jnsgd1na2vs0mg"},{"bike_id":"a3ae93ad-53e5-4cc9-b231-7cabfe495b80","system_id":"levelo_inurba_marseille","lat":43.2985,"lon":5.36259,"is_reserved":false,"is_disabled":false,"rental_uris":{"android":"levelo://app?vid=a3ae93ad-53e5-4cc9-b231-7cabfe495b80","ios":"levelo://app?vid=a3ae93ad-53e5-4cc9-b231-7cabfe495b80"},"vehicle_type_id":"4","last_reported":1742987300,"current_range_meters":15200,"station_id":"ce4bgpp2rcd13ifvqc3g","pricing_plan_id":"cebpf4jnsgd1na2vs0mg"},{"bike_id":"94e79fc7-9367-4952-8689-794a28fc3d39","system_id":"levelo_inurba_marseille","lat":43.29889,"lon":5.43655,"is_reserved":false,"is_disabled":false,"rental_uris":{"android":"levelo://app?vid=94e79fc7-9367-4952-8689-794a28fc3d39","ios":"levelo://app?vid=94e79fc7-9367-4952-8689-794a28fc3d39"},"vehicle_type_id":"4","last_reported":1742987300,"current_range_meters":15200,"station_id":"ce4bhpp2rcd13ifvqhfg","pricing_plan_id":"cebpf4jnsgd1na2vs0mg"},{"bike_id":"3cacb6a0-7ea6-4b88-824d-1ab254ed1d44","system_id":"levelo_inurba_marseille","lat":43.33602,"lon":5.4102,"is_reserved":false,"is_disabled":false,"rental_uris":{"android":"levelo://app?vid=3cacb6a0-7ea6-4b88-824d-1ab254ed1d44","ios":"levelo://app?vid=3cacb6a0-7ea6-4b88-824d-1ab254ed1d44"},"vehicle_type_id":"4","last_reported":1742987300,"current_range_meters":15200,"station_id":"ce4bhqh2rcd13ifvqhmg","pricing_plan_id":"cebpf4jnsgd1na2vs0mg"},{"bike_id":"75c7187b-7cb5-4136-b180-795a32bcbe1d","system_id":"levelo_inurba_marseille","lat":43.27974,"lon":5.38589,"is_reserved":false,"is_disabled":true,"rental_uris":{"android":"levelo://app?vid=75c7187b-7cb5-4136-b180-795a32bcbe1d","ios":"levelo://app?vid=75c7187b-7cb5-4136-b180-795a32bcbe1d"},"vehicle_type_id":"4","last_reported":1742987300,"current_range_meters":15200,"station_id":"","pricing_plan_id":"cebpf4jnsgd1na2vs0mg"},{"bike_id":"c896a30e-408f-4fdc-aa97-dd0a7c5586b6","system_id":"levelo_inurba_marseille","lat":43.23182,"lon":5.40002,"is_reserved":false,"is_disabled":false,"rental_uris":{"android":"levelo://app?vid=c896a30e-408f-4fdc-aa97-dd0a7c5586b6","ios":"levelo://app?vid=c896a30e-408f-4fdc-aa97-dd0a7c5586b6"},"vehicle_type_id":"4","last_reported":1742987300,"current_range_meters":15200,"station_id":"ce4bhn12rcd13ifvqgqg","pricing_plan_id":"cebpf4jnsgd1na2vs0mg"},{"bike_id":"d464c830-851c-46ef-a1af-69d86357dd98","system_id":"levelo_inurba_marseille","lat":43.33602,"lon":5.41025,"is_reserved":false,"is_disabled":false,"rental_uris":{"android":"levelo://app?vid=d464c830-851c-46ef-a1af-69d86357dd98","ios":"levelo://app?vid=d464c830-851c-46ef-a1af-69d86357dd98"},"vehicle_type_id":"4","last_reported":1742987300,"current_range_meters":16000,"station_id":"ce4bhqh2rcd13ifvqhmg","pricing_plan_id":"cebpf4jnsgd1na2vs0mg"},{"bike_id":"0ac88cdf-dd3a-494f-aaa5-2b24d1ce393f","system_id":"levelo_inurba_marseille","lat":43.23187,"lon":5.35558,"is_reserved":false,"is_disabled":false,"rental_uris":{"android":"levelo://app?vid=0ac88cdf-dd3a-494f-aaa5-2b24d1ce393f","ios":"levelo://app?vid=0ac88cdf-dd3a-494f-aaa5-2b24d1ce393f"},"vehicle_type_id":"4","last_reported":1742987300,"current_range_meters":16000,"station_id":"ce4bhu92rcd13ifvqi70","pricing_plan_id":"cebpf4jnsgd1na2vs0mg"},{"bike_id":"494bb9d0-768d-417c-a1ba-2a5eb9e3116f","system_id":"levelo_inurba_marseille","lat":43.31233,"lon":5.36873,"is_reserved":false,"is_disabled":false,"rental_uris":{"android":"levelo://app?vid=494bb9d0-768d-417c-a1ba-2a5eb9e3116f","ios":"levelo://app?vid=494bb9d0-768d-417c-a1ba-2a5eb9e3116f"},"vehicle_type_id":"4","last_reported":1742987300,"current_range_meters":16000,"station_id":"ce4bgl92rcd13ifvqbq0","pricing_plan_id":"cebpf4jnsgd1na2vs0mg"},{"bike_id":"a299f473-f05e-4a83-9d94-ab148ed6928e","system_id":"levelo_inurba_marseille","lat":43.24989,"lon":5.38912,"is_reserved":false,"is_disabled":false,"rental_uris":{"android":"levelo://app?vid=a299f473-f05e-4a83-9d94-ab148ed6928e","ios":"levelo://app?vid=a299f473-f05e-4a83-9d94-ab148ed6928e"},"vehicle_type_id":"4","last_reported":1742987300,"current_range_meters":16400,"station_id":"ce4bhgp2rcd13ifvqfd0","pricing_plan_id":"cebpf4jnsgd1na2vs0mg"},{"bike_id":"fd42e46e-57c7-4040-bb3a-383f2099c563","system_id":"levelo_inurba_marseille","lat":43.25723,"lon":5.41093,"is_reserved":false,"is_disabled":false,"rental_uris":{"android":"levelo://app?vid=fd42e46e-57c7-4040-bb3a-383f2099c563","ios":"levelo://app?vid=fd42e46e-57c7-4040-bb3a-383f2099c563"},"vehicle_type_id":"4","last_reported":1742987300,"current_range_meters":16400,"station_id":"ce4bhkp2rcd13ifvqgd0","pricing_plan_id":"cebpf4jnsgd1na2vs0mg"},{"bike_id":"4458dd53-4803-4912-8c8b-67ace5923f3e","system_id":"levelo_inurba_marseille","lat":43.25,"lon":5.38934,"is_reserved":false,"is_disabled":false,"rental_uris":{"android":"levelo://app?vid=4458dd53-4803-4912-8c8b-67ace5923f3e","ios":"levelo://app?vid=4458dd53-4803-4912-8c8b-67ace5923f3e"},"vehicle_type_id":"4","last_reported":1742987300,"current_range_meters":16400,"station_id":"ce4bhgp2rcd13ifvqfd0","pricing_plan_id":"cebpf4jnsgd1na2vs0mg"},{"bike_id":"ccf766c6-900e-446b-ab04-9db8638ff763","system_id":"levelo_inurba_marseille","lat":43.2606,"lon":5.39392,"is_reserved":false,"is_disabled":false,"rental_uris":{"android":"levelo://app?vid=ccf766c6-900e-446b-ab04-9db8638ff763","ios":"levelo://app?vid=ccf766c6-900e-446b-ab04-9db8638ff763"},"vehicle_type_id":"4","last_reported":1742987300,"current_range_meters":16400,"station_id":"ce4bhh92rcd13ifvqfj0","pricing_plan_id":"cebpf4jnsgd1na2vs0mg"},{"bike_id":"24a1248f-5e8a-4578-9a89-a7ea39a78ae1","system_id":"levelo_inurba_marseille","lat":43.2794,"lon":5.41039,"is_reserved":false,"is_disabled":true,"rental_uris":{"android":"levelo://app?vid=24a1248f-5e8a-4578-9a89-a7ea39a78ae1","ios":"levelo://app?vid=24a1248f-5e8a-4578-9a89-a7ea39a78ae1"},"vehicle_type_id":"4","last_reported":1742987300,"current_range_meters":16400,"station_id":"ce4bhnp2rcd13ifvqh0g","pricing_plan_id":"cebpf4jnsgd1na2vs0mg"},{"bike_id":"99b39bbd-2328-45e1-a271-84eb7567cb38","system_id":"levelo_inurba_marseille","lat":43.28617,"lon":5.35097,"is_reserved":false,"is_disabled":false,"rental_uris":{"android":"levelo://app?vid=99b39bbd-2328-45e1-a271-84eb7567cb38","ios":"levelo://app?vid=99b39bbd-2328-45e1-a271-84eb7567cb38"},"vehicle_type_id":"4","last_reported":1742987300,"current_range_meters":16400,"station_id":"ce4bhch2rcd13ifvqeug","pricing_plan_id":"cebpf4jnsgd1na2vs0mg"},{"bike_id":"c18155db-65c7-4d5a-8c5b-923eb75c675d","system_id":"levelo_inurba_marseille","lat":43.32104,"lon":5.36785,"is_reserved":false,"is_disabled":false,"rental_uris":{"android":"levelo://app?vid=c18155db-65c7-4d5a-8c5b-923eb75c675d","ios":"levelo://app?vid=c18155db-65c7-4d5a-8c5b-923eb75c675d"},"vehicle_type_id":"4","last_reported":1742987300,"current_range_meters":16400,"station_id":"ce4bhrh2rcd13ifvqhug","pricing_plan_id":"cebpf4jnsgd1na2vs0mg"},{"bike_id":"2fe6911a-b409-48a9-b248-82e92d1c2d15","system_id":"levelo_inurba_marseille","lat":43.24567,"lon":5.38189,"is_reserved":false,"is_disabled":false,"rental_uris":{"android":"levelo://app?vid=2fe6911a-b409-48a9-b248-82e92d1c2d15","ios":"levelo://app?vid=2fe6911a-b409-48a9-b248-82e92d1c2d15"},"vehicle_type_id":"4","last_reported":1742987300,"current_range_meters":16400,"station_id":"ce4bhih2rcd13ifvqfr0","pricing_plan_id":"cebpf4jnsgd1na2vs0mg"},{"bike_id":"3e0c11ac-e7f7-4d47-980b-7f6d141fd114","system_id":"levelo_inurba_marseille","lat":43.30913,"lon":5.37481,"is_reserved":false,"is_disabled":false,"rental_uris":{"android":"levelo://app?vid=3e0c11ac-e7f7-4d47-980b-7f6d141fd114","ios":"levelo://app?vid=3e0c11ac-e7f7-4d47-980b-7f6d141fd114"},"vehicle_type_id":"4","last_reported":1742987300,"current_range_meters":16400,"station_id":"","pricing_plan_id":"cebpf4jnsgd1na2vs0mg"},{"bike_id":"9e3dc434-d066-42cc-bc77-658211cbf847","system_id":"levelo_inurba_marseille","lat":43.29937,"lon":5.36526,"is_reserved":false,"is_disabled":false,"rental_uris":{"android":"levelo://app?vid=9e3dc434-d066-42cc-bc77-658211cbf847","ios":"levelo://app?vid=9e3dc434-d066-42cc-bc77-658211cbf847"},"vehicle_type_id":"4","last_reported":1742987300,"current_range_meters":16400,"station_id":"ce4bgm92rcd13ifvqbr0","pricing_plan_id":"cebpf4jnsgd1na2vs0mg"},{"bike_id":"fc8e8371-f4e9-4721-bc19-563801e389dc","system_id":"levelo_inurba_marseille","lat":43.337444,"lon":5.374475,"is_reserved":false,"is_disabled":false,"rental_uris":{"android":"levelo://app?vid=fc8e8371-f4e9-4721-bc19-563801e389dc","ios":"levelo://app?vid=fc8e8371-f4e9-4721-bc19-563801e389dc"},"vehicle_type_id":"4","last_reported":1742987300,"current_range_meters":16400,"station_id":"","pricing_plan_id":"cebpf4jnsgd1na2vs0mg"},{"bike_id":"338ef5ef-6ed0-4719-a7ea-82be458e61b4","system_id":"levelo_inurba_marseille","lat":43.2436,"lon":5.37093,"is_reserved":false,"is_disabled":false,"rental_uris":{"android":"levelo://app?vid=338ef5ef-6ed0-4719-a7ea-82be458e61b4","ios":"levelo://app?vid=338ef5ef-6ed0-4719-a7ea-82be458e61b4"},"vehicle_type_id":"4","last_reported":1742987300,"current_range_meters":16800,"station_id":"ce4bhhh2rcd13ifvqfk0","pricing_plan_id":"cebpf4jnsgd1na2vs0mg"},{"bike_id":"23bf910c-0327-4950-8153-5ee42fab5e7e","system_id":"levelo_inurba_marseille","lat":43.27316,"lon":5.39085,"is_reserved":false,"is_disabled":false,"rental_uris":{"android":"levelo://app?vid=23bf910c-0327-4950-8153-5ee42fab5e7e","ios":"levelo://app?vid=23bf910c-0327-4950-8153-5ee42fab5e7e"},"vehicle_type_id":"4","last_reported":1742987300,"current_range_meters":16800,"station_id":"ce4bhgp2rcd13ifvqfe0","pricing_plan_id":"cebpf4jnsgd1na2vs0mg"},{"bike_id":"ef1feedc-5425-4f50-a645-66f231623a5e","system_id":"levelo_inurba_marseille","lat":43.336034,"lon":5.410279,"is_reserved":false,"is_disabled":false,"rental_uris":{"android":"levelo://app?vid=ef1feedc-5425-4f50-a645-66f231623a5e","ios":"levelo://app?vid=ef1feedc-5425-4f50-a645-66f231623a5e"},"vehicle_type_id":"4","last_reported":1742987300,"current_range_meters":16800,"station_id":"ce4bhqh2rcd13ifvqhmg","pricing_plan_id":"cebpf4jnsgd1na2vs0mg"},{"bike_id":"64f0ea86-1180-4755-95e1-3cbc9c8d4cf5","system_id":"levelo_inurba_marseille","lat":43.33012,"lon":5.43862,"is_reserved":false,"is_disabled":true,"rental_uris":{"android":"levelo://app?vid=64f0ea86-1180-4755-95e1-3cbc9c8d4cf5","ios":"levelo://app?vid=64f0ea86-1180-4755-95e1-3cbc9c8d4cf5"},"vehicle_type_id":"4","last_reported":1742987300,"current_range_meters":16800,"station_id":"","pricing_plan_id":"cebpf4jnsgd1na2vs0mg"},{"bike_id":"a03834e5-fa97-4593-85e3-5e0409d08be7","system_id":"levelo_inurba_marseille","lat":43.30141,"lon":5.374,"is_reserved":false,"is_disabled":false,"rental_uris":{"android":"levelo://app?vid=a03834e5-fa97-4593-85e3-5e0409d08be7","ios":"levelo://app?vid=a03834e5-fa97-4593-85e3-5e0409d08be7"},"vehicle_type_id":"4","last_reported":1742987300,"current_range_meters":16800,"station_id":"ce4bgs92rcd13ifvqcc0","pricing_plan_id":"cebpf4jnsgd1na2vs0mg"},{"bike_id":"5018a59b-b386-4e99-b26c-192a8f1ed783","system_id":"levelo_inurba_marseille","lat":43.33314,"lon":5.35934,"is_reserved":false,"is_disabled":false,"rental_uris":{"android":"levelo://app?vid=5018a59b-b386-4e99-b26c-192a8f1ed783","ios":"levelo://app?vid=5018a59b-b386-4e99-b26c-192a8f1ed783"},"vehicle_type_id":"4","last_reported":1742987300,"current_range_meters":16800,"station_id":"","pricing_plan_id":"cebpf4jnsgd1na2vs0mg"},{"bike_id":"ea12efda-e992-4d10-a7e1-b86027b07620","system_id":"levelo_inurba_marseille","lat":43.30543,"lon":5.36531,"is_reserved":false,"is_disabled":false,"rental_uris":{"android":"levelo://app?vid=ea12efda-e992-4d10-a7e1-b86027b07620","ios":"levelo://app?vid=ea12efda-e992-4d10-a7e1-b86027b07620"},"vehicle_type_id":"4","last_reported":1742987300,"current_range_meters":16800,"station_id":"ce4bgs12rcd13ifvqcag","pricing_plan_id":"cebpf4jnsgd1na2vs0mg"},{"bike_id":"94ab5bbd-2c81-4ed4-8a13-ae090a9e10f3","system_id":"levelo_inurba_marseille","lat":43.27823,"lon":5.40712,"is_reserved":false,"is_disabled":false,"rental_uris":{"android":"levelo://app?vid=94ab5bbd-2c81-4ed4-8a13-ae090a9e10f3","ios":"levelo://app?vid=94ab5bbd-2c81-4ed4-8a13-ae090a9e10f3"},"vehicle_type_id":"4","last_reported":1742987300,"current_range_meters":16800,"station_id":"ce4bhnh2rcd13ifvqgtg","pricing_plan_id":"cebpf4jnsgd1na2vs0mg"},{"bike_id":"818afcaf-08c4-48e2-bead-bf2127aea8c7","system_id":"levelo_inurba_marseille","lat":43.26949,"lon":5.40257,"is_reserved":false,"is_disabled":false,"rental_uris":{"android":"levelo://app?vid=818afcaf-08c4-48e2-bead-bf2127aea8c7","ios":"levelo://app?vid=818afcaf-08c4-48e2-bead-bf2127aea8c7"},"vehicle_type_id":"4","last_reported":1742987300,"current_range_meters":17200,"station_id":"cjm6bp8fraef2m0cb0m0","pricing_plan_id":"cebpf4jnsgd1na2vs0mg"},{"bike_id":"6e18ad5f-0e1c-4063-a9fd-60cbea66b039","system_id":"levelo_inurba_marseille","lat":43.27563,"lon":5.38423,"is_reserved":false,"is_disabled":false,"rental_uris":{"android":"levelo://app?vid=6e18ad5f-0e1c-4063-a9fd-60cbea66b039","ios":"levelo://app?vid=6e18ad5f-0e1c-4063-a9fd-60cbea66b039"},"vehicle_type_id":"4","last_reported":1742987300,"current_range_meters":17200,"station_id":"ce4bhh92rcd13ifvqfi0","pricing_plan_id":"cebpf4jnsgd1na2vs0mg"},{"bike_id":"8b225ce4-bc27-494d-8b83-a75a32f1b524","system_id":"levelo_inurba_marseille","lat":43.298439,"lon":5.362641,"is_reserved":false,"is_disabled":false,"rental_uris":{"android":"levelo://app?vid=8b225ce4-bc27-494d-8b83-a75a32f1b524","ios":"levelo://app?vid=8b225ce4-bc27-494d-8b83-a75a32f1b524"},"vehicle_type_id":"4","last_reported":1742987300,"current_range_meters":17200,"station_id":"ce4bgpp2rcd13ifvqc3g","pricing_plan_id":"cebpf4jnsgd1na2vs0mg"},{"bike_id":"19db1d1e-921b-48ac-b68c-d2aac07b191b","system_id":"levelo_inurba_marseille","lat":43.30542,"lon":5.36527,"is_reserved":false,"is_disabled":false,"rental_uris":{"android":"levelo://app?vid=19db1d1e-921b-48ac-b68c-d2aac07b191b","ios":"levelo://app?vid=19db1d1e-921b-48ac-b68c-d2aac07b191b"},"vehicle_type_id":"4","last_reported":1742987300,"current_range_meters":17200,"station_id":"ce4bgs12rcd13ifvqcag","pricing_plan_id":"cebpf4jnsgd1na2vs0mg"},{"bike_id":"3f799fd2-29bd-45a6-834d-97ed85bc1244","system_id":"levelo_inurba_marseille","lat":43.28615,"lon":5.35096,"is_reserved":false,"is_disabled":false,"rental_uris":{"android":"levelo://app?vid=3f799fd2-29bd-45a6-834d-97ed85bc1244","ios":"levelo://app?vid=3f799fd2-29bd-45a6-834d-97ed85bc1244"},"vehicle_type_id":"4","last_reported":1742987300,"current_range_meters":17200,"station_id":"ce4bhch2rcd13ifvqeug","pricing_plan_id":"cebpf4jnsgd1na2vs0mg"},{"bike_id":"f7a30a80-6a91-440b-8de0-90f1998d364a","system_id":"levelo_inurba_marseille","lat":43.26682,"lon":5.38276,"is_reserved":false,"is_disabled":false,"rental_uris":{"android":"levelo://app?vid=f7a30a80-6a91-440b-8de0-90f1998d364a","ios":"levelo://app?vid=f7a30a80-6a91-440b-8de0-90f1998d364a"},"vehicle_type_id":"4","last_reported":1742987300,"current_range_meters":17200,"station_id":"ce4bhg92rcd13ifvqf90","pricing_plan_id":"cebpf4jnsgd1na2vs0mg"},{"bike_id":"f8d5d4cf-bb4e-40d8-a779-a90949766a1f","system_id":"levelo_inurba_marseille","lat":43.28615,"lon":5.35115,"is_reserved":false,"is_disabled":false,"rental_uris":{"android":"levelo://app?vid=f8d5d4cf-bb4e-40d8-a779-a90949766a1f","ios":"levelo://app?vid=f8d5d4cf-bb4e-40d8-a779-a90949766a1f"},"vehicle_type_id":"4","last_reported":1742987300,"current_range_meters":17600,"station_id":"ce4bhch2rcd13ifvqeug","pricing_plan_id":"cebpf4jnsgd1na2vs0mg"},{"bike_id":"cbe5d65d-1650-49d4-a631-68a39c204095","system_id":"levelo_inurba_marseille","lat":43.28611,"lon":5.35106,"is_reserved":false,"is_disabled":false,"rental_uris":{"android":"levelo://app?vid=cbe5d65d-1650-49d4-a631-68a39c204095","ios":"levelo://app?vid=cbe5d65d-1650-49d4-a631-68a39c204095"},"vehicle_type_id":"4","last_reported":1742987300,"current_range_meters":17600,"station_id":"ce4bhch2rcd13ifvqeug","pricing_plan_id":"cebpf4jnsgd1na2vs0mg"},{"bike_id":"4b70e668-2a69-431f-8bf1-9cee8bd3a760","system_id":"levelo_inurba_marseille","lat":43.27556,"lon":5.38428,"is_reserved":false,"is_disabled":false,"rental_uris":{"android":"levelo://app?vid=4b70e668-2a69-431f-8bf1-9cee8bd3a760","ios":"levelo://app?vid=4b70e668-2a69-431f-8bf1-9cee8bd3a760"},"vehicle_type_id":"4","last_reported":1742987300,"current_range_meters":17600,"station_id":"ce4bhh92rcd13ifvqfi0","pricing_plan_id":"cebpf4jnsgd1na2vs0mg"},{"bike_id":"0f52e640-a10d-4de9-a490-9d60e9cfc469","system_id":"levelo_inurba_marseille","lat":43.23136,"lon":5.43738,"is_reserved":false,"is_disabled":false,"rental_uris":{"android":"levelo://app?vid=0f52e640-a10d-4de9-a490-9d60e9cfc469","ios":"levelo://app?vid=0f52e640-a10d-4de9-a490-9d60e9cfc469"},"vehicle_type_id":"4","last_reported":1742987300,"current_range_meters":17600,"station_id":"ce4bhmp2rcd13ifvqgog","pricing_plan_id":"cebpf4jnsgd1na2vs0mg"},{"bike_id":"3de8532e-ac28-46ad-a8b0-c221d1179df0","system_id":"levelo_inurba_marseille","lat":43.27367,"lon":5.36263,"is_reserved":false,"is_disabled":false,"rental_uris":{"android":"levelo://app?vid=3de8532e-ac28-46ad-a8b0-c221d1179df0","ios":"levelo://app?vid=3de8532e-ac28-46ad-a8b0-c221d1179df0"},"vehicle_type_id":"4","last_reported":1742987300,"current_range_meters":17600,"station_id":"ce4bhbh2rcd13ifvqeo0","pricing_plan_id":"cebpf4jnsgd1na2vs0mg"},{"bike_id":"757c5d0c-e2df-44c9-8fa4-2a53a1400bb8","system_id":"levelo_inurba_marseille","lat":43.25003,"lon":5.38915,"is_reserved":false,"is_disabled":false,"rental_uris":{"android":"levelo://app?vid=757c5d0c-e2df-44c9-8fa4-2a53a1400bb8","ios":"levelo://app?vid=757c5d0c-e2df-44c9-8fa4-2a53a1400bb8"},"vehicle_type_id":"4","last_reported":1742987300,"current_range_meters":17600,"station_id":"ce4bhgp2rcd13ifvqfd0","pricing_plan_id":"cebpf4jnsgd1na2vs0mg"},{"bike_id":"02b33fd7-8121-462a-869c-d452f7d38878","system_id":"levelo_inurba_marseille","lat":43.244,"lon":5.37062,"is_reserved":false,"is_disabled":false,"rental_uris":{"android":"levelo://app?vid=02b33fd7-8121-462a-869c-d452f7d38878","ios":"levelo://app?vid=02b33fd7-8121-462a-869c-d452f7d38878"},"vehicle_type_id":"4","last_reported":1742987300,"current_range_meters":17600,"station_id":"ce4bhhh2rcd13ifvqfk0","pricing_plan_id":"cebpf4jnsgd1na2vs0mg"},{"bike_id":"336604d6-ec91-482b-ad5a-cb8c01e81c5d","system_id":"levelo_inurba_marseille","lat":43.23201,"lon":5.35563,"is_reserved":false,"is_disabled":false,"rental_uris":{"android":"levelo://app?vid=336604d6-ec91-482b-ad5a-cb8c01e81c5d","ios":"levelo://app?vid=336604d6-ec91-482b-ad5a-cb8c01e81c5d"},"vehicle_type_id":"4","last_reported":1742987300,"current_range_meters":17600,"station_id":"ce4bhu92rcd13ifvqi70","pricing_plan_id":"cebpf4jnsgd1na2vs0mg"},{"bike_id":"66f969cd-58a6-4271-82f9-ca87e3e928c5","system_id":"levelo_inurba_marseille","lat":43.31355,"lon":5.38492,"is_reserved":false,"is_disabled":false,"rental_uris":{"android":"levelo://app?vid=66f969cd-58a6-4271-82f9-ca87e3e928c5","ios":"levelo://app?vid=66f969cd-58a6-4271-82f9-ca87e3e928c5"},"vehicle_type_id":"4","last_reported":1742987300,"current_range_meters":18000,"station_id":"ce4bgt92rcd13ifvqcf0","pricing_plan_id":"cebpf4jnsgd1na2vs0mg"},{"bike_id":"bd86898a-3de8-4c75-af74-f5633fe51a85","system_id":"levelo_inurba_marseille","lat":43.266885,"lon":5.3826,"is_reserved":false,"is_disabled":false,"rental_uris":{"android":"levelo://app?vid=bd86898a-3de8-4c75-af74-f5633fe51a85","ios":"levelo://app?vid=bd86898a-3de8-4c75-af74-f5633fe51a85"},"vehicle_type_id":"4","last_reported":1742987300,"current_range_meters":18000,"station_id":"ce4bhg92rcd13ifvqf90","pricing_plan_id":"cebpf4jnsgd1na2vs0mg"},{"bike_id":"f9cd5bb8-bb77-42e2-867e-01ab4ea35e8a","system_id":"levelo_inurba_marseille","lat":43.23146,"lon":5.43718,"is_reserved":false,"is_disabled":false,"rental_uris":{"android":"levelo://app?vid=f9cd5bb8-bb77-42e2-867e-01ab4ea35e8a","ios":"levelo://app?vid=f9cd5bb8-bb77-42e2-867e-01ab4ea35e8a"},"vehicle_type_id":"4","last_reported":1742987300,"current_range_meters":18000,"station_id":"ce4bhmp2rcd13ifvqgog","pricing_plan_id":"cebpf4jnsgd1na2vs0mg"},{"bike_id":"5a87da14-f70e-4f60-992f-bb7a593a0175","system_id":"levelo_inurba_marseille","lat":43.25719,"lon":5.41112,"is_reserved":false,"is_disabled":false,"rental_uris":{"android":"levelo://app?vid=5a87da14-f70e-4f60-992f-bb7a593a0175","ios":"levelo://app?vid=5a87da14-f70e-4f60-992f-bb7a593a0175"},"vehicle_type_id":"4","last_reported":1742987300,"current_range_meters":18000,"station_id":"ce4bhkp2rcd13ifvqgd0","pricing_plan_id":"cebpf4jnsgd1na2vs0mg"},{"bike_id":"ede601dd-c06f-4e7f-9453-4ec6d9395e95","system_id":"levelo_inurba_marseille","lat":43.29229,"lon":5.36064,"is_reserved":false,"is_disabled":false,"rental_uris":{"android":"levelo://app?vid=ede601dd-c06f-4e7f-9453-4ec6d9395e95","ios":"levelo://app?vid=ede601dd-c06f-4e7f-9453-4ec6d9395e95"},"vehicle_type_id":"4","last_reported":1742987300,"current_range_meters":18000,"station_id":"ce4bhbh2rcd13ifvqeqg","pricing_plan_id":"cebpf4jnsgd1na2vs0mg"},{"bike_id":"b8171edd-462e-4541-8384-a9115969cebd","system_id":"levelo_inurba_marseille","lat":43.30803,"lon":5.38163,"is_reserved":false,"is_disabled":false,"rental_uris":{"android":"levelo://app?vid=b8171edd-462e-4541-8384-a9115969cebd","ios":"levelo://app?vid=b8171edd-462e-4541-8384-a9115969cebd"},"vehicle_type_id":"4","last_reported":1742987300,"current_range_meters":18000,"station_id":"ce4bgt12rcd13ifvqce0","pricing_plan_id":"cebpf4jnsgd1na2vs0mg"},{"bike_id":"b8a12883-a823-4622-bfb3-38f884af5a7b","system_id":"levelo_inurba_marseille","lat":43.30374,"lon":5.424863,"is_reserved":false,"is_disabled":false,"rental_uris":{"android":"levelo://app?vid=b8a12883-a823-4622-bfb3-38f884af5a7b","ios":"levelo://app?vid=b8a12883-a823-4622-bfb3-38f884af5a7b"},"vehicle_type_id":"4","last_reported":1742987300,"current_range_meters":18000,"station_id":"ce4bhoh2rcd13ifvqh6g","pricing_plan_id":"cebpf4jnsgd1na2vs0mg"},{"bike_id":"19221227-42ec-4f4b-8f04-42a0818e22f5","system_id":"levelo_inurba_marseille","lat":43.32108,"lon":5.36764,"is_reserved":false,"is_disabled":false,"rental_uris":{"android":"levelo://app?vid=19221227-42ec-4f4b-8f04-42a0818e22f5","ios":"levelo://app?vid=19221227-42ec-4f4b-8f04-42a0818e22f5"},"vehicle_type_id":"4","last_reported":1742987300,"current_range_meters":18000,"station_id":"ce4bhrh2rcd13ifvqhug","pricing_plan_id":"cebpf4jnsgd1na2vs0mg"},{"bike_id":"a3c04310-08fb-482c-83e9-8164ed5d67d6","system_id":"levelo_inurba_marseille","lat":43.25844,"lon":5.39912,"is_reserved":false,"is_disabled":false,"rental_uris":{"android":"levelo://app?vid=a3c04310-08fb-482c-83e9-8164ed5d67d6","ios":"levelo://app?vid=a3c04310-08fb-482c-83e9-8164ed5d67d6"},"vehicle_type_id":"4","last_reported":1742987300,"current_range_meters":18000,"station_id":"ce4bhl92rcd13ifvqghg","pricing_plan_id":"cebpf4jnsgd1na2vs0mg"},{"bike_id":"1709a57d-764d-4c0b-8bb7-10c49d5b0914","system_id":"levelo_inurba_marseille","lat":43.24695,"lon":5.3824,"is_reserved":false,"is_disabled":false,"rental_uris":{"android":"levelo://app?vid=1709a57d-764d-4c0b-8bb7-10c49d5b0914","ios":"levelo://app?vid=1709a57d-764d-4c0b-8bb7-10c49d5b0914"},"vehicle_type_id":"4","last_reported":1742987300,"current_range_meters":18000,"station_id":"","pricing_plan_id":"cebpf4jnsgd1na2vs0mg"},{"bike_id":"86dbcc20-df58-4487-ae0f-4e69391a7f65","system_id":"levelo_inurba_marseille","lat":43.30532,"lon":5.36726,"is_reserved":false,"is_disabled":false,"rental_uris":{"android":"levelo://app?vid=86dbcc20-df58-4487-ae0f-4e69391a7f65","ios":"levelo://app?vid=86dbcc20-df58-4487-ae0f-4e69391a7f65"},"vehicle_type_id":"4","last_reported":1742987300,"current_range_meters":18000,"station_id":"ce4bgrp2rcd13ifvqc9g","pricing_plan_id":"cebpf4jnsgd1na2vs0mg"},{"bike_id":"0a8abd8c-2b03-4ff4-ae37-667f8f7bcf2e","system_id":"levelo_inurba_marseille","lat":43.3091,"lon":5.36854,"is_reserved":false,"is_disabled":false,"rental_uris":{"android":"levelo://app?vid=0a8abd8c-2b03-4ff4-ae37-667f8f7bcf2e","ios":"levelo://app?vid=0a8abd8c-2b03-4ff4-ae37-667f8f7bcf2e"},"vehicle_type_id":"4","last_reported":1742987300,"current_range_meters":18000,"station_id":"ce4bgn92rcd13ifvqbvg","pricing_plan_id":"cebpf4jnsgd1na2vs0mg"},{"bike_id":"061ab7c8-0af5-4047-a3b3-eaa5bc01c8cb","system_id":"levelo_inurba_marseille","lat":43.30553,"lon":5.36566,"is_reserved":false,"is_disabled":false,"rental_uris":{"android":"levelo://app?vid=061ab7c8-0af5-4047-a3b3-eaa5bc01c8cb","ios":"levelo://app?vid=061ab7c8-0af5-4047-a3b3-eaa5bc01c8cb"},"vehicle_type_id":"4","last_reported":1742987300,"current_range_meters":18000,"station_id":"ce4bgs12rcd13ifvqcag","pricing_plan_id":"cebpf4jnsgd1na2vs0mg"},{"bike_id":"393f1a5b-0480-409d-ad08-5b224ccc6921","system_id":"levelo_inurba_marseille","lat":43.29861,"lon":5.38091,"is_reserved":false,"is_disabled":false,"rental_uris":{"android":"levelo://app?vid=393f1a5b-0480-409d-ad08-5b224ccc6921","ios":"levelo://app?vid=393f1a5b-0480-409d-ad08-5b224ccc6921"},"vehicle_type_id":"4","last_reported":1742987300,"current_range_meters":18800,"station_id":"ce4bhoh2rcd13ifvqh5g","pricing_plan_id":"cebpf4jnsgd1na2vs0mg"},{"bike_id":"177a95e6-5b67-4c28-b88c-c55145acb3ab","system_id":"levelo_inurba_marseille","lat":43.29257,"lon":5.40911,"is_reserved":false,"is_disabled":true,"rental_uris":{"android":"levelo://app?vid=177a95e6-5b67-4c28-b88c-c55145acb3ab","ios":"levelo://app?vid=177a95e6-5b67-4c28-b88c-c55145acb3ab"},"vehicle_type_id":"4","last_reported":1742987300,"current_range_meters":18800,"station_id":"ce4bh192rcd13ifvqdc0","pricing_plan_id":"cebpf4jnsgd1na2vs0mg"},{"bike_id":"233426ee-0631-4838-af86-4f72076890b0","system_id":"levelo_inurba_marseille","lat":43.23965,"lon":5.3663,"is_reserved":false,"is_disabled":false,"rental_uris":{"android":"levelo://app?vid=233426ee-0631-4838-af86-4f72076890b0","ios":"levelo://app?vid=233426ee-0631-4838-af86-4f72076890b0"},"vehicle_type_id":"4","last_reported":1742987300,"current_range_meters":18800,"station_id":"ce4bhi12rcd13ifvqfp0","pricing_plan_id":"cebpf4jnsgd1na2vs0mg"},{"bike_id":"80715446-fdba-459c-ace2-bdb7d6651fc7","system_id":"levelo_inurba_marseille","lat":43.31121,"lon":5.37769,"is_reserved":false,"is_disabled":false,"rental_uris":{"android":"levelo://app?vid=80715446-fdba-459c-ace2-bdb7d6651fc7","ios":"levelo://app?vid=80715446-fdba-459c-ace2-bdb7d6651fc7"},