{"last_updated":1738033831,"ttl":60,"version":"2.2","data":{"bikes":[{"bike_id":"5d3e4d6c-080a-45cf-96bd-4c8edc020d7b","system_id":"levelo_inurba_marseille","lat":43.30883,"lon":5.39632,"is_reserved":false,"is_disabled":false,"rental_uris":{"android":"levelo://app?vid=5d3e4d6c-080a-45cf-96bd-4c8edc020d7b","ios":"levelo://app?vid=5d3e4d6c-080a-45cf-96bd-4c8edc020d7b"},"vehicle_type_id":"4","last_reported":1738033831,"current_range_meters":38800,"station_id":"ce4bh012rcd13ifvqcv0","pricing_plan_id":"cebpf4jnsgd1na2vs0mg"},{"bike_id":"a72af8a2-47bc-4c7a-9e9c-e4668ea19e38","system_id":"levelo_inurba_marseille","lat":43.28561,"lon":5.39535,"is_reserved":false,"is_disabled":false,"rental_uris":{"android":"levelo://app?vid=a72af8a2-47bc-4c7a-9e9c-e4668ea19e38","ios":"levelo://app?vid=a72af8a2-47bc-4c7a-9e9c-e4668ea19e38"},"vehicle_type_id":"4","last_reported":1738033831,"current_range_meters":38800,"station_id":"ce4bh292rcd13ifvqdg0","pricing_plan_id":"cebpf4jnsgd1na2vs0mg"},{"bike_id":"a8b85f78-1e11-4234-a789-3eb70ce76fa5","system_id":"levelo_inurba_marseille","lat":43.312187,"lon":5.3687,"is_reserved":false,"is_disabled":false,"rental_uris":{"android":"levelo://app?vid=a8b85f78-1e11-4234-a789-3eb70ce76fa5","ios":"levelo://app?vid=a8b85f78-1e11-4234-a789-3eb70ce76fa5"},"vehicle_type_id":"4","last_reported":1738033831,"current_range_meters":38000,"station_id":"ce4bgl92rcd13ifvqbq0","pricing_plan_id":"cebpf4jnsgd1na2vs0mg"},{"bike_id":"3f3bdf4f-8b6a-4ac1-9878-7d4f6735a551","system_id":"levelo_inurba_marseille","lat":43.28372,"lon":5.3863,"is_reserved":false,"is_disabled":false,"rental_uris":{"android":"levelo://app?vid=3f3bdf4f-8b6a-4ac1-9878-7d4f6735a551","ios":"levelo://app?vid=3f3bdf4f-8b6a-4ac1-9878-7d4f6735a551"},"vehicle_type_id":"4","last_reported":1738033831,"current_range_meters":38000,"station_id":"ce4bh492rcd13ifvqdvg","pricing_plan_id":"cebpf4jnsgd1na2vs0mg"},{"bike_id":"ce9c6111-0118-42d1-bfda-6fdbc9033126","system_id":"levelo_inurba_marseille","lat":43.27992,"lon":5.40028,"is_reserved":false,"is_disabled":false,"rental_uris":{"android":"levelo://app?vid=ce9c6111-0118-42d1-bfda-6fdbc9033126","ios":"levelo://app?vid=ce9c6111-0118-42d1-bfda-6fdbc9033126"},"vehicle_type_id":"4","last_reported":1738033831,"current_range_meters":30000,"station_id":"ce4bho92rcd13ifvqh4g","pricing_plan_id":"cebpf4jnsgd1na2vs0mg"},{"bike_id":"2a8246aa-d909-49e4-a225-75c8bda9e81d","system_id":"levelo_inurba_marseille","lat":43.29276,"lon":5.4012,"is_reserved":false,"is_disabled":false,"rental_uris":{"android":"levelo://app?vid=2a8246aa-d909-49e4-a225-75c8bda9e81d","ios":"levelo://app?vid=2a8246aa-d909-49e4-a225-75c8bda9e81d"},"vehicle_type_id":"4","last_reported":1738033831,"current_range_meters":38000,"station_id":"ce4bh312rcd13ifvqdk0","pricing_plan_id":"cebpf4jnsgd1na2vs0mg"},{"bike_id":"599ab274-8890-4321-a4ec-6240d0f6d88b","system_id":"levelo_inurba_marseille","lat":43.28845,"lon":5.35869,"is_reserved":false,"is_disabled":false,"rental_uris":{"android":"levelo://app?vid=599ab274-8890-4321-a4ec-6240d0f6d88b","ios":"levelo://app?vid=599ab274-8890-4321-a4ec-6240d0f6d88b"},"vehicle_type_id":"4","last_reported":1738033831,"current_range_meters":38800,"station_id":"ce4bhb12rcd13ifvqem0","pricing_plan_id":"cebpf4jnsgd1na2vs0mg"},{"bike_id":"8b1098b1-640e-4fd5-a15c-8d21ce3dcecf","system_id":"levelo_inurba_marseille","lat":43.27987,"lon":5.40037,"is_reserved":false,"is_disabled":false,"rental_uris":{"android":"levelo://app?vid=8b1098b1-640e-4fd5-a15c-8d21ce3dcecf","ios":"levelo://app?vid=8b1098b1-640e-4fd5-a15c-8d21ce3dcecf"},"vehicle_type_id":"4","last_reported":1738033831,"current_range_meters":38800,"station_id":"ce4bho92rcd13ifvqh4g","pricing_plan_id":"cebpf4jnsgd1na2vs0mg"},{"bike_id":"d8a5ffc1-f08b-41a4-abd3-3e3332b007eb","system_id":"levelo_inurba_marseille","lat":43.3176,"lon":5.39021,"is_reserved":false,"is_disabled":false,"rental_uris":{"android":"levelo://app?vid=d8a5ffc1-f08b-41a4-abd3-3e3332b007eb","ios":"levelo://app?vid=d8a5ffc1-f08b-41a4-abd3-3e3332b007eb"},"vehicle_type_id":"4","last_reported":1738033831,"current_range_meters":9600,"station_id":"ce4bhqp2rcd13ifvqhng","pricing_plan_id":"cebpf4jnsgd1na2vs0mg"},{"bike_id":"016df488-a883-41f8-ac53-5f03791bc4fe","system_id":"levelo_inurba_marseille","lat":43.30889,"lon":5.39631,"is_reserved":false,"is_disabled":true,"rental_uris":{"android":"levelo://app?vid=016df488-a883-41f8-ac53-5f03791bc4fe","ios":"levelo://app?vid=016df488-a883-41f8-ac53-5f03791bc4fe"},"vehicle_type_id":"4","last_reported":1738033831,"current_range_meters":0,"station_id":"ce4bh012rcd13ifvqcv0","pricing_plan_id":"cebpf4jnsgd1na2vs0mg"},{"bike_id":"b5806460-5201-4da1-a3a1-d0125617505b","system_id":"levelo_inurba_marseille","lat":43.29058,"lon":5.3992,"is_reserved":false,"is_disabled":false,"rental_uris":{"android":"levelo://app?vid=b5806460-5201-4da1-a3a1-d0125617505b","ios":"levelo://app?vid=b5806460-5201-4da1-a3a1-d0125617505b"},"vehicle_type_id":"4","last_reported":1738033831,"current_range_meters":38400,"station_id":"ce4bh392rcd13ifvqdm0","pricing_plan_id":"cebpf4jnsgd1na2vs0mg"},{"bike_id":"9bf91b9a-17a5-4f8b-8342-540883cf53a3","system_id":"levelo_inurba_marseille","lat":43.29206,"lon":5.39318,"is_reserved":false,"is_disabled":false,"rental_uris":{"android":"levelo://app?vid=9bf91b9a-17a5-4f8b-8342-540883cf53a3","ios":"levelo://app?vid=9bf91b9a-17a5-4f8b-8342-540883cf53a3"},"vehicle_type_id":"4","last_reported":1738033831,"current_range_meters":33200,"station_id":"ce4bh192rcd13ifvqdd0","pricing_plan_id":"cebpf4jnsgd1na2vs0mg"},{"bike_id":"e3c59c26-9125-4a51-8f29-53dafec98527","system_id":"levelo_inurba_marseille","lat":43.299009,"lon":5.397443,"is_reserved":false,"is_disabled":false,"rental_uris":{"android":"levelo://app?vid=e3c59c26-9125-4a51-8f29-53dafec98527","ios":"levelo://app?vid=e3c59c26-9125-4a51-8f29-53dafec98527"},"vehicle_type_id":"4","last_reported":1738033831,"current_range_meters":39200,"station_id":"ce4bh0h2rcd13ifvqd50","pricing_plan_id":"cebpf4jnsgd1na2vs0mg"},{"bike_id":"0530cb7c-053b-49d0-b7a6-1800095bf1aa","system_id":"levelo_inurba_marseille","lat":43.29519,"lon":5.39031,"is_reserved":false,"is_disabled":false,"rental_uris":{"android":"levelo://app?vid=0530cb7c-053b-49d0-b7a6-1800095bf1aa","ios":"levelo://app?vid=0530cb7c-053b-49d0-b7a6-1800095bf1aa"},"vehicle_type_id":"4","last_reported":1738033831,"current_range_meters":38800,"station_id":"ce4bh3p2rcd13ifvqdp0","pricing_plan_id":"cebpf4jnsgd1na2vs0mg"},{"bike_id":"d1005862-4bfe-477a-9e05-78e14cdb6942","system_id":"levelo_inurba_marseille","lat":43.29541,"lon":5.42275,"is_reserved":false,"is_disabled":false,"rental_uris":{"android":"levelo://app?vid=d1005862-4bfe-477a-9e05-78e14cdb6942","ios":"levelo://app?vid=d1005862-4bfe-477a-9e05-78e14cdb6942"},"vehicle_type_id":"4","last_reported":1738033831,"current_range_meters":38400,"station_id":"ce4bhph2rcd13ifvqhdg","pricing_plan_id":"cebpf4jnsgd1na2vs0mg"},{"bike_id":"db913c79-4ab1-4c85-b882-18e791694c41","system_id":"levelo_inurba_marseille","lat":43.26538,"lon":5.39004,"is_reserved":false,"is_disabled":false,"rental_uris":{"android":"levelo://app?vid=db913c79-4ab1-4c85-b882-18e791694c41","ios":"levelo://app?vid=db913c79-4ab1-4c85-b882-18e791694c41"},"vehicle_type_id":"4","last_reported":1738033831,"current_range_meters":22000,"station_id":"ce4bhe12rcd13ifvqf30","pricing_plan_id":"cebpf4jnsgd1na2vs0mg"},{"bike_id":"f7df50db-bd6c-4322-8381-2e55957c1047","system_id":"levelo_inurba_marseille","lat":43.29522,"lon":5.3941,"is_reserved":false,"is_disabled":false,"rental_uris":{"android":"levelo://app?vid=f7df50db-bd6c-4322-8381-2e55957c1047","ios":"levelo://app?vid=f7df50db-bd6c-4322-8381-2e55957c1047"},"vehicle_type_id":"4","last_reported":1738033831,"current_range_meters":38800,"station_id":"ce4bh292rcd13ifvqdf0","pricing_plan_id":"cebpf4jnsgd1na2vs0mg"},{"bike_id":"1766969c-93bb-4f2e-85b4-137d694d2edc","system_id":"levelo_inurba_marseille","lat":43.32344,"lon":5.4062,"is_reserved":false,"is_disabled":false,"rental_uris":{"android":"levelo://app?vid=1766969c-93bb-4f2e-85b4-137d694d2edc","ios":"levelo://app?vid=1766969c-93bb-4f2e-85b4-137d694d2edc"},"vehicle_type_id":"4","last_reported":1738033831,"current_range_meters":13600,"station_id":"ce4bhq92rcd13ifvqhjg","pricing_plan_id":"cebpf4jnsgd1na2vs0mg"},{"bike_id":"c96545e6-b3fa-4a6b-836e-d89ea478e5d1","system_id":"levelo_inurba_marseille","lat":43.25002,"lon":5.38927,"is_reserved":false,"is_disabled":false,"rental_uris":{"android":"levelo://app?vid=c96545e6-b3fa-4a6b-836e-d89ea478e5d1","ios":"levelo://app?vid=c96545e6-b3fa-4a6b-836e-d89ea478e5d1"},"vehicle_type_id":"4","last_reported":1738033831,"current_range_meters":38800,"station_id":"ce4bhgp2rcd13ifvqfd0","pricing_plan_id":"cebpf4jnsgd1na2vs0mg"},{"bike_id":"50481764-4b9f-4ae2-9d4d-3410a5a0415c","system_id":"levelo_inurba_marseille","lat":43.28109,"lon":5.37833,"is_reserved":false,"is_disabled":false,"rental_uris":{"android":"levelo://app?vid=50481764-4b9f-4ae2-9d4d-3410a5a0415c","ios":"levelo://app?vid=50481764-4b9f-4ae2-9d4d-3410a5a0415c"},"vehicle_type_id":"4","last_reported":1738033831,"current_range_meters":18000,"station_id":"ce4bha12rcd13ifvqee0","pricing_plan_id":"cebpf4jnsgd1na2vs0mg"},{"bike_id":"cfff1edf-189f-4cb0-80dd-22014a7dc63a","system_id":"levelo_inurba_marseille","lat":43.24819,"lon":5.37461,"is_reserved":false,"is_disabled":false,"rental_uris":{"android":"levelo://app?vid=cfff1edf-189f-4cb0-80dd-22014a7dc63a","ios":"levelo://app?vid=cfff1edf-189f-4cb0-80dd-22014a7dc63a"},"vehicle_type_id":"4","last_reported":1738033831,"current_range_meters":16000,"station_id":"ce4bhgh2rcd13ifvqfb0","pricing_plan_id":"cebpf4jnsgd1na2vs0mg"},{"bike_id":"db8dd69b-a04d-48ca-b575-caa6145464e2","system_id":"levelo_inurba_marseille","lat":43.30883,"lon":5.39646,"is_reserved":false,"is_disabled":false,"rental_uris":{"android":"levelo://app?vid=db8dd69b-a04d-48ca-b575-caa6145464e2","ios":"levelo://app?vid=db8dd69b-a04d-48ca-b575-caa6145464e2"},"vehicle_type_id":"4","last_reported":1738033831,"current_range_meters":39200,"station_id":"ce4bh012rcd13ifvqcv0","pricing_plan_id":"cebpf4jnsgd1na2vs0mg"},{"bike_id":"96c6d005-88bb-4fd6-98f4-0a014c553eb8","system_id":"levelo_inurba_marseille","lat":43.330189,"lon":5.390424,"is_reserved":false,"is_disabled":false,"rental_uris":{"android":"levelo://app?vid=96c6d005-88bb-4fd6-98f4-0a014c553eb8","ios":"levelo://app?vid=96c6d005-88bb-4fd6-98f4-0a014c553eb8"},"vehicle_type_id":"4","last_reported":1738033831,"current_range_meters":38800,"station_id":"ce4bhr92rcd13ifvqhrg","pricing_plan_id":"cebpf4jnsgd1na2vs0mg"},{"bike_id":"aef48f7d-ad65-4794-90f3-b8d23f4ebb8e","system_id":"levelo_inurba_marseille","lat":43.30943,"lon":5.40153,"is_reserved":false,"is_disabled":false,"rental_uris":{"android":"levelo://app?vid=aef48f7d-ad65-4794-90f3-b8d23f4ebb8e","ios":"levelo://app?vid=aef48f7d-ad65-4794-90f3-b8d23f4ebb8e"},"vehicle_type_id":"4","last_reported":1738033831,"current_range_meters":38800,"station_id":"ce4bgvp2rcd13ifvqct0","pricing_plan_id":"cebpf4jnsgd1na2vs0mg"},{"bike_id":"5c388708-e3f2-4bbd-88d9-c199a31e81f9","system_id":"levelo_inurba_marseille","lat":43.28708,"lon":5.39987,"is_reserved":false,"is_disabled":true,"rental_uris":{"android":"levelo://app?vid=5c388708-e3f2-4bbd-88d9-c199a31e81f9","ios":"levelo://app?vid=5c388708-e3f2-4bbd-88d9-c199a31e81f9"},"vehicle_type_id":"4","last_reported":1738033831,"current_range_meters":38800,"station_id":"ce4bho92rcd13ifvqh3g","pricing_plan_id":"cebpf4jnsgd1na2vs0mg"},{"bike_id":"c6b2aeea-8be6-4ed0-8019-7e88f71bd8d8","system_id":"levelo_inurba_marseille","lat":43.298476,"lon":5.362921,"is_reserved":false,"is_disabled":true,"rental_uris":{"android":"levelo://app?vid=c6b2aeea-8be6-4ed0-8019-7e88f71bd8d8","ios":"levelo://app?vid=c6b2aeea-8be6-4ed0-8019-7e88f71bd8d8"},"vehicle_type_id":"4","last_reported":1738033831,"current_range_meters":28400,"station_id":"ce4bgpp2rcd13ifvqc3g","pricing_plan_id":"cebpf4jnsgd1na2vs0mg"},{"bike_id":"7b2f5f64-8d5b-4c7d-a864-3b434ad17a80","system_id":"levelo_inurba_marseille","lat":43.28898,"lon":5.35499,"is_reserved":false,"is_disabled":false,"rental_uris":{"android":"levelo://app?vid=7b2f5f64-8d5b-4c7d-a864-3b434ad17a80","ios":"levelo://app?vid=7b2f5f64-8d5b-4c7d-a864-3b434ad17a80"},"vehicle_type_id":"4","last_reported":1738033831,"current_range_meters":20400,"station_id":"","pricing_plan_id":"cebpf4jnsgd1na2vs0mg"},{"bike_id":"78d0469b-a6d8-42b5-94c6-9df02b87dea9","system_id":"levelo_inurba_marseille","lat":43.29529,"lon":5.39063,"is_reserved":false,"is_disabled":false,"rental_uris":{"android":"levelo://app?vid=78d0469b-a6d8-42b5-94c6-9df02b87dea9","ios":"levelo://app?vid=78d0469b-a6d8-42b5-94c6-9df02b87dea9"},"vehicle_type_id":"4","last_reported":1738033831,"current_range_meters":39200,"station_id":"ce4bh3p2rcd13ifvqdp0","pricing_plan_id":"cebpf4jnsgd1na2vs0mg"},{"bike_id":"49ac70a6-f431-448f-8b78-0c0b9150bb51","system_id":"levelo_inurba_marseille","lat":43.31273,"lon":5.40173,"is_reserved":false,"is_disabled":false,"rental_uris":{"android":"levelo://app?vid=49ac70a6-f431-448f-8b78-0c0b9150bb51","ios":"levelo://app?vid=49ac70a6-f431-448f-8b78-0c0b9150bb51"},"vehicle_type_id":"4","last_reported":1738033831,"current_range_meters":38800,"station_id":"ce4bh092rcd13ifvqd30","pricing_plan_id":"cebpf4jnsgd1na2vs0mg"},{"bike_id":"f1478252-0ff0-429b-ad9d-6b698be91871","system_id":"levelo_inurba_marseille","lat":43.30858,"lon":5.40179,"is_reserved":false,"is_disabled":false,"rental_uris":{"android":"levelo://app?vid=f1478252-0ff0-429b-ad9d-6b698be91871","ios":"levelo://app?vid=f1478252-0ff0-429b-ad9d-6b698be91871"},"vehicle_type_id":"4","last_reported":1738033831,"current_range_meters":39200,"station_id":"ce4bgvp2rcd13ifvqct0","pricing_plan_id":"cebpf4jnsgd1na2vs0mg"},{"bike_id":"19706af8-586b-49a5-b9e3-753b677c6211","system_id":"levelo_inurba_marseille","lat":43.30892,"lon":5.37184,"is_reserved":false,"is_disabled":false,"rental_uris":{"android":"levelo://app?vid=19706af8-586b-49a5-b9e3-753b677c6211","ios":"levelo://app?vid=19706af8-586b-49a5-b9e3-753b677c6211"},"vehicle_type_id":"4","last_reported":1738033831,"current_range_meters":16000,"station_id":"ce4bguh2rcd13ifvqckg","pricing_plan_id":"cebpf4jnsgd1na2vs0mg"},{"bike_id":"cef90edd-63c0-4c92-b1f4-180f7bbb4380","system_id":"levelo_inurba_marseille","lat":43.25713,"lon":5.41033,"is_reserved":false,"is_disabled":false,"rental_uris":{"android":"levelo://app?vid=cef90edd-63c0-4c92-b1f4-180f7bbb4380","ios":"levelo://app?vid=cef90edd-63c0-4c92-b1f4-180f7bbb4380"},"vehicle_type_id":"4","last_reported":1738033831,"current_range_meters":30800,"station_id":"ce4bhkp2rcd13ifvqgd0","pricing_plan_id":"cebpf4jnsgd1na2vs0mg"},{"bike_id":"6b817946-470b-4911-9117-790b8c0e9806","system_id":"levelo_inurba_marseille","lat":43.25111,"lon":5.40322,"is_reserved":false,"is_disabled":false,"rental_uris":{"android":"levelo://app?vid=6b817946-470b-4911-9117-790b8c0e9806","ios":"levelo://app?vid=6b817946-470b-4911-9117-790b8c0e9806"},"vehicle_type_id":"4","last_reported":1738033831,"current_range_meters":33600,"station_id":"ce4bhlh2rcd13ifvqgig","pricing_plan_id":"cebpf4jnsgd1na2vs0mg"},{"bike_id":"1fda7476-d39b-4c78-975e-470429d515ee","system_id":"levelo_inurba_marseille","lat":43.269372,"lon":5.389196,"is_reserved":false,"is_disabled":false,"rental_uris":{"android":"levelo://app?vid=1fda7476-d39b-4c78-975e-470429d515ee","ios":"levelo://app?vid=1fda7476-d39b-4c78-975e-470429d515ee"},"vehicle_type_id":"4","last_reported":1738033831,"current_range_meters":38000,"station_id":"ce4bhhh2rcd13ifvqfl0","pricing_plan_id":"cebpf4jnsgd1na2vs0mg"},{"bike_id":"d999bd9f-6214-4f0c-9578-310af25f727d","system_id":"levelo_inurba_marseille","lat":43.2864,"lon":5.35091,"is_reserved":false,"is_disabled":false,"rental_uris":{"android":"levelo://app?vid=d999bd9f-6214-4f0c-9578-310af25f727d","ios":"levelo://app?vid=d999bd9f-6214-4f0c-9578-310af25f727d"},"vehicle_type_id":"4","last_reported":1738033831,"current_range_meters":29600,"station_id":"ce4bhch2rcd13ifvqeug","pricing_plan_id":"cebpf4jnsgd1na2vs0mg"},{"bike_id":"5ee6b4c2-9001-47f9-bb00-d7d6cd07ed33","system_id":"levelo_inurba_marseille","lat":43.31285,"lon":5.40164,"is_reserved":false,"is_disabled":false,"rental_uris":{"android":"levelo://app?vid=5ee6b4c2-9001-47f9-bb00-d7d6cd07ed33","ios":"levelo://app?vid=5ee6b4c2-9001-47f9-bb00-d7d6cd07ed33"},"vehicle_type_id":"4","last_reported":1738033831,"current_range_meters":20400,"station_id":"ce4bh092rcd13ifvqd30","pricing_plan_id":"cebpf4jnsgd1na2vs0mg"},{"bike_id":"8453a0c4-33e9-480c-a7ee-1e14bdee2642","system_id":"levelo_inurba_marseille","lat":43.27913,"lon":5.39578,"is_reserved":false,"is_disabled":false,"rental_uris":{"android":"levelo://app?vid=8453a0c4-33e9-480c-a7ee-1e14bdee2642","ios":"levelo://app?vid=8453a0c4-33e9-480c-a7ee-1e14bdee2642"},"vehicle_type_id":"4","last_reported":1738033831,"current_range_meters":38000,"station_id":"ce4bhf92rcd13ifvqf40","pricing_plan_id":"cebpf4jnsgd1na2vs0mg"},{"bike_id":"b92110b7-a00c-4b0a-b2e8-36af254e050e","system_id":"levelo_inurba_marseille","lat":43.30796,"lon":5.43531,"is_reserved":false,"is_disabled":false,"rental_uris":{"android":"levelo://app?vid=b92110b7-a00c-4b0a-b2e8-36af254e050e","ios":"levelo://app?vid=b92110b7-a00c-4b0a-b2e8-36af254e050e"},"vehicle_type_id":"4","last_reported":1738033831,"current_range_meters":20000,"station_id":"ce4bhph2rcd13ifvqheg","pricing_plan_id":"cebpf4jnsgd1na2vs0mg"},{"bike_id":"ce4703a7-d94e-46b6-be89-2a6a3ff40401","system_id":"levelo_inurba_marseille","lat":43.30931,"lon":5.40149,"is_reserved":false,"is_disabled":false,"rental_uris":{"android":"levelo://app?vid=ce4703a7-d94e-46b6-be89-2a6a3ff40401","ios":"levelo://app?vid=ce4703a7-d94e-46b6-be89-2a6a3ff40401"},"vehicle_type_id":"4","last_reported":1738033831,"current_range_meters":38800,"station_id":"ce4bgvp2rcd13ifvqct0","pricing_plan_id":"cebpf4jnsgd1na2vs0mg"},{"bike_id":"9d3ff5ec-7a89-43f6-8395-b2d32e35b19d","system_id":"levelo_inurba_marseille","lat":43.285643,"lon":5.395056,"is_reserved":false,"is_disabled":false,"rental_uris":{"android":"levelo://app?vid=9d3ff5ec-7a89-43f6-8395-b2d32e35b19d","ios":"levelo://app?vid=9d3ff5ec-7a89-43f6-8395-b2d32e35b19d"},"vehicle_type_id":"4","last_reported":1738033831,"current_range_meters":39200,"station_id":"ce4bh292rcd13ifvqdg0","pricing_plan_id":"cebpf4jnsgd1na2vs0mg"},{"bike_id":"efbdb8cf-f7c0-4e8a-91ef-35df262b82bd","system_id":"levelo_inurba_marseille","lat":43.294378,"lon":5.397478,"is_reserved":false,"is_disabled":false,"rental_uris":{"android":"levelo://app?vid=efbdb8cf-f7c0-4e8a-91ef-35df262b82bd","ios":"levelo://app?vid=efbdb8cf-f7c0-4e8a-91ef-35df262b82bd"},"vehicle_type_id":"4","last_reported":1738033831,"current_range_meters":17200,"station_id":"ce4bh3h2rcd13ifvqdo0","pricing_plan_id":"cebpf4jnsgd1na2vs0mg"},{"bike_id":"75f78423-7bb1-46bc-9291-8f61438106b2","system_id":"levelo_inurba_marseille","lat":43.3301,"lon":5.39042,"is_reserved":false,"is_disabled":false,"rental_uris":{"android":"levelo://app?vid=75f78423-7bb1-46bc-9291-8f61438106b2","ios":"levelo://app?vid=75f78423-7bb1-46bc-9291-8f61438106b2"},"vehicle_type_id":"4","last_reported":1738033831,"current_range_meters":30800,"station_id":"ce4bhr92rcd13ifvqhrg","pricing_plan_id":"cebpf4jnsgd1na2vs0mg"},{"bike_id":"a046f3ca-81fd-4416-97f1-f8041b5393f1","system_id":"levelo_inurba_marseille","lat":43.31078,"lon":5.38356,"is_reserved":false,"is_disabled":false,"rental_uris":{"android":"levelo://app?vid=a046f3ca-81fd-4416-97f1-f8041b5393f1","ios":"levelo://app?vid=a046f3ca-81fd-4416-97f1-f8041b5393f1"},"vehicle_type_id":"4","last_reported":1738033831,"current_range_meters":36000,"station_id":"ce4bgv92rcd13ifvqcr0","pricing_plan_id":"cebpf4jnsgd1na2vs0mg"},{"bike_id":"b13cc429-d7fe-4464-ab21-9a5f3ea519db","system_id":"levelo_inurba_marseille","lat":43.30545,"lon":5.3843,"is_reserved":false,"is_disabled":false,"rental_uris":{"android":"levelo://app?vid=b13cc429-d7fe-4464-ab21-9a5f3ea519db","ios":"levelo://app?vid=b13cc429-d7fe-4464-ab21-9a5f3ea519db"},"vehicle_type_id":"4","last_reported":1738033831,"current_range_meters":24800,"station_id":"ce4bgg92rcd13ifvqb30","pricing_plan_id":"cebpf4jnsgd1na2vs0mg"},{"bike_id":"6c565b62-b5d3-4320-9acd-b1433f62b7bb","system_id":"levelo_inurba_marseille","lat":43.28455,"lon":5.35885,"is_reserved":false,"is_disabled":false,"rental_uris":{"android":"levelo://app?vid=6c565b62-b5d3-4320-9acd-b1433f62b7bb","ios":"levelo://app?vid=6c565b62-b5d3-4320-9acd-b1433f62b7bb"},"vehicle_type_id":"4","last_reported":1738033831,"current_range_meters":36000,"station_id":"ce4bhah2rcd13ifvqei0","pricing_plan_id":"cebpf4jnsgd1na2vs0mg"},{"bike_id":"74c0dc82-96a1-4a30-9ee9-f13d758b49a2","system_id":"levelo_inurba_marseille","lat":43.30323,"lon":5.40445,"is_reserved":false,"is_disabled":false,"rental_uris":{"android":"levelo://app?vid=74c0dc82-96a1-4a30-9ee9-f13d758b49a2","ios":"levelo://app?vid=74c0dc82-96a1-4a30-9ee9-f13d758b49a2"},"vehicle_type_id":"4","last_reported":1738033831,"current_range_meters":20000,"station_id":"ce4bh012rcd13ifvqd10","pricing_plan_id":"cebpf4jnsgd1na2vs0mg"},{"bike_id":"d474a662-3a78-44f0-af88-33fb73350cac","system_id":"levelo_inurba_marseille","lat":43.292497,"lon":5.409163,"is_reserved":false,"is_disabled":false,"rental_uris":{"android":"levelo://app?vid=d474a662-3a78-44f0-af88-33fb73350cac","ios":"levelo://app?vid=d474a662-3a78-44f0-af88-33fb73350cac"},"vehicle_type_id":"4","last_reported":1738033831,"current_range_meters":38800,"station_id":"ce4bh192rcd13ifvqdc0","pricing_plan_id":"cebpf4jnsgd1na2vs0mg"},{"bike_id":"6948d733-4ce5-4907-9262-0116317002d6","system_id":"levelo_inurba_marseille","lat":43.25075,"lon":5.39516,"is_reserved":false,"is_disabled":false,"rental_uris":{"android":"levelo://app?vid=6948d733-4ce5-4907-9262-0116317002d6","ios":"levelo://app?vid=6948d733-4ce5-4907-9262-0116317002d6"},"vehicle_type_id":"4","last_reported":1738033831,"current_range_meters":17200,"station_id":"ce4bhm12rcd13ifvqgkg","pricing_plan_id":"cebpf4jnsgd1na2vs0mg"},{"bike_id":"8dc6d3c3-b827-4f86-876a-7f8860fc5819","system_id":"levelo_inurba_marseille","lat":43.284551,"lon":5.358912,"is_reserved":false,"is_disabled":false,"rental_uris":{"android":"levelo://app?vid=8dc6d3c3-b827-4f86-876a-7f8860fc5819","ios":"levelo://app?vid=8dc6d3c3-b827-4f86-876a-7f8860fc5819"},"vehicle_type_id":"4","last_reported":1738033831,"current_range_meters":28800,"station_id":"ce4bhah2rcd13ifvqei0","pricing_plan_id":"cebpf4jnsgd1na2vs0mg"},{"bike_id":"a0b9cd6c-c875-49b5-9730-db3796dd717c","system_id":"levelo_inurba_marseille","lat":43.27069,"lon":5.40262,"is_reserved":false,"is_disabled":false,"rental_uris":{"android":"levelo://app?vid=a0b9cd6c-c875-49b5-9730-db3796dd717c","ios":"levelo://app?vid=a0b9cd6c-c875-49b5-9730-db3796dd717c"},"vehicle_type_id":"4","last_reported":1738033831,"current_range_meters":36800,"station_id":"ce4bhk92rcd13ifvqgc0","pricing_plan_id":"cebpf4jnsgd1na2vs0mg"},{"bike_id":"c7830262-ea23-45f4-9a23-990ed17ebf09","system_id":"levelo_inurba_marseille","lat":43.29876,"lon":5.39738,"is_reserved":false,"is_disabled":true,"rental_uris":{"android":"levelo://app?vid=c7830262-ea23-45f4-9a23-990ed17ebf09","ios":"levelo://app?vid=c7830262-ea23-45f4-9a23-990ed17ebf09"},"vehicle_type_id":"4","last_reported":1738033831,"current_range_meters":38800,"station_id":"ce4bh0h2rcd13ifvqd50","pricing_plan_id":"cebpf4jnsgd1na2vs0mg"},{"bike_id":"57ae508b-8b5e-4582-92ef-8f8000ce59c7","system_id":"levelo_inurba_marseille","lat":43.27994,"lon":5.40024,"is_reserved":false,"is_disabled":false,"rental_uris":{"android":"levelo://app?vid=57ae508b-8b5e-4582-92ef-8f8000ce59c7","ios":"levelo://app?vid=57ae508b-8b5e-4582-92ef-8f8000ce59c7"},"vehicle_type_id":"4","last_reported":1738033831,"current_range_meters":38400,"station_id":"ce4bho92rcd13ifvqh4g","pricing_plan_id":"cebpf4jnsgd1na2vs0mg"},{"bike_id":"6e81003b-1ed6-4bcc-bd22-c21300ab9348","system_id":"levelo_inurba_marseille","lat":43.28112,"lon":5.37845,"is_reserved":false,"is_disabled":false,"rental_uris":{"android":"levelo://app?vid=6e81003b-1ed6-4bcc-bd22-c21300ab9348","ios":"levelo://app?vid=6e81003b-1ed6-4bcc-bd22-c21300ab9348"},"vehicle_type_id":"4","last_reported":1738033831,"current_range_meters":38800,"station_id":"ce4bha12rcd13ifvqee0","pricing_plan_id":"cebpf4jnsgd1na2vs0mg"},{"bike_id":"74a8ba08-10bd-4bfd-830f-e130dab90166","system_id":"levelo_inurba_marseille","lat":43.27818,"lon":5.40719,"is_reserved":false,"is_disabled":false,"rental_uris":{"android":"levelo://app?vid=74a8ba08-10bd-4bfd-830f-e130dab90166","ios":"levelo://app?vid=74a8ba08-10bd-4bfd-830f-e130dab90166"},"vehicle_type_id":"4","last_reported":1738033831,"current_range_meters":28800,"station_id":"ce4bhnh2rcd13ifvqgtg","pricing_plan_id":"cebpf4jnsgd1na2vs0mg"},{"bike_id":"47ce9f76-20d2-4e32-9ac4-627b684ea49c","system_id":"levelo_inurba_marseille","lat":43.28097,"lon":5.37855,"is_reserved":false,"is_disabled":false,"rental_uris":{"android":"levelo://app?vid=47ce9f76-20d2-4e32-9ac4-627b684ea49c","ios":"levelo://app?vid=47ce9f76-20d2-4e32-9ac4-627b684ea49c"},"vehicle_type_id":"4","last_reported":1738033831,"current_range_meters":36400,"station_id":"ce4bha12rcd13ifvqee0","pricing_plan_id":"cebpf4jnsgd1na2vs0mg"},{"bike_id":"7fc942fc-b8cf-424a-806f-ec87840357cf","system_id":"levelo_inurba_marseille","lat":43.27182,"lon":5.40993,"is_reserved":false,"is_disabled":false,"rental_uris":{"android":"levelo://app?vid=7fc942fc-b8cf-424a-806f-ec87840357cf","ios":"levelo://app?vid=7fc942fc-b8cf-424a-806f-ec87840357cf"},"vehicle_type_id":"4","last_reported":1738033831,"current_range_meters":34000,"station_id":"ce4bhl12rcd13ifvqgf0","pricing_plan_id":"cebpf4jnsgd1na2vs0mg"},{"bike_id":"38540e81-16ab-49ee-bc5b-9723b654df44","system_id":"levelo_inurba_marseille","lat":43.2782,"lon":5.4071,"is_reserved":false,"is_disabled":true,"rental_uris":{"android":"levelo://app?vid=38540e81-16ab-49ee-bc5b-9723b654df44","ios":"levelo://app?vid=38540e81-16ab-49ee-bc5b-9723b654df44"},"vehicle_type_id":"4","last_reported":1738033831,"current_range_meters":12400,"station_id":"ce4bhnh2rcd13ifvqgtg","pricing_plan_id":"cebpf4jnsgd1na2vs0mg"},{"bike_id":"0a3c2fc6-3a3b-4b11-853c-a8532910522d","system_id":"levelo_inurba_marseille","lat":43.31745,"lon":5.3901,"is_reserved":false,"is_disabled":false,"rental_uris":{"android":"levelo://app?vid=0a3c2fc6-3a3b-4b11-853c-a8532910522d","ios":"levelo://app?vid=0a3c2fc6-3a3b-4b11-853c-a8532910522d"},"vehicle_type_id":"4","last_reported":1738033831,"current_range_meters":26800,"station_id":"ce4bhqp2rcd13ifvqhng","pricing_plan_id":"cebpf4jnsgd1na2vs0mg"},{"bike_id":"98a1848f-ac18-43e1-8b20-1c0f9d780370","system_id":"levelo_inurba_marseille","lat":43.30901,"lon":5.37179,"is_reserved":false,"is_disabled":false,"rental_uris":{"android":"levelo://app?vid=98a1848f-ac18-43e1-8b20-1c0f9d780370","ios":"levelo://app?vid=98a1848f-ac18-43e1-8b20-1c0f9d780370"},"vehicle_type_id":"4","last_reported":1738033831,"current_range_meters":38800,"station_id":"ce4bguh2rcd13ifvqckg","pricing_plan_id":"cebpf4jnsgd1na2vs0mg"},{"bike_id":"05bbe8ea-c027-4de3-b671-dc5037921c82","system_id":"levelo_inurba_marseille","lat":43.24657,"lon":5.38127,"is_reserved":false,"is_disabled":false,"rental_uris":{"android":"levelo://app?vid=05bbe8ea-c027-4de3-b671-dc5037921c82","ios":"levelo://app?vid=05bbe8ea-c027-4de3-b671-dc5037921c82"},"vehicle_type_id":"4","last_reported":1738033831,"current_range_meters":38800,"station_id":"ce4bhih2rcd13ifvqfr0","pricing_plan_id":"cebpf4jnsgd1na2vs0mg"},{"bike_id":"7125fabb-d4fe-450e-b9a8-9b858c3dc86d","system_id":"levelo_inurba_marseille","lat":43.32459,"lon":5.36594,"is_reserved":false,"is_disabled":false,"rental_uris":{"android":"levelo://app?vid=7125fabb-d4fe-450e-b9a8-9b858c3dc86d","ios":"levelo://app?vid=7125fabb-d4fe-450e-b9a8-9b858c3dc86d"},"vehicle_type_id":"4","last_reported":1738033831,"current_range_meters":30400,"station_id":"ce4bhs12rcd13ifvqhvg","pricing_plan_id":"cebpf4jnsgd1na2vs0mg"},{"bike_id":"04eef5f1-9910-4247-adcc-3c9ac71da897","system_id":"levelo_inurba_marseille","lat":43.2868,"lon":5.36354,"is_reserved":false,"is_disabled":false,"rental_uris":{"android":"levelo://app?vid=04eef5f1-9910-4247-adcc-3c9ac71da897","ios":"levelo://app?vid=04eef5f1-9910-4247-adcc-3c9ac71da897"},"vehicle_type_id":"4","last_reported":1738033831,"current_range_meters":38800,"station_id":"ce4bhah2rcd13ifvqej0","pricing_plan_id":"cebpf4jnsgd1na2vs0mg"},{"bike_id":"3ec52b4d-cf80-449d-bd30-9db7519a9ed7","system_id":"levelo_inurba_marseille","lat":43.270605,"lon":5.402646,"is_reserved":false,"is_disabled":false,"rental_uris":{"android":"levelo://app?vid=3ec52b4d-cf80-449d-bd30-9db7519a9ed7","ios":"levelo://app?vid=3ec52b4d-cf80-449d-bd30-9db7519a9ed7"},"vehicle_type_id":"4","last_reported":1738033831,"current_range_meters":9200,"station_id":"ce4bhk92rcd13ifvqgc0","pricing_plan_id":"cebpf4jnsgd1na2vs0mg"},{"bike_id":"dcdd58f1-c264-4524-a17f-80a20d13576c","system_id":"levelo_inurba_marseille","lat":43.27914,"lon":5.3801,"is_reserved":false,"is_disabled":false,"rental_uris":{"android":"levelo://app?vid=dcdd58f1-c264-4524-a17f-80a20d13576c","ios":"levelo://app?vid=dcdd58f1-c264-4524-a17f-80a20d13576c"},"vehicle_type_id":"4","last_reported":1738033831,"current_range_meters":25600,"station_id":"ce4bhf92rcd13ifvqf50","pricing_plan_id":"cebpf4jnsgd1na2vs0mg"},{"bike_id":"a1aa1119-c115-4bd2-b453-11981a3bd34e","system_id":"levelo_inurba_marseille","lat":43.28036,"lon":5.36947,"is_reserved":false,"is_disabled":false,"rental_uris":{"android":"levelo://app?vid=a1aa1119-c115-4bd2-b453-11981a3bd34e","ios":"levelo://app?vid=a1aa1119-c115-4bd2-b453-11981a3bd34e"},"vehicle_type_id":"4","last_reported":1738033831,"current_range_meters":38800,"station_id":"ce4bha12rcd13ifvqef0","pricing_plan_id":"cebpf4jnsgd1na2vs0mg"},{"bike_id":"4ce9eda4-7d12-49f2-aec0-eb18d235e7b8","system_id":"levelo_inurba_marseille","lat":43.2783,"lon":5.40723,"is_reserved":false,"is_disabled":false,"rental_uris":{"android":"levelo://app?vid=4ce9eda4-7d12-49f2-aec0-eb18d235e7b8","ios":"levelo://app?vid=4ce9eda4-7d12-49f2-aec0-eb18d235e7b8"},"vehicle_type_id":"4","last_reported":1738033831,"current_range_meters":38800,"station_id":"ce4bhnh2rcd13ifvqgtg","pricing_plan_id":"cebpf4jnsgd1na2vs0mg"},{"bike_id":"ae328ec3-88e1-4cf4-b7cb-126554e6a47b","system_id":"levelo_inurba_marseille","lat":43.31797,"lon":5.40373,"is_reserved":false,"is_disabled":false,"rental_uris":{"android":"levelo://app?vid=ae328ec3-88e1-4cf4-b7cb-126554e6a47b","ios":"levelo://app?vid=ae328ec3-88e1-4cf4-b7cb-126554e6a47b"},"vehicle_type_id":"4","last_reported":1738033831,"current_range_meters":38000,"station_id":"","pricing_plan_id":"cebpf4jnsgd1na2vs0mg"},{"bike_id":"9838cc78-2b53-49d3-ae13-82df62c4fd64","system_id":"levelo_inurba_marseille","lat":43.28412,"lon":5.40934,"is_reserved":false,"is_disabled":true,"rental_uris":{"android":"levelo://app?vid=9838cc78-2b53-49d3-ae13-82df62c4fd64","ios":"levelo://app?vid=9838cc78-2b53-49d3-ae13-82df62c4fd64"},"vehicle_type_id":"4","last_reported":1738033831,"current_range_meters":0,"station_id":"","pricing_plan_id":"cebpf4jnsgd1na2vs0mg"},{"bike_id":"e84309d5-d9b9-4b56-83b2-5c5aaf4ef291","system_id":"levelo_inurba_marseille","lat":43.27853,"lon":5.39226,"is_reserved":false,"is_disabled":false,"rental_uris":{"android":"levelo://app?vid=e84309d5-d9b9-4b56-83b2-5c5aaf4ef291","ios":"levelo://app?vid=e84309d5-d9b9-4b56-83b2-5c5aaf4ef291"},"vehicle_type_id":"4","last_reported":1738033831,"current_range_meters":28400,"station_id":"ce4bhjp2rcd13ifvqga0","pricing_plan_id":"cebpf4jnsgd1na2vs0mg"},{"bike_id":"f3a886a3-500d-4d32-a120-4a7101c0f911","system_id":"levelo_inurba_marseille","lat":43.26911,"lon":5.40282,"is_reserved":false,"is_disabled":false,"rental_uris":{"android":"levelo://app?vid=f3a886a3-500d-4d32-a120-4a7101c0f911","ios":"levelo://app?vid=f3a886a3-500d-4d32-a120-4a7101c0f911"},"vehicle_type_id":"4","last_reported":1738033831,"current_range_meters":38800,"station_id":"cjm6bp8fraef2m0cb0m0","pricing_plan_id":"cebpf4jnsgd1na2vs0mg"},{"bike_id":"fc4db651-928a-4d23-8342-01c0fe9bae42","system_id":"levelo_inurba_marseille","lat":43.3112,"lon":5.37767,"is_reserved":false,"is_disabled":false,"rental_uris":{"android":"levelo://app?vid=fc4db651-928a-4d23-8342-01c0fe9bae42","ios":"levelo://app?vid=fc4db651-928a-4d23-8342-01c0fe9bae42"},"vehicle_type_id":"4","last_reported":1738033831,"current_range_meters":35600,"station_id":"ce4bgt92rcd13ifvqcg0","pricing_plan_id":"cebpf4jnsgd1na2vs0mg"},{"bike_id":"dd364a76-e3be-4d4b-ad71-ea78cc2f6455","system_id":"levelo_inurba_marseille","lat":43.30892,"lon":5.37188,"is_reserved":false,"is_disabled":false,"rental_uris":{"android":"levelo://app?vid=dd364a76-e3be-4d4b-ad71-ea78cc2f6455","ios":"levelo://app?vid=dd364a76-e3be-4d4b-ad71-ea78cc2f6455"},"vehicle_type_id":"4","last_reported":1738033831,"current_range_meters":39200,"station_id":"ce4bguh2rcd13ifvqckg","pricing_plan_id":"cebpf4jnsgd1na2vs0mg"},{"bike_id":"c84c943b-b110-44b2-91f8-c6182498c720","system_id":"levelo_inurba_marseille","lat":43.28093,"lon":5.39645,"is_reserved":false,"is_disabled":false,"rental_uris":{"android":"levelo://app?vid=c84c943b-b110-44b2-91f8-c6182498c720","ios":"levelo://app?vid=c84c943b-b110-44b2-91f8-c6182498c720"},"vehicle_type_id":"4","last_reported":1738033831,"current_range_meters":25200,"station_id":"ce4bho12rcd13ifvqh2g","pricing_plan_id":"cebpf4jnsgd1na2vs0mg"},{"bike_id":"43999a85-2c03-405e-a87e-fc2aeca1fb12","system_id":"levelo_inurba_marseille","lat":43.31068,"lon":5.3837,"is_reserved":false,"is_disabled":false,"rental_uris":{"android":"levelo://app?vid=43999a85-2c03-405e-a87e-fc2aeca1fb12","ios":"levelo://app?vid=43999a85-2c03-405e-a87e-fc2aeca1fb12"},"vehicle_type_id":"4","last_reported":1738033831,"current_range_meters":38400,"station_id":"ce4bgv92rcd13ifvqcr0","pricing_plan_id":"cebpf4jnsgd1na2vs0mg"},{"bike_id":"5fa241af-ff37-49ce-bf70-bbf2d0e80cee","system_id":"levelo_inurba_marseille","lat":43.29195,"lon":5.39326,"is_reserved":false,"is_disabled":false,"rental_uris":{"android":"levelo://app?vid=5fa241af-ff37-49ce-bf70-bbf2d0e80cee","ios":"levelo://app?vid=5fa241af-ff37-49ce-bf70-bbf2d0e80cee"},"vehicle_type_id":"4","last_reported":1738033831,"current_range_meters":20400,"station_id":"ce4bh192rcd13ifvqdd0","pricing_plan_id":"cebpf4jnsgd1na2vs0mg"},{"bike_id":"3ebb2553-92bb-4ae0-bdcc-f7d9b978feec","system_id":"levelo_inurba_marseille","lat":43.30893,"lon":5.39633,"is_reserved":false,"is_disabled":false,"rental_uris":{"android":"levelo://app?vid=3ebb2553-92bb-4ae0-bdcc-f7d9b978feec","ios":"levelo://app?vid=3ebb2553-92bb-4ae0-bdcc-f7d9b978feec"},"vehicle_type_id":"4","last_reported":1738033831,"current_range_meters":27600,"station_id":"ce4bh012rcd13ifvqcv0","pricing_plan_id":"cebpf4jnsgd1na2vs0mg"},{"bike_id":"128c4ccc-6acf-4c66-b6c9-06bfd01e54b2","system_id":"levelo_inurba_marseille","lat":43.30915,"lon":5.36866,"is_reserved":false,"is_disabled":false,"rental_uris":{"android":"levelo://app?vid=128c4ccc-6acf-4c66-b6c9-06bfd01e54b2","ios":"levelo://app?vid=128c4ccc-6acf-4c66-b6c9-06bfd01e54b2"},"vehicle_type_id":"4","last_reported":1738033831,"current_range_meters":36400,"station_id":"ce4bgn92rcd13ifvqbvg","pricing_plan_id":"cebpf4jnsgd1na2vs0mg"},{"bike_id":"230c87b1-3499-4025-90a7-5e0cca844bdb","system_id":"levelo_inurba_marseille","lat":43.30746,"lon":5.38172,"is_reserved":false,"is_disabled":false,"rental_uris":{"android":"levelo://app?vid=230c87b1-3499-4025-90a7-5e0cca844bdb","ios":"levelo://app?vid=230c87b1-3499-4025-90a7-5e0cca844bdb"},"vehicle_type_id":"4","last_reported":1738033831,"current_range_meters":24800,"station_id":"ce4bgt12rcd13ifvqce0","pricing_plan_id":"cebpf4jnsgd1na2vs0mg"},{"bike_id":"aad69bc3-bc1b-4156-a313-be595f833cb2","system_id":"levelo_inurba_marseille","lat":43.27063,"lon":5.42278,"is_reserved":false,"is_disabled":false,"rental_uris":{"android":"levelo://app?vid=aad69bc3-bc1b-4156-a313-be595f833cb2","ios":"levelo://app?vid=aad69bc3-bc1b-4156-a313-be595f833cb2"},"vehicle_type_id":"4","last_reported":1738033831,"current_range_meters":39200,"station_id":"ce4bhk92rcd13ifvqgb0","pricing_plan_id":"cebpf4jnsgd1na2vs0mg"},{"bike_id":"7bac2d4a-c4f9-4029-aa21-e8c1da9ea4fb","system_id":"levelo_inurba_marseille","lat":43.27942,"lon":5.41069,"is_reserved":false,"is_disabled":false,"rental_uris":{"android":"levelo://app?vid=7bac2d4a-c4f9-4029-aa21-e8c1da9ea4fb","ios":"levelo://app?vid=7bac2d4a-c4f9-4029-aa21-e8c1da9ea4fb"},"vehicle_type_id":"4","last_reported":1738033831,"current_range_meters":30400,"station_id":"ce4bhnp2rcd13ifvqh0g","pricing_plan_id":"cebpf4jnsgd1na2vs0mg"},{"bike_id":"2e0a8b86-b457-48a0-8577-213b01080398","system_id":"levelo_inurba_marseille","lat":43.23189,"lon":5.3555,"is_reserved":false,"is_disabled":false,"rental_uris":{"android":"levelo://app?vid=2e0a8b86-b457-48a0-8577-213b01080398","ios":"levelo://app?vid=2e0a8b86-b457-48a0-8577-213b01080398"},"vehicle_type_id":"4","last_reported":1738033831,"current_range_meters":38800,"station_id":"ce4bhu92rcd13ifvqi70","pricing_plan_id":"cebpf4jnsgd1na2vs0mg"},{"bike_id":"de1fc9e1-ac80-4d48-bbfb-bd031efff56d","system_id":"levelo_inurba_marseille","lat":43.29879,"lon":5.39751,"is_reserved":false,"is_disabled":false,"rental_uris":{"android":"levelo://app?vid=de1fc9e1-ac80-4d48-bbfb-bd031efff56d","ios":"levelo://app?vid=de1fc9e1-ac80-4d48-bbfb-bd031efff56d"},"vehicle_type_id":"4","last_reported":1738033831,"current_range_meters":38800,"station_id":"ce4bh0h2rcd13ifvqd50","pricing_plan_id":"cebpf4jnsgd1na2vs0mg"},{"bike_id":"eefc26b4-ceeb-447b-96e9-86927bc262df","system_id":"levelo_inurba_marseille","lat":43.278886,"lon":5.380074,"is_reserved":false,"is_disabled":false,"rental_uris":{"android":"levelo://app?vid=eefc26b4-ceeb-447b-96e9-86927bc262df","ios":"levelo://app?vid=eefc26b4-ceeb-447b-96e9-86927bc262df"},"vehicle_type_id":"4","last_reported":1738033831,"current_range_meters":39200,"station_id":"ce4bhf92rcd13ifvqf50","pricing_plan_id":"cebpf4jnsgd1na2vs0mg"},{"bike_id":"d979d8d2-ec65-47af-9229-e4270aab279a","system_id":"levelo_inurba_marseille","lat":43.23061,"lon":5.3549,"is_reserved":false,"is_disabled":false,"rental_uris":{"android":"levelo://app?vid=d979d8d2-ec65-47af-9229-e4270aab279a","ios":"levelo://app?vid=d979d8d2-ec65-47af-9229-e4270aab279a"},"vehicle_type_id":"4","last_reported":1738033831,"current_range_meters":25600,"station_id":"cpo3342slgdg3j2ifvpg","pricing_plan_id":"cebpf4jnsgd1na2vs0mg"},{"bike_id":"beec82ff-6bac-4064-befa-4bdf4421761b","system_id":"levelo_inurba_marseille","lat":43.31734,"lon":5.42397,"is_reserved":false,"is_disabled":false,"rental_uris":{"android":"levelo://app?vid=beec82ff-6bac-4064-befa-4bdf4421761b","ios":"levelo://app?vid=beec82ff-6bac-4064-befa-4bdf4421761b"},"vehicle_type_id":"4","last_reported":1738033831,"current_range_meters":8800,"station_id":"ce4bhp92rcd13ifvqhbg","pricing_plan_id":"cebpf4jnsgd1na2vs0mg"},{"bike_id":"fcd87167-ca69-4acc-9014-02c3d57a54f0","system_id":"levelo_inurba_marseille","lat":43.32537,"lon":5.41437,"is_reserved":false,"is_disabled":false,"rental_uris":{"android":"levelo://app?vid=fcd87167-ca69-4acc-9014-02c3d57a54f0","ios":"levelo://app?vid=fcd87167-ca69-4acc-9014-02c3d57a54f0"},"vehicle_type_id":"4","last_reported":1738033831,"current_range_meters":38000,"station_id":"ce4bhq12rcd13ifvqhhg","pricing_plan_id":"cebpf4jnsgd1na2vs0mg"},{"bike_id":"cc405da5-2efa-43f4-9ab4-8edf8dade4c3","system_id":"levelo_inurba_marseille","lat":43.29804,"lon":5.40408,"is_reserved":false,"is_disabled":false,"rental_uris":{"android":"levelo://app?vid=cc405da5-2efa-43f4-9ab4-8edf8dade4c3","ios":"levelo://app?vid=cc405da5-2efa-43f4-9ab4-8edf8dade4c3"},"vehicle_type_id":"4","last_reported":1738033831,"current_range_meters":38800,"station_id":"ce4bh112rcd13ifvqd90","pricing_plan_id":"cebpf4jnsgd1na2vs0mg"},{"bike_id":"386318f4-3af7-405e-a1e4-4b7d40f54b1e","system_id":"levelo_inurba_marseille","lat":43.28466,"lon":5.35884,"is_reserved":false,"is_disabled":false,"rental_uris":{"android":"levelo://app?vid=386318f4-3af7-405e-a1e4-4b7d40f54b1e","ios":"levelo://app?vid=386318f4-3af7-405e-a1e4-4b7d40f54b1e"},"vehicle_type_id":"4","last_reported":1738033831,"current_range_meters":23200,"station_id":"ce4bhah2rcd13ifvqei0","pricing_plan_id":"cebpf4jnsgd1na2vs0mg"},{"bike_id":"eecca6bf-8b74-40da-aaa1-519ada23f008","system_id":"levelo_inurba_marseille","lat":43.26813,"lon":5.40294,"is_reserved":false,"is_disabled":false,"rental_uris":{"android":"levelo://app?vid=eecca6bf-8b74-40da-aaa1-519ada23f008","ios":"levelo://app?vid=eecca6bf-8b74-40da-aaa1-519ada23f008"},"vehicle_type_id":"4","last_reported":1738033831,"current_range_meters":23200,"station_id":"ce501612rcd8frsf0b60","pricing_plan_id":"cebpf4jnsgd1na2vs0mg"},{"bike_id":"ae00de2f-f31f-40c5-afd5-77a43823ef3d","system_id":"levelo_inurba_marseille","lat":43.33018,"lon":5.39045,"is_reserved":false,"is_disabled":false,"rental_uris":{"android":"levelo://app?vid=ae00de2f-f31f-40c5-afd5-77a43823ef3d","ios":"levelo://app?vid=ae00de2f-f31f-40c5-afd5-77a43823ef3d"},"vehicle_type_id":"4","last_reported":1738033831,"current_range_meters":38800,"station_id":"ce4bhr92rcd13ifvqhrg","pricing_plan_id":"cebpf4jnsgd1na2vs0mg"},{"bike_id":"111cd83f-915e-4da7-a1a0-ae833719fe5c","system_id":"levelo_inurba_marseille","lat":43.28659,"lon":5.36346,"is_reserved":false,"is_disabled":false,"rental_uris":{"android":"levelo://app?vid=111cd83f-915e-4da7-a1a0-ae833719fe5c","ios":"levelo://app?vid=111cd83f-915e-4da7-a1a0-ae833719fe5c"},"vehicle_type_id":"4","last_reported":1738033831,"current_range_meters":38800,"station_id":"ce4bhah2rcd13ifvqej0","pricing_plan_id":"cebpf4jnsgd1na2vs0mg"},{"bike_id":"5937b866-d252-4b41-8069-13c64613e401","system_id":"levelo_inurba_marseille","lat":43.28722,"lon":5.36084,"is_reserved":false,"is_disabled":false,"rental_uris":{"android":"levelo://app?vid=5937b866-d252-4b41-8069-13c64613e401","ios":"levelo://app?vid=5937b866-d252-4b41-8069-13c64613e401"},"vehicle_type_id":"4","last_reported":1738033831,"current_range_meters":20000,"station_id":"cki0cbj6b192h4jlfktg","pricing_plan_id":"cebpf4jnsgd1na2vs0mg"},{"bike_id":"a269c400-22d8-47c0-b20a-9f0db0330475","system_id":"levelo_inurba_marseille","lat":43.287285,"lon":5.360841,"is_reserved":false,"is_disabled":false,"rental_uris":{"android":"levelo://app?vid=a269c400-22d8-47c0-b20a-9f0db0330475","ios":"levelo://app?vid=a269c400-22d8-47c0-b20a-9f0db0330475"},"vehicle_type_id":"4","last_reported":1738033831,"current_range_meters":35200,"station_id":"cki0cbj6b192h4jlfktg","pricing_plan_id":"cebpf4jnsgd1na2vs0mg"},{"bike_id":"35a82818-c0b5-4843-8960-4aa7a5551031","system_id":"levelo_inurba_marseille","lat":43.32355,"lon":5.38893,"is_reserved":false,"is_disabled":false,"rental_uris":{"android":"levelo://app?vid=35a82818-c0b5-4843-8960-4aa7a5551031","ios":"levelo://app?vid=35a82818-c0b5-4843-8960-4aa7a5551031"},"vehicle_type_id":"4","last_reported":1738033831,"current_range_meters":38400,"station_id":"ce4bhqp2rcd13ifvqhog","pricing_plan_id":"cebpf4jnsgd1na2vs0mg"},{"bike_id":"75214a19-3086-4aab-8ba6-a177978da634","system_id":"levelo_inurba_marseille","lat":43.29898,"lon":5.43664,"is_reserved":false,"is_disabled":false,"rental_uris":{"android":"levelo://app?vid=75214a19-3086-4aab-8ba6-a177978da634","ios":"levelo://app?vid=75214a19-3086-4aab-8ba6-a177978da634"},"vehicle_type_id":"4","last_reported":1738033831,"current_range_meters":37600,"station_id":"ce4bhpp2rcd13ifvqhfg","pricing_plan_id":"cebpf4jnsgd1na2vs0mg"},{"bike_id":"30bbb00e-1612-4a25-b2e9-c8ad656fb58a","system_id":"levelo_inurba_marseille","lat":43.3372,"lon":5.3917,"is_reserved":false,"is_disabled":false,"rental_uris":{"android":"levelo://app?vid=30bbb00e-1612-4a25-b2e9-c8ad656fb58a","ios":"levelo://app?vid=30bbb00e-1612-4a25-b2e9-c8ad656fb58a"},"vehicle_type_id":"4","last_reported":1738033831,"current_range_meters":38800,"station_id":"ce4bhr92rcd13ifvqhsg","pricing_plan_id":"cebpf4jnsgd1na2vs0mg"},{"bike_id":"cdba9093-1e92-471c-a6ea-8ba6d1c21ef6","system_id":"levelo_inurba_marseille","lat":43.30438,"lon":5.38896,"is_reserved":false,"is_disabled":true,"rental_uris":{"android":"levelo://app?vid=cdba9093-1e92-471c-a6ea-8ba6d1c21ef6","ios":"levelo://app?vid=cdba9093-1e92-471c-a6ea-8ba6d1c21ef6"},"vehicle_type_id":"4","last_reported":1738033831,"current_range_meters":35200,"station_id":"ce4bgk12rcd13ifvqbi0","pricing_plan_id":"cebpf4jnsgd1na2vs0mg"},{"bike_id":"6eb6899d-e11a-4acb-8661-25de9e49d2b4","system_id":"levelo_inurba_marseille","lat":43.31487,"lon":5.37301,"is_reserved":false,"is_disabled":false,"rental_uris":{"android":"levelo://app?vid=6eb6899d-e11a-4acb-8661-25de9e49d2b4","ios":"levelo://app?vid=6eb6899d-e11a-4acb-8661-25de9e49d2b4"},"vehicle_type_id":"4","last_reported":1738033831,"current_range_meters":38800,"station_id":"ce4bgt12rcd13ifvqcd0","pricing_plan_id":"cebpf4jnsgd1na2vs0mg"},{"bike_id":"489f6534-c1d5-483f-a648-2a087319e607","system_id":"levelo_inurba_marseille","lat":43.33015,"lon":5.39044,"is_reserved":false,"is_disabled":false,"rental_uris":{"android":"levelo://app?vid=489f6534-c1d5-483f-a648-2a087319e607","ios":"levelo://app?vid=489f6534-c1d5-483f-a648-2a087319e607"},"vehicle_type_id":"4","last_reported":1738033831,"current_range_meters":38000,"station_id":"ce4bhr92rcd13ifvqhrg","pricing_plan_id":"cebpf4jnsgd1na2vs0mg"},{"bike_id":"2ff348f7-eb79-4d05-8616-b3f897716e87","system_id":"levelo_inurba_marseille","lat":43.286699,"lon":5.36353,"is_reserved":false,"is_disabled":false,"rental_uris":{"android":"levelo://app?vid=2ff348f7-eb79-4d05-8616-b3f897716e87","ios":"levelo://app?vid=2ff348f7-eb79-4d05-8616-b3f897716e87"},"vehicle_type_id":"4","last_reported":1738033831,"current_range_meters":38800,"station_id":"ce4bhah2rcd13ifvqej0","pricing_plan_id":"cebpf4jnsgd1na2vs0mg"},{"bike_id":"580828f0-3b12-422d-95d2-0d346530f1dd","system_id":"levelo_inurba_marseille","lat":43.25079,"lon":5.3952,"is_reserved":false,"is_disabled":false,"rental_uris":{"android":"levelo://app?vid=580828f0-3b12-422d-95d2-0d346530f1dd","ios":"levelo://app?vid=580828f0-3b12-422d-95d2-0d346530f1dd"},"vehicle_type_id":"4","last_reported":1738033831,"current_range_meters":20800,"station_id":"ce4bhm12rcd13ifvqgkg","pricing_plan_id":"cebpf4jnsgd1na2vs0mg"},{"bike_id":"ae5416a2-6c59-4a34-b7c0-6d55011ade6c","system_id":"levelo_inurba_marseille","lat":43.306018,"lon":5.372304,"is_reserved":false,"is_disabled":false,"rental_uris":{"android":"levelo://app?vid=ae5416a2-6c59-4a34-b7c0-6d55011ade6c","ios":"levelo://app?vid=ae5416a2-6c59-4a34-b7c0-6d55011ade6c"},"vehicle_type_id":"4","last_reported":1738033831,"current_range_meters":38800,"station_id":"ce4bgqh2rcd13ifvqc4g","pricing_plan_id":"cebpf4jnsgd1na2vs0mg"},{"bike_id":"1b6d1f5b-b5e8-43dd-b451-e58d9fbc5288","system_id":"levelo_inurba_marseille","lat":43.30886,"lon":5.36856,"is_reserved":false,"is_disabled":false,"rental_uris":{"android":"levelo://app?vid=1b6d1f5b-b5e8-43dd-b451-e58d9fbc5288","ios":"levelo://app?vid=1b6d1f5b-b5e8-43dd-b451-e58d9fbc5288"},"vehicle_type_id":"4","last_reported":1738033831,"current_range_meters":16000,"station_id":"ce4bgn92rcd13ifvqbvg","pricing_plan_id":"cebpf4jnsgd1na2vs0mg"},{"bike_id":"b0f25628-041b-415c-9ab4-3a6d6f8ac50f","system_id":"levelo_inurba_marseille","lat":43.29856,"lon":5.36292,"is_reserved":false,"is_disabled":true,"rental_uris":{"android":"levelo://app?vid=b0f25628-041b-415c-9ab4-3a6d6f8ac50f","ios":"levelo://app?vid=b0f25628-041b-415c-9ab4-3a6d6f8ac50f"},"vehicle_type_id":"4","last_reported":1738033831,"current_range_meters":2000,"station_id":"ce4bgpp2rcd13ifvqc3g","pricing_plan_id":"cebpf4jnsgd1na2vs0mg"},{"bike_id":"3c9c9088-9c27-4609-bc62-8218c0dc2be8","system_id":"levelo_inurba_marseille","lat":43.23202,"lon":5.35567,"is_reserved":false,"is_disabled":false,"rental_uris":{"android":"levelo://app?vid=3c9c9088-9c27-4609-bc62-8218c0dc2be8","ios":"levelo://app?vid=3c9c9088-9c27-4609-bc62-8218c0dc2be8"},"vehicle_type_id":"4","last_reported":1738033831,"current_range_meters":35200,"station_id":"ce4bhu92rcd13ifvqi70","pricing_plan_id":"cebpf4jnsgd1na2vs0mg"},{"bike_id":"802ba57e-b132-41ce-a88a-44790a953939","system_id":"levelo_inurba_marseille","lat":43.28406,"lon":5.37526,"is_reserved":false,"is_disabled":false,"rental_uris":{"android":"levelo://app?vid=802ba57e-b132-41ce-a88a-44790a953939","ios":"levelo://app?vid=802ba57e-b132-41ce-a88a-44790a953939"},"vehicle_type_id":"4","last_reported":1738033831,"current_range_meters":19600,"station_id":"ce4bh412rcd13ifvqds0","pricing_plan_id":"cebpf4jnsgd1na2vs0mg"},{"bike_id":"2070dd69-bac9-4b28-938a-3282a1b78ff4","system_id":"levelo_inurba_marseille","lat":43.312855,"lon":5.401739,"is_reserved":false,"is_disabled":false,"rental_uris":{"android":"levelo://app?vid=2070dd69-bac9-4b28-938a-3282a1b78ff4","ios":"levelo://app?vid=2070dd69-bac9-4b28-938a-3282a1b78ff4"},"vehicle_type_id":"4","last_reported":1738033831,"current_range_meters":26800,"station_id":"ce4bh092rcd13ifvqd30","pricing_plan_id":"cebpf4jnsgd1na2vs0mg"},{"bike_id":"a4ebca99-a7a3-497b-b464-c384db188e87","system_id":"levelo_inurba_marseille","lat":43.27989,"lon":5.40024,"is_reserved":false,"is_disabled":false,"rental_uris":{"android":"levelo://app?vid=a4ebca99-a7a3-497b-b464-c384db188e87","ios":"levelo://app?vid=a4ebca99-a7a3-497b-b464-c384db188e87"},"vehicle_type_id":"4","last_reported":1738033831,"current_range_meters":17200,"station_id":"ce4bho92rcd13ifvqh4g","pricing_plan_id":"cebpf4jnsgd1na2vs0mg"},{"bike_id":"1bef781a-3151-4305-acfe-bb8b83a0459f","system_id":"levelo_inurba_marseille","lat":43.31276,"lon":5.40163,"is_reserved":false,"is_disabled":false,"rental_uris":{"android":"levelo://app?vid=1bef781a-3151-4305-acfe-bb8b83a0459f","ios":"levelo://app?vid=1bef781a-3151-4305-acfe-bb8b83a0459f"},"vehicle_type_id":"4","last_reported":1738033831,"current_range_meters":8400,"station_id":"ce4bh092rcd13ifvqd30","pricing_plan_id":"cebpf4jnsgd1na2vs0mg"},{"bike_id":"f641019e-ae72-4887-8885-437b0b08b2c6","system_id":"levelo_inurba_marseille","lat":43.27839,"lon":5.39216,"is_reserved":false,"is_disabled":false,"rental_uris":{"android":"levelo://app?vid=f641019e-ae72-4887-8885-437b0b08b2c6","ios":"levelo://app?vid=f641019e-ae72-4887-8885-437b0b08b2c6"},"vehicle_type_id":"4","last_reported":1738033831,"current_range_meters":39200,"station_id":"ce4bhjp2rcd13ifvqga0","pricing_plan_id":"cebpf4jnsgd1na2vs0mg"},{"bike_id":"fee42053-044b-44e8-9daf-c358f0c77f1b","system_id":"levelo_inurba_marseille","lat":43.262051,"lon":5.379295,"is_reserved":false,"is_disabled":false,"rental_uris":{"android":"levelo://app?vid=fee42053-044b-44e8-9daf-c358f0c77f1b","ios":"levelo://app?vid=fee42053-044b-44e8-9daf-c358f0c77f1b"},"vehicle_type_id":"4","last_reported":1738033831,"current_range_meters":34000,"station_id":"ce4bhjp2rcd13ifvqg90","pricing_plan_id":"cebpf4jnsgd1na2vs0mg"},{"bike_id":"a0994a02-8889-4967-9cc2-4e2174b8d66a","system_id":"levelo_inurba_marseille","lat":43.291858,"lon":5.358015,"is_reserved":false,"is_disabled":false,"rental_uris":{"android":"levelo://app?vid=a0994a02-8889-4967-9cc2-4e2174b8d66a","ios":"levelo://app?vid=a0994a02-8889-4967-9cc2-4e2174b8d66a"},"vehicle_type_id":"4","last_reported":1738033831,"current_range_meters":39200,"station_id":"ce4bhb12rcd13ifvqel0","pricing_plan_id":"cebpf4jnsgd1na2vs0mg"},{"bike_id":"df1440ab-6c98-4811-96ed-60cc1ae214b5","system_id":"levelo_inurba_marseille","lat":43.240801,"lon":5.37749,"is_reserved":false,"is_disabled":false,"rental_uris":{"android":"levelo://app?vid=df1440ab-6c98-4811-96ed-60cc1ae214b5","ios":"levelo://app?vid=df1440ab-6c98-4811-96ed-60cc1ae214b5"},"vehicle_type_id":"4","last_reported":1738033831,"current_range_meters":39200,"station_id":"ce4bhnp2rcd13ifvqgvg","pricing_plan_id":"cebpf4jnsgd1na2vs0mg"},{"bike_id":"47c13c22-8671-4a7b-a0f0-1846e8355cdb","system_id":"levelo_inurba_marseille","lat":43.322914,"lon":5.382786,"is_reserved":false,"is_disabled":false,"rental_uris":{"android":"levelo://app?vid=47c13c22-8671-4a7b-a0f0-1846e8355cdb","ios":"levelo://app?vid=47c13c22-8671-4a7b-a0f0-1846e8355cdb"},"vehicle_type_id":"4","last_reported":1738033831,"current_range_meters":38800,"station_id":"ce4bhr12rcd13ifvqhqg","pricing_plan_id":"cebpf4jnsgd1na2vs0mg"},{"bike_id":"1c581695-a09f-4d6a-8281-14f18a045579","system_id":"levelo_inurba_marseille","lat":43.28842,"lon":5.35864,"is_reserved":false,"is_disabled":false,"rental_uris":{"android":"levelo://app?vid=1c581695-a09f-4d6a-8281-14f18a045579","ios":"levelo://app?vid=1c581695-a09f-4d6a-8281-14f18a045579"},"vehicle_type_id":"4","last_reported":1738033831,"current_range_meters":8400,"station_id":"ce4bhb12rcd13ifvqem0","pricing_plan_id":"cebpf4jnsgd1na2vs0mg"},{"bike_id":"b58e9c2c-f4fa-4e4d-a3e6-d964f639b0fc","system_id":"levelo_inurba_marseille","lat":43.31346,"lon":5.36734,"is_reserved":false,"is_disabled":false,"rental_uris":{"android":"levelo://app?vid=b58e9c2c-f4fa-4e4d-a3e6-d964f639b0fc","ios":"levelo://app?vid=b58e9c2c-f4fa-4e4d-a3e6-d964f639b0fc"},"vehicle_type_id":"4","last_reported":1738033831,"current_range_meters":38000,"station_id":"ce4bgr92rcd13ifvqc6g","pricing_plan_id":"cebpf4jnsgd1na2vs0mg"},{"bike_id":"8707dca8-5fb6-4e35-a1ec-1f30a01fea05","system_id":"levelo_inurba_marseille","lat":43.29553,"lon":5.42287,"is_reserved":false,"is_disabled":false,"rental_uris":{"android":"levelo://app?vid=8707dca8-5fb6-4e35-a1ec-1f30a01fea05","ios":"levelo://app?vid=8707dca8-5fb6-4e35-a1ec-1f30a01fea05"},"vehicle_type_id":"4","last_reported":1738033831,"current_range_meters":38000,"station_id":"ce4bhph2rcd13ifvqhdg","pricing_plan_id":"cebpf4jnsgd1na2vs0mg"},{"bike_id":"e0fade64-91d9-4903-a251-c4a96dc0bffd","system_id":"levelo_inurba_marseille","lat":43.27978,"lon":5.41653,"is_reserved":false,"is_disabled":false,"rental_uris":{"android":"levelo://app?vid=e0fade64-91d9-4903-a251-c4a96dc0bffd","ios":"levelo://app?vid=e0fade64-91d9-4903-a251-c4a96dc0bffd"},"vehicle_type_id":"4","last_reported":1738033831,"current_range_meters":37600,"station_id":"ce4bho12rcd13ifvqh1g","pricing_plan_id":"cebpf4jnsgd1na2vs0mg"},{"bike_id":"0005933a-ba48-4456-845b-69f26885e176","system_id":"levelo_inurba_marseille","lat":43.28026,"lon":5.36935,"is_reserved":false,"is_disabled":false,"rental_uris":{"android":"levelo://app?vid=0005933a-ba48-4456-845b-69f26885e176","ios":"levelo://app?vid=0005933a-ba48-4456-845b-69f26885e176"},"vehicle_type_id":"4","last_reported":1738033831,"current_range_meters":38800,"station_id":"ce4bha12rcd13ifvqef0","pricing_plan_id":"cebpf4jnsgd1na2vs0mg"},{"bike_id":"bd0a4b3a-0002-476a-9750-d6e2675c7bd4","system_id":"levelo_inurba_marseille","lat":43.29197,"lon":5.35808,"is_reserved":false,"is_disabled":false,"rental_uris":{"android":"levelo://app?vid=bd0a4b3a-0002-476a-9750-d6e2675c7bd4","ios":"levelo://app?vid=bd0a4b3a-0002-476a-9750-d6e2675c7bd4"},"vehicle_type_id":"4","last_reported":1738033831,"current_range_meters":38800,"station_id":"ce4bhb12rcd13ifvqel0","pricing_plan_id":"cebpf4jnsgd1na2vs0mg"},{"bike_id":"820ceefe-e382-4b6d-b0e9-2613498393b8","system_id":"levelo_inurba_marseille","lat":43.299344,"lon":5.365269,"is_reserved":false,"is_disabled":false,"rental_uris":{"android":"levelo://app?vid=820ceefe-e382-4b6d-b0e9-2613498393b8","ios":"levelo://app?vid=820ceefe-e382-4b6d-b0e9-2613498393b8"},"vehicle_type_id":"4","last_reported":1738033831,"current_range_meters":9600,"station_id":"ce4bgm92rcd13ifvqbr0","pricing_plan_id":"cebpf4jnsgd1na2vs0mg"},{"bike_id":"4ab1c826-01de-4db1-bc4a-2fac2dfbb3c6","system_id":"levelo_inurba_marseille","lat":43.28001,"lon":5.40022,"is_reserved":false,"is_disabled":false,"rental_uris":{"android":"levelo://app?vid=4ab1c826-01de-4db1-bc4a-2fac2dfbb3c6","ios":"levelo://app?vid=4ab1c826-01de-4db1-bc4a-2fac2dfbb3c6"},"vehicle_type_id":"4","last_reported":1738033831,"current_range_meters":38400,"station_id":"ce4bho92rcd13ifvqh4g","pricing_plan_id":"cebpf4jnsgd1na2vs0mg"},{"bike_id":"69ce8d0c-588e-4c30-a562-30efa4d55efa","system_id":"levelo_inurba_marseille","lat":43.2857,"lon":5.39491,"is_reserved":false,"is_disabled":false,"rental_uris":{"android":"levelo://app?vid=69ce8d0c-588e-4c30-a562-30efa4d55efa","ios":"levelo://app?vid=69ce8d0c-588e-4c30-a562-30efa4d55efa"},"vehicle_type_id":"4","last_reported":1738033831,"current_range_meters":36800,"station_id":"ce4bh292rcd13ifvqdg0","pricing_plan_id":"cebpf4jnsgd1na2vs0mg"},{"bike_id":"2256710f-428a-4b6c-afaf-f485da875c48","system_id":"levelo_inurba_marseille","lat":43.28615,"lon":5.35097,"is_reserved":false,"is_disabled":false,"rental_uris":{"android":"levelo://app?vid=2256710f-428a-4b6c-afaf-f485da875c48","ios":"levelo://app?vid=2256710f-428a-4b6c-afaf-f485da875c48"},"vehicle_type_id":"4","last_reported":1738033831,"current_range_meters":17200,"station_id":"ce4bhch2rcd13ifvqeug","pricing_plan_id":"cebpf4jnsgd1na2vs0mg"},{"bike_id":"ab2c796a-c23b-4a3a-9534-777b873d6a05","system_id":"levelo_inurba_marseille","lat":43.241701,"lon":5.364027,"is_reserved":false,"is_disabled":false,"rental_uris":{"android":"levelo://app?vid=ab2c796a-c23b-4a3a-9534-777b873d6a05","ios":"levelo://app?vid=ab2c796a-c23b-4a3a-9534-777b873d6a05"},"vehicle_type_id":"4","last_reported":1738033831,"current_range_meters":23200,"station_id":"cpo36qri1sfpv3e86is0","pricing_plan_id":"cebpf4jnsgd1na2vs0mg"},{"bike_id":"b97e5ebe-a5da-4b6a-bcab-1feef830a30a","system_id":"levelo_inurba_marseille","lat":43.28702,"lon":5.36104,"is_reserved":false,"is_disabled":false,"rental_uris":{"android":"levelo://app?vid=b97e5ebe-a5da-4b6a-bcab-1feef830a30a","ios":"levelo://app?vid=b97e5ebe-a5da-4b6a-bcab-1feef830a30a"},"vehicle_type_id":"4","last_reported":1738033831,"current_range_meters":38000,"station_id":"cki0cbj6b192h4jlfktg","pricing_plan_id":"cebpf4jnsgd1na2vs0mg"},{"bike_id":"405e506f-42e1-4b2a-a69d-3c809b575ba5","system_id":"levelo_inurba_marseille","lat":43.25682,"lon":5.39739,"is_reserved":false,"is_disabled":false,"rental_uris":{"android":"levelo://app?vid=405e506f-42e1-4b2a-a69d-3c809b575ba5","ios":"levelo://app?vid=405e506f-42e1-4b2a-a69d-3c809b575ba5"},"vehicle_type_id":"4","last_reported":1738033831,"current_range_meters":25600,"station_id":"","pricing_plan_id":"cebpf4jnsgd1na2vs0mg"},{"bike_id":"18d424a3-8022-49e9-b753-8d780410bb73","system_id":"levelo_inurba_marseille","lat":43.28436,"lon":5.39201,"is_reserved":false,"is_disabled":false,"rental_uris":{"android":"levelo://app?vid=18d424a3-8022-49e9-b753-8d780410bb73","ios":"levelo://app?vid=18d424a3-8022-49e9-b753-8d780410bb73"},"vehicle_type_id":"4","last_reported":1738033831,"current_range_meters":35600,"station_id":"ce4bhoh2rcd13ifvqh5g","pricing_plan_id":"cebpf4jnsgd1na2vs0mg"},{"bike_id":"529f1ab7-390e-41c3-9180-30692697770e","system_id":"levelo_inurba_marseille","lat":43.28621,"lon":5.35101,"is_reserved":false,"is_disabled":false,"rental_uris":{"android":"levelo://app?vid=529f1ab7-390e-41c3-9180-30692697770e","ios":"levelo://app?vid=529f1ab7-390e-41c3-9180-30692697770e"},"vehicle_type_id":"4","last_reported":1738033831,"current_range_meters":16400,"station_id":"ce4bhch2rcd13ifvqeug","pricing_plan_id":"cebpf4jnsgd1na2vs0mg"},{"bike_id":"a058fe99-43b0-4c87-b0cd-0a1cfaa78e6d","system_id":"levelo_inurba_marseille","lat":43.29577,"lon":5.39963,"is_reserved":false,"is_disabled":false,"rental_uris":{"android":"levelo://app?vid=a058fe99-43b0-4c87-b0cd-0a1cfaa78e6d","ios":"levelo://app?vid=a058fe99-43b0-4c87-b0cd-0a1cfaa78e6d"},"vehicle_type_id":"4","last_reported":1738033831,"current_range_meters":38000,"station_id":"ce4bh312rcd13ifvqdj0","pricing_plan_id":"cebpf4jnsgd1na2vs0mg"},{"bike_id":"252712f4-19e9-4270-aeaa-086f74f4c9d1","system_id":"levelo_inurba_marseille","lat":43.27623,"lon":5.36107,"is_reserved":false,"is_disabled":false,"rental_uris":{"android":"levelo://app?vid=252712f4-19e9-4270-aeaa-086f74f4c9d1","ios":"levelo://app?vid=252712f4-19e9-4270-aeaa-086f74f4c9d1"},"vehicle_type_id":"4","last_reported":1738033831,"current_range_meters":37600,"station_id":"ce4bgj92rcd13ifvqbe0","pricing_plan_id":"cebpf4jnsgd1na2vs0mg"},{"bike_id":"2fbb3731-9609-4dd7-a1ee-c8d419f11a5c","system_id":"levelo_inurba_marseille","lat":43.30169,"lon":5.39926,"is_reserved":false,"is_disabled":false,"rental_uris":{"android":"levelo://app?vid=2fbb3731-9609-4dd7-a1ee-c8d419f11a5c","ios":"levelo://app?vid=2fbb3731-9609-4dd7-a1ee-c8d419f11a5c"},"vehicle_type_id":"4","last_reported":1738033831,"current_range_meters":38800,"station_id":"ce4bh0h2rcd13ifvqd40","pricing_plan_id":"cebpf4jnsgd1na2vs0mg"},{"bike_id":"9098e87e-bae8-4c57-a479-8cbdb22eeb26","system_id":"levelo_inurba_marseille","lat":43.28041,"lon":5.36937,"is_reserved":false,"is_disabled":false,"rental_uris":{"android":"levelo://app?vid=9098e87e-bae8-4c57-a479-8cbdb22eeb26","ios":"levelo://app?vid=9098e87e-bae8-4c57-a479-8cbdb22eeb26"},"vehicle_type_id":"4","last_reported":1738033831,"current_range_meters":35600,"station_id":"ce4bha12rcd13ifvqef0","pricing_plan_id":"cebpf4jnsgd1na2vs0mg"},{"bike_id":"6961427e-20d5-4c5f-bb72-70012b3e31a8","system_id":"levelo_inurba_marseille","lat":43.314895,"lon":5.372757,"is_reserved":false,"is_disabled":false,"rental_uris":{"android":"levelo://app?vid=6961427e-20d5-4c5f-bb72-70012b3e31a8","ios":"levelo://app?vid=6961427e-20d5-4c5f-bb72-70012b3e31a8"},"vehicle_type_id":"4","last_reported":1738033831,"current_range_meters":30000,"station_id":"ce4bgt12rcd13ifvqcd0","pricing_plan_id":"cebpf4jnsgd1na2vs0mg"},{"bike_id":"1bfd3f93-f93f-44ab-9456-242bc679e8ee","system_id":"levelo_inurba_marseille","lat":43.32295,"lon":5.38275,"is_reserved":false,"is_disabled":false,"rental_uris":{"android":"levelo://app?vid=1bfd3f93-f93f-44ab-9456-242bc679e8ee","ios":"levelo://app?vid=1bfd3f93-f93f-44ab-9456-242bc679e8ee"},"vehicle_type_id":"4","last_reported":1738033831,"current_range_meters":24000,"station_id":"ce4bhr12rcd13ifvqhqg","pricing_plan_id":"cebpf4jnsgd1na2vs0mg"},{"bike_id":"caf4fd72-81be-4864-b40d-16ffdca5a851","system_id":"levelo_inurba_marseille","lat":43.31126,"lon":5.37772,"is_reserved":false,"is_disabled":false,"rental_uris":{"android":"levelo://app?vid=caf4fd72-81be-4864-b40d-16ffdca5a851","ios":"levelo://app?vid=caf4fd72-81be-4864-b40d-16ffdca5a851"},"vehicle_type_id":"4","last_reported":1738033831,"current_range_meters":38000,"station_id":"ce4bgt92rcd13ifvqcg0","pricing_plan_id":"cebpf4jnsgd1na2vs0mg"},{"bike_id":"da99b4a9-d6d8-4ed5-aab9-aafd5bf16e2d","system_id":"levelo_inurba_marseille","lat":43.308806,"lon":5.396556,"is_reserved":false,"is_disabled":false,"rental_uris":{"android":"levelo://app?vid=da99b4a9-d6d8-4ed5-aab9-aafd5bf16e2d","ios":"levelo://app?vid=da99b4a9-d6d8-4ed5-aab9-aafd5bf16e2d"},"vehicle_type_id":"4","last_reported":1738033831,"current_range_meters":32800,"station_id":"ce4bh012rcd13ifvqcv0","pricing_plan_id":"cebpf4jnsgd1na2vs0mg"},{"bike_id":"13bee3a1-48fe-4c10-aa08-4d5da8623a74","system_id":"levelo_inurba_marseille","lat":43.27836,"lon":5.39212,"is_reserved":false,"is_disabled":false,"rental_uris":{"android":"levelo://app?vid=13bee3a1-48fe-4c10-aa08-4d5da8623a74","ios":"levelo://app?vid=13bee3a1-48fe-4c10-aa08-4d5da8623a74"},"vehicle_type_id":"4","last_reported":1738033831,"current_range_meters":38800,"station_id":"ce4bhjp2rcd13ifvqga0","pricing_plan_id":"cebpf4jnsgd1na2vs0mg"},{"bike_id":"796c624c-21a1-499a-900a-2075934c86de","system_id":"levelo_inurba_marseille","lat":43.30444,"lon":5.39747,"is_reserved":false,"is_disabled":false,"rental_uris":{"android":"levelo://app?vid=796c624c-21a1-499a-900a-2075934c86de","ios":"levelo://app?vid=796c624c-21a1-499a-900a-2075934c86de"},"vehicle_type_id":"4","last_reported":1738033831,"current_range_meters":39200,"station_id":"ce4bh092rcd13ifvqd20","pricing_plan_id":"cebpf4jnsgd1na2vs0mg"},{"bike_id":"1e6d81e2-f5b1-4978-917e-39b741220de3","system_id":"levelo_inurba_marseille","lat":43.30946,"lon":5.39068,"is_reserved":false,"is_disabled":false,"rental_uris":{"android":"levelo://app?vid=1e6d81e2-f5b1-4978-917e-39b741220de3","ios":"levelo://app?vid=1e6d81e2-f5b1-4978-917e-39b741220de3"},"vehicle_type_id":"4","last_reported":1738033831,"current_range_meters":32000,"station_id":"ce4bgup2rcd13ifvqco0","pricing_plan_id":"cebpf4jnsgd1na2vs0mg"},{"bike_id":"18702c17-8da2-475f-8d28-5906173a0de6","system_id":"levelo_inurba_marseille","lat":43.29876,"lon":5.39733,"is_reserved":false,"is_disabled":false,"rental_uris":{"android":"levelo://app?vid=18702c17-8da2-475f-8d28-5906173a0de6","ios":"levelo://app?vid=18702c17-8da2-475f-8d28-5906173a0de6"},"vehicle_type_id":"4","last_reported":1738033831,"current_range_meters":38800,"station_id":"ce4bh0h2rcd13ifvqd50","pricing_plan_id":"cebpf4jnsgd1na2vs0mg"},{"bike_id":"27008ab4-fd65-436d-a4a9-bba5732c5712","system_id":"levelo_inurba_marseille","lat":43.280794,"lon":5.396416,"is_reserved":false,"is_disabled":false,"rental_uris":{"android":"levelo://app?vid=27008ab4-fd65-436d-a4a9-bba5732c5712","ios":"levelo://app?vid=27008ab4-fd65-436d-a4a9-bba5732c5712"},"vehicle_type_id":"4","last_reported":1738033831,"current_range_meters":10000,"station_id":"ce4bho12rcd13ifvqh2g","pricing_plan_id":"cebpf4jnsgd1na2vs0mg"},{"bike_id":"a02db55e-ba47-47e1-9cb6-3610b1989231","system_id":"levelo_inurba_marseille","lat":43.29526,"lon":5.39039,"is_reserved":false,"is_disabled":false,"rental_uris":{"android":"levelo://app?vid=a02db55e-ba47-47e1-9cb6-3610b1989231","ios":"levelo://app?vid=a02db55e-ba47-47e1-9cb6-3610b1989231"},"vehicle_type_id":"4","last_reported":1738033831,"current_range_meters":38800,"station_id":"ce4bh3p2rcd13ifvqdp0","pricing_plan_id":"cebpf4jnsgd1na2vs0mg"},{"bike_id":"fb718f77-42be-4664-9cdd-65305dc1c1ba","system_id":"levelo_inurba_marseille","lat":43.23196,"lon":5.39986,"is_reserved":false,"is_disabled":false,"rental_uris":{"android":"levelo://app?vid=fb718f77-42be-4664-9cdd-65305dc1c1ba","ios":"levelo://app?vid=fb718f77-42be-4664-9cdd-65305dc1c1ba"},"vehicle_type_id":"4","last_reported":1738033831,"current_range_meters":39200,"station_id":"ce4bhn12rcd13ifvqgqg","pricing_plan_id":"cebpf4jnsgd1na2vs0mg"},{"bike_id":"6864391c-b491-407f-88e1-18a707dd9f24","system_id":"levelo_inurba_marseille","lat":43.30294,"lon":5.36887,"is_reserved":false,"is_disabled":false,"rental_uris":{"android":"levelo://app?vid=6864391c-b491-407f-88e1-18a707dd9f24","ios":"levelo://app?vid=6864391c-b491-407f-88e1-18a707dd9f24"},"vehicle_type_id":"4","last_reported":1738033831,"current_range_meters":8800,"station_id":"ce4bgqh2rcd13ifvqc5g","pricing_plan_id":"cebpf4jnsgd1na2vs0mg"},{"bike_id":"43cb41c5-439f-4eb6-9ca9-ddeec93fcf1d","system_id":"levelo_inurba_marseille","lat":43.23988,"lon":5.36616,"is_reserved":false,"is_disabled":false,"rental_uris":{"android":"levelo://app?vid=43cb41c5-439f-4eb6-9ca9-ddeec93fcf1d","ios":"levelo://app?vid=43cb41c5-439f-4eb6-9ca9-ddeec93fcf1d"},"vehicle_type_id":"4","last_reported":1738033831,"current_range_meters":8400,"station_id":"ce4bhi12rcd13ifvqfp0","pricing_plan_id":"cebpf4jnsgd1na2vs0mg"},{"bike_id":"8ccef378-70c1-431e-9220-cb8b91a6d43b","system_id":"levelo_inurba_marseille","lat":43.307831,"lon":5.376532,"is_reserved":false,"is_disabled":true,"rental_uris":{"android":"levelo://app?vid=8ccef378-70c1-431e-9220-cb8b91a6d43b","ios":"levelo://app?vid=8ccef378-70c1-431e-9220-cb8b91a6d43b"},"vehicle_type_id":"4","last_reported":1738033831,"current_range_meters":28000,"station_id":"","pricing_plan_id":"cebpf4jnsgd1na2vs0mg"},{"bike_id":"4b4961b5-5e83-4377-a634-c1cb155aefdf","system_id":"levelo_inurba_marseille","lat":43.29216,"lon":5.3608,"is_reserved":false,"is_disabled":false,"rental_uris":{"android":"levelo://app?vid=4b4961b5-5e83-4377-a634-c1cb155aefdf","ios":"levelo://app?vid=4b4961b5-5e83-4377-a634-c1cb155aefdf"},"vehicle_type_id":"4","last_reported":1738033831,"current_range_meters":38800,"station_id":"ce4bhbh2rcd13ifvqeqg","pricing_plan_id":"cebpf4jnsgd1na2vs0mg"},{"bike_id":"f08b700c-fb7a-4471-b7d4-cd62c2909ef2","system_id":"levelo_inurba_marseille","lat":43.23152,"lon":5.437,"is_reserved":false,"is_disabled":true,"rental_uris":{"android":"levelo://app?vid=f08b700c-fb7a-4471-b7d4-cd62c2909ef2","ios":"levelo://app?vid=f08b700c-fb7a-4471-b7d4-cd62c2909ef2"},"vehicle_type_id":"4","last_reported":1738033831,"current_range_meters":2800,"station_id":"ce4bhmp2rcd13ifvqgog","pricing_plan_id":"cebpf4jnsgd1na2vs0mg"},{"bike_id":"f4f70d51-8042-4315-8478-e151d15d5292","system_id":"levelo_inurba_marseille","lat":43.28718,"lon":5.37383,"is_reserved":false,"is_disabled":false,"rental_uris":{"android":"levelo://app?vid=f4f70d51-8042-4315-8478-e151d15d5292","ios":"levelo://app?vid=f4f70d51-8042-4315-8478-e151d15d5292"},"vehicle_type_id":"4","last_reported":1738033831,"current_range_meters":11600,"station_id":"ce4bh3p2rcd13ifvqdq0","pricing_plan_id":"cebpf4jnsgd1na2vs0mg"},{"bike_id":"9b744b95-e734-4df1-a02c-3cfb137358e6","system_id":"levelo_inurba_marseille","lat":43.30582,"lon":5.37225,"is_reserved":false,"is_disabled":false,"rental_uris":{"android":"levelo://app?vid=9b744b95-e734-4df1-a02c-3cfb137358e6","ios":"levelo://app?vid=9b744b95-e734-4df1-a02c-3cfb137358e6"},"vehicle_type_id":"4","last_reported":1738033831,"current_range_meters":38000,"station_id":"ce4bgqh2rcd13ifvqc4g","pricing_plan_id":"cebpf4jnsgd1na2vs0mg"},{"bike_id":"76a03fe2-6853-42db-8972-77b89a64555b","system_id":"levelo_inurba_marseille","lat":43.32105,"lon":5.36771,"is_reserved":false,"is_disabled":true,"rental_uris":{"android":"levelo://app?vid=76a03fe2-6853-42db-8972-77b89a64555b","ios":"levelo://app?vid=76a03fe2-6853-42db-8972-77b89a64555b"},"vehicle_type_id":"4","last_reported":1738033831,"current_range_meters":24000,"station_id":"ce4bhrh2rcd13ifvqhug","pricing_plan_id":"cebpf4jnsgd1na2vs0mg"},{"bike_id":"e900a719-9024-4774-bd23-9f6e8352fe4d","system_id":"levelo_inurba_marseille","lat":43.29048,"lon":5.37182,"is_reserved":false,"is_disabled":false,"rental_uris":{"android":"levelo://app?vid=e900a719-9024-4774-bd23-9f6e8352fe4d","ios":"levelo://app?vid=e900a719-9024-4774-bd23-9f6e8352fe4d"},"vehicle_type_id":"4","last_reported":1738033831,"current_range_meters":20400,"station_id":"ce4bh5p2rcd13ifvqe4g","pricing_plan_id":"cebpf4jnsgd1na2vs0mg"},{"bike_id":"50b634fa-9850-4987-a6ee-a42b6b6c4190","system_id":"levelo_inurba_marseille","lat":43.24645,"lon":5.38157,"is_reserved":false,"is_disabled":false,"rental_uris":{"android":"levelo://app?vid=50b634fa-9850-4987-a6ee-a42b6b6c4190","ios":"levelo://app?vid=50b634fa-9850-4987-a6ee-a42b6b6c4190"},"vehicle_type_id":"4","last_reported":1738033831,"current_range_meters":23200,"station_id":"ce4bhih2rcd13ifvqfr0","pricing_plan_id":"cebpf4jnsgd1na2vs0mg"},{"bike_id":"b01b0706-3a3a-4ff1-ac0d-6b17e48eff7a","system_id":"levelo_inurba_marseille","lat":43.23173,"lon":5.35504,"is_reserved":false,"is_disabled":false,"rental_uris":{"android":"levelo://app?vid=b01b0706-3a3a-4ff1-ac0d-6b17e48eff7a","ios":"levelo://app?vid=b01b0706-3a3a-4ff1-ac0d-6b17e48eff7a"},"vehicle_type_id":"4","last_reported":1738033831,"current_range_meters":34800,"station_id":"ce4bhu92rcd13ifvqi70","pricing_plan_id":"cebpf4jnsgd1na2vs0mg"},{"bike_id":"3e09a2fc-7bea-4202-891b-78af61725782","system_id":"levelo_inurba_marseille","lat":43.32484,"lon":5.365731,"is_reserved":false,"is_disabled":false,"rental_uris":{"android":"levelo://app?vid=3e09a2fc-7bea-4202-891b-78af61725782","ios":"levelo://app?vid=3e09a2fc-7bea-4202-891b-78af61725782"},"vehicle_type_id":"4","last_reported":1738033831,"current_range_meters":32000,"station_id":"ce4bhs12rcd13ifvqhvg","pricing_plan_id":"cebpf4jnsgd1na2vs0mg"},{"bike_id":"cd48da39-a655-4dcb-97c2-bcb8d3d8c55b","system_id":"levelo_inurba_marseille","lat":43.23149,"lon":5.43729,"is_reserved":false,"is_disabled":true,"rental_uris":{"android":"levelo://app?vid=cd48da39-a655-4dcb-97c2-bcb8d3d8c55b","ios":"levelo://app?vid=cd48da39-a655-4dcb-97c2-bcb8d3d8c55b"},"vehicle_type_id":"4","last_reported":1738033831,"current_range_meters":0,"station_id":"ce4bhmp2rcd13ifvqgog","pricing_plan_id":"cebpf4jnsgd1na2vs0mg"},{"bike_id":"b12755fc-8da0-4911-8238-5a0a4e26d264","system_id":"levelo_inurba_marseille","lat":43.28007,"lon":5.4003,"is_reserved":false,"is_disabled":false,"rental_uris":{"android":"levelo://app?vid=b12755fc-8da0-4911-8238-5a0a4e26d264","ios":"levelo://app?vid=b12755fc-8da0-4911-8238-5a0a4e26d264"},"vehicle_type_id":"4","last_reported":1738033831,"current_range_meters":20400,"station_id":"ce4bho92rcd13ifvqh4g","pricing_plan_id":"cebpf4jnsgd1na2vs0mg"},{"bike_id":"9504de09-9e6c-4f57-a7a7-05882e34845b","system_id":"levelo_inurba_marseille","lat":43.24545,"lon":5.39527,"is_reserved":false,"is_disabled":false,"rental_uris":{"android":"levelo://app?vid=9504de09-9e6c-4f57-a7a7-05882e34845b","ios":"levelo://app?vid=9504de09-9e6c-4f57-a7a7-05882e34845b"},"vehicle_type_id":"4","last_reported":1738033831,"current_range_meters":38000,"station_id":"ce4bhlp2rcd13ifvqgjg","pricing_plan_id":"cebpf4jnsgd1na2vs0mg"},{"bike_id":"b392fed4-0fa4-45ae-9eaa-d91de503ec25","system_id":"levelo_inurba_marseille","lat":43.26564,"lon":5.37286,"is_reserved":false,"is_disabled":false,"rental_uris":{"android":"levelo://app?vid=b392fed4-0fa4-45ae-9eaa-d91de503ec25","ios":"levelo://app?vid=b392fed4-0fa4-45ae-9eaa-d91de503ec25"},"vehicle_type_id":"4","last_reported":1738033831,"current_range_meters":16800,"station_id":"ce4bhg12rcd13ifvqf70","pricing_plan_id":"cebpf4jnsgd1na2vs0mg"},{"bike_id":"1f04ce16-8db1-48af-81ba-2b4e6bbc4af6","system_id":"levelo_inurba_marseille","lat":43.30246,"lon":5.40048,"is_reserved":false,"is_disabled":false,"rental_uris":{"android":"levelo://app?vid=1f04ce16-8db1-48af-81ba-2b4e6bbc4af6","ios":"levelo://app?vid=1f04ce16-8db1-48af-81ba-2b4e6bbc4af6"},"vehicle_type_id":"4","last_reported":1738033831,"current_range_meters":38400,"station_id":"ce4bgvh2rcd13ifvqcs0","pricing_plan_id":"cebpf4jnsgd1na2vs0mg"},{"bike_id":"915df6a6-30bf-4e90-9efc-34ebcb795923","system_id":"levelo_inurba_marseille","lat":43.28458,"lon":5.35889,"is_reserved":false,"is_disabled":false,"rental_uris":{"android":"levelo://app?vid=915df6a6-30bf-4e90-9efc-34ebcb795923","ios":"levelo://app?vid=915df6a6-30bf-4e90-9efc-34ebcb795923"},"vehicle_type_id":"4","last_reported":1738033831,"current_range_meters":38800,"station_id":"ce4bhah2rcd13ifvqei0","pricing_plan_id":"cebpf4jnsgd1na2vs0mg"},{"bike_id":"8f0be848-d541-47fe-8086-1d80d5cc52a7","system_id":"levelo_inurba_marseille","lat":43.29824,"lon":5.40392,"is_reserved":false,"is_disabled":false,"rental_uris":{"android":"levelo://app?vid=8f0be848-d541-47fe-8086-1d80d5cc52a7","ios":"levelo://app?vid=8f0be848-d541-47fe-8086-1d80d5cc52a7"},"vehicle_type_id":"4","last_reported":1738033831,"current_range_meters":16800,"station_id":"ce4bh112rcd13ifvqd90","pricing_plan_id":"cebpf4jnsgd1na2vs0mg"},{"bike_id":"a51f6bf1-88f8-4ed7-bf4c-eb6c7e53e7a0","system_id":"levelo_inurba_marseille","lat":43.31357,"lon":5.38497,"is_reserved":false,"is_disabled":false,"rental_uris":{"android":"levelo://app?vid=a51f6bf1-88f8-4ed7-bf4c-eb6c7e53e7a0","ios":"levelo://app?vid=a51f6bf1-88f8-4ed7-bf4c-eb6c7e53e7a0"},"vehicle_type_id":"4","last_reported":1738033831,"current_range_meters":30800,"station_id":"ce4bgt92rcd13ifvqcf0","pricing_plan_id":"cebpf4jnsgd1na2vs0mg"},{"bike_id":"89f4224b-9fea-4dbe-b5a1-ed1c5c4a9083","system_id":"levelo_inurba_marseille","lat":43.30799,"lon":5.38161,"is_reserved":false,"is_disabled":false,"rental_uris":{"android":"levelo://app?vid=89f4224b-9fea-4dbe-b5a1-ed1c5c4a9083","ios":"levelo://app?vid=89f4224b-9fea-4dbe-b5a1-ed1c5c4a9083"},"vehicle_type_id":"4","last_reported":1738033831,"current_range_meters":39200,"station_id":"ce4bgt12rcd13ifvqce0","pricing_plan_id":"cebpf4jnsgd1na2vs0mg"},{"bike_id":"ecf18d5e-fe06-4d6d-aa21-6d4ba394f980","system_id":"levelo_inurba_marseille","lat":43.28575,"lon":5.39504,"is_reserved":false,"is_disabled":false,"rental_uris":{"android":"levelo://app?vid=ecf18d5e-fe06-4d6d-aa21-6d4ba394f980","ios":"levelo://app?vid=ecf18d5e-fe06-4d6d-aa21-6d4ba394f980"},"vehicle_type_id":"4","last_reported":1738033831,"current_range_meters":38800,"station_id":"ce4bh292rcd13ifvqdg0","pricing_plan_id":"cebpf4jnsgd1na2vs0mg"},{"bike_id":"48eaf086-a58e-442a-ac63-1b1e74c4ac84","system_id":"levelo_inurba_marseille","lat":43.317098,"lon":5.437064,"is_reserved":false,"is_disabled":false,"rental_uris":{"android":"levelo://app?vid=48eaf086-a58e-442a-ac63-1b1e74c4ac84","ios":"levelo://app?vid=48eaf086-a58e-442a-ac63-1b1e74c4ac84"},"vehicle_type_id":"4","last_reported":1738033831,"current_range_meters":38800,"station_id":"ce4bhp92rcd13ifvqhcg","pricing_plan_id":"cebpf4jnsgd1na2vs0mg"},{"bike_id":"93a03b7f-b087-426b-aea4-84310305d4a9","system_id":"levelo_inurba_marseille","lat":43.31169,"lon":5.38711,"is_reserved":false,"is_disabled":true,"rental_uris":{"android":"levelo://app?vid=93a03b7f-b087-426b-aea4-84310305d4a9","ios":"levelo://app?vid=93a03b7f-b087-426b-aea4-84310305d4a9"},"vehicle_type_id":"4","last_reported":1738033831,"current_range_meters":39200,"station_id":"ce4bgv12rcd13ifvqcp0","pricing_plan_id":"cebpf4jnsgd1na2vs0mg"},{"bike_id":"438ef96e-576a-42aa-bc1f-ac59ea62970f","system_id":"levelo_inurba_marseille","lat":43.29578,"lon":5.36758,"is_reserved":false,"is_disabled":true,"rental_uris":{"android":"levelo://app?vid=438ef96e-576a-42aa-bc1f-ac59ea62970f","ios":"levelo://app?vid=438ef96e-576a-42aa-bc1f-ac59ea62970f"},"vehicle_type_id":"4","last_reported":1738033831,"current_range_meters":31200,"station_id":"ce4bgph2rcd13ifvqc2g","pricing_plan_id":"cebpf4jnsgd1na2vs0mg"},{"bike_id":"076810f3-e37e-4a24-a2bf-ae6df07f807b","system_id":"levelo_inurba_marseille","lat":43.293,"lon":5.37449,"is_reserved":false,"is_disabled":true,"rental_uris":{"android":"levelo://app?vid=076810f3-e37e-4a24-a2bf-ae6df07f807b","ios":"levelo://app?vid=076810f3-e37e-4a24-a2bf-ae6df07f807b"},"vehicle_type_id":"4","last_reported":1738033831,"current_range_meters":24400,"station_id":"ce4bgi12rcd13ifvqb70","pricing_plan_id":"cebpf4jnsgd1na2vs0mg"},{"bike_id":"b89e47be-8aed-4fd7-a563-0fc305d071bf","system_id":"levelo_inurba_marseille","lat":43.28352,"lon":5.38114,"is_reserved":false,"is_disabled":false,"rental_uris":{"android":"levelo://app?vid=b89e47be-8aed-4fd7-a563-0fc305d071bf","ios":"levelo://app?vid=b89e47be-8aed-4fd7-a563-0fc305d071bf"},"vehicle_type_id":"4","last_reported":1738033831,"current_range_meters":35600,"station_id":"ce4bh412rcd13ifvqdr0","pricing_plan_id":"cebpf4jnsgd1na2vs0mg"},{"bike_id":"ff68af14-5554-4f8d-a3de-4549d987f602","system_id":"levelo_inurba_marseille","lat":43.299038,"lon":5.4366,"is_reserved":false,"is_disabled":false,"rental_uris":{"android":"levelo://app?vid=ff68af14-5554-4f8d-a3de-4549d987f602","ios":"levelo://app?vid=ff68af14-5554-4f8d-a3de-4549d987f602"},"vehicle_type_id":"4","last_reported":1738033831,"current_range_meters":37600,"station_id":"ce4bhpp2rcd13ifvqhfg","pricing_plan_id":"cebpf4jnsgd1na2vs0mg"},{"bike_id":"1e31331c-56cf-4ff8-962a-7e6508ba54b3","system_id":"levelo_inurba_marseille","lat":43.31353,"lon":5.39711,"is_reserved":false,"is_disabled":false,"rental_uris":{"android":"levelo://app?vid=1e31331c-56cf-4ff8-962a-7e6508ba54b3","ios":"levelo://app?vid=1e31331c-56cf-4ff8-962a-7e6508ba54b3"},"vehicle_type_id":"4","last_reported":1738033831,"current_range_meters":35600,"station_id":"ce4bgvp2rcd13ifvqcu0","pricing_plan_id":"cebpf4jnsgd1na2vs0mg"},{"bike_id":"2dcbfb1c-d75a-455d-acdc-d521e0e83e17","system_id":"levelo_inurba_marseille","lat":43.27914,"lon":5.38008,"is_reserved":false,"is_disabled":false,"rental_uris":{"android":"levelo://app?vid=2dcbfb1c-d75a-455d-acdc-d521e0e83e17","ios":"levelo://app?vid=2dcbfb1c-d75a-455d-acdc-d521e0e83e17"},"vehicle_type_id":"4","last_reported":1738033831,"current_range_meters":38000,"station_id":"ce4bhf92rcd13ifvqf50","pricing_plan_id":"cebpf4jnsgd1na2vs0mg"},{"bike_id":"76e201e8-caa7-40a9-b676-6ceb392194ac","system_id":"levelo_inurba_marseille","lat":43.24671,"lon":5.38159,"is_reserved":false,"is_disabled":false,"rental_uris":{"android":"levelo://app?vid=76e201e8-caa7-40a9-b676-6ceb392194ac","ios":"levelo://app?vid=76e201e8-caa7-40a9-b676-6ceb392194ac"},"vehicle_type_id":"4","last_reported":1738033831,"current_range_meters":6800,"station_id":"ce4bhih2rcd13ifvqfr0","pricing_plan_id":"cebpf4jnsgd1na2vs0mg"},{"bike_id":"3c5cbf2e-5914-44e5-adf1-7229185be9cb","system_id":"levelo_inurba_marseille","lat":43.324794,"lon":5.365768,"is_reserved":false,"is_disabled":false,"rental_uris":{"android":"levelo://app?vid=3c5cbf2e-5914-44e5-adf1-7229185be9cb","ios":"levelo://app?vid=3c5cbf2e-5914-44e5-adf1-7229185be9cb"},"vehicle_type_id":"4","last_reported":1738033831,"current_range_meters":14800,"station_id":"ce4bhs12rcd13ifvqhvg","pricing_plan_id":"cebpf4jnsgd1na2vs0mg"},{"bike_id":"810e3bd2-4833-41fb-a98e-621f2369fa84","system_id":"levelo_inurba_marseille","lat":43.33735,"lon":5.39186,"is_reserved":false,"is_disabled":false,"rental_uris":{"android":"levelo://app?vid=810e3bd2-4833-41fb-a98e-621f2369fa84","ios":"levelo://app?vid=810e3bd2-4833-41fb-a98e-621f2369fa84"},"vehicle_type_id":"4","last_reported":1738033831,"current_range_meters":38800,"station_id":"ce4bhr92rcd13ifvqhsg","pricing_plan_id":"cebpf4jnsgd1na2vs0mg"},{"bike_id":"8c7aaab9-7ea4-4f34-9e45-d33cfffa4b09","system_id":"levelo_inurba_marseille","lat":43.29032,"lon":5.35925,"is_reserved":false,"is_disabled":false,"rental_uris":{"android":"levelo://app?vid=8c7aaab9-7ea4-4f34-9e45-d33cfffa4b09","ios":"levelo://app?vid=8c7aaab9-7ea4-4f34-9e45-d33cfffa4b09"},"vehicle_type_id":"4","last_reported":1738033831,"current_range_meters":27600,"station_id":"ce4bha92rcd13ifvqeg0","pricing_plan_id":"cebpf4jnsgd1na2vs0mg"},{"bike_id":"5ff01d07-3d14-4556-a9cb-73fb20f5e6ca","system_id":"levelo_inurba_marseille","lat":43.313582,"lon":5.384938,"is_reserved":false,"is_disabled":false,"rental_uris":{"android":"levelo://app?vid=5ff01d07-3d14-4556-a9cb-73fb20f5e6ca","ios":"levelo://app?vid=5ff01d07-3d14-4556-a9cb-73fb20f5e6ca"},"vehicle_type_id":"4","last_reported":1738033831,"current_range_meters":24800,"station_id":"ce4bgt92rcd13ifvqcf0","pricing_plan_id":"cebpf4jnsgd1na2vs0mg"},{"bike_id":"04add264-7ffa-44ea-8a2f-32324a7ecc6f","system_id":"levelo_inurba_marseille","lat":43.2571,"lon":5.41135,"is_reserved":false,"is_disabled":false,"rental_uris":{"android":"levelo://app?vid=04add264-7ffa-44ea-8a2f-32324a7ecc6f","ios":"levelo://app?vid=04add264-7ffa-44ea-8a2f-32324a7ecc6f"},"vehicle_type_id":"4","last_reported":1738033831,"current_range_meters":12800,"station_id":"ce4bhkp2rcd13ifvqgd0","pricing_plan_id":"cebpf4jnsgd1na2vs0mg"},{"bike_id":"e3c5a10e-948d-477c-91ce-8c835a7fe362","system_id":"levelo_inurba_marseille","lat":43.28089,"lon":5.39665,"is_reserved":false,"is_disabled":true,"rental_uris":{"android":"levelo://app?vid=e3c5a10e-948d-477c-91ce-8c835a7fe362","ios":"levelo://app?vid=e3c5a10e-948d-477c-91ce-8c835a7fe362"},"vehicle_type_id":"4","last_reported":1738033831,"current_range_meters":0,"station_id":"ce4bho12rcd13ifvqh2g","pricing_plan_id":"cebpf4jnsgd1na2vs0mg"},{"bike_id":"da13888c-ccdc-42a6-b940-dc947370c186","system_id":"levelo_inurba_marseille","lat":43.29532,"lon":5.39399,"is_reserved":false,"is_disabled":false,"rental_uris":{"android":"levelo://app?vid=da13888c-ccdc-42a6-b940-dc947370c186","ios":"levelo://app?vid=da13888c-ccdc-42a6-b940-dc947370c186"},"vehicle_type_id":"4","last_reported":1738033831,"current_range_meters":37600,"station_id":"ce4bh292rcd13ifvqdf0","pricing_plan_id":"cebpf4jnsgd1na2vs0mg"},{"bike_id":"3af33c6a-efb8-4c32-b92f-c273b3ba3228","system_id":"levelo_inurba_marseille","lat":43.25069,"lon":5.39519,"is_reserved":false,"is_disabled":false,"rental_uris":{"android":"levelo://app?vid=3af33c6a-efb8-4c32-b92f-c273b3ba3228","ios":"levelo://app?vid=3af33c6a-efb8-4c32-b92f-c273b3ba3228"},"vehicle_type_id":"4","last_reported":1738033831,"current_range_meters":38800,"station_id":"ce4bhm12rcd13ifvqgkg","pricing_plan_id":"cebpf4jnsgd1na2vs0mg"},{"bike_id":"c69dd111-4a16-47d3-919c-b81c76daeb57","system_id":"levelo_inurba_marseille","lat":43.24811,"lon":5.37463,"is_reserved":false,"is_disabled":false,"rental_uris":{"android":"levelo://app?vid=c69dd111-4a16-47d3-919c-b81c76daeb57","ios":"levelo://app?vid=c69dd111-4a16-47d3-919c-b81c76daeb57"},"vehicle_type_id":"4","last_reported":1738033831,"current_range_meters":34800,"station_id":"ce4bhgh2rcd13ifvqfb0","pricing_plan_id":"cebpf4jnsgd1na2vs0mg"},{"bike_id":"f846d495-effa-4e8f-ae39-f2d7b1fc0ba3","system_id":"levelo_inurba_marseille","lat":43.26807,"lon":5.402555,"is_reserved":false,"is_disabled":false,"rental_uris":{"android":"levelo://app?vid=f846d495-effa-4e8f-ae39-f2d7b1fc0ba3","ios":"levelo://app?vid=f846d495-effa-4e8f-ae39-f2d7b1fc0ba3"},"vehicle_type_id":"4","last_reported":1738033831,"current_range_meters":38800,"station_id":"ce501612rcd8frsf0b60","pricing_plan_id":"cebpf4jnsgd1na2vs0mg"},{"bike_id":"bb99704f-e033-4ae8-a7fb-29e6cc77930e","system_id":"levelo_inurba_marseille","lat":43.28081,"lon":5.39652,"is_reserved":false,"is_disabled":false,"rental_uris":{"android":"levelo://app?vid=bb99704f-e033-4ae8-a7fb-29e6cc77930e","ios":"levelo://app?vid=bb99704f-e033-4ae8-a7fb-29e6cc77930e"},"vehicle_type_id":"4","last_reported":1738033831,"current_range_meters":37600,"station_id":"ce4bho12rcd13ifvqh2g","pricing_plan_id":"cebpf4jnsgd1na2vs0mg"},{"bike_id":"a4be99d0-9f57-4d65-9197-81844e4eb908","system_id":"levelo_inurba_marseille","lat":43.32486,"lon":5.36575,"is_reserved":false,"is_disabled":false,"rental_uris":{"android":"levelo://app?vid=a4be99d0-9f57-4d65-9197-81844e4eb908","ios":"levelo://app?vid=a4be99d0-9f57-4d65-9197-81844e4eb908"},"vehicle_type_id":"4","last_reported":1738033831,"current_range_meters":30000,"station_id":"ce4bhs12rcd13ifvqhvg","pricing_plan_id":"cebpf4jnsgd1na2vs0mg"},{"bike_id":"229f0766-5c77-4974-b00e-4c2d884370d3","system_id":"levelo_inurba_marseille","lat":43.311203,"lon":5.377658,"is_reserved":false,"is_disabled":false,"rental_uris":{"android":"levelo://app?vid=229f0766-5c77-4974-b00e-4c2d884370d3","ios":"levelo://app?vid=229f0766-5c77-4974-b00e-4c2d884370d3"},"vehicle_type_id":"4","last_reported":1738033831,"current_range_meters":25600,"station_id":"ce4bgt92rcd13ifvqcg0","pricing_plan_id":"cebpf4jnsgd1na2vs0mg"},{"bike_id":"97b18a4a-bd77-4ae7-9fb5-63f3232dcc4f","system_id":"levelo_inurba_marseille","lat":43.28079,"lon":5.35802,"is_reserved":false,"is_disabled":false,"rental_uris":{"android":"levelo://app?vid=97b18a4a-bd77-4ae7-9fb5-63f3232dcc4f","ios":"levelo://app?vid=97b18a4a-bd77-4ae7-9fb5-63f3232dcc4f"},"vehicle_type_id":"4","last_reported":1738033831,"current_range_meters":32800,"station_id":"","pricing_plan_id":"cebpf4jnsgd1na2vs0mg"},{"bike_id":"f9173de2-2fa5-436f-a76b-3c96bd571284","system_id":"levelo_inurba_marseille","lat":43.2982,"lon":5.40422,"is_reserved":false,"is_disabled":false,"rental_uris":{"android":"levelo://app?vid=f9173de2-2fa5-436f-a76b-3c96bd571284","ios":"levelo://app?vid=f9173de2-2fa5-436f-a76b-3c96bd571284"},"vehicle_type_id":"4","last_reported":1738033831,"current_range_meters":38000,"station_id":"ce4bh112rcd13ifvqd90","pricing_plan_id":"cebpf4jnsgd1na2vs0mg"},{"bike_id":"54a3b066-8322-48b3-9a4e-9afae5461793","system_id":"levelo_inurba_marseille","lat":43.30364,"lon":5.41877,"is_reserved":false,"is_disabled":false,"rental_uris":{"android":"levelo://app?vid=54a3b066-8322-48b3-9a4e-9afae5461793","ios":"levelo://app?vid=54a3b066-8322-48b3-9a4e-9afae5461793"},"vehicle_type_id":"4","last_reported":1738033831,"current_range_meters":38800,"station_id":"ce4bhop2rcd13ifvqh7g","pricing_plan_id":"cebpf4jnsgd1na2vs0mg"},{"bike_id":"bec386fe-33ad-48a4-826a-c9f849f1daa6","system_id":"levelo_inurba_marseille","lat":43.298,"lon":5.40407,"is_reserved":false,"is_disabled":false,"rental_uris":{"android":"levelo://app?vid=bec386fe-33ad-48a4-826a-c9f849f1daa6","ios":"levelo://app?vid=bec386fe-33ad-48a4-826a-c9f849f1daa6"},"vehicle_type_id":"4","last_reported":1738033831,"current_range_meters":39200,"station_id":"ce4bh112rcd13ifvqd90","pricing_plan_id":"cebpf4jnsgd1na2vs0mg"},{"bike_id":"063e9528-f4f2-4171-8443-f7116d779e28","system_id":"levelo_inurba_marseille","lat":43.28462,"lon":5.38459,"is_reserved":false,"is_disabled":true,"rental_uris":{"android":"levelo://app?vid=063e9528-f4f2-4171-8443-f7116d779e28","ios":"levelo://app?vid=063e9528-f4f2-4171-8443-f7116d779e28"},"vehicle_type_id":"4","last_reported":1738033831,"current_range_meters":36800,"station_id":"ce4bh512rcd13ifvqe3g","pricing_plan_id":"cebpf4jnsgd1na2vs0mg"},{"bike_id":"db3aaaa1-2c83-4416-9be0-650e00b3a100","system_id":"levelo_inurba_marseille","lat":43.31746,"lon":5.39033,"is_reserved":false,"is_disabled":false,"rental_uris":{"android":"levelo://app?vid=db3aaaa1-2c83-4416-9be0-650e00b3a100","ios":"levelo://app?vid=db3aaaa1-2c83-4416-9be0-650e00b3a100"},"vehicle_type_id":"4","last_reported":1738033831,"current_range_meters":36000,"station_id":"ce4bhqp2rcd13ifvqhng","pricing_plan_id":"cebpf4jnsgd1na2vs0mg"},{"bike_id":"b85a2f0f-23ea-45ca-b9ca-d83191a8e088","system_id":"levelo_inurba_marseille","lat":43.28402,"lon":5.3752,"is_reserved":false,"is_disabled":false,"rental_uris":{"android":"levelo://app?vid=b85a2f0f-23ea-45ca-b9ca-d83191a8e088","ios":"levelo://app?vid=b85a2f0f-23ea-45ca-b9ca-d83191a8e088"},"vehicle_type_id":"4","last_reported":1738033831,"current_range_meters":14800,"station_id":"ce4bh412rcd13ifvqds0","pricing_plan_id":"cebpf4jnsgd1na2vs0mg"},{"bike_id":"ee00a9dd-941e-4f0f-ad3b-62fd438be21c","system_id":"levelo_inurba_marseille","lat":43.28065,"lon":5.39935,"is_reserved":false,"is_disabled":false,"rental_uris":{"android":"levelo://app?vid=ee00a9dd-941e-4f0f-ad3b-62fd438be21c","ios":"levelo://app?vid=ee00a9dd-941e-4f0f-ad3b-62fd438be21c"},"vehicle_type_id":"4","last_reported":1738033831,"current_range_meters":21600,"station_id":"ce4bho92rcd13ifvqh4g","pricing_plan_id":"cebpf4jnsgd1na2vs0mg"},{"bike_id":"3348ed86-e652-46a1-ac46-e0ae5b8fc32d","system_id":"levelo_inurba_marseille","lat":43.29268,"lon":5.4091,"is_reserved":false,"is_disabled":false,"rental_uris":{"android":"levelo://app?vid=3348ed86-e652-46a1-ac46-e0ae5b8fc32d","ios":"levelo://app?vid=3348ed86-e652-46a1-ac46-e0ae5b8fc32d"},"vehicle_type_id":"4","last_reported":1738033831,"current_range_meters":24000,"station_id":"ce4bh192rcd13ifvqdc0","pricing_plan_id":"cebpf4jnsgd1na2vs0mg"},{"bike_id":"dca1b3f1-bf12-4d48-b32e-51e78b8700aa","system_id":"levelo_inurba_marseille","lat":43.33026,"lon":5.39041,"is_reserved":false,"is_disabled":false,"rental_uris":{"android":"levelo://app?vid=dca1b3f1-bf12-4d48-b32e-51e78b8700aa","ios":"levelo://app?vid=dca1b3f1-bf12-4d48-b32e-51e78b8700aa"},"vehicle_type_id":"4","last_reported":1738033831,"current_range_meters":36000,"station_id":"ce4bhr92rcd13ifvqhrg","pricing_plan_id":"cebpf4jnsgd1na2vs0mg"},{"bike_id":"a7be9532-24bd-44ed-95f2-6dc4263f46ef","system_id":"levelo_inurba_marseille","lat":43.297852,"lon":5.370994,"is_reserved":false,"is_disabled":false,"rental_uris":{"android":"levelo://app?vid=a7be9532-24bd-44ed-95f2-6dc4263f46ef","ios":"levelo://app?vid=a7be9532-24bd-44ed-95f2-6dc4263f46ef"},"vehicle_type_id":"4","last_reported":1738033831,"current_range_meters":38000,"station_id":"ce4bgop2rcd13ifvqc1g","pricing_plan_id":"cebpf4jnsgd1na2vs0mg"},{"bike_id":"e09de9e7-4909-4413-b590-2dea2722814c","system_id":"levelo_inurba_marseille","lat":43.23197,"lon":5.39983,"is_reserved":false,"is_disabled":false,"rental_uris":{"android":"levelo://app?vid=e09de9e7-4909-4413-b590-2dea2722814c","ios":"levelo://app?vid=e09de9e7-4909-4413-b590-2dea2722814c"},"vehicle_type_id":"4","last_reported":1738033831,"current_range_meters":38800,"station_id":"ce4bhn12rcd13ifvqgqg","pricing_plan_id":"cebpf4jnsgd1na2vs0mg"},{"bike_id":"4e819cfc-66d0-44bc-b400-a92f780cb5a7","system_id":"levelo_inurba_marseille","lat":43.32999,"lon":5.39038,"is_reserved":false,"is_disabled":false,"rental_uris":{"android":"levelo://app?vid=4e819cfc-66d0-44bc-b400-a92f780cb5a7","ios":"levelo://app?vid=4e819cfc-66d0-44bc-b400-a92f780cb5a7"},"vehicle_type_id":"4","last_reported":1738033831,"current_range_meters":34800,"station_id":"ce4bhr92rcd13ifvqhrg","pricing_plan_id":"cebpf4jnsgd1na2vs0mg"},{"bike_id":"4ee7a4b2-dea3-4f4a-a76b-2d1e4fcbcafe","system_id":"levelo_inurba_marseille","lat":43.284787,"lon":5.385279,"is_reserved":false,"is_disabled":true,"rental_uris":{"android":"levelo://app?vid=4ee7a4b2-dea3-4f4a-a76b-2d1e4fcbcafe","ios":"levelo://app?vid=4ee7a4b2-dea3-4f4a-a76b-2d1e4fcbcafe"},"vehicle_type_id":"4","last_reported":1738033831,"current_range_meters":0,"station_id":"ce4bh8p2rcd13ifvqeb0","pricing_plan_id":"cebpf4jnsgd1na2vs0mg"},{"bike_id":"f6cff910-bc08-4989-a1d4-fe0be238409e","system_id":"levelo_inurba_marseille","lat":43.31281,"lon":5.4017,"is_reserved":false,"is_disabled":false,"rental_uris":{"android":"levelo://app?vid=f6cff910-bc08-4989-a1d4-fe0be238409e","ios":"levelo://app?vid=f6cff910-bc08-4989-a1d4-fe0be238409e"},"vehicle_type_id":"4","last_reported":1738033831,"current_range_meters":38800,"station_id":"ce4bh092rcd13ifvqd30","pricing_plan_id":"cebpf4jnsgd1na2vs0mg"},{"bike_id":"283c25d8-9fc5-495b-9825-5a72a68442bd","system_id":"levelo_inurba_marseille","lat":43.29273,"lon":5.40921,"is_reserved":false,"is_disabled":true,"rental_uris":{"android":"levelo://app?vid=283c25d8-9fc5-495b-9825-5a72a68442bd","ios":"levelo://app?vid=283c25d8-9fc5-495b-9825-5a72a68442bd"},"vehicle_type_id":"4","last_reported":1738033831,"current_range_meters":0,"station_id":"ce4bh192rcd13ifvqdc0","pricing_plan_id":"cebpf4jnsgd1na2vs0mg"},{"bike_id":"87942ae3-d0b8-427d-bf47-aae0ee7ffbfc","system_id":"levelo_inurba_marseille","lat":43.33616,"lon":5.41,"is_reserved":false,"is_disabled":false,"rental_uris":{"android":"levelo://app?vid=87942ae3-d0b8-427d-bf47-aae0ee7ffbfc","ios":"levelo://app?vid=87942ae3-d0b8-427d-bf47-aae0ee7ffbfc"},"vehicle_type_id":"4","last_reported":1738033831,"current_range_meters":38400,"station_id":"ce4bhqh2rcd13ifvqhmg","pricing_plan_id":"cebpf4jnsgd1na2vs0mg"},{"bike_id":"e3e26aee-15e1-425c-a48f-db58aa520742","system_id":"levelo_inurba_marseille","lat":43.23069,"lon":5.35499,"is_reserved":false,"is_disabled":false,"rental_uris":{"android":"levelo://app?vid=e3e26aee-15e1-425c-a48f-db58aa520742","ios":"levelo://app?vid=e3e26aee-15e1-425c-a48f-db58aa520742"},"vehicle_type_id":"4","last_reported":1738033831,"current_range_meters":38400,"station_id":"cpo3342slgdg3j2ifvpg","pricing_plan_id":"cebpf4jnsgd1na2vs0mg"},{"bike_id":"9fb813cb-e992-4585-8f3d-d25d13081f3b","system_id":"levelo_inurba_marseille","lat":43.23191,"lon":5.35553,"is_reserved":false,"is_disabled":false,"rental_uris":{"android":"levelo://app?vid=9fb813cb-e992-4585-8f3d-d25d13081f3b","ios":"levelo://app?vid=9fb813cb-e992-4585-8f3d-d25d13081f3b"},"vehicle_type_id":"4","last_reported":1738033831,"current_range_meters":6000,"station_id":"ce4bhu92rcd13ifvqi70","pricing_plan_id":"cebpf4jnsgd1na2vs0mg"},{"bike_id":"e864cbbc-cba7-44b2-84d7-57ee33d77ab6","system_id":"levelo_inurba_marseille","lat":43.24082,"lon":5.37726,"is_reserved":false,"is_disabled":false,"rental_uris":{"android":"levelo://app?vid=e864cbbc-cba7-44b2-84d7-57ee33d77ab6","ios":"levelo://app?vid=e864cbbc-cba7-44b2-84d7-57ee33d77ab6"},"vehicle_type_id":"4","last_reported":1738033831,"current_range_meters":38800,"station_id":"ce4bhnp2rcd13ifvqgvg","pricing_plan_id":"cebpf4jnsgd1na2vs0mg"},{"bike_id":"dc6f8409-18fe-4f12-8173-41780be63fde","system_id":"levelo_inurba_marseille","lat":43.30594,"lon":5.37215,"is_reserved":false,"is_disabled":false,"rental_uris":{"android":"levelo://app?vid=dc6f8409-18fe-4f12-8173-41780be63fde","ios":"levelo://app?vid=dc6f8409-18fe-4f12-8173-41780be63fde"},"vehicle_type_id":"4","last_reported":1738033831,"current_range_meters":38800,"station_id":"ce4bgqh2rcd13ifvqc4g","pricing_plan_id":"cebpf4jnsgd1na2vs0mg"},{"bike_id":"7c78a755-c7f5-4f07-a96b-621451d47948","system_id":"levelo_inurba_marseille","lat":43.29901,"lon":5.4366,"is_reserved":false,"is_disabled":false,"rental_uris":{"android":"levelo://app?vid=7c78a755-c7f5-4f07-a96b-621451d47948","ios":"levelo://app?vid=7c78a755-c7f5-4f07-a96b-621451d47948"},"vehicle_type_id":"4","last_reported":1738033831,"current_range_meters":25200,"station_id":"ce4bhpp2rcd13ifvqhfg","pricing_plan_id":"cebpf4jnsgd1na2vs0mg"},{"bike_id":"e82ac11f-6138-415f-aa77-c143f290e5c8","system_id":"levelo_inurba_marseille","lat":43.24102,"lon":5.37766,"is_reserved":false,"is_disabled":false,"rental_uris":{"android":"levelo://app?vid=e82ac11f-6138-415f-aa77-c143f290e5c8","ios":"levelo://app?vid=e82ac11f-6138-415f-aa77-c143f290e5c8"},"vehicle_type_id":"4","last_reported":1738033831,"current_range_meters":34800,"station_id":"ce4bhnp2rcd13ifvqgvg","pricing_plan_id":"cebpf4jnsgd1na2vs0mg"},{"bike_id":"0b0d6ec3-6f46-4620-98f9-5cf30ee487a3","system_id":"levelo_inurba_marseille","lat":43.29253,"lon":5.40911,"is_reserved":false,"is_disabled":false,"rental_uris":{"android":"levelo://app?vid=0b0d6ec3-6f46-4620-98f9-5cf30ee487a3","ios":"levelo://app?vid=0b0d6ec3-6f46-4620-98f9-5cf30ee487a3"},"vehicle_type_id":"4","last_reported":1738033831,"current_range_meters":18800,"station_id":"ce4bh192rcd13ifvqdc0","pricing_plan_id":"cebpf4jnsgd1na2vs0mg"},{"bike_id":"3fffe134-da5e-428c-b263-dc4df491080a","system_id":"levelo_inurba_marseille","lat":43.29405,"lon":5.37845,"is_reserved":false,"is_disabled":true,"rental_uris":{"android":"levelo://app?vid=3fffe134-da5e-428c-b263-dc4df491080a","ios":"levelo://app?vid=3fffe134-da5e-428c-b263-dc4df491080a"},"vehicle_type_id":"4","last_reported":1738033831,"current_range_meters":38000,"station_id":"","pricing_plan_id":"cebpf4jnsgd1na2vs0mg"},{"bike_id":"4eebfb7a-3d32-47ca-a63f-6da9d5367627","system_id":"levelo_inurba_marseille","lat":43.23176,"lon":5.39988,"is_reserved":false,"is_disabled":false,"rental_uris":{"android":"levelo://app?vid=4eebfb7a-3d32-47ca-a63f-6da9d5367627","ios":"levelo://app?vid=4eebfb7a-3d32-47ca-a63f-6da9d5367627"},"vehicle_type_id":"4","last_reported":1738033831,"current_range_meters":39200,"station_id":"ce4bhn12rcd13ifvqgqg","pricing_plan_id":"cebpf4jnsgd1na2vs0mg"},{"bike_id":"e75721dc-dbb9-4ae1-9388-ab994e8f4141","system_id":"levelo_inurba_marseille","lat":43.3255,"lon":5.41437,"is_reserved":false,"is_disabled":false,"rental_uris":{"android":"levelo://app?vid=e75721dc-dbb9-4ae1-9388-ab994e8f4141","ios":"levelo://app?vid=e75721dc-dbb9-4ae1-9388-ab994e8f4141"},"vehicle_type_id":"4","last_reported":1738033831,"current_range_meters":38000,"station_id":"ce4bhq12rcd13ifvqhhg","pricing_plan_id":"cebpf4jnsgd1na2vs0mg"},{"bike_id":"a48a4fa8-387b-4ecc-bc7a-c3f07822bf47","system_id":"levelo_inurba_marseille","lat":43.270726,"lon":5.392326,"is_reserved":false,"is_disabled":true,"rental_uris":{"android":"levelo://app?vid=a48a4fa8-387b-4ecc-bc7a-c3f07822bf47","ios":"levelo://app?vid=a48a4fa8-387b-4ecc-bc7a-c3f07822bf47"},"vehicle_type_id":"4","last_reported":1738033831,"current_range_meters":0,"station_id":"","pricing_plan_id":"cebpf4jnsgd1na2vs0mg"},{"bike_id":"345c8dbb-b0ef-4c2b-8c6d-1df26a9b6b54","system_id":"levelo_inurba_marseille","lat":43.28577,"lon":5.39523,"is_reserved":false,"is_disabled":false,"rental_uris":{"android":"levelo://app?vid=345c8dbb-b0ef-4c2b-8c6d-1df26a9b6b54","ios":"levelo://app?vid=345c8dbb-b0ef-4c2b-8c6d-1df26a9b6b54"},"vehicle_type_id":"4","last_reported":1738033831,"current_range_meters":13600,"station_id":"ce4bh292rcd13ifvqdg0","pricing_plan_id":"cebpf4jnsgd1na2vs0mg"},{"bike_id":"5f52cd29-90ea-433d-ad73-70ea1f779142","system_id":"levelo_inurba_marseille","lat":43.30546,"lon":5.3844,"is_reserved":false,"is_disabled":true,"rental_uris":{"android":"levelo://app?vid=5f52cd29-90ea-433d-ad73-70ea1f779142","ios":"levelo://app?vid=5f52cd29-90ea-433d-ad73-70ea1f779142"},"vehicle_type_id":"4","last_reported":1738033831,"current_range_meters":37600,"station_id":"ce4bgg92rcd13ifvqb30","pricing_plan_id":"cebpf4jnsgd1na2vs0mg"},{"bike_id":"a8d0380b-0a88-41c3-845f-e00ffb2cbc88","system_id":"levelo_inurba_marseille","lat":43.27984,"lon":5.40022,"is_reserved":false,"is_disabled":true,"rental_uris":{"android":"levelo://app?vid=a8d0380b-0a88-41c3-845f-e00ffb2cbc88","ios":"levelo://app?vid=a8d0380b-0a88-41c3-845f-e00ffb2cbc88"},"vehicle_type_id":"4","last_reported":1738033831,"current_range_meters":28000,"station_id":"ce4bho92rcd13ifvqh4g","pricing_plan_id":"cebpf4jnsgd1na2vs0mg"},