{"last_updated":1708293960,"ttl":30,"version":"2.2","data":{"bikes":[{"bike_id":"0f9e157c-0e2e-4258-a473-7675ac97f3cd","system_id":"levelo_inurba_marseille","lat":43.313391,"lon":5.36706,"is_reserved":false,"is_disabled":false,"rental_uris":{"android":"levelo://app?vid=0f9e157c-0e2e-4258-a473-7675ac97f3cd","ios":"levelo://app?vid=0f9e157c-0e2e-4258-a473-7675ac97f3cd"},"vehicle_type_id":"4","last_reported":1708293960,"current_range_meters":8400,"station_id":"ce4bgr92rcd13ifvqc6g","pricing_plan_id":"cebpf4jnsgd1na2vs0mg"},{"bike_id":"a9f2445f-443d-4c8f-9617-cbbc71bf43e3","system_id":"levelo_inurba_marseille","lat":43.31341,"lon":5.367098,"is_reserved":false,"is_disabled":false,"rental_uris":{"android":"levelo://app?vid=a9f2445f-443d-4c8f-9617-cbbc71bf43e3","ios":"levelo://app?vid=a9f2445f-443d-4c8f-9617-cbbc71bf43e3"},"vehicle_type_id":"4","last_reported":1708293960,"current_range_meters":28800,"station_id":"ce4bgr92rcd13ifvqc6g","pricing_plan_id":"cebpf4jnsgd1na2vs0mg"},{"bike_id":"5aed267b-0f67-447d-9661-791d5574a4d5","system_id":"levelo_inurba_marseille","lat":43.31341,"lon":5.367098,"is_reserved":false,"is_disabled":false,"rental_uris":{"android":"levelo://app?vid=5aed267b-0f67-447d-9661-791d5574a4d5","ios":"levelo://app?vid=5aed267b-0f67-447d-9661-791d5574a4d5"},"vehicle_type_id":"4","last_reported":1708293960,"current_range_meters":1200,"station_id":"ce4bgr92rcd13ifvqc6g","pricing_plan_id":"cebpf4jnsgd1na2vs0mg"},{"bike_id":"b792942d-07e5-4a3a-8fa8-0962e743e2e0","system_id":"levelo_inurba_marseille","lat":43.3136,"lon":5.36722,"is_reserved":false,"is_disabled":false,"rental_uris":{"android":"levelo://app?vid=b792942d-07e5-4a3a-8fa8-0962e743e2e0","ios":"levelo://app?vid=b792942d-07e5-4a3a-8fa8-0962e743e2e0"},"vehicle_type_id":"4","last_reported":1708293960,"current_range_meters":23600,"station_id":"","pricing_plan_id":"cebpf4jnsgd1na2vs0mg"},{"bike_id":"ea5c0c32-8631-4610-b29a-a83779eec97a","system_id":"levelo_inurba_marseille","lat":43.312239,"lon":5.368562,"is_reserved":false,"is_disabled":false,"rental_uris":{"android":"levelo://app?vid=ea5c0c32-8631-4610-b29a-a83779eec97a","ios":"levelo://app?vid=ea5c0c32-8631-4610-b29a-a83779eec97a"},"vehicle_type_id":"4","last_reported":1708293960,"current_range_meters":31200,"station_id":"ce4bgl92rcd13ifvqbq0","pricing_plan_id":"cebpf4jnsgd1na2vs0mg"},{"bike_id":"da1c86aa-22f2-4473-8f4a-7e78dd04a841","system_id":"levelo_inurba_marseille","lat":43.312239,"lon":5.368562,"is_reserved":false,"is_disabled":false,"rental_uris":{"android":"levelo://app?vid=da1c86aa-22f2-4473-8f4a-7e78dd04a841","ios":"levelo://app?vid=da1c86aa-22f2-4473-8f4a-7e78dd04a841"},"vehicle_type_id":"4","last_reported":1708293960,"current_range_meters":22400,"station_id":"ce4bgl92rcd13ifvqbq0","pricing_plan_id":"cebpf4jnsgd1na2vs0mg"},{"bike_id":"5c5d8287-3d4a-4db2-b984-abb5b5353fda","system_id":"levelo_inurba_marseille","lat":43.309076,"lon":5.368465,"is_reserved":false,"is_disabled":false,"rental_uris":{"android":"levelo://app?vid=5c5d8287-3d4a-4db2-b984-abb5b5353fda","ios":"levelo://app?vid=5c5d8287-3d4a-4db2-b984-abb5b5353fda"},"vehicle_type_id":"4","last_reported":1708293960,"current_range_meters":28000,"station_id":"ce4bgn92rcd13ifvqbvg","pricing_plan_id":"cebpf4jnsgd1na2vs0mg"},{"bike_id":"6e290d04-d291-4e79-8d06-19d552164b14","system_id":"levelo_inurba_marseille","lat":43.314811,"lon":5.373103,"is_reserved":false,"is_disabled":false,"rental_uris":{"android":"levelo://app?vid=6e290d04-d291-4e79-8d06-19d552164b14","ios":"levelo://app?vid=6e290d04-d291-4e79-8d06-19d552164b14"},"vehicle_type_id":"4","last_reported":1708293960,"current_range_meters":28000,"station_id":"ce4bgt12rcd13ifvqcd0","pricing_plan_id":"cebpf4jnsgd1na2vs0mg"},{"bike_id":"29869b8b-e82b-4ad0-b68a-706c31005a11","system_id":"levelo_inurba_marseille","lat":43.314811,"lon":5.373103,"is_reserved":false,"is_disabled":false,"rental_uris":{"android":"levelo://app?vid=29869b8b-e82b-4ad0-b68a-706c31005a11","ios":"levelo://app?vid=29869b8b-e82b-4ad0-b68a-706c31005a11"},"vehicle_type_id":"4","last_reported":1708293960,"current_range_meters":11600,"station_id":"ce4bgt12rcd13ifvqcd0","pricing_plan_id":"cebpf4jnsgd1na2vs0mg"},{"bike_id":"ec666566-a300-442e-8280-c4869058d49d","system_id":"levelo_inurba_marseille","lat":43.314811,"lon":5.373103,"is_reserved":false,"is_disabled":false,"rental_uris":{"android":"levelo://app?vid=ec666566-a300-442e-8280-c4869058d49d","ios":"levelo://app?vid=ec666566-a300-442e-8280-c4869058d49d"},"vehicle_type_id":"4","last_reported":1708293960,"current_range_meters":24400,"station_id":"ce4bgt12rcd13ifvqcd0","pricing_plan_id":"cebpf4jnsgd1na2vs0mg"},{"bike_id":"d2f2498f-300c-4a64-8d79-774b98d2b232","system_id":"levelo_inurba_marseille","lat":43.309039,"lon":5.371797,"is_reserved":false,"is_disabled":false,"rental_uris":{"android":"levelo://app?vid=d2f2498f-300c-4a64-8d79-774b98d2b232","ios":"levelo://app?vid=d2f2498f-300c-4a64-8d79-774b98d2b232"},"vehicle_type_id":"4","last_reported":1708293960,"current_range_meters":29600,"station_id":"ce4bguh2rcd13ifvqckg","pricing_plan_id":"cebpf4jnsgd1na2vs0mg"},{"bike_id":"112d763b-dabf-4bf6-8c85-dd9a02cf564b","system_id":"levelo_inurba_marseille","lat":43.309039,"lon":5.371797,"is_reserved":false,"is_disabled":false,"rental_uris":{"android":"levelo://app?vid=112d763b-dabf-4bf6-8c85-dd9a02cf564b","ios":"levelo://app?vid=112d763b-dabf-4bf6-8c85-dd9a02cf564b"},"vehicle_type_id":"4","last_reported":1708293960,"current_range_meters":31200,"station_id":"ce4bguh2rcd13ifvqckg","pricing_plan_id":"cebpf4jnsgd1na2vs0mg"},{"bike_id":"59d69e69-448f-425a-8663-bdab46ceb548","system_id":"levelo_inurba_marseille","lat":43.309039,"lon":5.371797,"is_reserved":false,"is_disabled":false,"rental_uris":{"android":"levelo://app?vid=59d69e69-448f-425a-8663-bdab46ceb548","ios":"levelo://app?vid=59d69e69-448f-425a-8663-bdab46ceb548"},"vehicle_type_id":"4","last_reported":1708293960,"current_range_meters":29600,"station_id":"ce4bguh2rcd13ifvqckg","pricing_plan_id":"cebpf4jnsgd1na2vs0mg"},{"bike_id":"353fa2ac-6019-40f6-9d86-fdaa250bd21b","system_id":"levelo_inurba_marseille","lat":43.30539,"lon":5.36707,"is_reserved":false,"is_disabled":false,"rental_uris":{"android":"levelo://app?vid=353fa2ac-6019-40f6-9d86-fdaa250bd21b","ios":"levelo://app?vid=353fa2ac-6019-40f6-9d86-fdaa250bd21b"},"vehicle_type_id":"4","last_reported":1708293960,"current_range_meters":26800,"station_id":"ce4bgrp2rcd13ifvqc9g","pricing_plan_id":"cebpf4jnsgd1na2vs0mg"},{"bike_id":"7889d020-9eb6-4a29-8112-228873e4f656","system_id":"levelo_inurba_marseille","lat":43.305368,"lon":5.367343,"is_reserved":false,"is_disabled":false,"rental_uris":{"android":"levelo://app?vid=7889d020-9eb6-4a29-8112-228873e4f656","ios":"levelo://app?vid=7889d020-9eb6-4a29-8112-228873e4f656"},"vehicle_type_id":"4","last_reported":1708293960,"current_range_meters":26800,"station_id":"ce4bgrp2rcd13ifvqc9g","pricing_plan_id":"cebpf4jnsgd1na2vs0mg"},{"bike_id":"a4bb28c8-2891-4129-a271-32b62225cfb3","system_id":"levelo_inurba_marseille","lat":43.305989,"lon":5.37225,"is_reserved":false,"is_disabled":false,"rental_uris":{"android":"levelo://app?vid=a4bb28c8-2891-4129-a271-32b62225cfb3","ios":"levelo://app?vid=a4bb28c8-2891-4129-a271-32b62225cfb3"},"vehicle_type_id":"4","last_reported":1708293960,"current_range_meters":24800,"station_id":"ce4bgqh2rcd13ifvqc4g","pricing_plan_id":"cebpf4jnsgd1na2vs0mg"},{"bike_id":"c3f12bfd-5c37-497e-8916-0a8363fac09f","system_id":"levelo_inurba_marseille","lat":43.311125,"lon":5.377624,"is_reserved":false,"is_disabled":false,"rental_uris":{"android":"levelo://app?vid=c3f12bfd-5c37-497e-8916-0a8363fac09f","ios":"levelo://app?vid=c3f12bfd-5c37-497e-8916-0a8363fac09f"},"vehicle_type_id":"4","last_reported":1708293960,"current_range_meters":0,"station_id":"ce4bgt92rcd13ifvqcg0","pricing_plan_id":"cebpf4jnsgd1na2vs0mg"},{"bike_id":"66ab1d19-acea-4b6e-a5be-7a1a4e75e43c","system_id":"levelo_inurba_marseille","lat":43.311125,"lon":5.377624,"is_reserved":false,"is_disabled":false,"rental_uris":{"android":"levelo://app?vid=66ab1d19-acea-4b6e-a5be-7a1a4e75e43c","ios":"levelo://app?vid=66ab1d19-acea-4b6e-a5be-7a1a4e75e43c"},"vehicle_type_id":"4","last_reported":1708293960,"current_range_meters":0,"station_id":"ce4bgt92rcd13ifvqcg0","pricing_plan_id":"cebpf4jnsgd1na2vs0mg"},{"bike_id":"dcfcdf94-5c41-4300-952b-109d34c74f12","system_id":"levelo_inurba_marseille","lat":43.3112,"lon":5.37765,"is_reserved":false,"is_disabled":false,"rental_uris":{"android":"levelo://app?vid=dcfcdf94-5c41-4300-952b-109d34c74f12","ios":"levelo://app?vid=dcfcdf94-5c41-4300-952b-109d34c74f12"},"vehicle_type_id":"4","last_reported":1708293960,"current_range_meters":0,"station_id":"ce4bgt92rcd13ifvqcg0","pricing_plan_id":"cebpf4jnsgd1na2vs0mg"},{"bike_id":"239b513d-5b30-4da6-9871-918b729a9b6f","system_id":"levelo_inurba_marseille","lat":43.31126,"lon":5.37768,"is_reserved":false,"is_disabled":false,"rental_uris":{"android":"levelo://app?vid=239b513d-5b30-4da6-9871-918b729a9b6f","ios":"levelo://app?vid=239b513d-5b30-4da6-9871-918b729a9b6f"},"vehicle_type_id":"4","last_reported":1708293960,"current_range_meters":4400,"station_id":"ce4bgt92rcd13ifvqcg0","pricing_plan_id":"cebpf4jnsgd1na2vs0mg"},{"bike_id":"d631fea2-840d-4df6-946a-a1d835c50c88","system_id":"levelo_inurba_marseille","lat":43.31647,"lon":5.37678,"is_reserved":false,"is_disabled":false,"rental_uris":{"android":"levelo://app?vid=d631fea2-840d-4df6-946a-a1d835c50c88","ios":"levelo://app?vid=d631fea2-840d-4df6-946a-a1d835c50c88"},"vehicle_type_id":"4","last_reported":1708293960,"current_range_meters":1600,"station_id":"","pricing_plan_id":"cebpf4jnsgd1na2vs0mg"},{"bike_id":"507fb6f0-068e-4399-a275-3ffe28df97c2","system_id":"levelo_inurba_marseille","lat":43.307945,"lon":5.376487,"is_reserved":false,"is_disabled":false,"rental_uris":{"android":"levelo://app?vid=507fb6f0-068e-4399-a275-3ffe28df97c2","ios":"levelo://app?vid=507fb6f0-068e-4399-a275-3ffe28df97c2"},"vehicle_type_id":"4","last_reported":1708293960,"current_range_meters":28800,"station_id":"ce4bgv92rcd13ifvqcq0","pricing_plan_id":"cebpf4jnsgd1na2vs0mg"},{"bike_id":"d005443a-ae51-48e0-87c6-3fa18045c89e","system_id":"levelo_inurba_marseille","lat":43.307945,"lon":5.376487,"is_reserved":false,"is_disabled":false,"rental_uris":{"android":"levelo://app?vid=d005443a-ae51-48e0-87c6-3fa18045c89e","ios":"levelo://app?vid=d005443a-ae51-48e0-87c6-3fa18045c89e"},"vehicle_type_id":"4","last_reported":1708293960,"current_range_meters":31200,"station_id":"ce4bgv92rcd13ifvqcq0","pricing_plan_id":"cebpf4jnsgd1na2vs0mg"},{"bike_id":"f859dc8a-8daa-4d89-a097-0dc870b2e915","system_id":"levelo_inurba_marseille","lat":43.307945,"lon":5.376487,"is_reserved":false,"is_disabled":false,"rental_uris":{"android":"levelo://app?vid=f859dc8a-8daa-4d89-a097-0dc870b2e915","ios":"levelo://app?vid=f859dc8a-8daa-4d89-a097-0dc870b2e915"},"vehicle_type_id":"4","last_reported":1708293960,"current_range_meters":24400,"station_id":"ce4bgv92rcd13ifvqcq0","pricing_plan_id":"cebpf4jnsgd1na2vs0mg"},{"bike_id":"64baf788-ffd1-4b88-9bad-520df11df0d5","system_id":"levelo_inurba_marseille","lat":43.307945,"lon":5.376487,"is_reserved":false,"is_disabled":false,"rental_uris":{"android":"levelo://app?vid=64baf788-ffd1-4b88-9bad-520df11df0d5","ios":"levelo://app?vid=64baf788-ffd1-4b88-9bad-520df11df0d5"},"vehicle_type_id":"4","last_reported":1708293960,"current_range_meters":21200,"station_id":"ce4bgv92rcd13ifvqcq0","pricing_plan_id":"cebpf4jnsgd1na2vs0mg"},{"bike_id":"b1050052-f134-4809-8bab-e9298aaae57e","system_id":"levelo_inurba_marseille","lat":43.307945,"lon":5.376487,"is_reserved":false,"is_disabled":false,"rental_uris":{"android":"levelo://app?vid=b1050052-f134-4809-8bab-e9298aaae57e","ios":"levelo://app?vid=b1050052-f134-4809-8bab-e9298aaae57e"},"vehicle_type_id":"4","last_reported":1708293960,"current_range_meters":19600,"station_id":"ce4bgv92rcd13ifvqcq0","pricing_plan_id":"cebpf4jnsgd1na2vs0mg"},{"bike_id":"e3434087-03dd-43f7-b8ce-413a04c9fdbb","system_id":"levelo_inurba_marseille","lat":43.307945,"lon":5.376487,"is_reserved":false,"is_disabled":false,"rental_uris":{"android":"levelo://app?vid=e3434087-03dd-43f7-b8ce-413a04c9fdbb","ios":"levelo://app?vid=e3434087-03dd-43f7-b8ce-413a04c9fdbb"},"vehicle_type_id":"4","last_reported":1708293960,"current_range_meters":22800,"station_id":"ce4bgv92rcd13ifvqcq0","pricing_plan_id":"cebpf4jnsgd1na2vs0mg"},{"bike_id":"0b4a8a91-d210-49a2-b1a9-2b71e0bb1916","system_id":"levelo_inurba_marseille","lat":43.307945,"lon":5.376487,"is_reserved":false,"is_disabled":false,"rental_uris":{"android":"levelo://app?vid=0b4a8a91-d210-49a2-b1a9-2b71e0bb1916","ios":"levelo://app?vid=0b4a8a91-d210-49a2-b1a9-2b71e0bb1916"},"vehicle_type_id":"4","last_reported":1708293960,"current_range_meters":13200,"station_id":"ce4bgv92rcd13ifvqcq0","pricing_plan_id":"cebpf4jnsgd1na2vs0mg"},{"bike_id":"1ca39bfc-b23c-4849-b50b-7059cb1d1ccc","system_id":"levelo_inurba_marseille","lat":43.307945,"lon":5.376487,"is_reserved":false,"is_disabled":false,"rental_uris":{"android":"levelo://app?vid=1ca39bfc-b23c-4849-b50b-7059cb1d1ccc","ios":"levelo://app?vid=1ca39bfc-b23c-4849-b50b-7059cb1d1ccc"},"vehicle_type_id":"4","last_reported":1708293960,"current_range_meters":14800,"station_id":"ce4bgv92rcd13ifvqcq0","pricing_plan_id":"cebpf4jnsgd1na2vs0mg"},{"bike_id":"225d7a65-fca2-426c-aead-e1ad7f83ce4b","system_id":"levelo_inurba_marseille","lat":43.307945,"lon":5.376487,"is_reserved":false,"is_disabled":false,"rental_uris":{"android":"levelo://app?vid=225d7a65-fca2-426c-aead-e1ad7f83ce4b","ios":"levelo://app?vid=225d7a65-fca2-426c-aead-e1ad7f83ce4b"},"vehicle_type_id":"4","last_reported":1708293960,"current_range_meters":30000,"station_id":"ce4bgv92rcd13ifvqcq0","pricing_plan_id":"cebpf4jnsgd1na2vs0mg"},{"bike_id":"e93332c8-71cb-4a70-a2cb-8dae89f30527","system_id":"levelo_inurba_marseille","lat":43.317075,"lon":5.377367,"is_reserved":false,"is_disabled":false,"rental_uris":{"android":"levelo://app?vid=e93332c8-71cb-4a70-a2cb-8dae89f30527","ios":"levelo://app?vid=e93332c8-71cb-4a70-a2cb-8dae89f30527"},"vehicle_type_id":"4","last_reported":1708293960,"current_range_meters":26000,"station_id":"ce4bgth2rcd13ifvqch0","pricing_plan_id":"cebpf4jnsgd1na2vs0mg"},{"bike_id":"be5dbcdc-1f10-45a5-b004-90b2e2708f05","system_id":"levelo_inurba_marseille","lat":43.317075,"lon":5.377367,"is_reserved":false,"is_disabled":false,"rental_uris":{"android":"levelo://app?vid=be5dbcdc-1f10-45a5-b004-90b2e2708f05","ios":"levelo://app?vid=be5dbcdc-1f10-45a5-b004-90b2e2708f05"},"vehicle_type_id":"4","last_reported":1708293960,"current_range_meters":400,"station_id":"ce4bgth2rcd13ifvqch0","pricing_plan_id":"cebpf4jnsgd1na2vs0mg"},{"bike_id":"132a5aa7-f33d-49fc-b763-521379347f8a","system_id":"levelo_inurba_marseille","lat":43.317075,"lon":5.377367,"is_reserved":false,"is_disabled":false,"rental_uris":{"android":"levelo://app?vid=132a5aa7-f33d-49fc-b763-521379347f8a","ios":"levelo://app?vid=132a5aa7-f33d-49fc-b763-521379347f8a"},"vehicle_type_id":"4","last_reported":1708293960,"current_range_meters":10400,"station_id":"ce4bgth2rcd13ifvqch0","pricing_plan_id":"cebpf4jnsgd1na2vs0mg"},{"bike_id":"bc69dc95-f247-4c44-af35-14014e9afd57","system_id":"levelo_inurba_marseille","lat":43.317075,"lon":5.377367,"is_reserved":false,"is_disabled":false,"rental_uris":{"android":"levelo://app?vid=bc69dc95-f247-4c44-af35-14014e9afd57","ios":"levelo://app?vid=bc69dc95-f247-4c44-af35-14014e9afd57"},"vehicle_type_id":"4","last_reported":1708293960,"current_range_meters":0,"station_id":"ce4bgth2rcd13ifvqch0","pricing_plan_id":"cebpf4jnsgd1na2vs0mg"},{"bike_id":"867c122c-3f7d-454f-addf-22fd55dff8b0","system_id":"levelo_inurba_marseille","lat":43.30304,"lon":5.368987,"is_reserved":false,"is_disabled":false,"rental_uris":{"android":"levelo://app?vid=867c122c-3f7d-454f-addf-22fd55dff8b0","ios":"levelo://app?vid=867c122c-3f7d-454f-addf-22fd55dff8b0"},"vehicle_type_id":"4","last_reported":1708293960,"current_range_meters":25600,"station_id":"ce4bgqh2rcd13ifvqc5g","pricing_plan_id":"cebpf4jnsgd1na2vs0mg"},{"bike_id":"aad82857-b45e-4bb1-823b-a6dca26fa44f","system_id":"levelo_inurba_marseille","lat":43.30304,"lon":5.368987,"is_reserved":false,"is_disabled":false,"rental_uris":{"android":"levelo://app?vid=aad82857-b45e-4bb1-823b-a6dca26fa44f","ios":"levelo://app?vid=aad82857-b45e-4bb1-823b-a6dca26fa44f"},"vehicle_type_id":"4","last_reported":1708293960,"current_range_meters":21200,"station_id":"ce4bgqh2rcd13ifvqc5g","pricing_plan_id":"cebpf4jnsgd1na2vs0mg"},{"bike_id":"8eae1c03-baf7-40c6-a32a-160eabcf050c","system_id":"levelo_inurba_marseille","lat":43.30323,"lon":5.36912,"is_reserved":false,"is_disabled":false,"rental_uris":{"android":"levelo://app?vid=8eae1c03-baf7-40c6-a32a-160eabcf050c","ios":"levelo://app?vid=8eae1c03-baf7-40c6-a32a-160eabcf050c"},"vehicle_type_id":"4","last_reported":1708293960,"current_range_meters":12800,"station_id":"ce4bgqh2rcd13ifvqc5g","pricing_plan_id":"cebpf4jnsgd1na2vs0mg"},{"bike_id":"6507e231-e77c-4bdc-b66e-9eff58bf33e7","system_id":"levelo_inurba_marseille","lat":43.3032,"lon":5.36904,"is_reserved":false,"is_disabled":false,"rental_uris":{"android":"levelo://app?vid=6507e231-e77c-4bdc-b66e-9eff58bf33e7","ios":"levelo://app?vid=6507e231-e77c-4bdc-b66e-9eff58bf33e7"},"vehicle_type_id":"4","last_reported":1708293960,"current_range_meters":31200,"station_id":"ce4bgqh2rcd13ifvqc5g","pricing_plan_id":"cebpf4jnsgd1na2vs0mg"},{"bike_id":"1d5b4665-ff7a-44d0-9754-dd79d2cca45e","system_id":"levelo_inurba_marseille","lat":43.30304,"lon":5.368987,"is_reserved":false,"is_disabled":false,"rental_uris":{"android":"levelo://app?vid=1d5b4665-ff7a-44d0-9754-dd79d2cca45e","ios":"levelo://app?vid=1d5b4665-ff7a-44d0-9754-dd79d2cca45e"},"vehicle_type_id":"4","last_reported":1708293960,"current_range_meters":25200,"station_id":"ce4bgqh2rcd13ifvqc5g","pricing_plan_id":"cebpf4jnsgd1na2vs0mg"},{"bike_id":"a9b05e8c-9af8-48f3-99b8-f21c0a34c784","system_id":"levelo_inurba_marseille","lat":43.303032,"lon":5.369121,"is_reserved":false,"is_disabled":false,"rental_uris":{"android":"levelo://app?vid=a9b05e8c-9af8-48f3-99b8-f21c0a34c784","ios":"levelo://app?vid=a9b05e8c-9af8-48f3-99b8-f21c0a34c784"},"vehicle_type_id":"4","last_reported":1708293960,"current_range_meters":2400,"station_id":"ce4bgqh2rcd13ifvqc5g","pricing_plan_id":"cebpf4jnsgd1na2vs0mg"},{"bike_id":"c7537840-3eeb-45e1-9d3c-0392e9fc5d64","system_id":"levelo_inurba_marseille","lat":43.315293,"lon":5.380349,"is_reserved":false,"is_disabled":false,"rental_uris":{"android":"levelo://app?vid=c7537840-3eeb-45e1-9d3c-0392e9fc5d64","ios":"levelo://app?vid=c7537840-3eeb-45e1-9d3c-0392e9fc5d64"},"vehicle_type_id":"4","last_reported":1708293960,"current_range_meters":27200,"station_id":"ce4bhsp2rcd13ifvqi50","pricing_plan_id":"cebpf4jnsgd1na2vs0mg"},{"bike_id":"d1b45769-dce1-4ab1-b277-b52842e827dd","system_id":"levelo_inurba_marseille","lat":43.315293,"lon":5.380349,"is_reserved":false,"is_disabled":false,"rental_uris":{"android":"levelo://app?vid=d1b45769-dce1-4ab1-b277-b52842e827dd","ios":"levelo://app?vid=d1b45769-dce1-4ab1-b277-b52842e827dd"},"vehicle_type_id":"4","last_reported":1708293960,"current_range_meters":25600,"station_id":"ce4bhsp2rcd13ifvqi50","pricing_plan_id":"cebpf4jnsgd1na2vs0mg"},{"bike_id":"4984f23c-3c11-47d0-930d-65af28a99aa4","system_id":"levelo_inurba_marseille","lat":43.301939,"lon":5.366286,"is_reserved":false,"is_disabled":false,"rental_uris":{"android":"levelo://app?vid=4984f23c-3c11-47d0-930d-65af28a99aa4","ios":"levelo://app?vid=4984f23c-3c11-47d0-930d-65af28a99aa4"},"vehicle_type_id":"4","last_reported":1708293960,"current_range_meters":20800,"station_id":"ce4bgrh2rcd13ifvqc8g","pricing_plan_id":"cebpf4jnsgd1na2vs0mg"},{"bike_id":"82c9e457-3d70-4112-9b2f-2f487a7ba077","system_id":"levelo_inurba_marseille","lat":43.301939,"lon":5.366286,"is_reserved":false,"is_disabled":false,"rental_uris":{"android":"levelo://app?vid=82c9e457-3d70-4112-9b2f-2f487a7ba077","ios":"levelo://app?vid=82c9e457-3d70-4112-9b2f-2f487a7ba077"},"vehicle_type_id":"4","last_reported":1708293960,"current_range_meters":22000,"station_id":"ce4bgrh2rcd13ifvqc8g","pricing_plan_id":"cebpf4jnsgd1na2vs0mg"},{"bike_id":"97025c9b-b2d1-4b08-a468-92852dcc6155","system_id":"levelo_inurba_marseille","lat":43.301939,"lon":5.366286,"is_reserved":false,"is_disabled":false,"rental_uris":{"android":"levelo://app?vid=97025c9b-b2d1-4b08-a468-92852dcc6155","ios":"levelo://app?vid=97025c9b-b2d1-4b08-a468-92852dcc6155"},"vehicle_type_id":"4","last_reported":1708293960,"current_range_meters":26800,"station_id":"ce4bgrh2rcd13ifvqc8g","pricing_plan_id":"cebpf4jnsgd1na2vs0mg"},{"bike_id":"3763d817-decc-4c5c-aff6-f2f81539685a","system_id":"levelo_inurba_marseille","lat":43.301939,"lon":5.366286,"is_reserved":false,"is_disabled":false,"rental_uris":{"android":"levelo://app?vid=3763d817-decc-4c5c-aff6-f2f81539685a","ios":"levelo://app?vid=3763d817-decc-4c5c-aff6-f2f81539685a"},"vehicle_type_id":"4","last_reported":1708293960,"current_range_meters":27200,"station_id":"ce4bgrh2rcd13ifvqc8g","pricing_plan_id":"cebpf4jnsgd1na2vs0mg"},{"bike_id":"72ec0877-66a8-42a6-b101-b3249a2c2fe8","system_id":"levelo_inurba_marseille","lat":43.301939,"lon":5.366286,"is_reserved":false,"is_disabled":false,"rental_uris":{"android":"levelo://app?vid=72ec0877-66a8-42a6-b101-b3249a2c2fe8","ios":"levelo://app?vid=72ec0877-66a8-42a6-b101-b3249a2c2fe8"},"vehicle_type_id":"4","last_reported":1708293960,"current_range_meters":24000,"station_id":"ce4bgrh2rcd13ifvqc8g","pricing_plan_id":"cebpf4jnsgd1na2vs0mg"},{"bike_id":"97037516-bd94-427d-a890-85d30f506f20","system_id":"levelo_inurba_marseille","lat":43.308012,"lon":5.381511,"is_reserved":false,"is_disabled":false,"rental_uris":{"android":"levelo://app?vid=97037516-bd94-427d-a890-85d30f506f20","ios":"levelo://app?vid=97037516-bd94-427d-a890-85d30f506f20"},"vehicle_type_id":"4","last_reported":1708293960,"current_range_meters":24800,"station_id":"ce4bgt12rcd13ifvqce0","pricing_plan_id":"cebpf4jnsgd1na2vs0mg"},{"bike_id":"b01b8e90-efa5-49bf-9e36-82ad60270514","system_id":"levelo_inurba_marseille","lat":43.308012,"lon":5.381511,"is_reserved":false,"is_disabled":false,"rental_uris":{"android":"levelo://app?vid=b01b8e90-efa5-49bf-9e36-82ad60270514","ios":"levelo://app?vid=b01b8e90-efa5-49bf-9e36-82ad60270514"},"vehicle_type_id":"4","last_reported":1708293960,"current_range_meters":30000,"station_id":"ce4bgt12rcd13ifvqce0","pricing_plan_id":"cebpf4jnsgd1na2vs0mg"},{"bike_id":"7d085b4b-52ea-45ab-862b-a224c617378c","system_id":"levelo_inurba_marseille","lat":43.308012,"lon":5.381511,"is_reserved":false,"is_disabled":false,"rental_uris":{"android":"levelo://app?vid=7d085b4b-52ea-45ab-862b-a224c617378c","ios":"levelo://app?vid=7d085b4b-52ea-45ab-862b-a224c617378c"},"vehicle_type_id":"4","last_reported":1708293960,"current_range_meters":8000,"station_id":"ce4bgt12rcd13ifvqce0","pricing_plan_id":"cebpf4jnsgd1na2vs0mg"},{"bike_id":"7c66a11a-bea8-4a2a-98be-7794b214389b","system_id":"levelo_inurba_marseille","lat":43.324771,"lon":5.36557,"is_reserved":false,"is_disabled":false,"rental_uris":{"android":"levelo://app?vid=7c66a11a-bea8-4a2a-98be-7794b214389b","ios":"levelo://app?vid=7c66a11a-bea8-4a2a-98be-7794b214389b"},"vehicle_type_id":"4","last_reported":1708293960,"current_range_meters":4000,"station_id":"ce4bhs12rcd13ifvqhvg","pricing_plan_id":"cebpf4jnsgd1na2vs0mg"},{"bike_id":"52c7d0c2-438e-4f7d-9db4-ea70d4682f97","system_id":"levelo_inurba_marseille","lat":43.324771,"lon":5.36557,"is_reserved":false,"is_disabled":false,"rental_uris":{"android":"levelo://app?vid=52c7d0c2-438e-4f7d-9db4-ea70d4682f97","ios":"levelo://app?vid=52c7d0c2-438e-4f7d-9db4-ea70d4682f97"},"vehicle_type_id":"4","last_reported":1708293960,"current_range_meters":6000,"station_id":"ce4bhs12rcd13ifvqhvg","pricing_plan_id":"cebpf4jnsgd1na2vs0mg"},{"bike_id":"63bc16d4-b7f9-4b45-a0c3-b9a2c2b94897","system_id":"levelo_inurba_marseille","lat":43.324771,"lon":5.36557,"is_reserved":false,"is_disabled":false,"rental_uris":{"android":"levelo://app?vid=63bc16d4-b7f9-4b45-a0c3-b9a2c2b94897","ios":"levelo://app?vid=63bc16d4-b7f9-4b45-a0c3-b9a2c2b94897"},"vehicle_type_id":"4","last_reported":1708293960,"current_range_meters":20800,"station_id":"ce4bhs12rcd13ifvqhvg","pricing_plan_id":"cebpf4jnsgd1na2vs0mg"},{"bike_id":"c23fb3cb-7ea0-4101-b7a1-f384344b5413","system_id":"levelo_inurba_marseille","lat":43.324771,"lon":5.36557,"is_reserved":false,"is_disabled":false,"rental_uris":{"android":"levelo://app?vid=c23fb3cb-7ea0-4101-b7a1-f384344b5413","ios":"levelo://app?vid=c23fb3cb-7ea0-4101-b7a1-f384344b5413"},"vehicle_type_id":"4","last_reported":1708293960,"current_range_meters":3200,"station_id":"ce4bhs12rcd13ifvqhvg","pricing_plan_id":"cebpf4jnsgd1na2vs0mg"},{"bike_id":"7e07d9f0-518c-47cd-8d7e-779f7373efdf","system_id":"levelo_inurba_marseille","lat":43.310804,"lon":5.38359,"is_reserved":false,"is_disabled":false,"rental_uris":{"android":"levelo://app?vid=7e07d9f0-518c-47cd-8d7e-779f7373efdf","ios":"levelo://app?vid=7e07d9f0-518c-47cd-8d7e-779f7373efdf"},"vehicle_type_id":"4","last_reported":1708293960,"current_range_meters":4800,"station_id":"ce4bgv92rcd13ifvqcr0","pricing_plan_id":"cebpf4jnsgd1na2vs0mg"},{"bike_id":"754e2989-27cb-4ab7-8e10-48be78fed96c","system_id":"levelo_inurba_marseille","lat":43.31072,"lon":5.3835,"is_reserved":false,"is_disabled":false,"rental_uris":{"android":"levelo://app?vid=754e2989-27cb-4ab7-8e10-48be78fed96c","ios":"levelo://app?vid=754e2989-27cb-4ab7-8e10-48be78fed96c"},"vehicle_type_id":"4","last_reported":1708293960,"current_range_meters":20000,"station_id":"ce4bgv92rcd13ifvqcr0","pricing_plan_id":"cebpf4jnsgd1na2vs0mg"},{"bike_id":"79246f7a-0996-44f2-8a61-32d0d02b8ca8","system_id":"levelo_inurba_marseille","lat":43.31064,"lon":5.3835,"is_reserved":false,"is_disabled":false,"rental_uris":{"android":"levelo://app?vid=79246f7a-0996-44f2-8a61-32d0d02b8ca8","ios":"levelo://app?vid=79246f7a-0996-44f2-8a61-32d0d02b8ca8"},"vehicle_type_id":"4","last_reported":1708293960,"current_range_meters":28800,"station_id":"ce4bgv92rcd13ifvqcr0","pricing_plan_id":"cebpf4jnsgd1na2vs0mg"},{"bike_id":"788960f5-8ed5-4481-bb73-7631b9958599","system_id":"levelo_inurba_marseille","lat":43.310804,"lon":5.38359,"is_reserved":false,"is_disabled":false,"rental_uris":{"android":"levelo://app?vid=788960f5-8ed5-4481-bb73-7631b9958599","ios":"levelo://app?vid=788960f5-8ed5-4481-bb73-7631b9958599"},"vehicle_type_id":"4","last_reported":1708293960,"current_range_meters":20000,"station_id":"ce4bgv92rcd13ifvqcr0","pricing_plan_id":"cebpf4jnsgd1na2vs0mg"},{"bike_id":"2f5e9db4-bfda-4ffc-870b-0f5a0af09c77","system_id":"levelo_inurba_marseille","lat":43.286593,"lon":5.363346,"is_reserved":false,"is_disabled":false,"rental_uris":{"android":"levelo://app?vid=2f5e9db4-bfda-4ffc-870b-0f5a0af09c77","ios":"levelo://app?vid=2f5e9db4-bfda-4ffc-870b-0f5a0af09c77"},"vehicle_type_id":"4","last_reported":1708293960,"current_range_meters":20000,"station_id":"ce4bhah2rcd13ifvqej0","pricing_plan_id":"cebpf4jnsgd1na2vs0mg"},{"bike_id":"706811a8-c674-453a-b042-699c0dbd64a9","system_id":"levelo_inurba_marseille","lat":43.302784,"lon":5.377158,"is_reserved":false,"is_disabled":false,"rental_uris":{"android":"levelo://app?vid=706811a8-c674-453a-b042-699c0dbd64a9","ios":"levelo://app?vid=706811a8-c674-453a-b042-699c0dbd64a9"},"vehicle_type_id":"4","last_reported":1708293960,"current_range_meters":6000,"station_id":"ce4bguh2rcd13ifvqcj0","pricing_plan_id":"cebpf4jnsgd1na2vs0mg"},{"bike_id":"cdbf3681-66ac-4ee7-94a9-67bbe7b6f435","system_id":"levelo_inurba_marseille","lat":43.30143,"lon":5.37413,"is_reserved":false,"is_disabled":false,"rental_uris":{"android":"levelo://app?vid=cdbf3681-66ac-4ee7-94a9-67bbe7b6f435","ios":"levelo://app?vid=cdbf3681-66ac-4ee7-94a9-67bbe7b6f435"},"vehicle_type_id":"4","last_reported":1708293960,"current_range_meters":18800,"station_id":"ce4bgs92rcd13ifvqcc0","pricing_plan_id":"cebpf4jnsgd1na2vs0mg"},{"bike_id":"302c7f55-10a5-4035-84c8-ef4e10135502","system_id":"levelo_inurba_marseille","lat":43.319988,"lon":5.381553,"is_reserved":false,"is_disabled":false,"rental_uris":{"android":"levelo://app?vid=302c7f55-10a5-4035-84c8-ef4e10135502","ios":"levelo://app?vid=302c7f55-10a5-4035-84c8-ef4e10135502"},"vehicle_type_id":"4","last_reported":1708293960,"current_range_meters":10400,"station_id":"","pricing_plan_id":"cebpf4jnsgd1na2vs0mg"},{"bike_id":"aea83eeb-894e-4e64-af9e-5913ba8f4a55","system_id":"levelo_inurba_marseille","lat":43.320029,"lon":5.381649,"is_reserved":false,"is_disabled":false,"rental_uris":{"android":"levelo://app?vid=aea83eeb-894e-4e64-af9e-5913ba8f4a55","ios":"levelo://app?vid=aea83eeb-894e-4e64-af9e-5913ba8f4a55"},"vehicle_type_id":"4","last_reported":1708293960,"current_range_meters":0,"station_id":"ce4bhr12rcd13ifvqhpg","pricing_plan_id":"cebpf4jnsgd1na2vs0mg"},{"bike_id":"1a8195a0-b1df-4f2a-8447-3aa29b9665ee","system_id":"levelo_inurba_marseille","lat":43.313571,"lon":5.384829,"is_reserved":false,"is_disabled":false,"rental_uris":{"android":"levelo://app?vid=1a8195a0-b1df-4f2a-8447-3aa29b9665ee","ios":"levelo://app?vid=1a8195a0-b1df-4f2a-8447-3aa29b9665ee"},"vehicle_type_id":"4","last_reported":1708293960,"current_range_meters":6400,"station_id":"ce4bgt92rcd13ifvqcf0","pricing_plan_id":"cebpf4jnsgd1na2vs0mg"},{"bike_id":"8af21335-6e70-44e1-b160-aa2def534333","system_id":"levelo_inurba_marseille","lat":43.313571,"lon":5.384829,"is_reserved":false,"is_disabled":false,"rental_uris":{"android":"levelo://app?vid=8af21335-6e70-44e1-b160-aa2def534333","ios":"levelo://app?vid=8af21335-6e70-44e1-b160-aa2def534333"},"vehicle_type_id":"4","last_reported":1708293960,"current_range_meters":2800,"station_id":"ce4bgt92rcd13ifvqcf0","pricing_plan_id":"cebpf4jnsgd1na2vs0mg"},{"bike_id":"7234e1ac-a40e-4dff-92c3-42fd39a6a833","system_id":"levelo_inurba_marseille","lat":43.313571,"lon":5.384829,"is_reserved":false,"is_disabled":false,"rental_uris":{"android":"levelo://app?vid=7234e1ac-a40e-4dff-92c3-42fd39a6a833","ios":"levelo://app?vid=7234e1ac-a40e-4dff-92c3-42fd39a6a833"},"vehicle_type_id":"4","last_reported":1708293960,"current_range_meters":31200,"station_id":"ce4bgt92rcd13ifvqcf0","pricing_plan_id":"cebpf4jnsgd1na2vs0mg"},{"bike_id":"57999f0e-928d-4a50-a615-0cf606e516a4","system_id":"levelo_inurba_marseille","lat":43.31355,"lon":5.38496,"is_reserved":false,"is_disabled":false,"rental_uris":{"android":"levelo://app?vid=57999f0e-928d-4a50-a615-0cf606e516a4","ios":"levelo://app?vid=57999f0e-928d-4a50-a615-0cf606e516a4"},"vehicle_type_id":"4","last_reported":1708293960,"current_range_meters":17200,"station_id":"ce4bgt92rcd13ifvqcf0","pricing_plan_id":"cebpf4jnsgd1na2vs0mg"},{"bike_id":"63d9d154-8e14-4c27-b816-d1531d8aab93","system_id":"levelo_inurba_marseille","lat":43.31356,"lon":5.38496,"is_reserved":false,"is_disabled":false,"rental_uris":{"android":"levelo://app?vid=63d9d154-8e14-4c27-b816-d1531d8aab93","ios":"levelo://app?vid=63d9d154-8e14-4c27-b816-d1531d8aab93"},"vehicle_type_id":"4","last_reported":1708293960,"current_range_meters":20000,"station_id":"ce4bgt92rcd13ifvqcf0","pricing_plan_id":"cebpf4jnsgd1na2vs0mg"},{"bike_id":"7736b1c6-1910-4c66-85aa-3e20377626f6","system_id":"levelo_inurba_marseille","lat":43.3137,"lon":5.38495,"is_reserved":false,"is_disabled":false,"rental_uris":{"android":"levelo://app?vid=7736b1c6-1910-4c66-85aa-3e20377626f6","ios":"levelo://app?vid=7736b1c6-1910-4c66-85aa-3e20377626f6"},"vehicle_type_id":"4","last_reported":1708293960,"current_range_meters":17600,"station_id":"ce4bgt92rcd13ifvqcf0","pricing_plan_id":"cebpf4jnsgd1na2vs0mg"},{"bike_id":"ce985ac4-1ea6-4db8-bb44-20a72c153fb9","system_id":"levelo_inurba_marseille","lat":43.313698,"lon":5.384966,"is_reserved":false,"is_disabled":false,"rental_uris":{"android":"levelo://app?vid=ce985ac4-1ea6-4db8-bb44-20a72c153fb9","ios":"levelo://app?vid=ce985ac4-1ea6-4db8-bb44-20a72c153fb9"},"vehicle_type_id":"4","last_reported":1708293960,"current_range_meters":24800,"station_id":"ce4bgt92rcd13ifvqcf0","pricing_plan_id":"cebpf4jnsgd1na2vs0mg"},{"bike_id":"6f63ba89-bfea-4d79-9490-b0d84cfdf7a5","system_id":"levelo_inurba_marseille","lat":43.31352,"lon":5.38499,"is_reserved":false,"is_disabled":false,"rental_uris":{"android":"levelo://app?vid=6f63ba89-bfea-4d79-9490-b0d84cfdf7a5","ios":"levelo://app?vid=6f63ba89-bfea-4d79-9490-b0d84cfdf7a5"},"vehicle_type_id":"4","last_reported":1708293960,"current_range_meters":15200,"station_id":"ce4bgt92rcd13ifvqcf0","pricing_plan_id":"cebpf4jnsgd1na2vs0mg"},{"bike_id":"378bed4a-ef6c-4690-a40d-b9a1ad03d228","system_id":"levelo_inurba_marseille","lat":43.313777,"lon":5.385077,"is_reserved":false,"is_disabled":false,"rental_uris":{"android":"levelo://app?vid=378bed4a-ef6c-4690-a40d-b9a1ad03d228","ios":"levelo://app?vid=378bed4a-ef6c-4690-a40d-b9a1ad03d228"},"vehicle_type_id":"4","last_reported":1708293960,"current_range_meters":2800,"station_id":"ce4bgt92rcd13ifvqcf0","pricing_plan_id":"cebpf4jnsgd1na2vs0mg"},{"bike_id":"43f1d7cb-99e0-4f8a-af30-f0f1775227bb","system_id":"levelo_inurba_marseille","lat":43.299724,"lon":5.371829,"is_reserved":false,"is_disabled":false,"rental_uris":{"android":"levelo://app?vid=43f1d7cb-99e0-4f8a-af30-f0f1775227bb","ios":"levelo://app?vid=43f1d7cb-99e0-4f8a-af30-f0f1775227bb"},"vehicle_type_id":"4","last_reported":1708293960,"current_range_meters":16800,"station_id":"ce4bgr92rcd13ifvqc7g","pricing_plan_id":"cebpf4jnsgd1na2vs0mg"},{"bike_id":"81c36687-74fd-4dfe-88a9-30804d6a6091","system_id":"levelo_inurba_marseille","lat":43.299867,"lon":5.371775,"is_reserved":false,"is_disabled":false,"rental_uris":{"android":"levelo://app?vid=81c36687-74fd-4dfe-88a9-30804d6a6091","ios":"levelo://app?vid=81c36687-74fd-4dfe-88a9-30804d6a6091"},"vehicle_type_id":"4","last_reported":1708293960,"current_range_meters":31600,"station_id":"","pricing_plan_id":"cebpf4jnsgd1na2vs0mg"},{"bike_id":"2a0ac7e8-d126-43d9-acb9-230a34ba26be","system_id":"levelo_inurba_marseille","lat":43.299388,"lon":5.365416,"is_reserved":false,"is_disabled":false,"rental_uris":{"android":"levelo://app?vid=2a0ac7e8-d126-43d9-acb9-230a34ba26be","ios":"levelo://app?vid=2a0ac7e8-d126-43d9-acb9-230a34ba26be"},"vehicle_type_id":"4","last_reported":1708293960,"current_range_meters":12000,"station_id":"","pricing_plan_id":"cebpf4jnsgd1na2vs0mg"},{"bike_id":"4fbf49db-2218-4a00-97a4-1e1772d95a5e","system_id":"levelo_inurba_marseille","lat":43.299222,"lon":5.365554,"is_reserved":false,"is_disabled":false,"rental_uris":{"android":"levelo://app?vid=4fbf49db-2218-4a00-97a4-1e1772d95a5e","ios":"levelo://app?vid=4fbf49db-2218-4a00-97a4-1e1772d95a5e"},"vehicle_type_id":"4","last_reported":1708293960,"current_range_meters":20800,"station_id":"ce4bgm92rcd13ifvqbr0","pricing_plan_id":"cebpf4jnsgd1na2vs0mg"},{"bike_id":"31800b45-2a55-4fd1-a72a-814d57a6e19c","system_id":"levelo_inurba_marseille","lat":43.299751,"lon":5.371812,"is_reserved":false,"is_disabled":false,"rental_uris":{"android":"levelo://app?vid=31800b45-2a55-4fd1-a72a-814d57a6e19c","ios":"levelo://app?vid=31800b45-2a55-4fd1-a72a-814d57a6e19c"},"vehicle_type_id":"4","last_reported":1708293960,"current_range_meters":31200,"station_id":"ce4bgr92rcd13ifvqc7g","pricing_plan_id":"cebpf4jnsgd1na2vs0mg"},{"bike_id":"4669c7e6-fa07-4d16-a1fc-14ac32703112","system_id":"levelo_inurba_marseille","lat":43.29853,"lon":5.36283,"is_reserved":false,"is_disabled":false,"rental_uris":{"android":"levelo://app?vid=4669c7e6-fa07-4d16-a1fc-14ac32703112","ios":"levelo://app?vid=4669c7e6-fa07-4d16-a1fc-14ac32703112"},"vehicle_type_id":"4","last_reported":1708293960,"current_range_meters":9200,"station_id":"ce4bgpp2rcd13ifvqc3g","pricing_plan_id":"cebpf4jnsgd1na2vs0mg"},{"bike_id":"db2539a2-e6ce-4a32-b463-d8fcc9aeb8e9","system_id":"levelo_inurba_marseille","lat":43.305364,"lon":5.384119,"is_reserved":false,"is_disabled":false,"rental_uris":{"android":"levelo://app?vid=db2539a2-e6ce-4a32-b463-d8fcc9aeb8e9","ios":"levelo://app?vid=db2539a2-e6ce-4a32-b463-d8fcc9aeb8e9"},"vehicle_type_id":"4","last_reported":1708293960,"current_range_meters":23200,"station_id":"ce4bgg92rcd13ifvqb30","pricing_plan_id":"cebpf4jnsgd1na2vs0mg"},{"bike_id":"6d2fde19-bd6c-484d-95a3-f430d7694e3e","system_id":"levelo_inurba_marseille","lat":43.305364,"lon":5.384119,"is_reserved":false,"is_disabled":false,"rental_uris":{"android":"levelo://app?vid=6d2fde19-bd6c-484d-95a3-f430d7694e3e","ios":"levelo://app?vid=6d2fde19-bd6c-484d-95a3-f430d7694e3e"},"vehicle_type_id":"4","last_reported":1708293960,"current_range_meters":26000,"station_id":"ce4bgg92rcd13ifvqb30","pricing_plan_id":"cebpf4jnsgd1na2vs0mg"},{"bike_id":"f2ecd34c-fa35-439f-ba70-29e85aeb0673","system_id":"levelo_inurba_marseille","lat":43.299243,"lon":5.374807,"is_reserved":false,"is_disabled":false,"rental_uris":{"android":"levelo://app?vid=f2ecd34c-fa35-439f-ba70-29e85aeb0673","ios":"levelo://app?vid=f2ecd34c-fa35-439f-ba70-29e85aeb0673"},"vehicle_type_id":"4","last_reported":1708293960,"current_range_meters":21200,"station_id":"ce4bgjh2rcd13ifvqbg0","pricing_plan_id":"cebpf4jnsgd1na2vs0mg"},{"bike_id":"5602e923-2692-4c6e-a49c-75a8d62d6dd5","system_id":"levelo_inurba_marseille","lat":43.31177,"lon":5.38709,"is_reserved":false,"is_disabled":false,"rental_uris":{"android":"levelo://app?vid=5602e923-2692-4c6e-a49c-75a8d62d6dd5","ios":"levelo://app?vid=5602e923-2692-4c6e-a49c-75a8d62d6dd5"},"vehicle_type_id":"4","last_reported":1708293960,"current_range_meters":0,"station_id":"ce4bgv12rcd13ifvqcp0","pricing_plan_id":"cebpf4jnsgd1na2vs0mg"},{"bike_id":"6096ff48-310c-49f5-b974-80d33f4c2af8","system_id":"levelo_inurba_marseille","lat":43.311722,"lon":5.387247,"is_reserved":false,"is_disabled":false,"rental_uris":{"android":"levelo://app?vid=6096ff48-310c-49f5-b974-80d33f4c2af8","ios":"levelo://app?vid=6096ff48-310c-49f5-b974-80d33f4c2af8"},"vehicle_type_id":"4","last_reported":1708293960,"current_range_meters":23200,"station_id":"ce4bgv12rcd13ifvqcp0","pricing_plan_id":"cebpf4jnsgd1na2vs0mg"},{"bike_id":"be4a298e-0733-41e2-b923-4d0e248f26d3","system_id":"levelo_inurba_marseille","lat":43.311722,"lon":5.387247,"is_reserved":false,"is_disabled":false,"rental_uris":{"android":"levelo://app?vid=be4a298e-0733-41e2-b923-4d0e248f26d3","ios":"levelo://app?vid=be4a298e-0733-41e2-b923-4d0e248f26d3"},"vehicle_type_id":"4","last_reported":1708293960,"current_range_meters":22400,"station_id":"ce4bgv12rcd13ifvqcp0","pricing_plan_id":"cebpf4jnsgd1na2vs0mg"},{"bike_id":"02e8d649-49f0-4944-8c91-bf1d002cab94","system_id":"levelo_inurba_marseille","lat":43.311722,"lon":5.387247,"is_reserved":false,"is_disabled":false,"rental_uris":{"android":"levelo://app?vid=02e8d649-49f0-4944-8c91-bf1d002cab94","ios":"levelo://app?vid=02e8d649-49f0-4944-8c91-bf1d002cab94"},"vehicle_type_id":"4","last_reported":1708293960,"current_range_meters":27600,"station_id":"ce4bgv12rcd13ifvqcp0","pricing_plan_id":"cebpf4jnsgd1na2vs0mg"},{"bike_id":"87c8a562-01ec-4d5e-bf2a-03e6e1b020e9","system_id":"levelo_inurba_marseille","lat":43.311722,"lon":5.387247,"is_reserved":false,"is_disabled":false,"rental_uris":{"android":"levelo://app?vid=87c8a562-01ec-4d5e-bf2a-03e6e1b020e9","ios":"levelo://app?vid=87c8a562-01ec-4d5e-bf2a-03e6e1b020e9"},"vehicle_type_id":"4","last_reported":1708293960,"current_range_meters":0,"station_id":"ce4bgv12rcd13ifvqcp0","pricing_plan_id":"cebpf4jnsgd1na2vs0mg"},{"bike_id":"6b958a4e-1b5d-4cd8-aa2b-3ab7ede4786c","system_id":"levelo_inurba_marseille","lat":43.29776,"lon":5.37071,"is_reserved":false,"is_disabled":false,"rental_uris":{"android":"levelo://app?vid=6b958a4e-1b5d-4cd8-aa2b-3ab7ede4786c","ios":"levelo://app?vid=6b958a4e-1b5d-4cd8-aa2b-3ab7ede4786c"},"vehicle_type_id":"4","last_reported":1708293960,"current_range_meters":29200,"station_id":"ce4bgop2rcd13ifvqc1g","pricing_plan_id":"cebpf4jnsgd1na2vs0mg"},{"bike_id":"410a532b-f4d9-44b0-bece-5fd8115e2fc4","system_id":"levelo_inurba_marseille","lat":43.322872,"lon":5.382756,"is_reserved":false,"is_disabled":false,"rental_uris":{"android":"levelo://app?vid=410a532b-f4d9-44b0-bece-5fd8115e2fc4","ios":"levelo://app?vid=410a532b-f4d9-44b0-bece-5fd8115e2fc4"},"vehicle_type_id":"4","last_reported":1708293960,"current_range_meters":19200,"station_id":"ce4bhr12rcd13ifvqhqg","pricing_plan_id":"cebpf4jnsgd1na2vs0mg"},{"bike_id":"9af28949-3abe-4ee4-a57a-c236655c3362","system_id":"levelo_inurba_marseille","lat":43.322872,"lon":5.382756,"is_reserved":false,"is_disabled":false,"rental_uris":{"android":"levelo://app?vid=9af28949-3abe-4ee4-a57a-c236655c3362","ios":"levelo://app?vid=9af28949-3abe-4ee4-a57a-c236655c3362"},"vehicle_type_id":"4","last_reported":1708293960,"current_range_meters":31200,"station_id":"ce4bhr12rcd13ifvqhqg","pricing_plan_id":"cebpf4jnsgd1na2vs0mg"},{"bike_id":"332f5483-910c-44b6-99c7-084b56fd5fe6","system_id":"levelo_inurba_marseille","lat":43.322872,"lon":5.382756,"is_reserved":false,"is_disabled":false,"rental_uris":{"android":"levelo://app?vid=332f5483-910c-44b6-99c7-084b56fd5fe6","ios":"levelo://app?vid=332f5483-910c-44b6-99c7-084b56fd5fe6"},"vehicle_type_id":"4","last_reported":1708293960,"current_range_meters":26800,"station_id":"ce4bhr12rcd13ifvqhqg","pricing_plan_id":"cebpf4jnsgd1na2vs0mg"},{"bike_id":"c141ce68-b77e-46f1-8770-70ce92b66810","system_id":"levelo_inurba_marseille","lat":43.322872,"lon":5.382756,"is_reserved":false,"is_disabled":false,"rental_uris":{"android":"levelo://app?vid=c141ce68-b77e-46f1-8770-70ce92b66810","ios":"levelo://app?vid=c141ce68-b77e-46f1-8770-70ce92b66810"},"vehicle_type_id":"4","last_reported":1708293960,"current_range_meters":0,"station_id":"ce4bhr12rcd13ifvqhqg","pricing_plan_id":"cebpf4jnsgd1na2vs0mg"},{"bike_id":"b5af1ae3-0d58-42c2-9806-f9da992beb99","system_id":"levelo_inurba_marseille","lat":43.322872,"lon":5.382756,"is_reserved":false,"is_disabled":false,"rental_uris":{"android":"levelo://app?vid=b5af1ae3-0d58-42c2-9806-f9da992beb99","ios":"levelo://app?vid=b5af1ae3-0d58-42c2-9806-f9da992beb99"},"vehicle_type_id":"4","last_reported":1708293960,"current_range_meters":16400,"station_id":"ce4bhr12rcd13ifvqhqg","pricing_plan_id":"cebpf4jnsgd1na2vs0mg"},{"bike_id":"ec753b6f-c031-4c02-986d-1ed1256ab5f0","system_id":"levelo_inurba_marseille","lat":43.322872,"lon":5.382756,"is_reserved":false,"is_disabled":false,"rental_uris":{"android":"levelo://app?vid=ec753b6f-c031-4c02-986d-1ed1256ab5f0","ios":"levelo://app?vid=ec753b6f-c031-4c02-986d-1ed1256ab5f0"},"vehicle_type_id":"4","last_reported":1708293960,"current_range_meters":23200,"station_id":"ce4bhr12rcd13ifvqhqg","pricing_plan_id":"cebpf4jnsgd1na2vs0mg"},{"bike_id":"56e39d4e-cf47-4284-9a5f-c7eda237067f","system_id":"levelo_inurba_marseille","lat":43.32817,"lon":5.3669,"is_reserved":false,"is_disabled":false,"rental_uris":{"android":"levelo://app?vid=56e39d4e-cf47-4284-9a5f-c7eda237067f","ios":"levelo://app?vid=56e39d4e-cf47-4284-9a5f-c7eda237067f"},"vehicle_type_id":"4","last_reported":1708293960,"current_range_meters":24800,"station_id":"ce4bhs92rcd13ifvqi0g","pricing_plan_id":"cebpf4jnsgd1na2vs0mg"},{"bike_id":"5195dc94-0b55-41c8-9198-580992dd67c5","system_id":"levelo_inurba_marseille","lat":43.32822,"lon":5.36691,"is_reserved":false,"is_disabled":false,"rental_uris":{"android":"levelo://app?vid=5195dc94-0b55-41c8-9198-580992dd67c5","ios":"levelo://app?vid=5195dc94-0b55-41c8-9198-580992dd67c5"},"vehicle_type_id":"4","last_reported":1708293960,"current_range_meters":14800,"station_id":"ce4bhs92rcd13ifvqi0g","pricing_plan_id":"cebpf4jnsgd1na2vs0mg"},{"bike_id":"41c65e4b-4ba5-40db-9862-5e1c6e726334","system_id":"levelo_inurba_marseille","lat":43.328233,"lon":5.366782,"is_reserved":false,"is_disabled":false,"rental_uris":{"android":"levelo://app?vid=41c65e4b-4ba5-40db-9862-5e1c6e726334","ios":"levelo://app?vid=41c65e4b-4ba5-40db-9862-5e1c6e726334"},"vehicle_type_id":"4","last_reported":1708293960,"current_range_meters":0,"station_id":"ce4bhs92rcd13ifvqi0g","pricing_plan_id":"cebpf4jnsgd1na2vs0mg"},{"bike_id":"a7c23186-9058-42c6-a37b-c5cc63cf8aac","system_id":"levelo_inurba_marseille","lat":43.32824,"lon":5.366853,"is_reserved":false,"is_disabled":false,"rental_uris":{"android":"levelo://app?vid=a7c23186-9058-42c6-a37b-c5cc63cf8aac","ios":"levelo://app?vid=a7c23186-9058-42c6-a37b-c5cc63cf8aac"},"vehicle_type_id":"4","last_reported":1708293960,"current_range_meters":0,"station_id":"ce4bhs92rcd13ifvqi0g","pricing_plan_id":"cebpf4jnsgd1na2vs0mg"},{"bike_id":"39b1984d-8f02-4685-a70a-160b9ffb824d","system_id":"levelo_inurba_marseille","lat":43.32824,"lon":5.366796,"is_reserved":false,"is_disabled":false,"rental_uris":{"android":"levelo://app?vid=39b1984d-8f02-4685-a70a-160b9ffb824d","ios":"levelo://app?vid=39b1984d-8f02-4685-a70a-160b9ffb824d"},"vehicle_type_id":"4","last_reported":1708293960,"current_range_meters":2000,"station_id":"ce4bhs92rcd13ifvqi0g","pricing_plan_id":"cebpf4jnsgd1na2vs0mg"},{"bike_id":"45fe6c6c-2569-4aee-9c18-3f3586004f23","system_id":"levelo_inurba_marseille","lat":43.32826,"lon":5.36678,"is_reserved":false,"is_disabled":false,"rental_uris":{"android":"levelo://app?vid=45fe6c6c-2569-4aee-9c18-3f3586004f23","ios":"levelo://app?vid=45fe6c6c-2569-4aee-9c18-3f3586004f23"},"vehicle_type_id":"4","last_reported":1708293960,"current_range_meters":18000,"station_id":"ce4bhs92rcd13ifvqi0g","pricing_plan_id":"cebpf4jnsgd1na2vs0mg"},{"bike_id":"fcbb72e3-aeee-4031-b1db-dc05c41736e9","system_id":"levelo_inurba_marseille","lat":43.328285,"lon":5.36673,"is_reserved":false,"is_disabled":false,"rental_uris":{"android":"levelo://app?vid=fcbb72e3-aeee-4031-b1db-dc05c41736e9","ios":"levelo://app?vid=fcbb72e3-aeee-4031-b1db-dc05c41736e9"},"vehicle_type_id":"4","last_reported":1708293960,"current_range_meters":8800,"station_id":"ce4bhs92rcd13ifvqi0g","pricing_plan_id":"cebpf4jnsgd1na2vs0mg"},{"bike_id":"8b91b0de-2ff5-4793-a8be-76cc4a0e2c72","system_id":"levelo_inurba_marseille","lat":43.297163,"lon":5.365866,"is_reserved":false,"is_disabled":false,"rental_uris":{"android":"levelo://app?vid=8b91b0de-2ff5-4793-a8be-76cc4a0e2c72","ios":"levelo://app?vid=8b91b0de-2ff5-4793-a8be-76cc4a0e2c72"},"vehicle_type_id":"4","last_reported":1708293960,"current_range_meters":31200,"station_id":"ce4bgn12rcd13ifvqbt0","pricing_plan_id":"cebpf4jnsgd1na2vs0mg"},{"bike_id":"d4293f9d-0d56-46f3-aaf4-9639cf196cdc","system_id":"levelo_inurba_marseille","lat":43.3283,"lon":5.3669,"is_reserved":false,"is_disabled":false,"rental_uris":{"android":"levelo://app?vid=d4293f9d-0d56-46f3-aaf4-9639cf196cdc","ios":"levelo://app?vid=d4293f9d-0d56-46f3-aaf4-9639cf196cdc"},"vehicle_type_id":"4","last_reported":1708293960,"current_range_meters":6400,"station_id":"ce4bhs92rcd13ifvqi0g","pricing_plan_id":"cebpf4jnsgd1na2vs0mg"},{"bike_id":"ee7dd371-368a-440e-b6db-3978fbf82094","system_id":"levelo_inurba_marseille","lat":43.328371,"lon":5.366909,"is_reserved":false,"is_disabled":false,"rental_uris":{"android":"levelo://app?vid=ee7dd371-368a-440e-b6db-3978fbf82094","ios":"levelo://app?vid=ee7dd371-368a-440e-b6db-3978fbf82094"},"vehicle_type_id":"4","last_reported":1708293960,"current_range_meters":0,"station_id":"ce4bhs92rcd13ifvqi0g","pricing_plan_id":"cebpf4jnsgd1na2vs0mg"},{"bike_id":"2459963a-9a41-477a-9f46-310730d184fe","system_id":"levelo_inurba_marseille","lat":43.32832,"lon":5.36678,"is_reserved":false,"is_disabled":false,"rental_uris":{"android":"levelo://app?vid=2459963a-9a41-477a-9f46-310730d184fe","ios":"levelo://app?vid=2459963a-9a41-477a-9f46-310730d184fe"},"vehicle_type_id":"4","last_reported":1708293960,"current_range_meters":12400,"station_id":"ce4bhs92rcd13ifvqi0g","pricing_plan_id":"cebpf4jnsgd1na2vs0mg"},{"bike_id":"55f2d4b0-8802-4bd2-8697-0f012dcc25c1","system_id":"levelo_inurba_marseille","lat":43.32833,"lon":5.3668,"is_reserved":false,"is_disabled":false,"rental_uris":{"android":"levelo://app?vid=55f2d4b0-8802-4bd2-8697-0f012dcc25c1","ios":"levelo://app?vid=55f2d4b0-8802-4bd2-8697-0f012dcc25c1"},"vehicle_type_id":"4","last_reported":1708293960,"current_range_meters":29600,"station_id":"ce4bhs92rcd13ifvqi0g","pricing_plan_id":"cebpf4jnsgd1na2vs0mg"},{"bike_id":"893a329c-9f10-4068-9f5b-6c8718d136d4","system_id":"levelo_inurba_marseille","lat":43.328339,"lon":5.366869,"is_reserved":false,"is_disabled":false,"rental_uris":{"android":"levelo://app?vid=893a329c-9f10-4068-9f5b-6c8718d136d4","ios":"levelo://app?vid=893a329c-9f10-4068-9f5b-6c8718d136d4"},"vehicle_type_id":"4","last_reported":1708293960,"current_range_meters":19600,"station_id":"ce4bhs92rcd13ifvqi0g","pricing_plan_id":"cebpf4jnsgd1na2vs0mg"},{"bike_id":"c107a1fd-b0f2-471f-b77f-1965721ae4a4","system_id":"levelo_inurba_marseille","lat":43.297163,"lon":5.365866,"is_reserved":false,"is_disabled":false,"rental_uris":{"android":"levelo://app?vid=c107a1fd-b0f2-471f-b77f-1965721ae4a4","ios":"levelo://app?vid=c107a1fd-b0f2-471f-b77f-1965721ae4a4"},"vehicle_type_id":"4","last_reported":1708293960,"current_range_meters":7200,"station_id":"ce4bgn12rcd13ifvqbt0","pricing_plan_id":"cebpf4jnsgd1na2vs0mg"},{"bike_id":"3c15a5ae-13b4-437d-bb48-8e2c2e89f0c5","system_id":"levelo_inurba_marseille","lat":43.297163,"lon":5.365866,"is_reserved":false,"is_disabled":false,"rental_uris":{"android":"levelo://app?vid=3c15a5ae-13b4-437d-bb48-8e2c2e89f0c5","ios":"levelo://app?vid=3c15a5ae-13b4-437d-bb48-8e2c2e89f0c5"},"vehicle_type_id":"4","last_reported":1708293960,"current_range_meters":27200,"station_id":"ce4bgn12rcd13ifvqbt0","pricing_plan_id":"cebpf4jnsgd1na2vs0mg"},{"bike_id":"fac03320-8f28-45ce-9076-87b4f67554e8","system_id":"levelo_inurba_marseille","lat":43.297163,"lon":5.365866,"is_reserved":false,"is_disabled":false,"rental_uris":{"android":"levelo://app?vid=fac03320-8f28-45ce-9076-87b4f67554e8","ios":"levelo://app?vid=fac03320-8f28-45ce-9076-87b4f67554e8"},"vehicle_type_id":"4","last_reported":1708293960,"current_range_meters":31200,"station_id":"ce4bgn12rcd13ifvqbt0","pricing_plan_id":"cebpf4jnsgd1na2vs0mg"},{"bike_id":"e9fd7441-bbcd-4cec-8d02-6e314d5e2695","system_id":"levelo_inurba_marseille","lat":43.297163,"lon":5.365866,"is_reserved":false,"is_disabled":false,"rental_uris":{"android":"levelo://app?vid=e9fd7441-bbcd-4cec-8d02-6e314d5e2695","ios":"levelo://app?vid=e9fd7441-bbcd-4cec-8d02-6e314d5e2695"},"vehicle_type_id":"4","last_reported":1708293960,"current_range_meters":19200,"station_id":"ce4bgn12rcd13ifvqbt0","pricing_plan_id":"cebpf4jnsgd1na2vs0mg"},{"bike_id":"158cf516-870e-4a68-aa3f-0de3a85b20b5","system_id":"levelo_inurba_marseille","lat":43.2968,"lon":5.37291,"is_reserved":false,"is_disabled":false,"rental_uris":{"android":"levelo://app?vid=158cf516-870e-4a68-aa3f-0de3a85b20b5","ios":"levelo://app?vid=158cf516-870e-4a68-aa3f-0de3a85b20b5"},"vehicle_type_id":"4","last_reported":1708293960,"current_range_meters":22400,"station_id":"ce4bgk12rcd13ifvqbj0","pricing_plan_id":"cebpf4jnsgd1na2vs0mg"},{"bike_id":"fc73ceb6-7722-4fe1-92a3-e1cd90f65005","system_id":"levelo_inurba_marseille","lat":43.29622,"lon":5.367948,"is_reserved":false,"is_disabled":false,"rental_uris":{"android":"levelo://app?vid=fc73ceb6-7722-4fe1-92a3-e1cd90f65005","ios":"levelo://app?vid=fc73ceb6-7722-4fe1-92a3-e1cd90f65005"},"vehicle_type_id":"4","last_reported":1708293960,"current_range_meters":23200,"station_id":"","pricing_plan_id":"cebpf4jnsgd1na2vs0mg"},{"bike_id":"8d906096-2651-4bbe-b2ef-30c49d21cd6b","system_id":"levelo_inurba_marseille","lat":43.2968,"lon":5.37291,"is_reserved":false,"is_disabled":false,"rental_uris":{"android":"levelo://app?vid=8d906096-2651-4bbe-b2ef-30c49d21cd6b","ios":"levelo://app?vid=8d906096-2651-4bbe-b2ef-30c49d21cd6b"},"vehicle_type_id":"4","last_reported":1708293960,"current_range_meters":26400,"station_id":"ce4bgk12rcd13ifvqbj0","pricing_plan_id":"cebpf4jnsgd1na2vs0mg"},{"bike_id":"b36f6aa4-9fe1-4bda-943a-ae89beafda10","system_id":"levelo_inurba_marseille","lat":43.29573,"lon":5.367355,"is_reserved":false,"is_disabled":false,"rental_uris":{"android":"levelo://app?vid=b36f6aa4-9fe1-4bda-943a-ae89beafda10","ios":"levelo://app?vid=b36f6aa4-9fe1-4bda-943a-ae89beafda10"},"vehicle_type_id":"4","last_reported":1708293960,"current_range_meters":20400,"station_id":"ce4bgph2rcd13ifvqc2g","pricing_plan_id":"cebpf4jnsgd1na2vs0mg"},{"bike_id":"40b60137-b6ad-46b6-9281-7834c30f85e5","system_id":"levelo_inurba_marseille","lat":43.296131,"lon":5.370791,"is_reserved":false,"is_disabled":false,"rental_uris":{"android":"levelo://app?vid=40b60137-b6ad-46b6-9281-7834c30f85e5","ios":"levelo://app?vid=40b60137-b6ad-46b6-9281-7834c30f85e5"},"vehicle_type_id":"4","last_reported":1708293960,"current_range_meters":25200,"station_id":"ce4bgnh2rcd13ifvqc0g","pricing_plan_id":"cebpf4jnsgd1na2vs0mg"},{"bike_id":"8bc677b1-fa1a-4d75-9924-b0cccaf6a8e1","system_id":"levelo_inurba_marseille","lat":43.296129,"lon":5.370777,"is_reserved":false,"is_disabled":false,"rental_uris":{"android":"levelo://app?vid=8bc677b1-fa1a-4d75-9924-b0cccaf6a8e1","ios":"levelo://app?vid=8bc677b1-fa1a-4d75-9924-b0cccaf6a8e1"},"vehicle_type_id":"4","last_reported":1708293960,"current_range_meters":15200,"station_id":"ce4bgnh2rcd13ifvqc0g","pricing_plan_id":"cebpf4jnsgd1na2vs0mg"},{"bike_id":"895fa3a1-b8d7-4c59-8280-91c5c5e377be","system_id":"levelo_inurba_marseille","lat":43.29573,"lon":5.367355,"is_reserved":false,"is_disabled":false,"rental_uris":{"android":"levelo://app?vid=895fa3a1-b8d7-4c59-8280-91c5c5e377be","ios":"levelo://app?vid=895fa3a1-b8d7-4c59-8280-91c5c5e377be"},"vehicle_type_id":"4","last_reported":1708293960,"current_range_meters":26800,"station_id":"ce4bgph2rcd13ifvqc2g","pricing_plan_id":"cebpf4jnsgd1na2vs0mg"},{"bike_id":"4f2333d0-1cb3-4263-92d2-ae3a0f968a7d","system_id":"levelo_inurba_marseille","lat":43.299028,"lon":5.381509,"is_reserved":false,"is_disabled":false,"rental_uris":{"android":"levelo://app?vid=4f2333d0-1cb3-4263-92d2-ae3a0f968a7d","ios":"levelo://app?vid=4f2333d0-1cb3-4263-92d2-ae3a0f968a7d"},"vehicle_type_id":"4","last_reported":1708293960,"current_range_meters":18800,"station_id":"ce4bgj12rcd13ifvqbc0","pricing_plan_id":"cebpf4jnsgd1na2vs0mg"},{"bike_id":"d29cf0ad-1357-4d2c-a5f9-d7d12361a0d0","system_id":"levelo_inurba_marseille","lat":43.309589,"lon":5.390258,"is_reserved":false,"is_disabled":false,"rental_uris":{"android":"levelo://app?vid=d29cf0ad-1357-4d2c-a5f9-d7d12361a0d0","ios":"levelo://app?vid=d29cf0ad-1357-4d2c-a5f9-d7d12361a0d0"},"vehicle_type_id":"4","last_reported":1708293960,"current_range_meters":31600,"station_id":"ce4bgup2rcd13ifvqco0","pricing_plan_id":"cebpf4jnsgd1na2vs0mg"},{"bike_id":"e1520bdd-fd70-46af-bc3f-c21a4ce6fa9b","system_id":"levelo_inurba_marseille","lat":43.309589,"lon":5.390258,"is_reserved":false,"is_disabled":false,"rental_uris":{"android":"levelo://app?vid=e1520bdd-fd70-46af-bc3f-c21a4ce6fa9b","ios":"levelo://app?vid=e1520bdd-fd70-46af-bc3f-c21a4ce6fa9b"},"vehicle_type_id":"4","last_reported":1708293960,"current_range_meters":12400,"station_id":"ce4bgup2rcd13ifvqco0","pricing_plan_id":"cebpf4jnsgd1na2vs0mg"},{"bike_id":"c35e5277-b202-4110-b491-f1e7ebcea1e4","system_id":"levelo_inurba_marseille","lat":43.31757,"lon":5.39011,"is_reserved":false,"is_disabled":false,"rental_uris":{"android":"levelo://app?vid=c35e5277-b202-4110-b491-f1e7ebcea1e4","ios":"levelo://app?vid=c35e5277-b202-4110-b491-f1e7ebcea1e4"},"vehicle_type_id":"4","last_reported":1708293960,"current_range_meters":4000,"station_id":"ce4bhqp2rcd13ifvqhng","pricing_plan_id":"cebpf4jnsgd1na2vs0mg"},{"bike_id":"7d56fc82-31de-4bfd-a344-8c5cafa592f4","system_id":"levelo_inurba_marseille","lat":43.317557,"lon":5.390173,"is_reserved":false,"is_disabled":false,"rental_uris":{"android":"levelo://app?vid=7d56fc82-31de-4bfd-a344-8c5cafa592f4","ios":"levelo://app?vid=7d56fc82-31de-4bfd-a344-8c5cafa592f4"},"vehicle_type_id":"4","last_reported":1708293960,"current_range_meters":30400,"station_id":"ce4bhqp2rcd13ifvqhng","pricing_plan_id":"cebpf4jnsgd1na2vs0mg"},{"bike_id":"98eec7ea-e425-41eb-a9c2-eff2224ab946","system_id":"levelo_inurba_marseille","lat":43.317557,"lon":5.390173,"is_reserved":false,"is_disabled":false,"rental_uris":{"android":"levelo://app?vid=98eec7ea-e425-41eb-a9c2-eff2224ab946","ios":"levelo://app?vid=98eec7ea-e425-41eb-a9c2-eff2224ab946"},"vehicle_type_id":"4","last_reported":1708293960,"current_range_meters":23600,"station_id":"ce4bhqp2rcd13ifvqhng","pricing_plan_id":"cebpf4jnsgd1na2vs0mg"},{"bike_id":"ca1b320e-5066-4b61-8722-72bd8fa51b6e","system_id":"levelo_inurba_marseille","lat":43.317557,"lon":5.390173,"is_reserved":false,"is_disabled":false,"rental_uris":{"android":"levelo://app?vid=ca1b320e-5066-4b61-8722-72bd8fa51b6e","ios":"levelo://app?vid=ca1b320e-5066-4b61-8722-72bd8fa51b6e"},"vehicle_type_id":"4","last_reported":1708293960,"current_range_meters":21600,"station_id":"ce4bhqp2rcd13ifvqhng","pricing_plan_id":"cebpf4jnsgd1na2vs0mg"},{"bike_id":"81311749-3b9d-4ac9-8d88-9f4739ae3825","system_id":"levelo_inurba_marseille","lat":43.299028,"lon":5.381509,"is_reserved":false,"is_disabled":false,"rental_uris":{"android":"levelo://app?vid=81311749-3b9d-4ac9-8d88-9f4739ae3825","ios":"levelo://app?vid=81311749-3b9d-4ac9-8d88-9f4739ae3825"},"vehicle_type_id":"4","last_reported":1708293960,"current_range_meters":4400,"station_id":"ce4bgj12rcd13ifvqbc0","pricing_plan_id":"cebpf4jnsgd1na2vs0mg"},{"bike_id":"4e0ce859-b0f6-4abd-a4d6-14d327ddcdaf","system_id":"levelo_inurba_marseille","lat":43.30437,"lon":5.38878,"is_reserved":false,"is_disabled":false,"rental_uris":{"android":"levelo://app?vid=4e0ce859-b0f6-4abd-a4d6-14d327ddcdaf","ios":"levelo://app?vid=4e0ce859-b0f6-4abd-a4d6-14d327ddcdaf"},"vehicle_type_id":"4","last_reported":1708293960,"current_range_meters":14400,"station_id":"ce4bgk12rcd13ifvqbi0","pricing_plan_id":"cebpf4jnsgd1na2vs0mg"},{"bike_id":"08aa8a09-80dd-4d72-9c95-99bb7ef1bbc1","system_id":"levelo_inurba_marseille","lat":43.30438,"lon":5.38881,"is_reserved":false,"is_disabled":false,"rental_uris":{"android":"levelo://app?vid=08aa8a09-80dd-4d72-9c95-99bb7ef1bbc1","ios":"levelo://app?vid=08aa8a09-80dd-4d72-9c95-99bb7ef1bbc1"},"vehicle_type_id":"4","last_reported":1708293960,"current_range_meters":26400,"station_id":"ce4bgk12rcd13ifvqbi0","pricing_plan_id":"cebpf4jnsgd1na2vs0mg"},{"bike_id":"12f26909-a8ca-4a45-869a-df34a3427100","system_id":"levelo_inurba_marseille","lat":43.304385,"lon":5.38891,"is_reserved":false,"is_disabled":false,"rental_uris":{"android":"levelo://app?vid=12f26909-a8ca-4a45-869a-df34a3427100","ios":"levelo://app?vid=12f26909-a8ca-4a45-869a-df34a3427100"},"vehicle_type_id":"4","last_reported":1708293960,"current_range_meters":12000,"station_id":"ce4bgk12rcd13ifvqbi0","pricing_plan_id":"cebpf4jnsgd1na2vs0mg"},{"bike_id":"9b23c198-27fc-49e4-9bef-f3cfc0d55132","system_id":"levelo_inurba_marseille","lat":43.30438,"lon":5.38893,"is_reserved":false,"is_disabled":false,"rental_uris":{"android":"levelo://app?vid=9b23c198-27fc-49e4-9bef-f3cfc0d55132","ios":"levelo://app?vid=9b23c198-27fc-49e4-9bef-f3cfc0d55132"},"vehicle_type_id":"4","last_reported":1708293960,"current_range_meters":12400,"station_id":"ce4bgk12rcd13ifvqbi0","pricing_plan_id":"cebpf4jnsgd1na2vs0mg"},{"bike_id":"a416d095-d028-4b98-93a2-82f85ab39157","system_id":"levelo_inurba_marseille","lat":43.30434,"lon":5.38891,"is_reserved":false,"is_disabled":false,"rental_uris":{"android":"levelo://app?vid=a416d095-d028-4b98-93a2-82f85ab39157","ios":"levelo://app?vid=a416d095-d028-4b98-93a2-82f85ab39157"},"vehicle_type_id":"4","last_reported":1708293960,"current_range_meters":27600,"station_id":"ce4bgk12rcd13ifvqbi0","pricing_plan_id":"cebpf4jnsgd1na2vs0mg"},{"bike_id":"989b1271-a740-4c59-a340-4bffae5e762c","system_id":"levelo_inurba_marseille","lat":43.30437,"lon":5.38895,"is_reserved":false,"is_disabled":false,"rental_uris":{"android":"levelo://app?vid=989b1271-a740-4c59-a340-4bffae5e762c","ios":"levelo://app?vid=989b1271-a740-4c59-a340-4bffae5e762c"},"vehicle_type_id":"4","last_reported":1708293960,"current_range_meters":9600,"station_id":"ce4bgk12rcd13ifvqbi0","pricing_plan_id":"cebpf4jnsgd1na2vs0mg"},{"bike_id":"933fac51-c03c-4ee7-9cad-26560791a2c1","system_id":"levelo_inurba_marseille","lat":43.296277,"lon":5.377108,"is_reserved":false,"is_disabled":false,"rental_uris":{"android":"levelo://app?vid=933fac51-c03c-4ee7-9cad-26560791a2c1","ios":"levelo://app?vid=933fac51-c03c-4ee7-9cad-26560791a2c1"},"vehicle_type_id":"4","last_reported":1708293960,"current_range_meters":20800,"station_id":"ce4bgi92rcd13ifvqb90","pricing_plan_id":"cebpf4jnsgd1na2vs0mg"},{"bike_id":"fb6a91ac-4ea6-42da-96ff-2930db92761c","system_id":"levelo_inurba_marseille","lat":43.297785,"lon":5.381325,"is_reserved":false,"is_disabled":false,"rental_uris":{"android":"levelo://app?vid=fb6a91ac-4ea6-42da-96ff-2930db92761c","ios":"levelo://app?vid=fb6a91ac-4ea6-42da-96ff-2930db92761c"},"vehicle_type_id":"4","last_reported":1708293960,"current_range_meters":8800,"station_id":"","pricing_plan_id":"cebpf4jnsgd1na2vs0mg"},{"bike_id":"48d7347d-f7f4-416e-a5c2-5ef460b4a847","system_id":"levelo_inurba_marseille","lat":43.31425,"lon":5.393748,"is_reserved":false,"is_disabled":false,"rental_uris":{"android":"levelo://app?vid=48d7347d-f7f4-416e-a5c2-5ef460b4a847","ios":"levelo://app?vid=48d7347d-f7f4-416e-a5c2-5ef460b4a847"},"vehicle_type_id":"4","last_reported":1708293960,"current_range_meters":22400,"station_id":"","pricing_plan_id":"cebpf4jnsgd1na2vs0mg"},{"bike_id":"07f2cab2-79b1-4c44-962c-ec098d32e2d0","system_id":"levelo_inurba_marseille","lat":43.292749,"lon":5.368398,"is_reserved":false,"is_disabled":false,"rental_uris":{"android":"levelo://app?vid=07f2cab2-79b1-4c44-962c-ec098d32e2d0","ios":"levelo://app?vid=07f2cab2-79b1-4c44-962c-ec098d32e2d0"},"vehicle_type_id":"4","last_reported":1708293960,"current_range_meters":4400,"station_id":"ce4bhbp2rcd13ifvqesg","pricing_plan_id":"cebpf4jnsgd1na2vs0mg"},{"bike_id":"8a556a90-c80d-488f-8c5d-61f698574cf8","system_id":"levelo_inurba_marseille","lat":43.298621,"lon":5.386701,"is_reserved":false,"is_disabled":false,"rental_uris":{"android":"levelo://app?vid=8a556a90-c80d-488f-8c5d-61f698574cf8","ios":"levelo://app?vid=8a556a90-c80d-488f-8c5d-61f698574cf8"},"vehicle_type_id":"4","last_reported":1708293960,"current_range_meters":3600,"station_id":"","pricing_plan_id":"cebpf4jnsgd1na2vs0mg"},{"bike_id":"b3797732-fb5c-43ff-b596-2aaada4d5b03","system_id":"levelo_inurba_marseille","lat":43.293009,"lon":5.374584,"is_reserved":false,"is_disabled":false,"rental_uris":{"android":"levelo://app?vid=b3797732-fb5c-43ff-b596-2aaada4d5b03","ios":"levelo://app?vid=b3797732-fb5c-43ff-b596-2aaada4d5b03"},"vehicle_type_id":"4","last_reported":1708293960,"current_range_meters":28400,"station_id":"ce4bgi12rcd13ifvqb70","pricing_plan_id":"cebpf4jnsgd1na2vs0mg"},{"bike_id":"17776049-ebe1-4e5c-a3a8-d50ebceccfb0","system_id":"levelo_inurba_marseille","lat":43.293009,"lon":5.374584,"is_reserved":false,"is_disabled":false,"rental_uris":{"android":"levelo://app?vid=17776049-ebe1-4e5c-a3a8-d50ebceccfb0","ios":"levelo://app?vid=17776049-ebe1-4e5c-a3a8-d50ebceccfb0"},"vehicle_type_id":"4","last_reported":1708293960,"current_range_meters":14000,"station_id":"ce4bgi12rcd13ifvqb70","pricing_plan_id":"cebpf4jnsgd1na2vs0mg"},{"bike_id":"1af59e8b-9173-442c-b705-f483cf056d2a","system_id":"levelo_inurba_marseille","lat":43.293009,"lon":5.374584,"is_reserved":false,"is_disabled":false,"rental_uris":{"android":"levelo://app?vid=1af59e8b-9173-442c-b705-f483cf056d2a","ios":"levelo://app?vid=1af59e8b-9173-442c-b705-f483cf056d2a"},"vehicle_type_id":"4","last_reported":1708293960,"current_range_meters":17200,"station_id":"ce4bgi12rcd13ifvqb70","pricing_plan_id":"cebpf4jnsgd1na2vs0mg"},{"bike_id":"9bc87ba8-1d8b-44c7-9679-0d0258acae0a","system_id":"levelo_inurba_marseille","lat":43.305994,"lon":5.393687,"is_reserved":false,"is_disabled":false,"rental_uris":{"android":"levelo://app?vid=9bc87ba8-1d8b-44c7-9679-0d0258acae0a","ios":"levelo://app?vid=9bc87ba8-1d8b-44c7-9679-0d0258acae0a"},"vehicle_type_id":"4","last_reported":1708293960,"current_range_meters":30400,"station_id":"ce4bh0p2rcd13ifvqd80","pricing_plan_id":"cebpf4jnsgd1na2vs0mg"},{"bike_id":"7dbf363f-7ef1-4093-832e-011aee0a3ed2","system_id":"levelo_inurba_marseille","lat":43.301903,"lon":5.390863,"is_reserved":false,"is_disabled":false,"rental_uris":{"android":"levelo://app?vid=7dbf363f-7ef1-4093-832e-011aee0a3ed2","ios":"levelo://app?vid=7dbf363f-7ef1-4093-832e-011aee0a3ed2"},"vehicle_type_id":"4","last_reported":1708293960,"current_range_meters":18800,"station_id":"","pricing_plan_id":"cebpf4jnsgd1na2vs0mg"},{"bike_id":"256d86e9-af50-4571-9c84-3acaedeba65e","system_id":"levelo_inurba_marseille","lat":43.30325,"lon":5.39192,"is_reserved":false,"is_disabled":false,"rental_uris":{"android":"levelo://app?vid=256d86e9-af50-4571-9c84-3acaedeba65e","ios":"levelo://app?vid=256d86e9-af50-4571-9c84-3acaedeba65e"},"vehicle_type_id":"4","last_reported":1708293960,"current_range_meters":26400,"station_id":"ce4bgkh2rcd13ifvqbk0","pricing_plan_id":"cebpf4jnsgd1na2vs0mg"},{"bike_id":"3913d15c-b3a0-4c4d-9978-8bee9658d209","system_id":"levelo_inurba_marseille","lat":43.305994,"lon":5.393687,"is_reserved":false,"is_disabled":false,"rental_uris":{"android":"levelo://app?vid=3913d15c-b3a0-4c4d-9978-8bee9658d209","ios":"levelo://app?vid=3913d15c-b3a0-4c4d-9978-8bee9658d209"},"vehicle_type_id":"4","last_reported":1708293960,"current_range_meters":31200,"station_id":"ce4bh0p2rcd13ifvqd80","pricing_plan_id":"cebpf4jnsgd1na2vs0mg"},{"bike_id":"cb582b85-f832-4e7e-8f1b-bb1ed35f42be","system_id":"levelo_inurba_marseille","lat":43.305994,"lon":5.393687,"is_reserved":false,"is_disabled":false,"rental_uris":{"android":"levelo://app?vid=cb582b85-f832-4e7e-8f1b-bb1ed35f42be","ios":"levelo://app?vid=cb582b85-f832-4e7e-8f1b-bb1ed35f42be"},"vehicle_type_id":"4","last_reported":1708293960,"current_range_meters":26400,"station_id":"ce4bh0p2rcd13ifvqd80","pricing_plan_id":"cebpf4jnsgd1na2vs0mg"},{"bike_id":"96011172-0150-4e97-8c7a-d1503a8945d0","system_id":"levelo_inurba_marseille","lat":43.30591,"lon":5.39363,"is_reserved":false,"is_disabled":false,"rental_uris":{"android":"levelo://app?vid=96011172-0150-4e97-8c7a-d1503a8945d0","ios":"levelo://app?vid=96011172-0150-4e97-8c7a-d1503a8945d0"},"vehicle_type_id":"4","last_reported":1708293960,"current_range_meters":4000,"station_id":"ce4bh0p2rcd13ifvqd80","pricing_plan_id":"cebpf4jnsgd1na2vs0mg"},{"bike_id":"c730aaa6-6990-4f32-88c3-dfba0b4c3e32","system_id":"levelo_inurba_marseille","lat":43.305994,"lon":5.393687,"is_reserved":false,"is_disabled":false,"rental_uris":{"android":"levelo://app?vid=c730aaa6-6990-4f32-88c3-dfba0b4c3e32","ios":"levelo://app?vid=c730aaa6-6990-4f32-88c3-dfba0b4c3e32"},"vehicle_type_id":"4","last_reported":1708293960,"current_range_meters":22000,"station_id":"ce4bh0p2rcd13ifvqd80","pricing_plan_id":"cebpf4jnsgd1na2vs0mg"},{"bike_id":"6af704d2-5ce8-4507-9c93-5638b77dc8d2","system_id":"levelo_inurba_marseille","lat":43.30308,"lon":5.39201,"is_reserved":false,"is_disabled":false,"rental_uris":{"android":"levelo://app?vid=6af704d2-5ce8-4507-9c93-5638b77dc8d2","ios":"levelo://app?vid=6af704d2-5ce8-4507-9c93-5638b77dc8d2"},"vehicle_type_id":"4","last_reported":1708293960,"current_range_meters":28800,"station_id":"ce4bgkh2rcd13ifvqbk0","pricing_plan_id":"cebpf4jnsgd1na2vs0mg"},{"bike_id":"8530d1f3-2363-4093-a51c-83ed1be079ea","system_id":"levelo_inurba_marseille","lat":43.302992,"lon":5.392136,"is_reserved":false,"is_disabled":false,"rental_uris":{"android":"levelo://app?vid=8530d1f3-2363-4093-a51c-83ed1be079ea","ios":"levelo://app?vid=8530d1f3-2363-4093-a51c-83ed1be079ea"},"vehicle_type_id":"4","last_reported":1708293960,"current_range_meters":24000,"station_id":"ce4bgkh2rcd13ifvqbk0","pricing_plan_id":"cebpf4jnsgd1na2vs0mg"},{"bike_id":"6066a643-2a10-4559-9ed6-be05be9765d0","system_id":"levelo_inurba_marseille","lat":43.30304,"lon":5.39202,"is_reserved":false,"is_disabled":false,"rental_uris":{"android":"levelo://app?vid=6066a643-2a10-4559-9ed6-be05be9765d0","ios":"levelo://app?vid=6066a643-2a10-4559-9ed6-be05be9765d0"},"vehicle_type_id":"4","last_reported":1708293960,"current_range_meters":29600,"station_id":"ce4bgkh2rcd13ifvqbk0","pricing_plan_id":"cebpf4jnsgd1na2vs0mg"},{"bike_id":"967561bf-c6b9-4464-bb83-2ab3d9a2c19d","system_id":"levelo_inurba_marseille","lat":43.303002,"lon":5.392142,"is_reserved":false,"is_disabled":false,"rental_uris":{"android":"levelo://app?vid=967561bf-c6b9-4464-bb83-2ab3d9a2c19d","ios":"levelo://app?vid=967561bf-c6b9-4464-bb83-2ab3d9a2c19d"},"vehicle_type_id":"4","last_reported":1708293960,"current_range_meters":22400,"station_id":"ce4bgkh2rcd13ifvqbk0","pricing_plan_id":"cebpf4jnsgd1na2vs0mg"},{"bike_id":"032b0ec2-d7fd-4ac5-9f01-67959d2f1b29","system_id":"levelo_inurba_marseille","lat":43.303002,"lon":5.392142,"is_reserved":false,"is_disabled":false,"rental_uris":{"android":"levelo://app?vid=032b0ec2-d7fd-4ac5-9f01-67959d2f1b29","ios":"levelo://app?vid=032b0ec2-d7fd-4ac5-9f01-67959d2f1b29"},"vehicle_type_id":"4","last_reported":1708293960,"current_range_meters":10000,"station_id":"ce4bgkh2rcd13ifvqbk0","pricing_plan_id":"cebpf4jnsgd1na2vs0mg"},{"bike_id":"0cc1a375-728d-4ffa-82bd-55c178388a2b","system_id":"levelo_inurba_marseille","lat":43.303002,"lon":5.392142,"is_reserved":false,"is_disabled":false,"rental_uris":{"android":"levelo://app?vid=0cc1a375-728d-4ffa-82bd-55c178388a2b","ios":"levelo://app?vid=0cc1a375-728d-4ffa-82bd-55c178388a2b"},"vehicle_type_id":"4","last_reported":1708293960,"current_range_meters":21600,"station_id":"ce4bgkh2rcd13ifvqbk0","pricing_plan_id":"cebpf4jnsgd1na2vs0mg"},{"bike_id":"6f7f9011-acb9-4972-a72f-77efa8eb50c4","system_id":"levelo_inurba_marseille","lat":43.302992,"lon":5.392136,"is_reserved":false,"is_disabled":false,"rental_uris":{"android":"levelo://app?vid=6f7f9011-acb9-4972-a72f-77efa8eb50c4","ios":"levelo://app?vid=6f7f9011-acb9-4972-a72f-77efa8eb50c4"},"vehicle_type_id":"4","last_reported":1708293960,"current_range_meters":13600,"station_id":"ce4bgkh2rcd13ifvqbk0","pricing_plan_id":"cebpf4jnsgd1na2vs0mg"},{"bike_id":"c8e3dc6b-e1c3-4cf6-aae4-fe7bc423b60d","system_id":"levelo_inurba_marseille","lat":43.302992,"lon":5.392136,"is_reserved":false,"is_disabled":false,"rental_uris":{"android":"levelo://app?vid=c8e3dc6b-e1c3-4cf6-aae4-fe7bc423b60d","ios":"levelo://app?vid=c8e3dc6b-e1c3-4cf6-aae4-fe7bc423b60d"},"vehicle_type_id":"4","last_reported":1708293960,"current_range_meters":30400,"station_id":"ce4bgkh2rcd13ifvqbk0","pricing_plan_id":"cebpf4jnsgd1na2vs0mg"},{"bike_id":"11e860c0-58fd-49f8-97cb-dac27fb74b6a","system_id":"levelo_inurba_marseille","lat":43.303002,"lon":5.392142,"is_reserved":false,"is_disabled":false,"rental_uris":{"android":"levelo://app?vid=11e860c0-58fd-49f8-97cb-dac27fb74b6a","ios":"levelo://app?vid=11e860c0-58fd-49f8-97cb-dac27fb74b6a"},"vehicle_type_id":"4","last_reported":1708293960,"current_range_meters":31200,"station_id":"ce4bgkh2rcd13ifvqbk0","pricing_plan_id":"cebpf4jnsgd1na2vs0mg"},{"bike_id":"8d70335a-a2c8-415e-83d1-a5400d9095e8","system_id":"levelo_inurba_marseille","lat":43.302992,"lon":5.392136,"is_reserved":false,"is_disabled":false,"rental_uris":{"android":"levelo://app?vid=8d70335a-a2c8-415e-83d1-a5400d9095e8","ios":"levelo://app?vid=8d70335a-a2c8-415e-83d1-a5400d9095e8"},"vehicle_type_id":"4","last_reported":1708293960,"current_range_meters":16400,"station_id":"ce4bgkh2rcd13ifvqbk0","pricing_plan_id":"cebpf4jnsgd1na2vs0mg"},{"bike_id":"3dbb42ed-fcc0-4269-8a1a-2eb851fb7a85","system_id":"levelo_inurba_marseille","lat":43.293721,"lon":5.378559,"is_reserved":false,"is_disabled":false,"rental_uris":{"android":"levelo://app?vid=3dbb42ed-fcc0-4269-8a1a-2eb851fb7a85","ios":"levelo://app?vid=3dbb42ed-fcc0-4269-8a1a-2eb851fb7a85"},"vehicle_type_id":"4","last_reported":1708293960,"current_range_meters":0,"station_id":"ce4bgjh2rcd13ifvqbf0","pricing_plan_id":"cebpf4jnsgd1na2vs0mg"},{"bike_id":"ddb98c33-c7b8-4e6e-956e-523ef09700f0","system_id":"levelo_inurba_marseille","lat":43.2936,"lon":5.37835,"is_reserved":false,"is_disabled":false,"rental_uris":{"android":"levelo://app?vid=ddb98c33-c7b8-4e6e-956e-523ef09700f0","ios":"levelo://app?vid=ddb98c33-c7b8-4e6e-956e-523ef09700f0"},"vehicle_type_id":"4","last_reported":1708293960,"current_range_meters":11200,"station_id":"ce4bgjh2rcd13ifvqbf0","pricing_plan_id":"cebpf4jnsgd1na2vs0mg"},{"bike_id":"d4562fed-abe3-4483-9f87-bf28051a9de6","system_id":"levelo_inurba_marseille","lat":43.302992,"lon":5.392136,"is_reserved":false,"is_disabled":false,"rental_uris":{"android":"levelo://app?vid=d4562fed-abe3-4483-9f87-bf28051a9de6","ios":"levelo://app?vid=d4562fed-abe3-4483-9f87-bf28051a9de6"},"vehicle_type_id":"4","last_reported":1708293960,"current_range_meters":21600,"station_id":"ce4bgkh2rcd13ifvqbk0","pricing_plan_id":"cebpf4jnsgd1na2vs0mg"},{"bike_id":"f632883c-bed7-49ed-90a6-af06af5f6c77","system_id":"levelo_inurba_marseille","lat":43.30085,"lon":5.390856,"is_reserved":false,"is_disabled":false,"rental_uris":{"android":"levelo://app?vid=f632883c-bed7-49ed-90a6-af06af5f6c77","ios":"levelo://app?vid=f632883c-bed7-49ed-90a6-af06af5f6c77"},"vehicle_type_id":"4","last_reported":1708293960,"current_range_meters":28800,"station_id":"ce4bh192rcd13ifvqdb0","pricing_plan_id":"cebpf4jnsgd1na2vs0mg"},{"bike_id":"fb864daf-9dec-43d4-8b87-95cff054b040","system_id":"levelo_inurba_marseille","lat":43.301002,"lon":5.390772,"is_reserved":false,"is_disabled":false,"rental_uris":{"android":"levelo://app?vid=fb864daf-9dec-43d4-8b87-95cff054b040","ios":"levelo://app?vid=fb864daf-9dec-43d4-8b87-95cff054b040"},"vehicle_type_id":"4","last_reported":1708293960,"current_range_meters":26400,"station_id":"ce4bh192rcd13ifvqdb0","pricing_plan_id":"cebpf4jnsgd1na2vs0mg"},{"bike_id":"ed4a4da7-f499-483b-b68f-d490b767a67a","system_id":"levelo_inurba_marseille","lat":43.291671,"lon":5.371575,"is_reserved":false,"is_disabled":false,"rental_uris":{"android":"levelo://app?vid=ed4a4da7-f499-483b-b68f-d490b767a67a","ios":"levelo://app?vid=ed4a4da7-f499-483b-b68f-d490b767a67a"},"vehicle_type_id":"4","last_reported":1708293960,"current_range_meters":18800,"station_id":"ce4bha92rcd13ifvqeh0","pricing_plan_id":"cebpf4jnsgd1na2vs0mg"},{"bike_id":"ae350be3-9fa2-467d-947c-683f9f2f1975","system_id":"levelo_inurba_marseille","lat":43.298764,"lon":5.388973,"is_reserved":false,"is_disabled":false,"rental_uris":{"android":"levelo://app?vid=ae350be3-9fa2-467d-947c-683f9f2f1975","ios":"levelo://app?vid=ae350be3-9fa2-467d-947c-683f9f2f1975"},"vehicle_type_id":"4","last_reported":1708293960,"current_range_meters":30400,"station_id":"ce4bh392rcd13ifvqdl0","pricing_plan_id":"cebpf4jnsgd1na2vs0mg"},{"bike_id":"4855b47e-03e0-4661-8082-aa22dd0b72a6","system_id":"levelo_inurba_marseille","lat":43.308853,"lon":5.396316,"is_reserved":false,"is_disabled":false,"rental_uris":{"android":"levelo://app?vid=4855b47e-03e0-4661-8082-aa22dd0b72a6","ios":"levelo://app?vid=4855b47e-03e0-4661-8082-aa22dd0b72a6"},"vehicle_type_id":"4","last_reported":1708293960,"current_range_meters":3200,"station_id":"ce4bh012rcd13ifvqcv0","pricing_plan_id":"cebpf4jnsgd1na2vs0mg"},{"bike_id":"2a76fd2f-cdd3-47da-9491-ee6921ec08f5","system_id":"levelo_inurba_marseille","lat":43.291994,"lon":5.357886,"is_reserved":false,"is_disabled":false,"rental_uris":{"android":"levelo://app?vid=2a76fd2f-cdd3-47da-9491-ee6921ec08f5","ios":"levelo://app?vid=2a76fd2f-cdd3-47da-9491-ee6921ec08f5"},"vehicle_type_id":"4","last_reported":1708293960,"current_range_meters":30400,"station_id":"ce4bhb12rcd13ifvqel0","pricing_plan_id":"cebpf4jnsgd1na2vs0mg"},{"bike_id":"a9d44bb0-efd0-49b7-a954-405cceb13ad1","system_id":"levelo_inurba_marseille","lat":43.29194,"lon":5.35805,"is_reserved":false,"is_disabled":false,"rental_uris":{"android":"levelo://app?vid=a9d44bb0-efd0-49b7-a954-405cceb13ad1","ios":"levelo://app?vid=a9d44bb0-efd0-49b7-a954-405cceb13ad1"},"vehicle_type_id":"4","last_reported":1708293960,"current_range_meters":28000,"station_id":"ce4bhb12rcd13ifvqel0","pricing_plan_id":"cebpf4jnsgd1na2vs0mg"},{"bike_id":"bcd80391-b2b1-4e6e-8c13-e8c9003a8d20","system_id":"levelo_inurba_marseille","lat":43.308845,"lon":5.396387,"is_reserved":false,"is_disabled":false,"rental_uris":{"android":"levelo://app?vid=bcd80391-b2b1-4e6e-8c13-e8c9003a8d20","ios":"levelo://app?vid=bcd80391-b2b1-4e6e-8c13-e8c9003a8d20"},"vehicle_type_id":"4","last_reported":1708293960,"current_range_meters":24000,"station_id":"ce4bh012rcd13ifvqcv0","pricing_plan_id":"cebpf4jnsgd1na2vs0mg"},{"bike_id":"cfe7838c-6510-4393-9537-cdef4f2a5ba1","system_id":"levelo_inurba_marseille","lat":43.29194,"lon":5.357963,"is_reserved":false,"is_disabled":false,"rental_uris":{"android":"levelo://app?vid=cfe7838c-6510-4393-9537-cdef4f2a5ba1","ios":"levelo://app?vid=cfe7838c-6510-4393-9537-cdef4f2a5ba1"},"vehicle_type_id":"4","last_reported":1708293960,"current_range_meters":11600,"station_id":"ce4bhb12rcd13ifvqel0","pricing_plan_id":"cebpf4jnsgd1na2vs0mg"},{"bike_id":"10297123-98da-47f3-952d-6c32c2ce9ad3","system_id":"levelo_inurba_marseille","lat":43.313291,"lon":5.396838,"is_reserved":false,"is_disabled":false,"rental_uris":{"android":"levelo://app?vid=10297123-98da-47f3-952d-6c32c2ce9ad3","ios":"levelo://app?vid=10297123-98da-47f3-952d-6c32c2ce9ad3"},"vehicle_type_id":"4","last_reported":1708293960,"current_range_meters":20800,"station_id":"ce4bgvp2rcd13ifvqcu0","pricing_plan_id":"cebpf4jnsgd1na2vs0mg"},{"bike_id":"e40e075e-866a-496e-b81b-f8c4a9a0901b","system_id":"levelo_inurba_marseille","lat":43.313291,"lon":5.396838,"is_reserved":false,"is_disabled":false,"rental_uris":{"android":"levelo://app?vid=e40e075e-866a-496e-b81b-f8c4a9a0901b","ios":"levelo://app?vid=e40e075e-866a-496e-b81b-f8c4a9a0901b"},"vehicle_type_id":"4","last_reported":1708293960,"current_range_meters":1200,"station_id":"ce4bgvp2rcd13ifvqcu0","pricing_plan_id":"cebpf4jnsgd1na2vs0mg"},{"bike_id":"dafa410a-3f05-4328-aec7-7f8496599b07","system_id":"levelo_inurba_marseille","lat":43.313291,"lon":5.396838,"is_reserved":false,"is_disabled":false,"rental_uris":{"android":"levelo://app?vid=dafa410a-3f05-4328-aec7-7f8496599b07","ios":"levelo://app?vid=dafa410a-3f05-4328-aec7-7f8496599b07"},"vehicle_type_id":"4","last_reported":1708293960,"current_range_meters":24800,"station_id":"ce4bgvp2rcd13ifvqcu0","pricing_plan_id":"cebpf4jnsgd1na2vs0mg"},{"bike_id":"37446dcf-72f3-4f5a-ad15-bb4f7500754d","system_id":"levelo_inurba_marseille","lat":43.313291,"lon":5.396838,"is_reserved":false,"is_disabled":false,"rental_uris":{"android":"levelo://app?vid=37446dcf-72f3-4f5a-ad15-bb4f7500754d","ios":"levelo://app?vid=37446dcf-72f3-4f5a-ad15-bb4f7500754d"},"vehicle_type_id":"4","last_reported":1708293960,"current_range_meters":2800,"station_id":"ce4bgvp2rcd13ifvqcu0","pricing_plan_id":"cebpf4jnsgd1na2vs0mg"},{"bike_id":"b5f5e0c7-4917-4939-b486-49efb338ef43","system_id":"levelo_inurba_marseille","lat":43.313291,"lon":5.396838,"is_reserved":false,"is_disabled":false,"rental_uris":{"android":"levelo://app?vid=b5f5e0c7-4917-4939-b486-49efb338ef43","ios":"levelo://app?vid=b5f5e0c7-4917-4939-b486-49efb338ef43"},"vehicle_type_id":"4","last_reported":1708293960,"current_range_meters":21200,"station_id":"ce4bgvp2rcd13ifvqcu0","pricing_plan_id":"cebpf4jnsgd1na2vs0mg"},{"bike_id":"c6b87a43-9856-4188-a4b6-5cdbddcb2b57","system_id":"levelo_inurba_marseille","lat":43.29186,"lon":5.35803,"is_reserved":false,"is_disabled":false,"rental_uris":{"android":"levelo://app?vid=c6b87a43-9856-4188-a4b6-5cdbddcb2b57","ios":"levelo://app?vid=c6b87a43-9856-4188-a4b6-5cdbddcb2b57"},"vehicle_type_id":"4","last_reported":1708293960,"current_range_meters":30800,"station_id":"ce4bhb12rcd13ifvqel0","pricing_plan_id":"cebpf4jnsgd1na2vs0mg"},{"bike_id":"ca9849d2-4fc5-4990-a99f-13be51f9cd4e","system_id":"levelo_inurba_marseille","lat":43.291994,"lon":5.357886,"is_reserved":false,"is_disabled":false,"rental_uris":{"android":"levelo://app?vid=ca9849d2-4fc5-4990-a99f-13be51f9cd4e","ios":"levelo://app?vid=ca9849d2-4fc5-4990-a99f-13be51f9cd4e"},"vehicle_type_id":"4","last_reported":1708293960,"current_range_meters":29200,"station_id":"ce4bhb12rcd13ifvqel0","pricing_plan_id":"cebpf4jnsgd1na2vs0mg"},{"bike_id":"bc4d91b2-6508-403f-92db-658e30174b19","system_id":"levelo_inurba_marseille","lat":43.309047,"lon":5.396551,"is_reserved":false,"is_disabled":false,"rental_uris":{"android":"levelo://app?vid=bc4d91b2-6508-403f-92db-658e30174b19","ios":"levelo://app?vid=bc4d91b2-6508-403f-92db-658e30174b19"},"vehicle_type_id":"4","last_reported":1708293960,"current_range_meters":0,"station_id":"ce4bh012rcd13ifvqcv0","pricing_plan_id":"cebpf4jnsgd1na2vs0mg"},{"bike_id":"b22dbc2a-ec6d-4dd7-af48-5920f313e332","system_id":"levelo_inurba_marseille","lat":43.30886,"lon":5.39656,"is_reserved":false,"is_disabled":false,"rental_uris":{"android":"levelo://app?vid=b22dbc2a-ec6d-4dd7-af48-5920f313e332","ios":"levelo://app?vid=b22dbc2a-ec6d-4dd7-af48-5920f313e332"},"vehicle_type_id":"4","last_reported":1708293960,"current_range_meters":22800,"station_id":"ce4bh012rcd13ifvqcv0","pricing_plan_id":"cebpf4jnsgd1na2vs0mg"},{"bike_id":"e2134e10-fcf4-4881-884f-a207ef35b3eb","system_id":"levelo_inurba_marseille","lat":43.29183,"lon":5.35792,"is_reserved":false,"is_disabled":false,"rental_uris":{"android":"levelo://app?vid=e2134e10-fcf4-4881-884f-a207ef35b3eb","ios":"levelo://app?vid=e2134e10-fcf4-4881-884f-a207ef35b3eb"},"vehicle_type_id":"4","last_reported":1708293960,"current_range_meters":30800,"station_id":"ce4bhb12rcd13ifvqel0","pricing_plan_id":"cebpf4jnsgd1na2vs0mg"},{"bike_id":"d9ce6c1a-9583-451e-9e11-57d3000b67e7","system_id":"levelo_inurba_marseille","lat":43.292984,"lon":5.380244,"is_reserved":false,"is_disabled":false,"rental_uris":{"android":"levelo://app?vid=d9ce6c1a-9583-451e-9e11-57d3000b67e7","ios":"levelo://app?vid=d9ce6c1a-9583-451e-9e11-57d3000b67e7"},"vehicle_type_id":"4","last_reported":1708293960,"current_range_meters":22000,"station_id":"","pricing_plan_id":"cebpf4jnsgd1na2vs0mg"},{"bike_id":"dd9e9ac0-2a9c-4f6d-beec-1b7fb04a93ee","system_id":"levelo_inurba_marseille","lat":43.290779,"lon":5.371482,"is_reserved":false,"is_disabled":false,"rental_uris":{"android":"levelo://app?vid=dd9e9ac0-2a9c-4f6d-beec-1b7fb04a93ee","ios":"levelo://app?vid=dd9e9ac0-2a9c-4f6d-beec-1b7fb04a93ee"},"vehicle_type_id":"4","last_reported":1708293960,"current_range_meters":6400,"station_id":"ce4bh5p2rcd13ifvqe4g","pricing_plan_id":"cebpf4jnsgd1na2vs0mg"},{"bike_id":"dd1c3137-f4ce-4a7d-939a-0d0077e75553","system_id":"levelo_inurba_marseille","lat":43.290486,"lon":5.370421,"is_reserved":false,"is_disabled":false,"rental_uris":{"android":"levelo://app?vid=dd1c3137-f4ce-4a7d-939a-0d0077e75553","ios":"levelo://app?vid=dd1c3137-f4ce-4a7d-939a-0d0077e75553"},"vehicle_type_id":"4","last_reported":1708293960,"current_range_meters":26000,"station_id":"","pricing_plan_id":"cebpf4jnsgd1na2vs0mg"},{"bike_id":"d94a978a-56f4-4817-bce5-b78f99455a35","system_id":"levelo_inurba_marseille","lat":43.30213,"lon":5.39469,"is_reserved":false,"is_disabled":false,"rental_uris":{"android":"levelo://app?vid=d94a978a-56f4-4817-bce5-b78f99455a35","ios":"levelo://app?vid=d94a978a-56f4-4817-bce5-b78f99455a35"},"vehicle_type_id":"4","last_reported":1708293960,"current_range_meters":800,"station_id":"ce4bh0p2rcd13ifvqd70","pricing_plan_id":"cebpf4jnsgd1na2vs0mg"},{"bike_id":"6cece527-74a9-4162-bfdd-f7a41645eb54","system_id":"levelo_inurba_marseille","lat":43.30209,"lon":5.39468,"is_reserved":false,"is_disabled":false,"rental_uris":{"android":"levelo://app?vid=6cece527-74a9-4162-bfdd-f7a41645eb54","ios":"levelo://app?vid=6cece527-74a9-4162-bfdd-f7a41645eb54"},"vehicle_type_id":"4","last_reported":1708293960,"current_range_meters":0,"station_id":"ce4bh0p2rcd13ifvqd70","pricing_plan_id":"cebpf4jnsgd1na2vs0mg"},{"bike_id":"71e0213b-0f16-4faa-b9ca-8130e3a903a1","system_id":"levelo_inurba_marseille","lat":43.30207,"lon":5.39471,"is_reserved":false,"is_disabled":false,"rental_uris":{"android":"levelo://app?vid=71e0213b-0f16-4faa-b9ca-8130e3a903a1","ios":"levelo://app?vid=71e0213b-0f16-4faa-b9ca-8130e3a903a1"},"vehicle_type_id":"4","last_reported":1708293960,"current_range_meters":7600,"station_id":"ce4bh0p2rcd13ifvqd70","pricing_plan_id":"cebpf4jnsgd1na2vs0mg"},{"bike_id":"5acd2e91-5b38-4ac1-94e6-72f1337052d1","system_id":"levelo_inurba_marseille","lat":43.290624,"lon":5.359245,"is_reserved":false,"is_disabled":false,"rental_uris":{"android":"levelo://app?vid=5acd2e91-5b38-4ac1-94e6-72f1337052d1","ios":"levelo://app?vid=5acd2e91-5b38-4ac1-94e6-72f1337052d1"},"vehicle_type_id":"4","last_reported":1708293960,"current_range_meters":31200,"station_id":"ce4bha92rcd13ifvqeg0","pricing_plan_id":"cebpf4jnsgd1na2vs0mg"},{"bike_id":"44c1844b-d825-4ce1-b282-7cf2eb2d13d7","system_id":"levelo_inurba_marseille","lat":43.302008,"lon":5.394694,"is_reserved":false,"is_disabled":false,"rental_uris":{"android":"levelo://app?vid=44c1844b-d825-4ce1-b282-7cf2eb2d13d7","ios":"levelo://app?vid=44c1844b-d825-4ce1-b282-7cf2eb2d13d7"},"vehicle_type_id":"4","last_reported":1708293960,"current_range_meters":26000,"station_id":"ce4bh0p2rcd13ifvqd70","pricing_plan_id":"cebpf4jnsgd1na2vs0mg"},{"bike_id":"8d41d85f-d6fb-4b54-9023-328218af5451","system_id":"levelo_inurba_marseille","lat":43.290631,"lon":5.359244,"is_reserved":false,"is_disabled":false,"rental_uris":{"android":"levelo://app?vid=8d41d85f-d6fb-4b54-9023-328218af5451","ios":"levelo://app?vid=8d41d85f-d6fb-4b54-9023-328218af5451"},"vehicle_type_id":"4","last_reported":1708293960,"current_range_meters":27600,"station_id":"ce4bha92rcd13ifvqeg0","pricing_plan_id":"cebpf4jnsgd1na2vs0mg"},{"bike_id":"dadb1b01-8e87-469f-8feb-0ba1513ba5ac","system_id":"levelo_inurba_marseille","lat":43.290631,"lon":5.359244,"is_reserved":false,"is_disabled":false,"rental_uris":{"android":"levelo://app?vid=dadb1b01-8e87-469f-8feb-0ba1513ba5ac","ios":"levelo://app?vid=dadb1b01-8e87-469f-8feb-0ba1513ba5ac"},"vehicle_type_id":"4","last_reported":1708293960,"current_range_meters":29200,"station_id":"ce4bha92rcd13ifvqeg0","pricing_plan_id":"cebpf4jnsgd1na2vs0mg"},{"bike_id":"a649df38-fed4-498c-9e1e-876e5e083306","system_id":"levelo_inurba_marseille","lat":43.290631,"lon":5.359244,"is_reserved":false,"is_disabled":false,"rental_uris":{"android":"levelo://app?vid=a649df38-fed4-498c-9e1e-876e5e083306","ios":"levelo://app?vid=a649df38-fed4-498c-9e1e-876e5e083306"},"vehicle_type_id":"4","last_reported":1708293960,"current_range_meters":27600,"station_id":"ce4bha92rcd13ifvqeg0","pricing_plan_id":"cebpf4jnsgd1na2vs0mg"},{"bike_id":"47d2d13b-6d23-40f7-9954-5940fcbce2b0","system_id":"levelo_inurba_marseille","lat":43.290327,"lon":5.375711,"is_reserved":false,"is_disabled":false,"rental_uris":{"android":"levelo://app?vid=47d2d13b-6d23-40f7-9954-5940fcbce2b0","ios":"levelo://app?vid=47d2d13b-6d23-40f7-9954-5940fcbce2b0"},"vehicle_type_id":"4","last_reported":1708293960,"current_range_meters":20400,"station_id":"ce4bh692rcd13ifvqe90","pricing_plan_id":"cebpf4jnsgd1na2vs0mg"},{"bike_id":"36e3137c-0e60-42b6-abd2-239dab806bad","system_id":"levelo_inurba_marseille","lat":43.289184,"lon":5.366408,"is_reserved":false,"is_disabled":false,"rental_uris":{"android":"levelo://app?vid=36e3137c-0e60-42b6-abd2-239dab806bad","ios":"levelo://app?vid=36e3137c-0e60-42b6-abd2-239dab806bad"},"vehicle_type_id":"4","last_reported":1708293960,"current_range_meters":8800,"station_id":"ce4bhap2rcd13ifvqek0","pricing_plan_id":"cebpf4jnsgd1na2vs0mg"},{"bike_id":"9f1aa295-8f98-4ad0-8d4a-a8a6e73a618f","system_id":"levelo_inurba_marseille","lat":43.296263,"lon":5.40601,"is_reserved":false,"is_disabled":false,"rental_uris":{"android":"levelo://app?vid=9f1aa295-8f98-4ad0-8d4a-a8a6e73a618f","ios":"levelo://app?vid=9f1aa295-8f98-4ad0-8d4a-a8a6e73a618f"},"vehicle_type_id":"4","last_reported":1708293960,"current_range_meters":24000,"station_id":"ce4bh0h2rcd13ifvqd60","pricing_plan_id":"cebpf4jnsgd1na2vs0mg"},{"bike_id":"c519642c-69df-428d-85b1-0f9fc2c88938","system_id":"levelo_inurba_marseille","lat":43.29272,"lon":5.38438,"is_reserved":false,"is_disabled":false,"rental_uris":{"android":"levelo://app?vid=c519642c-69df-428d-85b1-0f9fc2c88938","ios":"levelo://app?vid=c519642c-69df-428d-85b1-0f9fc2c88938"},"vehicle_type_id":"4","last_reported":1708293960,"current_range_meters":0,"station_id":"ce4bh692rcd13ifvqea0","pricing_plan_id":"cebpf4jnsgd1na2vs0mg"},{"bike_id":"770456f4-7331-462f-adaa-80215b06a467","system_id":"levelo_inurba_marseille","lat":43.29259,"lon":5.38446,"is_reserved":false,"is_disabled":false,"rental_uris":{"android":"levelo://app?vid=770456f4-7331-462f-adaa-80215b06a467","ios":"levelo://app?vid=770456f4-7331-462f-adaa-80215b06a467"},"vehicle_type_id":"4","last_reported":1708293960,"current_range_meters":0,"station_id":"ce4bh692rcd13ifvqea0","pricing_plan_id":"cebpf4jnsgd1na2vs0mg"},{"bike_id":"9522dfab-f866-4e65-ad29-1df932ba371d","system_id":"levelo_inurba_marseille","lat":43.290104,"lon":5.356111,"is_reserved":false,"is_disabled":false,"rental_uris":{"android":"levelo://app?vid=9522dfab-f866-4e65-ad29-1df932ba371d","ios":"levelo://app?vid=9522dfab-f866-4e65-ad29-1df932ba371d"},"vehicle_type_id":"4","last_reported":1708293960,"current_range_meters":25600,"station_id":"ce4bhb92rcd13ifvqen0","pricing_plan_id":"cebpf4jnsgd1na2vs0mg"},{"bike_id":"64c8a977-e817-4529-bbbf-d54830de4873","system_id":"levelo_inurba_marseille","lat":43.29103,"lon":5.38085,"is_reserved":false,"is_disabled":false,"rental_uris":{"android":"levelo://app?vid=64c8a977-e817-4529-bbbf-d54830de4873","ios":"levelo://app?vid=64c8a977-e817-4529-bbbf-d54830de4873"},"vehicle_type_id":"4","last_reported":1708293960,"current_range_meters":19200,"station_id":"","pricing_plan_id":"cebpf4jnsgd1na2vs0mg"},{"bike_id":"0034036d-4212-45f5-b615-3cd94b222a68","system_id":"levelo_inurba_marseille","lat":43.29009,"lon":5.35609,"is_reserved":false,"is_disabled":false,"rental_uris":{"android":"levelo://app?vid=0034036d-4212-45f5-b615-3cd94b222a68","ios":"levelo://app?vid=0034036d-4212-45f5-b615-3cd94b222a68"},"vehicle_type_id":"4","last_reported":1708293960,"current_range_meters":28400,"station_id":"ce4bhb92rcd13ifvqen0","pricing_plan_id":"cebpf4jnsgd1na2vs0mg"},{"bike_id":"78a989b8-3012-4cb6-9c8e-92496660442d","system_id":"levelo_inurba_marseille","lat":43.29006,"lon":5.35615,"is_reserved":false,"is_disabled":false,"rental_uris":{"android":"levelo://app?vid=78a989b8-3012-4cb6-9c8e-92496660442d","ios":"levelo://app?vid=78a989b8-3012-4cb6-9c8e-92496660442d"},"vehicle_type_id":"4","last_reported":1708293960,"current_range_meters":0,"station_id":"ce4bhb92rcd13ifvqen0","pricing_plan_id":"cebpf4jnsgd1na2vs0mg"},{"bike_id":"638290f8-0857-400e-97fc-91d761a53596","system_id":"levelo_inurba_marseille","lat":43.29006,"lon":5.35606,"is_reserved":false,"is_disabled":false,"rental_uris":{"android":"levelo://app?vid=638290f8-0857-400e-97fc-91d761a53596","ios":"levelo://app?vid=638290f8-0857-400e-97fc-91d761a53596"},"vehicle_type_id":"4","last_reported":1708293960,"current_range_meters":23600,"station_id":"ce4bhb92rcd13ifvqen0","pricing_plan_id":"cebpf4jnsgd1na2vs0mg"},{"bike_id":"3e770269-aa5d-41c8-a1a2-0e2dfb62a51f","system_id":"levelo_inurba_marseille","lat":43.290103,"lon":5.356114,"is_reserved":false,"is_disabled":false,"rental_uris":{"android":"levelo://app?vid=3e770269-aa5d-41c8-a1a2-0e2dfb62a51f","ios":"levelo://app?vid=3e770269-aa5d-41c8-a1a2-0e2dfb62a51f"},"vehicle_type_id":"4","last_reported":1708293960,"current_range_meters":29600,"station_id":"ce4bhb92rcd13ifvqen0","pricing_plan_id":"cebpf4jnsgd1na2vs0mg"},{"bike_id":"47c6b448-0f24-4b91-97ca-734287c270d8","system_id":"levelo_inurba_marseille","lat":43.290103,"lon":5.356114,"is_reserved":false,"is_disabled":false,"rental_uris":{"android":"levelo://app?vid=47c6b448-0f24-4b91-97ca-734287c270d8","ios":"levelo://app?vid=47c6b448-0f24-4b91-97ca-734287c270d8"},"vehicle_type_id":"4","last_reported":1708293960,"current_range_meters":29600,"station_id":"ce4bhb92rcd13ifvqen0","pricing_plan_id":"cebpf4jnsgd1na2vs0mg"},{"bike_id":"6f7abe8a-9958-4092-b926-4d6ea396f282","system_id":"levelo_inurba_marseille","lat":43.29001,"lon":5.35614,"is_reserved":false,"is_disabled":false,"rental_uris":{"android":"levelo://app?vid=6f7abe8a-9958-4092-b926-4d6ea396f282","ios":"levelo://app?vid=6f7abe8a-9958-4092-b926-4d6ea396f282"},"vehicle_type_id":"4","last_reported":1708293960,"current_range_meters":31200,"station_id":"ce4bhb92rcd13ifvqen0","pricing_plan_id":"cebpf4jnsgd1na2vs0mg"},{"bike_id":"9e6ec8b3-5055-424a-b0c0-9de5fc68aa33","system_id":"levelo_inurba_marseille","lat":43.28999,"lon":5.35617,"is_reserved":false,"is_disabled":false,"rental_uris":{"android":"levelo://app?vid=9e6ec8b3-5055-424a-b0c0-9de5fc68aa33","ios":"levelo://app?vid=9e6ec8b3-5055-424a-b0c0-9de5fc68aa33"},"vehicle_type_id":"4","last_reported":1708293960,"current_range_meters":29600,"station_id":"","pricing_plan_id":"cebpf4jnsgd1na2vs0mg"},{"bike_id":"6736c922-4c01-45b4-acfb-6786797ebde3","system_id":"levelo_inurba_marseille","lat":43.29,"lon":5.35608,"is_reserved":false,"is_disabled":false,"rental_uris":{"android":"levelo://app?vid=6736c922-4c01-45b4-acfb-6786797ebde3","ios":"levelo://app?vid=6736c922-4c01-45b4-acfb-6786797ebde3"},"vehicle_type_id":"4","last_reported":1708293960,"current_range_meters":27200,"station_id":"ce4bhb92rcd13ifvqen0","pricing_plan_id":"cebpf4jnsgd1na2vs0mg"},{"bike_id":"06b90514-1550-4b09-9032-27493f3feb7a","system_id":"levelo_inurba_marseille","lat":43.290103,"lon":5.356114,"is_reserved":false,"is_disabled":false,"rental_uris":{"android":"levelo://app?vid=06b90514-1550-4b09-9032-27493f3feb7a","ios":"levelo://app?vid=06b90514-1550-4b09-9032-27493f3feb7a"},"vehicle_type_id":"4","last_reported":1708293960,"current_range_meters":29200,"station_id":"ce4bhb92rcd13ifvqen0","pricing_plan_id":"cebpf4jnsgd1na2vs0mg"},{"bike_id":"7c2a8dcd-ea32-4386-b865-21846009ab16","system_id":"levelo_inurba_marseille","lat":43.29796,"lon":5.39324,"is_reserved":false,"is_disabled":false,"rental_uris":{"android":"levelo://app?vid=7c2a8dcd-ea32-4386-b865-21846009ab16","ios":"levelo://app?vid=7c2a8dcd-ea32-4386-b865-21846009ab16"},"vehicle_type_id":"4","last_reported":1708293960,"current_range_meters":28000,"station_id":"chh1huq6cuj3fo74tm60","pricing_plan_id":"cebpf4jnsgd1na2vs0mg"},{"bike_id":"08100fbe-0fb7-43e5-8406-b80a65ee745a","system_id":"levelo_inurba_marseille","lat":43.2979,"lon":5.39333,"is_reserved":false,"is_disabled":false,"rental_uris":{"android":"levelo://app?vid=08100fbe-0fb7-43e5-8406-b80a65ee745a","ios":"levelo://app?vid=08100fbe-0fb7-43e5-8406-b80a65ee745a"},"vehicle_type_id":"4","last_reported":1708293960,"current_range_meters":26000,"station_id":"chh1huq6cuj3fo74tm60","pricing_plan_id":"cebpf4jnsgd1na2vs0mg"},{"bike_id":"8b51e85d-74a6-4950-8864-282a9bd91577","system_id":"levelo_inurba_marseille","lat":43.29789,"lon":5.39336,"is_reserved":false,"is_disabled":false,"rental_uris":{"android":"levelo://app?vid=8b51e85d-74a6-4950-8864-282a9bd91577","ios":"levelo://app?vid=8b51e85d-74a6-4950-8864-282a9bd91577"},"vehicle_type_id":"4","last_reported":1708293960,"current_range_meters":23600,"station_id":"chh1huq6cuj3fo74tm60","pricing_plan_id":"cebpf4jnsgd1na2vs0mg"},{"bike_id":"7b8d4465-2bd0-4dc5-b39f-5cb0dde7f025","system_id":"levelo_inurba_marseille","lat":43.2979,"lon":5.393415,"is_reserved":false,"is_disabled":false,"rental_uris":{"android":"levelo://app?vid=7b8d4465-2bd0-4dc5-b39f-5cb0dde7f025","ios":"levelo://app?vid=7b8d4465-2bd0-4dc5-b39f-5cb0dde7f025"},"vehicle_type_id":"4","last_reported":1708293960,"current_range_meters":19200,"station_id":"chh1huq6cuj3fo74tm60","pricing_plan_id":"cebpf4jnsgd1na2vs0mg"},{"bike_id":"35b17d96-6f8e-4039-a9e7-4ddc2e4bab26","system_id":"levelo_inurba_marseille","lat":43.297815,"lon":5.393548,"is_reserved":false,"is_disabled":false,"rental_uris":{"android":"levelo://app?vid=35b17d96-6f8e-4039-a9e7-4ddc2e4bab26","ios":"levelo://app?vid=35b17d96-6f8e-4039-a9e7-4ddc2e4bab26"},"vehicle_type_id":"4","last_reported":1708293960,"current_range_meters":2000,"station_id":"chh1huq6cuj3fo74tm60","pricing_plan_id":"cebpf4jnsgd1na2vs0mg"},{"bike_id":"26c54b71-3eed-4b0b-b81a-2558d55007db","system_id":"levelo_inurba_marseille","lat":43.297815,"lon":5.393548,"is_reserved":false,"is_disabled":false,"rental_uris":{"android":"levelo://app?vid=26c54b71-3eed-4b0b-b81a-2558d55007db","ios":"levelo://app?vid=26c54b71-3eed-4b0b-b81a-2558d55007db"},"vehicle_type_id":"4","last_reported":1708293960,"current_range_meters":800,"station_id":"chh1huq6cuj3fo74tm60","pricing_plan_id":"cebpf4jnsgd1na2vs0mg"},{"bike_id":"2d8e3104-993e-440a-bbd5-cb7a4c6d5d19","system_id":"levelo_inurba_marseille","lat":43.297789,"lon":5.393354,"is_reserved":false,"is_disabled":false,"rental_uris":{"android":"levelo://app?vid=2d8e3104-993e-440a-bbd5-cb7a4c6d5d19","ios":"levelo://app?vid=2d8e3104-993e-440a-bbd5-cb7a4c6d5d19"},"vehicle_type_id":"4","last_reported":1708293960,"current_range_meters":30800,"station_id":"chh1huq6cuj3fo74tm60","pricing_plan_id":"cebpf4jnsgd1na2vs0mg"},{"bike_id":"78eb4687-909f-4286-a4fc-168aede6b917","system_id":"levelo_inurba_marseille","lat":43.295169,"lon":5.390426,"is_reserved":false,"is_disabled":false,"rental_uris":{"android":"levelo://app?vid=78eb4687-909f-4286-a4fc-168aede6b917","ios":"levelo://app?vid=78eb4687-909f-4286-a4fc-168aede6b917"},"vehicle_type_id":"4","last_reported":1708293960,"current_range_meters":18400,"station_id":"ce4bh3p2rcd13ifvqdp0","pricing_plan_id":"cebpf4jnsgd1na2vs0mg"},{"bike_id":"efb236fd-169b-49e9-b5bb-b1bc9e36bf93","system_id":"levelo_inurba_marseille","lat":43.28867,"lon":5.37241,"is_reserved":false,"is_disabled":false,"rental_uris":{"android":"levelo://app?vid=efb236fd-169b-49e9-b5bb-b1bc9e36bf93","ios":"levelo://app?vid=efb236fd-169b-49e9-b5bb-b1bc9e36bf93"},"vehicle_type_id":"4","last_reported":1708293960,"current_range_meters":2400,"station_id":"","pricing_plan_id":"cebpf4jnsgd1na2vs0mg"},{"bike_id":"43c01f34-9b8b-4ecd-9e2d-064bef98bbff","system_id":"levelo_inurba_marseille","lat":43.330442,"lon":5.389148,"is_reserved":false,"is_disabled":false,"rental_uris":{"android":"levelo://app?vid=43c01f34-9b8b-4ecd-9e2d-064bef98bbff","ios":"levelo://app?vid=43c01f34-9b8b-4ecd-9e2d-064bef98bbff"},"vehicle_type_id":"4","last_reported":1708293960,"current_range_meters":26400,"station_id":"ce4bhr92rcd13ifvqhrg","pricing_plan_id":"cebpf4jnsgd1na2vs0mg"},{"bike_id":"9b4b435d-840f-423e-b53e-ab011e1419d4","system_id":"levelo_inurba_marseille","lat":43.330202,"lon":5.390402,"is_reserved":false,"is_disabled":false,"rental_uris":{"android":"levelo://app?vid=9b4b435d-840f-423e-b53e-ab011e1419d4","ios":"levelo://app?vid=9b4b435d-840f-423e-b53e-ab011e1419d4"},"vehicle_type_id":"4","last_reported":1708293960,"current_range_meters":13200,"station_id":"ce4bhr92rcd13ifvqhrg","pricing_plan_id":"cebpf4jnsgd1na2vs0mg"},{"bike_id":"6a823dc7-0cb0-4acf-b1ce-ea6d8e8b537d","system_id":"levelo_inurba_marseille","lat":43.2952,"lon":5.39029,"is_reserved":false,"is_disabled":false,"rental_uris":{"android":"levelo://app?vid=6a823dc7-0cb0-4acf-b1ce-ea6d8e8b537d","ios":"levelo://app?vid=6a823dc7-0cb0-4acf-b1ce-ea6d8e8b537d"},"vehicle_type_id":"4","last_reported":1708293960,"current_range_meters":12400,"station_id":"ce4bh3p2rcd13ifvqdp0","pricing_plan_id":"cebpf4jnsgd1na2vs0mg"},{"bike_id":"9ea0bd64-e90b-4adf-94bf-522bbf1d5786","system_id":"levelo_inurba_marseille","lat":43.28976,"lon":5.3784,"is_reserved":false,"is_disabled":false,"rental_uris":{"android":"levelo://app?vid=9ea0bd64-e90b-4adf-94bf-522bbf1d5786","ios":"levelo://app?vid=9ea0bd64-e90b-4adf-94bf-522bbf1d5786"},"vehicle_type_id":"4","last_reported":1708293960,"current_range_meters":0,"station_id":"ce4bh9p2rcd13ifvqed0","pricing_plan_id":"cebpf4jnsgd1na2vs0mg"},{"bike_id":"52a952bc-6183-453d-bf8a-5713c2273315","system_id":"levelo_inurba_marseille","lat":43.330442,"lon":5.389148,"is_reserved":false,"is_disabled":false,"rental_uris":{"android":"levelo://app?vid=52a952bc-6183-453d-bf8a-5713c2273315","ios":"levelo://app?vid=52a952bc-6183-453d-bf8a-5713c2273315"},