{"last_updated":1774381583,"ttl":60,"version":"2.2","data":{"bikes":[{"bike_id":"4fb9a526-d9f6-4845-92dd-fc58be0ab8e3","system_id":"levelo_inurba_marseille","lat":43.30607,"lon":5.3933,"is_reserved":false,"is_disabled":false,"rental_uris":{"android":"levelo://app?vid=4fb9a526-d9f6-4845-92dd-fc58be0ab8e3","ios":"levelo://app?vid=4fb9a526-d9f6-4845-92dd-fc58be0ab8e3"},"vehicle_type_id":"4","last_reported":1774381583,"current_range_meters":2800,"station_id":"ce4bh0p2rcd13ifvqd80","pricing_plan_id":"cebpf4jnsgd1na2vs0mg"},{"bike_id":"e954c8e9-ed98-405c-a848-de791f6bf08d","system_id":"levelo_inurba_marseille","lat":43.23893,"lon":5.37453,"is_reserved":false,"is_disabled":false,"rental_uris":{"android":"levelo://app?vid=e954c8e9-ed98-405c-a848-de791f6bf08d","ios":"levelo://app?vid=e954c8e9-ed98-405c-a848-de791f6bf08d"},"vehicle_type_id":"4","last_reported":1774381583,"current_range_meters":2800,"station_id":"st_d6sm7csbq4hs73f8fpjg","pricing_plan_id":"cebpf4jnsgd1na2vs0mg"},{"bike_id":"8fa58499-4a2a-44b1-b1e2-2fcbb757ec21","system_id":"levelo_inurba_marseille","lat":43.29798,"lon":5.38093,"is_reserved":false,"is_disabled":false,"rental_uris":{"android":"levelo://app?vid=8fa58499-4a2a-44b1-b1e2-2fcbb757ec21","ios":"levelo://app?vid=8fa58499-4a2a-44b1-b1e2-2fcbb757ec21"},"vehicle_type_id":"4","last_reported":1774381583,"current_range_meters":2800,"station_id":"ce4bgip2rcd13ifvqbb0","pricing_plan_id":"cebpf4jnsgd1na2vs0mg"},{"bike_id":"9b97978a-0e89-419b-9595-ac8ce54ebe21","system_id":"levelo_inurba_marseille","lat":43.23966,"lon":5.36627,"is_reserved":false,"is_disabled":false,"rental_uris":{"android":"levelo://app?vid=9b97978a-0e89-419b-9595-ac8ce54ebe21","ios":"levelo://app?vid=9b97978a-0e89-419b-9595-ac8ce54ebe21"},"vehicle_type_id":"4","last_reported":1774381583,"current_range_meters":2800,"station_id":"ce4bhi12rcd13ifvqfp0","pricing_plan_id":"cebpf4jnsgd1na2vs0mg"},{"bike_id":"0985f954-92f9-461f-b427-f3b65a2b2aed","system_id":"levelo_inurba_marseille","lat":43.231847,"lon":5.399798,"is_reserved":false,"is_disabled":false,"rental_uris":{"android":"levelo://app?vid=0985f954-92f9-461f-b427-f3b65a2b2aed","ios":"levelo://app?vid=0985f954-92f9-461f-b427-f3b65a2b2aed"},"vehicle_type_id":"4","last_reported":1774381583,"current_range_meters":2800,"station_id":"ce4bhn12rcd13ifvqgqg","pricing_plan_id":"cebpf4jnsgd1na2vs0mg"},{"bike_id":"67a60bb8-f9d8-4dda-8509-6e87138f0df2","system_id":"levelo_inurba_marseille","lat":43.3025,"lon":5.40048,"is_reserved":false,"is_disabled":true,"rental_uris":{"android":"levelo://app?vid=67a60bb8-f9d8-4dda-8509-6e87138f0df2","ios":"levelo://app?vid=67a60bb8-f9d8-4dda-8509-6e87138f0df2"},"vehicle_type_id":"4","last_reported":1774381583,"current_range_meters":2800,"station_id":"ce4bgvh2rcd13ifvqcs0","pricing_plan_id":"cebpf4jnsgd1na2vs0mg"},{"bike_id":"fde3e475-3c83-4ec7-870b-9fdad4ff32ae","system_id":"levelo_inurba_marseille","lat":43.29934,"lon":5.36542,"is_reserved":false,"is_disabled":false,"rental_uris":{"android":"levelo://app?vid=fde3e475-3c83-4ec7-870b-9fdad4ff32ae","ios":"levelo://app?vid=fde3e475-3c83-4ec7-870b-9fdad4ff32ae"},"vehicle_type_id":"4","last_reported":1774381583,"current_range_meters":2800,"station_id":"ce4bgm92rcd13ifvqbr0","pricing_plan_id":"cebpf4jnsgd1na2vs0mg"},{"bike_id":"fe6e7fb0-bfbb-4d8b-ab05-ae2e4de5dc15","system_id":"levelo_inurba_marseille","lat":43.30535,"lon":5.36707,"is_reserved":false,"is_disabled":false,"rental_uris":{"android":"levelo://app?vid=fe6e7fb0-bfbb-4d8b-ab05-ae2e4de5dc15","ios":"levelo://app?vid=fe6e7fb0-bfbb-4d8b-ab05-ae2e4de5dc15"},"vehicle_type_id":"4","last_reported":1774381583,"current_range_meters":2800,"station_id":"ce4bgrp2rcd13ifvqc9g","pricing_plan_id":"cebpf4jnsgd1na2vs0mg"},{"bike_id":"0bc63bf9-55e7-4584-b3a6-74aba554da40","system_id":"levelo_inurba_marseille","lat":43.299316,"lon":5.365516,"is_reserved":false,"is_disabled":false,"rental_uris":{"android":"levelo://app?vid=0bc63bf9-55e7-4584-b3a6-74aba554da40","ios":"levelo://app?vid=0bc63bf9-55e7-4584-b3a6-74aba554da40"},"vehicle_type_id":"4","last_reported":1774381583,"current_range_meters":2800,"station_id":"ce4bgm92rcd13ifvqbr0","pricing_plan_id":"cebpf4jnsgd1na2vs0mg"},{"bike_id":"fc01f500-c5b2-4e19-9790-5c9207f665dc","system_id":"levelo_inurba_marseille","lat":43.25346,"lon":5.42168,"is_reserved":false,"is_disabled":false,"rental_uris":{"android":"levelo://app?vid=fc01f500-c5b2-4e19-9790-5c9207f665dc","ios":"levelo://app?vid=fc01f500-c5b2-4e19-9790-5c9207f665dc"},"vehicle_type_id":"4","last_reported":1774381583,"current_range_meters":2800,"station_id":"st_d2m65c5bi1j21697t3ng","pricing_plan_id":"cebpf4jnsgd1na2vs0mg"},{"bike_id":"87cab354-e36c-4dc9-949d-1832434988fa","system_id":"levelo_inurba_marseille","lat":43.31333,"lon":5.38439,"is_reserved":false,"is_disabled":false,"rental_uris":{"android":"levelo://app?vid=87cab354-e36c-4dc9-949d-1832434988fa","ios":"levelo://app?vid=87cab354-e36c-4dc9-949d-1832434988fa"},"vehicle_type_id":"4","last_reported":1774381583,"current_range_meters":2800,"station_id":"ce4bgt92rcd13ifvqcf0","pricing_plan_id":"cebpf4jnsgd1na2vs0mg"},{"bike_id":"f38cc4b9-3e93-424c-9816-2176913a6272","system_id":"levelo_inurba_marseille","lat":43.297945,"lon":5.38079,"is_reserved":false,"is_disabled":false,"rental_uris":{"android":"levelo://app?vid=f38cc4b9-3e93-424c-9816-2176913a6272","ios":"levelo://app?vid=f38cc4b9-3e93-424c-9816-2176913a6272"},"vehicle_type_id":"4","last_reported":1774381583,"current_range_meters":3200,"station_id":"ce4bh9p2rcd13ifvqed0","pricing_plan_id":"cebpf4jnsgd1na2vs0mg"},{"bike_id":"6d9d2664-5a42-413e-a580-69d4bf251ed8","system_id":"levelo_inurba_marseille","lat":43.28949,"lon":5.36399,"is_reserved":false,"is_disabled":false,"rental_uris":{"android":"levelo://app?vid=6d9d2664-5a42-413e-a580-69d4bf251ed8","ios":"levelo://app?vid=6d9d2664-5a42-413e-a580-69d4bf251ed8"},"vehicle_type_id":"4","last_reported":1774381583,"current_range_meters":3200,"station_id":"ce4bhc92rcd13ifvqetg","pricing_plan_id":"cebpf4jnsgd1na2vs0mg"},{"bike_id":"5f48b616-8cb3-44b8-99ad-5ffb21a00fc4","system_id":"levelo_inurba_marseille","lat":43.31363,"lon":5.38478,"is_reserved":false,"is_disabled":false,"rental_uris":{"android":"levelo://app?vid=5f48b616-8cb3-44b8-99ad-5ffb21a00fc4","ios":"levelo://app?vid=5f48b616-8cb3-44b8-99ad-5ffb21a00fc4"},"vehicle_type_id":"4","last_reported":1774381583,"current_range_meters":3200,"station_id":"ce4bgt92rcd13ifvqcf0","pricing_plan_id":"cebpf4jnsgd1na2vs0mg"},{"bike_id":"f7fa1ad5-099f-49b7-ba3e-26442c9181b9","system_id":"levelo_inurba_marseille","lat":43.30537,"lon":5.36534,"is_reserved":false,"is_disabled":true,"rental_uris":{"android":"levelo://app?vid=f7fa1ad5-099f-49b7-ba3e-26442c9181b9","ios":"levelo://app?vid=f7fa1ad5-099f-49b7-ba3e-26442c9181b9"},"vehicle_type_id":"4","last_reported":1774381583,"current_range_meters":3200,"station_id":"ce4bgs12rcd13ifvqcag","pricing_plan_id":"cebpf4jnsgd1na2vs0mg"},{"bike_id":"bbb20be4-a4e3-4756-bf9e-de6efa0abbb9","system_id":"levelo_inurba_marseille","lat":43.29185,"lon":5.42567,"is_reserved":false,"is_disabled":false,"rental_uris":{"android":"levelo://app?vid=bbb20be4-a4e3-4756-bf9e-de6efa0abbb9","ios":"levelo://app?vid=bbb20be4-a4e3-4756-bf9e-de6efa0abbb9"},"vehicle_type_id":"4","last_reported":1774381583,"current_range_meters":3200,"station_id":"","pricing_plan_id":"cebpf4jnsgd1na2vs0mg"},{"bike_id":"a9480892-8f09-4db9-9ceb-9be79f136f67","system_id":"levelo_inurba_marseille","lat":43.25576,"lon":5.38249,"is_reserved":false,"is_disabled":false,"rental_uris":{"android":"levelo://app?vid=a9480892-8f09-4db9-9ceb-9be79f136f67","ios":"levelo://app?vid=a9480892-8f09-4db9-9ceb-9be79f136f67"},"vehicle_type_id":"4","last_reported":1774381583,"current_range_meters":3200,"station_id":"ce4bhih2rcd13ifvqfs0","pricing_plan_id":"cebpf4jnsgd1na2vs0mg"},{"bike_id":"a5da0296-037b-41de-8678-a77541c5f8bb","system_id":"levelo_inurba_marseille","lat":43.28975,"lon":5.37832,"is_reserved":false,"is_disabled":false,"rental_uris":{"android":"levelo://app?vid=a5da0296-037b-41de-8678-a77541c5f8bb","ios":"levelo://app?vid=a5da0296-037b-41de-8678-a77541c5f8bb"},"vehicle_type_id":"4","last_reported":1774381583,"current_range_meters":3200,"station_id":"ce4bh9p2rcd13ifvqed0","pricing_plan_id":"cebpf4jnsgd1na2vs0mg"},{"bike_id":"a7ee4e20-d0a8-4f46-b864-899312d7b94e","system_id":"levelo_inurba_marseille","lat":43.29526,"lon":5.394,"is_reserved":false,"is_disabled":false,"rental_uris":{"android":"levelo://app?vid=a7ee4e20-d0a8-4f46-b864-899312d7b94e","ios":"levelo://app?vid=a7ee4e20-d0a8-4f46-b864-899312d7b94e"},"vehicle_type_id":"4","last_reported":1774381583,"current_range_meters":3200,"station_id":"ce4bh292rcd13ifvqdf0","pricing_plan_id":"cebpf4jnsgd1na2vs0mg"},{"bike_id":"ff734142-516f-489b-8dd9-4af408a453c5","system_id":"levelo_inurba_marseille","lat":43.25494,"lon":5.37646,"is_reserved":false,"is_disabled":false,"rental_uris":{"android":"levelo://app?vid=ff734142-516f-489b-8dd9-4af408a453c5","ios":"levelo://app?vid=ff734142-516f-489b-8dd9-4af408a453c5"},"vehicle_type_id":"4","last_reported":1774381583,"current_range_meters":3200,"station_id":"ce4bhh12rcd13ifvqff0","pricing_plan_id":"cebpf4jnsgd1na2vs0mg"},{"bike_id":"3133467d-46d2-4c4d-9586-e0afd593fa67","system_id":"levelo_inurba_marseille","lat":43.2679,"lon":5.3941,"is_reserved":false,"is_disabled":false,"rental_uris":{"android":"levelo://app?vid=3133467d-46d2-4c4d-9586-e0afd593fa67","ios":"levelo://app?vid=3133467d-46d2-4c4d-9586-e0afd593fa67"},"vehicle_type_id":"4","last_reported":1774381583,"current_range_meters":3200,"station_id":"ce4bhh12rcd13ifvqfg0","pricing_plan_id":"cebpf4jnsgd1na2vs0mg"},{"bike_id":"f119baaa-c7b2-4d02-8318-52530d20f4b3","system_id":"levelo_inurba_marseille","lat":43.28852,"lon":5.39314,"is_reserved":false,"is_disabled":false,"rental_uris":{"android":"levelo://app?vid=f119baaa-c7b2-4d02-8318-52530d20f4b3","ios":"levelo://app?vid=f119baaa-c7b2-4d02-8318-52530d20f4b3"},"vehicle_type_id":"4","last_reported":1774381583,"current_range_meters":3200,"station_id":"ce4bh2p2rcd13ifvqdi0","pricing_plan_id":"cebpf4jnsgd1na2vs0mg"},{"bike_id":"ae4340a8-b5d7-4692-9539-af9fc5327c52","system_id":"levelo_inurba_marseille","lat":43.26599,"lon":5.39076,"is_reserved":false,"is_disabled":false,"rental_uris":{"android":"levelo://app?vid=ae4340a8-b5d7-4692-9539-af9fc5327c52","ios":"levelo://app?vid=ae4340a8-b5d7-4692-9539-af9fc5327c52"},"vehicle_type_id":"4","last_reported":1774381583,"current_range_meters":3200,"station_id":"","pricing_plan_id":"cebpf4jnsgd1na2vs0mg"},{"bike_id":"7ec4a016-2856-4e09-8e89-90a610a2ea7b","system_id":"levelo_inurba_marseille","lat":43.29898,"lon":5.38891,"is_reserved":false,"is_disabled":false,"rental_uris":{"android":"levelo://app?vid=7ec4a016-2856-4e09-8e89-90a610a2ea7b","ios":"levelo://app?vid=7ec4a016-2856-4e09-8e89-90a610a2ea7b"},"vehicle_type_id":"4","last_reported":1774381583,"current_range_meters":3200,"station_id":"ce4bh392rcd13ifvqdl0","pricing_plan_id":"cebpf4jnsgd1na2vs0mg"},{"bike_id":"edc16db6-0042-4215-9aaf-108e0300da68","system_id":"levelo_inurba_marseille","lat":43.28934,"lon":5.36636,"is_reserved":false,"is_disabled":true,"rental_uris":{"android":"levelo://app?vid=edc16db6-0042-4215-9aaf-108e0300da68","ios":"levelo://app?vid=edc16db6-0042-4215-9aaf-108e0300da68"},"vehicle_type_id":"4","last_reported":1774381583,"current_range_meters":3600,"station_id":"ce4bhap2rcd13ifvqek0","pricing_plan_id":"cebpf4jnsgd1na2vs0mg"},{"bike_id":"91b1ec64-8a9d-4d83-9dd5-6ee2c9a8f33e","system_id":"levelo_inurba_marseille","lat":43.29793,"lon":5.37107,"is_reserved":false,"is_disabled":false,"rental_uris":{"android":"levelo://app?vid=91b1ec64-8a9d-4d83-9dd5-6ee2c9a8f33e","ios":"levelo://app?vid=91b1ec64-8a9d-4d83-9dd5-6ee2c9a8f33e"},"vehicle_type_id":"4","last_reported":1774381583,"current_range_meters":3600,"station_id":"ce4bgop2rcd13ifvqc1g","pricing_plan_id":"cebpf4jnsgd1na2vs0mg"},{"bike_id":"2ac433c0-f37b-46f7-b795-c990b27473b4","system_id":"levelo_inurba_marseille","lat":43.28855,"lon":5.35837,"is_reserved":false,"is_disabled":false,"rental_uris":{"android":"levelo://app?vid=2ac433c0-f37b-46f7-b795-c990b27473b4","ios":"levelo://app?vid=2ac433c0-f37b-46f7-b795-c990b27473b4"},"vehicle_type_id":"4","last_reported":1774381583,"current_range_meters":3600,"station_id":"ce4bhb12rcd13ifvqem0","pricing_plan_id":"cebpf4jnsgd1na2vs0mg"},{"bike_id":"986bff86-a455-4656-ab41-d4e3477801d7","system_id":"levelo_inurba_marseille","lat":43.29512,"lon":5.39401,"is_reserved":false,"is_disabled":false,"rental_uris":{"android":"levelo://app?vid=986bff86-a455-4656-ab41-d4e3477801d7","ios":"levelo://app?vid=986bff86-a455-4656-ab41-d4e3477801d7"},"vehicle_type_id":"4","last_reported":1774381583,"current_range_meters":3600,"station_id":"ce4bh292rcd13ifvqdf0","pricing_plan_id":"cebpf4jnsgd1na2vs0mg"},{"bike_id":"850766fb-1707-4f17-858f-22ba0bd2d6e3","system_id":"levelo_inurba_marseille","lat":43.28396,"lon":5.37525,"is_reserved":false,"is_disabled":false,"rental_uris":{"android":"levelo://app?vid=850766fb-1707-4f17-858f-22ba0bd2d6e3","ios":"levelo://app?vid=850766fb-1707-4f17-858f-22ba0bd2d6e3"},"vehicle_type_id":"4","last_reported":1774381583,"current_range_meters":3600,"station_id":"ce4bh412rcd13ifvqds0","pricing_plan_id":"cebpf4jnsgd1na2vs0mg"},{"bike_id":"c0339bad-3a71-412f-99d4-15aa57e709e3","system_id":"levelo_inurba_marseille","lat":43.330235,"lon":5.390372,"is_reserved":false,"is_disabled":false,"rental_uris":{"android":"levelo://app?vid=c0339bad-3a71-412f-99d4-15aa57e709e3","ios":"levelo://app?vid=c0339bad-3a71-412f-99d4-15aa57e709e3"},"vehicle_type_id":"4","last_reported":1774381583,"current_range_meters":3600,"station_id":"ce4bhr92rcd13ifvqhrg","pricing_plan_id":"cebpf4jnsgd1na2vs0mg"},{"bike_id":"6d7e6883-0ae7-491c-bd32-b8caa38419c6","system_id":"levelo_inurba_marseille","lat":43.29885,"lon":5.39729,"is_reserved":false,"is_disabled":false,"rental_uris":{"android":"levelo://app?vid=6d7e6883-0ae7-491c-bd32-b8caa38419c6","ios":"levelo://app?vid=6d7e6883-0ae7-491c-bd32-b8caa38419c6"},"vehicle_type_id":"4","last_reported":1774381583,"current_range_meters":3600,"station_id":"ce4bh0h2rcd13ifvqd50","pricing_plan_id":"cebpf4jnsgd1na2vs0mg"},{"bike_id":"1458ffc1-9b1e-47c3-9c46-2f31413ac5ea","system_id":"levelo_inurba_marseille","lat":43.308,"lon":5.38152,"is_reserved":false,"is_disabled":false,"rental_uris":{"android":"levelo://app?vid=1458ffc1-9b1e-47c3-9c46-2f31413ac5ea","ios":"levelo://app?vid=1458ffc1-9b1e-47c3-9c46-2f31413ac5ea"},"vehicle_type_id":"4","last_reported":1774381583,"current_range_meters":3600,"station_id":"ce4bgt12rcd13ifvqce0","pricing_plan_id":"cebpf4jnsgd1na2vs0mg"},{"bike_id":"18f1051e-1bd5-4c45-9f20-a7bbf61d6d5e","system_id":"levelo_inurba_marseille","lat":43.28944,"lon":5.36393,"is_reserved":false,"is_disabled":false,"rental_uris":{"android":"levelo://app?vid=18f1051e-1bd5-4c45-9f20-a7bbf61d6d5e","ios":"levelo://app?vid=18f1051e-1bd5-4c45-9f20-a7bbf61d6d5e"},"vehicle_type_id":"4","last_reported":1774381583,"current_range_meters":3600,"station_id":"ce4bhc92rcd13ifvqetg","pricing_plan_id":"cebpf4jnsgd1na2vs0mg"},{"bike_id":"712a78bc-49d5-4e29-b195-11f0e149f363","system_id":"levelo_inurba_marseille","lat":43.29866,"lon":5.39744,"is_reserved":false,"is_disabled":false,"rental_uris":{"android":"levelo://app?vid=712a78bc-49d5-4e29-b195-11f0e149f363","ios":"levelo://app?vid=712a78bc-49d5-4e29-b195-11f0e149f363"},"vehicle_type_id":"4","last_reported":1774381583,"current_range_meters":3600,"station_id":"ce4bh0h2rcd13ifvqd50","pricing_plan_id":"cebpf4jnsgd1na2vs0mg"},{"bike_id":"ac8e86da-55a1-458d-b594-72eeab74387c","system_id":"levelo_inurba_marseille","lat":43.25581,"lon":5.38235,"is_reserved":false,"is_disabled":false,"rental_uris":{"android":"levelo://app?vid=ac8e86da-55a1-458d-b594-72eeab74387c","ios":"levelo://app?vid=ac8e86da-55a1-458d-b594-72eeab74387c"},"vehicle_type_id":"4","last_reported":1774381583,"current_range_meters":3600,"station_id":"ce4bhih2rcd13ifvqfs0","pricing_plan_id":"cebpf4jnsgd1na2vs0mg"},{"bike_id":"2a93460b-e15c-4411-b385-56fc7e96e03c","system_id":"levelo_inurba_marseille","lat":43.28569,"lon":5.39505,"is_reserved":false,"is_disabled":false,"rental_uris":{"android":"levelo://app?vid=2a93460b-e15c-4411-b385-56fc7e96e03c","ios":"levelo://app?vid=2a93460b-e15c-4411-b385-56fc7e96e03c"},"vehicle_type_id":"4","last_reported":1774381583,"current_range_meters":3600,"station_id":"ce4bh292rcd13ifvqdg0","pricing_plan_id":"cebpf4jnsgd1na2vs0mg"},{"bike_id":"40906df4-17dd-4d9f-ac1f-0880c5eb117e","system_id":"levelo_inurba_marseille","lat":43.32352,"lon":5.3675,"is_reserved":false,"is_disabled":false,"rental_uris":{"android":"levelo://app?vid=40906df4-17dd-4d9f-ac1f-0880c5eb117e","ios":"levelo://app?vid=40906df4-17dd-4d9f-ac1f-0880c5eb117e"},"vehicle_type_id":"4","last_reported":1774381583,"current_range_meters":4000,"station_id":"ce4bhsh2rcd13ifvqi2g","pricing_plan_id":"cebpf4jnsgd1na2vs0mg"},{"bike_id":"e41c893a-4032-48f3-bf3a-8efcbfe1465c","system_id":"levelo_inurba_marseille","lat":43.25864,"lon":5.39425,"is_reserved":false,"is_disabled":true,"rental_uris":{"android":"levelo://app?vid=e41c893a-4032-48f3-bf3a-8efcbfe1465c","ios":"levelo://app?vid=e41c893a-4032-48f3-bf3a-8efcbfe1465c"},"vehicle_type_id":"4","last_reported":1774381583,"current_range_meters":4000,"station_id":"","pricing_plan_id":"cebpf4jnsgd1na2vs0mg"},{"bike_id":"19a6325e-af45-41c2-bbca-14b8a136ed80","system_id":"levelo_inurba_marseille","lat":43.25863,"lon":5.39905,"is_reserved":false,"is_disabled":false,"rental_uris":{"android":"levelo://app?vid=19a6325e-af45-41c2-bbca-14b8a136ed80","ios":"levelo://app?vid=19a6325e-af45-41c2-bbca-14b8a136ed80"},"vehicle_type_id":"4","last_reported":1774381583,"current_range_meters":4000,"station_id":"ce4bhl92rcd13ifvqghg","pricing_plan_id":"cebpf4jnsgd1na2vs0mg"},{"bike_id":"9ac75433-2cff-4616-8f87-96ee967119ac","system_id":"levelo_inurba_marseille","lat":43.26958,"lon":5.38632,"is_reserved":false,"is_disabled":false,"rental_uris":{"android":"levelo://app?vid=9ac75433-2cff-4616-8f87-96ee967119ac","ios":"levelo://app?vid=9ac75433-2cff-4616-8f87-96ee967119ac"},"vehicle_type_id":"4","last_reported":1774381583,"current_range_meters":4000,"station_id":"ce4bhh92rcd13ifvqfh0","pricing_plan_id":"cebpf4jnsgd1na2vs0mg"},{"bike_id":"95af4c9e-a5dd-4e09-b63a-5b344598613e","system_id":"levelo_inurba_marseille","lat":43.22966,"lon":5.35365,"is_reserved":false,"is_disabled":false,"rental_uris":{"android":"levelo://app?vid=95af4c9e-a5dd-4e09-b63a-5b344598613e","ios":"levelo://app?vid=95af4c9e-a5dd-4e09-b63a-5b344598613e"},"vehicle_type_id":"4","last_reported":1774381583,"current_range_meters":4000,"station_id":"cpo3532slgdg3j2ikp40","pricing_plan_id":"cebpf4jnsgd1na2vs0mg"},{"bike_id":"807c2508-14e5-4167-b11b-92306a0b73ac","system_id":"levelo_inurba_marseille","lat":43.29523,"lon":5.39039,"is_reserved":false,"is_disabled":false,"rental_uris":{"android":"levelo://app?vid=807c2508-14e5-4167-b11b-92306a0b73ac","ios":"levelo://app?vid=807c2508-14e5-4167-b11b-92306a0b73ac"},"vehicle_type_id":"4","last_reported":1774381583,"current_range_meters":4000,"station_id":"ce4bh3p2rcd13ifvqdp0","pricing_plan_id":"cebpf4jnsgd1na2vs0mg"},{"bike_id":"69a34fac-fc80-43dc-bb66-91eee3bdfb90","system_id":"levelo_inurba_marseille","lat":43.28778,"lon":5.35334,"is_reserved":false,"is_disabled":false,"rental_uris":{"android":"levelo://app?vid=69a34fac-fc80-43dc-bb66-91eee3bdfb90","ios":"levelo://app?vid=69a34fac-fc80-43dc-bb66-91eee3bdfb90"},"vehicle_type_id":"4","last_reported":1774381583,"current_range_meters":4000,"station_id":"","pricing_plan_id":"cebpf4jnsgd1na2vs0mg"},{"bike_id":"e032ab58-6cd1-4dde-af1f-11967a9af0ed","system_id":"levelo_inurba_marseille","lat":43.24658,"lon":5.38177,"is_reserved":false,"is_disabled":false,"rental_uris":{"android":"levelo://app?vid=e032ab58-6cd1-4dde-af1f-11967a9af0ed","ios":"levelo://app?vid=e032ab58-6cd1-4dde-af1f-11967a9af0ed"},"vehicle_type_id":"4","last_reported":1774381583,"current_range_meters":4000,"station_id":"","pricing_plan_id":"cebpf4jnsgd1na2vs0mg"},{"bike_id":"d2260517-36eb-498b-95a6-a249410b03cf","system_id":"levelo_inurba_marseille","lat":43.26577,"lon":5.39804,"is_reserved":false,"is_disabled":false,"rental_uris":{"android":"levelo://app?vid=d2260517-36eb-498b-95a6-a249410b03cf","ios":"levelo://app?vid=d2260517-36eb-498b-95a6-a249410b03cf"},"vehicle_type_id":"4","last_reported":1774381583,"current_range_meters":4000,"station_id":"","pricing_plan_id":"cebpf4jnsgd1na2vs0mg"},{"bike_id":"91432565-4aed-4b08-b0a1-b091929a2fe8","system_id":"levelo_inurba_marseille","lat":43.30896,"lon":5.39649,"is_reserved":false,"is_disabled":false,"rental_uris":{"android":"levelo://app?vid=91432565-4aed-4b08-b0a1-b091929a2fe8","ios":"levelo://app?vid=91432565-4aed-4b08-b0a1-b091929a2fe8"},"vehicle_type_id":"4","last_reported":1774381583,"current_range_meters":4000,"station_id":"ce4bh012rcd13ifvqcv0","pricing_plan_id":"cebpf4jnsgd1na2vs0mg"},{"bike_id":"bbcec521-b2cb-4752-a30b-3cc813f9ce07","system_id":"levelo_inurba_marseille","lat":43.28782,"lon":5.4484,"is_reserved":false,"is_disabled":false,"rental_uris":{"android":"levelo://app?vid=bbcec521-b2cb-4752-a30b-3cc813f9ce07","ios":"levelo://app?vid=bbcec521-b2cb-4752-a30b-3cc813f9ce07"},"vehicle_type_id":"4","last_reported":1774381583,"current_range_meters":4000,"station_id":"","pricing_plan_id":"cebpf4jnsgd1na2vs0mg"},{"bike_id":"136d52cc-fa0a-4a7c-bade-15efb48d4199","system_id":"levelo_inurba_marseille","lat":43.3022,"lon":5.39468,"is_reserved":false,"is_disabled":false,"rental_uris":{"android":"levelo://app?vid=136d52cc-fa0a-4a7c-bade-15efb48d4199","ios":"levelo://app?vid=136d52cc-fa0a-4a7c-bade-15efb48d4199"},"vehicle_type_id":"4","last_reported":1774381583,"current_range_meters":4000,"station_id":"ce4bh0p2rcd13ifvqd70","pricing_plan_id":"cebpf4jnsgd1na2vs0mg"},{"bike_id":"81c656bd-7c21-4504-a12d-dd282d1b1b7a","system_id":"levelo_inurba_marseille","lat":43.23182,"lon":5.39995,"is_reserved":false,"is_disabled":false,"rental_uris":{"android":"levelo://app?vid=81c656bd-7c21-4504-a12d-dd282d1b1b7a","ios":"levelo://app?vid=81c656bd-7c21-4504-a12d-dd282d1b1b7a"},"vehicle_type_id":"4","last_reported":1774381583,"current_range_meters":4000,"station_id":"ce4bhn12rcd13ifvqgqg","pricing_plan_id":"cebpf4jnsgd1na2vs0mg"},{"bike_id":"61acf86f-e167-4a57-b41d-dc449cbd448d","system_id":"levelo_inurba_marseille","lat":43.30897,"lon":5.36813,"is_reserved":false,"is_disabled":false,"rental_uris":{"android":"levelo://app?vid=61acf86f-e167-4a57-b41d-dc449cbd448d","ios":"levelo://app?vid=61acf86f-e167-4a57-b41d-dc449cbd448d"},"vehicle_type_id":"4","last_reported":1774381583,"current_range_meters":4000,"station_id":"ce4bgn92rcd13ifvqbvg","pricing_plan_id":"cebpf4jnsgd1na2vs0mg"},{"bike_id":"a2fabdf4-bd61-4352-82b4-201f5349c59d","system_id":"levelo_inurba_marseille","lat":43.26559,"lon":5.39015,"is_reserved":false,"is_disabled":false,"rental_uris":{"android":"levelo://app?vid=a2fabdf4-bd61-4352-82b4-201f5349c59d","ios":"levelo://app?vid=a2fabdf4-bd61-4352-82b4-201f5349c59d"},"vehicle_type_id":"4","last_reported":1774381583,"current_range_meters":4400,"station_id":"ce4bhe12rcd13ifvqf30","pricing_plan_id":"cebpf4jnsgd1na2vs0mg"},{"bike_id":"bb85b854-c47c-4191-a8f6-7b401c5c72ea","system_id":"levelo_inurba_marseille","lat":43.28416,"lon":5.37509,"is_reserved":false,"is_disabled":false,"rental_uris":{"android":"levelo://app?vid=bb85b854-c47c-4191-a8f6-7b401c5c72ea","ios":"levelo://app?vid=bb85b854-c47c-4191-a8f6-7b401c5c72ea"},"vehicle_type_id":"4","last_reported":1774381583,"current_range_meters":4400,"station_id":"ce4bh412rcd13ifvqds0","pricing_plan_id":"cebpf4jnsgd1na2vs0mg"},{"bike_id":"2db6bc10-c1d3-4869-ae26-1a4afdf5c59f","system_id":"levelo_inurba_marseille","lat":43.28227,"lon":5.39068,"is_reserved":false,"is_disabled":false,"rental_uris":{"android":"levelo://app?vid=2db6bc10-c1d3-4869-ae26-1a4afdf5c59f","ios":"levelo://app?vid=2db6bc10-c1d3-4869-ae26-1a4afdf5c59f"},"vehicle_type_id":"4","last_reported":1774381583,"current_range_meters":4400,"station_id":"ce4bhn92rcd13ifvqgsg","pricing_plan_id":"cebpf4jnsgd1na2vs0mg"},{"bike_id":"1d0f3067-7ca2-4fbd-8b40-b921c6748a4a","system_id":"levelo_inurba_marseille","lat":43.28476,"lon":5.484,"is_reserved":false,"is_disabled":false,"rental_uris":{"android":"levelo://app?vid=1d0f3067-7ca2-4fbd-8b40-b921c6748a4a","ios":"levelo://app?vid=1d0f3067-7ca2-4fbd-8b40-b921c6748a4a"},"vehicle_type_id":"4","last_reported":1774381583,"current_range_meters":4400,"station_id":"","pricing_plan_id":"cebpf4jnsgd1na2vs0mg"},{"bike_id":"e5861c48-d1ad-4d3d-a3fc-ac23e248771d","system_id":"levelo_inurba_marseille","lat":43.29874,"lon":5.39732,"is_reserved":false,"is_disabled":false,"rental_uris":{"android":"levelo://app?vid=e5861c48-d1ad-4d3d-a3fc-ac23e248771d","ios":"levelo://app?vid=e5861c48-d1ad-4d3d-a3fc-ac23e248771d"},"vehicle_type_id":"4","last_reported":1774381583,"current_range_meters":4400,"station_id":"ce4bh0h2rcd13ifvqd50","pricing_plan_id":"cebpf4jnsgd1na2vs0mg"},{"bike_id":"17603604-4058-452c-b237-b0fb5d39625d","system_id":"levelo_inurba_marseille","lat":43.25495,"lon":5.37642,"is_reserved":false,"is_disabled":false,"rental_uris":{"android":"levelo://app?vid=17603604-4058-452c-b237-b0fb5d39625d","ios":"levelo://app?vid=17603604-4058-452c-b237-b0fb5d39625d"},"vehicle_type_id":"4","last_reported":1774381583,"current_range_meters":4400,"station_id":"ce4bhh12rcd13ifvqff0","pricing_plan_id":"cebpf4jnsgd1na2vs0mg"},{"bike_id":"4c533e40-b63a-4ab5-9bc1-8a27188d408d","system_id":"levelo_inurba_marseille","lat":43.30462,"lon":5.37909,"is_reserved":false,"is_disabled":false,"rental_uris":{"android":"levelo://app?vid=4c533e40-b63a-4ab5-9bc1-8a27188d408d","ios":"levelo://app?vid=4c533e40-b63a-4ab5-9bc1-8a27188d408d"},"vehicle_type_id":"4","last_reported":1774381583,"current_range_meters":4400,"station_id":"ce4bgup2rcd13ifvqcn0","pricing_plan_id":"cebpf4jnsgd1na2vs0mg"},{"bike_id":"2c92f243-6ce0-4edc-bf1d-181cc8b27f41","system_id":"levelo_inurba_marseille","lat":43.28854,"lon":5.35852,"is_reserved":false,"is_disabled":false,"rental_uris":{"android":"levelo://app?vid=2c92f243-6ce0-4edc-bf1d-181cc8b27f41","ios":"levelo://app?vid=2c92f243-6ce0-4edc-bf1d-181cc8b27f41"},"vehicle_type_id":"4","last_reported":1774381583,"current_range_meters":4800,"station_id":"ce4bhb12rcd13ifvqem0","pricing_plan_id":"cebpf4jnsgd1na2vs0mg"},{"bike_id":"253bfbd1-c3f6-4b72-a716-55890f3b4db7","system_id":"levelo_inurba_marseille","lat":43.28474,"lon":5.48422,"is_reserved":false,"is_disabled":false,"rental_uris":{"android":"levelo://app?vid=253bfbd1-c3f6-4b72-a716-55890f3b4db7","ios":"levelo://app?vid=253bfbd1-c3f6-4b72-a716-55890f3b4db7"},"vehicle_type_id":"4","last_reported":1774381583,"current_range_meters":4800,"station_id":"","pricing_plan_id":"cebpf4jnsgd1na2vs0mg"},{"bike_id":"80edcf5d-76f7-4ac8-99bc-6edd05fd6fcc","system_id":"levelo_inurba_marseille","lat":43.2659,"lon":5.39053,"is_reserved":false,"is_disabled":false,"rental_uris":{"android":"levelo://app?vid=80edcf5d-76f7-4ac8-99bc-6edd05fd6fcc","ios":"levelo://app?vid=80edcf5d-76f7-4ac8-99bc-6edd05fd6fcc"},"vehicle_type_id":"4","last_reported":1774381583,"current_range_meters":4800,"station_id":"","pricing_plan_id":"cebpf4jnsgd1na2vs0mg"},{"bike_id":"35c74211-3d48-49b4-8082-8d7d2c397771","system_id":"levelo_inurba_marseille","lat":43.306,"lon":5.37242,"is_reserved":false,"is_disabled":false,"rental_uris":{"android":"levelo://app?vid=35c74211-3d48-49b4-8082-8d7d2c397771","ios":"levelo://app?vid=35c74211-3d48-49b4-8082-8d7d2c397771"},"vehicle_type_id":"4","last_reported":1774381583,"current_range_meters":4800,"station_id":"ce4bgqh2rcd13ifvqc4g","pricing_plan_id":"cebpf4jnsgd1na2vs0mg"},{"bike_id":"024f7aa5-cd2d-4dcc-96b2-c9988da552df","system_id":"levelo_inurba_marseille","lat":43.269246,"lon":5.386274,"is_reserved":false,"is_disabled":false,"rental_uris":{"android":"levelo://app?vid=024f7aa5-cd2d-4dcc-96b2-c9988da552df","ios":"levelo://app?vid=024f7aa5-cd2d-4dcc-96b2-c9988da552df"},"vehicle_type_id":"4","last_reported":1774381583,"current_range_meters":4800,"station_id":"ce4bhh92rcd13ifvqfh0","pricing_plan_id":"cebpf4jnsgd1na2vs0mg"},{"bike_id":"4ce98637-072f-4197-bd69-11f207a88eab","system_id":"levelo_inurba_marseille","lat":43.28496,"lon":5.47279,"is_reserved":false,"is_disabled":false,"rental_uris":{"android":"levelo://app?vid=4ce98637-072f-4197-bd69-11f207a88eab","ios":"levelo://app?vid=4ce98637-072f-4197-bd69-11f207a88eab"},"vehicle_type_id":"4","last_reported":1774381583,"current_range_meters":4800,"station_id":"","pricing_plan_id":"cebpf4jnsgd1na2vs0mg"},{"bike_id":"50fe2af3-e3a4-44f7-9932-e461f6af55f8","system_id":"levelo_inurba_marseille","lat":43.2482,"lon":5.37445,"is_reserved":false,"is_disabled":false,"rental_uris":{"android":"levelo://app?vid=50fe2af3-e3a4-44f7-9932-e461f6af55f8","ios":"levelo://app?vid=50fe2af3-e3a4-44f7-9932-e461f6af55f8"},"vehicle_type_id":"4","last_reported":1774381583,"current_range_meters":4800,"station_id":"ce4bhgh2rcd13ifvqfb0","pricing_plan_id":"cebpf4jnsgd1na2vs0mg"},{"bike_id":"62b4b24a-25c2-413c-a9e9-7d8f1f6621f7","system_id":"levelo_inurba_marseille","lat":43.24467,"lon":5.4254,"is_reserved":false,"is_disabled":false,"rental_uris":{"android":"levelo://app?vid=62b4b24a-25c2-413c-a9e9-7d8f1f6621f7","ios":"levelo://app?vid=62b4b24a-25c2-413c-a9e9-7d8f1f6621f7"},"vehicle_type_id":"4","last_reported":1774381583,"current_range_meters":4800,"station_id":"st_d4a3vfp97mjs738cd8kg","pricing_plan_id":"cebpf4jnsgd1na2vs0mg"},{"bike_id":"b2da6f3d-1e4f-4582-b96b-f070d7f08236","system_id":"levelo_inurba_marseille","lat":43.28768,"lon":5.35233,"is_reserved":false,"is_disabled":false,"rental_uris":{"android":"levelo://app?vid=b2da6f3d-1e4f-4582-b96b-f070d7f08236","ios":"levelo://app?vid=b2da6f3d-1e4f-4582-b96b-f070d7f08236"},"vehicle_type_id":"4","last_reported":1774381583,"current_range_meters":4800,"station_id":"","pricing_plan_id":"cebpf4jnsgd1na2vs0mg"},{"bike_id":"03a72a0a-0803-4a45-a2d0-1a015f1dbd1f","system_id":"levelo_inurba_marseille","lat":43.2915,"lon":5.39314,"is_reserved":false,"is_disabled":false,"rental_uris":{"android":"levelo://app?vid=03a72a0a-0803-4a45-a2d0-1a015f1dbd1f","ios":"levelo://app?vid=03a72a0a-0803-4a45-a2d0-1a015f1dbd1f"},"vehicle_type_id":"4","last_reported":1774381583,"current_range_meters":4800,"station_id":"ce4bh192rcd13ifvqdd0","pricing_plan_id":"cebpf4jnsgd1na2vs0mg"},{"bike_id":"8954f07b-c7b1-440f-b742-c36e3f07698a","system_id":"levelo_inurba_marseille","lat":43.26551,"lon":5.37299,"is_reserved":false,"is_disabled":false,"rental_uris":{"android":"levelo://app?vid=8954f07b-c7b1-440f-b742-c36e3f07698a","ios":"levelo://app?vid=8954f07b-c7b1-440f-b742-c36e3f07698a"},"vehicle_type_id":"4","last_reported":1774381583,"current_range_meters":4800,"station_id":"ce4bhg12rcd13ifvqf70","pricing_plan_id":"cebpf4jnsgd1na2vs0mg"},{"bike_id":"46aa2573-c8c4-4fba-942c-3544d686fb6d","system_id":"levelo_inurba_marseille","lat":43.30452,"lon":5.38876,"is_reserved":false,"is_disabled":false,"rental_uris":{"android":"levelo://app?vid=46aa2573-c8c4-4fba-942c-3544d686fb6d","ios":"levelo://app?vid=46aa2573-c8c4-4fba-942c-3544d686fb6d"},"vehicle_type_id":"4","last_reported":1774381583,"current_range_meters":4800,"station_id":"ce4bgk12rcd13ifvqbi0","pricing_plan_id":"cebpf4jnsgd1na2vs0mg"},{"bike_id":"5bfe4eb1-084f-487b-8f02-33bc4177429c","system_id":"levelo_inurba_marseille","lat":43.30266,"lon":5.40063,"is_reserved":false,"is_disabled":false,"rental_uris":{"android":"levelo://app?vid=5bfe4eb1-084f-487b-8f02-33bc4177429c","ios":"levelo://app?vid=5bfe4eb1-084f-487b-8f02-33bc4177429c"},"vehicle_type_id":"4","last_reported":1774381583,"current_range_meters":4800,"station_id":"ce4bgvh2rcd13ifvqcs0","pricing_plan_id":"cebpf4jnsgd1na2vs0mg"},{"bike_id":"d89b1915-483d-4d09-b44a-47b8df915eef","system_id":"levelo_inurba_marseille","lat":43.2311,"lon":5.35477,"is_reserved":false,"is_disabled":false,"rental_uris":{"android":"levelo://app?vid=d89b1915-483d-4d09-b44a-47b8df915eef","ios":"levelo://app?vid=d89b1915-483d-4d09-b44a-47b8df915eef"},"vehicle_type_id":"4","last_reported":1774381583,"current_range_meters":4800,"station_id":"","pricing_plan_id":"cebpf4jnsgd1na2vs0mg"},{"bike_id":"6960cc90-bccb-4d33-86f3-acced2b380a5","system_id":"levelo_inurba_marseille","lat":43.30083,"lon":5.39074,"is_reserved":false,"is_disabled":false,"rental_uris":{"android":"levelo://app?vid=6960cc90-bccb-4d33-86f3-acced2b380a5","ios":"levelo://app?vid=6960cc90-bccb-4d33-86f3-acced2b380a5"},"vehicle_type_id":"4","last_reported":1774381583,"current_range_meters":4800,"station_id":"ce4bh192rcd13ifvqdb0","pricing_plan_id":"cebpf4jnsgd1na2vs0mg"},{"bike_id":"50348ef3-371b-4a3a-ade3-ae5f561664de","system_id":"levelo_inurba_marseille","lat":43.31226,"lon":5.36859,"is_reserved":false,"is_disabled":false,"rental_uris":{"android":"levelo://app?vid=50348ef3-371b-4a3a-ade3-ae5f561664de","ios":"levelo://app?vid=50348ef3-371b-4a3a-ade3-ae5f561664de"},"vehicle_type_id":"4","last_reported":1774381583,"current_range_meters":4800,"station_id":"ce4bgl92rcd13ifvqbq0","pricing_plan_id":"cebpf4jnsgd1na2vs0mg"},{"bike_id":"29ea7ce4-b413-4fb5-ab66-5064acec8dd7","system_id":"levelo_inurba_marseille","lat":43.30135,"lon":5.37427,"is_reserved":false,"is_disabled":false,"rental_uris":{"android":"levelo://app?vid=29ea7ce4-b413-4fb5-ab66-5064acec8dd7","ios":"levelo://app?vid=29ea7ce4-b413-4fb5-ab66-5064acec8dd7"},"vehicle_type_id":"4","last_reported":1774381583,"current_range_meters":4800,"station_id":"ce4bgs92rcd13ifvqcc0","pricing_plan_id":"cebpf4jnsgd1na2vs0mg"},{"bike_id":"6e6161fe-edfa-4833-a177-c1358d249809","system_id":"levelo_inurba_marseille","lat":43.31198,"lon":5.38715,"is_reserved":false,"is_disabled":true,"rental_uris":{"android":"levelo://app?vid=6e6161fe-edfa-4833-a177-c1358d249809","ios":"levelo://app?vid=6e6161fe-edfa-4833-a177-c1358d249809"},"vehicle_type_id":"4","last_reported":1774381583,"current_range_meters":5600,"station_id":"ce4bgv12rcd13ifvqcp0","pricing_plan_id":"cebpf4jnsgd1na2vs0mg"},{"bike_id":"f910acab-e234-4475-91c9-ec3fea6d1bf3","system_id":"levelo_inurba_marseille","lat":43.29906,"lon":5.43641,"is_reserved":false,"is_disabled":false,"rental_uris":{"android":"levelo://app?vid=f910acab-e234-4475-91c9-ec3fea6d1bf3","ios":"levelo://app?vid=f910acab-e234-4475-91c9-ec3fea6d1bf3"},"vehicle_type_id":"4","last_reported":1774381583,"current_range_meters":5600,"station_id":"ce4bhpp2rcd13ifvqhfg","pricing_plan_id":"cebpf4jnsgd1na2vs0mg"},{"bike_id":"0d0deba5-25ef-4fc8-97e6-896a704ae643","system_id":"levelo_inurba_marseille","lat":43.28932,"lon":5.36633,"is_reserved":false,"is_disabled":false,"rental_uris":{"android":"levelo://app?vid=0d0deba5-25ef-4fc8-97e6-896a704ae643","ios":"levelo://app?vid=0d0deba5-25ef-4fc8-97e6-896a704ae643"},"vehicle_type_id":"4","last_reported":1774381583,"current_range_meters":5600,"station_id":"ce4bhap2rcd13ifvqek0","pricing_plan_id":"cebpf4jnsgd1na2vs0mg"},{"bike_id":"dca4a616-c60e-4a37-8702-41910b54136f","system_id":"levelo_inurba_marseille","lat":43.28466,"lon":5.3588,"is_reserved":false,"is_disabled":false,"rental_uris":{"android":"levelo://app?vid=dca4a616-c60e-4a37-8702-41910b54136f","ios":"levelo://app?vid=dca4a616-c60e-4a37-8702-41910b54136f"},"vehicle_type_id":"4","last_reported":1774381583,"current_range_meters":5600,"station_id":"ce4bhah2rcd13ifvqei0","pricing_plan_id":"cebpf4jnsgd1na2vs0mg"},{"bike_id":"e777dc2e-9308-43c6-a6be-09685ee35cc2","system_id":"levelo_inurba_marseille","lat":43.28549,"lon":5.44091,"is_reserved":false,"is_disabled":false,"rental_uris":{"android":"levelo://app?vid=e777dc2e-9308-43c6-a6be-09685ee35cc2","ios":"levelo://app?vid=e777dc2e-9308-43c6-a6be-09685ee35cc2"},"vehicle_type_id":"4","last_reported":1774381583,"current_range_meters":5600,"station_id":"st_d3j3df2ikq2c7380ej80","pricing_plan_id":"cebpf4jnsgd1na2vs0mg"},{"bike_id":"3fb832f7-8472-46d1-b0e9-4f88385586dd","system_id":"levelo_inurba_marseille","lat":43.2908,"lon":5.37159,"is_reserved":false,"is_disabled":false,"rental_uris":{"android":"levelo://app?vid=3fb832f7-8472-46d1-b0e9-4f88385586dd","ios":"levelo://app?vid=3fb832f7-8472-46d1-b0e9-4f88385586dd"},"vehicle_type_id":"4","last_reported":1774381583,"current_range_meters":5600,"station_id":"ce4bh5p2rcd13ifvqe4g","pricing_plan_id":"cebpf4jnsgd1na2vs0mg"},{"bike_id":"29a577df-c925-4ad4-8796-1af1c698b4d5","system_id":"levelo_inurba_marseille","lat":43.27956,"lon":5.41038,"is_reserved":false,"is_disabled":false,"rental_uris":{"android":"levelo://app?vid=29a577df-c925-4ad4-8796-1af1c698b4d5","ios":"levelo://app?vid=29a577df-c925-4ad4-8796-1af1c698b4d5"},"vehicle_type_id":"4","last_reported":1774381583,"current_range_meters":5600,"station_id":"ce4bhnp2rcd13ifvqh0g","pricing_plan_id":"cebpf4jnsgd1na2vs0mg"},{"bike_id":"4382fefe-9d6a-4e31-b368-6a94fb3585d0","system_id":"levelo_inurba_marseille","lat":43.30652,"lon":5.401,"is_reserved":false,"is_disabled":false,"rental_uris":{"android":"levelo://app?vid=4382fefe-9d6a-4e31-b368-6a94fb3585d0","ios":"levelo://app?vid=4382fefe-9d6a-4e31-b368-6a94fb3585d0"},"vehicle_type_id":"4","last_reported":1774381583,"current_range_meters":5600,"station_id":"ce4bh112rcd13ifvqda0","pricing_plan_id":"cebpf4jnsgd1na2vs0mg"},{"bike_id":"c76b377e-0060-4be7-aebe-7351859ef346","system_id":"levelo_inurba_marseille","lat":43.24074,"lon":5.37728,"is_reserved":false,"is_disabled":false,"rental_uris":{"android":"levelo://app?vid=c76b377e-0060-4be7-aebe-7351859ef346","ios":"levelo://app?vid=c76b377e-0060-4be7-aebe-7351859ef346"},"vehicle_type_id":"4","last_reported":1774381583,"current_range_meters":5600,"station_id":"ce4bhnp2rcd13ifvqgvg","pricing_plan_id":"cebpf4jnsgd1na2vs0mg"},{"bike_id":"d754a161-551f-4193-b8cb-ebcca83b2ad4","system_id":"levelo_inurba_marseille","lat":43.24647,"lon":5.38889,"is_reserved":false,"is_disabled":false,"rental_uris":{"android":"levelo://app?vid=d754a161-551f-4193-b8cb-ebcca83b2ad4","ios":"levelo://app?vid=d754a161-551f-4193-b8cb-ebcca83b2ad4"},"vehicle_type_id":"4","last_reported":1774381583,"current_range_meters":5600,"station_id":"ce4bhg12rcd13ifvqf60","pricing_plan_id":"cebpf4jnsgd1na2vs0mg"},{"bike_id":"42f364f6-c852-4910-9977-96ade3f378c1","system_id":"levelo_inurba_marseille","lat":43.30133,"lon":5.39862,"is_reserved":false,"is_disabled":false,"rental_uris":{"android":"levelo://app?vid=42f364f6-c852-4910-9977-96ade3f378c1","ios":"levelo://app?vid=42f364f6-c852-4910-9977-96ade3f378c1"},"vehicle_type_id":"4","last_reported":1774381583,"current_range_meters":5600,"station_id":"ce4bh0h2rcd13ifvqd40","pricing_plan_id":"cebpf4jnsgd1na2vs0mg"},{"bike_id":"936a3a36-4c4b-4a39-b741-993a1611963c","system_id":"levelo_inurba_marseille","lat":43.3013,"lon":5.398664,"is_reserved":false,"is_disabled":false,"rental_uris":{"android":"levelo://app?vid=936a3a36-4c4b-4a39-b741-993a1611963c","ios":"levelo://app?vid=936a3a36-4c4b-4a39-b741-993a1611963c"},"vehicle_type_id":"4","last_reported":1774381583,"current_range_meters":5600,"station_id":"ce4bh0h2rcd13ifvqd40","pricing_plan_id":"cebpf4jnsgd1na2vs0mg"},{"bike_id":"98aa1c8a-7d98-4320-b367-9e51480a2f7e","system_id":"levelo_inurba_marseille","lat":43.33543,"lon":5.37473,"is_reserved":false,"is_disabled":false,"rental_uris":{"android":"levelo://app?vid=98aa1c8a-7d98-4320-b367-9e51480a2f7e","ios":"levelo://app?vid=98aa1c8a-7d98-4320-b367-9e51480a2f7e"},"vehicle_type_id":"4","last_reported":1774381583,"current_range_meters":5600,"station_id":"st_d46tts09ee8s73dlu43g","pricing_plan_id":"cebpf4jnsgd1na2vs0mg"},{"bike_id":"d315d4d4-78e9-45de-8981-a7b0a1f81c91","system_id":"levelo_inurba_marseille","lat":43.27523,"lon":5.41577,"is_reserved":false,"is_disabled":false,"rental_uris":{"android":"levelo://app?vid=d315d4d4-78e9-45de-8981-a7b0a1f81c91","ios":"levelo://app?vid=d315d4d4-78e9-45de-8981-a7b0a1f81c91"},"vehicle_type_id":"4","last_reported":1774381583,"current_range_meters":5600,"station_id":"st_d6im8g6chgec73a5pndg","pricing_plan_id":"cebpf4jnsgd1na2vs0mg"},{"bike_id":"875063f8-c637-45b8-8964-8222489d351d","system_id":"levelo_inurba_marseille","lat":43.28418,"lon":5.37512,"is_reserved":false,"is_disabled":false,"rental_uris":{"android":"levelo://app?vid=875063f8-c637-45b8-8964-8222489d351d","ios":"levelo://app?vid=875063f8-c637-45b8-8964-8222489d351d"},"vehicle_type_id":"4","last_reported":1774381583,"current_range_meters":5600,"station_id":"ce4bh412rcd13ifvqds0","pricing_plan_id":"cebpf4jnsgd1na2vs0mg"},{"bike_id":"0e2f4137-e82a-401c-945f-6a1c7c098239","system_id":"levelo_inurba_marseille","lat":43.29618,"lon":5.37142,"is_reserved":false,"is_disabled":false,"rental_uris":{"android":"levelo://app?vid=0e2f4137-e82a-401c-945f-6a1c7c098239","ios":"levelo://app?vid=0e2f4137-e82a-401c-945f-6a1c7c098239"},"vehicle_type_id":"4","last_reported":1774381583,"current_range_meters":6000,"station_id":"ce4bgnh2rcd13ifvqc0g","pricing_plan_id":"cebpf4jnsgd1na2vs0mg"},{"bike_id":"b75036ac-d81d-4bfd-a9c8-a051a6ff39fe","system_id":"levelo_inurba_marseille","lat":43.28529,"lon":5.44126,"is_reserved":false,"is_disabled":false,"rental_uris":{"android":"levelo://app?vid=b75036ac-d81d-4bfd-a9c8-a051a6ff39fe","ios":"levelo://app?vid=b75036ac-d81d-4bfd-a9c8-a051a6ff39fe"},"vehicle_type_id":"4","last_reported":1774381583,"current_range_meters":6000,"station_id":"st_d3j3df2ikq2c7380ej80","pricing_plan_id":"cebpf4jnsgd1na2vs0mg"},{"bike_id":"7b6c8f1e-bc5a-4218-9383-b05da73318e0","system_id":"levelo_inurba_marseille","lat":43.32361,"lon":5.36735,"is_reserved":false,"is_disabled":false,"rental_uris":{"android":"levelo://app?vid=7b6c8f1e-bc5a-4218-9383-b05da73318e0","ios":"levelo://app?vid=7b6c8f1e-bc5a-4218-9383-b05da73318e0"},"vehicle_type_id":"4","last_reported":1774381583,"current_range_meters":6000,"station_id":"ce4bhsh2rcd13ifvqi2g","pricing_plan_id":"cebpf4jnsgd1na2vs0mg"},{"bike_id":"77deb619-deef-42c1-ade2-8dca83a843fb","system_id":"levelo_inurba_marseille","lat":43.29147,"lon":5.43989,"is_reserved":false,"is_disabled":false,"rental_uris":{"android":"levelo://app?vid=77deb619-deef-42c1-ade2-8dca83a843fb","ios":"levelo://app?vid=77deb619-deef-42c1-ade2-8dca83a843fb"},"vehicle_type_id":"4","last_reported":1774381583,"current_range_meters":6000,"station_id":"","pricing_plan_id":"cebpf4jnsgd1na2vs0mg"},{"bike_id":"5a7eadde-5981-46d7-beaf-f32b876e7bcb","system_id":"levelo_inurba_marseille","lat":43.283378,"lon":5.381033,"is_reserved":false,"is_disabled":false,"rental_uris":{"android":"levelo://app?vid=5a7eadde-5981-46d7-beaf-f32b876e7bcb","ios":"levelo://app?vid=5a7eadde-5981-46d7-beaf-f32b876e7bcb"},"vehicle_type_id":"4","last_reported":1774381583,"current_range_meters":6000,"station_id":"ce4bh412rcd13ifvqdr0","pricing_plan_id":"cebpf4jnsgd1na2vs0mg"},{"bike_id":"367e3ca9-ec46-40f0-998a-d17782169415","system_id":"levelo_inurba_marseille","lat":43.31184,"lon":5.36829,"is_reserved":false,"is_disabled":false,"rental_uris":{"android":"levelo://app?vid=367e3ca9-ec46-40f0-998a-d17782169415","ios":"levelo://app?vid=367e3ca9-ec46-40f0-998a-d17782169415"},"vehicle_type_id":"4","last_reported":1774381583,"current_range_meters":6000,"station_id":"ce4bgl92rcd13ifvqbq0","pricing_plan_id":"cebpf4jnsgd1na2vs0mg"},{"bike_id":"f35a9644-f102-427c-8b00-579a35988db3","system_id":"levelo_inurba_marseille","lat":43.21202,"lon":5.35079,"is_reserved":false,"is_disabled":false,"rental_uris":{"android":"levelo://app?vid=f35a9644-f102-427c-8b00-579a35988db3","ios":"levelo://app?vid=f35a9644-f102-427c-8b00-579a35988db3"},"vehicle_type_id":"4","last_reported":1774381583,"current_range_meters":6000,"station_id":"st_cvj6sg6p6f1abm77japg","pricing_plan_id":"cebpf4jnsgd1na2vs0mg"},{"bike_id":"f8fbc51b-b0ec-4088-b7dc-1189183b024d","system_id":"levelo_inurba_marseille","lat":43.3054,"lon":5.36709,"is_reserved":false,"is_disabled":false,"rental_uris":{"android":"levelo://app?vid=f8fbc51b-b0ec-4088-b7dc-1189183b024d","ios":"levelo://app?vid=f8fbc51b-b0ec-4088-b7dc-1189183b024d"},"vehicle_type_id":"4","last_reported":1774381583,"current_range_meters":6000,"station_id":"ce4bgrp2rcd13ifvqc9g","pricing_plan_id":"cebpf4jnsgd1na2vs0mg"},{"bike_id":"7e03e45c-d69c-4371-8267-aa26cde43729","system_id":"levelo_inurba_marseille","lat":43.25574,"lon":5.38228,"is_reserved":false,"is_disabled":true,"rental_uris":{"android":"levelo://app?vid=7e03e45c-d69c-4371-8267-aa26cde43729","ios":"levelo://app?vid=7e03e45c-d69c-4371-8267-aa26cde43729"},"vehicle_type_id":"4","last_reported":1774381583,"current_range_meters":6000,"station_id":"ce4bhih2rcd13ifvqfs0","pricing_plan_id":"cebpf4jnsgd1na2vs0mg"},{"bike_id":"1640993b-d278-49ed-aac8-4524836b0a26","system_id":"levelo_inurba_marseille","lat":43.28213,"lon":5.39054,"is_reserved":false,"is_disabled":true,"rental_uris":{"android":"levelo://app?vid=1640993b-d278-49ed-aac8-4524836b0a26","ios":"levelo://app?vid=1640993b-d278-49ed-aac8-4524836b0a26"},"vehicle_type_id":"4","last_reported":1774381583,"current_range_meters":6000,"station_id":"ce4bhn92rcd13ifvqgsg","pricing_plan_id":"cebpf4jnsgd1na2vs0mg"},{"bike_id":"e9b07658-a8f0-465c-b976-645cd41e5970","system_id":"levelo_inurba_marseille","lat":43.27182,"lon":5.40992,"is_reserved":false,"is_disabled":false,"rental_uris":{"android":"levelo://app?vid=e9b07658-a8f0-465c-b976-645cd41e5970","ios":"levelo://app?vid=e9b07658-a8f0-465c-b976-645cd41e5970"},"vehicle_type_id":"4","last_reported":1774381583,"current_range_meters":6000,"station_id":"ce4bhl12rcd13ifvqgf0","pricing_plan_id":"cebpf4jnsgd1na2vs0mg"},{"bike_id":"b86068ab-97ee-4456-8b24-8dc8e9d3870c","system_id":"levelo_inurba_marseille","lat":43.28453,"lon":5.35871,"is_reserved":false,"is_disabled":false,"rental_uris":{"android":"levelo://app?vid=b86068ab-97ee-4456-8b24-8dc8e9d3870c","ios":"levelo://app?vid=b86068ab-97ee-4456-8b24-8dc8e9d3870c"},"vehicle_type_id":"4","last_reported":1774381583,"current_range_meters":6000,"station_id":"ce4bhah2rcd13ifvqei0","pricing_plan_id":"cebpf4jnsgd1na2vs0mg"},{"bike_id":"34a41809-5dfc-4b48-a0e6-2c3b4c26d3cb","system_id":"levelo_inurba_marseille","lat":43.30214,"lon":5.39464,"is_reserved":false,"is_disabled":false,"rental_uris":{"android":"levelo://app?vid=34a41809-5dfc-4b48-a0e6-2c3b4c26d3cb","ios":"levelo://app?vid=34a41809-5dfc-4b48-a0e6-2c3b4c26d3cb"},"vehicle_type_id":"4","last_reported":1774381583,"current_range_meters":6000,"station_id":"ce4bh0p2rcd13ifvqd70","pricing_plan_id":"cebpf4jnsgd1na2vs0mg"},{"bike_id":"4bfb96b3-237a-4f34-ac18-d988c7f1e15a","system_id":"levelo_inurba_marseille","lat":43.295827,"lon":5.399689,"is_reserved":false,"is_disabled":false,"rental_uris":{"android":"levelo://app?vid=4bfb96b3-237a-4f34-ac18-d988c7f1e15a","ios":"levelo://app?vid=4bfb96b3-237a-4f34-ac18-d988c7f1e15a"},"vehicle_type_id":"4","last_reported":1774381583,"current_range_meters":6000,"station_id":"ce4bh312rcd13ifvqdj0","pricing_plan_id":"cebpf4jnsgd1na2vs0mg"},{"bike_id":"fcf3d9e0-b6c1-4cf5-bc20-9e3f4622cc28","system_id":"levelo_inurba_marseille","lat":43.28855,"lon":5.3585,"is_reserved":false,"is_disabled":false,"rental_uris":{"android":"levelo://app?vid=fcf3d9e0-b6c1-4cf5-bc20-9e3f4622cc28","ios":"levelo://app?vid=fcf3d9e0-b6c1-4cf5-bc20-9e3f4622cc28"},"vehicle_type_id":"4","last_reported":1774381583,"current_range_meters":6000,"station_id":"ce4bhb12rcd13ifvqem0","pricing_plan_id":"cebpf4jnsgd1na2vs0mg"},{"bike_id":"7e239537-6c6b-4563-a73b-680f69586595","system_id":"levelo_inurba_marseille","lat":43.29026,"lon":5.35616,"is_reserved":false,"is_disabled":true,"rental_uris":{"android":"levelo://app?vid=7e239537-6c6b-4563-a73b-680f69586595","ios":"levelo://app?vid=7e239537-6c6b-4563-a73b-680f69586595"},"vehicle_type_id":"4","last_reported":1774381583,"current_range_meters":6000,"station_id":"ce4bhb92rcd13ifvqen0","pricing_plan_id":"cebpf4jnsgd1na2vs0mg"},{"bike_id":"049994f6-c801-4212-a097-2046d285859e","system_id":"levelo_inurba_marseille","lat":43.31707,"lon":5.37778,"is_reserved":false,"is_disabled":false,"rental_uris":{"android":"levelo://app?vid=049994f6-c801-4212-a097-2046d285859e","ios":"levelo://app?vid=049994f6-c801-4212-a097-2046d285859e"},"vehicle_type_id":"4","last_reported":1774381583,"current_range_meters":6400,"station_id":"ce4bgth2rcd13ifvqch0","pricing_plan_id":"cebpf4jnsgd1na2vs0mg"},{"bike_id":"763571bb-b88d-45db-9a18-7962f9620cad","system_id":"levelo_inurba_marseille","lat":43.23195,"lon":5.35564,"is_reserved":false,"is_disabled":false,"rental_uris":{"android":"levelo://app?vid=763571bb-b88d-45db-9a18-7962f9620cad","ios":"levelo://app?vid=763571bb-b88d-45db-9a18-7962f9620cad"},"vehicle_type_id":"4","last_reported":1774381583,"current_range_meters":6400,"station_id":"ce4bhu92rcd13ifvqi70","pricing_plan_id":"cebpf4jnsgd1na2vs0mg"},{"bike_id":"d153865b-277c-49ad-92ee-2c9d0756119d","system_id":"levelo_inurba_marseille","lat":43.30628,"lon":5.4007,"is_reserved":false,"is_disabled":false,"rental_uris":{"android":"levelo://app?vid=d153865b-277c-49ad-92ee-2c9d0756119d","ios":"levelo://app?vid=d153865b-277c-49ad-92ee-2c9d0756119d"},"vehicle_type_id":"4","last_reported":1774381583,"current_range_meters":6400,"station_id":"ce4bh112rcd13ifvqda0","pricing_plan_id":"cebpf4jnsgd1na2vs0mg"},{"bike_id":"6bd884d1-43a9-430f-bb91-00fd69225ba2","system_id":"levelo_inurba_marseille","lat":43.31709,"lon":5.43706,"is_reserved":false,"is_disabled":false,"rental_uris":{"android":"levelo://app?vid=6bd884d1-43a9-430f-bb91-00fd69225ba2","ios":"levelo://app?vid=6bd884d1-43a9-430f-bb91-00fd69225ba2"},"vehicle_type_id":"4","last_reported":1774381583,"current_range_meters":6400,"station_id":"ce4bhp92rcd13ifvqhcg","pricing_plan_id":"cebpf4jnsgd1na2vs0mg"},{"bike_id":"844764d7-cc0b-4778-a850-0158d4ec3591","system_id":"levelo_inurba_marseille","lat":43.27991,"lon":5.4001,"is_reserved":false,"is_disabled":false,"rental_uris":{"android":"levelo://app?vid=844764d7-cc0b-4778-a850-0158d4ec3591","ios":"levelo://app?vid=844764d7-cc0b-4778-a850-0158d4ec3591"},"vehicle_type_id":"4","last_reported":1774381583,"current_range_meters":6400,"station_id":"ce4bho92rcd13ifvqh4g","pricing_plan_id":"cebpf4jnsgd1na2vs0mg"},{"bike_id":"0b786319-6d9f-4d1c-890a-5150198e272a","system_id":"levelo_inurba_marseille","lat":43.28481,"lon":5.48408,"is_reserved":false,"is_disabled":false,"rental_uris":{"android":"levelo://app?vid=0b786319-6d9f-4d1c-890a-5150198e272a","ios":"levelo://app?vid=0b786319-6d9f-4d1c-890a-5150198e272a"},"vehicle_type_id":"4","last_reported":1774381583,"current_range_meters":6400,"station_id":"st_d3svhcjqgbts73a3dn0g","pricing_plan_id":"cebpf4jnsgd1na2vs0mg"},{"bike_id":"07035ceb-7f0e-449d-a264-2cea17dace41","system_id":"levelo_inurba_marseille","lat":43.23781,"lon":5.36629,"is_reserved":false,"is_disabled":false,"rental_uris":{"android":"levelo://app?vid=07035ceb-7f0e-449d-a264-2cea17dace41","ios":"levelo://app?vid=07035ceb-7f0e-449d-a264-2cea17dace41"},"vehicle_type_id":"4","last_reported":1774381583,"current_range_meters":6400,"station_id":"st_d3nk18o9ro0c73en2l3g","pricing_plan_id":"cebpf4jnsgd1na2vs0mg"},{"bike_id":"6f69adbe-3600-4e7f-8727-0ddbea897c38","system_id":"levelo_inurba_marseille","lat":43.29744,"lon":5.42762,"is_reserved":false,"is_disabled":false,"rental_uris":{"android":"levelo://app?vid=6f69adbe-3600-4e7f-8727-0ddbea897c38","ios":"levelo://app?vid=6f69adbe-3600-4e7f-8727-0ddbea897c38"},"vehicle_type_id":"4","last_reported":1774381583,"current_range_meters":6400,"station_id":"st_d3md5207bmas73dh9klg","pricing_plan_id":"cebpf4jnsgd1na2vs0mg"},{"bike_id":"45ce07bf-1dc3-441d-be3e-98069ebaa649","system_id":"levelo_inurba_marseille","lat":43.27828,"lon":5.40631,"is_reserved":false,"is_disabled":false,"rental_uris":{"android":"levelo://app?vid=45ce07bf-1dc3-441d-be3e-98069ebaa649","ios":"levelo://app?vid=45ce07bf-1dc3-441d-be3e-98069ebaa649"},"vehicle_type_id":"4","last_reported":1774381583,"current_range_meters":6400,"station_id":"","pricing_plan_id":"cebpf4jnsgd1na2vs0mg"},{"bike_id":"cbb9ef95-d825-4d1c-b4a0-4b27eec53822","system_id":"levelo_inurba_marseille","lat":43.28683,"lon":5.36344,"is_reserved":false,"is_disabled":false,"rental_uris":{"android":"levelo://app?vid=cbb9ef95-d825-4d1c-b4a0-4b27eec53822","ios":"levelo://app?vid=cbb9ef95-d825-4d1c-b4a0-4b27eec53822"},"vehicle_type_id":"4","last_reported":1774381583,"current_range_meters":6400,"station_id":"ce4bhah2rcd13ifvqej0","pricing_plan_id":"cebpf4jnsgd1na2vs0mg"},{"bike_id":"f3dccb27-25f8-415f-8a8c-207408b72398","system_id":"levelo_inurba_marseille","lat":43.32087,"lon":5.36776,"is_reserved":false,"is_disabled":false,"rental_uris":{"android":"levelo://app?vid=f3dccb27-25f8-415f-8a8c-207408b72398","ios":"levelo://app?vid=f3dccb27-25f8-415f-8a8c-207408b72398"},"vehicle_type_id":"4","last_reported":1774381583,"current_range_meters":6400,"station_id":"ce4bhrh2rcd13ifvqhug","pricing_plan_id":"cebpf4jnsgd1na2vs0mg"},{"bike_id":"2c3e30fd-4708-4ef0-a185-72e091b05536","system_id":"levelo_inurba_marseille","lat":43.29304,"lon":5.37151,"is_reserved":false,"is_disabled":false,"rental_uris":{"android":"levelo://app?vid=2c3e30fd-4708-4ef0-a185-72e091b05536","ios":"levelo://app?vid=2c3e30fd-4708-4ef0-a185-72e091b05536"},"vehicle_type_id":"4","last_reported":1774381583,"current_range_meters":6400,"station_id":"ce4bgh92rcd13ifvqb40","pricing_plan_id":"cebpf4jnsgd1na2vs0mg"},{"bike_id":"9ca4b1da-0df4-426d-b237-eed2d4351450","system_id":"levelo_inurba_marseille","lat":43.23182,"lon":5.39982,"is_reserved":false,"is_disabled":false,"rental_uris":{"android":"levelo://app?vid=9ca4b1da-0df4-426d-b237-eed2d4351450","ios":"levelo://app?vid=9ca4b1da-0df4-426d-b237-eed2d4351450"},"vehicle_type_id":"4","last_reported":1774381583,"current_range_meters":6400,"station_id":"ce4bhn12rcd13ifvqgqg","pricing_plan_id":"cebpf4jnsgd1na2vs0mg"},{"bike_id":"25b666f7-1616-468a-9f5c-a45dd1ccb788","system_id":"levelo_inurba_marseille","lat":43.29934,"lon":5.36549,"is_reserved":false,"is_disabled":false,"rental_uris":{"android":"levelo://app?vid=25b666f7-1616-468a-9f5c-a45dd1ccb788","ios":"levelo://app?vid=25b666f7-1616-468a-9f5c-a45dd1ccb788"},"vehicle_type_id":"4","last_reported":1774381583,"current_range_meters":6400,"station_id":"ce4bgm92rcd13ifvqbr0","pricing_plan_id":"cebpf4jnsgd1na2vs0mg"},{"bike_id":"cc0dfd40-0954-4f9c-abf8-0231df98780a","system_id":"levelo_inurba_marseille","lat":43.2919,"lon":5.3932,"is_reserved":false,"is_disabled":false,"rental_uris":{"android":"levelo://app?vid=cc0dfd40-0954-4f9c-abf8-0231df98780a","ios":"levelo://app?vid=cc0dfd40-0954-4f9c-abf8-0231df98780a"},"vehicle_type_id":"4","last_reported":1774381583,"current_range_meters":6400,"station_id":"ce4bh192rcd13ifvqdd0","pricing_plan_id":"cebpf4jnsgd1na2vs0mg"},{"bike_id":"1a1b717b-04fd-4f24-8074-1f22e4e55e21","system_id":"levelo_inurba_marseille","lat":43.29023,"lon":5.38646,"is_reserved":false,"is_disabled":false,"rental_uris":{"android":"levelo://app?vid=1a1b717b-04fd-4f24-8074-1f22e4e55e21","ios":"levelo://app?vid=1a1b717b-04fd-4f24-8074-1f22e4e55e21"},"vehicle_type_id":"4","last_reported":1774381583,"current_range_meters":6800,"station_id":"ce4bh4p2rcd13ifvqe0g","pricing_plan_id":"cebpf4jnsgd1na2vs0mg"},{"bike_id":"a9b0556e-e257-4c86-baec-32c674fd9499","system_id":"levelo_inurba_marseille","lat":43.3022,"lon":5.39492,"is_reserved":false,"is_disabled":true,"rental_uris":{"android":"levelo://app?vid=a9b0556e-e257-4c86-baec-32c674fd9499","ios":"levelo://app?vid=a9b0556e-e257-4c86-baec-32c674fd9499"},"vehicle_type_id":"4","last_reported":1774381583,"current_range_meters":6800,"station_id":"ce4bh0p2rcd13ifvqd70","pricing_plan_id":"cebpf4jnsgd1na2vs0mg"},{"bike_id":"21212254-e5a0-4af6-a45f-ed4c631ca773","system_id":"levelo_inurba_marseille","lat":43.25528,"lon":5.37665,"is_reserved":false,"is_disabled":false,"rental_uris":{"android":"levelo://app?vid=21212254-e5a0-4af6-a45f-ed4c631ca773","ios":"levelo://app?vid=21212254-e5a0-4af6-a45f-ed4c631ca773"},"vehicle_type_id":"4","last_reported":1774381583,"current_range_meters":6800,"station_id":"ce4bhh12rcd13ifvqff0","pricing_plan_id":"cebpf4jnsgd1na2vs0mg"},{"bike_id":"5c941c2b-f0fa-4f64-af96-831f9028136a","system_id":"levelo_inurba_marseille","lat":43.32204,"lon":5.37124,"is_reserved":false,"is_disabled":false,"rental_uris":{"android":"levelo://app?vid=5c941c2b-f0fa-4f64-af96-831f9028136a","ios":"levelo://app?vid=5c941c2b-f0fa-4f64-af96-831f9028136a"},"vehicle_type_id":"4","last_reported":1774381583,"current_range_meters":6800,"station_id":"","pricing_plan_id":"cebpf4jnsgd1na2vs0mg"},{"bike_id":"dffad5ff-7d58-4152-91b4-69c4f0e2e182","system_id":"levelo_inurba_marseille","lat":43.29762,"lon":5.42781,"is_reserved":false,"is_disabled":false,"rental_uris":{"android":"levelo://app?vid=dffad5ff-7d58-4152-91b4-69c4f0e2e182","ios":"levelo://app?vid=dffad5ff-7d58-4152-91b4-69c4f0e2e182"},"vehicle_type_id":"4","last_reported":1774381583,"current_range_meters":6800,"station_id":"st_d3md5207bmas73dh9klg","pricing_plan_id":"cebpf4jnsgd1na2vs0mg"},{"bike_id":"8e331d09-f777-47e4-a327-164db2e188a9","system_id":"levelo_inurba_marseille","lat":43.26565,"lon":5.4033,"is_reserved":false,"is_disabled":true,"rental_uris":{"android":"levelo://app?vid=8e331d09-f777-47e4-a327-164db2e188a9","ios":"levelo://app?vid=8e331d09-f777-47e4-a327-164db2e188a9"},"vehicle_type_id":"4","last_reported":1774381583,"current_range_meters":6800,"station_id":"ce4bhmp2rcd13ifvqgng","pricing_plan_id":"cebpf4jnsgd1na2vs0mg"},{"bike_id":"066cfe81-714d-4a28-ba8d-e13baf5bbb1b","system_id":"levelo_inurba_marseille","lat":43.27266,"lon":5.41147,"is_reserved":false,"is_disabled":false,"rental_uris":{"android":"levelo://app?vid=066cfe81-714d-4a28-ba8d-e13baf5bbb1b","ios":"levelo://app?vid=066cfe81-714d-4a28-ba8d-e13baf5bbb1b"},"vehicle_type_id":"4","last_reported":1774381583,"current_range_meters":6800,"station_id":"","pricing_plan_id":"cebpf4jnsgd1na2vs0mg"},{"bike_id":"af28f2f5-abfc-4590-b2cf-7d3d7492db13","system_id":"levelo_inurba_marseille","lat":43.24658,"lon":5.38157,"is_reserved":false,"is_disabled":false,"rental_uris":{"android":"levelo://app?vid=af28f2f5-abfc-4590-b2cf-7d3d7492db13","ios":"levelo://app?vid=af28f2f5-abfc-4590-b2cf-7d3d7492db13"},"vehicle_type_id":"4","last_reported":1774381583,"current_range_meters":6800,"station_id":"ce4bhih2rcd13ifvqfr0","pricing_plan_id":"cebpf4jnsgd1na2vs0mg"},{"bike_id":"fadd83d2-5a56-4dab-abd3-4fc024887366","system_id":"levelo_inurba_marseille","lat":43.28482,"lon":5.48414,"is_reserved":false,"is_disabled":false,"rental_uris":{"android":"levelo://app?vid=fadd83d2-5a56-4dab-abd3-4fc024887366","ios":"levelo://app?vid=fadd83d2-5a56-4dab-abd3-4fc024887366"},"vehicle_type_id":"4","last_reported":1774381583,"current_range_meters":6800,"station_id":"","pricing_plan_id":"cebpf4jnsgd1na2vs0mg"},{"bike_id":"b9075bd2-6a16-46f9-b243-40ae44fbbfa7","system_id":"levelo_inurba_marseille","lat":43.29854,"lon":5.39729,"is_reserved":false,"is_disabled":false,"rental_uris":{"android":"levelo://app?vid=b9075bd2-6a16-46f9-b243-40ae44fbbfa7","ios":"levelo://app?vid=b9075bd2-6a16-46f9-b243-40ae44fbbfa7"},"vehicle_type_id":"4","last_reported":1774381583,"current_range_meters":6800,"station_id":"ce4bh0h2rcd13ifvqd50","pricing_plan_id":"cebpf4jnsgd1na2vs0mg"},{"bike_id":"e6349eb3-2730-461c-ae14-f386689052fa","system_id":"levelo_inurba_marseille","lat":43.31624,"lon":5.37805,"is_reserved":false,"is_disabled":true,"rental_uris":{"android":"levelo://app?vid=e6349eb3-2730-461c-ae14-f386689052fa","ios":"levelo://app?vid=e6349eb3-2730-461c-ae14-f386689052fa"},"vehicle_type_id":"4","last_reported":1774381583,"current_range_meters":6800,"station_id":"","pricing_plan_id":"cebpf4jnsgd1na2vs0mg"},{"bike_id":"033addca-8959-4371-9d59-76af78a1fb9c","system_id":"levelo_inurba_marseille","lat":43.31527,"lon":5.38045,"is_reserved":false,"is_disabled":false,"rental_uris":{"android":"levelo://app?vid=033addca-8959-4371-9d59-76af78a1fb9c","ios":"levelo://app?vid=033addca-8959-4371-9d59-76af78a1fb9c"},"vehicle_type_id":"4","last_reported":1774381583,"current_range_meters":6800,"station_id":"ce4bhsp2rcd13ifvqi50","pricing_plan_id":"cebpf4jnsgd1na2vs0mg"},{"bike_id":"fa03a844-967e-40ff-8c81-8227928c23cc","system_id":"levelo_inurba_marseille","lat":43.31222,"lon":5.36842,"is_reserved":false,"is_disabled":false,"rental_uris":{"android":"levelo://app?vid=fa03a844-967e-40ff-8c81-8227928c23cc","ios":"levelo://app?vid=fa03a844-967e-40ff-8c81-8227928c23cc"},"vehicle_type_id":"4","last_reported":1774381583,"current_range_meters":6800,"station_id":"ce4bgl92rcd13ifvqbq0","pricing_plan_id":"cebpf4jnsgd1na2vs0mg"},{"bike_id":"b1ceaa1d-f7d5-4f1b-b74b-3e9a13f9efeb","system_id":"levelo_inurba_marseille","lat":43.23972,"lon":5.36645,"is_reserved":false,"is_disabled":false,"rental_uris":{"android":"levelo://app?vid=b1ceaa1d-f7d5-4f1b-b74b-3e9a13f9efeb","ios":"levelo://app?vid=b1ceaa1d-f7d5-4f1b-b74b-3e9a13f9efeb"},"vehicle_type_id":"4","last_reported":1774381583,"current_range_meters":6800,"station_id":"ce4bhi12rcd13ifvqfp0","pricing_plan_id":"cebpf4jnsgd1na2vs0mg"},{"bike_id":"e3f886a8-5ab4-45f3-9b3b-ccb5c60cb84a","system_id":"levelo_inurba_marseille","lat":43.25579,"lon":5.38249,"is_reserved":false,"is_disabled":false,"rental_uris":{"android":"levelo://app?vid=e3f886a8-5ab4-45f3-9b3b-ccb5c60cb84a","ios":"levelo://app?vid=e3f886a8-5ab4-45f3-9b3b-ccb5c60cb84a"},"vehicle_type_id":"4","last_reported":1774381583,"current_range_meters":6800,"station_id":"ce4bhih2rcd13ifvqfs0","pricing_plan_id":"cebpf4jnsgd1na2vs0mg"},{"bike_id":"04696bc5-8154-4c46-9c9f-db8416a35051","system_id":"levelo_inurba_marseille","lat":43.31057,"lon":5.37173,"is_reserved":false,"is_disabled":false,"rental_uris":{"android":"levelo://app?vid=04696bc5-8154-4c46-9c9f-db8416a35051","ios":"levelo://app?vid=04696bc5-8154-4c46-9c9f-db8416a35051"},"vehicle_type_id":"4","last_reported":1774381583,"current_range_meters":7200,"station_id":"st_d4kl2rp97mjs73e7tdfg","pricing_plan_id":"cebpf4jnsgd1na2vs0mg"},{"bike_id":"a14d2edd-85c5-4116-8db5-355e3fb2ddbe","system_id":"levelo_inurba_marseille","lat":43.33549,"lon":5.37451,"is_reserved":false,"is_disabled":false,"rental_uris":{"android":"levelo://app?vid=a14d2edd-85c5-4116-8db5-355e3fb2ddbe","ios":"levelo://app?vid=a14d2edd-85c5-4116-8db5-355e3fb2ddbe"},"vehicle_type_id":"4","last_reported":1774381583,"current_range_meters":7200,"station_id":"st_d46tts09ee8s73dlu43g","pricing_plan_id":"cebpf4jnsgd1na2vs0mg"},{"bike_id":"c1de2c65-0476-46cf-9ed7-7dbf07b95ee3","system_id":"levelo_inurba_marseille","lat":43.29622,"lon":5.40627,"is_reserved":false,"is_disabled":false,"rental_uris":{"android":"levelo://app?vid=c1de2c65-0476-46cf-9ed7-7dbf07b95ee3","ios":"levelo://app?vid=c1de2c65-0476-46cf-9ed7-7dbf07b95ee3"},"vehicle_type_id":"4","last_reported":1774381583,"current_range_meters":7200,"station_id":"ce4bh0h2rcd13ifvqd60","pricing_plan_id":"cebpf4jnsgd1na2vs0mg"},{"bike_id":"e5a59091-358d-47fe-b16a-e8bc6fd512a5","system_id":"levelo_inurba_marseille","lat":43.26776,"lon":5.39415,"is_reserved":false,"is_disabled":false,"rental_uris":{"android":"levelo://app?vid=e5a59091-358d-47fe-b16a-e8bc6fd512a5","ios":"levelo://app?vid=e5a59091-358d-47fe-b16a-e8bc6fd512a5"},"vehicle_type_id":"4","last_reported":1774381583,"current_range_meters":7200,"station_id":"ce4bhh12rcd13ifvqfg0","pricing_plan_id":"cebpf4jnsgd1na2vs0mg"},{"bike_id":"b947edc4-7d97-450e-aae7-f14af0496eb2","system_id":"levelo_inurba_marseille","lat":43.30896,"lon":5.39623,"is_reserved":false,"is_disabled":false,"rental_uris":{"android":"levelo://app?vid=b947edc4-7d97-450e-aae7-f14af0496eb2","ios":"levelo://app?vid=b947edc4-7d97-450e-aae7-f14af0496eb2"},"vehicle_type_id":"4","last_reported":1774381583,"current_range_meters":7200,"station_id":"ce4bh012rcd13ifvqcv0","pricing_plan_id":"cebpf4jnsgd1na2vs0mg"},{"bike_id":"fe332a28-7761-474f-ad2d-b84cd0257740","system_id":"levelo_inurba_marseille","lat":43.23794,"lon":5.36625,"is_reserved":false,"is_disabled":false,"rental_uris":{"android":"levelo://app?vid=fe332a28-7761-474f-ad2d-b84cd0257740","ios":"levelo://app?vid=fe332a28-7761-474f-ad2d-b84cd0257740"},"vehicle_type_id":"4","last_reported":1774381583,"current_range_meters":7200,"station_id":"st_d3nk18o9ro0c73en2l3g","pricing_plan_id":"cebpf4jnsgd1na2vs0mg"},{"bike_id":"ab33f621-d1f1-4434-983f-0a37388ad222","system_id":"levelo_inurba_marseille","lat":43.30766,"lon":5.37178,"is_reserved":false,"is_disabled":false,"rental_uris":{"android":"levelo://app?vid=ab33f621-d1f1-4434-983f-0a37388ad222","ios":"levelo://app?vid=ab33f621-d1f1-4434-983f-0a37388ad222"},"vehicle_type_id":"4","last_reported":1774381583,"current_range_meters":7200,"station_id":"","pricing_plan_id":"cebpf4jnsgd1na2vs0mg"},{"bike_id":"a9ec82e5-093a-4542-9f2f-44e506af087d","system_id":"levelo_inurba_marseille","lat":43.28418,"lon":5.34996,"is_reserved":false,"is_disabled":false,"rental_uris":{"android":"levelo://app?vid=a9ec82e5-093a-4542-9f2f-44e506af087d","ios":"levelo://app?vid=a9ec82e5-093a-4542-9f2f-44e506af087d"},"vehicle_type_id":"4","last_reported":1774381583,"current_range_meters":7200,"station_id":"ce4bhbh2rcd13ifvqepg","pricing_plan_id":"cebpf4jnsgd1na2vs0mg"},{"bike_id":"107301ff-a3ab-4eed-8839-ab5422ae13d4","system_id":"levelo_inurba_marseille","lat":43.24801,"lon":5.37449,"is_reserved":false,"is_disabled":false,"rental_uris":{"android":"levelo://app?vid=107301ff-a3ab-4eed-8839-ab5422ae13d4","ios":"levelo://app?vid=107301ff-a3ab-4eed-8839-ab5422ae13d4"},"vehicle_type_id":"4","last_reported":1774381583,"current_range_meters":7200,"station_id":"ce4bhgh2rcd13ifvqfb0","pricing_plan_id":"cebpf4jnsgd1na2vs0mg"},{"bike_id":"90bc03fb-16e9-4a76-a038-ad84750ae009","system_id":"levelo_inurba_marseille","lat":43.29697,"lon":5.36614,"is_reserved":false,"is_disabled":false,"rental_uris":{"android":"levelo://app?vid=90bc03fb-16e9-4a76-a038-ad84750ae009","ios":"levelo://app?vid=90bc03fb-16e9-4a76-a038-ad84750ae009"},"vehicle_type_id":"4","last_reported":1774381583,"current_range_meters":7200,"station_id":"ce4bgn12rcd13ifvqbt0","pricing_plan_id":"cebpf4jnsgd1na2vs0mg"},{"bike_id":"accf0893-dc3a-4a7f-b077-5c0993daa01a","system_id":"levelo_inurba_marseille","lat":43.28666,"lon":5.38661,"is_reserved":false,"is_disabled":false,"rental_uris":{"android":"levelo://app?vid=accf0893-dc3a-4a7f-b077-5c0993daa01a","ios":"levelo://app?vid=accf0893-dc3a-4a7f-b077-5c0993daa01a"},"vehicle_type_id":"4","last_reported":1774381583,"current_range_meters":7200,"station_id":"ce4bh492rcd13ifvqdug","pricing_plan_id":"cebpf4jnsgd1na2vs0mg"},{"bike_id":"58da38a9-dad2-464f-a10a-fb486fca1caf","system_id":"levelo_inurba_marseille","lat":43.28223,"lon":5.40567,"is_reserved":false,"is_disabled":false,"rental_uris":{"android":"levelo://app?vid=58da38a9-dad2-464f-a10a-fb486fca1caf","ios":"levelo://app?vid=58da38a9-dad2-464f-a10a-fb486fca1caf"},"vehicle_type_id":"4","last_reported":1774381583,"current_range_meters":7200,"station_id":"","pricing_plan_id":"cebpf4jnsgd1na2vs0mg"},{"bike_id":"e51f3b8f-2277-4636-88c7-d4fed1c89dba","system_id":"levelo_inurba_marseille","lat":43.29857,"lon":5.40924,"is_reserved":false,"is_disabled":false,"rental_uris":{"android":"levelo://app?vid=e51f3b8f-2277-4636-88c7-d4fed1c89dba","ios":"levelo://app?vid=e51f3b8f-2277-4636-88c7-d4fed1c89dba"},"vehicle_type_id":"4","last_reported":1774381583,"current_range_meters":7200,"station_id":"","pricing_plan_id":"cebpf4jnsgd1na2vs0mg"},{"bike_id":"bc24cdb2-8658-4e5f-81a5-412d6f1e5f52","system_id":"levelo_inurba_marseille","lat":43.28713,"lon":5.39976,"is_reserved":false,"is_disabled":false,"rental_uris":{"android":"levelo://app?vid=bc24cdb2-8658-4e5f-81a5-412d6f1e5f52","ios":"levelo://app?vid=bc24cdb2-8658-4e5f-81a5-412d6f1e5f52"},"vehicle_type_id":"4","last_reported":1774381583,"current_range_meters":7200,"station_id":"ce4bho92rcd13ifvqh3g","pricing_plan_id":"cebpf4jnsgd1na2vs0mg"},{"bike_id":"bae6218d-76b2-49f7-a1ac-2d661366a996","system_id":"levelo_inurba_marseille","lat":43.27808,"lon":5.40747,"is_reserved":false,"is_disabled":false,"rental_uris":{"android":"levelo://app?vid=bae6218d-76b2-49f7-a1ac-2d661366a996","ios":"levelo://app?vid=bae6218d-76b2-49f7-a1ac-2d661366a996"},"vehicle_type_id":"4","last_reported":1774381583,"current_range_meters":7200,"station_id":"ce4bhnh2rcd13ifvqgtg","pricing_plan_id":"cebpf4jnsgd1na2vs0mg"},{"bike_id":"6711ca2b-9a4e-46b1-892e-1007cc2a656e","system_id":"levelo_inurba_marseille","lat":43.28546,"lon":5.44141,"is_reserved":false,"is_disabled":false,"rental_uris":{"android":"levelo://app?vid=6711ca2b-9a4e-46b1-892e-1007cc2a656e","ios":"levelo://app?vid=6711ca2b-9a4e-46b1-892e-1007cc2a656e"},"vehicle_type_id":"4","last_reported":1774381583,"current_range_meters":7200,"station_id":"st_d3j3df2ikq2c7380ej80","pricing_plan_id":"cebpf4jnsgd1na2vs0mg"},{"bike_id":"e94d83da-a52c-4009-83db-8b37093608a6","system_id":"levelo_inurba_marseille","lat":43.23184,"lon":5.39986,"is_reserved":false,"is_disabled":false,"rental_uris":{"android":"levelo://app?vid=e94d83da-a52c-4009-83db-8b37093608a6","ios":"levelo://app?vid=e94d83da-a52c-4009-83db-8b37093608a6"},"vehicle_type_id":"4","last_reported":1774381583,"current_range_meters":7200,"station_id":"ce4bhn12rcd13ifvqgqg","pricing_plan_id":"cebpf4jnsgd1na2vs0mg"},{"bike_id":"5208ee98-7e4f-445b-9dbc-5d8fbec80d74","system_id":"levelo_inurba_marseille","lat":43.23371,"lon":5.41232,"is_reserved":false,"is_disabled":false,"rental_uris":{"android":"levelo://app?vid=5208ee98-7e4f-445b-9dbc-5d8fbec80d74","ios":"levelo://app?vid=5208ee98-7e4f-445b-9dbc-5d8fbec80d74"},"vehicle_type_id":"4","last_reported":1774381583,"current_range_meters":7200,"station_id":"","pricing_plan_id":"cebpf4jnsgd1na2vs0mg"},{"bike_id":"a37f876e-a91e-44a5-9c9a-90e0d2971012","system_id":"levelo_inurba_marseille","lat":43.30124,"lon":5.39873,"is_reserved":false,"is_disabled":false,"rental_uris":{"android":"levelo://app?vid=a37f876e-a91e-44a5-9c9a-90e0d2971012","ios":"levelo://app?vid=a37f876e-a91e-44a5-9c9a-90e0d2971012"},"vehicle_type_id":"4","last_reported":1774381583,"current_range_meters":7200,"station_id":"ce4bh0h2rcd13ifvqd40","pricing_plan_id":"cebpf4jnsgd1na2vs0mg"},{"bike_id":"8b792be6-75ab-4600-b267-5bfb37905461","system_id":"levelo_inurba_marseille","lat":43.2482,"lon":5.37446,"is_reserved":false,"is_disabled":false,"rental_uris":{"android":"levelo://app?vid=8b792be6-75ab-4600-b267-5bfb37905461","ios":"levelo://app?vid=8b792be6-75ab-4600-b267-5bfb37905461"},"vehicle_type_id":"4","last_reported":1774381583,"current_range_meters":7200,"station_id":"ce4bhgh2rcd13ifvqfb0","pricing_plan_id":"cebpf4jnsgd1na2vs0mg"},{"bike_id":"522ccf2b-783a-4f84-a207-13a7e78ed23f","system_id":"levelo_inurba_marseille","lat":43.28562,"lon":5.39492,"is_reserved":false,"is_disabled":false,"rental_uris":{"android":"levelo://app?vid=522ccf2b-783a-4f84-a207-13a7e78ed23f","ios":"levelo://app?vid=522ccf2b-783a-4f84-a207-13a7e78ed23f"},"vehicle_type_id":"4","last_reported":1774381583,"current_range_meters":7200,"station_id":"ce4bh292rcd13ifvqdg0","pricing_plan_id":"cebpf4jnsgd1na2vs0mg"},{"bike_id":"7b24d452-ea83-4ad0-b78f-eae63fc2b045","system_id":"levelo_inurba_marseille","lat":43.29535,"lon":5.38531,"is_reserved":false,"is_disabled":false,"rental_uris":{"android":"levelo://app?vid=7b24d452-ea83-4ad0-b78f-eae63fc2b045","ios":"levelo://app?vid=7b24d452-ea83-4ad0-b78f-eae63fc2b045"},"vehicle_type_id":"4","last_reported":1774381583,"current_range_meters":7200,"station_id":"ce4bgih2rcd13ifvqba0","pricing_plan_id":"cebpf4jnsgd1na2vs0mg"},{"bike_id":"1c235419-de80-4ac3-96d7-5baa983db92d","system_id":"levelo_inurba_marseille","lat":43.28478,"lon":5.3842,"is_reserved":false,"is_disabled":false,"rental_uris":{"android":"levelo://app?vid=1c235419-de80-4ac3-96d7-5baa983db92d","ios":"levelo://app?vid=1c235419-de80-4ac3-96d7-5baa983db92d"},"vehicle_type_id":"4","last_reported":1774381583,"current_range_meters":8000,"station_id":"ce4bh512rcd13ifvqe3g","pricing_plan_id":"cebpf4jnsgd1na2vs0mg"},{"bike_id":"1b6f3eb8-576f-4c0b-99f9-8f1d20e1252a","system_id":"levelo_inurba_marseille","lat":43.29948,"lon":5.36519,"is_reserved":false,"is_disabled":false,"rental_uris":{"android":"levelo://app?vid=1b6f3eb8-576f-4c0b-99f9-8f1d20e1252a","ios":"levelo://app?vid=1b6f3eb8-576f-4c0b-99f9-8f1d20e1252a"},"vehicle_type_id":"4","last_reported":1774381583,"current_range_meters":8000,"station_id":"ce4bgm92rcd13ifvqbr0","pricing_plan_id":"cebpf4jnsgd1na2vs0mg"},{"bike_id":"2159f981-c6a8-4439-bb67-1723675b05d9","system_id":"levelo_inurba_marseille","lat":43.29029,"lon":5.38643,"is_reserved":false,"is_disabled":false,"rental_uris":{"android":"levelo://app?vid=2159f981-c6a8-4439-bb67-1723675b05d9","ios":"levelo://app?vid=2159f981-c6a8-4439-bb67-1723675b05d9"},"vehicle_type_id":"4","last_reported":1774381583,"current_range_meters":8000,"station_id":"ce4bh4p2rcd13ifvqe0g","pricing_plan_id":"cebpf4jnsgd1na2vs0mg"},{"bike_id":"f7e664bc-8cfe-465d-9dbe-128ca982aa9c","system_id":"levelo_inurba_marseille","lat":43.25003,"lon":5.38978,"is_reserved":false,"is_disabled":false,"rental_uris":{"android":"levelo://app?vid=f7e664bc-8cfe-465d-9dbe-128ca982aa9c","ios":"levelo://app?vid=f7e664bc-8cfe-465d-9dbe-128ca982aa9c"},"vehicle_type_id":"4","last_reported":1774381583,"current_range_meters":8000,"station_id":"","pricing_plan_id":"cebpf4jnsgd1na2vs0mg"},{"bike_id":"c63d96de-3766-475a-9ab2-7d62b676bdc7","system_id":"levelo_inurba_marseille","lat":43.31172,"lon":5.3872,"is_reserved":false,"is_disabled":false,"rental_uris":{"android":"levelo://app?vid=c63d96de-3766-475a-9ab2-7d62b676bdc7","ios":"levelo://app?vid=c63d96de-3766-475a-9ab2-7d62b676bdc7"},"vehicle_type_id":"4","last_reported":1774381583,"current_range_meters":8000,"station_id":"ce4bgv12rcd13ifvqcp0","pricing_plan_id":"cebpf4jnsgd1na2vs0mg"},{"bike_id":"445a363e-6635-4c6f-9d9b-6ed1d223c4e8","system_id":"levelo_inurba_marseille","lat":43.29562,"lon":5.43896,"is_reserved":false,"is_disabled":false,"rental_uris":{"android":"levelo://app?vid=445a363e-6635-4c6f-9d9b-6ed1d223c4e8","ios":"levelo://app?vid=445a363e-6635-4c6f-9d9b-6ed1d223c4e8"},"vehicle_type_id":"4","last_reported":1774381583,"current_range_meters":8000,"station_id":"","pricing_plan_id":"cebpf4jnsgd1na2vs0mg"},{"bike_id":"ce1ca696-5540-44ed-b207-f9acc1332d82","system_id":"levelo_inurba_marseille","lat":43.28211,"lon":5.39049,"is_reserved":false,"is_disabled":false,"rental_uris":{"android":"levelo://app?vid=ce1ca696-5540-44ed-b207-f9acc1332d82","ios":"levelo://app?vid=ce1ca696-5540-44ed-b207-f9acc1332d82"},"vehicle_type_id":"4","last_reported":1774381583,"current_range_meters":8000,"station_id":"ce4bhn92rcd13ifvqgsg","pricing_plan_id":"cebpf4jnsgd1na2vs0mg"},{"bike_id":"11e270f4-fef7-471c-9adc-54747540acc9","system_id":"levelo_inurba_marseille","lat":43.28674,"lon":5.36357,"is_reserved":false,"is_disabled":false,"rental_uris":{"android":"levelo://app?vid=11e270f4-fef7-471c-9adc-54747540acc9","ios":"levelo://app?vid=11e270f4-fef7-471c-9adc-54747540acc9"},"vehicle_type_id":"4","last_reported":1774381583,"current_range_meters":8000,"station_id":"ce4bhah2rcd13ifvqej0","pricing_plan_id":"cebpf4jnsgd1na2vs0mg"},{"bike_id":"732e2005-0235-43ac-aaff-244dab63256b","system_id":"levelo_inurba_marseille","lat":43.29034,"lon":5.38649,"is_reserved":false,"is_disabled":false,"rental_uris":{"android":"levelo://app?vid=732e2005-0235-43ac-aaff-244dab63256b","ios":"levelo://app?vid=732e2005-0235-43ac-aaff-244dab63256b"},"vehicle_type_id":"4","last_reported":1774381583,"current_range_meters":8000,"station_id":"ce4bh4p2rcd13ifvqe0g","pricing_plan_id":"cebpf4jnsgd1na2vs0mg"},{"bike_id":"8b5d40a1-73a5-4996-8aaa-10b91006d761","system_id":"levelo_inurba_marseille","lat":43.30626,"lon":5.40052,"is_reserved":false,"is_disabled":false,"rental_uris":{"android":"levelo://app?vid=8b5d40a1-73a5-4996-8aaa-10b91006d761","ios":"levelo://app?vid=8b5d40a1-73a5-4996-8aaa-10b91006d761"},"vehicle_type_id":"4","last_reported":1774381583,"current_range_meters":8000,"station_id":"ce4bh112rcd13ifvqda0","pricing_plan_id":"cebpf4jnsgd1na2vs0mg"},{"bike_id":"1d43dc50-c702-49e1-a722-920997b6a84a","system_id":"levelo_inurba_marseille","lat":43.24953,"lon":5.40484,"is_reserved":false,"is_disabled":false,"rental_uris":{"android":"levelo://app?vid=1d43dc50-c702-49e1-a722-920997b6a84a","ios":"levelo://app?vid=1d43dc50-c702-49e1-a722-920997b6a84a"},"vehicle_type_id":"4","last_reported":1774381583,"current_range_meters":8000,"station_id":"st_d2ngiaodas8pm72gd1h0","pricing_plan_id":"cebpf4jnsgd1na2vs0mg"},{"bike_id":"1a751648-291f-4319-a34f-249a761c3662","system_id":"levelo_inurba_marseille","lat":43.33618,"lon":5.36303,"is_reserved":false,"is_disabled":false,"rental_uris":{"android":"levelo://app?vid=1a751648-291f-4319-a34f-249a761c3662","ios":"levelo://app?vid=1a751648-291f-4319-a34f-249a761c3662"},"vehicle_type_id":"4","last_reported":1774381583,"current_range_meters":8000,"station_id":"","pricing_plan_id":"cebpf4jnsgd1na2vs0mg"},{"bike_id":"09c8011b-7b4e-4b59-b798-1edf1ac86a64","system_id":"levelo_inurba_marseille","lat":43.28544,"lon":5.39485,"is_reserved":false,"is_disabled":false,"rental_uris":{"android":"levelo://app?vid=09c8011b-7b4e-4b59-b798-1edf1ac86a64","ios":"levelo://app?vid=09c8011b-7b4e-4b59-b798-1edf1ac86a64"},"vehicle_type_id":"4","last_reported":1774381583,"current_range_meters":8000,"station_id":"ce4bh292rcd13ifvqdg0","pricing_plan_id":"cebpf4jnsgd1na2vs0mg"},{"bike_id":"ce5344ce-4c16-4dd1-aa82-8f1e2691f17b","system_id":"levelo_inurba_marseille","lat":43.28351,"lon":5.38101,"is_reserved":false,"is_disabled":false,"rental_uris":{"android":"levelo://app?vid=ce5344ce-4c16-4dd1-aa82-8f1e2691f17b","ios":"levelo://app?vid=ce5344ce-4c16-4dd1-aa82-8f1e2691f17b"},"vehicle_type_id":"4","last_reported":1774381583,"current_range_meters":8000,"station_id":"ce4bh412rcd13ifvqdr0","pricing_plan_id":"cebpf4jnsgd1na2vs0mg"},{"bike_id":"fde7c990-ea71-4125-9b7f-4cda0f7e1677","system_id":"levelo_inurba_marseille","lat":43.23799,"lon":5.36627,"is_reserved":false,"is_disabled":false,"rental_uris":{"android":"levelo://app?vid=fde7c990-ea71-4125-9b7f-4cda0f7e1677","ios":"levelo://app?vid=fde7c990-ea71-4125-9b7f-4cda0f7e1677"},"vehicle_type_id":"4","last_reported":1774381583,"current_range_meters":8000,"station_id":"st_d3nk18o9ro0c73en2l3g","pricing_plan_id":"cebpf4jnsgd1na2vs0mg"},{"bike_id":"7a3b77d0-0dc1-4112-bc02-e3537f9e531b","system_id":"levelo_inurba_marseille","lat":43.29303,"lon":5.37463,"is_reserved":false,"is_disabled":false,"rental_uris":{"android":"levelo://app?vid=7a3b77d0-0dc1-4112-bc02-e3537f9e531b","ios":"levelo://app?vid=7a3b77d0-0dc1-4112-bc02-e3537f9e531b"},"vehicle_type_id":"4","last_reported":1774381583,"current_range_meters":8000,"station_id":"ce4bgi12rcd13ifvqb70","pricing_plan_id":"cebpf4jnsgd1na2vs0mg"},{"bike_id":"3aca8b7b-8fc1-4ceb-bf6d-ecf72b78251e","system_id":"levelo_inurba_marseille","lat":43.29287,"lon":5.37489,"is_reserved":false,"is_disabled":false,"rental_uris":{"android":"levelo://app?vid=3aca8b7b-8fc1-4ceb-bf6d-ecf72b78251e","ios":"levelo://app?vid=3aca8b7b-8fc1-4ceb-bf6d-ecf72b78251e"},"vehicle_type_id":"4","last_reported":1774381583,"current_range_meters":8000,"station_id":"ce4bgi12rcd13ifvqb70","pricing_plan_id":"cebpf4jnsgd1na2vs0mg"},{"bike_id":"859e033c-801e-40c8-932c-414a763efa1b","system_id":"levelo_inurba_marseille","lat":43.30273,"lon":5.39258,"is_reserved":false,"is_disabled":false,"rental_uris":{"android":"levelo://app?vid=859e033c-801e-40c8-932c-414a763efa1b","ios":"levelo://app?vid=859e033c-801e-40c8-932c-414a763efa1b"},"vehicle_type_id":"4","last_reported":1774381583,"current_range_meters":8000,"station_id":"ce4bgkh2rcd13ifvqbk0","pricing_plan_id":"cebpf4jnsgd1na2vs0mg"},{"bike_id":"8c7ce2ac-36a4-4d74-9f4d-c3062a5fb5dd","system_id":"levelo_inurba_marseille","lat":43.24946,"lon":5.40498,"is_reserved":false,"is_disabled":false,"rental_uris":{"android":"levelo://app?vid=8c7ce2ac-36a4-4d74-9f4d-c3062a5fb5dd","ios":"levelo://app?vid=8c7ce2ac-36a4-4d74-9f4d-c3062a5fb5dd"},"vehicle_type_id":"4","last_reported":1774381583,"current_range_meters":8000,"station_id":"st_d2ngiaodas8pm72gd1h0","pricing_plan_id":"cebpf4jnsgd1na2vs0mg"},{"bike_id":"e0996d0d-f6cf-4428-acad-fd84bac2c9fe","system_id":"levelo_inurba_marseille","lat":43.23193,"lon":5.35561,"is_reserved":false,"is_disabled":false,"rental_uris":{"android":"levelo://app?vid=e0996d0d-f6cf-4428-acad-fd84bac2c9fe","ios":"levelo://app?vid=e0996d0d-f6cf-4428-acad-fd84bac2c9fe"},"vehicle_type_id":"4","last_reported":1774381583,"current_range_meters":8000,"station_id":"ce4bhu92rcd13ifvqi70","pricing_plan_id":"cebpf4jnsgd1na2vs0mg"},{"bike_id":"8124a762-8257-4431-b4f5-5123ddea8884","system_id":"levelo_inurba_marseille","lat":43.24811,"lon":5.37445,"is_reserved":false,"is_disabled":false,"rental_uris":{"android":"levelo://app?vid=8124a762-8257-4431-b4f5-5123ddea8884","ios":"levelo://app?vid=8124a762-8257-4431-b4f5-5123ddea8884"},"vehicle_type_id":"4","last_reported":1774381583,"current_range_meters":8000,"station_id":"ce4bhgh2rcd13ifvqfb0","pricing_plan_id":"cebpf4jnsgd1na2vs0mg"},{"bike_id":"cbe143e8-3e8d-46c8-8239-3389a4661d28","system_id":"levelo_inurba_marseille","lat":43.30306,"lon":5.36917,"is_reserved":false,"is_disabled":false,"rental_uris":{"android":"levelo://app?vid=cbe143e8-3e8d-46c8-8239-3389a4661d28","ios":"levelo://app?vid=cbe143e8-3e8d-46c8-8239-3389a4661d28"},"vehicle_type_id":"4","last_reported":1774381583,"current_range_meters":8000,"station_id":"ce4bgqh2rcd13ifvqc5g","pricing_plan_id":"cebpf4jnsgd1na2vs0mg"},{"bike_id":"61734b4a-3d16-4c36-b0cd-c38fb2dbfc67","system_id":"levelo_inurba_marseille","lat":43.30144,"lon":5.43109,"is_reserved":false,"is_disabled":false,"rental_uris":{"android":"levelo://app?vid=61734b4a-3d16-4c36-b0cd-c38fb2dbfc67","ios":"levelo://app?vid=61734b4a-3d16-4c36-b0cd-c38fb2dbfc67"},"vehicle_type_id":"4","last_reported":1774381583,"current_range_meters":8000,"station_id":"st_d3js3co5814s73ftftug","pricing_plan_id":"cebpf4jnsgd1na2vs0mg"},{"bike_id":"6c236107-c3c1-4312-91bd-52167043010f","system_id":"levelo_inurba_marseille","lat":43.28719,"lon":5.36079,"is_reserved":false,"is_disabled":false,"rental_uris":{"android":"levelo://app?vid=6c236107-c3c1-4312-91bd-52167043010f","ios":"levelo://app?vid=6c236107-c3c1-4312-91bd-52167043010f"},"vehicle_type_id":"4","last_reported":1774381583,"current_range_meters":8400,"station_id":"cki0cbj6b192h4jlfktg","pricing_plan_id":"cebpf4jnsgd1na2vs0mg"},{"bike_id":"ccf5f660-4656-4e00-8b91-4a8c6e08442b","system_id":"levelo_inurba_marseille","lat":43.30677,"lon":5.40076,"is_reserved":false,"is_disabled":false,"rental_uris":{"android":"levelo://app?vid=ccf5f660-4656-4e00-8b91-4a8c6e08442b","ios":"levelo://app?vid=ccf5f660-4656-4e00-8b91-4a8c6e08442b"},"vehicle_type_id":"4","last_reported":1774381583,"current_range_meters":8400,"station_id":"ce4bh112rcd13ifvqda0","pricing_plan_id":"cebpf4jnsgd1na2vs0mg"},{"bike_id":"0c3ea06a-e8bd-42d6-9a04-ac831c189b02","system_id":"levelo_inurba_marseille","lat":43.299895,"lon":5.387877,"is_reserved":false,"is_disabled":false,"rental_uris":{"android":"levelo://app?vid=0c3ea06a-e8bd-42d6-9a04-ac831c189b02","ios":"levelo://app?vid=0c3ea06a-e8bd-42d6-9a04-ac831c189b02"},"vehicle_type_id":"4","last_reported":1774381583,"current_range_meters":8400,"station_id":"ce4bh0p2rcd13ifvqd70","pricing_plan_id":"cebpf4jnsgd1na2vs0mg"},{"bike_id":"52525216-4854-4520-880f-f19bec71c920","system_id":"levelo_inurba_marseille","lat":43.27811,"lon":5.40714,"is_reserved":false,"is_disabled":false,"rental_uris":{"android":"levelo://app?vid=52525216-4854-4520-880f-f19bec71c920","ios":"levelo://app?vid=52525216-4854-4520-880f-f19bec71c920"},"vehicle_type_id":"4","last_reported":1774381583,"current_range_meters":8400,"station_id":"ce4bhnh2rcd13ifvqgtg","pricing_plan_id":"cebpf4jnsgd1na2vs0mg"},{"bike_id":"bdb6019e-627e-4d96-bb98-1ae4157e9eb5","system_id":"levelo_inurba_marseille","lat":43.292,"lon":5.39316,"is_reserved":false,"is_disabled":false,"rental_uris":{"android":"levelo://app?vid=bdb6019e-627e-4d96-bb98-1ae4157e9eb5","ios":"levelo://app?vid=bdb6019e-627e-4d96-bb98-1ae4157e9eb5"},"vehicle_type_id":"4","last_reported":1774381583,"current_range_meters":8400,"station_id":"ce4bh192rcd13ifvqdd0","pricing_plan_id":"cebpf4jnsgd1na2vs0mg"},{"bike_id":"d48b1092-602d-4cd7-9bd8-bb9ea987105f","system_id":"levelo_inurba_marseille","lat":43.29529,"lon":5.38535,"is_reserved":false,"is_disabled":false,"rental_uris":{"android":"levelo://app?vid=d48b1092-602d-4cd7-9bd8-bb9ea987105f","ios":"levelo://app?vid=d48b1092-602d-4cd7-9bd8-bb9ea987105f"},"vehicle_type_id":"4","last_reported":1774381583,"current_range_meters":8400,"station_id":"ce4bgih2rcd13ifvqba0","pricing_plan_id":"cebpf4jnsgd1na2vs0mg"},{"bike_id":"22a24422-8367-44e3-afc2-fd1672c2c7f5","system_id":"levelo_inurba_marseille","lat":43.28473,"lon":5.48406,"is_reserved":false,"is_disabled":false,"rental_uris":{"android":"levelo://app?vid=22a24422-8367-44e3-afc2-fd1672c2c7f5","ios":"levelo://app?vid=22a24422-8367-44e3-afc2-fd1672c2c7f5"},"vehicle_type_id":"4","last_reported":1774381583,"current_range_meters":8400,"station_id":"","pricing_plan_id":"cebpf4jnsgd1na2vs0mg"},{"bike_id":"c183ea56-6995-4ab9-9d2b-e07807bdb413","system_id":"levelo_inurba_marseille","lat":43.28665,"lon":5.36343,"is_reserved":false,"is_disabled":false,"rental_uris":{"android":"levelo://app?vid=c183ea56-6995-4ab9-9d2b-e07807bdb413","ios":"levelo://app?vid=c183ea56-6995-4ab9-9d2b-e07807bdb413"},"vehicle_type_id":"4","last_reported":1774381583,"current_range_meters":8400,"station_id":"ce4bhah2rcd13ifvqej0","pricing_plan_id":"cebpf4jnsgd1na2vs0mg"},{"bike_id":"275c8b80-8045-424b-9bd9-7e646e316c8e","system_id":"levelo_inurba_marseille","lat":43.27378,"lon":5.36257,"is_reserved":false,"is_disabled":false,"rental_uris":{"android":"levelo://app?vid=275c8b80-8045-424b-9bd9-7e646e316c8e","ios":"levelo://app?vid=275c8b80-8045-424b-9bd9-7e646e316c8e"},"vehicle_type_id":"4","last_reported":1774381583,"current_range_meters":8400,"station_id":"ce4bhbh2rcd13ifvqeo0","pricing_plan_id":"cebpf4jnsgd1na2vs0mg"},{"bike_id":"aa929685-e4dd-4a31-a1c6-979463fa81a3","system_id":"levelo_inurba_marseille","lat":43.28478,"lon":5.4839,"is_reserved":false,"is_disabled":false,"rental_uris":{"android":"levelo://app?vid=aa929685-e4dd-4a31-a1c6-979463fa81a3","ios":"levelo://app?vid=aa929685-e4dd-4a31-a1c6-979463fa81a3"},"vehicle_type_id":"4","last_reported":1774381583,"current_range_meters":8400,"station_id":"st_d3svhcjqgbts73a3dn0g","pricing_plan_id":"cebpf4jnsgd1na2vs0mg"},{"bike_id":"62c0eda8-c666-40c1-b62d-71242266f316","system_id":"levelo_inurba_marseille","lat":43.28448,"lon":5.39186,"is_reserved":false,"is_disabled":true,"rental_uris":{"android":"levelo://app?vid=62c0eda8-c666-40c1-b62d-71242266f316","ios":"levelo://app?vid=62c0eda8-c666-40c1-b62d-71242266f316"},"vehicle_type_id":"4","last_reported":1774381583,"current_range_meters":8400,"station_id":"ce4bhoh2rcd13ifvqh5g","pricing_plan_id":"cebpf4jnsgd1na2vs0mg"},{"bike_id":"0467a61b-3c6c-4519-8ae2-ab7b582ec154","system_id":"levelo_inurba_marseille","lat":43.24648,"lon":5.38901,"is_reserved":false,"is_disabled":false,"rental_uris":{"android":"levelo://app?vid=0467a61b-3c6c-4519-8ae2-ab7b582ec154","ios":"levelo://app?vid=0467a61b-3c6c-4519-8ae2-ab7b582ec154"},"vehicle_type_id":"4","last_reported":1774381583,"current_range_meters":8400,"station_id":"ce4bhg12rcd13ifvqf60","pricing_plan_id":"cebpf4jnsgd1na2vs0mg"},{"bike_id":"751b7cf8-e99e-4005-886e-3f25550c7a45","system_id":"levelo_inurba_marseille","lat":43.25506,"lon":5.37666,"is_reserved":false,"is_disabled":false,"rental_uris":{"android":"levelo://app?vid=751b7cf8-e99e-4005-886e-3f25550c7a45","ios":"levelo://app?vid=751b7cf8-e99e-4005-886e-3f25550c7a45"},"vehicle_type_id":"4","last_reported":1774381583,"current_range_meters":8400,"station_id":"ce4bhh12rcd13ifvqff0","pricing_plan_id":"cebpf4jnsgd1na2vs0mg"},{"bike_id":"0eb34252-e709-4308-b510-246d6ada0455","system_id":"levelo_inurba_marseille","lat":43.31224,"lon":5.36841,"is_reserved":false,"is_disabled":false,"rental_uris":{"android":"levelo://app?vid=0eb34252-e709-4308-b510-246d6ada0455","ios":"levelo://app?vid=0eb34252-e709-4308-b510-246d6ada0455"},"vehicle_type_id":"4","last_reported":1774381583,"current_range_meters":8400,"station_id":"ce4bgl92rcd13ifvqbq0","pricing_plan_id":"cebpf4jnsgd1na2vs0mg"},{"bike_id":"3ca525f6-b4a4-43fd-a5d1-50e0e4436de8","system_id":"levelo_inurba_marseille","lat":43.28467,"lon":5.3841,"is_reserved":false,"is_disabled":false,"rental_uris":{"android":"levelo://app?vid=3ca525f6-b4a4-43fd-a5d1-50e0e4436de8","ios":"levelo://app?vid=3ca525f6-b4a4-43fd-a5d1-50e0e4436de8"},"vehicle_type_id":"4","last_reported":1774381583,"current_range_meters":8400,"station_id":"ce4bh512rcd13ifvqe3g","pricing_plan_id":"cebpf4jnsgd1na2vs0mg"},{"bike_id":"9e6209c2-8d1d-42b3-b60a-1dbb8e1406fe","system_id":"levelo_inurba_marseille","lat":43.33151,"lon":5.37679,"is_reserved":false,"is_disabled":false,"rental_uris":{"android":"levelo://app?vid=9e6209c2-8d1d-42b3-b60a-1dbb8e1406fe","ios":"levelo://app?vid=9e6209c2-8d1d-42b3-b60a-1dbb8e1406fe"},"vehicle_type_id":"4","last_reported":1774381583,"current_range_meters":8400,"station_id":"st_d46cu089ee8s73dldbu0","pricing_plan_id":"cebpf4jnsgd1na2vs0mg"},{"bike_id":"59281ad0-3b61-490c-bce4-aa1664c9767c","system_id":"levelo_inurba_marseille","lat":43.29532,"lon":5.38536,"is_reserved":false,"is_disabled":false,"rental_uris":{"android":"levelo://app?vid=59281ad0-3b61-490c-bce4-aa1664c9767c","ios":"levelo://app?vid=59281ad0-3b61-490c-bce4-aa1664c9767c"},"vehicle_type_id":"4","last_reported":1774381583,"current_range_meters":8400,"station_id":"ce4bgih2rcd13ifvqba0","pricing_plan_id":"cebpf4jnsgd1na2vs0mg"},{"bike_id":"8edde19f-14bb-4a9f-b9ee-19b95f05ec2f","system_id":"levelo_inurba_marseille","lat":43.33551,"lon":5.37448,"is_reserved":false,"is_disabled":false,"rental_uris":{"android":"levelo://app?vid=8edde19f-14bb-4a9f-b9ee-19b95f05ec2f","ios":"levelo://app?vid=8edde19f-14bb-4a9f-b9ee-19b95f05ec2f"},"vehicle_type_id":"4","last_reported":1774381583,"current_range_meters":8400,"station_id":"st_d46tts09ee8s73dlu43g","pricing_plan_id":"cebpf4jnsgd1na2vs0mg"},{"bike_id":"8d8566de-f03a-4e5e-aa8c-ad2e3c17ab03","system_id":"levelo_inurba_marseille","lat":43.31539,"lon":5.37305,"is_reserved":false,"is_disabled":false,"rental_uris":{"android":"levelo://app?vid=8d8566de-f03a-4e5e-aa8c-ad2e3c17ab03","ios":"levelo://app?vid=8d8566de-f03a-4e5e-aa8c-ad2e3c17ab03"},"vehicle_type_id":"4","last_reported":1774381583,"current_range_meters":8400,"station_id":"","pricing_plan_id":"cebpf4jnsgd1na2vs0mg"},{"bike_id":"212a5fcb-dba4-49a1-a2ba-c2afe57deb8a","system_id":"levelo_inurba_marseille","lat":43.28966,"lon":5.37855,"is_reserved":false,"is_disabled":false,"rental_uris":{"android":"levelo://app?vid=212a5fcb-dba4-49a1-a2ba-c2afe57deb8a","ios":"levelo://app?vid=212a5fcb-dba4-49a1-a2ba-c2afe57deb8a"},"vehicle_type_id":"4","last_reported":1774381583,"current_range_meters":8400,"station_id":"ce4bh9p2rcd13ifvqed0","pricing_plan_id":"cebpf4jnsgd1na2vs0mg"},{"bike_id":"4cf8aae3-1c64-4600-9456-030c2f820cbf","system_id":"levelo_inurba_marseille","lat":43.29245,"lon":5.37633,"is_reserved":false,"is_disabled":false,"rental_uris":{"android":"levelo://app?vid=4cf8aae3-1c64-4600-9456-030c2f820cbf","ios":"levelo://app?vid=4cf8aae3-1c64-4600-9456-030c2f820cbf"},"vehicle_type_id":"4","last_reported":1774381583,"current_range_meters":8400,"station_id":"ce4bgi12rcd13ifvqb80","pricing_plan_id":"cebpf4jnsgd1na2vs0mg"},{"bike_id":"0c2be754-240d-4374-be4c-1d92643f3f4b","system_id":"levelo_inurba_marseille","lat":43.2928,"lon":5.3844,"is_reserved":false,"is_disabled":false,"rental_uris":{"android":"levelo://app?vid=0c2be754-240d-4374-be4c-1d92643f3f4b","ios":"levelo://app?vid=0c2be754-240d-4374-be4c-1d92643f3f4b"},"vehicle_type_id":"4","last_reported":1774381583,"current_range_meters":8400,"station_id":"ce4bh692rcd13ifvqea0","pricing_plan_id":"cebpf4jnsgd1na2vs0mg"},{"bike_id":"715aaeb5-0d16-47e0-ba84-f56328a24f5b","system_id":"levelo_inurba_marseille","lat":43.29886,"lon":5.43663,"is_reserved":false,"is_disabled":false,"rental_uris":{"android":"levelo://app?vid=715aaeb5-0d16-47e0-ba84-f56328a24f5b","ios":"levelo://app?vid=715aaeb5-0d16-47e0-ba84-f56328a24f5b"},"vehicle_type_id":"4","last_reported":1774381583,"current_range_meters":8800,"station_id":"ce4bhpp2rcd13ifvqhfg","pricing_plan_id":"cebpf4jnsgd1na2vs0mg"},{"bike_id":"0b3d75aa-7761-492a-9d31-66dd929480e5","system_id":"levelo_inurba_marseille","lat":43.28481,"lon":5.38409,"is_reserved":false,"is_disabled":false,"rental_uris":{"android":"levelo://app?vid=0b3d75aa-7761-492a-9d31-66dd929480e5","ios":"levelo://app?vid=0b3d75aa-7761-492a-9d31-66dd929480e5"},"vehicle_type_id":"4","last_reported":1774381583,"current_range_meters":8800,"station_id":"ce4bh512rcd13ifvqe3g","pricing_plan_id":"cebpf4jnsgd1na2vs0mg"},{"bike_id":"992d461f-8839-4086-b27a-9edc1d38b03d","system_id":"levelo_inurba_marseille","lat":43.33554,"lon":5.37456,"is_reserved":false,"is_disabled":false,"rental_uris":{"android":"levelo://app?vid=992d461f-8839-4086-b27a-9edc1d38b03d","ios":"levelo://app?vid=992d461f-8839-4086-b27a-9edc1d38b03d"},"vehicle_type_id":"4","last_reported":1774381583,"current_range_meters":8800,"station_id":"st_d46tts09ee8s73dlu43g","pricing_plan_id":"cebpf4jnsgd1na2vs0mg"},{"bike_id":"da6972b3-b161-480b-8ef0-1ff556fc7299","system_id":"levelo_inurba_marseille","lat":43.23816,"lon":5.3662,"is_reserved":false,"is_disabled":false,"rental_uris":{"android":"levelo://app?vid=da6972b3-b161-480b-8ef0-1ff556fc7299","ios":"levelo://app?vid=da6972b3-b161-480b-8ef0-1ff556fc7299"},"vehicle_type_id":"4","last_reported":1774381583,"current_range_meters":8800,"station_id":"st_d3nk18o9ro0c73en2l3g","pricing_plan_id":"cebpf4jnsgd1na2vs0mg"},{"bike_id":"0b977672-4fb9-4ce6-82fc-fb11d21dbe5b","system_id":"levelo_inurba_marseille","lat":43.27209,"lon":5.39184,"is_reserved":false,"is_disabled":false,"rental_uris":{"android":"levelo://app?vid=0b977672-4fb9-4ce6-82fc-fb11d21dbe5b","ios":"levelo://app?vid=0b977672-4fb9-4ce6-82fc-fb11d21dbe5b"},"vehicle_type_id":"4","last_reported":1774381583,"current_range_meters":8800,"station_id":"ce4bhhp2rcd13ifvqfm0","pricing_plan_id":"cebpf4jnsgd1na2vs0mg"},{"bike_id":"984abe8f-af30-4639-9afe-4a3ad5472448","system_id":"levelo_inurba_marseille","lat":43.28463,"lon":5.38431,"is_reserved":false,"is_disabled":false,"rental_uris":{"android":"levelo://app?vid=984abe8f-af30-4639-9afe-4a3ad5472448","ios":"levelo://app?vid=984abe8f-af30-4639-9afe-4a3ad5472448"},"vehicle_type_id":"4","last_reported":1774381583,"current_range_meters":8800,"station_id":"ce4bh512rcd13ifvqe3g","pricing_plan_id":"cebpf4jnsgd1na2vs0mg"},{"bike_id":"13f9f031-67ea-407a-a66e-c4b749576cd4","system_id":"levelo_inurba_marseille","lat":43.2396,"lon":5.36628,"is_reserved":false,"is_disabled":false,"rental_uris":{"android":"levelo://app?vid=13f9f031-67ea-407a-a66e-c4b749576cd4","ios":"levelo://app?vid=13f9f031-67ea-407a-a66e-c4b749576cd4"},"vehicle_type_id":"4","last_reported":1774381583,"current_range_meters":8800,"station_id":"ce4bhi12rcd13ifvqfp0","pricing_plan_id":"cebpf4jnsgd1na2vs0mg"},{"bike_id":"586ed67b-4578-4abc-88ab-8347db7aebf0","system_id":"levelo_inurba_marseille","lat":43.281,"lon":5.37834,"is_reserved":false,"is_disabled":false,"rental_uris":{"android":"levelo://app?vid=586ed67b-4578-4abc-88ab-8347db7aebf0","ios":"levelo://app?vid=586ed67b-4578-4abc-88ab-8347db7aebf0"},"vehicle_type_id":"4","last_reported":1774381583,"current_range_meters":8800,"station_id":"ce4bha12rcd13ifvqee0","pricing_plan_id":"cebpf4jnsgd1na2vs0mg"},{"bike_id":"4afef56e-ee3d-4a68-9c6e-6fb1341cc15d","system_id":"levelo_inurba_marseille","lat":43.2254,"lon":5.34829,"is_reserved":false,"is_disabled":false,"rental_uris":{"android":"levelo://app?vid=4afef56e-ee3d-4a68-9c6e-6fb1341cc15d","ios":"levelo://app?vid=4afef56e-ee3d-4a68-9c6e-6fb1341cc15d"},"vehicle_type_id":"4","last_reported":1774381583,"current_range_meters":8800,"station_id":"","pricing_plan_id":"cebpf4jnsgd1na2vs0mg"},{"bike_id":"29f49a32-ba08-40ef-839e-89650b416d04","system_id":"levelo_inurba_marseille","lat":43.31058,"lon":5.37882,"is_reserved":false,"is_disabled":false,"rental_uris":{"android":"levelo://app?vid=29f49a32-ba08-40ef-839e-89650b416d04","ios":"levelo://app?vid=29f49a32-ba08-40ef-839e-89650b416d04"},"vehicle_type_id":"4","last_reported":1774381583,"current_range_meters":8800,"station_id":"","pricing_plan_id":"cebpf4jnsgd1na2vs0mg"},{"bike_id":"c504383f-8c10-4ace-a2f6-7d86b63f6895","system_id":"levelo_inurba_marseille","lat":43.28844,"lon":5.39303,"is_reserved":false,"is_disabled":false,"rental_uris":{"android":"levelo://app?vid=c504383f-8c10-4ace-a2f6-7d86b63f6895","ios":"levelo://app?vid=c504383f-8c10-4ace-a2f6-7d86b63f6895"},"vehicle_type_id":"4","last_reported":1774381583,"current_range_meters":8800,"station_id":"ce4bh2p2rcd13ifvqdi0","pricing_plan_id":"cebpf4jnsgd1na2vs0mg"},{"bike_id":"cf418282-838c-494e-9c34-f6054731ad02","system_id":"levelo_inurba_marseille","lat":43.29597,"lon":5.38099,"is_reserved":false,"is_disabled":false,"rental_uris":{"android":"levelo://app?vid=cf418282-838c-494e-9c34-f6054731ad02","ios":"levelo://app?vid=cf418282-838c-494e-9c34-f6054731ad02"},"vehicle_type_id":"4","last_reported":1774381583,"current_range_meters":8800,"station_id":"ce4bgl12rcd13ifvqbo0","pricing_plan_id":"cebpf4jnsgd1na2vs0mg"},{"bike_id":"21a45244-c1c4-423b-9d37-4deb92a4a9b7","system_id":"levelo_inurba_marseille","lat":43.31055,"lon":5.37173,"is_reserved":false,"is_disabled":false,"rental_uris":{"android":"levelo://app?vid=21a45244-c1c4-423b-9d37-4deb92a4a9b7","ios":"levelo://app?vid=21a45244-c1c4-423b-9d37-4deb92a4a9b7"},"vehicle_type_id":"4","last_reported":1774381583,"current_range_meters":8800,"station_id":"st_d4kl2rp97mjs73e7tdfg","pricing_plan_id":"cebpf4jnsgd1na2vs0mg"},{"bike_id":"168ccf17-3133-4472-85a2-824035dc8266","system_id":"levelo_inurba_marseille","lat":43.22955,"lon":5.35362,"is_reserved":false,"is_disabled":false,"rental_uris":{"android":"levelo://app?vid=168ccf17-3133-4472-85a2-824035dc8266","ios":"levelo://app?vid=168ccf17-3133-4472-85a2-824035dc8266"},"vehicle_type_id":"4","last_reported":1774381583,"current_range_meters":8800,"station_id":"cpo3532slgdg3j2ikp40","pricing_plan_id":"cebpf4jnsgd1na2vs0mg"},{"bike_id":"6a209565-16db-4aba-85c7-7097837dcc24","system_id":"levelo_inurba_marseille","lat":43.24183,"lon":5.36406,"is_reserved":false,"is_disabled":false,"rental_uris":{"android":"levelo://app?vid=6a209565-16db-4aba-85c7-7097837dcc24","ios":"levelo://app?vid=6a209565-16db-4aba-85c7-7097837dcc24"},"vehicle_type_id":"4","last_reported":1774381583,"current_range_meters":8800,"station_id":"cpo36qri1sfpv3e86is0","pricing_plan_id":"cebpf4jnsgd1na2vs0mg"},{"bike_id":"adaf8e00-ca2c-49b5-9b35-6749da32aa87","system_id":"levelo_inurba_marseille","lat":43.33568,"lon":5.37445,"is_reserved":false,"is_disabled":false,"rental_uris":{"android":"levelo://app?vid=adaf8e00-ca2c-49b5-9b35-6749da32aa87","ios":"levelo://app?vid=adaf8e00-ca2c-49b5-9b35-6749da32aa87"},"vehicle_type_id":"4","last_reported":1774381583,"current_range_meters":8800,"station_id":"st_d46tts09ee8s73dlu43g","pricing_plan_id":"cebpf4jnsgd1na2vs0mg"},{"bike_id":"489b1f47-9bf9-4f10-90f5-3b4dff230700","system_id":"levelo_inurba_marseille","lat":43.23791,"lon":5.36656,"is_reserved":false,"is_disabled":false,"rental_uris":{"android":"levelo://app?vid=489b1f47-9bf9-4f10-90f5-3b4dff230700","ios":"levelo://app?vid=489b1f47-9bf9-4f10-90f5-3b4dff230700"},"vehicle_type_id":"4","last_reported":1774381583,"current_range_meters":8800,"station_id":"st_d3nk18o9ro0c73en2l3g","pricing_plan_id":"cebpf4jnsgd1na2vs0mg"},{"bike_id":"84d6cff1-e95b-4e74-82d8-b7f22f2928cf","system_id":"levelo_inurba_marseille","lat":43.29519,"lon":5.394,"is_reserved":false,"is_disabled":false,"rental_uris":{"android":"levelo://app?vid=84d6cff1-e95b-4e74-82d8-b7f22f2928cf","ios":"levelo://app?vid=84d6cff1-e95b-4e74-82d8-b7f22f2928cf"},"vehicle_type_id":"4","last_reported":1774381583,"current_range_meters":8800,"station_id":"ce4bh292rcd13ifvqdf0","pricing_plan_id":"cebpf4jnsgd1na2vs0mg"},