{"last_updated":1740809553,"ttl":60,"version":"2.2","data":{"bikes":[{"bike_id":"8208287d-0cff-4ec0-a820-c35af0cbeada","system_id":"levelo_inurba_marseille","lat":43.24083,"lon":5.37771,"is_reserved":false,"is_disabled":false,"rental_uris":{"android":"levelo://app?vid=8208287d-0cff-4ec0-a820-c35af0cbeada","ios":"levelo://app?vid=8208287d-0cff-4ec0-a820-c35af0cbeada"},"vehicle_type_id":"4","last_reported":1740809553,"current_range_meters":2800,"station_id":"ce4bhnp2rcd13ifvqgvg","pricing_plan_id":"cebpf4jnsgd1na2vs0mg"},{"bike_id":"06f857e8-f6df-44fd-b263-89e6c39d6cb2","system_id":"levelo_inurba_marseille","lat":43.279123,"lon":5.39582,"is_reserved":false,"is_disabled":false,"rental_uris":{"android":"levelo://app?vid=06f857e8-f6df-44fd-b263-89e6c39d6cb2","ios":"levelo://app?vid=06f857e8-f6df-44fd-b263-89e6c39d6cb2"},"vehicle_type_id":"4","last_reported":1740809553,"current_range_meters":2800,"station_id":"ce4bhf92rcd13ifvqf40","pricing_plan_id":"cebpf4jnsgd1na2vs0mg"},{"bike_id":"a8328c72-27ce-4150-a953-d0b7993a21b2","system_id":"levelo_inurba_marseille","lat":43.2926,"lon":5.37635,"is_reserved":false,"is_disabled":false,"rental_uris":{"android":"levelo://app?vid=a8328c72-27ce-4150-a953-d0b7993a21b2","ios":"levelo://app?vid=a8328c72-27ce-4150-a953-d0b7993a21b2"},"vehicle_type_id":"4","last_reported":1740809553,"current_range_meters":2800,"station_id":"ce4bgi12rcd13ifvqb80","pricing_plan_id":"cebpf4jnsgd1na2vs0mg"},{"bike_id":"15e11633-ffb8-42e9-95ff-828ddb6f7e4d","system_id":"levelo_inurba_marseille","lat":43.28439,"lon":5.39186,"is_reserved":false,"is_disabled":false,"rental_uris":{"android":"levelo://app?vid=15e11633-ffb8-42e9-95ff-828ddb6f7e4d","ios":"levelo://app?vid=15e11633-ffb8-42e9-95ff-828ddb6f7e4d"},"vehicle_type_id":"4","last_reported":1740809553,"current_range_meters":3200,"station_id":"ce4bhoh2rcd13ifvqh5g","pricing_plan_id":"cebpf4jnsgd1na2vs0mg"},{"bike_id":"e3dc1858-1b7a-43fe-8de1-72642a354c17","system_id":"levelo_inurba_marseille","lat":43.243712,"lon":5.384459,"is_reserved":false,"is_disabled":false,"rental_uris":{"android":"levelo://app?vid=e3dc1858-1b7a-43fe-8de1-72642a354c17","ios":"levelo://app?vid=e3dc1858-1b7a-43fe-8de1-72642a354c17"},"vehicle_type_id":"4","last_reported":1740809553,"current_range_meters":3200,"station_id":"","pricing_plan_id":"cebpf4jnsgd1na2vs0mg"},{"bike_id":"aeca613e-07f2-4164-9889-5884285cb8bc","system_id":"levelo_inurba_marseille","lat":43.292694,"lon":5.399729,"is_reserved":false,"is_disabled":false,"rental_uris":{"android":"levelo://app?vid=aeca613e-07f2-4164-9889-5884285cb8bc","ios":"levelo://app?vid=aeca613e-07f2-4164-9889-5884285cb8bc"},"vehicle_type_id":"4","last_reported":1740809553,"current_range_meters":3600,"station_id":"ce4bhah2rcd13ifvqej0","pricing_plan_id":"cebpf4jnsgd1na2vs0mg"},{"bike_id":"4e21c123-fed3-4db6-ad81-45cccdae0542","system_id":"levelo_inurba_marseille","lat":43.24146,"lon":5.36432,"is_reserved":false,"is_disabled":true,"rental_uris":{"android":"levelo://app?vid=4e21c123-fed3-4db6-ad81-45cccdae0542","ios":"levelo://app?vid=4e21c123-fed3-4db6-ad81-45cccdae0542"},"vehicle_type_id":"4","last_reported":1740809553,"current_range_meters":3600,"station_id":"cpo36qri1sfpv3e86is0","pricing_plan_id":"cebpf4jnsgd1na2vs0mg"},{"bike_id":"126a6c48-c6b7-402b-a859-30646ce710a2","system_id":"levelo_inurba_marseille","lat":43.24999,"lon":5.38927,"is_reserved":false,"is_disabled":false,"rental_uris":{"android":"levelo://app?vid=126a6c48-c6b7-402b-a859-30646ce710a2","ios":"levelo://app?vid=126a6c48-c6b7-402b-a859-30646ce710a2"},"vehicle_type_id":"4","last_reported":1740809553,"current_range_meters":3600,"station_id":"ce4bhgp2rcd13ifvqfd0","pricing_plan_id":"cebpf4jnsgd1na2vs0mg"},{"bike_id":"89a7517e-6658-46c5-a615-9e427ec79029","system_id":"levelo_inurba_marseille","lat":43.257204,"lon":5.418113,"is_reserved":false,"is_disabled":false,"rental_uris":{"android":"levelo://app?vid=89a7517e-6658-46c5-a615-9e427ec79029","ios":"levelo://app?vid=89a7517e-6658-46c5-a615-9e427ec79029"},"vehicle_type_id":"4","last_reported":1740809553,"current_range_meters":3600,"station_id":"","pricing_plan_id":"cebpf4jnsgd1na2vs0mg"},{"bike_id":"a9a19c6c-0bed-4d1f-a200-55a2f4d3052e","system_id":"levelo_inurba_marseille","lat":43.29004,"lon":5.425991,"is_reserved":false,"is_disabled":false,"rental_uris":{"android":"levelo://app?vid=a9a19c6c-0bed-4d1f-a200-55a2f4d3052e","ios":"levelo://app?vid=a9a19c6c-0bed-4d1f-a200-55a2f4d3052e"},"vehicle_type_id":"4","last_reported":1740809553,"current_range_meters":3600,"station_id":"","pricing_plan_id":"cebpf4jnsgd1na2vs0mg"},{"bike_id":"cf15b9ed-3ae0-445f-b715-a55506314317","system_id":"levelo_inurba_marseille","lat":43.27972,"lon":5.38677,"is_reserved":false,"is_disabled":false,"rental_uris":{"android":"levelo://app?vid=cf15b9ed-3ae0-445f-b715-a55506314317","ios":"levelo://app?vid=cf15b9ed-3ae0-445f-b715-a55506314317"},"vehicle_type_id":"4","last_reported":1740809553,"current_range_meters":4000,"station_id":"","pricing_plan_id":"cebpf4jnsgd1na2vs0mg"},{"bike_id":"1f4208fb-928d-4743-80df-73c1f8230d96","system_id":"levelo_inurba_marseille","lat":43.286735,"lon":5.386609,"is_reserved":false,"is_disabled":true,"rental_uris":{"android":"levelo://app?vid=1f4208fb-928d-4743-80df-73c1f8230d96","ios":"levelo://app?vid=1f4208fb-928d-4743-80df-73c1f8230d96"},"vehicle_type_id":"4","last_reported":1740809553,"current_range_meters":4000,"station_id":"ce4bh492rcd13ifvqdug","pricing_plan_id":"cebpf4jnsgd1na2vs0mg"},{"bike_id":"4c3cbff4-8fcd-449f-9462-8524115108b2","system_id":"levelo_inurba_marseille","lat":43.26201,"lon":5.37921,"is_reserved":false,"is_disabled":true,"rental_uris":{"android":"levelo://app?vid=4c3cbff4-8fcd-449f-9462-8524115108b2","ios":"levelo://app?vid=4c3cbff4-8fcd-449f-9462-8524115108b2"},"vehicle_type_id":"4","last_reported":1740809553,"current_range_meters":4000,"station_id":"ce4bhjp2rcd13ifvqg90","pricing_plan_id":"cebpf4jnsgd1na2vs0mg"},{"bike_id":"99f066ad-cc8b-4107-a73f-79785478aaf0","system_id":"levelo_inurba_marseille","lat":43.27061,"lon":5.42286,"is_reserved":false,"is_disabled":false,"rental_uris":{"android":"levelo://app?vid=99f066ad-cc8b-4107-a73f-79785478aaf0","ios":"levelo://app?vid=99f066ad-cc8b-4107-a73f-79785478aaf0"},"vehicle_type_id":"4","last_reported":1740809553,"current_range_meters":4400,"station_id":"ce4bhk92rcd13ifvqgb0","pricing_plan_id":"cebpf4jnsgd1na2vs0mg"},{"bike_id":"2a398520-3240-4d1e-8947-c64008cd4a40","system_id":"levelo_inurba_marseille","lat":43.23978,"lon":5.36627,"is_reserved":false,"is_disabled":false,"rental_uris":{"android":"levelo://app?vid=2a398520-3240-4d1e-8947-c64008cd4a40","ios":"levelo://app?vid=2a398520-3240-4d1e-8947-c64008cd4a40"},"vehicle_type_id":"4","last_reported":1740809553,"current_range_meters":4400,"station_id":"ce4bhi12rcd13ifvqfp0","pricing_plan_id":"cebpf4jnsgd1na2vs0mg"},{"bike_id":"a862b8a7-c72a-4010-b828-4a28cb339708","system_id":"levelo_inurba_marseille","lat":43.30895,"lon":5.39628,"is_reserved":false,"is_disabled":false,"rental_uris":{"android":"levelo://app?vid=a862b8a7-c72a-4010-b828-4a28cb339708","ios":"levelo://app?vid=a862b8a7-c72a-4010-b828-4a28cb339708"},"vehicle_type_id":"4","last_reported":1740809553,"current_range_meters":4800,"station_id":"ce4bh012rcd13ifvqcv0","pricing_plan_id":"cebpf4jnsgd1na2vs0mg"},{"bike_id":"3ce0759e-2098-4910-8ea7-8f696b3f2aad","system_id":"levelo_inurba_marseille","lat":43.28842,"lon":5.35841,"is_reserved":false,"is_disabled":false,"rental_uris":{"android":"levelo://app?vid=3ce0759e-2098-4910-8ea7-8f696b3f2aad","ios":"levelo://app?vid=3ce0759e-2098-4910-8ea7-8f696b3f2aad"},"vehicle_type_id":"4","last_reported":1740809553,"current_range_meters":4800,"station_id":"ce4bhb12rcd13ifvqem0","pricing_plan_id":"cebpf4jnsgd1na2vs0mg"},{"bike_id":"f32ea091-8d65-493c-8fff-13bbf53faa68","system_id":"levelo_inurba_marseille","lat":43.31708,"lon":5.43729,"is_reserved":false,"is_disabled":false,"rental_uris":{"android":"levelo://app?vid=f32ea091-8d65-493c-8fff-13bbf53faa68","ios":"levelo://app?vid=f32ea091-8d65-493c-8fff-13bbf53faa68"},"vehicle_type_id":"4","last_reported":1740809553,"current_range_meters":4800,"station_id":"ce4bhp92rcd13ifvqhcg","pricing_plan_id":"cebpf4jnsgd1na2vs0mg"},{"bike_id":"43c32004-94fe-4598-87ba-734917dbcf43","system_id":"levelo_inurba_marseille","lat":43.29256,"lon":5.3763,"is_reserved":false,"is_disabled":false,"rental_uris":{"android":"levelo://app?vid=43c32004-94fe-4598-87ba-734917dbcf43","ios":"levelo://app?vid=43c32004-94fe-4598-87ba-734917dbcf43"},"vehicle_type_id":"4","last_reported":1740809553,"current_range_meters":4800,"station_id":"ce4bgi12rcd13ifvqb80","pricing_plan_id":"cebpf4jnsgd1na2vs0mg"},{"bike_id":"edc03fdb-98cc-4d78-8a3b-b67763dd39e5","system_id":"levelo_inurba_marseille","lat":43.28431,"lon":5.39197,"is_reserved":false,"is_disabled":false,"rental_uris":{"android":"levelo://app?vid=edc03fdb-98cc-4d78-8a3b-b67763dd39e5","ios":"levelo://app?vid=edc03fdb-98cc-4d78-8a3b-b67763dd39e5"},"vehicle_type_id":"4","last_reported":1740809553,"current_range_meters":4800,"station_id":"ce4bhoh2rcd13ifvqh5g","pricing_plan_id":"cebpf4jnsgd1na2vs0mg"},{"bike_id":"dcff507d-3819-435b-8033-cab0f880c6a6","system_id":"levelo_inurba_marseille","lat":43.26498,"lon":5.39548,"is_reserved":false,"is_disabled":true,"rental_uris":{"android":"levelo://app?vid=dcff507d-3819-435b-8033-cab0f880c6a6","ios":"levelo://app?vid=dcff507d-3819-435b-8033-cab0f880c6a6"},"vehicle_type_id":"4","last_reported":1740809553,"current_range_meters":4800,"station_id":"ce4bhi12rcd13ifvqfq0","pricing_plan_id":"cebpf4jnsgd1na2vs0mg"},{"bike_id":"0da6e0a1-a80c-4bfa-9f42-9441a63191ed","system_id":"levelo_inurba_marseille","lat":43.24777,"lon":5.37452,"is_reserved":false,"is_disabled":false,"rental_uris":{"android":"levelo://app?vid=0da6e0a1-a80c-4bfa-9f42-9441a63191ed","ios":"levelo://app?vid=0da6e0a1-a80c-4bfa-9f42-9441a63191ed"},"vehicle_type_id":"4","last_reported":1740809553,"current_range_meters":5600,"station_id":"ce4bhgh2rcd13ifvqfb0","pricing_plan_id":"cebpf4jnsgd1na2vs0mg"},{"bike_id":"9ffbe43c-ee88-45fe-9103-84b71e3d2b6c","system_id":"levelo_inurba_marseille","lat":43.25,"lon":5.38934,"is_reserved":false,"is_disabled":false,"rental_uris":{"android":"levelo://app?vid=9ffbe43c-ee88-45fe-9103-84b71e3d2b6c","ios":"levelo://app?vid=9ffbe43c-ee88-45fe-9103-84b71e3d2b6c"},"vehicle_type_id":"4","last_reported":1740809553,"current_range_meters":5600,"station_id":"ce4bhgp2rcd13ifvqfd0","pricing_plan_id":"cebpf4jnsgd1na2vs0mg"},{"bike_id":"f9bb54c4-934b-4938-9a6d-c97575b45eeb","system_id":"levelo_inurba_marseille","lat":43.3089,"lon":5.396496,"is_reserved":false,"is_disabled":false,"rental_uris":{"android":"levelo://app?vid=f9bb54c4-934b-4938-9a6d-c97575b45eeb","ios":"levelo://app?vid=f9bb54c4-934b-4938-9a6d-c97575b45eeb"},"vehicle_type_id":"4","last_reported":1740809553,"current_range_meters":6000,"station_id":"ce4bh012rcd13ifvqcv0","pricing_plan_id":"cebpf4jnsgd1na2vs0mg"},{"bike_id":"17ddbbb5-11e9-4dea-8d48-8df35a23e77a","system_id":"levelo_inurba_marseille","lat":43.317588,"lon":5.390134,"is_reserved":false,"is_disabled":false,"rental_uris":{"android":"levelo://app?vid=17ddbbb5-11e9-4dea-8d48-8df35a23e77a","ios":"levelo://app?vid=17ddbbb5-11e9-4dea-8d48-8df35a23e77a"},"vehicle_type_id":"4","last_reported":1740809553,"current_range_meters":6000,"station_id":"ce4bhqp2rcd13ifvqhng","pricing_plan_id":"cebpf4jnsgd1na2vs0mg"},{"bike_id":"0e07936b-b5f4-4ce0-90ff-73c063994f1c","system_id":"levelo_inurba_marseille","lat":43.30474,"lon":5.37246,"is_reserved":false,"is_disabled":false,"rental_uris":{"android":"levelo://app?vid=0e07936b-b5f4-4ce0-90ff-73c063994f1c","ios":"levelo://app?vid=0e07936b-b5f4-4ce0-90ff-73c063994f1c"},"vehicle_type_id":"4","last_reported":1740809553,"current_range_meters":6000,"station_id":"","pricing_plan_id":"cebpf4jnsgd1na2vs0mg"},{"bike_id":"a9f673a7-2c32-438f-ba46-fe5b3b35bc02","system_id":"levelo_inurba_marseille","lat":43.28696,"lon":5.37392,"is_reserved":false,"is_disabled":false,"rental_uris":{"android":"levelo://app?vid=a9f673a7-2c32-438f-ba46-fe5b3b35bc02","ios":"levelo://app?vid=a9f673a7-2c32-438f-ba46-fe5b3b35bc02"},"vehicle_type_id":"4","last_reported":1740809553,"current_range_meters":6000,"station_id":"ce4bh3p2rcd13ifvqdq0","pricing_plan_id":"cebpf4jnsgd1na2vs0mg"},{"bike_id":"19586554-7c18-40a9-b8fb-ec6921d0923c","system_id":"levelo_inurba_marseille","lat":43.303256,"lon":5.404359,"is_reserved":false,"is_disabled":false,"rental_uris":{"android":"levelo://app?vid=19586554-7c18-40a9-b8fb-ec6921d0923c","ios":"levelo://app?vid=19586554-7c18-40a9-b8fb-ec6921d0923c"},"vehicle_type_id":"4","last_reported":1740809553,"current_range_meters":6400,"station_id":"ce4bh012rcd13ifvqd10","pricing_plan_id":"cebpf4jnsgd1na2vs0mg"},{"bike_id":"56bed51d-e692-4c85-bdaa-ba5c0247548c","system_id":"levelo_inurba_marseille","lat":43.25576,"lon":5.38256,"is_reserved":false,"is_disabled":false,"rental_uris":{"android":"levelo://app?vid=56bed51d-e692-4c85-bdaa-ba5c0247548c","ios":"levelo://app?vid=56bed51d-e692-4c85-bdaa-ba5c0247548c"},"vehicle_type_id":"4","last_reported":1740809553,"current_range_meters":6400,"station_id":"ce4bhih2rcd13ifvqfs0","pricing_plan_id":"cebpf4jnsgd1na2vs0mg"},{"bike_id":"a6f9897a-4620-48a9-84b8-2e8058aab062","system_id":"levelo_inurba_marseille","lat":43.295524,"lon":5.422879,"is_reserved":false,"is_disabled":false,"rental_uris":{"android":"levelo://app?vid=a6f9897a-4620-48a9-84b8-2e8058aab062","ios":"levelo://app?vid=a6f9897a-4620-48a9-84b8-2e8058aab062"},"vehicle_type_id":"4","last_reported":1740809553,"current_range_meters":6400,"station_id":"ce4bhph2rcd13ifvqhdg","pricing_plan_id":"cebpf4jnsgd1na2vs0mg"},{"bike_id":"ac7b203d-d8fa-4429-8571-7591c246f7d3","system_id":"levelo_inurba_marseille","lat":43.27802,"lon":5.40743,"is_reserved":false,"is_disabled":false,"rental_uris":{"android":"levelo://app?vid=ac7b203d-d8fa-4429-8571-7591c246f7d3","ios":"levelo://app?vid=ac7b203d-d8fa-4429-8571-7591c246f7d3"},"vehicle_type_id":"4","last_reported":1740809553,"current_range_meters":6400,"station_id":"ce4bhnh2rcd13ifvqgtg","pricing_plan_id":"cebpf4jnsgd1na2vs0mg"},{"bike_id":"710cdcfc-c5a8-42f2-8aec-331a2bd230ab","system_id":"levelo_inurba_marseille","lat":43.26567,"lon":5.37291,"is_reserved":false,"is_disabled":false,"rental_uris":{"android":"levelo://app?vid=710cdcfc-c5a8-42f2-8aec-331a2bd230ab","ios":"levelo://app?vid=710cdcfc-c5a8-42f2-8aec-331a2bd230ab"},"vehicle_type_id":"4","last_reported":1740809553,"current_range_meters":6400,"station_id":"ce4bhg12rcd13ifvqf70","pricing_plan_id":"cebpf4jnsgd1na2vs0mg"},{"bike_id":"121f184f-90a0-4e66-9d33-06a22d0922f3","system_id":"levelo_inurba_marseille","lat":43.24154,"lon":5.36414,"is_reserved":false,"is_disabled":false,"rental_uris":{"android":"levelo://app?vid=121f184f-90a0-4e66-9d33-06a22d0922f3","ios":"levelo://app?vid=121f184f-90a0-4e66-9d33-06a22d0922f3"},"vehicle_type_id":"4","last_reported":1740809553,"current_range_meters":6400,"station_id":"cpo36qri1sfpv3e86is0","pricing_plan_id":"cebpf4jnsgd1na2vs0mg"},{"bike_id":"5f6af30d-6f9d-422c-8fa1-e9658f8b1b82","system_id":"levelo_inurba_marseille","lat":43.2439,"lon":5.37052,"is_reserved":false,"is_disabled":false,"rental_uris":{"android":"levelo://app?vid=5f6af30d-6f9d-422c-8fa1-e9658f8b1b82","ios":"levelo://app?vid=5f6af30d-6f9d-422c-8fa1-e9658f8b1b82"},"vehicle_type_id":"4","last_reported":1740809553,"current_range_meters":6400,"station_id":"ce4bhhh2rcd13ifvqfk0","pricing_plan_id":"cebpf4jnsgd1na2vs0mg"},{"bike_id":"49e0a034-277f-4658-83cf-83e39377ef50","system_id":"levelo_inurba_marseille","lat":43.29506,"lon":5.3794,"is_reserved":false,"is_disabled":false,"rental_uris":{"android":"levelo://app?vid=49e0a034-277f-4658-83cf-83e39377ef50","ios":"levelo://app?vid=49e0a034-277f-4658-83cf-83e39377ef50"},"vehicle_type_id":"4","last_reported":1740809553,"current_range_meters":6400,"station_id":"","pricing_plan_id":"cebpf4jnsgd1na2vs0mg"},{"bike_id":"9753fb54-7bac-4c39-b532-b7089220649f","system_id":"levelo_inurba_marseille","lat":43.3108,"lon":5.42434,"is_reserved":false,"is_disabled":false,"rental_uris":{"android":"levelo://app?vid=9753fb54-7bac-4c39-b532-b7089220649f","ios":"levelo://app?vid=9753fb54-7bac-4c39-b532-b7089220649f"},"vehicle_type_id":"4","last_reported":1740809553,"current_range_meters":6400,"station_id":"ce4bhp92rcd13ifvqhag","pricing_plan_id":"cebpf4jnsgd1na2vs0mg"},{"bike_id":"f26c35c1-6d74-4839-8620-0ecaba4ac374","system_id":"levelo_inurba_marseille","lat":43.25016,"lon":5.38918,"is_reserved":false,"is_disabled":false,"rental_uris":{"android":"levelo://app?vid=f26c35c1-6d74-4839-8620-0ecaba4ac374","ios":"levelo://app?vid=f26c35c1-6d74-4839-8620-0ecaba4ac374"},"vehicle_type_id":"4","last_reported":1740809553,"current_range_meters":6400,"station_id":"ce4bhgp2rcd13ifvqfd0","pricing_plan_id":"cebpf4jnsgd1na2vs0mg"},{"bike_id":"67ce8cfb-6f6b-425f-bc83-c1ca88627e6b","system_id":"levelo_inurba_marseille","lat":43.2926,"lon":5.37644,"is_reserved":false,"is_disabled":false,"rental_uris":{"android":"levelo://app?vid=67ce8cfb-6f6b-425f-bc83-c1ca88627e6b","ios":"levelo://app?vid=67ce8cfb-6f6b-425f-bc83-c1ca88627e6b"},"vehicle_type_id":"4","last_reported":1740809553,"current_range_meters":6400,"station_id":"ce4bgi12rcd13ifvqb80","pricing_plan_id":"cebpf4jnsgd1na2vs0mg"},{"bike_id":"12723157-57f6-4977-9a16-69ade99e1e5a","system_id":"levelo_inurba_marseille","lat":43.336,"lon":5.41028,"is_reserved":false,"is_disabled":false,"rental_uris":{"android":"levelo://app?vid=12723157-57f6-4977-9a16-69ade99e1e5a","ios":"levelo://app?vid=12723157-57f6-4977-9a16-69ade99e1e5a"},"vehicle_type_id":"4","last_reported":1740809553,"current_range_meters":6400,"station_id":"ce4bhqh2rcd13ifvqhmg","pricing_plan_id":"cebpf4jnsgd1na2vs0mg"},{"bike_id":"d5fe6033-36b1-4cb3-b866-43f3ede09634","system_id":"levelo_inurba_marseille","lat":43.28714,"lon":5.39963,"is_reserved":false,"is_disabled":false,"rental_uris":{"android":"levelo://app?vid=d5fe6033-36b1-4cb3-b866-43f3ede09634","ios":"levelo://app?vid=d5fe6033-36b1-4cb3-b866-43f3ede09634"},"vehicle_type_id":"4","last_reported":1740809553,"current_range_meters":6400,"station_id":"ce4bho92rcd13ifvqh3g","pricing_plan_id":"cebpf4jnsgd1na2vs0mg"},{"bike_id":"bbf1c499-6f0f-476f-917e-153d5525548b","system_id":"levelo_inurba_marseille","lat":43.28828,"lon":5.35832,"is_reserved":false,"is_disabled":false,"rental_uris":{"android":"levelo://app?vid=bbf1c499-6f0f-476f-917e-153d5525548b","ios":"levelo://app?vid=bbf1c499-6f0f-476f-917e-153d5525548b"},"vehicle_type_id":"4","last_reported":1740809553,"current_range_meters":6400,"station_id":"ce4bhb12rcd13ifvqem0","pricing_plan_id":"cebpf4jnsgd1na2vs0mg"},{"bike_id":"acdc8b02-f703-4dec-886d-cf203c0b1b29","system_id":"levelo_inurba_marseille","lat":43.28398,"lon":5.37515,"is_reserved":false,"is_disabled":false,"rental_uris":{"android":"levelo://app?vid=acdc8b02-f703-4dec-886d-cf203c0b1b29","ios":"levelo://app?vid=acdc8b02-f703-4dec-886d-cf203c0b1b29"},"vehicle_type_id":"4","last_reported":1740809553,"current_range_meters":6800,"station_id":"ce4bh412rcd13ifvqds0","pricing_plan_id":"cebpf4jnsgd1na2vs0mg"},{"bike_id":"ad63f7de-e082-486a-986c-5f0cb3c10b35","system_id":"levelo_inurba_marseille","lat":43.23956,"lon":5.36629,"is_reserved":false,"is_disabled":false,"rental_uris":{"android":"levelo://app?vid=ad63f7de-e082-486a-986c-5f0cb3c10b35","ios":"levelo://app?vid=ad63f7de-e082-486a-986c-5f0cb3c10b35"},"vehicle_type_id":"4","last_reported":1740809553,"current_range_meters":6800,"station_id":"ce4bhi12rcd13ifvqfp0","pricing_plan_id":"cebpf4jnsgd1na2vs0mg"},{"bike_id":"7d6b2d46-7002-45ce-ba03-574510292fd0","system_id":"levelo_inurba_marseille","lat":43.26693,"lon":5.38275,"is_reserved":false,"is_disabled":false,"rental_uris":{"android":"levelo://app?vid=7d6b2d46-7002-45ce-ba03-574510292fd0","ios":"levelo://app?vid=7d6b2d46-7002-45ce-ba03-574510292fd0"},"vehicle_type_id":"4","last_reported":1740809553,"current_range_meters":6800,"station_id":"ce4bhg92rcd13ifvqf90","pricing_plan_id":"cebpf4jnsgd1na2vs0mg"},{"bike_id":"6cca77dd-0649-4eab-bb46-e9401cfc1881","system_id":"levelo_inurba_marseille","lat":43.308918,"lon":5.396395,"is_reserved":false,"is_disabled":false,"rental_uris":{"android":"levelo://app?vid=6cca77dd-0649-4eab-bb46-e9401cfc1881","ios":"levelo://app?vid=6cca77dd-0649-4eab-bb46-e9401cfc1881"},"vehicle_type_id":"4","last_reported":1740809553,"current_range_meters":6800,"station_id":"ce4bh012rcd13ifvqcv0","pricing_plan_id":"cebpf4jnsgd1na2vs0mg"},{"bike_id":"c8a651e6-531a-46ab-a6dc-31bbee135b70","system_id":"levelo_inurba_marseille","lat":43.25125,"lon":5.40326,"is_reserved":false,"is_disabled":false,"rental_uris":{"android":"levelo://app?vid=c8a651e6-531a-46ab-a6dc-31bbee135b70","ios":"levelo://app?vid=c8a651e6-531a-46ab-a6dc-31bbee135b70"},"vehicle_type_id":"4","last_reported":1740809553,"current_range_meters":6800,"station_id":"ce4bhlh2rcd13ifvqgig","pricing_plan_id":"cebpf4jnsgd1na2vs0mg"},{"bike_id":"d519b08d-94d7-4fff-b241-bdf2c5252d9b","system_id":"levelo_inurba_marseille","lat":43.28842,"lon":5.35856,"is_reserved":false,"is_disabled":false,"rental_uris":{"android":"levelo://app?vid=d519b08d-94d7-4fff-b241-bdf2c5252d9b","ios":"levelo://app?vid=d519b08d-94d7-4fff-b241-bdf2c5252d9b"},"vehicle_type_id":"4","last_reported":1740809553,"current_range_meters":6800,"station_id":"ce4bhb12rcd13ifvqem0","pricing_plan_id":"cebpf4jnsgd1na2vs0mg"},{"bike_id":"e6819427-071a-40a5-897a-847d6e41c658","system_id":"levelo_inurba_marseille","lat":43.2784,"lon":5.3921,"is_reserved":false,"is_disabled":false,"rental_uris":{"android":"levelo://app?vid=e6819427-071a-40a5-897a-847d6e41c658","ios":"levelo://app?vid=e6819427-071a-40a5-897a-847d6e41c658"},"vehicle_type_id":"4","last_reported":1740809553,"current_range_meters":6800,"station_id":"ce4bhjp2rcd13ifvqga0","pricing_plan_id":"cebpf4jnsgd1na2vs0mg"},{"bike_id":"be99602a-a631-49ac-9994-bada14a93daf","system_id":"levelo_inurba_marseille","lat":43.247369,"lon":5.41177,"is_reserved":false,"is_disabled":false,"rental_uris":{"android":"levelo://app?vid=be99602a-a631-49ac-9994-bada14a93daf","ios":"levelo://app?vid=be99602a-a631-49ac-9994-bada14a93daf"},"vehicle_type_id":"4","last_reported":1740809553,"current_range_meters":6800,"station_id":"","pricing_plan_id":"cebpf4jnsgd1na2vs0mg"},{"bike_id":"f5527591-8017-4310-bd2a-712d9017ed61","system_id":"levelo_inurba_marseille","lat":43.2997,"lon":5.41308,"is_reserved":false,"is_disabled":false,"rental_uris":{"android":"levelo://app?vid=f5527591-8017-4310-bd2a-712d9017ed61","ios":"levelo://app?vid=f5527591-8017-4310-bd2a-712d9017ed61"},"vehicle_type_id":"4","last_reported":1740809553,"current_range_meters":6800,"station_id":"ce4bhp12rcd13ifvqh9g","pricing_plan_id":"cebpf4jnsgd1na2vs0mg"},{"bike_id":"6aa99e2d-0f3e-4607-b66f-2fc00ffce629","system_id":"levelo_inurba_marseille","lat":43.29177,"lon":5.37137,"is_reserved":false,"is_disabled":true,"rental_uris":{"android":"levelo://app?vid=6aa99e2d-0f3e-4607-b66f-2fc00ffce629","ios":"levelo://app?vid=6aa99e2d-0f3e-4607-b66f-2fc00ffce629"},"vehicle_type_id":"4","last_reported":1740809553,"current_range_meters":6800,"station_id":"ce4bha92rcd13ifvqeh0","pricing_plan_id":"cebpf4jnsgd1na2vs0mg"},{"bike_id":"3de9aeda-1f9a-4bbc-8b90-e02a49e56ca9","system_id":"levelo_inurba_marseille","lat":43.23189,"lon":5.35554,"is_reserved":false,"is_disabled":false,"rental_uris":{"android":"levelo://app?vid=3de9aeda-1f9a-4bbc-8b90-e02a49e56ca9","ios":"levelo://app?vid=3de9aeda-1f9a-4bbc-8b90-e02a49e56ca9"},"vehicle_type_id":"4","last_reported":1740809553,"current_range_meters":6800,"station_id":"ce4bhu92rcd13ifvqi70","pricing_plan_id":"cebpf4jnsgd1na2vs0mg"},{"bike_id":"aeab635a-5693-4577-887f-2289dcee963c","system_id":"levelo_inurba_marseille","lat":43.27991,"lon":5.41663,"is_reserved":false,"is_disabled":false,"rental_uris":{"android":"levelo://app?vid=aeab635a-5693-4577-887f-2289dcee963c","ios":"levelo://app?vid=aeab635a-5693-4577-887f-2289dcee963c"},"vehicle_type_id":"4","last_reported":1740809553,"current_range_meters":6800,"station_id":"ce4bho12rcd13ifvqh1g","pricing_plan_id":"cebpf4jnsgd1na2vs0mg"},{"bike_id":"bcb3dd3d-4bbe-4a55-8cc6-0ab0579bcdbe","system_id":"levelo_inurba_marseille","lat":43.31707,"lon":5.377598,"is_reserved":false,"is_disabled":false,"rental_uris":{"android":"levelo://app?vid=bcb3dd3d-4bbe-4a55-8cc6-0ab0579bcdbe","ios":"levelo://app?vid=bcb3dd3d-4bbe-4a55-8cc6-0ab0579bcdbe"},"vehicle_type_id":"4","last_reported":1740809553,"current_range_meters":6800,"station_id":"ce4bgth2rcd13ifvqch0","pricing_plan_id":"cebpf4jnsgd1na2vs0mg"},{"bike_id":"6efb4250-e3c1-46c3-9109-1ea5b16d7c43","system_id":"levelo_inurba_marseille","lat":43.3112,"lon":5.37784,"is_reserved":false,"is_disabled":true,"rental_uris":{"android":"levelo://app?vid=6efb4250-e3c1-46c3-9109-1ea5b16d7c43","ios":"levelo://app?vid=6efb4250-e3c1-46c3-9109-1ea5b16d7c43"},"vehicle_type_id":"4","last_reported":1740809553,"current_range_meters":7200,"station_id":"ce4bgt92rcd13ifvqcg0","pricing_plan_id":"cebpf4jnsgd1na2vs0mg"},{"bike_id":"b8aa61af-0144-4b73-bf44-1bf8a0a7d324","system_id":"levelo_inurba_marseille","lat":43.25577,"lon":5.38275,"is_reserved":false,"is_disabled":false,"rental_uris":{"android":"levelo://app?vid=b8aa61af-0144-4b73-bf44-1bf8a0a7d324","ios":"levelo://app?vid=b8aa61af-0144-4b73-bf44-1bf8a0a7d324"},"vehicle_type_id":"4","last_reported":1740809553,"current_range_meters":7200,"station_id":"ce4bhih2rcd13ifvqfs0","pricing_plan_id":"cebpf4jnsgd1na2vs0mg"},{"bike_id":"c9317d0e-80b9-4a1e-8311-5334bcdf8282","system_id":"levelo_inurba_marseille","lat":43.29371,"lon":5.37843,"is_reserved":false,"is_disabled":false,"rental_uris":{"android":"levelo://app?vid=c9317d0e-80b9-4a1e-8311-5334bcdf8282","ios":"levelo://app?vid=c9317d0e-80b9-4a1e-8311-5334bcdf8282"},"vehicle_type_id":"4","last_reported":1740809553,"current_range_meters":6800,"station_id":"ce4bgjh2rcd13ifvqbf0","pricing_plan_id":"cebpf4jnsgd1na2vs0mg"},{"bike_id":"76f58418-e874-40a6-93b4-71b42e91febb","system_id":"levelo_inurba_marseille","lat":43.28406,"lon":5.3751,"is_reserved":false,"is_disabled":false,"rental_uris":{"android":"levelo://app?vid=76f58418-e874-40a6-93b4-71b42e91febb","ios":"levelo://app?vid=76f58418-e874-40a6-93b4-71b42e91febb"},"vehicle_type_id":"4","last_reported":1740809553,"current_range_meters":7200,"station_id":"ce4bh412rcd13ifvqds0","pricing_plan_id":"cebpf4jnsgd1na2vs0mg"},{"bike_id":"39013304-0746-4299-95ee-cb7ba5cb8ec0","system_id":"levelo_inurba_marseille","lat":43.30879,"lon":5.39654,"is_reserved":false,"is_disabled":false,"rental_uris":{"android":"levelo://app?vid=39013304-0746-4299-95ee-cb7ba5cb8ec0","ios":"levelo://app?vid=39013304-0746-4299-95ee-cb7ba5cb8ec0"},"vehicle_type_id":"4","last_reported":1740809553,"current_range_meters":7200,"station_id":"ce4bh012rcd13ifvqcv0","pricing_plan_id":"cebpf4jnsgd1na2vs0mg"},{"bike_id":"5327f625-0311-4e62-a895-ceadc4ce1f5f","system_id":"levelo_inurba_marseille","lat":43.27077,"lon":5.4231,"is_reserved":false,"is_disabled":false,"rental_uris":{"android":"levelo://app?vid=5327f625-0311-4e62-a895-ceadc4ce1f5f","ios":"levelo://app?vid=5327f625-0311-4e62-a895-ceadc4ce1f5f"},"vehicle_type_id":"4","last_reported":1740809553,"current_range_meters":7200,"station_id":"ce4bhk92rcd13ifvqgb0","pricing_plan_id":"cebpf4jnsgd1na2vs0mg"},{"bike_id":"55c7eff2-f386-41b7-bd52-126b52a90629","system_id":"levelo_inurba_marseille","lat":43.27492,"lon":5.43486,"is_reserved":false,"is_disabled":false,"rental_uris":{"android":"levelo://app?vid=55c7eff2-f386-41b7-bd52-126b52a90629","ios":"levelo://app?vid=55c7eff2-f386-41b7-bd52-126b52a90629"},"vehicle_type_id":"4","last_reported":1740809553,"current_range_meters":7200,"station_id":"","pricing_plan_id":"cebpf4jnsgd1na2vs0mg"},{"bike_id":"0379c410-1078-419a-9615-da38ebd92fe1","system_id":"levelo_inurba_marseille","lat":43.27465,"lon":5.43547,"is_reserved":false,"is_disabled":false,"rental_uris":{"android":"levelo://app?vid=0379c410-1078-419a-9615-da38ebd92fe1","ios":"levelo://app?vid=0379c410-1078-419a-9615-da38ebd92fe1"},"vehicle_type_id":"4","last_reported":1740809553,"current_range_meters":7200,"station_id":"","pricing_plan_id":"cebpf4jnsgd1na2vs0mg"},{"bike_id":"446d45a3-fd79-446d-8d83-629477ddabe7","system_id":"levelo_inurba_marseille","lat":43.3087,"lon":5.3967,"is_reserved":false,"is_disabled":false,"rental_uris":{"android":"levelo://app?vid=446d45a3-fd79-446d-8d83-629477ddabe7","ios":"levelo://app?vid=446d45a3-fd79-446d-8d83-629477ddabe7"},"vehicle_type_id":"4","last_reported":1740809553,"current_range_meters":7200,"station_id":"ce4bh012rcd13ifvqcv0","pricing_plan_id":"cebpf4jnsgd1na2vs0mg"},{"bike_id":"d5e9c747-626b-44d9-82d5-7a9ca7bcecfe","system_id":"levelo_inurba_marseille","lat":43.287226,"lon":5.36082,"is_reserved":false,"is_disabled":false,"rental_uris":{"android":"levelo://app?vid=d5e9c747-626b-44d9-82d5-7a9ca7bcecfe","ios":"levelo://app?vid=d5e9c747-626b-44d9-82d5-7a9ca7bcecfe"},"vehicle_type_id":"4","last_reported":1740809553,"current_range_meters":7200,"station_id":"cki0cbj6b192h4jlfktg","pricing_plan_id":"cebpf4jnsgd1na2vs0mg"},{"bike_id":"ff6232bd-bedd-48c4-b562-1193456ded22","system_id":"levelo_inurba_marseille","lat":43.25067,"lon":5.39576,"is_reserved":false,"is_disabled":false,"rental_uris":{"android":"levelo://app?vid=ff6232bd-bedd-48c4-b562-1193456ded22","ios":"levelo://app?vid=ff6232bd-bedd-48c4-b562-1193456ded22"},"vehicle_type_id":"4","last_reported":1740809553,"current_range_meters":7200,"station_id":"","pricing_plan_id":"cebpf4jnsgd1na2vs0mg"},{"bike_id":"5ee1f48f-f51e-4898-a543-a706308961e7","system_id":"levelo_inurba_marseille","lat":43.30113,"lon":5.39896,"is_reserved":false,"is_disabled":false,"rental_uris":{"android":"levelo://app?vid=5ee1f48f-f51e-4898-a543-a706308961e7","ios":"levelo://app?vid=5ee1f48f-f51e-4898-a543-a706308961e7"},"vehicle_type_id":"4","last_reported":1740809553,"current_range_meters":7200,"station_id":"ce4bh0h2rcd13ifvqd40","pricing_plan_id":"cebpf4jnsgd1na2vs0mg"},{"bike_id":"ca140ed1-8e15-46fb-ab05-e9783e7a9a62","system_id":"levelo_inurba_marseille","lat":43.323384,"lon":5.406166,"is_reserved":false,"is_disabled":false,"rental_uris":{"android":"levelo://app?vid=ca140ed1-8e15-46fb-ab05-e9783e7a9a62","ios":"levelo://app?vid=ca140ed1-8e15-46fb-ab05-e9783e7a9a62"},"vehicle_type_id":"4","last_reported":1740809553,"current_range_meters":7200,"station_id":"ce4bhq92rcd13ifvqhjg","pricing_plan_id":"cebpf4jnsgd1na2vs0mg"},{"bike_id":"9eb62bd7-0fdc-491b-9eef-be0a9f73fbfb","system_id":"levelo_inurba_marseille","lat":43.2417,"lon":5.36402,"is_reserved":false,"is_disabled":false,"rental_uris":{"android":"levelo://app?vid=9eb62bd7-0fdc-491b-9eef-be0a9f73fbfb","ios":"levelo://app?vid=9eb62bd7-0fdc-491b-9eef-be0a9f73fbfb"},"vehicle_type_id":"4","last_reported":1740809553,"current_range_meters":8000,"station_id":"cpo36qri1sfpv3e86is0","pricing_plan_id":"cebpf4jnsgd1na2vs0mg"},{"bike_id":"c09cbd28-78a8-432b-b6e1-b18843612f17","system_id":"levelo_inurba_marseille","lat":43.312699,"lon":5.401637,"is_reserved":false,"is_disabled":false,"rental_uris":{"android":"levelo://app?vid=c09cbd28-78a8-432b-b6e1-b18843612f17","ios":"levelo://app?vid=c09cbd28-78a8-432b-b6e1-b18843612f17"},"vehicle_type_id":"4","last_reported":1740809553,"current_range_meters":8000,"station_id":"ce4bh092rcd13ifvqd30","pricing_plan_id":"cebpf4jnsgd1na2vs0mg"},{"bike_id":"d4918d6a-5525-4be8-b0c4-7af64b54343d","system_id":"levelo_inurba_marseille","lat":43.2417,"lon":5.36402,"is_reserved":false,"is_disabled":false,"rental_uris":{"android":"levelo://app?vid=d4918d6a-5525-4be8-b0c4-7af64b54343d","ios":"levelo://app?vid=d4918d6a-5525-4be8-b0c4-7af64b54343d"},"vehicle_type_id":"4","last_reported":1740809553,"current_range_meters":8000,"station_id":"cpo36qri1sfpv3e86is0","pricing_plan_id":"cebpf4jnsgd1na2vs0mg"},{"bike_id":"a1866f5d-c65f-4013-a887-862db84a5c62","system_id":"levelo_inurba_marseille","lat":43.26686,"lon":5.38263,"is_reserved":false,"is_disabled":false,"rental_uris":{"android":"levelo://app?vid=a1866f5d-c65f-4013-a887-862db84a5c62","ios":"levelo://app?vid=a1866f5d-c65f-4013-a887-862db84a5c62"},"vehicle_type_id":"4","last_reported":1740809553,"current_range_meters":8000,"station_id":"ce4bhg92rcd13ifvqf90","pricing_plan_id":"cebpf4jnsgd1na2vs0mg"},{"bike_id":"0545a3ed-9573-4a6f-8706-86504e833891","system_id":"levelo_inurba_marseille","lat":43.28023,"lon":5.37025,"is_reserved":false,"is_disabled":false,"rental_uris":{"android":"levelo://app?vid=0545a3ed-9573-4a6f-8706-86504e833891","ios":"levelo://app?vid=0545a3ed-9573-4a6f-8706-86504e833891"},"vehicle_type_id":"4","last_reported":1740809553,"current_range_meters":8000,"station_id":"ce4bha12rcd13ifvqef0","pricing_plan_id":"cebpf4jnsgd1na2vs0mg"},{"bike_id":"9e00dd7b-1a86-4a90-a9d3-1f52c50c0d82","system_id":"levelo_inurba_marseille","lat":43.28431,"lon":5.39196,"is_reserved":false,"is_disabled":false,"rental_uris":{"android":"levelo://app?vid=9e00dd7b-1a86-4a90-a9d3-1f52c50c0d82","ios":"levelo://app?vid=9e00dd7b-1a86-4a90-a9d3-1f52c50c0d82"},"vehicle_type_id":"4","last_reported":1740809553,"current_range_meters":8000,"station_id":"ce4bhoh2rcd13ifvqh5g","pricing_plan_id":"cebpf4jnsgd1na2vs0mg"},{"bike_id":"bf49345e-decc-45e3-8679-380d5b87f909","system_id":"levelo_inurba_marseille","lat":43.265326,"lon":5.372907,"is_reserved":false,"is_disabled":true,"rental_uris":{"android":"levelo://app?vid=bf49345e-decc-45e3-8679-380d5b87f909","ios":"levelo://app?vid=bf49345e-decc-45e3-8679-380d5b87f909"},"vehicle_type_id":"4","last_reported":1740809553,"current_range_meters":8000,"station_id":"ce4bhg12rcd13ifvqf70","pricing_plan_id":"cebpf4jnsgd1na2vs0mg"},{"bike_id":"620ba232-2d97-4cfe-bdaf-3a50962fd2de","system_id":"levelo_inurba_marseille","lat":43.27827,"lon":5.40728,"is_reserved":false,"is_disabled":false,"rental_uris":{"android":"levelo://app?vid=620ba232-2d97-4cfe-bdaf-3a50962fd2de","ios":"levelo://app?vid=620ba232-2d97-4cfe-bdaf-3a50962fd2de"},"vehicle_type_id":"4","last_reported":1740809553,"current_range_meters":8000,"station_id":"ce4bhnh2rcd13ifvqgtg","pricing_plan_id":"cebpf4jnsgd1na2vs0mg"},{"bike_id":"c340135b-1332-41cc-a788-80cee236fdb2","system_id":"levelo_inurba_marseille","lat":43.28611,"lon":5.37067,"is_reserved":false,"is_disabled":false,"rental_uris":{"android":"levelo://app?vid=c340135b-1332-41cc-a788-80cee236fdb2","ios":"levelo://app?vid=c340135b-1332-41cc-a788-80cee236fdb2"},"vehicle_type_id":"4","last_reported":1740809553,"current_range_meters":8000,"station_id":"ce4bht12rcd13ifvqi60","pricing_plan_id":"cebpf4jnsgd1na2vs0mg"},{"bike_id":"d5933a5b-c3d3-40e7-89a2-30f36d0c6ab5","system_id":"levelo_inurba_marseille","lat":43.28463,"lon":5.35881,"is_reserved":false,"is_disabled":false,"rental_uris":{"android":"levelo://app?vid=d5933a5b-c3d3-40e7-89a2-30f36d0c6ab5","ios":"levelo://app?vid=d5933a5b-c3d3-40e7-89a2-30f36d0c6ab5"},"vehicle_type_id":"4","last_reported":1740809553,"current_range_meters":8000,"station_id":"ce4bhah2rcd13ifvqei0","pricing_plan_id":"cebpf4jnsgd1na2vs0mg"},{"bike_id":"25bd4e2e-2167-4e7e-abf4-6f51f36287cf","system_id":"levelo_inurba_marseille","lat":43.30934,"lon":5.40127,"is_reserved":false,"is_disabled":false,"rental_uris":{"android":"levelo://app?vid=25bd4e2e-2167-4e7e-abf4-6f51f36287cf","ios":"levelo://app?vid=25bd4e2e-2167-4e7e-abf4-6f51f36287cf"},"vehicle_type_id":"4","last_reported":1740809553,"current_range_meters":8000,"station_id":"ce4bgvp2rcd13ifvqct0","pricing_plan_id":"cebpf4jnsgd1na2vs0mg"},{"bike_id":"0e15b3af-18e3-47bf-b11e-f11b559cbb76","system_id":"levelo_inurba_marseille","lat":43.25305,"lon":5.39263,"is_reserved":false,"is_disabled":false,"rental_uris":{"android":"levelo://app?vid=0e15b3af-18e3-47bf-b11e-f11b559cbb76","ios":"levelo://app?vid=0e15b3af-18e3-47bf-b11e-f11b559cbb76"},"vehicle_type_id":"4","last_reported":1740809553,"current_range_meters":8000,"station_id":"","pricing_plan_id":"cebpf4jnsgd1na2vs0mg"},{"bike_id":"53b23b24-07e8-4870-8ab7-c63d39038125","system_id":"levelo_inurba_marseille","lat":43.294176,"lon":5.386104,"is_reserved":false,"is_disabled":true,"rental_uris":{"android":"levelo://app?vid=53b23b24-07e8-4870-8ab7-c63d39038125","ios":"levelo://app?vid=53b23b24-07e8-4870-8ab7-c63d39038125"},"vehicle_type_id":"4","last_reported":1740809553,"current_range_meters":8000,"station_id":"ce4bh2h2rcd13ifvqdh0","pricing_plan_id":"cebpf4jnsgd1na2vs0mg"},{"bike_id":"9458a132-a20d-4812-9334-707d5e3ec62b","system_id":"levelo_inurba_marseille","lat":43.28455,"lon":5.35899,"is_reserved":false,"is_disabled":false,"rental_uris":{"android":"levelo://app?vid=9458a132-a20d-4812-9334-707d5e3ec62b","ios":"levelo://app?vid=9458a132-a20d-4812-9334-707d5e3ec62b"},"vehicle_type_id":"4","last_reported":1740809553,"current_range_meters":8000,"station_id":"ce4bhah2rcd13ifvqei0","pricing_plan_id":"cebpf4jnsgd1na2vs0mg"},{"bike_id":"d653e336-1cf9-47f2-9441-15e65abb981a","system_id":"levelo_inurba_marseille","lat":43.27408,"lon":5.41476,"is_reserved":false,"is_disabled":false,"rental_uris":{"android":"levelo://app?vid=d653e336-1cf9-47f2-9441-15e65abb981a","ios":"levelo://app?vid=d653e336-1cf9-47f2-9441-15e65abb981a"},"vehicle_type_id":"4","last_reported":1740809553,"current_range_meters":8000,"station_id":"","pricing_plan_id":"cebpf4jnsgd1na2vs0mg"},{"bike_id":"d450afcf-676c-402c-8f2f-edc15cb61862","system_id":"levelo_inurba_marseille","lat":43.248033,"lon":5.374584,"is_reserved":false,"is_disabled":false,"rental_uris":{"android":"levelo://app?vid=d450afcf-676c-402c-8f2f-edc15cb61862","ios":"levelo://app?vid=d450afcf-676c-402c-8f2f-edc15cb61862"},"vehicle_type_id":"4","last_reported":1740809553,"current_range_meters":8000,"station_id":"ce4bhgh2rcd13ifvqfb0","pricing_plan_id":"cebpf4jnsgd1na2vs0mg"},{"bike_id":"abb4df5e-f3b6-49f0-9956-aa5abcc3ede9","system_id":"levelo_inurba_marseille","lat":43.23194,"lon":5.35549,"is_reserved":false,"is_disabled":false,"rental_uris":{"android":"levelo://app?vid=abb4df5e-f3b6-49f0-9956-aa5abcc3ede9","ios":"levelo://app?vid=abb4df5e-f3b6-49f0-9956-aa5abcc3ede9"},"vehicle_type_id":"4","last_reported":1740809553,"current_range_meters":8400,"station_id":"ce4bhu92rcd13ifvqi70","pricing_plan_id":"cebpf4jnsgd1na2vs0mg"},{"bike_id":"44a9b49b-687c-42ec-b31a-1a2a7b71f3f8","system_id":"levelo_inurba_marseille","lat":43.23182,"lon":5.40006,"is_reserved":false,"is_disabled":false,"rental_uris":{"android":"levelo://app?vid=44a9b49b-687c-42ec-b31a-1a2a7b71f3f8","ios":"levelo://app?vid=44a9b49b-687c-42ec-b31a-1a2a7b71f3f8"},"vehicle_type_id":"4","last_reported":1740809553,"current_range_meters":8400,"station_id":"ce4bhn12rcd13ifvqgqg","pricing_plan_id":"cebpf4jnsgd1na2vs0mg"},{"bike_id":"73b59bd6-240d-4f85-92a3-b23b3e6d114c","system_id":"levelo_inurba_marseille","lat":43.31728,"lon":5.42402,"is_reserved":false,"is_disabled":false,"rental_uris":{"android":"levelo://app?vid=73b59bd6-240d-4f85-92a3-b23b3e6d114c","ios":"levelo://app?vid=73b59bd6-240d-4f85-92a3-b23b3e6d114c"},"vehicle_type_id":"4","last_reported":1740809553,"current_range_meters":8400,"station_id":"ce4bhp92rcd13ifvqhbg","pricing_plan_id":"cebpf4jnsgd1na2vs0mg"},{"bike_id":"749fee80-dfaa-43de-aa58-d21bbf5e0792","system_id":"levelo_inurba_marseille","lat":43.23184,"lon":5.39991,"is_reserved":false,"is_disabled":false,"rental_uris":{"android":"levelo://app?vid=749fee80-dfaa-43de-aa58-d21bbf5e0792","ios":"levelo://app?vid=749fee80-dfaa-43de-aa58-d21bbf5e0792"},"vehicle_type_id":"4","last_reported":1740809553,"current_range_meters":8400,"station_id":"ce4bhn12rcd13ifvqgqg","pricing_plan_id":"cebpf4jnsgd1na2vs0mg"},{"bike_id":"78c63142-0a35-4210-919d-bda5508e7b77","system_id":"levelo_inurba_marseille","lat":43.28702,"lon":5.3999,"is_reserved":false,"is_disabled":false,"rental_uris":{"android":"levelo://app?vid=78c63142-0a35-4210-919d-bda5508e7b77","ios":"levelo://app?vid=78c63142-0a35-4210-919d-bda5508e7b77"},"vehicle_type_id":"4","last_reported":1740809553,"current_range_meters":8400,"station_id":"ce4bho92rcd13ifvqh3g","pricing_plan_id":"cebpf4jnsgd1na2vs0mg"},{"bike_id":"c8f101ad-3299-4103-b362-e3fae3ea96b1","system_id":"levelo_inurba_marseille","lat":43.28076,"lon":5.39662,"is_reserved":false,"is_disabled":false,"rental_uris":{"android":"levelo://app?vid=c8f101ad-3299-4103-b362-e3fae3ea96b1","ios":"levelo://app?vid=c8f101ad-3299-4103-b362-e3fae3ea96b1"},"vehicle_type_id":"4","last_reported":1740809553,"current_range_meters":8400,"station_id":"ce4bho12rcd13ifvqh2g","pricing_plan_id":"cebpf4jnsgd1na2vs0mg"},{"bike_id":"e3d9f3b4-6102-42d0-aae6-807a0c7fec16","system_id":"levelo_inurba_marseille","lat":43.30937,"lon":5.40132,"is_reserved":false,"is_disabled":false,"rental_uris":{"android":"levelo://app?vid=e3d9f3b4-6102-42d0-aae6-807a0c7fec16","ios":"levelo://app?vid=e3d9f3b4-6102-42d0-aae6-807a0c7fec16"},"vehicle_type_id":"4","last_reported":1740809553,"current_range_meters":8400,"station_id":"ce4bgvp2rcd13ifvqct0","pricing_plan_id":"cebpf4jnsgd1na2vs0mg"},{"bike_id":"b374d9dc-b81c-42d7-b33f-038a885e17e6","system_id":"levelo_inurba_marseille","lat":43.319798,"lon":5.387354,"is_reserved":false,"is_disabled":false,"rental_uris":{"android":"levelo://app?vid=b374d9dc-b81c-42d7-b33f-038a885e17e6","ios":"levelo://app?vid=b374d9dc-b81c-42d7-b33f-038a885e17e6"},"vehicle_type_id":"4","last_reported":1740809553,"current_range_meters":8400,"station_id":"","pricing_plan_id":"cebpf4jnsgd1na2vs0mg"},{"bike_id":"6d2e59c8-5bed-45cb-a705-3f8ad1da2114","system_id":"levelo_inurba_marseille","lat":43.28058,"lon":5.39619,"is_reserved":false,"is_disabled":false,"rental_uris":{"android":"levelo://app?vid=6d2e59c8-5bed-45cb-a705-3f8ad1da2114","ios":"levelo://app?vid=6d2e59c8-5bed-45cb-a705-3f8ad1da2114"},"vehicle_type_id":"4","last_reported":1740809553,"current_range_meters":8400,"station_id":"ce4bho12rcd13ifvqh2g","pricing_plan_id":"cebpf4jnsgd1na2vs0mg"},{"bike_id":"2b4615ec-d1e9-4cda-8266-4761376aec6e","system_id":"levelo_inurba_marseille","lat":43.31714,"lon":5.43717,"is_reserved":false,"is_disabled":false,"rental_uris":{"android":"levelo://app?vid=2b4615ec-d1e9-4cda-8266-4761376aec6e","ios":"levelo://app?vid=2b4615ec-d1e9-4cda-8266-4761376aec6e"},"vehicle_type_id":"4","last_reported":1740809553,"current_range_meters":8400,"station_id":"ce4bhp92rcd13ifvqhcg","pricing_plan_id":"cebpf4jnsgd1na2vs0mg"},{"bike_id":"d5481c01-2984-43f7-9ca9-876cf6aa8921","system_id":"levelo_inurba_marseille","lat":43.27993,"lon":5.40011,"is_reserved":false,"is_disabled":false,"rental_uris":{"android":"levelo://app?vid=d5481c01-2984-43f7-9ca9-876cf6aa8921","ios":"levelo://app?vid=d5481c01-2984-43f7-9ca9-876cf6aa8921"},"vehicle_type_id":"4","last_reported":1740809553,"current_range_meters":8400,"station_id":"ce4bho92rcd13ifvqh4g","pricing_plan_id":"cebpf4jnsgd1na2vs0mg"},{"bike_id":"e8e574a6-d13a-4906-9b60-657faa08b971","system_id":"levelo_inurba_marseille","lat":43.26811,"lon":5.40257,"is_reserved":false,"is_disabled":true,"rental_uris":{"android":"levelo://app?vid=e8e574a6-d13a-4906-9b60-657faa08b971","ios":"levelo://app?vid=e8e574a6-d13a-4906-9b60-657faa08b971"},"vehicle_type_id":"4","last_reported":1740809553,"current_range_meters":8400,"station_id":"ce501612rcd8frsf0b60","pricing_plan_id":"cebpf4jnsgd1na2vs0mg"},{"bike_id":"58545227-9992-4785-b1de-f71fc2d15972","system_id":"levelo_inurba_marseille","lat":43.28439,"lon":5.3927,"is_reserved":false,"is_disabled":false,"rental_uris":{"android":"levelo://app?vid=58545227-9992-4785-b1de-f71fc2d15972","ios":"levelo://app?vid=58545227-9992-4785-b1de-f71fc2d15972"},"vehicle_type_id":"4","last_reported":1740809553,"current_range_meters":8400,"station_id":"ce4bhoh2rcd13ifvqh5g","pricing_plan_id":"cebpf4jnsgd1na2vs0mg"},{"bike_id":"8dbd79ab-8d7e-44ba-9f11-4afd7e562df1","system_id":"levelo_inurba_marseille","lat":43.25004,"lon":5.38929,"is_reserved":false,"is_disabled":false,"rental_uris":{"android":"levelo://app?vid=8dbd79ab-8d7e-44ba-9f11-4afd7e562df1","ios":"levelo://app?vid=8dbd79ab-8d7e-44ba-9f11-4afd7e562df1"},"vehicle_type_id":"4","last_reported":1740809553,"current_range_meters":8400,"station_id":"ce4bhgp2rcd13ifvqfd0","pricing_plan_id":"cebpf4jnsgd1na2vs0mg"},{"bike_id":"be047da3-12fb-470e-9d78-68641c40dc2c","system_id":"levelo_inurba_marseille","lat":43.28661,"lon":5.40969,"is_reserved":false,"is_disabled":false,"rental_uris":{"android":"levelo://app?vid=be047da3-12fb-470e-9d78-68641c40dc2c","ios":"levelo://app?vid=be047da3-12fb-470e-9d78-68641c40dc2c"},"vehicle_type_id":"4","last_reported":1740809553,"current_range_meters":8400,"station_id":"","pricing_plan_id":"cebpf4jnsgd1na2vs0mg"},{"bike_id":"9ab1e11a-72bc-4e65-b1ea-5612162e5eb6","system_id":"levelo_inurba_marseille","lat":43.27575,"lon":5.38437,"is_reserved":false,"is_disabled":false,"rental_uris":{"android":"levelo://app?vid=9ab1e11a-72bc-4e65-b1ea-5612162e5eb6","ios":"levelo://app?vid=9ab1e11a-72bc-4e65-b1ea-5612162e5eb6"},"vehicle_type_id":"4","last_reported":1740809553,"current_range_meters":8800,"station_id":"ce4bhh92rcd13ifvqfi0","pricing_plan_id":"cebpf4jnsgd1na2vs0mg"},{"bike_id":"802d59f3-fb51-41c3-9d81-8830b2aaa36d","system_id":"levelo_inurba_marseille","lat":43.30655,"lon":5.40078,"is_reserved":false,"is_disabled":false,"rental_uris":{"android":"levelo://app?vid=802d59f3-fb51-41c3-9d81-8830b2aaa36d","ios":"levelo://app?vid=802d59f3-fb51-41c3-9d81-8830b2aaa36d"},"vehicle_type_id":"4","last_reported":1740809553,"current_range_meters":8800,"station_id":"ce4bh112rcd13ifvqda0","pricing_plan_id":"cebpf4jnsgd1na2vs0mg"},{"bike_id":"f9c5b7d6-5ea2-4ea6-bead-ce407e998c0f","system_id":"levelo_inurba_marseille","lat":43.33467,"lon":5.38169,"is_reserved":false,"is_disabled":false,"rental_uris":{"android":"levelo://app?vid=f9c5b7d6-5ea2-4ea6-bead-ce407e998c0f","ios":"levelo://app?vid=f9c5b7d6-5ea2-4ea6-bead-ce407e998c0f"},"vehicle_type_id":"4","last_reported":1740809553,"current_range_meters":8800,"station_id":"","pricing_plan_id":"cebpf4jnsgd1na2vs0mg"},{"bike_id":"225d990f-0308-44fd-afa6-8f26f3461b20","system_id":"levelo_inurba_marseille","lat":43.28474,"lon":5.3591,"is_reserved":false,"is_disabled":false,"rental_uris":{"android":"levelo://app?vid=225d990f-0308-44fd-afa6-8f26f3461b20","ios":"levelo://app?vid=225d990f-0308-44fd-afa6-8f26f3461b20"},"vehicle_type_id":"4","last_reported":1740809553,"current_range_meters":8800,"station_id":"ce4bhah2rcd13ifvqei0","pricing_plan_id":"cebpf4jnsgd1na2vs0mg"},{"bike_id":"5bea00ad-8be8-4017-b35c-1fac3a6cb215","system_id":"levelo_inurba_marseille","lat":43.2843,"lon":5.3919,"is_reserved":false,"is_disabled":false,"rental_uris":{"android":"levelo://app?vid=5bea00ad-8be8-4017-b35c-1fac3a6cb215","ios":"levelo://app?vid=5bea00ad-8be8-4017-b35c-1fac3a6cb215"},"vehicle_type_id":"4","last_reported":1740809553,"current_range_meters":8800,"station_id":"ce4bhoh2rcd13ifvqh5g","pricing_plan_id":"cebpf4jnsgd1na2vs0mg"},{"bike_id":"9134e7ce-2e73-449a-8f6e-5585fd856184","system_id":"levelo_inurba_marseille","lat":43.27828,"lon":5.40717,"is_reserved":false,"is_disabled":false,"rental_uris":{"android":"levelo://app?vid=9134e7ce-2e73-449a-8f6e-5585fd856184","ios":"levelo://app?vid=9134e7ce-2e73-449a-8f6e-5585fd856184"},"vehicle_type_id":"4","last_reported":1740809553,"current_range_meters":8800,"station_id":"ce4bhnh2rcd13ifvqgtg","pricing_plan_id":"cebpf4jnsgd1na2vs0mg"},{"bike_id":"11325052-4f8a-49f7-9007-20e6abc7dc3c","system_id":"levelo_inurba_marseille","lat":43.29045,"lon":5.39954,"is_reserved":false,"is_disabled":false,"rental_uris":{"android":"levelo://app?vid=11325052-4f8a-49f7-9007-20e6abc7dc3c","ios":"levelo://app?vid=11325052-4f8a-49f7-9007-20e6abc7dc3c"},"vehicle_type_id":"4","last_reported":1740809553,"current_range_meters":8800,"station_id":"ce4bh392rcd13ifvqdm0","pricing_plan_id":"cebpf4jnsgd1na2vs0mg"},{"bike_id":"35a4782e-5d2e-4fb8-8175-5ce018572fa7","system_id":"levelo_inurba_marseille","lat":43.3001,"lon":5.37714,"is_reserved":false,"is_disabled":false,"rental_uris":{"android":"levelo://app?vid=35a4782e-5d2e-4fb8-8175-5ce018572fa7","ios":"levelo://app?vid=35a4782e-5d2e-4fb8-8175-5ce018572fa7"},"vehicle_type_id":"4","last_reported":1740809553,"current_range_meters":8800,"station_id":"","pricing_plan_id":"cebpf4jnsgd1na2vs0mg"},{"bike_id":"c35c9fdb-538e-4467-aab5-190b2b20f9f3","system_id":"levelo_inurba_marseille","lat":43.27816,"lon":5.40712,"is_reserved":false,"is_disabled":false,"rental_uris":{"android":"levelo://app?vid=c35c9fdb-538e-4467-aab5-190b2b20f9f3","ios":"levelo://app?vid=c35c9fdb-538e-4467-aab5-190b2b20f9f3"},"vehicle_type_id":"4","last_reported":1740809553,"current_range_meters":8800,"station_id":"ce4bhnh2rcd13ifvqgtg","pricing_plan_id":"cebpf4jnsgd1na2vs0mg"},{"bike_id":"87e93e74-8cd3-44d1-b4df-fd004e9d2d43","system_id":"levelo_inurba_marseille","lat":43.28104,"lon":5.37873,"is_reserved":false,"is_disabled":false,"rental_uris":{"android":"levelo://app?vid=87e93e74-8cd3-44d1-b4df-fd004e9d2d43","ios":"levelo://app?vid=87e93e74-8cd3-44d1-b4df-fd004e9d2d43"},"vehicle_type_id":"4","last_reported":1740809553,"current_range_meters":8800,"station_id":"ce4bha12rcd13ifvqee0","pricing_plan_id":"cebpf4jnsgd1na2vs0mg"},{"bike_id":"a5841749-abe8-4b38-b48c-2deb88c2d094","system_id":"levelo_inurba_marseille","lat":43.316859,"lon":5.377614,"is_reserved":false,"is_disabled":false,"rental_uris":{"android":"levelo://app?vid=a5841749-abe8-4b38-b48c-2deb88c2d094","ios":"levelo://app?vid=a5841749-abe8-4b38-b48c-2deb88c2d094"},"vehicle_type_id":"4","last_reported":1740809553,"current_range_meters":8800,"station_id":"ce4bgth2rcd13ifvqch0","pricing_plan_id":"cebpf4jnsgd1na2vs0mg"},{"bike_id":"70823d4f-1737-4ad5-acc6-e8b1c03f44f8","system_id":"levelo_inurba_marseille","lat":43.298,"lon":5.40401,"is_reserved":false,"is_disabled":false,"rental_uris":{"android":"levelo://app?vid=70823d4f-1737-4ad5-acc6-e8b1c03f44f8","ios":"levelo://app?vid=70823d4f-1737-4ad5-acc6-e8b1c03f44f8"},"vehicle_type_id":"4","last_reported":1740809553,"current_range_meters":8800,"station_id":"ce4bh112rcd13ifvqd90","pricing_plan_id":"cebpf4jnsgd1na2vs0mg"},{"bike_id":"bb113d46-ee53-44da-bdcc-afcf6081c369","system_id":"levelo_inurba_marseille","lat":43.27919,"lon":5.39611,"is_reserved":false,"is_disabled":false,"rental_uris":{"android":"levelo://app?vid=bb113d46-ee53-44da-bdcc-afcf6081c369","ios":"levelo://app?vid=bb113d46-ee53-44da-bdcc-afcf6081c369"},"vehicle_type_id":"4","last_reported":1740809553,"current_range_meters":9200,"station_id":"ce4bhf92rcd13ifvqf40","pricing_plan_id":"cebpf4jnsgd1na2vs0mg"},{"bike_id":"339fc872-d35e-45c4-8ec3-41f92e08a676","system_id":"levelo_inurba_marseille","lat":43.28373,"lon":5.37516,"is_reserved":false,"is_disabled":false,"rental_uris":{"android":"levelo://app?vid=339fc872-d35e-45c4-8ec3-41f92e08a676","ios":"levelo://app?vid=339fc872-d35e-45c4-8ec3-41f92e08a676"},"vehicle_type_id":"4","last_reported":1740809553,"current_range_meters":9200,"station_id":"ce4bh412rcd13ifvqds0","pricing_plan_id":"cebpf4jnsgd1na2vs0mg"},{"bike_id":"9133aa9f-1fe1-4d82-86fe-901632455e42","system_id":"levelo_inurba_marseille","lat":43.31218,"lon":5.40155,"is_reserved":false,"is_disabled":false,"rental_uris":{"android":"levelo://app?vid=9133aa9f-1fe1-4d82-86fe-901632455e42","ios":"levelo://app?vid=9133aa9f-1fe1-4d82-86fe-901632455e42"},"vehicle_type_id":"4","last_reported":1740809553,"current_range_meters":9200,"station_id":"ce4bh092rcd13ifvqd30","pricing_plan_id":"cebpf4jnsgd1na2vs0mg"},{"bike_id":"257c4849-dc72-4ebc-b295-ab798a49160b","system_id":"levelo_inurba_marseille","lat":43.261759,"lon":5.381229,"is_reserved":false,"is_disabled":false,"rental_uris":{"android":"levelo://app?vid=257c4849-dc72-4ebc-b295-ab798a49160b","ios":"levelo://app?vid=257c4849-dc72-4ebc-b295-ab798a49160b"},"vehicle_type_id":"4","last_reported":1740809553,"current_range_meters":9200,"station_id":"","pricing_plan_id":"cebpf4jnsgd1na2vs0mg"},{"bike_id":"43d6aa6f-20c7-4a1b-bcb8-31b660876567","system_id":"levelo_inurba_marseille","lat":43.26562,"lon":5.37283,"is_reserved":false,"is_disabled":false,"rental_uris":{"android":"levelo://app?vid=43d6aa6f-20c7-4a1b-bcb8-31b660876567","ios":"levelo://app?vid=43d6aa6f-20c7-4a1b-bcb8-31b660876567"},"vehicle_type_id":"4","last_reported":1740809553,"current_range_meters":9200,"station_id":"ce4bhg12rcd13ifvqf70","pricing_plan_id":"cebpf4jnsgd1na2vs0mg"},{"bike_id":"26cc7840-ae0e-4bb3-b632-324d66a8f696","system_id":"levelo_inurba_marseille","lat":43.291421,"lon":5.478589,"is_reserved":false,"is_disabled":false,"rental_uris":{"android":"levelo://app?vid=26cc7840-ae0e-4bb3-b632-324d66a8f696","ios":"levelo://app?vid=26cc7840-ae0e-4bb3-b632-324d66a8f696"},"vehicle_type_id":"4","last_reported":1740809553,"current_range_meters":9200,"station_id":"","pricing_plan_id":"cebpf4jnsgd1na2vs0mg"},{"bike_id":"3f5e4c77-943b-4a46-b257-614bf13afec4","system_id":"levelo_inurba_marseille","lat":43.241674,"lon":5.363942,"is_reserved":false,"is_disabled":false,"rental_uris":{"android":"levelo://app?vid=3f5e4c77-943b-4a46-b257-614bf13afec4","ios":"levelo://app?vid=3f5e4c77-943b-4a46-b257-614bf13afec4"},"vehicle_type_id":"4","last_reported":1740809553,"current_range_meters":9200,"station_id":"cpo36qri1sfpv3e86is0","pricing_plan_id":"cebpf4jnsgd1na2vs0mg"},{"bike_id":"22f4b01e-89e9-48fd-8796-40f17b996afa","system_id":"levelo_inurba_marseille","lat":43.28376,"lon":5.38644,"is_reserved":false,"is_disabled":false,"rental_uris":{"android":"levelo://app?vid=22f4b01e-89e9-48fd-8796-40f17b996afa","ios":"levelo://app?vid=22f4b01e-89e9-48fd-8796-40f17b996afa"},"vehicle_type_id":"4","last_reported":1740809553,"current_range_meters":9200,"station_id":"ce4bh492rcd13ifvqdvg","pricing_plan_id":"cebpf4jnsgd1na2vs0mg"},{"bike_id":"f70d1773-697a-4da2-ac06-ed0bd0e534cf","system_id":"levelo_inurba_marseille","lat":43.30888,"lon":5.37198,"is_reserved":false,"is_disabled":false,"rental_uris":{"android":"levelo://app?vid=f70d1773-697a-4da2-ac06-ed0bd0e534cf","ios":"levelo://app?vid=f70d1773-697a-4da2-ac06-ed0bd0e534cf"},"vehicle_type_id":"4","last_reported":1740809553,"current_range_meters":9200,"station_id":"ce4bguh2rcd13ifvqckg","pricing_plan_id":"cebpf4jnsgd1na2vs0mg"},{"bike_id":"756952ba-2b3d-4ac2-9274-ffca68731c60","system_id":"levelo_inurba_marseille","lat":43.27818,"lon":5.39215,"is_reserved":false,"is_disabled":false,"rental_uris":{"android":"levelo://app?vid=756952ba-2b3d-4ac2-9274-ffca68731c60","ios":"levelo://app?vid=756952ba-2b3d-4ac2-9274-ffca68731c60"},"vehicle_type_id":"4","last_reported":1740809553,"current_range_meters":9200,"station_id":"ce4bhjp2rcd13ifvqga0","pricing_plan_id":"cebpf4jnsgd1na2vs0mg"},{"bike_id":"c676db48-685f-457a-94dc-42d91965c973","system_id":"levelo_inurba_marseille","lat":43.30144,"lon":5.38062,"is_reserved":false,"is_disabled":false,"rental_uris":{"android":"levelo://app?vid=c676db48-685f-457a-94dc-42d91965c973","ios":"levelo://app?vid=c676db48-685f-457a-94dc-42d91965c973"},"vehicle_type_id":"4","last_reported":1740809553,"current_range_meters":9200,"station_id":"ce4bgjp2rcd13ifvqbh0","pricing_plan_id":"cebpf4jnsgd1na2vs0mg"},{"bike_id":"014aed79-f7f8-447d-89ee-2e224591d9e6","system_id":"levelo_inurba_marseille","lat":43.30646,"lon":5.400672,"is_reserved":false,"is_disabled":false,"rental_uris":{"android":"levelo://app?vid=014aed79-f7f8-447d-89ee-2e224591d9e6","ios":"levelo://app?vid=014aed79-f7f8-447d-89ee-2e224591d9e6"},"vehicle_type_id":"4","last_reported":1740809553,"current_range_meters":9600,"station_id":"ce4bh112rcd13ifvqda0","pricing_plan_id":"cebpf4jnsgd1na2vs0mg"},{"bike_id":"94d93eb2-b5f5-4f0b-ae0e-88e26f1e4d83","system_id":"levelo_inurba_marseille","lat":43.27472,"lon":5.39472,"is_reserved":false,"is_disabled":false,"rental_uris":{"android":"levelo://app?vid=94d93eb2-b5f5-4f0b-ae0e-88e26f1e4d83","ios":"levelo://app?vid=94d93eb2-b5f5-4f0b-ae0e-88e26f1e4d83"},"vehicle_type_id":"4","last_reported":1740809553,"current_range_meters":9600,"station_id":"ce4bhdp2rcd13ifvqf20","pricing_plan_id":"cebpf4jnsgd1na2vs0mg"},{"bike_id":"7182befa-9a6c-49d3-acb0-e8c44e21d25e","system_id":"levelo_inurba_marseille","lat":43.25583,"lon":5.38249,"is_reserved":false,"is_disabled":false,"rental_uris":{"android":"levelo://app?vid=7182befa-9a6c-49d3-acb0-e8c44e21d25e","ios":"levelo://app?vid=7182befa-9a6c-49d3-acb0-e8c44e21d25e"},"vehicle_type_id":"4","last_reported":1740809553,"current_range_meters":9600,"station_id":"ce4bhih2rcd13ifvqfs0","pricing_plan_id":"cebpf4jnsgd1na2vs0mg"},{"bike_id":"121435d4-63c2-4b22-b180-dd01286308d1","system_id":"levelo_inurba_marseille","lat":43.30855,"lon":5.39657,"is_reserved":false,"is_disabled":false,"rental_uris":{"android":"levelo://app?vid=121435d4-63c2-4b22-b180-dd01286308d1","ios":"levelo://app?vid=121435d4-63c2-4b22-b180-dd01286308d1"},"vehicle_type_id":"4","last_reported":1740809553,"current_range_meters":9600,"station_id":"","pricing_plan_id":"cebpf4jnsgd1na2vs0mg"},{"bike_id":"bd4d047f-c101-4bc6-bd96-59ee035f5a00","system_id":"levelo_inurba_marseille","lat":43.28719,"lon":5.38912,"is_reserved":false,"is_disabled":false,"rental_uris":{"android":"levelo://app?vid=bd4d047f-c101-4bc6-bd96-59ee035f5a00","ios":"levelo://app?vid=bd4d047f-c101-4bc6-bd96-59ee035f5a00"},"vehicle_type_id":"4","last_reported":1740809553,"current_range_meters":9600,"station_id":"","pricing_plan_id":"cebpf4jnsgd1na2vs0mg"},{"bike_id":"4987fcf8-7b90-4329-86bc-2c15e872fcde","system_id":"levelo_inurba_marseille","lat":43.27055,"lon":5.40276,"is_reserved":false,"is_disabled":false,"rental_uris":{"android":"levelo://app?vid=4987fcf8-7b90-4329-86bc-2c15e872fcde","ios":"levelo://app?vid=4987fcf8-7b90-4329-86bc-2c15e872fcde"},"vehicle_type_id":"4","last_reported":1740809553,"current_range_meters":9600,"station_id":"ce4bhk92rcd13ifvqgc0","pricing_plan_id":"cebpf4jnsgd1na2vs0mg"},{"bike_id":"22a6a9dc-ec2f-4c0b-8ba5-513c472c59ae","system_id":"levelo_inurba_marseille","lat":43.26208,"lon":5.37925,"is_reserved":false,"is_disabled":false,"rental_uris":{"android":"levelo://app?vid=22a6a9dc-ec2f-4c0b-8ba5-513c472c59ae","ios":"levelo://app?vid=22a6a9dc-ec2f-4c0b-8ba5-513c472c59ae"},"vehicle_type_id":"4","last_reported":1740809553,"current_range_meters":9600,"station_id":"ce4bhjp2rcd13ifvqg90","pricing_plan_id":"cebpf4jnsgd1na2vs0mg"},{"bike_id":"a25a4bca-1a72-419f-af06-cf47c412ca14","system_id":"levelo_inurba_marseille","lat":43.30794,"lon":5.43542,"is_reserved":false,"is_disabled":false,"rental_uris":{"android":"levelo://app?vid=a25a4bca-1a72-419f-af06-cf47c412ca14","ios":"levelo://app?vid=a25a4bca-1a72-419f-af06-cf47c412ca14"},"vehicle_type_id":"4","last_reported":1740809553,"current_range_meters":9600,"station_id":"ce4bhph2rcd13ifvqheg","pricing_plan_id":"cebpf4jnsgd1na2vs0mg"},{"bike_id":"ab245cfe-76c6-40c0-9fb9-a9eecf86e3f4","system_id":"levelo_inurba_marseille","lat":43.28919,"lon":5.364,"is_reserved":false,"is_disabled":false,"rental_uris":{"android":"levelo://app?vid=ab245cfe-76c6-40c0-9fb9-a9eecf86e3f4","ios":"levelo://app?vid=ab245cfe-76c6-40c0-9fb9-a9eecf86e3f4"},"vehicle_type_id":"4","last_reported":1740809553,"current_range_meters":9600,"station_id":"ce4bhc92rcd13ifvqetg","pricing_plan_id":"cebpf4jnsgd1na2vs0mg"},{"bike_id":"0999bf54-bb9d-4861-bcfd-105f6d4178ac","system_id":"levelo_inurba_marseille","lat":43.288352,"lon":5.358563,"is_reserved":false,"is_disabled":false,"rental_uris":{"android":"levelo://app?vid=0999bf54-bb9d-4861-bcfd-105f6d4178ac","ios":"levelo://app?vid=0999bf54-bb9d-4861-bcfd-105f6d4178ac"},"vehicle_type_id":"4","last_reported":1740809553,"current_range_meters":9600,"station_id":"ce4bhb12rcd13ifvqem0","pricing_plan_id":"cebpf4jnsgd1na2vs0mg"},{"bike_id":"23215de8-b957-452d-9f89-777f219172e7","system_id":"levelo_inurba_marseille","lat":43.30406,"lon":5.41295,"is_reserved":false,"is_disabled":false,"rental_uris":{"android":"levelo://app?vid=23215de8-b957-452d-9f89-777f219172e7","ios":"levelo://app?vid=23215de8-b957-452d-9f89-777f219172e7"},"vehicle_type_id":"4","last_reported":1740809553,"current_range_meters":9600,"station_id":"ce4bhop2rcd13ifvqh8g","pricing_plan_id":"cebpf4jnsgd1na2vs0mg"},{"bike_id":"bcf10ec7-0dc7-4b31-90db-9fddabad3e7a","system_id":"levelo_inurba_marseille","lat":43.305459,"lon":5.367121,"is_reserved":false,"is_disabled":true,"rental_uris":{"android":"levelo://app?vid=bcf10ec7-0dc7-4b31-90db-9fddabad3e7a","ios":"levelo://app?vid=bcf10ec7-0dc7-4b31-90db-9fddabad3e7a"},"vehicle_type_id":"4","last_reported":1740809553,"current_range_meters":9600,"station_id":"ce4bgrp2rcd13ifvqc9g","pricing_plan_id":"cebpf4jnsgd1na2vs0mg"},{"bike_id":"74469fe3-b461-464b-9457-4ed48ae0337f","system_id":"levelo_inurba_marseille","lat":43.28413,"lon":5.37512,"is_reserved":false,"is_disabled":false,"rental_uris":{"android":"levelo://app?vid=74469fe3-b461-464b-9457-4ed48ae0337f","ios":"levelo://app?vid=74469fe3-b461-464b-9457-4ed48ae0337f"},"vehicle_type_id":"4","last_reported":1740809553,"current_range_meters":9600,"station_id":"ce4bh412rcd13ifvqds0","pricing_plan_id":"cebpf4jnsgd1na2vs0mg"},{"bike_id":"5a9a962e-9987-4713-994e-67203b947f1b","system_id":"levelo_inurba_marseille","lat":43.30809,"lon":5.38171,"is_reserved":false,"is_disabled":false,"rental_uris":{"android":"levelo://app?vid=5a9a962e-9987-4713-994e-67203b947f1b","ios":"levelo://app?vid=5a9a962e-9987-4713-994e-67203b947f1b"},"vehicle_type_id":"4","last_reported":1740809553,"current_range_meters":10000,"station_id":"ce4bgt12rcd13ifvqce0","pricing_plan_id":"cebpf4jnsgd1na2vs0mg"},{"bike_id":"17c6f699-6a63-4e36-a453-4225085b3647","system_id":"levelo_inurba_marseille","lat":43.28421,"lon":5.37541,"is_reserved":false,"is_disabled":false,"rental_uris":{"android":"levelo://app?vid=17c6f699-6a63-4e36-a453-4225085b3647","ios":"levelo://app?vid=17c6f699-6a63-4e36-a453-4225085b3647"},"vehicle_type_id":"4","last_reported":1740809553,"current_range_meters":10000,"station_id":"ce4bh412rcd13ifvqds0","pricing_plan_id":"cebpf4jnsgd1na2vs0mg"},{"bike_id":"101aab8c-b036-43fb-a33c-ebc9189cc510","system_id":"levelo_inurba_marseille","lat":43.294408,"lon":5.397556,"is_reserved":false,"is_disabled":false,"rental_uris":{"android":"levelo://app?vid=101aab8c-b036-43fb-a33c-ebc9189cc510","ios":"levelo://app?vid=101aab8c-b036-43fb-a33c-ebc9189cc510"},"vehicle_type_id":"4","last_reported":1740809553,"current_range_meters":10000,"station_id":"ce4bh3h2rcd13ifvqdo0","pricing_plan_id":"cebpf4jnsgd1na2vs0mg"},{"bike_id":"ecca3b0e-547b-4862-af6d-61592d83807c","system_id":"levelo_inurba_marseille","lat":43.33599,"lon":5.41011,"is_reserved":false,"is_disabled":false,"rental_uris":{"android":"levelo://app?vid=ecca3b0e-547b-4862-af6d-61592d83807c","ios":"levelo://app?vid=ecca3b0e-547b-4862-af6d-61592d83807c"},"vehicle_type_id":"4","last_reported":1740809553,"current_range_meters":10000,"station_id":"ce4bhqh2rcd13ifvqhmg","pricing_plan_id":"cebpf4jnsgd1na2vs0mg"},{"bike_id":"b1b57f6a-4bd7-4b0e-869b-21504e29f5ea","system_id":"levelo_inurba_marseille","lat":43.23194,"lon":5.35558,"is_reserved":false,"is_disabled":false,"rental_uris":{"android":"levelo://app?vid=b1b57f6a-4bd7-4b0e-869b-21504e29f5ea","ios":"levelo://app?vid=b1b57f6a-4bd7-4b0e-869b-21504e29f5ea"},"vehicle_type_id":"4","last_reported":1740809553,"current_range_meters":10000,"station_id":"ce4bhu92rcd13ifvqi70","pricing_plan_id":"cebpf4jnsgd1na2vs0mg"},{"bike_id":"a0413a2e-da7a-4e75-97a5-df9e4003a7ae","system_id":"levelo_inurba_marseille","lat":43.30282,"lon":5.37716,"is_reserved":false,"is_disabled":false,"rental_uris":{"android":"levelo://app?vid=a0413a2e-da7a-4e75-97a5-df9e4003a7ae","ios":"levelo://app?vid=a0413a2e-da7a-4e75-97a5-df9e4003a7ae"},"vehicle_type_id":"4","last_reported":1740809553,"current_range_meters":10000,"station_id":"ce4bguh2rcd13ifvqcj0","pricing_plan_id":"cebpf4jnsgd1na2vs0mg"},{"bike_id":"8f405042-bed3-494d-85ed-0b34b8de15fc","system_id":"levelo_inurba_marseille","lat":43.269395,"lon":5.389205,"is_reserved":false,"is_disabled":true,"rental_uris":{"android":"levelo://app?vid=8f405042-bed3-494d-85ed-0b34b8de15fc","ios":"levelo://app?vid=8f405042-bed3-494d-85ed-0b34b8de15fc"},"vehicle_type_id":"4","last_reported":1740809553,"current_range_meters":10000,"station_id":"ce4bhhh2rcd13ifvqfl0","pricing_plan_id":"cebpf4jnsgd1na2vs0mg"},{"bike_id":"364b209e-752e-45ea-b26c-06b2552c1833","system_id":"levelo_inurba_marseille","lat":43.23189,"lon":5.35558,"is_reserved":false,"is_disabled":false,"rental_uris":{"android":"levelo://app?vid=364b209e-752e-45ea-b26c-06b2552c1833","ios":"levelo://app?vid=364b209e-752e-45ea-b26c-06b2552c1833"},"vehicle_type_id":"4","last_reported":1740809553,"current_range_meters":10000,"station_id":"ce4bhu92rcd13ifvqi70","pricing_plan_id":"cebpf4jnsgd1na2vs0mg"},{"bike_id":"c6e1dcc7-fd55-406f-8d4f-73330896338f","system_id":"levelo_inurba_marseille","lat":43.311918,"lon":5.387004,"is_reserved":false,"is_disabled":false,"rental_uris":{"android":"levelo://app?vid=c6e1dcc7-fd55-406f-8d4f-73330896338f","ios":"levelo://app?vid=c6e1dcc7-fd55-406f-8d4f-73330896338f"},"vehicle_type_id":"4","last_reported":1740809553,"current_range_meters":10000,"station_id":"ce4bgv12rcd13ifvqcp0","pricing_plan_id":"cebpf4jnsgd1na2vs0mg"},{"bike_id":"49e9cdc7-76a5-4b66-ae2d-61c73beb73a8","system_id":"levelo_inurba_marseille","lat":43.24176,"lon":5.364,"is_reserved":false,"is_disabled":false,"rental_uris":{"android":"levelo://app?vid=49e9cdc7-76a5-4b66-ae2d-61c73beb73a8","ios":"levelo://app?vid=49e9cdc7-76a5-4b66-ae2d-61c73beb73a8"},"vehicle_type_id":"4","last_reported":1740809553,"current_range_meters":10000,"station_id":"cpo36qri1sfpv3e86is0","pricing_plan_id":"cebpf4jnsgd1na2vs0mg"},{"bike_id":"05cc6ffa-20dc-486a-9bd5-c3143ae1663b","system_id":"levelo_inurba_marseille","lat":43.27912,"lon":5.3959,"is_reserved":false,"is_disabled":false,"rental_uris":{"android":"levelo://app?vid=05cc6ffa-20dc-486a-9bd5-c3143ae1663b","ios":"levelo://app?vid=05cc6ffa-20dc-486a-9bd5-c3143ae1663b"},"vehicle_type_id":"4","last_reported":1740809553,"current_range_meters":10000,"station_id":"ce4bhf92rcd13ifvqf40","pricing_plan_id":"cebpf4jnsgd1na2vs0mg"},{"bike_id":"593edb3c-7add-4a3d-9dbe-95cef549de0d","system_id":"levelo_inurba_marseille","lat":43.230582,"lon":5.354886,"is_reserved":false,"is_disabled":false,"rental_uris":{"android":"levelo://app?vid=593edb3c-7add-4a3d-9dbe-95cef549de0d","ios":"levelo://app?vid=593edb3c-7add-4a3d-9dbe-95cef549de0d"},"vehicle_type_id":"4","last_reported":1740809553,"current_range_meters":10000,"station_id":"cpo3342slgdg3j2ifvpg","pricing_plan_id":"cebpf4jnsgd1na2vs0mg"},{"bike_id":"7d9d849c-c5d6-4bc9-adff-7d7a82f1ca03","system_id":"levelo_inurba_marseille","lat":43.30351,"lon":5.41879,"is_reserved":false,"is_disabled":false,"rental_uris":{"android":"levelo://app?vid=7d9d849c-c5d6-4bc9-adff-7d7a82f1ca03","ios":"levelo://app?vid=7d9d849c-c5d6-4bc9-adff-7d7a82f1ca03"},"vehicle_type_id":"4","last_reported":1740809553,"current_range_meters":10800,"station_id":"ce4bhop2rcd13ifvqh7g","pricing_plan_id":"cebpf4jnsgd1na2vs0mg"},{"bike_id":"38e4208e-f256-4294-9ec9-809b58394803","system_id":"levelo_inurba_marseille","lat":43.31318,"lon":5.3971,"is_reserved":false,"is_disabled":false,"rental_uris":{"android":"levelo://app?vid=38e4208e-f256-4294-9ec9-809b58394803","ios":"levelo://app?vid=38e4208e-f256-4294-9ec9-809b58394803"},"vehicle_type_id":"4","last_reported":1740809553,"current_range_meters":10800,"station_id":"ce4bgvp2rcd13ifvqcu0","pricing_plan_id":"cebpf4jnsgd1na2vs0mg"},{"bike_id":"152d5173-ed9c-4346-9b22-eb5f34e49026","system_id":"levelo_inurba_marseille","lat":43.28011,"lon":5.40015,"is_reserved":false,"is_disabled":false,"rental_uris":{"android":"levelo://app?vid=152d5173-ed9c-4346-9b22-eb5f34e49026","ios":"levelo://app?vid=152d5173-ed9c-4346-9b22-eb5f34e49026"},"vehicle_type_id":"4","last_reported":1740809553,"current_range_meters":10800,"station_id":"ce4bho92rcd13ifvqh4g","pricing_plan_id":"cebpf4jnsgd1na2vs0mg"},{"bike_id":"0279fc3e-b42a-4a6e-b3f0-577517325aa8","system_id":"levelo_inurba_marseille","lat":43.33069,"lon":5.4083,"is_reserved":false,"is_disabled":false,"rental_uris":{"android":"levelo://app?vid=0279fc3e-b42a-4a6e-b3f0-577517325aa8","ios":"levelo://app?vid=0279fc3e-b42a-4a6e-b3f0-577517325aa8"},"vehicle_type_id":"4","last_reported":1740809553,"current_range_meters":10800,"station_id":"","pricing_plan_id":"cebpf4jnsgd1na2vs0mg"},{"bike_id":"60d4e3af-a938-45a6-a89b-d7fe9130f2cc","system_id":"levelo_inurba_marseille","lat":43.24154,"lon":5.39726,"is_reserved":false,"is_disabled":false,"rental_uris":{"android":"levelo://app?vid=60d4e3af-a938-45a6-a89b-d7fe9130f2cc","ios":"levelo://app?vid=60d4e3af-a938-45a6-a89b-d7fe9130f2cc"},"vehicle_type_id":"4","last_reported":1740809553,"current_range_meters":10800,"station_id":"ce4bhn12rcd13ifvqgpg","pricing_plan_id":"cebpf4jnsgd1na2vs0mg"},{"bike_id":"b1622d65-390e-4e97-87c5-1db91f68d5aa","system_id":"levelo_inurba_marseille","lat":43.30333,"lon":5.40437,"is_reserved":false,"is_disabled":false,"rental_uris":{"android":"levelo://app?vid=b1622d65-390e-4e97-87c5-1db91f68d5aa","ios":"levelo://app?vid=b1622d65-390e-4e97-87c5-1db91f68d5aa"},"vehicle_type_id":"4","last_reported":1740809553,"current_range_meters":10800,"station_id":"ce4bh012rcd13ifvqd10","pricing_plan_id":"cebpf4jnsgd1na2vs0mg"},{"bike_id":"c08ee120-9bb0-42c3-8c2c-b3f0171f872c","system_id":"levelo_inurba_marseille","lat":43.28713,"lon":5.40009,"is_reserved":false,"is_disabled":false,"rental_uris":{"android":"levelo://app?vid=c08ee120-9bb0-42c3-8c2c-b3f0171f872c","ios":"levelo://app?vid=c08ee120-9bb0-42c3-8c2c-b3f0171f872c"},"vehicle_type_id":"4","last_reported":1740809553,"current_range_meters":10800,"station_id":"ce4bho92rcd13ifvqh3g","pricing_plan_id":"cebpf4jnsgd1na2vs0mg"},{"bike_id":"f5fe4361-1d3d-4314-a7e8-95ca49fcf6f9","system_id":"levelo_inurba_marseille","lat":43.32211,"lon":5.38764,"is_reserved":false,"is_disabled":false,"rental_uris":{"android":"levelo://app?vid=f5fe4361-1d3d-4314-a7e8-95ca49fcf6f9","ios":"levelo://app?vid=f5fe4361-1d3d-4314-a7e8-95ca49fcf6f9"},"vehicle_type_id":"4","last_reported":1740809553,"current_range_meters":10800,"station_id":"","pricing_plan_id":"cebpf4jnsgd1na2vs0mg"},{"bike_id":"b08dbcf0-1e3c-421f-93f6-a17fac885ab4","system_id":"levelo_inurba_marseille","lat":43.273694,"lon":5.362609,"is_reserved":false,"is_disabled":false,"rental_uris":{"android":"levelo://app?vid=b08dbcf0-1e3c-421f-93f6-a17fac885ab4","ios":"levelo://app?vid=b08dbcf0-1e3c-421f-93f6-a17fac885ab4"},"vehicle_type_id":"4","last_reported":1740809553,"current_range_meters":10800,"station_id":"ce4bhbh2rcd13ifvqeo0","pricing_plan_id":"cebpf4jnsgd1na2vs0mg"},{"bike_id":"be10b658-6853-4344-941a-dc3e450af712","system_id":"levelo_inurba_marseille","lat":43.25087,"lon":5.39527,"is_reserved":false,"is_disabled":false,"rental_uris":{"android":"levelo://app?vid=be10b658-6853-4344-941a-dc3e450af712","ios":"levelo://app?vid=be10b658-6853-4344-941a-dc3e450af712"},"vehicle_type_id":"4","last_reported":1740809553,"current_range_meters":10800,"station_id":"ce4bhm12rcd13ifvqgkg","pricing_plan_id":"cebpf4jnsgd1na2vs0mg"},{"bike_id":"44344a94-31eb-4715-9cad-57e31236f5ee","system_id":"levelo_inurba_marseille","lat":43.30324,"lon":5.36902,"is_reserved":false,"is_disabled":false,"rental_uris":{"android":"levelo://app?vid=44344a94-31eb-4715-9cad-57e31236f5ee","ios":"levelo://app?vid=44344a94-31eb-4715-9cad-57e31236f5ee"},"vehicle_type_id":"4","last_reported":1740809553,"current_range_meters":10800,"station_id":"ce4bgqh2rcd13ifvqc5g","pricing_plan_id":"cebpf4jnsgd1na2vs0mg"},{"bike_id":"2dabea1c-c2b8-4258-abdc-13e9e45e1bb1","system_id":"levelo_inurba_marseille","lat":43.27804,"lon":5.40716,"is_reserved":false,"is_disabled":false,"rental_uris":{"android":"levelo://app?vid=2dabea1c-c2b8-4258-abdc-13e9e45e1bb1","ios":"levelo://app?vid=2dabea1c-c2b8-4258-abdc-13e9e45e1bb1"},"vehicle_type_id":"4","last_reported":1740809553,"current_range_meters":10800,"station_id":"ce4bhnh2rcd13ifvqgtg","pricing_plan_id":"cebpf4jnsgd1na2vs0mg"},{"bike_id":"597c78d8-1097-48db-b3be-fafc8754eab9","system_id":"levelo_inurba_marseille","lat":43.24163,"lon":5.36455,"is_reserved":false,"is_disabled":false,"rental_uris":{"android":"levelo://app?vid=597c78d8-1097-48db-b3be-fafc8754eab9","ios":"levelo://app?vid=597c78d8-1097-48db-b3be-fafc8754eab9"},"vehicle_type_id":"4","last_reported":1740809553,"current_range_meters":10800,"station_id":"","pricing_plan_id":"cebpf4jnsgd1na2vs0mg"},{"bike_id":"8a4f99ce-bff4-4a86-963f-023125ea5ae7","system_id":"levelo_inurba_marseille","lat":43.26506,"lon":5.39553,"is_reserved":false,"is_disabled":false,"rental_uris":{"android":"levelo://app?vid=8a4f99ce-bff4-4a86-963f-023125ea5ae7","ios":"levelo://app?vid=8a4f99ce-bff4-4a86-963f-023125ea5ae7"},"vehicle_type_id":"4","last_reported":1740809553,"current_range_meters":11200,"station_id":"ce4bhi12rcd13ifvqfq0","pricing_plan_id":"cebpf4jnsgd1na2vs0mg"},{"bike_id":"1e074596-6371-403b-bb6f-4fe434ac26ad","system_id":"levelo_inurba_marseille","lat":43.28447,"lon":5.39204,"is_reserved":false,"is_disabled":false,"rental_uris":{"android":"levelo://app?vid=1e074596-6371-403b-bb6f-4fe434ac26ad","ios":"levelo://app?vid=1e074596-6371-403b-bb6f-4fe434ac26ad"},"vehicle_type_id":"4","last_reported":1740809553,"current_range_meters":11200,"station_id":"ce4bhoh2rcd13ifvqh5g","pricing_plan_id":"cebpf4jnsgd1na2vs0mg"},{"bike_id":"87b985b0-b21a-457b-876e-995bf2ff8f5e","system_id":"levelo_inurba_marseille","lat":43.32111,"lon":5.36773,"is_reserved":false,"is_disabled":false,"rental_uris":{"android":"levelo://app?vid=87b985b0-b21a-457b-876e-995bf2ff8f5e","ios":"levelo://app?vid=87b985b0-b21a-457b-876e-995bf2ff8f5e"},"vehicle_type_id":"4","last_reported":1740809553,"current_range_meters":11200,"station_id":"ce4bhrh2rcd13ifvqhug","pricing_plan_id":"cebpf4jnsgd1na2vs0mg"},{"bike_id":"ab83c181-a0ca-45fb-ab7c-ddbef920cbdb","system_id":"levelo_inurba_marseille","lat":43.24804,"lon":5.37457,"is_reserved":false,"is_disabled":false,"rental_uris":{"android":"levelo://app?vid=ab83c181-a0ca-45fb-ab7c-ddbef920cbdb","ios":"levelo://app?vid=ab83c181-a0ca-45fb-ab7c-ddbef920cbdb"},"vehicle_type_id":"4","last_reported":1740809553,"current_range_meters":11600,"station_id":"ce4bhgh2rcd13ifvqfb0","pricing_plan_id":"cebpf4jnsgd1na2vs0mg"},{"bike_id":"5c6cd368-eb62-4819-9f4f-9debedcd635b","system_id":"levelo_inurba_marseille","lat":43.28438,"lon":5.39191,"is_reserved":false,"is_disabled":false,"rental_uris":{"android":"levelo://app?vid=5c6cd368-eb62-4819-9f4f-9debedcd635b","ios":"levelo://app?vid=5c6cd368-eb62-4819-9f4f-9debedcd635b"},"vehicle_type_id":"4","last_reported":1740809553,"current_range_meters":11600,"station_id":"ce4bhoh2rcd13ifvqh5g","pricing_plan_id":"cebpf4jnsgd1na2vs0mg"},{"bike_id":"740e99a4-36d9-4050-a22d-1f0aeb1df1ee","system_id":"levelo_inurba_marseille","lat":43.25015,"lon":5.38934,"is_reserved":false,"is_disabled":false,"rental_uris":{"android":"levelo://app?vid=740e99a4-36d9-4050-a22d-1f0aeb1df1ee","ios":"levelo://app?vid=740e99a4-36d9-4050-a22d-1f0aeb1df1ee"},"vehicle_type_id":"4","last_reported":1740809553,"current_range_meters":11600,"station_id":"ce4bhgp2rcd13ifvqfd0","pricing_plan_id":"cebpf4jnsgd1na2vs0mg"},{"bike_id":"40e2356e-dfd3-4788-b8d8-a08cac0c9cd7","system_id":"levelo_inurba_marseille","lat":43.29972,"lon":5.384926,"is_reserved":false,"is_disabled":false,"rental_uris":{"android":"levelo://app?vid=40e2356e-dfd3-4788-b8d8-a08cac0c9cd7","ios":"levelo://app?vid=40e2356e-dfd3-4788-b8d8-a08cac0c9cd7"},"vehicle_type_id":"4","last_reported":1740809553,"current_range_meters":11600,"station_id":"ce4bgj92rcd13ifvqbd0","pricing_plan_id":"cebpf4jnsgd1na2vs0mg"},{"bike_id":"7fc8c424-4c85-4223-b999-460ba5f3ee6f","system_id":"levelo_inurba_marseille","lat":43.28721,"lon":5.3997,"is_reserved":false,"is_disabled":false,"rental_uris":{"android":"levelo://app?vid=7fc8c424-4c85-4223-b999-460ba5f3ee6f","ios":"levelo://app?vid=7fc8c424-4c85-4223-b999-460ba5f3ee6f"},"vehicle_type_id":"4","last_reported":1740809553,"current_range_meters":11600,"station_id":"ce4bho92rcd13ifvqh3g","pricing_plan_id":"cebpf4jnsgd1na2vs0mg"},{"bike_id":"b983ab4d-4515-40ac-b6f8-266345de4910","system_id":"levelo_inurba_marseille","lat":43.28459,"lon":5.35886,"is_reserved":false,"is_disabled":false,"rental_uris":{"android":"levelo://app?vid=b983ab4d-4515-40ac-b6f8-266345de4910","ios":"levelo://app?vid=b983ab4d-4515-40ac-b6f8-266345de4910"},"vehicle_type_id":"4","last_reported":1740809553,"current_range_meters":11600,"station_id":"ce4bhah2rcd13ifvqei0","pricing_plan_id":"cebpf4jnsgd1na2vs0mg"},{"bike_id":"45c4a87c-4b86-41e1-97fb-abaf13d4b9db","system_id":"levelo_inurba_marseille","lat":43.30811,"lon":5.38194,"is_reserved":false,"is_disabled":false,"rental_uris":{"android":"levelo://app?vid=45c4a87c-4b86-41e1-97fb-abaf13d4b9db","ios":"levelo://app?vid=45c4a87c-4b86-41e1-97fb-abaf13d4b9db"},"vehicle_type_id":"4","last_reported":1740809553,"current_range_meters":11600,"station_id":"ce4bgt12rcd13ifvqce0","pricing_plan_id":"cebpf4jnsgd1na2vs0mg"},{"bike_id":"d6eec10b-620b-4607-843d-346ffd62a6e7","system_id":"levelo_inurba_marseille","lat":43.264985,"lon":5.395431,"is_reserved":false,"is_disabled":false,"rental_uris":{"android":"levelo://app?vid=d6eec10b-620b-4607-843d-346ffd62a6e7","ios":"levelo://app?vid=d6eec10b-620b-4607-843d-346ffd62a6e7"},"vehicle_type_id":"4","last_reported":1740809553,"current_range_meters":11600,"station_id":"ce4bhi12rcd13ifvqfq0","pricing_plan_id":"cebpf4jnsgd1na2vs0mg"},{"bike_id":"15e54f67-0f06-4baa-aafb-9f8063144e16","system_id":"levelo_inurba_marseille","lat":43.31281,"lon":5.40155,"is_reserved":false,"is_disabled":false,"rental_uris":{"android":"levelo://app?vid=15e54f67-0f06-4baa-aafb-9f8063144e16","ios":"levelo://app?vid=15e54f67-0f06-4baa-aafb-9f8063144e16"},"vehicle_type_id":"4","last_reported":1740809553,"current_range_meters":12000,"station_id":"ce4bh092rcd13ifvqd30","pricing_plan_id":"cebpf4jnsgd1na2vs0mg"},{"bike_id":"a7cf126b-41e3-417e-9749-c1f63d953e9a","system_id":"levelo_inurba_marseille","lat":43.29907,"lon":5.38149,"is_reserved":false,"is_disabled":false,"rental_uris":{"android":"levelo://app?vid=a7cf126b-41e3-417e-9749-c1f63d953e9a","ios":"levelo://app?vid=a7cf126b-41e3-417e-9749-c1f63d953e9a"},"vehicle_type_id":"4","last_reported":1740809553,"current_range_meters":12000,"station_id":"ce4bgj12rcd13ifvqbc0","pricing_plan_id":"cebpf4jnsgd1na2vs0mg"},{"bike_id":"3ae43e61-e460-4942-a7d7-9a08b7b0118e","system_id":"levelo_inurba_marseille","lat":43.247987,"lon":5.374629,"is_reserved":false,"is_disabled":false,"rental_uris":{"android":"levelo://app?vid=3ae43e61-e460-4942-a7d7-9a08b7b0118e","ios":"levelo://app?vid=3ae43e61-e460-4942-a7d7-9a08b7b0118e"},"vehicle_type_id":"4","last_reported":1740809553,"current_range_meters":12000,"station_id":"ce4bhgh2rcd13ifvqfb0","pricing_plan_id":"cebpf4jnsgd1na2vs0mg"},{"bike_id":"c23062fb-9589-4362-bfcd-a979856c98f8","system_id":"levelo_inurba_marseille","lat":43.28971,"lon":5.37825,"is_reserved":false,"is_disabled":false,"rental_uris":{"android":"levelo://app?vid=c23062fb-9589-4362-bfcd-a979856c98f8","ios":"levelo://app?vid=c23062fb-9589-4362-bfcd-a979856c98f8"},"vehicle_type_id":"4","last_reported":1740809553,"current_range_meters":12000,"station_id":"ce4bh9p2rcd13ifvqed0","pricing_plan_id":"cebpf4jnsgd1na2vs0mg"},{"bike_id":"27f8d61f-de01-4772-8b8c-ceceaf4de61e","system_id":"levelo_inurba_marseille","lat":43.29068,"lon":5.37162,"is_reserved":false,"is_disabled":true,"rental_uris":{"android":"levelo://app?vid=27f8d61f-de01-4772-8b8c-ceceaf4de61e","ios":"levelo://app?vid=27f8d61f-de01-4772-8b8c-ceceaf4de61e"},"vehicle_type_id":"4","last_reported":1740809553,"current_range_meters":12000,"station_id":"ce4bh5p2rcd13ifvqe4g","pricing_plan_id":"cebpf4jnsgd1na2vs0mg"},{"bike_id":"d8ce033e-f3a5-430d-b70d-26539a7235b3","system_id":"levelo_inurba_marseille","lat":43.31335,"lon":5.39726,"is_reserved":false,"is_disabled":false,"rental_uris":{"android":"levelo://app?vid=d8ce033e-f3a5-430d-b70d-26539a7235b3","ios":"levelo://app?vid=d8ce033e-f3a5-430d-b70d-26539a7235b3"},"vehicle_type_id":"4","last_reported":1740809553,"current_range_meters":12000,"station_id":"ce4bgvp2rcd13ifvqcu0","pricing_plan_id":"cebpf4jnsgd1na2vs0mg"},{"bike_id":"31c0e24b-42d8-4837-af8d-97c389878bc1","system_id":"levelo_inurba_marseille","lat":43.3041,"lon":5.41284,"is_reserved":false,"is_disabled":false,"rental_uris":{"android":"levelo://app?vid=31c0e24b-42d8-4837-af8d-97c389878bc1","ios":"levelo://app?vid=31c0e24b-42d8-4837-af8d-97c389878bc1"},"vehicle_type_id":"4","last_reported":1740809553,"current_range_meters":12400,"station_id":"ce4bhop2rcd13ifvqh8g","pricing_plan_id":"cebpf4jnsgd1na2vs0mg"},{"bike_id":"9975478d-edfe-4ebc-9dee-05162bb7da0f","system_id":"levelo_inurba_marseille","lat":43.279734,"lon":5.387036,"is_reserved":false,"is_disabled":false,"rental_uris":{"android":"levelo://app?vid=9975478d-edfe-4ebc-9dee-05162bb7da0f","ios":"levelo://app?vid=9975478d-edfe-4ebc-9dee-05162bb7da0f"},"vehicle_type_id":"4","last_reported":1740809553,"current_range_meters":12400,"station_id":"ce4bhg12rcd13ifvqf80","pricing_plan_id":"cebpf4jnsgd1na2vs0mg"},{"bike_id":"0395e071-5a2b-415c-b481-2f18c2ea3427","system_id":"levelo_inurba_marseille","lat":43.24811,"lon":5.37463,"is_reserved":false,"is_disabled":false,"rental_uris":{"android":"levelo://app?vid=0395e071-5a2b-415c-b481-2f18c2ea3427","ios":"levelo://app?vid=0395e071-5a2b-415c-b481-2f18c2ea3427"},"vehicle_type_id":"4","last_reported":1740809553,"current_range_meters":12400,"station_id":"ce4bhgh2rcd13ifvqfb0","pricing_plan_id":"cebpf4jnsgd1na2vs0mg"},{"bike_id":"496d4184-8fdd-4910-a952-3bdbdbd2ad61","system_id":"levelo_inurba_marseille","lat":43.29793,"lon":5.40423,"is_reserved":false,"is_disabled":false,"rental_uris":{"android":"levelo://app?vid=496d4184-8fdd-4910-a952-3bdbdbd2ad61","ios":"levelo://app?vid=496d4184-8fdd-4910-a952-3bdbdbd2ad61"},"vehicle_type_id":"4","last_reported":1740809553,"current_range_meters":12400,"station_id":"ce4bh112rcd13ifvqd90","pricing_plan_id":"cebpf4jnsgd1na2vs0mg"},{"bike_id":"85d1b766-bdfe-4877-a335-4669a45aabed","system_id":"levelo_inurba_marseille","lat":43.282905,"lon":5.433164,"is_reserved":false,"is_disabled":false,"rental_uris":{"android":"levelo://app?vid=85d1b766-bdfe-4877-a335-4669a45aabed","ios":"levelo://app?vid=85d1b766-bdfe-4877-a335-4669a45aabed"},"vehicle_type_id":"4","last_reported":1740809553,"current_range_meters":12400,"station_id":"","pricing_plan_id":"cebpf4jnsgd1na2vs0mg"},{"bike_id":"fbf98a58-e451-4d09-a669-c0f77adc25c8","system_id":"levelo_inurba_marseille","lat":43.28032,"lon":5.36967,"is_reserved":false,"is_disabled":false,"rental_uris":{"android":"levelo://app?vid=fbf98a58-e451-4d09-a669-c0f77adc25c8","ios":"levelo://app?vid=fbf98a58-e451-4d09-a669-c0f77adc25c8"},"vehicle_type_id":"4","last_reported":1740809553,"current_range_meters":12400,"station_id":"ce4bha12rcd13ifvqef0","pricing_plan_id":"cebpf4jnsgd1na2vs0mg"},{"bike_id":"69bd9737-2cf3-4064-935f-ce2bb9dba5c4","system_id":"levelo_inurba_marseille","lat":43.28457,"lon":5.35881,"is_reserved":false,"is_disabled":false,"rental_uris":{"android":"levelo://app?vid=69bd9737-2cf3-4064-935f-ce2bb9dba5c4","ios":"levelo://app?vid=69bd9737-2cf3-4064-935f-ce2bb9dba5c4"},"vehicle_type_id":"4","last_reported":1740809553,"current_range_meters":12400,"station_id":"ce4bhah2rcd13ifvqei0","pricing_plan_id":"cebpf4jnsgd1na2vs0mg"},{"bike_id":"72cdfb7e-f1b5-479a-91c9-a6a2630728d7","system_id":"levelo_inurba_marseille","lat":43.25118,"lon":5.40311,"is_reserved":false,"is_disabled":false,"rental_uris":{"android":"levelo://app?vid=72cdfb7e-f1b5-479a-91c9-a6a2630728d7","ios":"levelo://app?vid=72cdfb7e-f1b5-479a-91c9-a6a2630728d7"},"vehicle_type_id":"4","last_reported":1740809553,"current_range_meters":12400,"station_id":"ce4bhlh2rcd13ifvqgig","pricing_plan_id":"cebpf4jnsgd1na2vs0mg"},{"bike_id":"9f7e403d-3241-4706-bd05-f661b265d93a","system_id":"levelo_inurba_marseille","lat":43.30855,"lon":5.39665,"is_reserved":false,"is_disabled":false,"rental_uris":{"android":"levelo://app?vid=9f7e403d-3241-4706-bd05-f661b265d93a","ios":"levelo://app?vid=9f7e403d-3241-4706-bd05-f661b265d93a"},"vehicle_type_id":"4","last_reported":1740809553,"current_range_meters":12800,"station_id":"","pricing_plan_id":"cebpf4jnsgd1na2vs0mg"},{"bike_id":"5b394fee-d608-4077-a6e3-6c07fcba8af8","system_id":"levelo_inurba_marseille","lat":43.30316,"lon":5.40444,"is_reserved":false,"is_disabled":false,"rental_uris":{"android":"levelo://app?vid=5b394fee-d608-4077-a6e3-6c07fcba8af8","ios":"levelo://app?vid=5b394fee-d608-4077-a6e3-6c07fcba8af8"},"vehicle_type_id":"4","last_reported":1740809553,"current_range_meters":12800,"station_id":"ce4bh012rcd13ifvqd10","pricing_plan_id":"cebpf4jnsgd1na2vs0mg"},{"bike_id":"00616f21-c786-4fb6-a89f-3c894151f4da","system_id":"levelo_inurba_marseille","lat":43.243874,"lon":5.370605,"is_reserved":false,"is_disabled":false,"rental_uris":{"android":"levelo://app?vid=00616f21-c786-4fb6-a89f-3c894151f4da","ios":"levelo://app?vid=00616f21-c786-4fb6-a89f-3c894151f4da"},"vehicle_type_id":"4","last_reported":1740809553,"current_range_meters":12800,"station_id":"ce4bhhh2rcd13ifvqfk0","pricing_plan_id":"cebpf4jnsgd1na2vs0mg"},{"bike_id":"ffb7e665-b370-4c23-91a1-17b5cb82117d","system_id":"levelo_inurba_marseille","lat":43.32282,"lon":5.38263,"is_reserved":false,"is_disabled":false,"rental_uris":{"android":"levelo://app?vid=ffb7e665-b370-4c23-91a1-17b5cb82117d","ios":"levelo://app?vid=ffb7e665-b370-4c23-91a1-17b5cb82117d"},"vehicle_type_id":"4","last_reported":1740809553,"current_range_meters":12800,"station_id":"ce4bhr12rcd13ifvqhqg","pricing_plan_id":"cebpf4jnsgd1na2vs0mg"},{"bike_id":"0693b9d6-4a9d-4e38-bfa2-80f934bcc2e3","system_id":"levelo_inurba_marseille","lat":43.24124,"lon":5.36408,"is_reserved":false,"is_disabled":false,"rental_uris":{"android":"levelo://app?vid=0693b9d6-4a9d-4e38-bfa2-80f934bcc2e3","ios":"levelo://app?vid=0693b9d6-4a9d-4e38-bfa2-80f934bcc2e3"},"vehicle_type_id":"4","last_reported":1740809553,"current_range_meters":13600,"station_id":"cpo36qri1sfpv3e86is0","pricing_plan_id":"cebpf4jnsgd1na2vs0mg"},{"bike_id":"8b15d458-bd27-4348-a058-3cb98a21ebd4","system_id":"levelo_inurba_marseille","lat":43.30925,"lon":5.40145,"is_reserved":false,"is_disabled":false,"rental_uris":{"android":"levelo://app?vid=8b15d458-bd27-4348-a058-3cb98a21ebd4","ios":"levelo://app?vid=8b15d458-bd27-4348-a058-3cb98a21ebd4"},"vehicle_type_id":"4","last_reported":1740809553,"current_range_meters":13600,"station_id":"ce4bgvp2rcd13ifvqct0","pricing_plan_id":"cebpf4jnsgd1na2vs0mg"},{"bike_id":"95e1a552-2d39-463a-a5ac-285fb5139662","system_id":"levelo_inurba_marseille","lat":43.28697,"lon":5.37402,"is_reserved":false,"is_disabled":false,"rental_uris":{"android":"levelo://app?vid=95e1a552-2d39-463a-a5ac-285fb5139662","ios":"levelo://app?vid=95e1a552-2d39-463a-a5ac-285fb5139662"},"vehicle_type_id":"4","last_reported":1740809553,"current_range_meters":13600,"station_id":"ce4bh3p2rcd13ifvqdq0","pricing_plan_id":"cebpf4jnsgd1na2vs0mg"},{"bike_id":"2636ecb3-7197-4ec8-9534-46ad1b1d5841","system_id":"levelo_inurba_marseille","lat":43.30854,"lon":5.39653,"is_reserved":false,"is_disabled":false,"rental_uris":{"android":"levelo://app?vid=2636ecb3-7197-4ec8-9534-46ad1b1d5841","ios":"levelo://app?vid=2636ecb3-7197-4ec8-9534-46ad1b1d5841"},"vehicle_type_id":"4","last_reported":1740809553,"current_range_meters":13600,"station_id":"","pricing_plan_id":"cebpf4jnsgd1na2vs0mg"},{"bike_id":"ed975e1c-021b-4cdc-b71f-e87affbf4678","system_id":"levelo_inurba_marseille","lat":43.28459,"lon":5.35889,"is_reserved":false,"is_disabled":false,"rental_uris":{"android":"levelo://app?vid=ed975e1c-021b-4cdc-b71f-e87affbf4678","ios":"levelo://app?vid=ed975e1c-021b-4cdc-b71f-e87affbf4678"},"vehicle_type_id":"4","last_reported":1740809553,"current_range_meters":13600,"station_id":"ce4bhah2rcd13ifvqei0","pricing_plan_id":"cebpf4jnsgd1na2vs0mg"},{"bike_id":"50e400b5-5d9f-464b-9cce-8768000aa4c2","system_id":"levelo_inurba_marseille","lat":43.28425,"lon":5.39237,"is_reserved":false,"is_disabled":false,"rental_uris":{"android":"levelo://app?vid=50e400b5-5d9f-464b-9cce-8768000aa4c2","ios":"levelo://app?vid=50e400b5-5d9f-464b-9cce-8768000aa4c2"},"vehicle_type_id":"4","last_reported":1740809553,"current_range_meters":13600,"station_id":"ce4bhoh2rcd13ifvqh5g","pricing_plan_id":"cebpf4jnsgd1na2vs0mg"},{"bike_id":"4015c440-7267-44b4-8be2-f4b87cb51aa9","system_id":"levelo_inurba_marseille","lat":43.255789,"lon":5.382287,"is_reserved":false,"is_disabled":false,"rental_uris":{"android":"levelo://app?vid=4015c440-7267-44b4-8be2-f4b87cb51aa9","ios":"levelo://app?vid=4015c440-7267-44b4-8be2-f4b87cb51aa9"},"vehicle_type_id":"4","last_reported":1740809553,"current_range_meters":13600,"station_id":"ce4bhih2rcd13ifvqfs0","pricing_plan_id":"cebpf4jnsgd1na2vs0mg"},{"bike_id":"161d70e9-e213-4bf5-bde1-9c3d7296d89c","system_id":"levelo_inurba_marseille","lat":43.27841,"lon":5.39192,"is_reserved":false,"is_disabled":true,"rental_uris":{"android":"levelo://app?vid=161d70e9-e213-4bf5-bde1-9c3d7296d89c","ios":"levelo://app?vid=161d70e9-e213-4bf5-bde1-9c3d7296d89c"},"vehicle_type_id":"4","last_reported":1740809553,"current_range_meters":13600,"station_id":"ce4bhjp2rcd13ifvqga0","pricing_plan_id":"cebpf4jnsgd1na2vs0mg"},{"bike_id":"c97737b0-0eee-4061-9cc5-b45f990d6f8d","system_id":"levelo_inurba_marseille","lat":43.31077,"lon":5.42445,"is_reserved":false,"is_disabled":false,"rental_uris":{"android":"levelo://app?vid=c97737b0-0eee-4061-9cc5-b45f990d6f8d","ios":"levelo://app?vid=c97737b0-0eee-4061-9cc5-b45f990d6f8d"},"vehicle_type_id":"4","last_reported":1740809553,"current_range_meters":14000,"station_id":"ce4bhp92rcd13ifvqhag","pricing_plan_id":"cebpf4jnsgd1na2vs0mg"},{"bike_id":"b4ae1c3a-94da-42f6-b079-961c8d8c2672","system_id":"levelo_inurba_marseille","lat":43.23179,"lon":5.3999,"is_reserved":false,"is_disabled":false,"rental_uris":{"android":"levelo://app?vid=b4ae1c3a-94da-42f6-b079-961c8d8c2672","ios":"levelo://app?vid=b4ae1c3a-94da-42f6-b079-961c8d8c2672"},"vehicle_type_id":"4","last_reported":1740809553,"current_range_meters":13600,"station_id":"ce4bhn12rcd13ifvqgqg","pricing_plan_id":"cebpf4jnsgd1na2vs0mg"},{"bike_id":"1446e7c1-13d8-4d3d-ab92-24d048baf8b7","system_id":"levelo_inurba_marseille","lat":43.28728,"lon":5.36089,"is_reserved":false,"is_disabled":false,"rental_uris":{"android":"levelo://app?vid=1446e7c1-13d8-4d3d-ab92-24d048baf8b7","ios":"levelo://app?vid=1446e7c1-13d8-4d3d-ab92-24d048baf8b7"},"vehicle_type_id":"4","last_reported":1740809553,"current_range_meters":14000,"station_id":"cki0cbj6b192h4jlfktg","pricing_plan_id":"cebpf4jnsgd1na2vs0mg"},{"bike_id":"148989c7-1d9c-412e-8d8e-5c7145cb1e87","system_id":"levelo_inurba_marseille","lat":43.312595,"lon":5.401698,"is_reserved":false,"is_disabled":false,"rental_uris":{"android":"levelo://app?vid=148989c7-1d9c-412e-8d8e-5c7145cb1e87","ios":"levelo://app?vid=148989c7-1d9c-412e-8d8e-5c7145cb1e87"},"vehicle_type_id":"4","last_reported":1740809553,"current_range_meters":14000,"station_id":"ce4bh092rcd13ifvqd30","pricing_plan_id":"cebpf4jnsgd1na2vs0mg"},{"bike_id":"33d01ee9-2fc9-4328-b557-dc43e76a4c8a","system_id":"levelo_inurba_marseille","lat":43.26813,"lon":5.42033,"is_reserved":false,"is_disabled":true,"rental_uris":{"android":"levelo://app?vid=33d01ee9-2fc9-4328-b557-dc43e76a4c8a","ios":"levelo://app?vid=33d01ee9-2fc9-4328-b557-dc43e76a4c8a"},"vehicle_type_id":"4","last_reported":1740809553,"current_range_meters":14000,"station_id":"","pricing_plan_id":"cebpf4jnsgd1na2vs0mg"},{"bike_id":"503a1710-2098-49cb-8042-7fa066903670","system_id":"levelo_inurba_marseille","lat":43.30414,"lon":5.41289,"is_reserved":false,"is_disabled":false,"rental_uris":{"android":"levelo://app?vid=503a1710-2098-49cb-8042-7fa066903670","ios":"levelo://app?vid=503a1710-2098-49cb-8042-7fa066903670"},"vehicle_type_id":"4","last_reported":1740809553,"current_range_meters":14000,"station_id":"ce4bhop2rcd13ifvqh8g","pricing_plan_id":"cebpf4jnsgd1na2vs0mg"},{"bike_id":"1e017f9d-10de-496e-8f0a-82ad86e0ed4a","system_id":"levelo_inurba_marseille","lat":43.2894,"lon":5.36388,"is_reserved":false,"is_disabled":false,"rental_uris":{"android":"levelo://app?vid=1e017f9d-10de-496e-8f0a-82ad86e0ed4a","ios":"levelo://app?vid=1e017f9d-10de-496e-8f0a-82ad86e0ed4a"},"vehicle_type_id":"4","last_reported":1740809553,"current_range_meters":14000,"station_id":"ce4bhc92rcd13ifvqetg","pricing_plan_id":"cebpf4jnsgd1na2vs0mg"},{"bike_id":"448318b9-98db-4143-87d2-dabd1ab9c33a","system_id":"levelo_inurba_marseille","lat":43.27836,"lon":5.39213,"is_reserved":false,"is_disabled":false,"rental_uris":{"android":"levelo://app?vid=448318b9-98db-4143-87d2-dabd1ab9c33a","ios":"levelo://app?vid=448318b9-98db-4143-87d2-dabd1ab9c33a"},"vehicle_type_id":"4","last_reported":1740809553,"current_range_meters":14400,"station_id":"ce4bhjp2rcd13ifvqga0","pricing_plan_id":"cebpf4jnsgd1na2vs0mg"},{"bike_id":"0d6a42ea-f26c-48b6-a0a0-37cfbe3d24fa","system_id":"levelo_inurba_marseille","lat":43.30871,"lon":5.39659,"is_reserved":false,"is_disabled":false,"rental_uris":{"android":"levelo://app?vid=0d6a42ea-f26c-48b6-a0a0-37cfbe3d24fa","ios":"levelo://app?vid=0d6a42ea-f26c-48b6-a0a0-37cfbe3d24fa"},"vehicle_type_id":"4","last_reported":1740809553,"current_range_meters":14400,"station_id":"ce4bh012rcd13ifvqcv0","pricing_plan_id":"cebpf4jnsgd1na2vs0mg"},{"bike_id":"f9f4593d-ec14-43c6-ac64-d227a2c444e7","system_id":"levelo_inurba_marseille","lat":43.299336,"lon":5.385336,"is_reserved":false,"is_disabled":true,"rental_uris":{"android":"levelo://app?vid=f9f4593d-ec14-43c6-ac64-d227a2c444e7","ios":"levelo://app?vid=f9f4593d-ec14-43c6-ac64-d227a2c444e7"},"vehicle_type_id":"4","last_reported":1740809553,"current_range_meters":14400,"station_id":"","pricing_plan_id":"cebpf4jnsgd1na2vs0mg"},{"bike_id":"60adc713-a582-4c38-9260-7255b75fa31d","system_id":"levelo_inurba_marseille","lat":43.30854,"lon":5.39657,"is_reserved":false,"is_disabled":false,"rental_uris":{"android":"levelo://app?vid=60adc713-a582-4c38-9260-7255b75fa31d","ios":"levelo://app?vid=60adc713-a582-4c38-9260-7255b75fa31d"},"vehicle_type_id":"4","last_reported":1740809553,"current_range_meters":14400,"station_id":"","pricing_plan_id":"cebpf4jnsgd1na2vs0mg"},{"bike_id":"12c708ce-a80f-4753-8f3f-c2efbdc3fd8f","system_id":"levelo_inurba_marseille","lat":43.29276,"lon":5.40121,"is_reserved":false,"is_disabled":false,"rental_uris":{"android":"levelo://app?vid=12c708ce-a80f-4753-8f3f-c2efbdc3fd8f","ios":"levelo://app?vid=12c708ce-a80f-4753-8f3f-c2efbdc3fd8f"},"vehicle_type_id":"4","last_reported":1740809553,"current_range_meters":14400,"station_id":"ce4bh312rcd13ifvqdk0","pricing_plan_id":"cebpf4jnsgd1na2vs0mg"},{"bike_id":"24db149f-1618-42c4-af45-9cda7f46d94c","system_id":"levelo_inurba_marseille","lat":43.27079,"lon":5.4228,"is_reserved":false,"is_disabled":false,"rental_uris":{"android":"levelo://app?vid=24db149f-1618-42c4-af45-9cda7f46d94c","ios":"levelo://app?vid=24db149f-1618-42c4-af45-9cda7f46d94c"},"vehicle_type_id":"4","last_reported":1740809553,"current_range_meters":14800,"station_id":"ce4bhk92rcd13ifvqgb0","pricing_plan_id":"cebpf4jnsgd1na2vs0mg"},{"bike_id":"8a94d05e-0ac9-4900-afae-8f1bbe4e36de","system_id":"levelo_inurba_marseille","lat":43.308807,"lon":5.396308,"is_reserved":false,"is_disabled":false,"rental_uris":{"android":"levelo://app?vid=8a94d05e-0ac9-4900-afae-8f1bbe4e36de","ios":"levelo://app?vid=8a94d05e-0ac9-4900-afae-8f1bbe4e36de"},"vehicle_type_id":"4","last_reported":1740809553,"current_range_meters":14800,"station_id":"ce4bh012rcd13ifvqcv0","pricing_plan_id":"cebpf4jnsgd1na2vs0mg"},{"bike_id":"3815a125-565a-4577-8461-7a3710056863","system_id":"levelo_inurba_marseille","lat":43.2847,"lon":5.35905,"is_reserved":false,"is_disabled":false,"rental_uris":{"android":"levelo://app?vid=3815a125-565a-4577-8461-7a3710056863","ios":"levelo://app?vid=3815a125-565a-4577-8461-7a3710056863"},"vehicle_type_id":"4","last_reported":1740809553,"current_range_meters":14800,"station_id":"ce4bhah2rcd13ifvqei0","pricing_plan_id":"cebpf4jnsgd1na2vs0mg"},{"bike_id":"79b55def-29f8-4bc1-9b24-150089636dae","system_id":"levelo_inurba_marseille","lat":43.31279,"lon":5.4017,"is_reserved":false,"is_disabled":false,"rental_uris":{"android":"levelo://app?vid=79b55def-29f8-4bc1-9b24-150089636dae","ios":"levelo://app?vid=79b55def-29f8-4bc1-9b24-150089636dae"},"vehicle_type_id":"4","last_reported":1740809553,"current_range_meters":14800,"station_id":"ce4bh092rcd13ifvqd30","pricing_plan_id":"cebpf4jnsgd1na2vs0mg"},{"bike_id":"7f349580-1509-4fcd-ad52-33621df4c53d","system_id":"levelo_inurba_marseille","lat":43.28089,"lon":5.39862,"is_reserved":false,"is_disabled":false,"rental_uris":{"android":"levelo://app?vid=7f349580-1509-4fcd-ad52-33621df4c53d","ios":"levelo://app?vid=7f349580-1509-4fcd-ad52-33621df4c53d"},"vehicle_type_id":"4","last_reported":1740809553,"current_range_meters":13600,"station_id":"","pricing_plan_id":"cebpf4jnsgd1na2vs0mg"},{"bike_id":"1e7b4f8f-530c-4c66-b2b5-3d640816c35d","system_id":"levelo_inurba_marseille","lat":43.27785,"lon":5.42115,"is_reserved":false,"is_disabled":false,"rental_uris":{"android":"levelo://app?vid=1e7b4f8f-530c-4c66-b2b5-3d640816c35d","ios":"levelo://app?vid=1e7b4f8f-530c-4c66-b2b5-3d640816c35d"},"vehicle_type_id":"4","last_reported":1740809553,"current_range_meters":14800,"station_id":"","pricing_plan_id":"cebpf4jnsgd1na2vs0mg"},{"bike_id":"a950a9f2-a885-4c0e-a1c3-dcf66812a712","system_id":"levelo_inurba_marseille","lat":43.309339,"lon":5.40147,"is_reserved":false,"is_disabled":false,"rental_uris":{"android":"levelo://app?vid=a950a9f2-a885-4c0e-a1c3-dcf66812a712","ios":"levelo://app?vid=a950a9f2-a885-4c0e-a1c3-dcf66812a712"},"vehicle_type_id":"4","last_reported":1740809553,"current_range_meters":14800,"station_id":"ce4bgvp2rcd13ifvqct0","pricing_plan_id":"cebpf4jnsgd1na2vs0mg"},{"bike_id":"9e70006a-cdf2-4919-93a2-3c66955a3b59","system_id":"levelo_inurba_marseille","lat":43.32372,"lon":5.36775,"is_reserved":false,"is_disabled":false,"rental_uris":{"android":"levelo://app?vid=9e70006a-cdf2-4919-93a2-3c66955a3b59","ios":"levelo://app?vid=9e70006a-cdf2-4919-93a2-3c66955a3b59"},"vehicle_type_id":"4","last_reported":1740809553,"current_range_meters":15200,"station_id":"ce4bhsh2rcd13ifvqi2g","pricing_plan_id":"cebpf4jnsgd1na2vs0mg"},{"bike_id":"ff0564b1-0358-4fbe-ae0e-cd07ad693566","system_id":"levelo_inurba_marseille","lat":43.28707,"lon":5.39978,"is_reserved":false,"is_disabled":false,"rental_uris":{"android":"levelo://app?vid=ff0564b1-0358-4fbe-ae0e-cd07ad693566","ios":"levelo://app?vid=ff0564b1-0358-4fbe-ae0e-cd07ad693566"},"vehicle_type_id":"4","last_reported":1740809553,"current_range_meters":15200,"station_id":"ce4bho92rcd13ifvqh3g","pricing_plan_id":"cebpf4jnsgd1na2vs0mg"},{"bike_id":"2d0f4b31-c28f-4866-b331-a400f1c2a007","system_id":"levelo_inurba_marseille","lat":43.28448,"lon":5.35903,"is_reserved":false,"is_disabled":false,"rental_uris":{"android":"levelo://app?vid=2d0f4b31-c28f-4866-b331-a400f1c2a007","ios":"levelo://app?vid=2d0f4b31-c28f-4866-b331-a400f1c2a007"},"vehicle_type_id":"4","last_reported":1740809553,"current_range_meters":15200,"station_id":"ce4bhah2rcd13ifvqei0","pricing_plan_id":"cebpf4jnsgd1na2vs0mg"},{"bike_id":"4a0968a0-7336-404d-b835-31e9b88dc625","system_id":"levelo_inurba_marseille","lat":43.30928,"lon":5.401446,"is_reserved":false,"is_disabled":false,"rental_uris":{"android":"levelo://app?vid=4a0968a0-7336-404d-b835-31e9b88dc625","ios":"levelo://app?vid=4a0968a0-7336-404d-b835-31e9b88dc625"},"vehicle_type_id":"4","last_reported":1740809553,"current_range_meters":15200,"station_id":"ce4bgvp2rcd13ifvqct0","pricing_plan_id":"cebpf4jnsgd1na2vs0mg"},{"bike_id":"fddf7069-46f5-4f88-96f6-a18fccb19ac5","system_id":"levelo_inurba_marseille","lat":43.3052,"lon":5.36723,"is_reserved":false,"is_disabled":false,"rental_uris":{"android":"levelo://app?vid=fddf7069-46f5-4f88-96f6-a18fccb19ac5","ios":"levelo://app?vid=fddf7069-46f5-4f88-96f6-a18fccb19ac5"},"vehicle_type_id":"4","last_reported":1740809553,"current_range_meters":15200,"station_id":"ce4bgrp2rcd13ifvqc9g","pricing_plan_id":"cebpf4jnsgd1na2vs0mg"},