{"last_updated":1745741497,"ttl":60,"version":"2.2","data":{"bikes":[{"bike_id":"d3547409-8a5b-47e3-b817-711efe10d455","system_id":"levelo_inurba_marseille","lat":43.31075,"lon":5.38347,"is_reserved":false,"is_disabled":false,"rental_uris":{"android":"levelo://app?vid=d3547409-8a5b-47e3-b817-711efe10d455","ios":"levelo://app?vid=d3547409-8a5b-47e3-b817-711efe10d455"},"vehicle_type_id":"4","last_reported":1745741497,"current_range_meters":2800,"station_id":"ce4bgv92rcd13ifvqcr0","pricing_plan_id":"cebpf4jnsgd1na2vs0mg"},{"bike_id":"2b78cab4-dbfd-4363-9cc9-0f4095c6e46d","system_id":"levelo_inurba_marseille","lat":43.28412,"lon":5.34977,"is_reserved":false,"is_disabled":false,"rental_uris":{"android":"levelo://app?vid=2b78cab4-dbfd-4363-9cc9-0f4095c6e46d","ios":"levelo://app?vid=2b78cab4-dbfd-4363-9cc9-0f4095c6e46d"},"vehicle_type_id":"4","last_reported":1745741497,"current_range_meters":3200,"station_id":"ce4bhbh2rcd13ifvqepg","pricing_plan_id":"cebpf4jnsgd1na2vs0mg"},{"bike_id":"422b5989-c8b6-43aa-b2b9-3bfeb2e1ddc0","system_id":"levelo_inurba_marseille","lat":43.24729,"lon":5.41161,"is_reserved":false,"is_disabled":false,"rental_uris":{"android":"levelo://app?vid=422b5989-c8b6-43aa-b2b9-3bfeb2e1ddc0","ios":"levelo://app?vid=422b5989-c8b6-43aa-b2b9-3bfeb2e1ddc0"},"vehicle_type_id":"4","last_reported":1745741497,"current_range_meters":3600,"station_id":"","pricing_plan_id":"cebpf4jnsgd1na2vs0mg"},{"bike_id":"e99e6315-2751-4329-ad7b-f9d19f8ec3ef","system_id":"levelo_inurba_marseille","lat":43.28162,"lon":5.42639,"is_reserved":false,"is_disabled":false,"rental_uris":{"android":"levelo://app?vid=e99e6315-2751-4329-ad7b-f9d19f8ec3ef","ios":"levelo://app?vid=e99e6315-2751-4329-ad7b-f9d19f8ec3ef"},"vehicle_type_id":"4","last_reported":1745741497,"current_range_meters":3600,"station_id":"ce4bhnh2rcd13ifvqgug","pricing_plan_id":"cebpf4jnsgd1na2vs0mg"},{"bike_id":"bf5cf6b7-c538-4903-a90b-18b5b995616b","system_id":"levelo_inurba_marseille","lat":43.29918,"lon":5.37181,"is_reserved":false,"is_disabled":false,"rental_uris":{"android":"levelo://app?vid=bf5cf6b7-c538-4903-a90b-18b5b995616b","ios":"levelo://app?vid=bf5cf6b7-c538-4903-a90b-18b5b995616b"},"vehicle_type_id":"4","last_reported":1745741497,"current_range_meters":3600,"station_id":"","pricing_plan_id":"cebpf4jnsgd1na2vs0mg"},{"bike_id":"d1ff7e34-d25d-4063-9648-2bd4db47424f","system_id":"levelo_inurba_marseille","lat":43.32455,"lon":5.39145,"is_reserved":false,"is_disabled":true,"rental_uris":{"android":"levelo://app?vid=d1ff7e34-d25d-4063-9648-2bd4db47424f","ios":"levelo://app?vid=d1ff7e34-d25d-4063-9648-2bd4db47424f"},"vehicle_type_id":"4","last_reported":1745741497,"current_range_meters":3600,"station_id":"","pricing_plan_id":"cebpf4jnsgd1na2vs0mg"},{"bike_id":"f62a4552-ec40-438e-82bf-49608a81162e","system_id":"levelo_inurba_marseille","lat":43.23963,"lon":5.36651,"is_reserved":false,"is_disabled":false,"rental_uris":{"android":"levelo://app?vid=f62a4552-ec40-438e-82bf-49608a81162e","ios":"levelo://app?vid=f62a4552-ec40-438e-82bf-49608a81162e"},"vehicle_type_id":"4","last_reported":1745741497,"current_range_meters":4000,"station_id":"ce4bhi12rcd13ifvqfp0","pricing_plan_id":"cebpf4jnsgd1na2vs0mg"},{"bike_id":"599f4c33-d0b7-445d-959e-309c14ce1917","system_id":"levelo_inurba_marseille","lat":43.26192,"lon":5.37444,"is_reserved":false,"is_disabled":false,"rental_uris":{"android":"levelo://app?vid=599f4c33-d0b7-445d-959e-309c14ce1917","ios":"levelo://app?vid=599f4c33-d0b7-445d-959e-309c14ce1917"},"vehicle_type_id":"4","last_reported":1745741497,"current_range_meters":4000,"station_id":"ce4bhgp2rcd13ifvqfc0","pricing_plan_id":"cebpf4jnsgd1na2vs0mg"},{"bike_id":"3b6e3216-f666-4298-a310-acc5d51086df","system_id":"levelo_inurba_marseille","lat":43.24176,"lon":5.39736,"is_reserved":false,"is_disabled":false,"rental_uris":{"android":"levelo://app?vid=3b6e3216-f666-4298-a310-acc5d51086df","ios":"levelo://app?vid=3b6e3216-f666-4298-a310-acc5d51086df"},"vehicle_type_id":"4","last_reported":1745741497,"current_range_meters":4400,"station_id":"ce4bhn12rcd13ifvqgpg","pricing_plan_id":"cebpf4jnsgd1na2vs0mg"},{"bike_id":"11401a89-1aad-4932-8dc9-873ec02586b9","system_id":"levelo_inurba_marseille","lat":43.225006,"lon":5.34782,"is_reserved":false,"is_disabled":false,"rental_uris":{"android":"levelo://app?vid=11401a89-1aad-4932-8dc9-873ec02586b9","ios":"levelo://app?vid=11401a89-1aad-4932-8dc9-873ec02586b9"},"vehicle_type_id":"4","last_reported":1745741497,"current_range_meters":4400,"station_id":"ce4bgjp2rcd13ifvqbh0","pricing_plan_id":"cebpf4jnsgd1na2vs0mg"},{"bike_id":"554fe001-fd7c-4ce9-8b9f-fe24a3da343a","system_id":"levelo_inurba_marseille","lat":43.23189,"lon":5.35549,"is_reserved":false,"is_disabled":false,"rental_uris":{"android":"levelo://app?vid=554fe001-fd7c-4ce9-8b9f-fe24a3da343a","ios":"levelo://app?vid=554fe001-fd7c-4ce9-8b9f-fe24a3da343a"},"vehicle_type_id":"4","last_reported":1745741497,"current_range_meters":4800,"station_id":"ce4bhu92rcd13ifvqi70","pricing_plan_id":"cebpf4jnsgd1na2vs0mg"},{"bike_id":"443d6ddb-b230-4118-872e-9387df278ccd","system_id":"levelo_inurba_marseille","lat":43.24055,"lon":5.37753,"is_reserved":false,"is_disabled":false,"rental_uris":{"android":"levelo://app?vid=443d6ddb-b230-4118-872e-9387df278ccd","ios":"levelo://app?vid=443d6ddb-b230-4118-872e-9387df278ccd"},"vehicle_type_id":"4","last_reported":1745741497,"current_range_meters":4800,"station_id":"ce4bhnp2rcd13ifvqgvg","pricing_plan_id":"cebpf4jnsgd1na2vs0mg"},{"bike_id":"18ae1d78-8d9e-4697-bc48-a39d36035c1d","system_id":"levelo_inurba_marseille","lat":43.23968,"lon":5.36609,"is_reserved":false,"is_disabled":false,"rental_uris":{"android":"levelo://app?vid=18ae1d78-8d9e-4697-bc48-a39d36035c1d","ios":"levelo://app?vid=18ae1d78-8d9e-4697-bc48-a39d36035c1d"},"vehicle_type_id":"4","last_reported":1745741497,"current_range_meters":4800,"station_id":"ce4bhi12rcd13ifvqfp0","pricing_plan_id":"cebpf4jnsgd1na2vs0mg"},{"bike_id":"337d6634-6137-491d-8e76-db4d07035df8","system_id":"levelo_inurba_marseille","lat":43.26951,"lon":5.38624,"is_reserved":false,"is_disabled":false,"rental_uris":{"android":"levelo://app?vid=337d6634-6137-491d-8e76-db4d07035df8","ios":"levelo://app?vid=337d6634-6137-491d-8e76-db4d07035df8"},"vehicle_type_id":"4","last_reported":1745741497,"current_range_meters":5600,"station_id":"ce4bhh92rcd13ifvqfh0","pricing_plan_id":"cebpf4jnsgd1na2vs0mg"},{"bike_id":"d48770ea-271d-480f-a83f-8620fe6a1833","system_id":"levelo_inurba_marseille","lat":43.28179,"lon":5.40462,"is_reserved":false,"is_disabled":true,"rental_uris":{"android":"levelo://app?vid=d48770ea-271d-480f-a83f-8620fe6a1833","ios":"levelo://app?vid=d48770ea-271d-480f-a83f-8620fe6a1833"},"vehicle_type_id":"4","last_reported":1745741497,"current_range_meters":5600,"station_id":"","pricing_plan_id":"cebpf4jnsgd1na2vs0mg"},{"bike_id":"464b6a75-bc27-42cd-a789-7a69372c7681","system_id":"levelo_inurba_marseille","lat":43.29714,"lon":5.36624,"is_reserved":false,"is_disabled":false,"rental_uris":{"android":"levelo://app?vid=464b6a75-bc27-42cd-a789-7a69372c7681","ios":"levelo://app?vid=464b6a75-bc27-42cd-a789-7a69372c7681"},"vehicle_type_id":"4","last_reported":1745741497,"current_range_meters":5600,"station_id":"ce4bgn12rcd13ifvqbt0","pricing_plan_id":"cebpf4jnsgd1na2vs0mg"},{"bike_id":"51376682-930e-45ed-90e0-b53d931ddc33","system_id":"levelo_inurba_marseille","lat":43.274966,"lon":5.424549,"is_reserved":false,"is_disabled":false,"rental_uris":{"android":"levelo://app?vid=51376682-930e-45ed-90e0-b53d931ddc33","ios":"levelo://app?vid=51376682-930e-45ed-90e0-b53d931ddc33"},"vehicle_type_id":"4","last_reported":1745741497,"current_range_meters":6000,"station_id":"ce4bhn92rcd13ifvqgrg","pricing_plan_id":"cebpf4jnsgd1na2vs0mg"},{"bike_id":"1633ed64-e423-42e4-93c5-471c5c6b4f37","system_id":"levelo_inurba_marseille","lat":43.26061,"lon":5.39392,"is_reserved":false,"is_disabled":false,"rental_uris":{"android":"levelo://app?vid=1633ed64-e423-42e4-93c5-471c5c6b4f37","ios":"levelo://app?vid=1633ed64-e423-42e4-93c5-471c5c6b4f37"},"vehicle_type_id":"4","last_reported":1745741497,"current_range_meters":6000,"station_id":"ce4bhh92rcd13ifvqfj0","pricing_plan_id":"cebpf4jnsgd1na2vs0mg"},{"bike_id":"ca570128-a1d8-4fc9-b4ae-d1371ee8f806","system_id":"levelo_inurba_marseille","lat":43.31485,"lon":5.37297,"is_reserved":false,"is_disabled":false,"rental_uris":{"android":"levelo://app?vid=ca570128-a1d8-4fc9-b4ae-d1371ee8f806","ios":"levelo://app?vid=ca570128-a1d8-4fc9-b4ae-d1371ee8f806"},"vehicle_type_id":"4","last_reported":1745741497,"current_range_meters":6400,"station_id":"ce4bgt12rcd13ifvqcd0","pricing_plan_id":"cebpf4jnsgd1na2vs0mg"},{"bike_id":"6104de1b-83a6-4912-bfa1-49d35364e6af","system_id":"levelo_inurba_marseille","lat":43.23965,"lon":5.36636,"is_reserved":false,"is_disabled":false,"rental_uris":{"android":"levelo://app?vid=6104de1b-83a6-4912-bfa1-49d35364e6af","ios":"levelo://app?vid=6104de1b-83a6-4912-bfa1-49d35364e6af"},"vehicle_type_id":"4","last_reported":1745741497,"current_range_meters":6400,"station_id":"ce4bhi12rcd13ifvqfp0","pricing_plan_id":"cebpf4jnsgd1na2vs0mg"},{"bike_id":"6dca686a-2175-445a-9163-0794e594f55e","system_id":"levelo_inurba_marseille","lat":43.279943,"lon":5.416593,"is_reserved":false,"is_disabled":false,"rental_uris":{"android":"levelo://app?vid=6dca686a-2175-445a-9163-0794e594f55e","ios":"levelo://app?vid=6dca686a-2175-445a-9163-0794e594f55e"},"vehicle_type_id":"4","last_reported":1745741497,"current_range_meters":6400,"station_id":"ce4bho12rcd13ifvqh1g","pricing_plan_id":"cebpf4jnsgd1na2vs0mg"},{"bike_id":"cf267648-75b9-4998-852c-4269527482af","system_id":"levelo_inurba_marseille","lat":43.32054,"lon":5.41542,"is_reserved":false,"is_disabled":false,"rental_uris":{"android":"levelo://app?vid=cf267648-75b9-4998-852c-4269527482af","ios":"levelo://app?vid=cf267648-75b9-4998-852c-4269527482af"},"vehicle_type_id":"4","last_reported":1745741497,"current_range_meters":6400,"station_id":"ce4bhq92rcd13ifvqhkg","pricing_plan_id":"cebpf4jnsgd1na2vs0mg"},{"bike_id":"473b4fa7-cf37-4b49-9185-1b1ee1ccb717","system_id":"levelo_inurba_marseille","lat":43.30455,"lon":5.37923,"is_reserved":false,"is_disabled":false,"rental_uris":{"android":"levelo://app?vid=473b4fa7-cf37-4b49-9185-1b1ee1ccb717","ios":"levelo://app?vid=473b4fa7-cf37-4b49-9185-1b1ee1ccb717"},"vehicle_type_id":"4","last_reported":1745741497,"current_range_meters":6400,"station_id":"ce4bgup2rcd13ifvqcn0","pricing_plan_id":"cebpf4jnsgd1na2vs0mg"},{"bike_id":"bbfbe63d-2583-4167-a100-08c737992bef","system_id":"levelo_inurba_marseille","lat":43.29673,"lon":5.38025,"is_reserved":false,"is_disabled":false,"rental_uris":{"android":"levelo://app?vid=bbfbe63d-2583-4167-a100-08c737992bef","ios":"levelo://app?vid=bbfbe63d-2583-4167-a100-08c737992bef"},"vehicle_type_id":"4","last_reported":1745741497,"current_range_meters":6400,"station_id":"","pricing_plan_id":"cebpf4jnsgd1na2vs0mg"},{"bike_id":"031b3d7d-e23b-4688-9757-3f56e6ee5936","system_id":"levelo_inurba_marseille","lat":43.30434,"lon":5.38884,"is_reserved":false,"is_disabled":false,"rental_uris":{"android":"levelo://app?vid=031b3d7d-e23b-4688-9757-3f56e6ee5936","ios":"levelo://app?vid=031b3d7d-e23b-4688-9757-3f56e6ee5936"},"vehicle_type_id":"4","last_reported":1745741497,"current_range_meters":6800,"station_id":"ce4bgk12rcd13ifvqbi0","pricing_plan_id":"cebpf4jnsgd1na2vs0mg"},{"bike_id":"c116c149-7e94-4716-976a-232a574ad94e","system_id":"levelo_inurba_marseille","lat":43.30638,"lon":5.40088,"is_reserved":false,"is_disabled":false,"rental_uris":{"android":"levelo://app?vid=c116c149-7e94-4716-976a-232a574ad94e","ios":"levelo://app?vid=c116c149-7e94-4716-976a-232a574ad94e"},"vehicle_type_id":"4","last_reported":1745741497,"current_range_meters":6800,"station_id":"ce4bh112rcd13ifvqda0","pricing_plan_id":"cebpf4jnsgd1na2vs0mg"},{"bike_id":"b25d821f-85f0-4e36-bfe6-db46d00f9763","system_id":"levelo_inurba_marseille","lat":43.295578,"lon":5.422786,"is_reserved":false,"is_disabled":false,"rental_uris":{"android":"levelo://app?vid=b25d821f-85f0-4e36-bfe6-db46d00f9763","ios":"levelo://app?vid=b25d821f-85f0-4e36-bfe6-db46d00f9763"},"vehicle_type_id":"4","last_reported":1745741497,"current_range_meters":6800,"station_id":"ce4bhph2rcd13ifvqhdg","pricing_plan_id":"cebpf4jnsgd1na2vs0mg"},{"bike_id":"d945f531-4986-430c-9262-bca889a181c4","system_id":"levelo_inurba_marseille","lat":43.24074,"lon":5.37765,"is_reserved":false,"is_disabled":false,"rental_uris":{"android":"levelo://app?vid=d945f531-4986-430c-9262-bca889a181c4","ios":"levelo://app?vid=d945f531-4986-430c-9262-bca889a181c4"},"vehicle_type_id":"4","last_reported":1745741497,"current_range_meters":6800,"station_id":"ce4bhnp2rcd13ifvqgvg","pricing_plan_id":"cebpf4jnsgd1na2vs0mg"},{"bike_id":"206d6220-b715-46fc-be54-9a6732301080","system_id":"levelo_inurba_marseille","lat":43.278,"lon":5.40696,"is_reserved":false,"is_disabled":false,"rental_uris":{"android":"levelo://app?vid=206d6220-b715-46fc-be54-9a6732301080","ios":"levelo://app?vid=206d6220-b715-46fc-be54-9a6732301080"},"vehicle_type_id":"4","last_reported":1745741497,"current_range_meters":6800,"station_id":"ce4bhnh2rcd13ifvqgtg","pricing_plan_id":"cebpf4jnsgd1na2vs0mg"},{"bike_id":"34580b8c-6562-48bc-aefe-bbad0209960e","system_id":"levelo_inurba_marseille","lat":43.29052,"lon":5.39966,"is_reserved":false,"is_disabled":false,"rental_uris":{"android":"levelo://app?vid=34580b8c-6562-48bc-aefe-bbad0209960e","ios":"levelo://app?vid=34580b8c-6562-48bc-aefe-bbad0209960e"},"vehicle_type_id":"4","last_reported":1745741497,"current_range_meters":7200,"station_id":"ce4bh392rcd13ifvqdm0","pricing_plan_id":"cebpf4jnsgd1na2vs0mg"},{"bike_id":"ac7a26c9-9486-4849-9799-d4b2b16836ff","system_id":"levelo_inurba_marseille","lat":43.301516,"lon":5.380728,"is_reserved":false,"is_disabled":false,"rental_uris":{"android":"levelo://app?vid=ac7a26c9-9486-4849-9799-d4b2b16836ff","ios":"levelo://app?vid=ac7a26c9-9486-4849-9799-d4b2b16836ff"},"vehicle_type_id":"4","last_reported":1745741497,"current_range_meters":7200,"station_id":"ce4bhoh2rcd13ifvqh5g","pricing_plan_id":"cebpf4jnsgd1na2vs0mg"},{"bike_id":"c886bc95-a9f4-4b08-af93-286cc6dbd1ea","system_id":"levelo_inurba_marseille","lat":43.2417,"lon":5.36387,"is_reserved":false,"is_disabled":false,"rental_uris":{"android":"levelo://app?vid=c886bc95-a9f4-4b08-af93-286cc6dbd1ea","ios":"levelo://app?vid=c886bc95-a9f4-4b08-af93-286cc6dbd1ea"},"vehicle_type_id":"4","last_reported":1745741497,"current_range_meters":7200,"station_id":"cpo36qri1sfpv3e86is0","pricing_plan_id":"cebpf4jnsgd1na2vs0mg"},{"bike_id":"b9d9721d-c534-4190-b885-afd25bc0dc94","system_id":"levelo_inurba_marseille","lat":43.2926,"lon":5.3761,"is_reserved":false,"is_disabled":false,"rental_uris":{"android":"levelo://app?vid=b9d9721d-c534-4190-b885-afd25bc0dc94","ios":"levelo://app?vid=b9d9721d-c534-4190-b885-afd25bc0dc94"},"vehicle_type_id":"4","last_reported":1745741497,"current_range_meters":7200,"station_id":"ce4bgi12rcd13ifvqb80","pricing_plan_id":"cebpf4jnsgd1na2vs0mg"},{"bike_id":"571880c0-0712-439e-9fee-1111267484d9","system_id":"levelo_inurba_marseille","lat":43.28713,"lon":5.37945,"is_reserved":false,"is_disabled":true,"rental_uris":{"android":"levelo://app?vid=571880c0-0712-439e-9fee-1111267484d9","ios":"levelo://app?vid=571880c0-0712-439e-9fee-1111267484d9"},"vehicle_type_id":"4","last_reported":1745741497,"current_range_meters":8000,"station_id":"ce4bh9p2rcd13ifvqec0","pricing_plan_id":"cebpf4jnsgd1na2vs0mg"},{"bike_id":"546e7015-81b1-432f-864a-95fd254e6c8f","system_id":"levelo_inurba_marseille","lat":43.310867,"lon":5.388888,"is_reserved":false,"is_disabled":false,"rental_uris":{"android":"levelo://app?vid=546e7015-81b1-432f-864a-95fd254e6c8f","ios":"levelo://app?vid=546e7015-81b1-432f-864a-95fd254e6c8f"},"vehicle_type_id":"4","last_reported":1745741497,"current_range_meters":7200,"station_id":"ce4bh0h2rcd13ifvqd40","pricing_plan_id":"cebpf4jnsgd1na2vs0mg"},{"bike_id":"b4b0266c-631d-4bc0-b722-43b22c86c85f","system_id":"levelo_inurba_marseille","lat":43.30934,"lon":5.41675,"is_reserved":false,"is_disabled":false,"rental_uris":{"android":"levelo://app?vid=b4b0266c-631d-4bc0-b722-43b22c86c85f","ios":"levelo://app?vid=b4b0266c-631d-4bc0-b722-43b22c86c85f"},"vehicle_type_id":"4","last_reported":1745741497,"current_range_meters":8000,"station_id":"","pricing_plan_id":"cebpf4jnsgd1na2vs0mg"},{"bike_id":"2fac31c9-ecd4-4c07-9ea5-ab959ac9f813","system_id":"levelo_inurba_marseille","lat":43.246837,"lon":5.381693,"is_reserved":false,"is_disabled":true,"rental_uris":{"android":"levelo://app?vid=2fac31c9-ecd4-4c07-9ea5-ab959ac9f813","ios":"levelo://app?vid=2fac31c9-ecd4-4c07-9ea5-ab959ac9f813"},"vehicle_type_id":"4","last_reported":1745741497,"current_range_meters":8000,"station_id":"ce4bhih2rcd13ifvqfr0","pricing_plan_id":"cebpf4jnsgd1na2vs0mg"},{"bike_id":"6a2fd7e6-9d52-4684-b4d0-cd99c055c4a7","system_id":"levelo_inurba_marseille","lat":43.30461,"lon":5.37895,"is_reserved":false,"is_disabled":false,"rental_uris":{"android":"levelo://app?vid=6a2fd7e6-9d52-4684-b4d0-cd99c055c4a7","ios":"levelo://app?vid=6a2fd7e6-9d52-4684-b4d0-cd99c055c4a7"},"vehicle_type_id":"4","last_reported":1745741497,"current_range_meters":8000,"station_id":"ce4bgup2rcd13ifvqcn0","pricing_plan_id":"cebpf4jnsgd1na2vs0mg"},{"bike_id":"3f485f12-ccbf-4cc6-bfee-26b7c2709069","system_id":"levelo_inurba_marseille","lat":43.28184,"lon":5.49057,"is_reserved":false,"is_disabled":false,"rental_uris":{"android":"levelo://app?vid=3f485f12-ccbf-4cc6-bfee-26b7c2709069","ios":"levelo://app?vid=3f485f12-ccbf-4cc6-bfee-26b7c2709069"},"vehicle_type_id":"4","last_reported":1745741497,"current_range_meters":8000,"station_id":"","pricing_plan_id":"cebpf4jnsgd1na2vs0mg"},{"bike_id":"e768aa58-f78c-4d48-862b-93a92cf87bd8","system_id":"levelo_inurba_marseille","lat":43.3211,"lon":5.3677,"is_reserved":false,"is_disabled":false,"rental_uris":{"android":"levelo://app?vid=e768aa58-f78c-4d48-862b-93a92cf87bd8","ios":"levelo://app?vid=e768aa58-f78c-4d48-862b-93a92cf87bd8"},"vehicle_type_id":"4","last_reported":1745741497,"current_range_meters":8400,"station_id":"ce4bhrh2rcd13ifvqhug","pricing_plan_id":"cebpf4jnsgd1na2vs0mg"},{"bike_id":"042a36cf-a68c-4f02-8fbe-a3d4f36fa492","system_id":"levelo_inurba_marseille","lat":43.21189,"lon":5.35073,"is_reserved":false,"is_disabled":false,"rental_uris":{"android":"levelo://app?vid=042a36cf-a68c-4f02-8fbe-a3d4f36fa492","ios":"levelo://app?vid=042a36cf-a68c-4f02-8fbe-a3d4f36fa492"},"vehicle_type_id":"4","last_reported":1745741497,"current_range_meters":8400,"station_id":"st_cvj6sg6p6f1abm77japg","pricing_plan_id":"cebpf4jnsgd1na2vs0mg"},{"bike_id":"aa7dd23a-c50c-4359-a4fa-3d29c4576751","system_id":"levelo_inurba_marseille","lat":43.24139,"lon":5.36361,"is_reserved":false,"is_disabled":false,"rental_uris":{"android":"levelo://app?vid=aa7dd23a-c50c-4359-a4fa-3d29c4576751","ios":"levelo://app?vid=aa7dd23a-c50c-4359-a4fa-3d29c4576751"},"vehicle_type_id":"4","last_reported":1745741497,"current_range_meters":8400,"station_id":"cpo36qri1sfpv3e86is0","pricing_plan_id":"cebpf4jnsgd1na2vs0mg"},{"bike_id":"e303c1c2-e6ff-4b34-a154-e59b758779d6","system_id":"levelo_inurba_marseille","lat":43.284125,"lon":5.375011,"is_reserved":false,"is_disabled":false,"rental_uris":{"android":"levelo://app?vid=e303c1c2-e6ff-4b34-a154-e59b758779d6","ios":"levelo://app?vid=e303c1c2-e6ff-4b34-a154-e59b758779d6"},"vehicle_type_id":"4","last_reported":1745741497,"current_range_meters":8400,"station_id":"ce4bhbh2rcd13ifvqeqg","pricing_plan_id":"cebpf4jnsgd1na2vs0mg"},{"bike_id":"c1b1b433-bcb9-4a7d-8963-3218bcdcba1e","system_id":"levelo_inurba_marseille","lat":43.23367,"lon":5.36038,"is_reserved":false,"is_disabled":false,"rental_uris":{"android":"levelo://app?vid=c1b1b433-bcb9-4a7d-8963-3218bcdcba1e","ios":"levelo://app?vid=c1b1b433-bcb9-4a7d-8963-3218bcdcba1e"},"vehicle_type_id":"4","last_reported":1745741497,"current_range_meters":8400,"station_id":"","pricing_plan_id":"cebpf4jnsgd1na2vs0mg"},{"bike_id":"308ce0d7-54d5-4aec-879f-da2149307f93","system_id":"levelo_inurba_marseille","lat":43.225045,"lon":5.34773,"is_reserved":false,"is_disabled":true,"rental_uris":{"android":"levelo://app?vid=308ce0d7-54d5-4aec-879f-da2149307f93","ios":"levelo://app?vid=308ce0d7-54d5-4aec-879f-da2149307f93"},"vehicle_type_id":"4","last_reported":1745741497,"current_range_meters":8800,"station_id":"st_cvj5dfep6f1abm77gieg","pricing_plan_id":"cebpf4jnsgd1na2vs0mg"},{"bike_id":"6d7cc870-ccfd-4f48-96fb-e8c1f82a64cc","system_id":"levelo_inurba_marseille","lat":43.29807,"lon":5.37117,"is_reserved":false,"is_disabled":true,"rental_uris":{"android":"levelo://app?vid=6d7cc870-ccfd-4f48-96fb-e8c1f82a64cc","ios":"levelo://app?vid=6d7cc870-ccfd-4f48-96fb-e8c1f82a64cc"},"vehicle_type_id":"4","last_reported":1745741497,"current_range_meters":8800,"station_id":"ce4bgop2rcd13ifvqc1g","pricing_plan_id":"cebpf4jnsgd1na2vs0mg"},{"bike_id":"757a31c2-77e1-4627-a72e-6a5115a94e27","system_id":"levelo_inurba_marseille","lat":43.217523,"lon":5.346015,"is_reserved":false,"is_disabled":false,"rental_uris":{"android":"levelo://app?vid=757a31c2-77e1-4627-a72e-6a5115a94e27","ios":"levelo://app?vid=757a31c2-77e1-4627-a72e-6a5115a94e27"},"vehicle_type_id":"4","last_reported":1745741497,"current_range_meters":8800,"station_id":"st_cvj6r9ubvosntc0bgbag","pricing_plan_id":"cebpf4jnsgd1na2vs0mg"},{"bike_id":"9d24975d-5989-4c6e-bc54-bdc168e02c5f","system_id":"levelo_inurba_marseille","lat":43.24486,"lon":5.41171,"is_reserved":false,"is_disabled":false,"rental_uris":{"android":"levelo://app?vid=9d24975d-5989-4c6e-bc54-bdc168e02c5f","ios":"levelo://app?vid=9d24975d-5989-4c6e-bc54-bdc168e02c5f"},"vehicle_type_id":"4","last_reported":1745741497,"current_range_meters":8800,"station_id":"","pricing_plan_id":"cebpf4jnsgd1na2vs0mg"},{"bike_id":"190e2a44-d16f-4e6b-8e6a-22a9c30ba1bb","system_id":"levelo_inurba_marseille","lat":43.22504,"lon":5.347747,"is_reserved":false,"is_disabled":false,"rental_uris":{"android":"levelo://app?vid=190e2a44-d16f-4e6b-8e6a-22a9c30ba1bb","ios":"levelo://app?vid=190e2a44-d16f-4e6b-8e6a-22a9c30ba1bb"},"vehicle_type_id":"4","last_reported":1745741497,"current_range_meters":8800,"station_id":"st_cvj5dfep6f1abm77gieg","pricing_plan_id":"cebpf4jnsgd1na2vs0mg"},{"bike_id":"c8f1494d-a40d-4cf8-a6b6-1acd42e1a3ef","system_id":"levelo_inurba_marseille","lat":43.29192,"lon":5.36064,"is_reserved":false,"is_disabled":false,"rental_uris":{"android":"levelo://app?vid=c8f1494d-a40d-4cf8-a6b6-1acd42e1a3ef","ios":"levelo://app?vid=c8f1494d-a40d-4cf8-a6b6-1acd42e1a3ef"},"vehicle_type_id":"4","last_reported":1745741497,"current_range_meters":9200,"station_id":"ce4bhbh2rcd13ifvqeqg","pricing_plan_id":"cebpf4jnsgd1na2vs0mg"},{"bike_id":"0cce7ea2-3151-4739-8e52-340c11e5c4e0","system_id":"levelo_inurba_marseille","lat":43.246699,"lon":5.381511,"is_reserved":false,"is_disabled":false,"rental_uris":{"android":"levelo://app?vid=0cce7ea2-3151-4739-8e52-340c11e5c4e0","ios":"levelo://app?vid=0cce7ea2-3151-4739-8e52-340c11e5c4e0"},"vehicle_type_id":"4","last_reported":1745741497,"current_range_meters":9200,"station_id":"ce4bhih2rcd13ifvqfr0","pricing_plan_id":"cebpf4jnsgd1na2vs0mg"},{"bike_id":"2d4820d4-569a-4ec0-b000-e82a960dd30b","system_id":"levelo_inurba_marseille","lat":43.23119,"lon":5.35507,"is_reserved":false,"is_disabled":false,"rental_uris":{"android":"levelo://app?vid=2d4820d4-569a-4ec0-b000-e82a960dd30b","ios":"levelo://app?vid=2d4820d4-569a-4ec0-b000-e82a960dd30b"},"vehicle_type_id":"4","last_reported":1745741497,"current_range_meters":9200,"station_id":"","pricing_plan_id":"cebpf4jnsgd1na2vs0mg"},{"bike_id":"3f8e74df-4b8a-4fe8-9f20-4fbe47605119","system_id":"levelo_inurba_marseille","lat":43.29032,"lon":5.37552,"is_reserved":false,"is_disabled":true,"rental_uris":{"android":"levelo://app?vid=3f8e74df-4b8a-4fe8-9f20-4fbe47605119","ios":"levelo://app?vid=3f8e74df-4b8a-4fe8-9f20-4fbe47605119"},"vehicle_type_id":"4","last_reported":1745741497,"current_range_meters":9200,"station_id":"ce4bh692rcd13ifvqe90","pricing_plan_id":"cebpf4jnsgd1na2vs0mg"},{"bike_id":"ccb58822-4bf1-4cf8-9190-ef7aee64397d","system_id":"levelo_inurba_marseille","lat":43.311203,"lon":5.37762,"is_reserved":false,"is_disabled":false,"rental_uris":{"android":"levelo://app?vid=ccb58822-4bf1-4cf8-9190-ef7aee64397d","ios":"levelo://app?vid=ccb58822-4bf1-4cf8-9190-ef7aee64397d"},"vehicle_type_id":"4","last_reported":1745741497,"current_range_meters":9200,"station_id":"ce4bgt92rcd13ifvqcg0","pricing_plan_id":"cebpf4jnsgd1na2vs0mg"},{"bike_id":"8267a175-b5cb-45e0-8d32-cc806f617854","system_id":"levelo_inurba_marseille","lat":43.30529,"lon":5.38869,"is_reserved":false,"is_disabled":false,"rental_uris":{"android":"levelo://app?vid=8267a175-b5cb-45e0-8d32-cc806f617854","ios":"levelo://app?vid=8267a175-b5cb-45e0-8d32-cc806f617854"},"vehicle_type_id":"4","last_reported":1745741497,"current_range_meters":9200,"station_id":"","pricing_plan_id":"cebpf4jnsgd1na2vs0mg"},{"bike_id":"4e09e2f3-6329-4563-9a1f-79c5001029cb","system_id":"levelo_inurba_marseille","lat":43.32358,"lon":5.38832,"is_reserved":false,"is_disabled":false,"rental_uris":{"android":"levelo://app?vid=4e09e2f3-6329-4563-9a1f-79c5001029cb","ios":"levelo://app?vid=4e09e2f3-6329-4563-9a1f-79c5001029cb"},"vehicle_type_id":"4","last_reported":1745741497,"current_range_meters":9200,"station_id":"ce4bhqp2rcd13ifvqhog","pricing_plan_id":"cebpf4jnsgd1na2vs0mg"},{"bike_id":"ed537f9b-b1db-4f7f-87a1-1dbb18dd4577","system_id":"levelo_inurba_marseille","lat":43.335874,"lon":5.428179,"is_reserved":false,"is_disabled":false,"rental_uris":{"android":"levelo://app?vid=ed537f9b-b1db-4f7f-87a1-1dbb18dd4577","ios":"levelo://app?vid=ed537f9b-b1db-4f7f-87a1-1dbb18dd4577"},"vehicle_type_id":"4","last_reported":1745741497,"current_range_meters":9200,"station_id":"","pricing_plan_id":"cebpf4jnsgd1na2vs0mg"},{"bike_id":"303a0bc9-5235-4359-8967-fcaa7c875634","system_id":"levelo_inurba_marseille","lat":43.28411,"lon":5.37508,"is_reserved":false,"is_disabled":false,"rental_uris":{"android":"levelo://app?vid=303a0bc9-5235-4359-8967-fcaa7c875634","ios":"levelo://app?vid=303a0bc9-5235-4359-8967-fcaa7c875634"},"vehicle_type_id":"4","last_reported":1745741497,"current_range_meters":9600,"station_id":"ce4bh412rcd13ifvqds0","pricing_plan_id":"cebpf4jnsgd1na2vs0mg"},{"bike_id":"c596ab54-4f89-4649-a442-12778ac8adc4","system_id":"levelo_inurba_marseille","lat":43.317025,"lon":5.43702,"is_reserved":false,"is_disabled":true,"rental_uris":{"android":"levelo://app?vid=c596ab54-4f89-4649-a442-12778ac8adc4","ios":"levelo://app?vid=c596ab54-4f89-4649-a442-12778ac8adc4"},"vehicle_type_id":"4","last_reported":1745741497,"current_range_meters":9600,"station_id":"ce4bhp92rcd13ifvqhcg","pricing_plan_id":"cebpf4jnsgd1na2vs0mg"},{"bike_id":"50567301-7660-45e4-9314-78fdd7ddbf96","system_id":"levelo_inurba_marseille","lat":43.30765,"lon":5.40931,"is_reserved":false,"is_disabled":false,"rental_uris":{"android":"levelo://app?vid=50567301-7660-45e4-9314-78fdd7ddbf96","ios":"levelo://app?vid=50567301-7660-45e4-9314-78fdd7ddbf96"},"vehicle_type_id":"4","last_reported":1745741497,"current_range_meters":9600,"station_id":"","pricing_plan_id":"cebpf4jnsgd1na2vs0mg"},{"bike_id":"c94f832f-a67d-4600-b7d7-74c917a28353","system_id":"levelo_inurba_marseille","lat":43.25574,"lon":5.38234,"is_reserved":false,"is_disabled":false,"rental_uris":{"android":"levelo://app?vid=c94f832f-a67d-4600-b7d7-74c917a28353","ios":"levelo://app?vid=c94f832f-a67d-4600-b7d7-74c917a28353"},"vehicle_type_id":"4","last_reported":1745741497,"current_range_meters":9600,"station_id":"ce4bhih2rcd13ifvqfs0","pricing_plan_id":"cebpf4jnsgd1na2vs0mg"},{"bike_id":"736ee7d5-708e-48bd-8281-35bb85d0bc7d","system_id":"levelo_inurba_marseille","lat":43.29008,"lon":5.35597,"is_reserved":false,"is_disabled":true,"rental_uris":{"android":"levelo://app?vid=736ee7d5-708e-48bd-8281-35bb85d0bc7d","ios":"levelo://app?vid=736ee7d5-708e-48bd-8281-35bb85d0bc7d"},"vehicle_type_id":"4","last_reported":1745741497,"current_range_meters":9600,"station_id":"ce4bhb92rcd13ifvqen0","pricing_plan_id":"cebpf4jnsgd1na2vs0mg"},{"bike_id":"5ddba1f1-1747-4179-b91f-b8778028cd60","system_id":"levelo_inurba_marseille","lat":43.25279,"lon":5.41579,"is_reserved":false,"is_disabled":false,"rental_uris":{"android":"levelo://app?vid=5ddba1f1-1747-4179-b91f-b8778028cd60","ios":"levelo://app?vid=5ddba1f1-1747-4179-b91f-b8778028cd60"},"vehicle_type_id":"4","last_reported":1745741497,"current_range_meters":9600,"station_id":"","pricing_plan_id":"cebpf4jnsgd1na2vs0mg"},{"bike_id":"d8ad6217-9763-42dc-b54f-610fb581eb45","system_id":"levelo_inurba_marseille","lat":43.29252,"lon":5.40905,"is_reserved":false,"is_disabled":false,"rental_uris":{"android":"levelo://app?vid=d8ad6217-9763-42dc-b54f-610fb581eb45","ios":"levelo://app?vid=d8ad6217-9763-42dc-b54f-610fb581eb45"},"vehicle_type_id":"4","last_reported":1745741497,"current_range_meters":10000,"station_id":"ce4bh192rcd13ifvqdc0","pricing_plan_id":"cebpf4jnsgd1na2vs0mg"},{"bike_id":"0a20c176-84ce-406c-b816-a20786a5492e","system_id":"levelo_inurba_marseille","lat":43.317084,"lon":5.377753,"is_reserved":false,"is_disabled":false,"rental_uris":{"android":"levelo://app?vid=0a20c176-84ce-406c-b816-a20786a5492e","ios":"levelo://app?vid=0a20c176-84ce-406c-b816-a20786a5492e"},"vehicle_type_id":"4","last_reported":1745741497,"current_range_meters":10000,"station_id":"ce4bgth2rcd13ifvqch0","pricing_plan_id":"cebpf4jnsgd1na2vs0mg"},{"bike_id":"95a8b0a9-edb5-4207-b0c3-5cd284f509e2","system_id":"levelo_inurba_marseille","lat":43.25585,"lon":5.38266,"is_reserved":false,"is_disabled":false,"rental_uris":{"android":"levelo://app?vid=95a8b0a9-edb5-4207-b0c3-5cd284f509e2","ios":"levelo://app?vid=95a8b0a9-edb5-4207-b0c3-5cd284f509e2"},"vehicle_type_id":"4","last_reported":1745741497,"current_range_meters":10000,"station_id":"ce4bhih2rcd13ifvqfs0","pricing_plan_id":"cebpf4jnsgd1na2vs0mg"},{"bike_id":"ac61834c-a10a-425e-9cdb-694af07bb25f","system_id":"levelo_inurba_marseille","lat":43.279419,"lon":5.387164,"is_reserved":false,"is_disabled":false,"rental_uris":{"android":"levelo://app?vid=ac61834c-a10a-425e-9cdb-694af07bb25f","ios":"levelo://app?vid=ac61834c-a10a-425e-9cdb-694af07bb25f"},"vehicle_type_id":"4","last_reported":1745741497,"current_range_meters":10000,"station_id":"ce4bhg12rcd13ifvqf80","pricing_plan_id":"cebpf4jnsgd1na2vs0mg"},{"bike_id":"37945bdf-074a-43f6-ba77-e3b0b63ba029","system_id":"levelo_inurba_marseille","lat":43.312311,"lon":5.401441,"is_reserved":false,"is_disabled":false,"rental_uris":{"android":"levelo://app?vid=37945bdf-074a-43f6-ba77-e3b0b63ba029","ios":"levelo://app?vid=37945bdf-074a-43f6-ba77-e3b0b63ba029"},"vehicle_type_id":"4","last_reported":1745741497,"current_range_meters":10000,"station_id":"ce4bh092rcd13ifvqd30","pricing_plan_id":"cebpf4jnsgd1na2vs0mg"},{"bike_id":"a5752412-2b3a-495a-b554-2a3e08204a69","system_id":"levelo_inurba_marseille","lat":43.32284,"lon":5.38268,"is_reserved":false,"is_disabled":false,"rental_uris":{"android":"levelo://app?vid=a5752412-2b3a-495a-b554-2a3e08204a69","ios":"levelo://app?vid=a5752412-2b3a-495a-b554-2a3e08204a69"},"vehicle_type_id":"4","last_reported":1745741497,"current_range_meters":10800,"station_id":"ce4bhr12rcd13ifvqhqg","pricing_plan_id":"cebpf4jnsgd1na2vs0mg"},{"bike_id":"cecf372e-f99d-4092-9fb9-aba0fb187411","system_id":"levelo_inurba_marseille","lat":43.323592,"lon":5.388897,"is_reserved":false,"is_disabled":false,"rental_uris":{"android":"levelo://app?vid=cecf372e-f99d-4092-9fb9-aba0fb187411","ios":"levelo://app?vid=cecf372e-f99d-4092-9fb9-aba0fb187411"},"vehicle_type_id":"4","last_reported":1745741497,"current_range_meters":10800,"station_id":"ce4bhqp2rcd13ifvqhog","pricing_plan_id":"cebpf4jnsgd1na2vs0mg"},{"bike_id":"6f9efa22-6701-48b6-9dac-71701c013e89","system_id":"levelo_inurba_marseille","lat":43.27985,"lon":5.40033,"is_reserved":false,"is_disabled":false,"rental_uris":{"android":"levelo://app?vid=6f9efa22-6701-48b6-9dac-71701c013e89","ios":"levelo://app?vid=6f9efa22-6701-48b6-9dac-71701c013e89"},"vehicle_type_id":"4","last_reported":1745741497,"current_range_meters":10800,"station_id":"ce4bho92rcd13ifvqh4g","pricing_plan_id":"cebpf4jnsgd1na2vs0mg"},{"bike_id":"5af3eb53-28db-4b7e-8128-72599ecb0f84","system_id":"levelo_inurba_marseille","lat":43.29617,"lon":5.38101,"is_reserved":false,"is_disabled":false,"rental_uris":{"android":"levelo://app?vid=5af3eb53-28db-4b7e-8128-72599ecb0f84","ios":"levelo://app?vid=5af3eb53-28db-4b7e-8128-72599ecb0f84"},"vehicle_type_id":"4","last_reported":1745741497,"current_range_meters":10800,"station_id":"ce4bgl12rcd13ifvqbo0","pricing_plan_id":"cebpf4jnsgd1na2vs0mg"},{"bike_id":"a033a32a-9afd-43c5-b181-1858ace3f979","system_id":"levelo_inurba_marseille","lat":43.25505,"lon":5.37647,"is_reserved":false,"is_disabled":false,"rental_uris":{"android":"levelo://app?vid=a033a32a-9afd-43c5-b181-1858ace3f979","ios":"levelo://app?vid=a033a32a-9afd-43c5-b181-1858ace3f979"},"vehicle_type_id":"4","last_reported":1745741497,"current_range_meters":10800,"station_id":"ce4bhh12rcd13ifvqff0","pricing_plan_id":"cebpf4jnsgd1na2vs0mg"},{"bike_id":"6d0f1c4b-cbb6-4ecc-b9c2-164566a35010","system_id":"levelo_inurba_marseille","lat":43.24169,"lon":5.39694,"is_reserved":false,"is_disabled":false,"rental_uris":{"android":"levelo://app?vid=6d0f1c4b-cbb6-4ecc-b9c2-164566a35010","ios":"levelo://app?vid=6d0f1c4b-cbb6-4ecc-b9c2-164566a35010"},"vehicle_type_id":"4","last_reported":1745741497,"current_range_meters":11200,"station_id":"ce4bhn12rcd13ifvqgpg","pricing_plan_id":"cebpf4jnsgd1na2vs0mg"},{"bike_id":"00616192-2e7e-4143-89a7-22ed0fe84242","system_id":"levelo_inurba_marseille","lat":43.31501,"lon":5.37297,"is_reserved":false,"is_disabled":false,"rental_uris":{"android":"levelo://app?vid=00616192-2e7e-4143-89a7-22ed0fe84242","ios":"levelo://app?vid=00616192-2e7e-4143-89a7-22ed0fe84242"},"vehicle_type_id":"4","last_reported":1745741497,"current_range_meters":11200,"station_id":"ce4bgt12rcd13ifvqcd0","pricing_plan_id":"cebpf4jnsgd1na2vs0mg"},{"bike_id":"dd3031e0-5272-497e-a41c-be7750e07327","system_id":"levelo_inurba_marseille","lat":43.30053,"lon":5.40241,"is_reserved":false,"is_disabled":false,"rental_uris":{"android":"levelo://app?vid=dd3031e0-5272-497e-a41c-be7750e07327","ios":"levelo://app?vid=dd3031e0-5272-497e-a41c-be7750e07327"},"vehicle_type_id":"4","last_reported":1745741497,"current_range_meters":11200,"station_id":"","pricing_plan_id":"cebpf4jnsgd1na2vs0mg"},{"bike_id":"fede8b9f-33cf-4581-b8f5-66ad259c5ca4","system_id":"levelo_inurba_marseille","lat":43.30187,"lon":5.36615,"is_reserved":false,"is_disabled":false,"rental_uris":{"android":"levelo://app?vid=fede8b9f-33cf-4581-b8f5-66ad259c5ca4","ios":"levelo://app?vid=fede8b9f-33cf-4581-b8f5-66ad259c5ca4"},"vehicle_type_id":"4","last_reported":1745741497,"current_range_meters":11200,"station_id":"ce4bgrh2rcd13ifvqc8g","pricing_plan_id":"cebpf4jnsgd1na2vs0mg"},{"bike_id":"0053b840-de47-4900-98aa-cc8575176b05","system_id":"levelo_inurba_marseille","lat":43.24189,"lon":5.36389,"is_reserved":false,"is_disabled":true,"rental_uris":{"android":"levelo://app?vid=0053b840-de47-4900-98aa-cc8575176b05","ios":"levelo://app?vid=0053b840-de47-4900-98aa-cc8575176b05"},"vehicle_type_id":"4","last_reported":1745741497,"current_range_meters":11600,"station_id":"cpo36qri1sfpv3e86is0","pricing_plan_id":"cebpf4jnsgd1na2vs0mg"},{"bike_id":"ec74b155-1065-4a53-a181-10d9f61c4403","system_id":"levelo_inurba_marseille","lat":43.29249,"lon":5.40908,"is_reserved":false,"is_disabled":false,"rental_uris":{"android":"levelo://app?vid=ec74b155-1065-4a53-a181-10d9f61c4403","ios":"levelo://app?vid=ec74b155-1065-4a53-a181-10d9f61c4403"},"vehicle_type_id":"4","last_reported":1745741497,"current_range_meters":11600,"station_id":"ce4bh192rcd13ifvqdc0","pricing_plan_id":"cebpf4jnsgd1na2vs0mg"},{"bike_id":"dea15188-c098-4794-90f6-0fc4b187f745","system_id":"levelo_inurba_marseille","lat":43.30812,"lon":5.43528,"is_reserved":false,"is_disabled":false,"rental_uris":{"android":"levelo://app?vid=dea15188-c098-4794-90f6-0fc4b187f745","ios":"levelo://app?vid=dea15188-c098-4794-90f6-0fc4b187f745"},"vehicle_type_id":"4","last_reported":1745741497,"current_range_meters":11600,"station_id":"ce4bhph2rcd13ifvqheg","pricing_plan_id":"cebpf4jnsgd1na2vs0mg"},{"bike_id":"41f345a9-75d9-4676-b56c-6e8ef96547ca","system_id":"levelo_inurba_marseille","lat":43.24094,"lon":5.37735,"is_reserved":false,"is_disabled":false,"rental_uris":{"android":"levelo://app?vid=41f345a9-75d9-4676-b56c-6e8ef96547ca","ios":"levelo://app?vid=41f345a9-75d9-4676-b56c-6e8ef96547ca"},"vehicle_type_id":"4","last_reported":1745741497,"current_range_meters":12000,"station_id":"ce4bhnp2rcd13ifvqgvg","pricing_plan_id":"cebpf4jnsgd1na2vs0mg"},{"bike_id":"401a860e-b17d-4f3c-b960-f90f02cab40f","system_id":"levelo_inurba_marseille","lat":43.27066,"lon":5.40257,"is_reserved":false,"is_disabled":false,"rental_uris":{"android":"levelo://app?vid=401a860e-b17d-4f3c-b960-f90f02cab40f","ios":"levelo://app?vid=401a860e-b17d-4f3c-b960-f90f02cab40f"},"vehicle_type_id":"4","last_reported":1745741497,"current_range_meters":12000,"station_id":"ce4bhk92rcd13ifvqgc0","pricing_plan_id":"cebpf4jnsgd1na2vs0mg"},{"bike_id":"91474842-32bf-45c2-856a-80fd91d22aa5","system_id":"levelo_inurba_marseille","lat":43.211913,"lon":5.350768,"is_reserved":false,"is_disabled":false,"rental_uris":{"android":"levelo://app?vid=91474842-32bf-45c2-856a-80fd91d22aa5","ios":"levelo://app?vid=91474842-32bf-45c2-856a-80fd91d22aa5"},"vehicle_type_id":"4","last_reported":1745741497,"current_range_meters":12000,"station_id":"st_cvj6sg6p6f1abm77japg","pricing_plan_id":"cebpf4jnsgd1na2vs0mg"},{"bike_id":"8840b7d1-badd-45b4-91db-50feaeb6b7ed","system_id":"levelo_inurba_marseille","lat":43.31084,"lon":5.36706,"is_reserved":false,"is_disabled":false,"rental_uris":{"android":"levelo://app?vid=8840b7d1-badd-45b4-91db-50feaeb6b7ed","ios":"levelo://app?vid=8840b7d1-badd-45b4-91db-50feaeb6b7ed"},"vehicle_type_id":"4","last_reported":1745741497,"current_range_meters":12000,"station_id":"","pricing_plan_id":"cebpf4jnsgd1na2vs0mg"},{"bike_id":"30288cb7-e849-4b02-8ab1-96deccfd974f","system_id":"levelo_inurba_marseille","lat":43.239614,"lon":5.366315,"is_reserved":false,"is_disabled":false,"rental_uris":{"android":"levelo://app?vid=30288cb7-e849-4b02-8ab1-96deccfd974f","ios":"levelo://app?vid=30288cb7-e849-4b02-8ab1-96deccfd974f"},"vehicle_type_id":"4","last_reported":1745741497,"current_range_meters":12400,"station_id":"ce4bhi12rcd13ifvqfp0","pricing_plan_id":"cebpf4jnsgd1na2vs0mg"},{"bike_id":"ae1d96a0-b0a2-41e1-be14-e78907f9338a","system_id":"levelo_inurba_marseille","lat":43.29527,"lon":5.39394,"is_reserved":false,"is_disabled":true,"rental_uris":{"android":"levelo://app?vid=ae1d96a0-b0a2-41e1-be14-e78907f9338a","ios":"levelo://app?vid=ae1d96a0-b0a2-41e1-be14-e78907f9338a"},"vehicle_type_id":"4","last_reported":1745741497,"current_range_meters":12400,"station_id":"ce4bh292rcd13ifvqdf0","pricing_plan_id":"cebpf4jnsgd1na2vs0mg"},{"bike_id":"026c54da-ffae-4a94-99c0-61aa4e81b435","system_id":"levelo_inurba_marseille","lat":43.31711,"lon":5.43707,"is_reserved":false,"is_disabled":false,"rental_uris":{"android":"levelo://app?vid=026c54da-ffae-4a94-99c0-61aa4e81b435","ios":"levelo://app?vid=026c54da-ffae-4a94-99c0-61aa4e81b435"},"vehicle_type_id":"4","last_reported":1745741497,"current_range_meters":12400,"station_id":"ce4bhp92rcd13ifvqhcg","pricing_plan_id":"cebpf4jnsgd1na2vs0mg"},{"bike_id":"af4a97e0-dded-4da0-9eba-7bcd01c44383","system_id":"levelo_inurba_marseille","lat":43.30308,"lon":5.39179,"is_reserved":false,"is_disabled":true,"rental_uris":{"android":"levelo://app?vid=af4a97e0-dded-4da0-9eba-7bcd01c44383","ios":"levelo://app?vid=af4a97e0-dded-4da0-9eba-7bcd01c44383"},"vehicle_type_id":"4","last_reported":1745741497,"current_range_meters":12400,"station_id":"ce4bgkh2rcd13ifvqbk0","pricing_plan_id":"cebpf4jnsgd1na2vs0mg"},{"bike_id":"21a5b78b-6652-49fa-a8ee-70531791ccf1","system_id":"levelo_inurba_marseille","lat":43.24882,"lon":5.42514,"is_reserved":false,"is_disabled":false,"rental_uris":{"android":"levelo://app?vid=21a5b78b-6652-49fa-a8ee-70531791ccf1","ios":"levelo://app?vid=21a5b78b-6652-49fa-a8ee-70531791ccf1"},"vehicle_type_id":"4","last_reported":1745741497,"current_range_meters":12400,"station_id":"","pricing_plan_id":"cebpf4jnsgd1na2vs0mg"},{"bike_id":"bc19f80b-40fb-44eb-a75a-c1aab4c2a4c8","system_id":"levelo_inurba_marseille","lat":43.26212,"lon":5.37484,"is_reserved":false,"is_disabled":false,"rental_uris":{"android":"levelo://app?vid=bc19f80b-40fb-44eb-a75a-c1aab4c2a4c8","ios":"levelo://app?vid=bc19f80b-40fb-44eb-a75a-c1aab4c2a4c8"},"vehicle_type_id":"4","last_reported":1745741497,"current_range_meters":12400,"station_id":"ce4bhgp2rcd13ifvqfc0","pricing_plan_id":"cebpf4jnsgd1na2vs0mg"},{"bike_id":"a4ec22c5-bacb-4a1e-bc06-6ca27d915fb3","system_id":"levelo_inurba_marseille","lat":43.269528,"lon":5.38639,"is_reserved":false,"is_disabled":false,"rental_uris":{"android":"levelo://app?vid=a4ec22c5-bacb-4a1e-bc06-6ca27d915fb3","ios":"levelo://app?vid=a4ec22c5-bacb-4a1e-bc06-6ca27d915fb3"},"vehicle_type_id":"4","last_reported":1745741497,"current_range_meters":12400,"station_id":"","pricing_plan_id":"cebpf4jnsgd1na2vs0mg"},{"bike_id":"35cee361-db2b-4827-873a-7588969e53c1","system_id":"levelo_inurba_marseille","lat":43.28169,"lon":5.42672,"is_reserved":false,"is_disabled":false,"rental_uris":{"android":"levelo://app?vid=35cee361-db2b-4827-873a-7588969e53c1","ios":"levelo://app?vid=35cee361-db2b-4827-873a-7588969e53c1"},"vehicle_type_id":"4","last_reported":1745741497,"current_range_meters":12800,"station_id":"ce4bhnh2rcd13ifvqgug","pricing_plan_id":"cebpf4jnsgd1na2vs0mg"},{"bike_id":"eef1e15c-ad62-483d-a88a-6602293efd51","system_id":"levelo_inurba_marseille","lat":43.29287,"lon":5.40174,"is_reserved":false,"is_disabled":false,"rental_uris":{"android":"levelo://app?vid=eef1e15c-ad62-483d-a88a-6602293efd51","ios":"levelo://app?vid=eef1e15c-ad62-483d-a88a-6602293efd51"},"vehicle_type_id":"4","last_reported":1745741497,"current_range_meters":12800,"station_id":"ce4bh312rcd13ifvqdk0","pricing_plan_id":"cebpf4jnsgd1na2vs0mg"},{"bike_id":"d7ad7299-68db-4a91-b64e-8ce344fecd70","system_id":"levelo_inurba_marseille","lat":43.299572,"lon":5.384908,"is_reserved":false,"is_disabled":false,"rental_uris":{"android":"levelo://app?vid=d7ad7299-68db-4a91-b64e-8ce344fecd70","ios":"levelo://app?vid=d7ad7299-68db-4a91-b64e-8ce344fecd70"},"vehicle_type_id":"4","last_reported":1745741497,"current_range_meters":12800,"station_id":"ce4bgkh2rcd13ifvqbk0","pricing_plan_id":"cebpf4jnsgd1na2vs0mg"},{"bike_id":"ed705789-0f0d-49d6-b81c-9868871746ab","system_id":"levelo_inurba_marseille","lat":43.21752,"lon":5.34657,"is_reserved":false,"is_disabled":true,"rental_uris":{"android":"levelo://app?vid=ed705789-0f0d-49d6-b81c-9868871746ab","ios":"levelo://app?vid=ed705789-0f0d-49d6-b81c-9868871746ab"},"vehicle_type_id":"4","last_reported":1745741497,"current_range_meters":12800,"station_id":"ce4bhbp2rcd13ifvqesg","pricing_plan_id":"cebpf4jnsgd1na2vs0mg"},{"bike_id":"49e0d52b-4e80-46ce-bdc2-e9d6da2fa326","system_id":"levelo_inurba_marseille","lat":43.22501,"lon":5.34772,"is_reserved":false,"is_disabled":false,"rental_uris":{"android":"levelo://app?vid=49e0d52b-4e80-46ce-bdc2-e9d6da2fa326","ios":"levelo://app?vid=49e0d52b-4e80-46ce-bdc2-e9d6da2fa326"},"vehicle_type_id":"4","last_reported":1745741497,"current_range_meters":12800,"station_id":"st_cvj5dfep6f1abm77gieg","pricing_plan_id":"cebpf4jnsgd1na2vs0mg"},{"bike_id":"3deeaf00-3852-4940-b764-733ed923641b","system_id":"levelo_inurba_marseille","lat":43.241775,"lon":5.397324,"is_reserved":false,"is_disabled":false,"rental_uris":{"android":"levelo://app?vid=3deeaf00-3852-4940-b764-733ed923641b","ios":"levelo://app?vid=3deeaf00-3852-4940-b764-733ed923641b"},"vehicle_type_id":"4","last_reported":1745741497,"current_range_meters":12800,"station_id":"ce4bhn12rcd13ifvqgpg","pricing_plan_id":"cebpf4jnsgd1na2vs0mg"},{"bike_id":"84e6b219-6358-4809-b5d1-a04b4086630f","system_id":"levelo_inurba_marseille","lat":43.2871,"lon":5.39994,"is_reserved":false,"is_disabled":false,"rental_uris":{"android":"levelo://app?vid=84e6b219-6358-4809-b5d1-a04b4086630f","ios":"levelo://app?vid=84e6b219-6358-4809-b5d1-a04b4086630f"},"vehicle_type_id":"4","last_reported":1745741497,"current_range_meters":13600,"station_id":"ce4bho92rcd13ifvqh3g","pricing_plan_id":"cebpf4jnsgd1na2vs0mg"},{"bike_id":"a08e6535-7d97-4f82-b424-5e6daf2d2362","system_id":"levelo_inurba_marseille","lat":43.29508,"lon":5.39392,"is_reserved":false,"is_disabled":true,"rental_uris":{"android":"levelo://app?vid=a08e6535-7d97-4f82-b424-5e6daf2d2362","ios":"levelo://app?vid=a08e6535-7d97-4f82-b424-5e6daf2d2362"},"vehicle_type_id":"4","last_reported":1745741497,"current_range_meters":13600,"station_id":"ce4bh292rcd13ifvqdf0","pricing_plan_id":"cebpf4jnsgd1na2vs0mg"},{"bike_id":"051ec471-1557-4b56-8040-eaea0bb28aaa","system_id":"levelo_inurba_marseille","lat":43.30612,"lon":5.37207,"is_reserved":false,"is_disabled":false,"rental_uris":{"android":"levelo://app?vid=051ec471-1557-4b56-8040-eaea0bb28aaa","ios":"levelo://app?vid=051ec471-1557-4b56-8040-eaea0bb28aaa"},"vehicle_type_id":"4","last_reported":1745741497,"current_range_meters":13600,"station_id":"ce4bgqh2rcd13ifvqc4g","pricing_plan_id":"cebpf4jnsgd1na2vs0mg"},{"bike_id":"560f12bb-1614-4d7c-b78e-ccf5bdec9ea6","system_id":"levelo_inurba_marseille","lat":43.284624,"lon":5.358921,"is_reserved":false,"is_disabled":true,"rental_uris":{"android":"levelo://app?vid=560f12bb-1614-4d7c-b78e-ccf5bdec9ea6","ios":"levelo://app?vid=560f12bb-1614-4d7c-b78e-ccf5bdec9ea6"},"vehicle_type_id":"4","last_reported":1745741497,"current_range_meters":14000,"station_id":"ce4bhah2rcd13ifvqei0","pricing_plan_id":"cebpf4jnsgd1na2vs0mg"},{"bike_id":"dca35924-9704-4de4-8acb-8ca8648e331f","system_id":"levelo_inurba_marseille","lat":43.28663,"lon":5.39999,"is_reserved":false,"is_disabled":false,"rental_uris":{"android":"levelo://app?vid=dca35924-9704-4de4-8acb-8ca8648e331f","ios":"levelo://app?vid=dca35924-9704-4de4-8acb-8ca8648e331f"},"vehicle_type_id":"4","last_reported":1745741497,"current_range_meters":14400,"station_id":"","pricing_plan_id":"cebpf4jnsgd1na2vs0mg"},{"bike_id":"5fba67da-67b4-4811-aa42-2ba548abf90a","system_id":"levelo_inurba_marseille","lat":43.313329,"lon":5.397177,"is_reserved":false,"is_disabled":false,"rental_uris":{"android":"levelo://app?vid=5fba67da-67b4-4811-aa42-2ba548abf90a","ios":"levelo://app?vid=5fba67da-67b4-4811-aa42-2ba548abf90a"},"vehicle_type_id":"4","last_reported":1745741497,"current_range_meters":14400,"station_id":"ce4bgvp2rcd13ifvqcu0","pricing_plan_id":"cebpf4jnsgd1na2vs0mg"},{"bike_id":"356b76a1-af1a-4bef-951e-98e5b057a721","system_id":"levelo_inurba_marseille","lat":43.29267,"lon":5.38441,"is_reserved":false,"is_disabled":true,"rental_uris":{"android":"levelo://app?vid=356b76a1-af1a-4bef-951e-98e5b057a721","ios":"levelo://app?vid=356b76a1-af1a-4bef-951e-98e5b057a721"},"vehicle_type_id":"4","last_reported":1745741497,"current_range_meters":14400,"station_id":"ce4bh692rcd13ifvqea0","pricing_plan_id":"cebpf4jnsgd1na2vs0mg"},{"bike_id":"404f4fcf-8e92-4a5e-b7ed-32fce94ff05c","system_id":"levelo_inurba_marseille","lat":43.30815,"lon":5.37655,"is_reserved":false,"is_disabled":false,"rental_uris":{"android":"levelo://app?vid=404f4fcf-8e92-4a5e-b7ed-32fce94ff05c","ios":"levelo://app?vid=404f4fcf-8e92-4a5e-b7ed-32fce94ff05c"},"vehicle_type_id":"4","last_reported":1745741497,"current_range_meters":14400,"station_id":"ce4bgv92rcd13ifvqcq0","pricing_plan_id":"cebpf4jnsgd1na2vs0mg"},{"bike_id":"8962f977-d05b-4126-9dca-069ff6c38b83","system_id":"levelo_inurba_marseille","lat":43.28463,"lon":5.35892,"is_reserved":false,"is_disabled":false,"rental_uris":{"android":"levelo://app?vid=8962f977-d05b-4126-9dca-069ff6c38b83","ios":"levelo://app?vid=8962f977-d05b-4126-9dca-069ff6c38b83"},"vehicle_type_id":"4","last_reported":1745741497,"current_range_meters":14800,"station_id":"ce4bhah2rcd13ifvqei0","pricing_plan_id":"cebpf4jnsgd1na2vs0mg"},{"bike_id":"9111363c-e358-4cc0-9632-937d6be3578a","system_id":"levelo_inurba_marseille","lat":43.28015,"lon":5.40022,"is_reserved":false,"is_disabled":false,"rental_uris":{"android":"levelo://app?vid=9111363c-e358-4cc0-9632-937d6be3578a","ios":"levelo://app?vid=9111363c-e358-4cc0-9632-937d6be3578a"},"vehicle_type_id":"4","last_reported":1745741497,"current_range_meters":14800,"station_id":"ce4bho92rcd13ifvqh4g","pricing_plan_id":"cebpf4jnsgd1na2vs0mg"},{"bike_id":"f546c8e4-de69-45ac-a662-7fcf89ae6709","system_id":"levelo_inurba_marseille","lat":43.31113,"lon":5.37768,"is_reserved":false,"is_disabled":false,"rental_uris":{"android":"levelo://app?vid=f546c8e4-de69-45ac-a662-7fcf89ae6709","ios":"levelo://app?vid=f546c8e4-de69-45ac-a662-7fcf89ae6709"},"vehicle_type_id":"4","last_reported":1745741497,"current_range_meters":15200,"station_id":"ce4bgt92rcd13ifvqcg0","pricing_plan_id":"cebpf4jnsgd1na2vs0mg"},{"bike_id":"57ebd52c-bbc8-4a4d-8d80-2da8f6250dbd","system_id":"levelo_inurba_marseille","lat":43.278186,"lon":5.407231,"is_reserved":false,"is_disabled":true,"rental_uris":{"android":"levelo://app?vid=57ebd52c-bbc8-4a4d-8d80-2da8f6250dbd","ios":"levelo://app?vid=57ebd52c-bbc8-4a4d-8d80-2da8f6250dbd"},"vehicle_type_id":"4","last_reported":1745741497,"current_range_meters":15200,"station_id":"ce4bhnh2rcd13ifvqgtg","pricing_plan_id":"cebpf4jnsgd1na2vs0mg"},{"bike_id":"e2ebe0b4-27e2-4f46-bdf4-e1916df46672","system_id":"levelo_inurba_marseille","lat":43.31768,"lon":5.40647,"is_reserved":false,"is_disabled":false,"rental_uris":{"android":"levelo://app?vid=e2ebe0b4-27e2-4f46-bdf4-e1916df46672","ios":"levelo://app?vid=e2ebe0b4-27e2-4f46-bdf4-e1916df46672"},"vehicle_type_id":"4","last_reported":1745741497,"current_range_meters":15200,"station_id":"","pricing_plan_id":"cebpf4jnsgd1na2vs0mg"},{"bike_id":"a7198c19-fdc9-4a7a-95e0-a894ca54152c","system_id":"levelo_inurba_marseille","lat":43.30984,"lon":5.4171,"is_reserved":false,"is_disabled":false,"rental_uris":{"android":"levelo://app?vid=a7198c19-fdc9-4a7a-95e0-a894ca54152c","ios":"levelo://app?vid=a7198c19-fdc9-4a7a-95e0-a894ca54152c"},"vehicle_type_id":"4","last_reported":1745741497,"current_range_meters":16000,"station_id":"","pricing_plan_id":"cebpf4jnsgd1na2vs0mg"},{"bike_id":"268dd2c6-408f-4f64-b8d0-799d00701d15","system_id":"levelo_inurba_marseille","lat":43.30884,"lon":5.39636,"is_reserved":false,"is_disabled":false,"rental_uris":{"android":"levelo://app?vid=268dd2c6-408f-4f64-b8d0-799d00701d15","ios":"levelo://app?vid=268dd2c6-408f-4f64-b8d0-799d00701d15"},"vehicle_type_id":"4","last_reported":1745741497,"current_range_meters":16000,"station_id":"ce4bh012rcd13ifvqcv0","pricing_plan_id":"cebpf4jnsgd1na2vs0mg"},{"bike_id":"a3cb0bcc-45ee-4fcb-b255-43e5e09b7dd7","system_id":"levelo_inurba_marseille","lat":43.2781,"lon":5.40698,"is_reserved":false,"is_disabled":false,"rental_uris":{"android":"levelo://app?vid=a3cb0bcc-45ee-4fcb-b255-43e5e09b7dd7","ios":"levelo://app?vid=a3cb0bcc-45ee-4fcb-b255-43e5e09b7dd7"},"vehicle_type_id":"4","last_reported":1745741497,"current_range_meters":16000,"station_id":"ce4bhnh2rcd13ifvqgtg","pricing_plan_id":"cebpf4jnsgd1na2vs0mg"},{"bike_id":"7d323184-31b0-414e-be5d-e0af500db3e5","system_id":"levelo_inurba_marseille","lat":43.25578,"lon":5.3824,"is_reserved":false,"is_disabled":false,"rental_uris":{"android":"levelo://app?vid=7d323184-31b0-414e-be5d-e0af500db3e5","ios":"levelo://app?vid=7d323184-31b0-414e-be5d-e0af500db3e5"},"vehicle_type_id":"4","last_reported":1745741497,"current_range_meters":16400,"station_id":"ce4bhih2rcd13ifvqfs0","pricing_plan_id":"cebpf4jnsgd1na2vs0mg"},{"bike_id":"edb7787a-c68b-4c3c-a204-0dcc8d513b0d","system_id":"levelo_inurba_marseille","lat":43.24687,"lon":5.38166,"is_reserved":false,"is_disabled":false,"rental_uris":{"android":"levelo://app?vid=edb7787a-c68b-4c3c-a204-0dcc8d513b0d","ios":"levelo://app?vid=edb7787a-c68b-4c3c-a204-0dcc8d513b0d"},"vehicle_type_id":"4","last_reported":1745741497,"current_range_meters":16400,"station_id":"ce4bhih2rcd13ifvqfr0","pricing_plan_id":"cebpf4jnsgd1na2vs0mg"},{"bike_id":"b673c4dd-5bdb-48a9-9acf-4d4837707a29","system_id":"levelo_inurba_marseille","lat":43.31495,"lon":5.37297,"is_reserved":false,"is_disabled":false,"rental_uris":{"android":"levelo://app?vid=b673c4dd-5bdb-48a9-9acf-4d4837707a29","ios":"levelo://app?vid=b673c4dd-5bdb-48a9-9acf-4d4837707a29"},"vehicle_type_id":"4","last_reported":1745741497,"current_range_meters":16400,"station_id":"ce4bgt12rcd13ifvqcd0","pricing_plan_id":"cebpf4jnsgd1na2vs0mg"},{"bike_id":"0d777af5-4166-475a-a6b9-6a0197032592","system_id":"levelo_inurba_marseille","lat":43.23259,"lon":5.35225,"is_reserved":false,"is_disabled":false,"rental_uris":{"android":"levelo://app?vid=0d777af5-4166-475a-a6b9-6a0197032592","ios":"levelo://app?vid=0d777af5-4166-475a-a6b9-6a0197032592"},"vehicle_type_id":"4","last_reported":1745741497,"current_range_meters":16400,"station_id":"","pricing_plan_id":"cebpf4jnsgd1na2vs0mg"},{"bike_id":"2d419c17-3847-4945-8602-833976c2d402","system_id":"levelo_inurba_marseille","lat":43.25581,"lon":5.38243,"is_reserved":false,"is_disabled":false,"rental_uris":{"android":"levelo://app?vid=2d419c17-3847-4945-8602-833976c2d402","ios":"levelo://app?vid=2d419c17-3847-4945-8602-833976c2d402"},"vehicle_type_id":"4","last_reported":1745741497,"current_range_meters":16400,"station_id":"ce4bhih2rcd13ifvqfs0","pricing_plan_id":"cebpf4jnsgd1na2vs0mg"},{"bike_id":"3d934169-6946-46cc-87a4-ce5d03b77075","system_id":"levelo_inurba_marseille","lat":43.2176,"lon":5.34582,"is_reserved":false,"is_disabled":false,"rental_uris":{"android":"levelo://app?vid=3d934169-6946-46cc-87a4-ce5d03b77075","ios":"levelo://app?vid=3d934169-6946-46cc-87a4-ce5d03b77075"},"vehicle_type_id":"4","last_reported":1745741497,"current_range_meters":16400,"station_id":"st_cvj6r9ubvosntc0bgbag","pricing_plan_id":"cebpf4jnsgd1na2vs0mg"},{"bike_id":"c8c66532-2a3d-48eb-b64a-4db7feb05563","system_id":"levelo_inurba_marseille","lat":43.31318,"lon":5.39708,"is_reserved":false,"is_disabled":false,"rental_uris":{"android":"levelo://app?vid=c8c66532-2a3d-48eb-b64a-4db7feb05563","ios":"levelo://app?vid=c8c66532-2a3d-48eb-b64a-4db7feb05563"},"vehicle_type_id":"4","last_reported":1745741497,"current_range_meters":16400,"station_id":"ce4bgvp2rcd13ifvqcu0","pricing_plan_id":"cebpf4jnsgd1na2vs0mg"},{"bike_id":"a6ef5e73-9c2a-4c3a-b853-48e28d6dc161","system_id":"levelo_inurba_marseille","lat":43.31726,"lon":5.43784,"is_reserved":false,"is_disabled":true,"rental_uris":{"android":"levelo://app?vid=a6ef5e73-9c2a-4c3a-b853-48e28d6dc161","ios":"levelo://app?vid=a6ef5e73-9c2a-4c3a-b853-48e28d6dc161"},"vehicle_type_id":"4","last_reported":1745741497,"current_range_meters":16400,"station_id":"","pricing_plan_id":"cebpf4jnsgd1na2vs0mg"},{"bike_id":"1fe84233-d6e6-400c-ba7e-765c53207954","system_id":"levelo_inurba_marseille","lat":43.26063,"lon":5.39372,"is_reserved":false,"is_disabled":false,"rental_uris":{"android":"levelo://app?vid=1fe84233-d6e6-400c-ba7e-765c53207954","ios":"levelo://app?vid=1fe84233-d6e6-400c-ba7e-765c53207954"},"vehicle_type_id":"4","last_reported":1745741497,"current_range_meters":16400,"station_id":"ce4bhh92rcd13ifvqfj0","pricing_plan_id":"cebpf4jnsgd1na2vs0mg"},{"bike_id":"b330c3b4-8203-49c9-a4bf-5485d09a1d2d","system_id":"levelo_inurba_marseille","lat":43.30222,"lon":5.39467,"is_reserved":false,"is_disabled":true,"rental_uris":{"android":"levelo://app?vid=b330c3b4-8203-49c9-a4bf-5485d09a1d2d","ios":"levelo://app?vid=b330c3b4-8203-49c9-a4bf-5485d09a1d2d"},"vehicle_type_id":"4","last_reported":1745741497,"current_range_meters":16400,"station_id":"ce4bh0p2rcd13ifvqd70","pricing_plan_id":"cebpf4jnsgd1na2vs0mg"},{"bike_id":"99be1414-58ff-4752-826b-d0dcc4401711","system_id":"levelo_inurba_marseille","lat":43.24812,"lon":5.37437,"is_reserved":false,"is_disabled":true,"rental_uris":{"android":"levelo://app?vid=99be1414-58ff-4752-826b-d0dcc4401711","ios":"levelo://app?vid=99be1414-58ff-4752-826b-d0dcc4401711"},"vehicle_type_id":"4","last_reported":1745741497,"current_range_meters":16400,"station_id":"ce4bhgh2rcd13ifvqfb0","pricing_plan_id":"cebpf4jnsgd1na2vs0mg"},{"bike_id":"36894e47-6a3e-44a3-a461-a4c4abe0aa7d","system_id":"levelo_inurba_marseille","lat":43.33733,"lon":5.39169,"is_reserved":false,"is_disabled":false,"rental_uris":{"android":"levelo://app?vid=36894e47-6a3e-44a3-a461-a4c4abe0aa7d","ios":"levelo://app?vid=36894e47-6a3e-44a3-a461-a4c4abe0aa7d"},"vehicle_type_id":"4","last_reported":1745741497,"current_range_meters":16800,"station_id":"ce4bhr92rcd13ifvqhsg","pricing_plan_id":"cebpf4jnsgd1na2vs0mg"},{"bike_id":"a95d8854-01ac-456e-90b1-05dcac86d2ec","system_id":"levelo_inurba_marseille","lat":43.29807,"lon":5.40406,"is_reserved":false,"is_disabled":false,"rental_uris":{"android":"levelo://app?vid=a95d8854-01ac-456e-90b1-05dcac86d2ec","ios":"levelo://app?vid=a95d8854-01ac-456e-90b1-05dcac86d2ec"},"vehicle_type_id":"4","last_reported":1745741497,"current_range_meters":16800,"station_id":"ce4bh112rcd13ifvqd90","pricing_plan_id":"cebpf4jnsgd1na2vs0mg"},{"bike_id":"389fa13e-9fb8-4551-94cc-3437e858ed36","system_id":"levelo_inurba_marseille","lat":43.2417,"lon":5.36384,"is_reserved":false,"is_disabled":false,"rental_uris":{"android":"levelo://app?vid=389fa13e-9fb8-4551-94cc-3437e858ed36","ios":"levelo://app?vid=389fa13e-9fb8-4551-94cc-3437e858ed36"},"vehicle_type_id":"4","last_reported":1745741497,"current_range_meters":16800,"station_id":"cpo36qri1sfpv3e86is0","pricing_plan_id":"cebpf4jnsgd1na2vs0mg"},{"bike_id":"b8b283a3-f0bb-4b6a-8588-f7b70d0c87cc","system_id":"levelo_inurba_marseille","lat":43.31502,"lon":5.37284,"is_reserved":false,"is_disabled":false,"rental_uris":{"android":"levelo://app?vid=b8b283a3-f0bb-4b6a-8588-f7b70d0c87cc","ios":"levelo://app?vid=b8b283a3-f0bb-4b6a-8588-f7b70d0c87cc"},"vehicle_type_id":"4","last_reported":1745741497,"current_range_meters":17200,"station_id":"ce4bgt12rcd13ifvqcd0","pricing_plan_id":"cebpf4jnsgd1na2vs0mg"},{"bike_id":"a2157019-5dd6-4ed7-9538-28603ba5a141","system_id":"levelo_inurba_marseille","lat":43.3092,"lon":5.4015,"is_reserved":false,"is_disabled":false,"rental_uris":{"android":"levelo://app?vid=a2157019-5dd6-4ed7-9538-28603ba5a141","ios":"levelo://app?vid=a2157019-5dd6-4ed7-9538-28603ba5a141"},"vehicle_type_id":"4","last_reported":1745741497,"current_range_meters":17200,"station_id":"ce4bgvp2rcd13ifvqct0","pricing_plan_id":"cebpf4jnsgd1na2vs0mg"},{"bike_id":"39e60548-37a4-4fcf-a3ae-8e7ab84a9c0a","system_id":"levelo_inurba_marseille","lat":43.24685,"lon":5.38133,"is_reserved":false,"is_disabled":false,"rental_uris":{"android":"levelo://app?vid=39e60548-37a4-4fcf-a3ae-8e7ab84a9c0a","ios":"levelo://app?vid=39e60548-37a4-4fcf-a3ae-8e7ab84a9c0a"},"vehicle_type_id":"4","last_reported":1745741497,"current_range_meters":17200,"station_id":"ce4bhih2rcd13ifvqfr0","pricing_plan_id":"cebpf4jnsgd1na2vs0mg"},{"bike_id":"6bbd2eb5-fa3d-4f4a-97f6-fbe4ace325a7","system_id":"levelo_inurba_marseille","lat":43.2681,"lon":5.4025,"is_reserved":false,"is_disabled":false,"rental_uris":{"android":"levelo://app?vid=6bbd2eb5-fa3d-4f4a-97f6-fbe4ace325a7","ios":"levelo://app?vid=6bbd2eb5-fa3d-4f4a-97f6-fbe4ace325a7"},"vehicle_type_id":"4","last_reported":1745741497,"current_range_meters":17200,"station_id":"ce501612rcd8frsf0b60","pricing_plan_id":"cebpf4jnsgd1na2vs0mg"},{"bike_id":"b9c0ca6d-4fed-4449-a996-62e1b641e998","system_id":"levelo_inurba_marseille","lat":43.27666,"lon":5.38874,"is_reserved":false,"is_disabled":false,"rental_uris":{"android":"levelo://app?vid=b9c0ca6d-4fed-4449-a996-62e1b641e998","ios":"levelo://app?vid=b9c0ca6d-4fed-4449-a996-62e1b641e998"},"vehicle_type_id":"4","last_reported":1745741497,"current_range_meters":17200,"station_id":"ce4bhi12rcd13ifvqfo0","pricing_plan_id":"cebpf4jnsgd1na2vs0mg"},{"bike_id":"4046a82f-66e8-4b55-bd0a-356edea772d8","system_id":"levelo_inurba_marseille","lat":43.30574,"lon":5.38133,"is_reserved":false,"is_disabled":false,"rental_uris":{"android":"levelo://app?vid=4046a82f-66e8-4b55-bd0a-356edea772d8","ios":"levelo://app?vid=4046a82f-66e8-4b55-bd0a-356edea772d8"},"vehicle_type_id":"4","last_reported":1745741497,"current_range_meters":17600,"station_id":"","pricing_plan_id":"cebpf4jnsgd1na2vs0mg"},{"bike_id":"54ef469b-623b-470e-a64d-656e0475c23d","system_id":"levelo_inurba_marseille","lat":43.30652,"lon":5.40075,"is_reserved":false,"is_disabled":false,"rental_uris":{"android":"levelo://app?vid=54ef469b-623b-470e-a64d-656e0475c23d","ios":"levelo://app?vid=54ef469b-623b-470e-a64d-656e0475c23d"},"vehicle_type_id":"4","last_reported":1745741497,"current_range_meters":17600,"station_id":"ce4bh112rcd13ifvqda0","pricing_plan_id":"cebpf4jnsgd1na2vs0mg"},{"bike_id":"97f36b89-3f79-4d54-80b9-0001fe6da6bb","system_id":"levelo_inurba_marseille","lat":43.32445,"lon":5.39134,"is_reserved":false,"is_disabled":true,"rental_uris":{"android":"levelo://app?vid=97f36b89-3f79-4d54-80b9-0001fe6da6bb","ios":"levelo://app?vid=97f36b89-3f79-4d54-80b9-0001fe6da6bb"},"vehicle_type_id":"4","last_reported":1745741497,"current_range_meters":17600,"station_id":"","pricing_plan_id":"cebpf4jnsgd1na2vs0mg"},{"bike_id":"d8e186e0-8d9f-4c16-bb12-3c50f63fd666","system_id":"levelo_inurba_marseille","lat":43.27485,"lon":5.4246,"is_reserved":false,"is_disabled":false,"rental_uris":{"android":"levelo://app?vid=d8e186e0-8d9f-4c16-bb12-3c50f63fd666","ios":"levelo://app?vid=d8e186e0-8d9f-4c16-bb12-3c50f63fd666"},"vehicle_type_id":"4","last_reported":1745741497,"current_range_meters":18000,"station_id":"ce4bhn92rcd13ifvqgrg","pricing_plan_id":"cebpf4jnsgd1na2vs0mg"},{"bike_id":"6d593226-0a2e-46d4-8de3-9c8bd9d3e674","system_id":"levelo_inurba_marseille","lat":43.297753,"lon":5.381151,"is_reserved":false,"is_disabled":true,"rental_uris":{"android":"levelo://app?vid=6d593226-0a2e-46d4-8de3-9c8bd9d3e674","ios":"levelo://app?vid=6d593226-0a2e-46d4-8de3-9c8bd9d3e674"},"vehicle_type_id":"4","last_reported":1745741497,"current_range_meters":18000,"station_id":"ce4bgip2rcd13ifvqbb0","pricing_plan_id":"cebpf4jnsgd1na2vs0mg"},{"bike_id":"a1300fa1-43f7-47bc-be68-1621591c429e","system_id":"levelo_inurba_marseille","lat":43.25035,"lon":5.38924,"is_reserved":false,"is_disabled":true,"rental_uris":{"android":"levelo://app?vid=a1300fa1-43f7-47bc-be68-1621591c429e","ios":"levelo://app?vid=a1300fa1-43f7-47bc-be68-1621591c429e"},"vehicle_type_id":"4","last_reported":1745741497,"current_range_meters":18000,"station_id":"ce4bhgp2rcd13ifvqfd0","pricing_plan_id":"cebpf4jnsgd1na2vs0mg"},{"bike_id":"b5374913-2d8e-4340-9ef3-bca67eedae7f","system_id":"levelo_inurba_marseille","lat":43.25912,"lon":5.40872,"is_reserved":false,"is_disabled":false,"rental_uris":{"android":"levelo://app?vid=b5374913-2d8e-4340-9ef3-bca67eedae7f","ios":"levelo://app?vid=b5374913-2d8e-4340-9ef3-bca67eedae7f"},"vehicle_type_id":"4","last_reported":1745741497,"current_range_meters":18800,"station_id":"ce4bhm92rcd13ifvqglg","pricing_plan_id":"cebpf4jnsgd1na2vs0mg"},{"bike_id":"e492037e-60a9-4864-84d6-2fe9ea031f90","system_id":"levelo_inurba_marseille","lat":43.279726,"lon":5.387607,"is_reserved":false,"is_disabled":false,"rental_uris":{"android":"levelo://app?vid=e492037e-60a9-4864-84d6-2fe9ea031f90","ios":"levelo://app?vid=e492037e-60a9-4864-84d6-2fe9ea031f90"},"vehicle_type_id":"4","last_reported":1745741497,"current_range_meters":18800,"station_id":"ce4bhg12rcd13ifvqf80","pricing_plan_id":"cebpf4jnsgd1na2vs0mg"},{"bike_id":"4508fac8-20ad-40ae-8ce9-c4bc893ea97b","system_id":"levelo_inurba_marseille","lat":43.27075,"lon":5.42279,"is_reserved":false,"is_disabled":false,"rental_uris":{"android":"levelo://app?vid=4508fac8-20ad-40ae-8ce9-c4bc893ea97b","ios":"levelo://app?vid=4508fac8-20ad-40ae-8ce9-c4bc893ea97b"},"vehicle_type_id":"4","last_reported":1745741497,"current_range_meters":18800,"station_id":"ce4bhk92rcd13ifvqgb0","pricing_plan_id":"cebpf4jnsgd1na2vs0mg"},{"bike_id":"97fd7a4c-36e8-401d-b12d-1b4015a01ebe","system_id":"levelo_inurba_marseille","lat":43.26562,"lon":5.42077,"is_reserved":false,"is_disabled":false,"rental_uris":{"android":"levelo://app?vid=97fd7a4c-36e8-401d-b12d-1b4015a01ebe","ios":"levelo://app?vid=97fd7a4c-36e8-401d-b12d-1b4015a01ebe"},"vehicle_type_id":"4","last_reported":1745741497,"current_range_meters":18800,"station_id":"","pricing_plan_id":"cebpf4jnsgd1na2vs0mg"},{"bike_id":"b532cbc6-d603-4b6c-8eb1-6da63ec873ab","system_id":"levelo_inurba_marseille","lat":43.271,"lon":5.40311,"is_reserved":false,"is_disabled":false,"rental_uris":{"android":"levelo://app?vid=b532cbc6-d603-4b6c-8eb1-6da63ec873ab","ios":"levelo://app?vid=b532cbc6-d603-4b6c-8eb1-6da63ec873ab"},"vehicle_type_id":"4","last_reported":1745741497,"current_range_meters":18800,"station_id":"","pricing_plan_id":"cebpf4jnsgd1na2vs0mg"},{"bike_id":"6cca916e-9cdb-41f7-855f-a7e7b4d58e02","system_id":"levelo_inurba_marseille","lat":43.27427,"lon":5.3941,"is_reserved":false,"is_disabled":false,"rental_uris":{"android":"levelo://app?vid=6cca916e-9cdb-41f7-855f-a7e7b4d58e02","ios":"levelo://app?vid=6cca916e-9cdb-41f7-855f-a7e7b4d58e02"},"vehicle_type_id":"4","last_reported":1745741497,"current_range_meters":19200,"station_id":"ce4bhdp2rcd13ifvqf20","pricing_plan_id":"cebpf4jnsgd1na2vs0mg"},{"bike_id":"89fa9ebf-c855-4df0-9b21-5c145a393657","system_id":"levelo_inurba_marseille","lat":43.311126,"lon":5.377721,"is_reserved":false,"is_disabled":false,"rental_uris":{"android":"levelo://app?vid=89fa9ebf-c855-4df0-9b21-5c145a393657","ios":"levelo://app?vid=89fa9ebf-c855-4df0-9b21-5c145a393657"},"vehicle_type_id":"4","last_reported":1745741497,"current_range_meters":19200,"station_id":"ce4bgt92rcd13ifvqcg0","pricing_plan_id":"cebpf4jnsgd1na2vs0mg"},{"bike_id":"586ad13c-53a6-4799-8583-2ba9ce1a1095","system_id":"levelo_inurba_marseille","lat":43.30985,"lon":5.41712,"is_reserved":false,"is_disabled":false,"rental_uris":{"android":"levelo://app?vid=586ad13c-53a6-4799-8583-2ba9ce1a1095","ios":"levelo://app?vid=586ad13c-53a6-4799-8583-2ba9ce1a1095"},"vehicle_type_id":"4","last_reported":1745741497,"current_range_meters":19200,"station_id":"","pricing_plan_id":"cebpf4jnsgd1na2vs0mg"},{"bike_id":"6d9e6bcd-d12c-4436-9898-cbe3ca658211","system_id":"levelo_inurba_marseille","lat":43.22499,"lon":5.34776,"is_reserved":false,"is_disabled":false,"rental_uris":{"android":"levelo://app?vid=6d9e6bcd-d12c-4436-9898-cbe3ca658211","ios":"levelo://app?vid=6d9e6bcd-d12c-4436-9898-cbe3ca658211"},"vehicle_type_id":"4","last_reported":1745741497,"current_range_meters":19200,"station_id":"st_cvj5dfep6f1abm77gieg","pricing_plan_id":"cebpf4jnsgd1na2vs0mg"},{"bike_id":"94c7b3ad-c424-427c-abb2-5981aea66c18","system_id":"levelo_inurba_marseille","lat":43.2927,"lon":5.40917,"is_reserved":false,"is_disabled":false,"rental_uris":{"android":"levelo://app?vid=94c7b3ad-c424-427c-abb2-5981aea66c18","ios":"levelo://app?vid=94c7b3ad-c424-427c-abb2-5981aea66c18"},"vehicle_type_id":"4","last_reported":1745741497,"current_range_meters":19200,"station_id":"ce4bh192rcd13ifvqdc0","pricing_plan_id":"cebpf4jnsgd1na2vs0mg"},{"bike_id":"c5251972-d279-4ec2-bcf1-956c2d9d91f3","system_id":"levelo_inurba_marseille","lat":43.22503,"lon":5.34793,"is_reserved":false,"is_disabled":false,"rental_uris":{"android":"levelo://app?vid=c5251972-d279-4ec2-bcf1-956c2d9d91f3","ios":"levelo://app?vid=c5251972-d279-4ec2-bcf1-956c2d9d91f3"},"vehicle_type_id":"4","last_reported":1745741497,"current_range_meters":19200,"station_id":"st_cvj5dfep6f1abm77gieg","pricing_plan_id":"cebpf4jnsgd1na2vs0mg"},{"bike_id":"181ed326-b471-49b5-9f00-acd48cb5b299","system_id":"levelo_inurba_marseille","lat":43.282697,"lon":5.350926,"is_reserved":false,"is_disabled":true,"rental_uris":{"android":"levelo://app?vid=181ed326-b471-49b5-9f00-acd48cb5b299","ios":"levelo://app?vid=181ed326-b471-49b5-9f00-acd48cb5b299"},"vehicle_type_id":"4","last_reported":1745741497,"current_range_meters":19200,"station_id":"ce4bhbp2rcd13ifvqerg","pricing_plan_id":"cebpf4jnsgd1na2vs0mg"},{"bike_id":"0fa0d35c-5f1d-4090-ac0b-83c1fb2bda03","system_id":"levelo_inurba_marseille","lat":43.29287,"lon":5.4094,"is_reserved":false,"is_disabled":false,"rental_uris":{"android":"levelo://app?vid=0fa0d35c-5f1d-4090-ac0b-83c1fb2bda03","ios":"levelo://app?vid=0fa0d35c-5f1d-4090-ac0b-83c1fb2bda03"},"vehicle_type_id":"4","last_reported":1745741497,"current_range_meters":19600,"station_id":"ce4bh192rcd13ifvqdc0","pricing_plan_id":"cebpf4jnsgd1na2vs0mg"},{"bike_id":"188f96b2-7316-44a2-875d-4f24a3722e03","system_id":"levelo_inurba_marseille","lat":43.29726,"lon":5.37175,"is_reserved":false,"is_disabled":false,"rental_uris":{"android":"levelo://app?vid=188f96b2-7316-44a2-875d-4f24a3722e03","ios":"levelo://app?vid=188f96b2-7316-44a2-875d-4f24a3722e03"},"vehicle_type_id":"4","last_reported":1745741497,"current_range_meters":19600,"station_id":"","pricing_plan_id":"cebpf4jnsgd1na2vs0mg"},{"bike_id":"c44eb229-a1f6-478f-a2aa-0e5b2510cf33","system_id":"levelo_inurba_marseille","lat":43.265641,"lon":5.390158,"is_reserved":false,"is_disabled":false,"rental_uris":{"android":"levelo://app?vid=c44eb229-a1f6-478f-a2aa-0e5b2510cf33","ios":"levelo://app?vid=c44eb229-a1f6-478f-a2aa-0e5b2510cf33"},"vehicle_type_id":"4","last_reported":1745741497,"current_range_meters":19600,"station_id":"ce4bhe12rcd13ifvqf30","pricing_plan_id":"cebpf4jnsgd1na2vs0mg"},{"bike_id":"44fdc3fc-bce3-4410-90a5-aa3cbebe2134","system_id":"levelo_inurba_marseille","lat":43.24077,"lon":5.37754,"is_reserved":false,"is_disabled":false,"rental_uris":{"android":"levelo://app?vid=44fdc3fc-bce3-4410-90a5-aa3cbebe2134","ios":"levelo://app?vid=44fdc3fc-bce3-4410-90a5-aa3cbebe2134"},"vehicle_type_id":"4","last_reported":1745741497,"current_range_meters":19600,"station_id":"ce4bhnp2rcd13ifvqgvg","pricing_plan_id":"cebpf4jnsgd1na2vs0mg"},{"bike_id":"5ef04bbc-22dd-4338-9a50-0c7bbeda8541","system_id":"levelo_inurba_marseille","lat":43.21097,"lon":5.3514,"is_reserved":false,"is_disabled":false,"rental_uris":{"android":"levelo://app?vid=5ef04bbc-22dd-4338-9a50-0c7bbeda8541","ios":"levelo://app?vid=5ef04bbc-22dd-4338-9a50-0c7bbeda8541"},"vehicle_type_id":"4","last_reported":1745741497,"current_range_meters":19600,"station_id":"","pricing_plan_id":"cebpf4jnsgd1na2vs0mg"},{"bike_id":"5e29bb99-7a29-4bbf-a514-99195c8fa20f","system_id":"levelo_inurba_marseille","lat":43.29902,"lon":5.43657,"is_reserved":false,"is_disabled":false,"rental_uris":{"android":"levelo://app?vid=5e29bb99-7a29-4bbf-a514-99195c8fa20f","ios":"levelo://app?vid=5e29bb99-7a29-4bbf-a514-99195c8fa20f"},"vehicle_type_id":"4","last_reported":1745741497,"current_range_meters":19600,"station_id":"ce4bhpp2rcd13ifvqhfg","pricing_plan_id":"cebpf4jnsgd1na2vs0mg"},{"bike_id":"988d3e51-0f81-4d05-9256-41d5bf2a54ae","system_id":"levelo_inurba_marseille","lat":43.2972,"lon":5.36639,"is_reserved":false,"is_disabled":true,"rental_uris":{"android":"levelo://app?vid=988d3e51-0f81-4d05-9256-41d5bf2a54ae","ios":"levelo://app?vid=988d3e51-0f81-4d05-9256-41d5bf2a54ae"},"vehicle_type_id":"4","last_reported":1745741497,"current_range_meters":19600,"station_id":"ce4bgn12rcd13ifvqbt0","pricing_plan_id":"cebpf4jnsgd1na2vs0mg"},{"bike_id":"0746d772-0d02-477e-add3-a83366c9a2d8","system_id":"levelo_inurba_marseille","lat":43.260717,"lon":5.39395,"is_reserved":false,"is_disabled":false,"rental_uris":{"android":"levelo://app?vid=0746d772-0d02-477e-add3-a83366c9a2d8","ios":"levelo://app?vid=0746d772-0d02-477e-add3-a83366c9a2d8"},"vehicle_type_id":"4","last_reported":1745741497,"current_range_meters":19600,"station_id":"ce4bhh92rcd13ifvqfj0","pricing_plan_id":"cebpf4jnsgd1na2vs0mg"},{"bike_id":"0be3e0e7-687d-4857-9b13-2fe0c4be5ba3","system_id":"levelo_inurba_marseille","lat":43.280696,"lon":5.396547,"is_reserved":false,"is_disabled":false,"rental_uris":{"android":"levelo://app?vid=0be3e0e7-687d-4857-9b13-2fe0c4be5ba3","ios":"levelo://app?vid=0be3e0e7-687d-4857-9b13-2fe0c4be5ba3"},"vehicle_type_id":"4","last_reported":1745741497,"current_range_meters":19600,"station_id":"ce4bho12rcd13ifvqh2g","pricing_plan_id":"cebpf4jnsgd1na2vs0mg"},{"bike_id":"b5364338-e055-4335-a953-8ac8e7b28bdc","system_id":"levelo_inurba_marseille","lat":43.33603,"lon":5.41032,"is_reserved":false,"is_disabled":false,"rental_uris":{"android":"levelo://app?vid=b5364338-e055-4335-a953-8ac8e7b28bdc","ios":"levelo://app?vid=b5364338-e055-4335-a953-8ac8e7b28bdc"},"vehicle_type_id":"4","last_reported":1745741497,"current_range_meters":19600,"station_id":"ce4bhqh2rcd13ifvqhmg","pricing_plan_id":"cebpf4jnsgd1na2vs0mg"},{"bike_id":"b1c22a69-ef51-4e18-add5-a1cbbfa65f9c","system_id":"levelo_inurba_marseille","lat":43.29034,"lon":5.39967,"is_reserved":false,"is_disabled":false,"rental_uris":{"android":"levelo://app?vid=b1c22a69-ef51-4e18-add5-a1cbbfa65f9c","ios":"levelo://app?vid=b1c22a69-ef51-4e18-add5-a1cbbfa65f9c"},"vehicle_type_id":"4","last_reported":1745741497,"current_range_meters":19600,"station_id":"ce4bh392rcd13ifvqdm0","pricing_plan_id":"cebpf4jnsgd1na2vs0mg"},{"bike_id":"bec1e472-63aa-481e-bbc8-305365b19ca4","system_id":"levelo_inurba_marseille","lat":43.27985,"lon":5.38751,"is_reserved":false,"is_disabled":false,"rental_uris":{"android":"levelo://app?vid=bec1e472-63aa-481e-bbc8-305365b19ca4","ios":"levelo://app?vid=bec1e472-63aa-481e-bbc8-305365b19ca4"},"vehicle_type_id":"4","last_reported":1745741497,"current_range_meters":20000,"station_id":"ce4bhg12rcd13ifvqf80","pricing_plan_id":"cebpf4jnsgd1na2vs0mg"},{"bike_id":"929ede0a-bede-4f2c-98c5-5586d05b6a66","system_id":"levelo_inurba_marseille","lat":43.21753,"lon":5.34602,"is_reserved":false,"is_disabled":false,"rental_uris":{"android":"levelo://app?vid=929ede0a-bede-4f2c-98c5-5586d05b6a66","ios":"levelo://app?vid=929ede0a-bede-4f2c-98c5-5586d05b6a66"},"vehicle_type_id":"4","last_reported":1745741497,"current_range_meters":20000,"station_id":"st_cvj6r9ubvosntc0bgbag","pricing_plan_id":"cebpf4jnsgd1na2vs0mg"},{"bike_id":"7bd2aecf-82fb-41ba-8939-c315ad8c7c41","system_id":"levelo_inurba_marseille","lat":43.30444,"lon":5.38885,"is_reserved":false,"is_disabled":false,"rental_uris":{"android":"levelo://app?vid=7bd2aecf-82fb-41ba-8939-c315ad8c7c41","ios":"levelo://app?vid=7bd2aecf-82fb-41ba-8939-c315ad8c7c41"},"vehicle_type_id":"4","last_reported":1745741497,"current_range_meters":20000,"station_id":"ce4bgk12rcd13ifvqbi0","pricing_plan_id":"cebpf4jnsgd1na2vs0mg"},{"bike_id":"9275afeb-620b-4a3c-83d1-31bc14709d93","system_id":"levelo_inurba_marseille","lat":43.28887,"lon":5.35845,"is_reserved":false,"is_disabled":true,"rental_uris":{"android":"levelo://app?vid=9275afeb-620b-4a3c-83d1-31bc14709d93","ios":"levelo://app?vid=9275afeb-620b-4a3c-83d1-31bc14709d93"},"vehicle_type_id":"4","last_reported":1745741497,"current_range_meters":20000,"station_id":"ce4bhb12rcd13ifvqem0","pricing_plan_id":"cebpf4jnsgd1na2vs0mg"},{"bike_id":"09726f98-2857-4622-b5e9-85c84dadcf18","system_id":"levelo_inurba_marseille","lat":43.30284,"lon":5.40023,"is_reserved":false,"is_disabled":false,"rental_uris":{"android":"levelo://app?vid=09726f98-2857-4622-b5e9-85c84dadcf18","ios":"levelo://app?vid=09726f98-2857-4622-b5e9-85c84dadcf18"},"vehicle_type_id":"4","last_reported":1745741497,"current_range_meters":20000,"station_id":"ce4bgvh2rcd13ifvqcs0","pricing_plan_id":"cebpf4jnsgd1na2vs0mg"},{"bike_id":"3f594d7c-abb9-4381-87f9-e3bcb3849d6a","system_id":"levelo_inurba_marseille","lat":43.29275,"lon":5.40883,"is_reserved":false,"is_disabled":false,"rental_uris":{"android":"levelo://app?vid=3f594d7c-abb9-4381-87f9-e3bcb3849d6a","ios":"levelo://app?vid=3f594d7c-abb9-4381-87f9-e3bcb3849d6a"},"vehicle_type_id":"4","last_reported":1745741497,"current_range_meters":20400,"station_id":"ce4bh192rcd13ifvqdc0","pricing_plan_id":"cebpf4jnsgd1na2vs0mg"},{"bike_id":"b45721df-1911-4bd0-96bb-0c84adb69cfd","system_id":"levelo_inurba_marseille","lat":43.239597,"lon":5.36633,"is_reserved":false,"is_disabled":false,"rental_uris":{"android":"levelo://app?vid=b45721df-1911-4bd0-96bb-0c84adb69cfd","ios":"levelo://app?vid=b45721df-1911-4bd0-96bb-0c84adb69cfd"},"vehicle_type_id":"4","last_reported":1745741497,"current_range_meters":20400,"station_id":"ce4bhi12rcd13ifvqfp0","pricing_plan_id":"cebpf4jnsgd1na2vs0mg"},{"bike_id":"8b4d7857-7edd-463b-82bc-d7e5aef44ff0","system_id":"levelo_inurba_marseille","lat":43.30142,"lon":5.38087,"is_reserved":false,"is_disabled":false,"rental_uris":{"android":"levelo://app?vid=8b4d7857-7edd-463b-82bc-d7e5aef44ff0","ios":"levelo://app?vid=8b4d7857-7edd-463b-82bc-d7e5aef44ff0"},"vehicle_type_id":"4","last_reported":1745741497,"current_range_meters":20400,"station_id":"ce4bgjp2rcd13ifvqbh0","pricing_plan_id":"cebpf4jnsgd1na2vs0mg"},{"bike_id":"6479956a-d9b1-44fc-b8a6-2a54b4859093","system_id":"levelo_inurba_marseille","lat":43.28137,"lon":5.42665,"is_reserved":false,"is_disabled":false,"rental_uris":{"android":"levelo://app?vid=6479956a-d9b1-44fc-b8a6-2a54b4859093","ios":"levelo://app?vid=6479956a-d9b1-44fc-b8a6-2a54b4859093"},"vehicle_type_id":"4","last_reported":1745741497,"current_range_meters":20800,"station_id":"ce4bhnh2rcd13ifvqgug","pricing_plan_id":"cebpf4jnsgd1na2vs0mg"},{"bike_id":"c9571525-93b3-40e2-95f2-2a73305c6e05","system_id":"levelo_inurba_marseille","lat":43.26565,"lon":5.39003,"is_reserved":false,"is_disabled":false,"rental_uris":{"android":"levelo://app?vid=c9571525-93b3-40e2-95f2-2a73305c6e05","ios":"levelo://app?vid=c9571525-93b3-40e2-95f2-2a73305c6e05"},"vehicle_type_id":"4","last_reported":1745741497,"current_range_meters":20800,"station_id":"ce4bhe12rcd13ifvqf30","pricing_plan_id":"cebpf4jnsgd1na2vs0mg"},{"bike_id":"5f363fb2-65d6-4f54-a7e8-9f0969c18dcf","system_id":"levelo_inurba_marseille","lat":43.30554,"lon":5.36527,"is_reserved":false,"is_disabled":true,"rental_uris":{"android":"levelo://app?vid=5f363fb2-65d6-4f54-a7e8-9f0969c18dcf","ios":"levelo://app?vid=5f363fb2-65d6-4f54-a7e8-9f0969c18dcf"},"vehicle_type_id":"4","last_reported":1745741497,"current_range_meters":20800,"station_id":"ce4bgs12rcd13ifvqcag","pricing_plan_id":"cebpf4jnsgd1na2vs0mg"},{"bike_id":"0b6d029c-75e7-4035-b624-5a32cd045035","system_id":"levelo_inurba_marseille","lat":43.31122,"lon":5.37781,"is_reserved":false,"is_disabled":false,"rental_uris":{"android":"levelo://app?vid=0b6d029c-75e7-4035-b624-5a32cd045035","ios":"levelo://app?vid=0b6d029c-75e7-4035-b624-5a32cd045035"},"vehicle_type_id":"4","last_reported":1745741497,"current_range_meters":20800,"station_id":"ce4bgt92rcd13ifvqcg0","pricing_plan_id":"cebpf4jnsgd1na2vs0mg"},{"bike_id":"a1eef206-b196-4dbe-8444-1fdb32e851fe","system_id":"levelo_inurba_marseille","lat":43.250896,"lon":5.395132,"is_reserved":false,"is_disabled":false,"rental_uris":{"android":"levelo://app?vid=a1eef206-b196-4dbe-8444-1fdb32e851fe","ios":"levelo://app?vid=a1eef206-b196-4dbe-8444-1fdb32e851fe"},"vehicle_type_id":"4","last_reported":1745741497,"current_range_meters":20800,"station_id":"ce4bhm12rcd13ifvqgkg","pricing_plan_id":"cebpf4jnsgd1na2vs0mg"},{"bike_id":"96932114-e32e-4a96-a445-ccee0876653f","system_id":"levelo_inurba_marseille","lat":43.28715,"lon":5.399892,"is_reserved":false,"is_disabled":false,"rental_uris":{"android":"levelo://app?vid=96932114-e32e-4a96-a445-ccee0876653f","ios":"levelo://app?vid=96932114-e32e-4a96-a445-ccee0876653f"},"vehicle_type_id":"4","last_reported":1745741497,"current_range_meters":20800,"station_id":"ce4bho92rcd13ifvqh3g","pricing_plan_id":"cebpf4jnsgd1na2vs0mg"},{"bike_id":"cb692db3-5369-4623-ba66-40cbb4184174","system_id":"levelo_inurba_marseille","lat":43.24668,"lon":5.38162,"is_reserved":false,"is_disabled":false,"rental_uris":{"android":"levelo://app?vid=cb692db3-5369-4623-ba66-40cbb4184174","ios":"levelo://app?vid=cb692db3-5369-4623-ba66-40cbb4184174"},"vehicle_type_id":"4","last_reported":1745741497,"current_range_meters":20800,"station_id":"ce4bhih2rcd13ifvqfr0","pricing_plan_id":"cebpf4jnsgd1na2vs0mg"},{"bike_id":"854b6f67-ca9a-45bb-a87f-9accf64bf40e","system_id":"levelo_inurba_marseille","lat":43.27583,"lon":5.38424,"is_reserved":false,"is_disabled":true,"rental_uris":{"android":"levelo://app?vid=854b6f67-ca9a-45bb-a87f-9accf64bf40e","ios":"levelo://app?vid=854b6f67-ca9a-45bb-a87f-9accf64bf40e"},"vehicle_type_id":"4","last_reported":1745741497,"current_range_meters":21600,"station_id":"ce4bhh92rcd13ifvqfi0","pricing_plan_id":"cebpf4jnsgd1na2vs0mg"},{"bike_id":"7c7dae8c-f706-49ba-a992-714a664efd83","system_id":"levelo_inurba_marseille","lat":43.22504,"lon":5.34774,"is_reserved":false,"is_disabled":false,"rental_uris":{"android":"levelo://app?vid=7c7dae8c-f706-49ba-a992-714a664efd83","ios":"levelo://app?vid=7c7dae8c-f706-49ba-a992-714a664efd83"},"vehicle_type_id":"4","last_reported":1745741497,"current_range_meters":21600,"station_id":"st_cvj5dfep6f1abm77gieg","pricing_plan_id":"cebpf4jnsgd1na2vs0mg"},{"bike_id":"b2ea41d9-c4e6-436b-891b-78a816cb81aa","system_id":"levelo_inurba_marseille","lat":43.31355,"lon":5.38487,"is_reserved":false,"is_disabled":false,"rental_uris":{"android":"levelo://app?vid=b2ea41d9-c4e6-436b-891b-78a816cb81aa","ios":"levelo://app?vid=b2ea41d9-c4e6-436b-891b-78a816cb81aa"},"vehicle_type_id":"4","last_reported":1745741497,"current_range_meters":21600,"station_id":"ce4bgt92rcd13ifvqcf0","pricing_plan_id":"cebpf4jnsgd1na2vs0mg"},{"bike_id":"6ddd8ef3-b702-4b15-a6c6-3bb7746aa0cd","system_id":"levelo_inurba_marseille","lat":43.26494,"lon":5.39532,"is_reserved":false,"is_disabled":false,"rental_uris":{"android":"levelo://app?vid=6ddd8ef3-b702-4b15-a6c6-3bb7746aa0cd","ios":"levelo://app?vid=6ddd8ef3-b702-4b15-a6c6-3bb7746aa0cd"},"vehicle_type_id":"4","last_reported":1745741497,"current_range_meters":21600,"station_id":"ce4bhi12rcd13ifvqfq0","pricing_plan_id":"cebpf4jnsgd1na2vs0mg"},{"bike_id":"d6fb82a2-266d-4a41-8f70-4ecfa472b869","system_id":"levelo_inurba_marseille","lat":43.29549,"lon":5.37532,"is_reserved":false,"is_disabled":false,"rental_uris":{"android":"levelo://app?vid=d6fb82a2-266d-4a41-8f70-4ecfa472b869","ios":"levelo://app?vid=d6fb82a2-266d-4a41-8f70-4ecfa472b869"},"vehicle_type_id":"4","last_reported":1745741497,"current_range_meters":21600,"station_id":"ce4bgh92rcd13ifvqb50","pricing_plan_id":"cebpf4jnsgd1na2vs0mg"},{"bike_id":"90fa343e-9a5e-4b1e-8a8d-7eb587d7c55b","system_id":"levelo_inurba_marseille","lat":43.304287,"lon":5.367545,"is_reserved":false,"is_disabled":false,"rental_uris":{"android":"levelo://app?vid=90fa343e-9a5e-4b1e-8a8d-7eb587d7c55b","ios":"levelo://app?vid=90fa343e-9a5e-4b1e-8a8d-7eb587d7c55b"},"vehicle_type_id":"4","last_reported":1745741497,"current_range_meters":22000,"station_id":"ce4bgs12rcd13ifvqcag","pricing_plan_id":"cebpf4jnsgd1na2vs0mg"},{"bike_id":"01741e93-0de9-4df0-88b4-991eaf279b1f","system_id":"levelo_inurba_marseille","lat":43.23963,"lon":5.36629,"is_reserved":false,"is_disabled":false,"rental_uris":{"android":"levelo://app?vid=01741e93-0de9-4df0-88b4-991eaf279b1f","ios":"levelo://app?vid=01741e93-0de9-4df0-88b4-991eaf279b1f"},"vehicle_type_id":"4","last_reported":1745741497,"current_range_meters":22000,"station_id":"ce4bhi12rcd13ifvqfp0","pricing_plan_id":"cebpf4jnsgd1na2vs0mg"},{"bike_id":"9842c33b-8b1a-4568-88b0-da78107763e2","system_id":"levelo_inurba_marseille","lat":43.27181,"lon":5.40993,"is_reserved":false,"is_disabled":false,"rental_uris":{"android":"levelo://app?vid=9842c33b-8b1a-4568-88b0-da78107763e2","ios":"levelo://app?vid=9842c33b-8b1a-4568-88b0-da78107763e2"},"vehicle_type_id":"4","last_reported":1745741497,"current_range_meters":22000,"station_id":"ce4bhl12rcd13ifvqgf0","pricing_plan_id":"cebpf4jnsgd1na2vs0mg"},{"bike_id":"310a4b1e-559c-4328-ba29-1aceadf5d37d","system_id":"levelo_inurba_marseille","lat":43.29225,"lon":5.36057,"is_reserved":false,"is_disabled":false,"rental_uris":{"android":"levelo://app?vid=310a4b1e-559c-4328-ba29-1aceadf5d37d","ios":"levelo://app?vid=310a4b1e-559c-4328-ba29-1aceadf5d37d"},"vehicle_type_id":"4","last_reported":1745741497,"current_range_meters":22000,"station_id":"ce4bhbh2rcd13ifvqeqg","pricing_plan_id":"cebpf4jnsgd1na2vs0mg"},{"bike_id":"ac3e2742-f4e0-45d5-955a-d98382b2550a","system_id":"levelo_inurba_marseille","lat":43.25577,"lon":5.38235,"is_reserved":false,"is_disabled":false,"rental_uris":{"android":"levelo://app?vid=ac3e2742-f4e0-45d5-955a-d98382b2550a","ios":"levelo://app?vid=ac3e2742-f4e0-45d5-955a-d98382b2550a"},"vehicle_type_id":"4","last_reported":1745741497,"current_range_meters":22400,"station_id":"ce4bhih2rcd13ifvqfs0","pricing_plan_id":"cebpf4jnsgd1na2vs0mg"},{"bike_id":"d22fc549-1d72-4cfe-81f2-725501b5c4c5","system_id":"levelo_inurba_marseille","lat":43.31687,"lon":5.40465,"is_reserved":false,"is_disabled":false,"rental_uris":{"android":"levelo://app?vid=d22fc549-1d72-4cfe-81f2-725501b5c4c5","ios":"levelo://app?vid=d22fc549-1d72-4cfe-81f2-725501b5c4c5"},"vehicle_type_id":"4","last_reported":1745741497,"current_range_meters":22400,"station_id":"ce4bh012rcd13ifvqd00","pricing_plan_id":"cebpf4jnsgd1na2vs0mg"},{"bike_id":"11612fe3-cbef-439e-8d71-bc344978946f","system_id":"levelo_inurba_marseille","lat":43.30839,"lon":5.43487,"is_reserved":false,"is_disabled":false,"rental_uris":{"android":"levelo://app?vid=11612fe3-cbef-439e-8d71-bc344978946f","ios":"levelo://app?vid=11612fe3-cbef-439e-8d71-bc344978946f"},"vehicle_type_id":"4","last_reported":1745741497,"current_range_meters":22400,"station_id":"ce4bhph2rcd13ifvqheg","pricing_plan_id":"cebpf4jnsgd1na2vs0mg"},{"bike_id":"26e2563a-5614-46af-9839-4e09e7d33768","system_id":"levelo_inurba_marseille","lat":43.336141,"lon":5.410215,"is_reserved":false,"is_disabled":false,"rental_uris":{"android":"levelo://app?vid=26e2563a-5614-46af-9839-4e09e7d33768","ios":"levelo://app?vid=26e2563a-5614-46af-9839-4e09e7d33768"},"vehicle_type_id":"4","last_reported":1745741497,"current_range_meters":22400,"station_id":"ce4bhqh2rcd13ifvqhmg","pricing_plan_id":"cebpf4jnsgd1na2vs0mg"},{"bike_id":"50e7671c-3203-4a60-9517-2465cb035052","system_id":"levelo_inurba_marseille","lat":43.28166,"lon":5.42638,"is_reserved":false,"is_disabled":false,"rental_uris":{"android":"levelo://app?vid=50e7671c-3203-4a60-9517-2465cb035052","ios":"levelo://app?vid=50e7671c-3203-4a60-9517-2465cb035052"},"vehicle_type_id":"4","last_reported":1745741497,"current_range_meters":22400,"station_id":"ce4bhnh2rcd13ifvqgug","pricing_plan_id":"cebpf4jnsgd1na2vs0mg"},{"bike_id":"5b1168d3-df4d-4d10-89e1-d1d106f0aa25","system_id":"levelo_inurba_marseille","lat":43.30956,"lon":5.39029,"is_reserved":false,"is_disabled":false,"rental_uris":{"android":"levelo://app?vid=5b1168d3-df4d-4d10-89e1-d1d106f0aa25","ios":"levelo://app?vid=5b1168d3-df4d-4d10-89e1-d1d106f0aa25"},"vehicle_type_id":"4","last_reported":1745741497,"current_range_meters":22400,"station_id":"ce4bgup2rcd13ifvqco0","pricing_plan_id":"cebpf4jnsgd1na2vs0mg"},{"bike_id":"2927c78c-0541-4679-8cbb-57ff15cf607c","system_id":"levelo_inurba_marseille","lat":43.32349,"lon":5.40644,"is_reserved":false,"is_disabled":false,"rental_uris":{"android":"levelo://app?vid=2927c78c-0541-4679-8cbb-57ff15cf607c","ios":"levelo://app?vid=2927c78c-0541-4679-8cbb-57ff15cf607c"},"vehicle_type_id":"4","last_reported":1745741497,"current_range_meters":22400,"station_id":"ce4bhq92rcd13ifvqhjg","pricing_plan_id":"cebpf4jnsgd1na2vs0mg"},{"bike_id":"faaa9e78-abe6-4483-8978-27e0b3ff88b7","system_id":"levelo_inurba_marseille","lat":43.30645,"lon":5.40074,"is_reserved":false,"is_disabled":false,"rental_uris":{"android":"levelo://app?vid=faaa9e78-abe6-4483-8978-27e0b3ff88b7","ios":"levelo://app?vid=faaa9e78-abe6-4483-8978-27e0b3ff88b7"},"vehicle_type_id":"4","last_reported":1745741497,"current_range_meters":22400,"station_id":"ce4bh112rcd13ifvqda0","pricing_plan_id":"cebpf4jnsgd1na2vs0mg"},{"bike_id":"c29541ec-797f-42d2-a49a-05a43b38a103","system_id":"levelo_inurba_marseille","lat":43.292569,"lon":5.409056,"is_reserved":false,"is_disabled":false,"rental_uris":{"android":"levelo://app?vid=c29541ec-797f-42d2-a49a-05a43b38a103","ios":"levelo://app?vid=c29541ec-797f-42d2-a49a-05a43b38a103"},"vehicle_type_id":"4","last_reported":1745741497,"current_range_meters":22800,"station_id":"ce4bh192rcd13ifvqdc0","pricing_plan_id":"cebpf4jnsgd1na2vs0mg"},{"bike_id":"1589dba7-8029-4d4a-b1cf-7fa9279ef7ad","system_id":"levelo_inurba_marseille","lat":43.32426,"lon":5.39086,"is_reserved":false,"is_disabled":false,"rental_uris":{"android":"levelo://app?vid=1589dba7-8029-4d4a-b1cf-7fa9279ef7ad","ios":"levelo://app?vid=1589dba7-8029-4d4a-b1cf-7fa9279ef7ad"},"vehicle_type_id":"4","last_reported":1745741497,"current_range_meters":22800,"station_id":"ce4bhqp2rcd13ifvqhog","pricing_plan_id":"cebpf4jnsgd1na2vs0mg"},{"bike_id":"199d8b24-bb46-4389-b8f7-07c977ab301d","system_id":"levelo_inurba_marseille","lat":43.27973,"lon":5.387575,"is_reserved":false,"is_disabled":false,"rental_uris":{"android":"levelo://app?vid=199d8b24-bb46-4389-b8f7-07c977ab301d","ios":"levelo://app?vid=199d8b24-bb46-4389-b8f7-07c977ab301d"},"vehicle_type_id":"4","last_reported":1745741497,"current_range_meters":22800,"station_id":"ce4bhg12rcd13ifvqf80","pricing_plan_id":"cebpf4jnsgd1na2vs0mg"},{"bike_id":"02cb49f9-5301-4768-baf6-cd7f38d2e06a","system_id":"levelo_inurba_marseille","lat":43.22494,"lon":5.34778,"is_reserved":false,"is_disabled":false,"rental_uris":{"android":"levelo://app?vid=02cb49f9-5301-4768-baf6-cd7f38d2e06a","ios":"levelo://app?vid=02cb49f9-5301-4768-baf6-cd7f38d2e06a"},"vehicle_type_id":"4","last_reported":1745741497,"current_range_meters":22800,"station_id":"","pricing_plan_id":"cebpf4jnsgd1na2vs0mg"},{"bike_id":"6810ee11-7526-4e0e-95e4-4e97095db1b2","system_id":"levelo_inurba_marseille","lat":43.279154,"lon":5.395933,"is_reserved":false,"is_disabled":false,"rental_uris":{"android":"levelo://app?vid=6810ee11-7526-4e0e-95e4-4e97095db1b2","ios":"levelo://app?vid=6810ee11-7526-4e0e-95e4-4e97095db1b2"},"vehicle_type_id":"4","last_reported":1745741497,"current_range_meters":22800,"station_id":"","pricing_plan_id":"cebpf4jnsgd1na2vs0mg"},{"bike_id":"6e6aa745-101e-4f4f-a3f6-9f5a54b4627f","system_id":"levelo_inurba_marseille","lat":43.28705,"lon":5.39987,"is_reserved":false,"is_disabled":false,"rental_uris":{"android":"levelo://app?vid=6e6aa745-101e-4f4f-a3f6-9f5a54b4627f","ios":"levelo://app?vid=6e6aa745-101e-4f4f-a3f6-9f5a54b4627f"},"vehicle_type_id":"4","last_reported":1745741497,"current_range_meters":23200,"station_id":"ce4bho92rcd13ifvqh3g","pricing_plan_id":"cebpf4jnsgd1na2vs0mg"},{"bike_id":"eed4fda3-e631-478f-99ea-86b34d785dbd","system_id":"levelo_inurba_marseille","lat":43.2848,"lon":5.38556,"is_reserved":false,"is_disabled":false,"rental_uris":{"android":"levelo://app?vid=eed4fda3-e631-478f-99ea-86b34d785dbd","ios":"levelo://app?vid=eed4fda3-e631-478f-99ea-86b34d785dbd"},"vehicle_type_id":"4","last_reported":1745741497,"current_range_meters":23200,"station_id":"ce4bh8p2rcd13ifvqeb0","pricing_plan_id":"cebpf4jnsgd1na2vs0mg"},{"bike_id":"5b5279c4-e4ef-4116-bd16-593bc28de371","system_id":"levelo_inurba_marseille","lat":43.23619,"lon":5.40358,"is_reserved":false,"is_disabled":false,"rental_uris":{"android":"levelo://app?vid=5b5279c4-e4ef-4116-bd16-593bc28de371","ios":"levelo://app?vid=5b5279c4-e4ef-4116-bd16-593bc28de371"},"vehicle_type_id":"4","last_reported":1745741497,"current_range_meters":23200,"station_id":"","pricing_plan_id":"cebpf4jnsgd1na2vs0mg"},{"bike_id":"46c8d6af-d4af-43cb-bb16-547b116770ba","system_id":"levelo_inurba_marseille","lat":43.27967,"lon":5.38727,"is_reserved":false,"is_disabled":false,"rental_uris":{"android":"levelo://app?vid=46c8d6af-d4af-43cb-bb16-547b116770ba","ios":"levelo://app?vid=46c8d6af-d4af-43cb-bb16-547b116770ba"},"vehicle_type_id":"4","last_reported":1745741497,"current_range_meters":23200,"station_id":"ce4bhg12rcd13ifvqf80","pricing_plan_id":"cebpf4jnsgd1na2vs0mg"},{"bike_id":"3dbb64da-337d-4239-8422-568b2d98a198","system_id":"levelo_inurba_marseille","lat":43.2971,"lon":5.37698,"is_reserved":false,"is_disabled":false,"rental_uris":{"android":"levelo://app?vid=3dbb64da-337d-4239-8422-568b2d98a198","ios":"levelo://app?vid=3dbb64da-337d-4239-8422-568b2d98a198"},"vehicle_type_id":"4","last_reported":1745741497,"current_range_meters":23200,"station_id":"ce4bgkh2rcd13ifvqbl0","pricing_plan_id":"cebpf4jnsgd1na2vs0mg"},{"bike_id":"08f8dd98-2653-4985-8722-3a86b1de2ed5","system_id":"levelo_inurba_marseille","lat":43.28164,"lon":5.42657,"is_reserved":false,"is_disabled":false,"rental_uris":{"android":"levelo://app?vid=08f8dd98-2653-4985-8722-3a86b1de2ed5","ios":"levelo://app?vid=08f8dd98-2653-4985-8722-3a86b1de2ed5"},"vehicle_type_id":"4","last_reported":1745741497,"current_range_meters":23200,"station_id":"ce4bhnh2rcd13ifvqgug","pricing_plan_id":"cebpf4jnsgd1na2vs0mg"},{"bike_id":"335a1b6c-b27b-4e18-9a8c-8a415c7b6eca","system_id":"levelo_inurba_marseille","lat":43.24676,"lon":5.38165,"is_reserved":false,"is_disabled":false,"rental_uris":{"android":"levelo://app?vid=335a1b6c-b27b-4e18-9a8c-8a415c7b6eca","ios":"levelo://app?vid=335a1b6c-b27b-4e18-9a8c-8a415c7b6eca"},"vehicle_type_id":"4","last_reported":1745741497,"current_range_meters":23200,"station_id":"ce4bhih2rcd13ifvqfr0","pricing_plan_id":"cebpf4jnsgd1na2vs0mg"},{"bike_id":"e2db68dd-f47f-4e15-8fe0-c97738bddb69","system_id":"levelo_inurba_marseille","lat":43.292738,"lon":5.368397,"is_reserved":false,"is_disabled":true,"rental_uris":{"android":"levelo://app?vid=e2db68dd-f47f-4e15-8fe0-c97738bddb69","ios":"levelo://app?vid=e2db68dd-f47f-4e15-8fe0-c97738bddb69"},"vehicle_type_id":"4","last_reported":1745741497,"current_range_meters":23200,"station_id":"ce4bhbp2rcd13ifvqesg","pricing_plan_id":"cebpf4jnsgd1na2vs0mg"},{"bike_id":"6c72de35-de49-45aa-84fb-0f4a50376358","system_id":"levelo_inurba_marseille","lat":43.32991,"lon":5.4385,"is_reserved":false,"is_disabled":false,"rental_uris":{"android":"levelo://app?vid=6c72de35-de49-45aa-84fb-0f4a50376358","ios":"levelo://app?vid=6c72de35-de49-45aa-84fb-0f4a50376358"},"vehicle_type_id":"4","last_reported":1745741497,"current_range_meters":23200,"station_id":"","pricing_plan_id":"cebpf4jnsgd1na2vs0mg"},{"bike_id":"896077bd-2a24-4b27-a006-1660fb4390d0","system_id":"levelo_inurba_marseille","lat":43.27314,"lon":5.39072,"is_reserved":false,"is_disabled":false,"rental_uris":{"android":"levelo://app?vid=896077bd-2a24-4b27-a006-1660fb4390d0","ios":"levelo://app?vid=896077bd-2a24-4b27-a006-1660fb4390d0"},"vehicle_type_id":"4","last_reported":1745741497,"current_range_meters":23200,"station_id":"ce4bhgp2rcd13ifvqfe0","pricing_plan_id":"cebpf4jnsgd1na2vs0mg"},{"bike_id":"5609d54d-ae16-4b49-93c6-8b921ebb9de1","system_id":"levelo_inurba_marseille","lat":43.31711,"lon":5.43701,"is_reserved":false,"is_disabled":false,"rental_uris":{"android":"levelo://app?vid=5609d54d-ae16-4b49-93c6-8b921ebb9de1","ios":"levelo://app?vid=5609d54d-ae16-4b49-93c6-8b921ebb9de1"},"vehicle_type_id":"4","last_reported":1745741497,"current_range_meters":23200,"station_id":"ce4bhp92rcd13ifvqhcg","pricing_plan_id":"cebpf4jnsgd1na2vs0mg"},{"bike_id":"c4e882de-82cc-40fc-8fdc-d03d27c35a19","system_id":"levelo_inurba_marseille","lat":43.29727,"lon":5.38043,"is_reserved":false,"is_disabled":true,"rental_uris":{"android":"levelo://app?vid=c4e882de-82cc-40fc-8fdc-d03d27c35a19","ios":"levelo://app?vid=c4e882de-82cc-40fc-8fdc-d03d27c35a19"},"vehicle_type_id":"4","last_reported":1745741497,"current_range_meters":23200,"station_id":"","pricing_plan_id":"cebpf4jnsgd1na2vs0mg"},{"bike_id":"986c68a9-29a7-408e-9b82-27dcdf067098","system_id":"levelo_inurba_marseille","lat":43.30646,"lon":5.40072,"is_reserved":false,"is_disabled":false,"rental_uris":{"android":"levelo://app?vid=986c68a9-29a7-408e-9b82-27dcdf067098","ios":"levelo://app?vid=986c68a9-29a7-408e-9b82-27dcdf067098"},"vehicle_type_id":"4","last_reported":1745741497,"current_range_meters":23200,"station_id":"ce4bh112rcd13ifvqda0","pricing_plan_id":"cebpf4jnsgd1na2vs0mg"},{"bike_id":"579b9d02-e6b0-4faa-8aa6-d259af964e22","system_id":"levelo_inurba_marseille","lat":43.23953,"lon":5.36643,"is_reserved":false,"is_disabled":false,"rental_uris":{"android":"levelo://app?vid=579b9d02-e6b0-4faa-8aa6-d259af964e22","ios":"levelo://app?vid=579b9d02-e6b0-4faa-8aa6-d259af964e22"},"vehicle_type_id":"4","last_reported":1745741497,"current_range_meters":24000,"station_id":"ce4bhi12rcd13ifvqfp0","pricing_plan_id":"cebpf4jnsgd1na2vs0mg"},{"bike_id":"48202840-ebf6-4306-93a6-ece0ff1c7141","system_id":"levelo_inurba_marseille","lat":43.31136,"lon":5.3775,"is_reserved":false,"is_disabled":false,"rental_uris":{"android":"levelo://app?vid=48202840-ebf6-4306-93a6-ece0ff1c7141","ios":"levelo://app?vid=48202840-ebf6-4306-93a6-ece0ff1c7141"},"vehicle_type_id":"4","last_reported":1745741497,"current_range_meters":24000,"station_id":"ce4bgt92rcd13ifvqcg0","pricing_plan_id":"cebpf4jnsgd1na2vs0mg"},{"bike_id":"dd675baf-5eb5-421e-881b-a9a1e9ddeb90","system_id":"levelo_inurba_marseille","lat":43.29005,"lon":5.35603,"is_reserved":false,"is_disabled":false,"rental_uris":{"android":"levelo://app?vid=dd675baf-5eb5-421e-881b-a9a1e9ddeb90","ios":"levelo://app?vid=dd675baf-5eb5-421e-881b-a9a1e9ddeb90"},"vehicle_type_id":"4","last_reported":1745741497,"current_range_meters":23200,"station_id":"ce4bhb92rcd13ifvqen0","pricing_plan_id":"cebpf4jnsgd1na2vs0mg"},{"bike_id":"fdf89317-2467-4c9a-b135-5be150cd4584","system_id":"levelo_inurba_marseille","lat":43.30591,"lon":5.37216,"is_reserved":false,"is_disabled":false,"rental_uris":{"android":"levelo://app?vid=fdf89317-2467-4c9a-b135-5be150cd4584","ios":"levelo://app?vid=fdf89317-2467-4c9a-b135-5be150cd4584"},"vehicle_type_id":"4","last_reported":1745741497,"current_range_meters":24000,"station_id":"ce4bgqh2rcd13ifvqc4g","pricing_plan_id":"cebpf4jnsgd1na2vs0mg"},{"bike_id":"efb3712a-7cb7-452d-b50e-36b578ecae5a","system_id":"levelo_inurba_marseille","lat":43.30797,"lon":5.38156,"is_reserved":false,"is_disabled":false,"rental_uris":{"android":"levelo://app?vid=efb3712a-7cb7-452d-b50e-36b578ecae5a","ios":"levelo://app?vid=efb3712a-7cb7-452d-b50e-36b578ecae5a"},"vehicle_type_id":"4","last_reported":1745741497,"current_range_meters":24000,"station_id":"ce4bgt12rcd13ifvqce0","pricing_plan_id":"cebpf4jnsgd1na2vs0mg"},{"bike_id":"9d7be560-5444-46ca-bc57-fc04a058c458","system_id":"levelo_inurba_marseille","lat":43.30932,"lon":5.40176,"is_reserved":false,"is_disabled":true,"rental_uris":{"android":"levelo://app?vid=9d7be560-5444-46ca-bc57-fc04a058c458","ios":"levelo://app?vid=9d7be560-5444-46ca-bc57-fc04a058c458"},"vehicle_type_id":"4","last_reported":1745741497,"current_range_meters":24000,"station_id":"ce4bgvp2rcd13ifvqct0","pricing_plan_id":"cebpf4jnsgd1na2vs0mg"},{"bike_id":"28b0f243-c448-4f6e-a696-754e171250e7","system_id":"levelo_inurba_marseille","lat":43.28137,"lon":5.42614,"is_reserved":false,"is_disabled":false,"rental_uris":{"android":"levelo://app?vid=28b0f243-c448-4f6e-a696-754e171250e7","ios":"levelo://app?vid=28b0f243-c448-4f6e-a696-754e171250e7"},"vehicle_type_id":"4","last_reported":1745741497,"current_range_meters":24000,"station_id":"ce4bhnh2rcd13ifvqgug","pricing_plan_id":"cebpf4jnsgd1na2vs0mg"},{"bike_id":"4ea42373-7e10-4856-89b2-7cc29182b97d","system_id":"levelo_inurba_marseille","lat":43.26781,"lon":5.39416,"is_reserved":false,"is_disabled":false,"rental_uris":{"android":"levelo://app?vid=4ea42373-7e10-4856-89b2-7cc29182b97d","ios":"levelo://app?vid=4ea42373-7e10-4856-89b2-7cc29182b97d"},"vehicle_type_id":"4","last_reported":1745741497,"current_range_meters":24000,"station_id":"ce4bhh12rcd13ifvqfg0","pricing_plan_id":"cebpf4jnsgd1na2vs0mg"},{"bike_id":"5171d0d4-f9f5-46fa-8ac3-99644ef6658d","system_id":"levelo_inurba_marseille","lat":43.30292,"lon":5.36907,"is_reserved":false,"is_disabled":false,"rental_uris":{"android":"levelo://app?vid=5171d0d4-f9f5-46fa-8ac3-99644ef6658d","ios":"levelo://app?vid=5171d0d4-f9f5-46fa-8ac3-99644ef6658d"},"vehicle_type_id":"4","last_reported":1745741497,"current_range_meters":24000,"station_id":"ce4bgqh2rcd13ifvqc5g","pricing_plan_id":"cebpf4jnsgd1na2vs0mg"},