{"last_updated":1726146988,"ttl":30,"version":"2.2","data":{"bikes":[{"bike_id":"8cb20de7-ab38-4452-b74b-8c2dc0ec0ab9","system_id":"levelo_inurba_marseille","lat":43.29604,"lon":5.38099,"is_reserved":false,"is_disabled":false,"rental_uris":{"android":"levelo://app?vid=8cb20de7-ab38-4452-b74b-8c2dc0ec0ab9","ios":"levelo://app?vid=8cb20de7-ab38-4452-b74b-8c2dc0ec0ab9"},"vehicle_type_id":"4","last_reported":1726146988,"current_range_meters":38400,"station_id":"ce4bgl12rcd13ifvqbo0","pricing_plan_id":"cebpf4jnsgd1na2vs0mg"},{"bike_id":"36ac477d-e0f4-4633-9f44-f6dccf9c5f5f","system_id":"levelo_inurba_marseille","lat":43.30102,"lon":5.39068,"is_reserved":false,"is_disabled":false,"rental_uris":{"android":"levelo://app?vid=36ac477d-e0f4-4633-9f44-f6dccf9c5f5f","ios":"levelo://app?vid=36ac477d-e0f4-4633-9f44-f6dccf9c5f5f"},"vehicle_type_id":"4","last_reported":1726146988,"current_range_meters":34000,"station_id":"ce4bh192rcd13ifvqdb0","pricing_plan_id":"cebpf4jnsgd1na2vs0mg"},{"bike_id":"d3d0bf1e-8766-4413-be09-513aa812b8d5","system_id":"levelo_inurba_marseille","lat":43.24112,"lon":5.37769,"is_reserved":false,"is_disabled":false,"rental_uris":{"android":"levelo://app?vid=d3d0bf1e-8766-4413-be09-513aa812b8d5","ios":"levelo://app?vid=d3d0bf1e-8766-4413-be09-513aa812b8d5"},"vehicle_type_id":"4","last_reported":1726146988,"current_range_meters":34800,"station_id":"ce4bhnp2rcd13ifvqgvg","pricing_plan_id":"cebpf4jnsgd1na2vs0mg"},{"bike_id":"c5c3bd44-3118-4ce0-afbd-fd0c81275852","system_id":"levelo_inurba_marseille","lat":43.31085,"lon":5.42438,"is_reserved":false,"is_disabled":false,"rental_uris":{"android":"levelo://app?vid=c5c3bd44-3118-4ce0-afbd-fd0c81275852","ios":"levelo://app?vid=c5c3bd44-3118-4ce0-afbd-fd0c81275852"},"vehicle_type_id":"4","last_reported":1726146988,"current_range_meters":24800,"station_id":"ce4bhp92rcd13ifvqhag","pricing_plan_id":"cebpf4jnsgd1na2vs0mg"},{"bike_id":"032cca34-153b-4a2a-88a7-b47b5003aec0","system_id":"levelo_inurba_marseille","lat":43.30915,"lon":5.36859,"is_reserved":false,"is_disabled":false,"rental_uris":{"android":"levelo://app?vid=032cca34-153b-4a2a-88a7-b47b5003aec0","ios":"levelo://app?vid=032cca34-153b-4a2a-88a7-b47b5003aec0"},"vehicle_type_id":"4","last_reported":1726146988,"current_range_meters":38800,"station_id":"ce4bgn92rcd13ifvqbvg","pricing_plan_id":"cebpf4jnsgd1na2vs0mg"},{"bike_id":"ea1f807b-d279-4c79-850d-1c4f3e2b832f","system_id":"levelo_inurba_marseille","lat":43.30921,"lon":5.36853,"is_reserved":false,"is_disabled":false,"rental_uris":{"android":"levelo://app?vid=ea1f807b-d279-4c79-850d-1c4f3e2b832f","ios":"levelo://app?vid=ea1f807b-d279-4c79-850d-1c4f3e2b832f"},"vehicle_type_id":"4","last_reported":1726146988,"current_range_meters":6800,"station_id":"ce4bgn92rcd13ifvqbvg","pricing_plan_id":"cebpf4jnsgd1na2vs0mg"},{"bike_id":"6a7ae9fd-4ad0-4c6c-a0ff-f54a7a962562","system_id":"levelo_inurba_marseille","lat":43.28493,"lon":5.3858,"is_reserved":false,"is_disabled":false,"rental_uris":{"android":"levelo://app?vid=6a7ae9fd-4ad0-4c6c-a0ff-f54a7a962562","ios":"levelo://app?vid=6a7ae9fd-4ad0-4c6c-a0ff-f54a7a962562"},"vehicle_type_id":"4","last_reported":1726146988,"current_range_meters":24800,"station_id":"ce4bh8p2rcd13ifvqeb0","pricing_plan_id":"cebpf4jnsgd1na2vs0mg"},{"bike_id":"00f0d3b9-2629-435e-a81c-25f5a18b617b","system_id":"levelo_inurba_marseille","lat":43.29033,"lon":5.37559,"is_reserved":false,"is_disabled":false,"rental_uris":{"android":"levelo://app?vid=00f0d3b9-2629-435e-a81c-25f5a18b617b","ios":"levelo://app?vid=00f0d3b9-2629-435e-a81c-25f5a18b617b"},"vehicle_type_id":"4","last_reported":1726146988,"current_range_meters":30400,"station_id":"ce4bh692rcd13ifvqe90","pricing_plan_id":"cebpf4jnsgd1na2vs0mg"},{"bike_id":"831ad933-e41a-4e0c-adcd-f8f4044446aa","system_id":"levelo_inurba_marseille","lat":43.23153,"lon":5.43718,"is_reserved":false,"is_disabled":false,"rental_uris":{"android":"levelo://app?vid=831ad933-e41a-4e0c-adcd-f8f4044446aa","ios":"levelo://app?vid=831ad933-e41a-4e0c-adcd-f8f4044446aa"},"vehicle_type_id":"4","last_reported":1726146988,"current_range_meters":20400,"station_id":"ce4bhmp2rcd13ifvqgog","pricing_plan_id":"cebpf4jnsgd1na2vs0mg"},{"bike_id":"ba644880-4ba1-4a37-baab-b8b3edf3ed60","system_id":"levelo_inurba_marseille","lat":43.30553,"lon":5.38426,"is_reserved":false,"is_disabled":false,"rental_uris":{"android":"levelo://app?vid=ba644880-4ba1-4a37-baab-b8b3edf3ed60","ios":"levelo://app?vid=ba644880-4ba1-4a37-baab-b8b3edf3ed60"},"vehicle_type_id":"4","last_reported":1726146988,"current_range_meters":16400,"station_id":"ce4bgg92rcd13ifvqb30","pricing_plan_id":"cebpf4jnsgd1na2vs0mg"},{"bike_id":"46212170-e52f-4def-99c8-63815681ada6","system_id":"levelo_inurba_marseille","lat":43.300248,"lon":5.383393,"is_reserved":false,"is_disabled":false,"rental_uris":{"android":"levelo://app?vid=46212170-e52f-4def-99c8-63815681ada6","ios":"levelo://app?vid=46212170-e52f-4def-99c8-63815681ada6"},"vehicle_type_id":"4","last_reported":1726146988,"current_range_meters":32000,"station_id":"ce4bh192rcd13ifvqdd0","pricing_plan_id":"cebpf4jnsgd1na2vs0mg"},{"bike_id":"13ec4916-f0ea-4897-8afc-596425b42c42","system_id":"levelo_inurba_marseille","lat":43.23194,"lon":5.35556,"is_reserved":false,"is_disabled":false,"rental_uris":{"android":"levelo://app?vid=13ec4916-f0ea-4897-8afc-596425b42c42","ios":"levelo://app?vid=13ec4916-f0ea-4897-8afc-596425b42c42"},"vehicle_type_id":"4","last_reported":1726146988,"current_range_meters":34800,"station_id":"ce4bhu92rcd13ifvqi70","pricing_plan_id":"cebpf4jnsgd1na2vs0mg"},{"bike_id":"e77826da-8061-46cc-b52a-9da30264ce77","system_id":"levelo_inurba_marseille","lat":43.337444,"lon":5.374475,"is_reserved":false,"is_disabled":false,"rental_uris":{"android":"levelo://app?vid=e77826da-8061-46cc-b52a-9da30264ce77","ios":"levelo://app?vid=e77826da-8061-46cc-b52a-9da30264ce77"},"vehicle_type_id":"4","last_reported":1726146988,"current_range_meters":28800,"station_id":"ce4bgph2rcd13ifvqc2g","pricing_plan_id":"cebpf4jnsgd1na2vs0mg"},{"bike_id":"80e566a0-c600-421d-8a30-6eed52562566","system_id":"levelo_inurba_marseille","lat":43.25592,"lon":5.38229,"is_reserved":false,"is_disabled":false,"rental_uris":{"android":"levelo://app?vid=80e566a0-c600-421d-8a30-6eed52562566","ios":"levelo://app?vid=80e566a0-c600-421d-8a30-6eed52562566"},"vehicle_type_id":"4","last_reported":1726146988,"current_range_meters":14000,"station_id":"ce4bhih2rcd13ifvqfs0","pricing_plan_id":"cebpf4jnsgd1na2vs0mg"},{"bike_id":"a68df08b-f9fa-4991-9775-134d012f2510","system_id":"levelo_inurba_marseille","lat":43.23064,"lon":5.35487,"is_reserved":false,"is_disabled":false,"rental_uris":{"android":"levelo://app?vid=a68df08b-f9fa-4991-9775-134d012f2510","ios":"levelo://app?vid=a68df08b-f9fa-4991-9775-134d012f2510"},"vehicle_type_id":"4","last_reported":1726146988,"current_range_meters":16000,"station_id":"cpo3342slgdg3j2ifvpg","pricing_plan_id":"cebpf4jnsgd1na2vs0mg"},{"bike_id":"a053b8fb-e8ac-474f-8a4e-4da0d15250b1","system_id":"levelo_inurba_marseille","lat":43.30551,"lon":5.36537,"is_reserved":false,"is_disabled":false,"rental_uris":{"android":"levelo://app?vid=a053b8fb-e8ac-474f-8a4e-4da0d15250b1","ios":"levelo://app?vid=a053b8fb-e8ac-474f-8a4e-4da0d15250b1"},"vehicle_type_id":"4","last_reported":1726146988,"current_range_meters":38800,"station_id":"ce4bgs12rcd13ifvqcag","pricing_plan_id":"cebpf4jnsgd1na2vs0mg"},{"bike_id":"acd8a3d5-a9db-4ea3-b234-2a790cfd605a","system_id":"levelo_inurba_marseille","lat":43.2397,"lon":5.36616,"is_reserved":false,"is_disabled":false,"rental_uris":{"android":"levelo://app?vid=acd8a3d5-a9db-4ea3-b234-2a790cfd605a","ios":"levelo://app?vid=acd8a3d5-a9db-4ea3-b234-2a790cfd605a"},"vehicle_type_id":"4","last_reported":1726146988,"current_range_meters":20400,"station_id":"ce4bhi12rcd13ifvqfp0","pricing_plan_id":"cebpf4jnsgd1na2vs0mg"},{"bike_id":"176a48f0-910c-412f-b53a-35c1297b49c1","system_id":"levelo_inurba_marseille","lat":43.3028,"lon":5.37693,"is_reserved":false,"is_disabled":false,"rental_uris":{"android":"levelo://app?vid=176a48f0-910c-412f-b53a-35c1297b49c1","ios":"levelo://app?vid=176a48f0-910c-412f-b53a-35c1297b49c1"},"vehicle_type_id":"4","last_reported":1726146988,"current_range_meters":30800,"station_id":"ce4bguh2rcd13ifvqcj0","pricing_plan_id":"cebpf4jnsgd1na2vs0mg"},{"bike_id":"9f1f6f85-5695-424c-bd13-79fdf2baefa9","system_id":"levelo_inurba_marseille","lat":43.25499,"lon":5.37649,"is_reserved":false,"is_disabled":false,"rental_uris":{"android":"levelo://app?vid=9f1f6f85-5695-424c-bd13-79fdf2baefa9","ios":"levelo://app?vid=9f1f6f85-5695-424c-bd13-79fdf2baefa9"},"vehicle_type_id":"4","last_reported":1726146988,"current_range_meters":31200,"station_id":"ce4bhh12rcd13ifvqff0","pricing_plan_id":"cebpf4jnsgd1na2vs0mg"},{"bike_id":"80842420-9d06-458c-9832-b8ec705ab7bf","system_id":"levelo_inurba_marseille","lat":43.269549,"lon":5.386165,"is_reserved":false,"is_disabled":false,"rental_uris":{"android":"levelo://app?vid=80842420-9d06-458c-9832-b8ec705ab7bf","ios":"levelo://app?vid=80842420-9d06-458c-9832-b8ec705ab7bf"},"vehicle_type_id":"4","last_reported":1726146988,"current_range_meters":20400,"station_id":"ce4bhh92rcd13ifvqfh0","pricing_plan_id":"cebpf4jnsgd1na2vs0mg"},{"bike_id":"dec90c19-e143-4511-8606-32eae6afcdea","system_id":"levelo_inurba_marseille","lat":43.24073,"lon":5.37761,"is_reserved":false,"is_disabled":false,"rental_uris":{"android":"levelo://app?vid=dec90c19-e143-4511-8606-32eae6afcdea","ios":"levelo://app?vid=dec90c19-e143-4511-8606-32eae6afcdea"},"vehicle_type_id":"4","last_reported":1726146988,"current_range_meters":31200,"station_id":"ce4bhnp2rcd13ifvqgvg","pricing_plan_id":"cebpf4jnsgd1na2vs0mg"},{"bike_id":"74c67d55-8a5f-40c9-8066-d68354718f8c","system_id":"levelo_inurba_marseille","lat":43.23193,"lon":5.3555,"is_reserved":false,"is_disabled":false,"rental_uris":{"android":"levelo://app?vid=74c67d55-8a5f-40c9-8066-d68354718f8c","ios":"levelo://app?vid=74c67d55-8a5f-40c9-8066-d68354718f8c"},"vehicle_type_id":"4","last_reported":1726146988,"current_range_meters":31200,"station_id":"ce4bhu92rcd13ifvqi70","pricing_plan_id":"cebpf4jnsgd1na2vs0mg"},{"bike_id":"346da8e1-e309-4a0a-9e64-9c98c779f668","system_id":"levelo_inurba_marseille","lat":43.30106,"lon":5.39074,"is_reserved":false,"is_disabled":false,"rental_uris":{"android":"levelo://app?vid=346da8e1-e309-4a0a-9e64-9c98c779f668","ios":"levelo://app?vid=346da8e1-e309-4a0a-9e64-9c98c779f668"},"vehicle_type_id":"4","last_reported":1726146988,"current_range_meters":22400,"station_id":"ce4bh192rcd13ifvqdb0","pricing_plan_id":"cebpf4jnsgd1na2vs0mg"},{"bike_id":"530fe5d8-292f-4ca2-9684-0c05e2e886e1","system_id":"levelo_inurba_marseille","lat":43.29868,"lon":5.39736,"is_reserved":false,"is_disabled":false,"rental_uris":{"android":"levelo://app?vid=530fe5d8-292f-4ca2-9684-0c05e2e886e1","ios":"levelo://app?vid=530fe5d8-292f-4ca2-9684-0c05e2e886e1"},"vehicle_type_id":"4","last_reported":1726146988,"current_range_meters":38400,"station_id":"ce4bh0h2rcd13ifvqd50","pricing_plan_id":"cebpf4jnsgd1na2vs0mg"},{"bike_id":"f58eb807-42bf-4c7c-8bed-1a9a512243de","system_id":"levelo_inurba_marseille","lat":43.26957,"lon":5.38626,"is_reserved":false,"is_disabled":false,"rental_uris":{"android":"levelo://app?vid=f58eb807-42bf-4c7c-8bed-1a9a512243de","ios":"levelo://app?vid=f58eb807-42bf-4c7c-8bed-1a9a512243de"},"vehicle_type_id":"4","last_reported":1726146988,"current_range_meters":17600,"station_id":"ce4bhh92rcd13ifvqfh0","pricing_plan_id":"cebpf4jnsgd1na2vs0mg"},{"bike_id":"f26c1504-1d02-4a96-9cce-a8d8d09650ab","system_id":"levelo_inurba_marseille","lat":43.31233,"lon":5.3686,"is_reserved":false,"is_disabled":false,"rental_uris":{"android":"levelo://app?vid=f26c1504-1d02-4a96-9cce-a8d8d09650ab","ios":"levelo://app?vid=f26c1504-1d02-4a96-9cce-a8d8d09650ab"},"vehicle_type_id":"4","last_reported":1726146988,"current_range_meters":38800,"station_id":"ce4bgl92rcd13ifvqbq0","pricing_plan_id":"cebpf4jnsgd1na2vs0mg"},{"bike_id":"eb685eeb-f508-4424-9ea7-a6e3d7e8091e","system_id":"levelo_inurba_marseille","lat":43.25937,"lon":5.40904,"is_reserved":false,"is_disabled":false,"rental_uris":{"android":"levelo://app?vid=eb685eeb-f508-4424-9ea7-a6e3d7e8091e","ios":"levelo://app?vid=eb685eeb-f508-4424-9ea7-a6e3d7e8091e"},"vehicle_type_id":"4","last_reported":1726146988,"current_range_meters":28400,"station_id":"ce4bhm92rcd13ifvqglg","pricing_plan_id":"cebpf4jnsgd1na2vs0mg"},{"bike_id":"6d094fd2-0ec4-4fb4-9cf8-16628054406a","system_id":"levelo_inurba_marseille","lat":43.23149,"lon":5.43727,"is_reserved":false,"is_disabled":false,"rental_uris":{"android":"levelo://app?vid=6d094fd2-0ec4-4fb4-9cf8-16628054406a","ios":"levelo://app?vid=6d094fd2-0ec4-4fb4-9cf8-16628054406a"},"vehicle_type_id":"4","last_reported":1726146988,"current_range_meters":24400,"station_id":"ce4bhmp2rcd13ifvqgog","pricing_plan_id":"cebpf4jnsgd1na2vs0mg"},{"bike_id":"e93f839c-1265-4815-8a6f-68ec2af9520c","system_id":"levelo_inurba_marseille","lat":43.29815,"lon":5.38105,"is_reserved":false,"is_disabled":false,"rental_uris":{"android":"levelo://app?vid=e93f839c-1265-4815-8a6f-68ec2af9520c","ios":"levelo://app?vid=e93f839c-1265-4815-8a6f-68ec2af9520c"},"vehicle_type_id":"4","last_reported":1726146988,"current_range_meters":36400,"station_id":"ce4bgip2rcd13ifvqbb0","pricing_plan_id":"cebpf4jnsgd1na2vs0mg"},{"bike_id":"365ea972-e334-4eb3-af13-6f42d88375ba","system_id":"levelo_inurba_marseille","lat":43.30423,"lon":5.39749,"is_reserved":false,"is_disabled":false,"rental_uris":{"android":"levelo://app?vid=365ea972-e334-4eb3-af13-6f42d88375ba","ios":"levelo://app?vid=365ea972-e334-4eb3-af13-6f42d88375ba"},"vehicle_type_id":"4","last_reported":1726146988,"current_range_meters":28000,"station_id":"ce4bh092rcd13ifvqd20","pricing_plan_id":"cebpf4jnsgd1na2vs0mg"},{"bike_id":"72212374-4ee5-4cd7-b2be-1d08af601cc1","system_id":"levelo_inurba_marseille","lat":43.28442,"lon":5.39203,"is_reserved":false,"is_disabled":false,"rental_uris":{"android":"levelo://app?vid=72212374-4ee5-4cd7-b2be-1d08af601cc1","ios":"levelo://app?vid=72212374-4ee5-4cd7-b2be-1d08af601cc1"},"vehicle_type_id":"4","last_reported":1726146988,"current_range_meters":31200,"station_id":"ce4bhoh2rcd13ifvqh5g","pricing_plan_id":"cebpf4jnsgd1na2vs0mg"},{"bike_id":"25311a33-d000-4765-a5f7-650e317e24a2","system_id":"levelo_inurba_marseille","lat":43.31484,"lon":5.37294,"is_reserved":false,"is_disabled":false,"rental_uris":{"android":"levelo://app?vid=25311a33-d000-4765-a5f7-650e317e24a2","ios":"levelo://app?vid=25311a33-d000-4765-a5f7-650e317e24a2"},"vehicle_type_id":"4","last_reported":1726146988,"current_range_meters":36400,"station_id":"ce4bgt12rcd13ifvqcd0","pricing_plan_id":"cebpf4jnsgd1na2vs0mg"},{"bike_id":"11944b44-cc54-4fe0-896f-7b982db000ce","system_id":"levelo_inurba_marseille","lat":43.24092,"lon":5.3774,"is_reserved":false,"is_disabled":false,"rental_uris":{"android":"levelo://app?vid=11944b44-cc54-4fe0-896f-7b982db000ce","ios":"levelo://app?vid=11944b44-cc54-4fe0-896f-7b982db000ce"},"vehicle_type_id":"4","last_reported":1726146988,"current_range_meters":33200,"station_id":"ce4bhnp2rcd13ifvqgvg","pricing_plan_id":"cebpf4jnsgd1na2vs0mg"},{"bike_id":"010fdead-0e1d-490b-bf48-076e3148777a","system_id":"levelo_inurba_marseille","lat":43.31499,"lon":5.37309,"is_reserved":false,"is_disabled":false,"rental_uris":{"android":"levelo://app?vid=010fdead-0e1d-490b-bf48-076e3148777a","ios":"levelo://app?vid=010fdead-0e1d-490b-bf48-076e3148777a"},"vehicle_type_id":"4","last_reported":1726146988,"current_range_meters":35600,"station_id":"ce4bgt12rcd13ifvqcd0","pricing_plan_id":"cebpf4jnsgd1na2vs0mg"},{"bike_id":"4462c6ad-fdae-469e-a19a-21932e74022e","system_id":"levelo_inurba_marseille","lat":43.30594,"lon":5.39355,"is_reserved":false,"is_disabled":false,"rental_uris":{"android":"levelo://app?vid=4462c6ad-fdae-469e-a19a-21932e74022e","ios":"levelo://app?vid=4462c6ad-fdae-469e-a19a-21932e74022e"},"vehicle_type_id":"4","last_reported":1726146988,"current_range_meters":32800,"station_id":"ce4bh0p2rcd13ifvqd80","pricing_plan_id":"cebpf4jnsgd1na2vs0mg"},{"bike_id":"f6e9554f-a44c-4bd4-a469-234151457edc","system_id":"levelo_inurba_marseille","lat":43.31497,"lon":5.37307,"is_reserved":false,"is_disabled":false,"rental_uris":{"android":"levelo://app?vid=f6e9554f-a44c-4bd4-a469-234151457edc","ios":"levelo://app?vid=f6e9554f-a44c-4bd4-a469-234151457edc"},"vehicle_type_id":"4","last_reported":1726146988,"current_range_meters":11200,"station_id":"ce4bgt12rcd13ifvqcd0","pricing_plan_id":"cebpf4jnsgd1na2vs0mg"},{"bike_id":"f0dbcb79-f813-46bb-a082-491c47f04f44","system_id":"levelo_inurba_marseille","lat":43.30606,"lon":5.37218,"is_reserved":false,"is_disabled":false,"rental_uris":{"android":"levelo://app?vid=f0dbcb79-f813-46bb-a082-491c47f04f44","ios":"levelo://app?vid=f0dbcb79-f813-46bb-a082-491c47f04f44"},"vehicle_type_id":"4","last_reported":1726146988,"current_range_meters":34800,"station_id":"ce4bgqh2rcd13ifvqc4g","pricing_plan_id":"cebpf4jnsgd1na2vs0mg"},{"bike_id":"0c831d91-bf16-41f0-88cc-4fd28cab406e","system_id":"levelo_inurba_marseille","lat":43.26569,"lon":5.3901,"is_reserved":false,"is_disabled":false,"rental_uris":{"android":"levelo://app?vid=0c831d91-bf16-41f0-88cc-4fd28cab406e","ios":"levelo://app?vid=0c831d91-bf16-41f0-88cc-4fd28cab406e"},"vehicle_type_id":"4","last_reported":1726146988,"current_range_meters":6800,"station_id":"ce4bhe12rcd13ifvqf30","pricing_plan_id":"cebpf4jnsgd1na2vs0mg"},{"bike_id":"6b33e353-2979-4c54-b311-bc56387e0cea","system_id":"levelo_inurba_marseille","lat":43.25723,"lon":5.41118,"is_reserved":false,"is_disabled":false,"rental_uris":{"android":"levelo://app?vid=6b33e353-2979-4c54-b311-bc56387e0cea","ios":"levelo://app?vid=6b33e353-2979-4c54-b311-bc56387e0cea"},"vehicle_type_id":"4","last_reported":1726146988,"current_range_meters":22000,"station_id":"ce4bhkp2rcd13ifvqgd0","pricing_plan_id":"cebpf4jnsgd1na2vs0mg"},{"bike_id":"c3a84de0-e074-45d2-96a4-3ff17abba9fe","system_id":"levelo_inurba_marseille","lat":43.24089,"lon":5.3774,"is_reserved":false,"is_disabled":false,"rental_uris":{"android":"levelo://app?vid=c3a84de0-e074-45d2-96a4-3ff17abba9fe","ios":"levelo://app?vid=c3a84de0-e074-45d2-96a4-3ff17abba9fe"},"vehicle_type_id":"4","last_reported":1726146988,"current_range_meters":9200,"station_id":"ce4bhnp2rcd13ifvqgvg","pricing_plan_id":"cebpf4jnsgd1na2vs0mg"},{"bike_id":"86dc3c5e-affe-4475-a791-1385bf1a72a8","system_id":"levelo_inurba_marseille","lat":43.302645,"lon":5.379582,"is_reserved":false,"is_disabled":false,"rental_uris":{"android":"levelo://app?vid=86dc3c5e-affe-4475-a791-1385bf1a72a8","ios":"levelo://app?vid=86dc3c5e-affe-4475-a791-1385bf1a72a8"},"vehicle_type_id":"4","last_reported":1726146988,"current_range_meters":10000,"station_id":"","pricing_plan_id":"cebpf4jnsgd1na2vs0mg"},{"bike_id":"d55bec3e-cd2b-4f49-91b2-7a9da15ee7fd","system_id":"levelo_inurba_marseille","lat":43.23152,"lon":5.43718,"is_reserved":false,"is_disabled":false,"rental_uris":{"android":"levelo://app?vid=d55bec3e-cd2b-4f49-91b2-7a9da15ee7fd","ios":"levelo://app?vid=d55bec3e-cd2b-4f49-91b2-7a9da15ee7fd"},"vehicle_type_id":"4","last_reported":1726146988,"current_range_meters":26800,"station_id":"ce4bhmp2rcd13ifvqgog","pricing_plan_id":"cebpf4jnsgd1na2vs0mg"},{"bike_id":"bf2d2172-be9c-4d8b-b2a9-e8472749e9f2","system_id":"levelo_inurba_marseille","lat":43.24547,"lon":5.39529,"is_reserved":false,"is_disabled":false,"rental_uris":{"android":"levelo://app?vid=bf2d2172-be9c-4d8b-b2a9-e8472749e9f2","ios":"levelo://app?vid=bf2d2172-be9c-4d8b-b2a9-e8472749e9f2"},"vehicle_type_id":"4","last_reported":1726146988,"current_range_meters":28000,"station_id":"ce4bhlp2rcd13ifvqgjg","pricing_plan_id":"cebpf4jnsgd1na2vs0mg"},{"bike_id":"0a1f63c4-8197-4edd-9c0f-886e05340093","system_id":"levelo_inurba_marseille","lat":43.26223,"lon":5.37448,"is_reserved":false,"is_disabled":false,"rental_uris":{"android":"levelo://app?vid=0a1f63c4-8197-4edd-9c0f-886e05340093","ios":"levelo://app?vid=0a1f63c4-8197-4edd-9c0f-886e05340093"},"vehicle_type_id":"4","last_reported":1726146988,"current_range_meters":37600,"station_id":"ce4bhgp2rcd13ifvqfc0","pricing_plan_id":"cebpf4jnsgd1na2vs0mg"},{"bike_id":"5f634b7b-b160-42d0-b41e-d5483f57ff64","system_id":"levelo_inurba_marseille","lat":43.29986,"lon":5.38484,"is_reserved":false,"is_disabled":false,"rental_uris":{"android":"levelo://app?vid=5f634b7b-b160-42d0-b41e-d5483f57ff64","ios":"levelo://app?vid=5f634b7b-b160-42d0-b41e-d5483f57ff64"},"vehicle_type_id":"4","last_reported":1726146988,"current_range_meters":34000,"station_id":"ce4bgj92rcd13ifvqbd0","pricing_plan_id":"cebpf4jnsgd1na2vs0mg"},{"bike_id":"8bfe9769-2f4f-46c5-8a80-159c0868a2dc","system_id":"levelo_inurba_marseille","lat":43.296854,"lon":5.372938,"is_reserved":false,"is_disabled":false,"rental_uris":{"android":"levelo://app?vid=8bfe9769-2f4f-46c5-8a80-159c0868a2dc","ios":"levelo://app?vid=8bfe9769-2f4f-46c5-8a80-159c0868a2dc"},"vehicle_type_id":"4","last_reported":1726146988,"current_range_meters":38800,"station_id":"ce4bgop2rcd13ifvqc1g","pricing_plan_id":"cebpf4jnsgd1na2vs0mg"},{"bike_id":"721fa92c-defe-4678-b6eb-96834f836f63","system_id":"levelo_inurba_marseille","lat":43.30543,"lon":5.36532,"is_reserved":false,"is_disabled":false,"rental_uris":{"android":"levelo://app?vid=721fa92c-defe-4678-b6eb-96834f836f63","ios":"levelo://app?vid=721fa92c-defe-4678-b6eb-96834f836f63"},"vehicle_type_id":"4","last_reported":1726146988,"current_range_meters":37600,"station_id":"ce4bgs12rcd13ifvqcag","pricing_plan_id":"cebpf4jnsgd1na2vs0mg"},{"bike_id":"86b6a2b1-86a4-46ee-8c7e-90cb86d3d820","system_id":"levelo_inurba_marseille","lat":43.31339,"lon":5.39694,"is_reserved":false,"is_disabled":false,"rental_uris":{"android":"levelo://app?vid=86b6a2b1-86a4-46ee-8c7e-90cb86d3d820","ios":"levelo://app?vid=86b6a2b1-86a4-46ee-8c7e-90cb86d3d820"},"vehicle_type_id":"4","last_reported":1726146988,"current_range_meters":37600,"station_id":"ce4bgvp2rcd13ifvqcu0","pricing_plan_id":"cebpf4jnsgd1na2vs0mg"},{"bike_id":"118db879-b7d0-4bf0-a219-c082b60e3cc3","system_id":"levelo_inurba_marseille","lat":43.2969,"lon":5.37701,"is_reserved":false,"is_disabled":false,"rental_uris":{"android":"levelo://app?vid=118db879-b7d0-4bf0-a219-c082b60e3cc3","ios":"levelo://app?vid=118db879-b7d0-4bf0-a219-c082b60e3cc3"},"vehicle_type_id":"4","last_reported":1726146988,"current_range_meters":17200,"station_id":"","pricing_plan_id":"cebpf4jnsgd1na2vs0mg"},{"bike_id":"a52ae3d9-58a5-4929-a1fa-7958ae557e7d","system_id":"levelo_inurba_marseille","lat":43.25939,"lon":5.40904,"is_reserved":false,"is_disabled":false,"rental_uris":{"android":"levelo://app?vid=a52ae3d9-58a5-4929-a1fa-7958ae557e7d","ios":"levelo://app?vid=a52ae3d9-58a5-4929-a1fa-7958ae557e7d"},"vehicle_type_id":"4","last_reported":1726146988,"current_range_meters":13600,"station_id":"ce4bhm92rcd13ifvqglg","pricing_plan_id":"cebpf4jnsgd1na2vs0mg"},{"bike_id":"ae7ec834-fc22-4e60-9750-fc474064c685","system_id":"levelo_inurba_marseille","lat":43.27216,"lon":5.39182,"is_reserved":false,"is_disabled":false,"rental_uris":{"android":"levelo://app?vid=ae7ec834-fc22-4e60-9750-fc474064c685","ios":"levelo://app?vid=ae7ec834-fc22-4e60-9750-fc474064c685"},"vehicle_type_id":"4","last_reported":1726146988,"current_range_meters":24000,"station_id":"ce4bhhp2rcd13ifvqfm0","pricing_plan_id":"cebpf4jnsgd1na2vs0mg"},{"bike_id":"554beb7c-19ba-440e-a211-532f35657004","system_id":"levelo_inurba_marseille","lat":43.29553,"lon":5.42285,"is_reserved":false,"is_disabled":false,"rental_uris":{"android":"levelo://app?vid=554beb7c-19ba-440e-a211-532f35657004","ios":"levelo://app?vid=554beb7c-19ba-440e-a211-532f35657004"},"vehicle_type_id":"4","last_reported":1726146988,"current_range_meters":20800,"station_id":"ce4bhph2rcd13ifvqhdg","pricing_plan_id":"cebpf4jnsgd1na2vs0mg"},{"bike_id":"4e969dbe-d0ae-4c38-960f-25adf6a40146","system_id":"levelo_inurba_marseille","lat":43.30275,"lon":5.37695,"is_reserved":false,"is_disabled":false,"rental_uris":{"android":"levelo://app?vid=4e969dbe-d0ae-4c38-960f-25adf6a40146","ios":"levelo://app?vid=4e969dbe-d0ae-4c38-960f-25adf6a40146"},"vehicle_type_id":"4","last_reported":1726146988,"current_range_meters":30800,"station_id":"ce4bguh2rcd13ifvqcj0","pricing_plan_id":"cebpf4jnsgd1na2vs0mg"},{"bike_id":"1654b7b3-ec53-4d5e-8993-e5f3179428df","system_id":"levelo_inurba_marseille","lat":43.30897,"lon":5.37196,"is_reserved":false,"is_disabled":false,"rental_uris":{"android":"levelo://app?vid=1654b7b3-ec53-4d5e-8993-e5f3179428df","ios":"levelo://app?vid=1654b7b3-ec53-4d5e-8993-e5f3179428df"},"vehicle_type_id":"4","last_reported":1726146988,"current_range_meters":38800,"station_id":"ce4bguh2rcd13ifvqckg","pricing_plan_id":"cebpf4jnsgd1na2vs0mg"},{"bike_id":"4067cf6c-6e3d-4ac9-99bf-c1b92b69f736","system_id":"levelo_inurba_marseille","lat":43.32493,"lon":5.36563,"is_reserved":false,"is_disabled":false,"rental_uris":{"android":"levelo://app?vid=4067cf6c-6e3d-4ac9-99bf-c1b92b69f736","ios":"levelo://app?vid=4067cf6c-6e3d-4ac9-99bf-c1b92b69f736"},"vehicle_type_id":"4","last_reported":1726146988,"current_range_meters":25600,"station_id":"ce4bhs12rcd13ifvqhvg","pricing_plan_id":"cebpf4jnsgd1na2vs0mg"},{"bike_id":"352085d8-a232-4bdb-94c4-7e4bc5d644a1","system_id":"levelo_inurba_marseille","lat":43.25938,"lon":5.4091,"is_reserved":false,"is_disabled":false,"rental_uris":{"android":"levelo://app?vid=352085d8-a232-4bdb-94c4-7e4bc5d644a1","ios":"levelo://app?vid=352085d8-a232-4bdb-94c4-7e4bc5d644a1"},"vehicle_type_id":"4","last_reported":1726146988,"current_range_meters":28800,"station_id":"ce4bhm92rcd13ifvqglg","pricing_plan_id":"cebpf4jnsgd1na2vs0mg"},{"bike_id":"99076584-ed77-4098-b163-e80b87a4a633","system_id":"levelo_inurba_marseille","lat":43.25584,"lon":5.38236,"is_reserved":false,"is_disabled":false,"rental_uris":{"android":"levelo://app?vid=99076584-ed77-4098-b163-e80b87a4a633","ios":"levelo://app?vid=99076584-ed77-4098-b163-e80b87a4a633"},"vehicle_type_id":"4","last_reported":1726146988,"current_range_meters":30400,"station_id":"ce4bhih2rcd13ifvqfs0","pricing_plan_id":"cebpf4jnsgd1na2vs0mg"},{"bike_id":"7b83c2f0-d8e4-4407-ab5c-3edd944045ea","system_id":"levelo_inurba_marseille","lat":43.28709,"lon":5.3739,"is_reserved":false,"is_disabled":false,"rental_uris":{"android":"levelo://app?vid=7b83c2f0-d8e4-4407-ab5c-3edd944045ea","ios":"levelo://app?vid=7b83c2f0-d8e4-4407-ab5c-3edd944045ea"},"vehicle_type_id":"4","last_reported":1726146988,"current_range_meters":24800,"station_id":"ce4bh3p2rcd13ifvqdq0","pricing_plan_id":"cebpf4jnsgd1na2vs0mg"},{"bike_id":"97fb1b7f-695d-4049-8729-097bf60ac993","system_id":"levelo_inurba_marseille","lat":43.33021,"lon":5.39045,"is_reserved":false,"is_disabled":false,"rental_uris":{"android":"levelo://app?vid=97fb1b7f-695d-4049-8729-097bf60ac993","ios":"levelo://app?vid=97fb1b7f-695d-4049-8729-097bf60ac993"},"vehicle_type_id":"4","last_reported":1726146988,"current_range_meters":30800,"station_id":"ce4bhr92rcd13ifvqhrg","pricing_plan_id":"cebpf4jnsgd1na2vs0mg"},{"bike_id":"ef423b08-7e28-4a7e-bdb8-5d2d125f7b5c","system_id":"levelo_inurba_marseille","lat":43.23981,"lon":5.36604,"is_reserved":false,"is_disabled":false,"rental_uris":{"android":"levelo://app?vid=ef423b08-7e28-4a7e-bdb8-5d2d125f7b5c","ios":"levelo://app?vid=ef423b08-7e28-4a7e-bdb8-5d2d125f7b5c"},"vehicle_type_id":"4","last_reported":1726146988,"current_range_meters":22800,"station_id":"ce4bhi12rcd13ifvqfp0","pricing_plan_id":"cebpf4jnsgd1na2vs0mg"},{"bike_id":"d9bc3fd0-8c7b-41f6-86cd-286f8fe7cb38","system_id":"levelo_inurba_marseille","lat":43.290741,"lon":5.371655,"is_reserved":false,"is_disabled":false,"rental_uris":{"android":"levelo://app?vid=d9bc3fd0-8c7b-41f6-86cd-286f8fe7cb38","ios":"levelo://app?vid=d9bc3fd0-8c7b-41f6-86cd-286f8fe7cb38"},"vehicle_type_id":"4","last_reported":1726146988,"current_range_meters":20800,"station_id":"ce4bh5p2rcd13ifvqe4g","pricing_plan_id":"cebpf4jnsgd1na2vs0mg"},{"bike_id":"18133a1b-df7b-42d0-89d1-ccdedf5f5524","system_id":"levelo_inurba_marseille","lat":43.30535,"lon":5.36535,"is_reserved":false,"is_disabled":false,"rental_uris":{"android":"levelo://app?vid=18133a1b-df7b-42d0-89d1-ccdedf5f5524","ios":"levelo://app?vid=18133a1b-df7b-42d0-89d1-ccdedf5f5524"},"vehicle_type_id":"4","last_reported":1726146988,"current_range_meters":38800,"station_id":"ce4bgs12rcd13ifvqcag","pricing_plan_id":"cebpf4jnsgd1na2vs0mg"},{"bike_id":"b413d41f-7993-42f5-a3cc-daaaeaf22886","system_id":"levelo_inurba_marseille","lat":43.32495,"lon":5.36554,"is_reserved":false,"is_disabled":false,"rental_uris":{"android":"levelo://app?vid=b413d41f-7993-42f5-a3cc-daaaeaf22886","ios":"levelo://app?vid=b413d41f-7993-42f5-a3cc-daaaeaf22886"},"vehicle_type_id":"4","last_reported":1726146988,"current_range_meters":27600,"station_id":"ce4bhs12rcd13ifvqhvg","pricing_plan_id":"cebpf4jnsgd1na2vs0mg"},{"bike_id":"0eecb013-c59b-4968-b1fd-b060c29894af","system_id":"levelo_inurba_marseille","lat":43.28414,"lon":5.37518,"is_reserved":false,"is_disabled":false,"rental_uris":{"android":"levelo://app?vid=0eecb013-c59b-4968-b1fd-b060c29894af","ios":"levelo://app?vid=0eecb013-c59b-4968-b1fd-b060c29894af"},"vehicle_type_id":"4","last_reported":1726146988,"current_range_meters":28800,"station_id":"ce4bh412rcd13ifvqds0","pricing_plan_id":"cebpf4jnsgd1na2vs0mg"},{"bike_id":"ce436c74-8382-49a0-9037-30b6397e19af","system_id":"levelo_inurba_marseille","lat":43.24085,"lon":5.37737,"is_reserved":false,"is_disabled":false,"rental_uris":{"android":"levelo://app?vid=ce436c74-8382-49a0-9037-30b6397e19af","ios":"levelo://app?vid=ce436c74-8382-49a0-9037-30b6397e19af"},"vehicle_type_id":"4","last_reported":1726146988,"current_range_meters":30000,"station_id":"ce4bhnp2rcd13ifvqgvg","pricing_plan_id":"cebpf4jnsgd1na2vs0mg"},{"bike_id":"65781729-01dc-4f24-b783-4b6b61390f90","system_id":"levelo_inurba_marseille","lat":43.25825,"lon":5.39424,"is_reserved":false,"is_disabled":false,"rental_uris":{"android":"levelo://app?vid=65781729-01dc-4f24-b783-4b6b61390f90","ios":"levelo://app?vid=65781729-01dc-4f24-b783-4b6b61390f90"},"vehicle_type_id":"4","last_reported":1726146988,"current_range_meters":33200,"station_id":"ce4bhip2rcd13ifvqft0","pricing_plan_id":"cebpf4jnsgd1na2vs0mg"},{"bike_id":"96cb29cb-8da1-4dd6-bd35-ee190827a973","system_id":"levelo_inurba_marseille","lat":43.26563,"lon":5.37283,"is_reserved":false,"is_disabled":false,"rental_uris":{"android":"levelo://app?vid=96cb29cb-8da1-4dd6-bd35-ee190827a973","ios":"levelo://app?vid=96cb29cb-8da1-4dd6-bd35-ee190827a973"},"vehicle_type_id":"4","last_reported":1726146988,"current_range_meters":9600,"station_id":"ce4bhg12rcd13ifvqf70","pricing_plan_id":"cebpf4jnsgd1na2vs0mg"},{"bike_id":"f397724e-693c-41fc-8549-c68109fb4bbd","system_id":"levelo_inurba_marseille","lat":43.27328,"lon":5.39082,"is_reserved":false,"is_disabled":false,"rental_uris":{"android":"levelo://app?vid=f397724e-693c-41fc-8549-c68109fb4bbd","ios":"levelo://app?vid=f397724e-693c-41fc-8549-c68109fb4bbd"},"vehicle_type_id":"4","last_reported":1726146988,"current_range_meters":38000,"station_id":"ce4bhgp2rcd13ifvqfe0","pricing_plan_id":"cebpf4jnsgd1na2vs0mg"},{"bike_id":"ae3ad6c7-b322-42bb-bf54-fd91ef0db7c7","system_id":"levelo_inurba_marseille","lat":43.24085,"lon":5.37743,"is_reserved":false,"is_disabled":false,"rental_uris":{"android":"levelo://app?vid=ae3ad6c7-b322-42bb-bf54-fd91ef0db7c7","ios":"levelo://app?vid=ae3ad6c7-b322-42bb-bf54-fd91ef0db7c7"},"vehicle_type_id":"4","last_reported":1726146988,"current_range_meters":35600,"station_id":"ce4bhnp2rcd13ifvqgvg","pricing_plan_id":"cebpf4jnsgd1na2vs0mg"},{"bike_id":"dd1e853d-f377-4bf0-ada7-9272beaa0c98","system_id":"levelo_inurba_marseille","lat":43.30142,"lon":5.38787,"is_reserved":false,"is_disabled":false,"rental_uris":{"android":"levelo://app?vid=dd1e853d-f377-4bf0-ada7-9272beaa0c98","ios":"levelo://app?vid=dd1e853d-f377-4bf0-ada7-9272beaa0c98"},"vehicle_type_id":"4","last_reported":1726146988,"current_range_meters":21600,"station_id":"ce4bghh2rcd13ifvqb60","pricing_plan_id":"cebpf4jnsgd1na2vs0mg"},{"bike_id":"079045c7-0180-425a-b876-9656b31d5df1","system_id":"levelo_inurba_marseille","lat":43.31551,"lon":5.39284,"is_reserved":false,"is_disabled":false,"rental_uris":{"android":"levelo://app?vid=079045c7-0180-425a-b876-9656b31d5df1","ios":"levelo://app?vid=079045c7-0180-425a-b876-9656b31d5df1"},"vehicle_type_id":"4","last_reported":1726146988,"current_range_meters":33200,"station_id":"","pricing_plan_id":"cebpf4jnsgd1na2vs0mg"},{"bike_id":"b49854f4-cd7b-4d30-b82d-93a9e34c2e05","system_id":"levelo_inurba_marseille","lat":43.2981,"lon":5.38093,"is_reserved":false,"is_disabled":false,"rental_uris":{"android":"levelo://app?vid=b49854f4-cd7b-4d30-b82d-93a9e34c2e05","ios":"levelo://app?vid=b49854f4-cd7b-4d30-b82d-93a9e34c2e05"},"vehicle_type_id":"4","last_reported":1726146988,"current_range_meters":24400,"station_id":"ce4bgip2rcd13ifvqbb0","pricing_plan_id":"cebpf4jnsgd1na2vs0mg"},{"bike_id":"ca33d2bf-c9f2-4944-aec8-d1b6204ec37b","system_id":"levelo_inurba_marseille","lat":43.29557,"lon":5.42281,"is_reserved":false,"is_disabled":false,"rental_uris":{"android":"levelo://app?vid=ca33d2bf-c9f2-4944-aec8-d1b6204ec37b","ios":"levelo://app?vid=ca33d2bf-c9f2-4944-aec8-d1b6204ec37b"},"vehicle_type_id":"4","last_reported":1726146988,"current_range_meters":24800,"station_id":"ce4bhph2rcd13ifvqhdg","pricing_plan_id":"cebpf4jnsgd1na2vs0mg"},{"bike_id":"ea725dd4-8715-426e-9c29-6ff15e8219b1","system_id":"levelo_inurba_marseille","lat":43.24081,"lon":5.37756,"is_reserved":false,"is_disabled":false,"rental_uris":{"android":"levelo://app?vid=ea725dd4-8715-426e-9c29-6ff15e8219b1","ios":"levelo://app?vid=ea725dd4-8715-426e-9c29-6ff15e8219b1"},"vehicle_type_id":"4","last_reported":1726146988,"current_range_meters":27600,"station_id":"ce4bhnp2rcd13ifvqgvg","pricing_plan_id":"cebpf4jnsgd1na2vs0mg"},{"bike_id":"e4a5e406-b72a-4f07-9791-f4133102a158","system_id":"levelo_inurba_marseille","lat":43.32486,"lon":5.36565,"is_reserved":false,"is_disabled":false,"rental_uris":{"android":"levelo://app?vid=e4a5e406-b72a-4f07-9791-f4133102a158","ios":"levelo://app?vid=e4a5e406-b72a-4f07-9791-f4133102a158"},"vehicle_type_id":"4","last_reported":1726146988,"current_range_meters":12400,"station_id":"ce4bhs12rcd13ifvqhvg","pricing_plan_id":"cebpf4jnsgd1na2vs0mg"},{"bike_id":"a2f26943-dc2e-4561-b068-dbd68c8f968c","system_id":"levelo_inurba_marseille","lat":43.29013,"lon":5.35607,"is_reserved":false,"is_disabled":false,"rental_uris":{"android":"levelo://app?vid=a2f26943-dc2e-4561-b068-dbd68c8f968c","ios":"levelo://app?vid=a2f26943-dc2e-4561-b068-dbd68c8f968c"},"vehicle_type_id":"4","last_reported":1726146988,"current_range_meters":22400,"station_id":"ce4bhb92rcd13ifvqen0","pricing_plan_id":"cebpf4jnsgd1na2vs0mg"},{"bike_id":"59837249-2cbd-4c07-8a6c-d3192d173b09","system_id":"levelo_inurba_marseille","lat":43.29918,"lon":5.37472,"is_reserved":false,"is_disabled":false,"rental_uris":{"android":"levelo://app?vid=59837249-2cbd-4c07-8a6c-d3192d173b09","ios":"levelo://app?vid=59837249-2cbd-4c07-8a6c-d3192d173b09"},"vehicle_type_id":"4","last_reported":1726146988,"current_range_meters":24000,"station_id":"ce4bgjh2rcd13ifvqbg0","pricing_plan_id":"cebpf4jnsgd1na2vs0mg"},{"bike_id":"0dbccff2-f6cc-47fe-b998-5ccd66058a07","system_id":"levelo_inurba_marseille","lat":43.29372,"lon":5.37843,"is_reserved":false,"is_disabled":false,"rental_uris":{"android":"levelo://app?vid=0dbccff2-f6cc-47fe-b998-5ccd66058a07","ios":"levelo://app?vid=0dbccff2-f6cc-47fe-b998-5ccd66058a07"},"vehicle_type_id":"4","last_reported":1726146988,"current_range_meters":6000,"station_id":"ce4bgjh2rcd13ifvqbf0","pricing_plan_id":"cebpf4jnsgd1na2vs0mg"},{"bike_id":"db2b1e41-7799-4d24-86a4-8b1ea58dca12","system_id":"levelo_inurba_marseille","lat":43.29562,"lon":5.42286,"is_reserved":false,"is_disabled":false,"rental_uris":{"android":"levelo://app?vid=db2b1e41-7799-4d24-86a4-8b1ea58dca12","ios":"levelo://app?vid=db2b1e41-7799-4d24-86a4-8b1ea58dca12"},"vehicle_type_id":"4","last_reported":1726146988,"current_range_meters":21600,"station_id":"ce4bhph2rcd13ifvqhdg","pricing_plan_id":"cebpf4jnsgd1na2vs0mg"},{"bike_id":"08bb5566-8704-43b5-a307-cd706be21243","system_id":"levelo_inurba_marseille","lat":43.23156,"lon":5.43718,"is_reserved":false,"is_disabled":false,"rental_uris":{"android":"levelo://app?vid=08bb5566-8704-43b5-a307-cd706be21243","ios":"levelo://app?vid=08bb5566-8704-43b5-a307-cd706be21243"},"vehicle_type_id":"4","last_reported":1726146988,"current_range_meters":8000,"station_id":"ce4bhmp2rcd13ifvqgog","pricing_plan_id":"cebpf4jnsgd1na2vs0mg"},{"bike_id":"81f07673-dfe5-435a-a081-ff73a26a9256","system_id":"levelo_inurba_marseille","lat":43.24082,"lon":5.37756,"is_reserved":false,"is_disabled":false,"rental_uris":{"android":"levelo://app?vid=81f07673-dfe5-435a-a081-ff73a26a9256","ios":"levelo://app?vid=81f07673-dfe5-435a-a081-ff73a26a9256"},"vehicle_type_id":"4","last_reported":1726146988,"current_range_meters":9600,"station_id":"ce4bhnp2rcd13ifvqgvg","pricing_plan_id":"cebpf4jnsgd1na2vs0mg"},{"bike_id":"7ce587b3-eff6-4385-aed2-96acfc8e123a","system_id":"levelo_inurba_marseille","lat":43.30922,"lon":5.36852,"is_reserved":false,"is_disabled":false,"rental_uris":{"android":"levelo://app?vid=7ce587b3-eff6-4385-aed2-96acfc8e123a","ios":"levelo://app?vid=7ce587b3-eff6-4385-aed2-96acfc8e123a"},"vehicle_type_id":"4","last_reported":1726146988,"current_range_meters":34000,"station_id":"ce4bgn92rcd13ifvqbvg","pricing_plan_id":"cebpf4jnsgd1na2vs0mg"},{"bike_id":"d75380cf-78aa-42db-a28e-f5bbe886725a","system_id":"levelo_inurba_marseille","lat":43.28858,"lon":5.35854,"is_reserved":false,"is_disabled":false,"rental_uris":{"android":"levelo://app?vid=d75380cf-78aa-42db-a28e-f5bbe886725a","ios":"levelo://app?vid=d75380cf-78aa-42db-a28e-f5bbe886725a"},"vehicle_type_id":"4","last_reported":1726146988,"current_range_meters":38800,"station_id":"ce4bhb12rcd13ifvqem0","pricing_plan_id":"cebpf4jnsgd1na2vs0mg"},{"bike_id":"49d1f47d-e18d-4782-a832-4e903b29d02a","system_id":"levelo_inurba_marseille","lat":43.30426,"lon":5.41293,"is_reserved":false,"is_disabled":false,"rental_uris":{"android":"levelo://app?vid=49d1f47d-e18d-4782-a832-4e903b29d02a","ios":"levelo://app?vid=49d1f47d-e18d-4782-a832-4e903b29d02a"},"vehicle_type_id":"4","last_reported":1726146988,"current_range_meters":22000,"station_id":"ce4bhop2rcd13ifvqh8g","pricing_plan_id":"cebpf4jnsgd1na2vs0mg"},{"bike_id":"02e875d2-df35-4fac-9838-7425c2c862dd","system_id":"levelo_inurba_marseille","lat":43.26572,"lon":5.39008,"is_reserved":false,"is_disabled":false,"rental_uris":{"android":"levelo://app?vid=02e875d2-df35-4fac-9838-7425c2c862dd","ios":"levelo://app?vid=02e875d2-df35-4fac-9838-7425c2c862dd"},"vehicle_type_id":"4","last_reported":1726146988,"current_range_meters":24400,"station_id":"ce4bhe12rcd13ifvqf30","pricing_plan_id":"cebpf4jnsgd1na2vs0mg"},{"bike_id":"b16bb329-10f2-4ed4-b05b-7be1eb93eef0","system_id":"levelo_inurba_marseille","lat":43.26939,"lon":5.38917,"is_reserved":false,"is_disabled":false,"rental_uris":{"android":"levelo://app?vid=b16bb329-10f2-4ed4-b05b-7be1eb93eef0","ios":"levelo://app?vid=b16bb329-10f2-4ed4-b05b-7be1eb93eef0"},"vehicle_type_id":"4","last_reported":1726146988,"current_range_meters":19600,"station_id":"ce4bhhh2rcd13ifvqfl0","pricing_plan_id":"cebpf4jnsgd1na2vs0mg"},{"bike_id":"1c98812d-a6a0-4cd0-a178-21bb2aa3afa1","system_id":"levelo_inurba_marseille","lat":43.272093,"lon":5.391728,"is_reserved":false,"is_disabled":false,"rental_uris":{"android":"levelo://app?vid=1c98812d-a6a0-4cd0-a178-21bb2aa3afa1","ios":"levelo://app?vid=1c98812d-a6a0-4cd0-a178-21bb2aa3afa1"},"vehicle_type_id":"4","last_reported":1726146988,"current_range_meters":11600,"station_id":"ce4bhhp2rcd13ifvqfm0","pricing_plan_id":"cebpf4jnsgd1na2vs0mg"},{"bike_id":"cfdd0e5d-34af-414f-999a-c01c6f568ccf","system_id":"levelo_inurba_marseille","lat":43.24546,"lon":5.39524,"is_reserved":false,"is_disabled":false,"rental_uris":{"android":"levelo://app?vid=cfdd0e5d-34af-414f-999a-c01c6f568ccf","ios":"levelo://app?vid=cfdd0e5d-34af-414f-999a-c01c6f568ccf"},"vehicle_type_id":"4","last_reported":1726146988,"current_range_meters":3600,"station_id":"ce4bhlp2rcd13ifvqgjg","pricing_plan_id":"cebpf4jnsgd1na2vs0mg"},{"bike_id":"2c4577b3-3689-495e-a3c3-a78eafd4dc43","system_id":"levelo_inurba_marseille","lat":43.26563,"lon":5.37291,"is_reserved":false,"is_disabled":false,"rental_uris":{"android":"levelo://app?vid=2c4577b3-3689-495e-a3c3-a78eafd4dc43","ios":"levelo://app?vid=2c4577b3-3689-495e-a3c3-a78eafd4dc43"},"vehicle_type_id":"4","last_reported":1726146988,"current_range_meters":27200,"station_id":"ce4bhg12rcd13ifvqf70","pricing_plan_id":"cebpf4jnsgd1na2vs0mg"},{"bike_id":"e0f9889e-eb41-42c7-adf4-f8743ab3ca00","system_id":"levelo_inurba_marseille","lat":43.23155,"lon":5.43707,"is_reserved":false,"is_disabled":false,"rental_uris":{"android":"levelo://app?vid=e0f9889e-eb41-42c7-adf4-f8743ab3ca00","ios":"levelo://app?vid=e0f9889e-eb41-42c7-adf4-f8743ab3ca00"},"vehicle_type_id":"4","last_reported":1726146988,"current_range_meters":4800,"station_id":"ce4bhmp2rcd13ifvqgog","pricing_plan_id":"cebpf4jnsgd1na2vs0mg"},{"bike_id":"edb2715b-bb9d-4410-bc16-7e3c38f4dbde","system_id":"levelo_inurba_marseille","lat":43.298,"lon":5.38095,"is_reserved":false,"is_disabled":false,"rental_uris":{"android":"levelo://app?vid=edb2715b-bb9d-4410-bc16-7e3c38f4dbde","ios":"levelo://app?vid=edb2715b-bb9d-4410-bc16-7e3c38f4dbde"},"vehicle_type_id":"4","last_reported":1726146988,"current_range_meters":35600,"station_id":"ce4bgip2rcd13ifvqbb0","pricing_plan_id":"cebpf4jnsgd1na2vs0mg"},{"bike_id":"1de49c78-0af1-439a-b625-da2c38e06562","system_id":"levelo_inurba_marseille","lat":43.30897,"lon":5.37194,"is_reserved":false,"is_disabled":false,"rental_uris":{"android":"levelo://app?vid=1de49c78-0af1-439a-b625-da2c38e06562","ios":"levelo://app?vid=1de49c78-0af1-439a-b625-da2c38e06562"},"vehicle_type_id":"4","last_reported":1726146988,"current_range_meters":16000,"station_id":"ce4bguh2rcd13ifvqckg","pricing_plan_id":"cebpf4jnsgd1na2vs0mg"},{"bike_id":"6e02ffc0-6d82-43a2-afe9-d43ef2ef2ed7","system_id":"levelo_inurba_marseille","lat":43.25722,"lon":5.41109,"is_reserved":false,"is_disabled":false,"rental_uris":{"android":"levelo://app?vid=6e02ffc0-6d82-43a2-afe9-d43ef2ef2ed7","ios":"levelo://app?vid=6e02ffc0-6d82-43a2-afe9-d43ef2ef2ed7"},"vehicle_type_id":"4","last_reported":1726146988,"current_range_meters":11600,"station_id":"ce4bhkp2rcd13ifvqgd0","pricing_plan_id":"cebpf4jnsgd1na2vs0mg"},{"bike_id":"60d5bda9-f640-405a-935d-62d1314e50fa","system_id":"levelo_inurba_marseille","lat":43.23977,"lon":5.36618,"is_reserved":false,"is_disabled":false,"rental_uris":{"android":"levelo://app?vid=60d5bda9-f640-405a-935d-62d1314e50fa","ios":"levelo://app?vid=60d5bda9-f640-405a-935d-62d1314e50fa"},"vehicle_type_id":"4","last_reported":1726146988,"current_range_meters":29600,"station_id":"ce4bhi12rcd13ifvqfp0","pricing_plan_id":"cebpf4jnsgd1na2vs0mg"},{"bike_id":"d951d234-4f1d-4f20-ba24-83c70187329b","system_id":"levelo_inurba_marseille","lat":43.30255,"lon":5.40074,"is_reserved":false,"is_disabled":false,"rental_uris":{"android":"levelo://app?vid=d951d234-4f1d-4f20-ba24-83c70187329b","ios":"levelo://app?vid=d951d234-4f1d-4f20-ba24-83c70187329b"},"vehicle_type_id":"4","last_reported":1726146988,"current_range_meters":9200,"station_id":"ce4bgvh2rcd13ifvqcs0","pricing_plan_id":"cebpf4jnsgd1na2vs0mg"},{"bike_id":"d970b38c-7387-43bd-989f-d6f74d17f57e","system_id":"levelo_inurba_marseille","lat":43.30536,"lon":5.36544,"is_reserved":false,"is_disabled":false,"rental_uris":{"android":"levelo://app?vid=d970b38c-7387-43bd-989f-d6f74d17f57e","ios":"levelo://app?vid=d970b38c-7387-43bd-989f-d6f74d17f57e"},"vehicle_type_id":"4","last_reported":1726146988,"current_range_meters":38800,"station_id":"ce4bgs12rcd13ifvqcag","pricing_plan_id":"cebpf4jnsgd1na2vs0mg"},{"bike_id":"e7ee4d25-dfbc-40fc-aae5-a7d5f1a4fd5d","system_id":"levelo_inurba_marseille","lat":43.29639,"lon":5.37724,"is_reserved":false,"is_disabled":false,"rental_uris":{"android":"levelo://app?vid=e7ee4d25-dfbc-40fc-aae5-a7d5f1a4fd5d","ios":"levelo://app?vid=e7ee4d25-dfbc-40fc-aae5-a7d5f1a4fd5d"},"vehicle_type_id":"4","last_reported":1726146988,"current_range_meters":19200,"station_id":"ce4bgi92rcd13ifvqb90","pricing_plan_id":"cebpf4jnsgd1na2vs0mg"},{"bike_id":"2a7c2a1d-4075-4767-a922-50af182fb37d","system_id":"levelo_inurba_marseille","lat":43.29571,"lon":5.39967,"is_reserved":false,"is_disabled":false,"rental_uris":{"android":"levelo://app?vid=2a7c2a1d-4075-4767-a922-50af182fb37d","ios":"levelo://app?vid=2a7c2a1d-4075-4767-a922-50af182fb37d"},"vehicle_type_id":"4","last_reported":1726146988,"current_range_meters":22000,"station_id":"ce4bh312rcd13ifvqdj0","pricing_plan_id":"cebpf4jnsgd1na2vs0mg"},{"bike_id":"ac61b3d5-4a9a-4e8e-8909-e3b91f61a358","system_id":"levelo_inurba_marseille","lat":43.30282,"lon":5.37692,"is_reserved":false,"is_disabled":false,"rental_uris":{"android":"levelo://app?vid=ac61b3d5-4a9a-4e8e-8909-e3b91f61a358","ios":"levelo://app?vid=ac61b3d5-4a9a-4e8e-8909-e3b91f61a358"},"vehicle_type_id":"4","last_reported":1726146988,"current_range_meters":39200,"station_id":"ce4bguh2rcd13ifvqcj0","pricing_plan_id":"cebpf4jnsgd1na2vs0mg"},{"bike_id":"a794bbd9-e83e-4910-83a4-566ea7e762eb","system_id":"levelo_inurba_marseille","lat":43.24995,"lon":5.38935,"is_reserved":false,"is_disabled":false,"rental_uris":{"android":"levelo://app?vid=a794bbd9-e83e-4910-83a4-566ea7e762eb","ios":"levelo://app?vid=a794bbd9-e83e-4910-83a4-566ea7e762eb"},"vehicle_type_id":"4","last_reported":1726146988,"current_range_meters":6400,"station_id":"ce4bhgp2rcd13ifvqfd0","pricing_plan_id":"cebpf4jnsgd1na2vs0mg"},{"bike_id":"ac990218-e320-466b-b8bd-4a1f4844c212","system_id":"levelo_inurba_marseille","lat":43.27374,"lon":5.36247,"is_reserved":false,"is_disabled":false,"rental_uris":{"android":"levelo://app?vid=ac990218-e320-466b-b8bd-4a1f4844c212","ios":"levelo://app?vid=ac990218-e320-466b-b8bd-4a1f4844c212"},"vehicle_type_id":"4","last_reported":1726146988,"current_range_meters":13600,"station_id":"ce4bhbh2rcd13ifvqeo0","pricing_plan_id":"cebpf4jnsgd1na2vs0mg"},{"bike_id":"50307943-def8-44f2-a834-9bcb75a4bd41","system_id":"levelo_inurba_marseille","lat":43.30208,"lon":5.39466,"is_reserved":false,"is_disabled":false,"rental_uris":{"android":"levelo://app?vid=50307943-def8-44f2-a834-9bcb75a4bd41","ios":"levelo://app?vid=50307943-def8-44f2-a834-9bcb75a4bd41"},"vehicle_type_id":"4","last_reported":1726146988,"current_range_meters":14800,"station_id":"ce4bh0p2rcd13ifvqd70","pricing_plan_id":"cebpf4jnsgd1na2vs0mg"},{"bike_id":"17cf805d-1f6c-40c3-93db-94c2af171f3b","system_id":"levelo_inurba_marseille","lat":43.31696,"lon":5.40466,"is_reserved":false,"is_disabled":false,"rental_uris":{"android":"levelo://app?vid=17cf805d-1f6c-40c3-93db-94c2af171f3b","ios":"levelo://app?vid=17cf805d-1f6c-40c3-93db-94c2af171f3b"},"vehicle_type_id":"4","last_reported":1726146988,"current_range_meters":28400,"station_id":"ce4bh012rcd13ifvqd00","pricing_plan_id":"cebpf4jnsgd1na2vs0mg"},{"bike_id":"10e7e032-ccbd-46cd-b9a4-50be4d18ac8b","system_id":"levelo_inurba_marseille","lat":43.24666,"lon":5.38161,"is_reserved":false,"is_disabled":false,"rental_uris":{"android":"levelo://app?vid=10e7e032-ccbd-46cd-b9a4-50be4d18ac8b","ios":"levelo://app?vid=10e7e032-ccbd-46cd-b9a4-50be4d18ac8b"},"vehicle_type_id":"4","last_reported":1726146988,"current_range_meters":38400,"station_id":"ce4bhih2rcd13ifvqfr0","pricing_plan_id":"cebpf4jnsgd1na2vs0mg"},{"bike_id":"a4984443-5c5e-4825-9692-38c0fa345592","system_id":"levelo_inurba_marseille","lat":43.320356,"lon":5.381034,"is_reserved":false,"is_disabled":false,"rental_uris":{"android":"levelo://app?vid=a4984443-5c5e-4825-9692-38c0fa345592","ios":"levelo://app?vid=a4984443-5c5e-4825-9692-38c0fa345592"},"vehicle_type_id":"4","last_reported":1726146988,"current_range_meters":17600,"station_id":"ce4bhr12rcd13ifvqhpg","pricing_plan_id":"cebpf4jnsgd1na2vs0mg"},{"bike_id":"9f3066bd-94ad-4b6a-b0f8-8a46517297de","system_id":"levelo_inurba_marseille","lat":43.30594,"lon":5.37213,"is_reserved":false,"is_disabled":false,"rental_uris":{"android":"levelo://app?vid=9f3066bd-94ad-4b6a-b0f8-8a46517297de","ios":"levelo://app?vid=9f3066bd-94ad-4b6a-b0f8-8a46517297de"},"vehicle_type_id":"4","last_reported":1726146988,"current_range_meters":38800,"station_id":"ce4bgqh2rcd13ifvqc4g","pricing_plan_id":"cebpf4jnsgd1na2vs0mg"},{"bike_id":"2eac0f31-2c74-47b2-b432-9b295a6c364c","system_id":"levelo_inurba_marseille","lat":43.34143,"lon":5.40904,"is_reserved":false,"is_disabled":false,"rental_uris":{"android":"levelo://app?vid=2eac0f31-2c74-47b2-b432-9b295a6c364c","ios":"levelo://app?vid=2eac0f31-2c74-47b2-b432-9b295a6c364c"},"vehicle_type_id":"4","last_reported":1726146988,"current_range_meters":24000,"station_id":"ce4bhqh2rcd13ifvqhlg","pricing_plan_id":"cebpf4jnsgd1na2vs0mg"},{"bike_id":"e43aa60c-1314-4d9e-ab0a-d4cc3c0584a4","system_id":"levelo_inurba_marseille","lat":43.2408,"lon":5.37752,"is_reserved":false,"is_disabled":false,"rental_uris":{"android":"levelo://app?vid=e43aa60c-1314-4d9e-ab0a-d4cc3c0584a4","ios":"levelo://app?vid=e43aa60c-1314-4d9e-ab0a-d4cc3c0584a4"},"vehicle_type_id":"4","last_reported":1726146988,"current_range_meters":36800,"station_id":"ce4bhnp2rcd13ifvqgvg","pricing_plan_id":"cebpf4jnsgd1na2vs0mg"},{"bike_id":"be2e60a2-9fce-493f-b3d6-c0b9f42594cf","system_id":"levelo_inurba_marseille","lat":43.29535,"lon":5.39033,"is_reserved":false,"is_disabled":false,"rental_uris":{"android":"levelo://app?vid=be2e60a2-9fce-493f-b3d6-c0b9f42594cf","ios":"levelo://app?vid=be2e60a2-9fce-493f-b3d6-c0b9f42594cf"},"vehicle_type_id":"4","last_reported":1726146988,"current_range_meters":16000,"station_id":"ce4bh3p2rcd13ifvqdp0","pricing_plan_id":"cebpf4jnsgd1na2vs0mg"},{"bike_id":"42f4c576-b9c9-451e-bb09-e9ba24f78231","system_id":"levelo_inurba_marseille","lat":43.2408,"lon":5.37767,"is_reserved":false,"is_disabled":false,"rental_uris":{"android":"levelo://app?vid=42f4c576-b9c9-451e-bb09-e9ba24f78231","ios":"levelo://app?vid=42f4c576-b9c9-451e-bb09-e9ba24f78231"},"vehicle_type_id":"4","last_reported":1726146988,"current_range_meters":33600,"station_id":"ce4bhnp2rcd13ifvqgvg","pricing_plan_id":"cebpf4jnsgd1na2vs0mg"},{"bike_id":"dc673159-4558-442e-82c9-34dc9a337649","system_id":"levelo_inurba_marseille","lat":43.29926,"lon":5.37585,"is_reserved":false,"is_disabled":false,"rental_uris":{"android":"levelo://app?vid=dc673159-4558-442e-82c9-34dc9a337649","ios":"levelo://app?vid=dc673159-4558-442e-82c9-34dc9a337649"},"vehicle_type_id":"4","last_reported":1726146988,"current_range_meters":17600,"station_id":"","pricing_plan_id":"cebpf4jnsgd1na2vs0mg"},{"bike_id":"dfd604c4-221b-442d-8f0c-5524a0446526","system_id":"levelo_inurba_marseille","lat":43.30278,"lon":5.37694,"is_reserved":false,"is_disabled":false,"rental_uris":{"android":"levelo://app?vid=dfd604c4-221b-442d-8f0c-5524a0446526","ios":"levelo://app?vid=dfd604c4-221b-442d-8f0c-5524a0446526"},"vehicle_type_id":"4","last_reported":1726146988,"current_range_meters":39200,"station_id":"ce4bguh2rcd13ifvqcj0","pricing_plan_id":"cebpf4jnsgd1na2vs0mg"},{"bike_id":"7d348dd9-aba5-4535-bda9-b52ada6017ef","system_id":"levelo_inurba_marseille","lat":43.26191,"lon":5.37446,"is_reserved":false,"is_disabled":false,"rental_uris":{"android":"levelo://app?vid=7d348dd9-aba5-4535-bda9-b52ada6017ef","ios":"levelo://app?vid=7d348dd9-aba5-4535-bda9-b52ada6017ef"},"vehicle_type_id":"4","last_reported":1726146988,"current_range_meters":36400,"station_id":"ce4bhgp2rcd13ifvqfc0","pricing_plan_id":"cebpf4jnsgd1na2vs0mg"},{"bike_id":"9f7ee0be-e9c7-4974-9a33-f647d44b45df","system_id":"levelo_inurba_marseille","lat":43.31235,"lon":5.36857,"is_reserved":false,"is_disabled":false,"rental_uris":{"android":"levelo://app?vid=9f7ee0be-e9c7-4974-9a33-f647d44b45df","ios":"levelo://app?vid=9f7ee0be-e9c7-4974-9a33-f647d44b45df"},"vehicle_type_id":"4","last_reported":1726146988,"current_range_meters":31200,"station_id":"ce4bgl92rcd13ifvqbq0","pricing_plan_id":"cebpf4jnsgd1na2vs0mg"},{"bike_id":"7f6c41c3-b2a7-4559-8f9f-86191ac2c410","system_id":"levelo_inurba_marseille","lat":43.25583,"lon":5.38227,"is_reserved":false,"is_disabled":false,"rental_uris":{"android":"levelo://app?vid=7f6c41c3-b2a7-4559-8f9f-86191ac2c410","ios":"levelo://app?vid=7f6c41c3-b2a7-4559-8f9f-86191ac2c410"},"vehicle_type_id":"4","last_reported":1726146988,"current_range_meters":34000,"station_id":"ce4bhih2rcd13ifvqfs0","pricing_plan_id":"cebpf4jnsgd1na2vs0mg"},{"bike_id":"633ece75-4830-4a1c-9d86-b975e3856710","system_id":"levelo_inurba_marseille","lat":43.311157,"lon":5.377757,"is_reserved":false,"is_disabled":false,"rental_uris":{"android":"levelo://app?vid=633ece75-4830-4a1c-9d86-b975e3856710","ios":"levelo://app?vid=633ece75-4830-4a1c-9d86-b975e3856710"},"vehicle_type_id":"4","last_reported":1726146988,"current_range_meters":14800,"station_id":"ce4bgt92rcd13ifvqcg0","pricing_plan_id":"cebpf4jnsgd1na2vs0mg"},{"bike_id":"02964caf-f190-471e-a530-d0fefedd8874","system_id":"levelo_inurba_marseille","lat":43.25934,"lon":5.40912,"is_reserved":false,"is_disabled":false,"rental_uris":{"android":"levelo://app?vid=02964caf-f190-471e-a530-d0fefedd8874","ios":"levelo://app?vid=02964caf-f190-471e-a530-d0fefedd8874"},"vehicle_type_id":"4","last_reported":1726146988,"current_range_meters":26800,"station_id":"ce4bhm92rcd13ifvqglg","pricing_plan_id":"cebpf4jnsgd1na2vs0mg"},{"bike_id":"19510ac0-bff4-45d4-bdb2-93c175745534","system_id":"levelo_inurba_marseille","lat":43.29732,"lon":5.37683,"is_reserved":false,"is_disabled":false,"rental_uris":{"android":"levelo://app?vid=19510ac0-bff4-45d4-bdb2-93c175745534","ios":"levelo://app?vid=19510ac0-bff4-45d4-bdb2-93c175745534"},"vehicle_type_id":"4","last_reported":1726146988,"current_range_meters":33200,"station_id":"ce4bgkh2rcd13ifvqbl0","pricing_plan_id":"cebpf4jnsgd1na2vs0mg"},{"bike_id":"cd2104e9-fe8f-4a8d-a2d7-15eafb601787","system_id":"levelo_inurba_marseille","lat":43.31233,"lon":5.36852,"is_reserved":false,"is_disabled":false,"rental_uris":{"android":"levelo://app?vid=cd2104e9-fe8f-4a8d-a2d7-15eafb601787","ios":"levelo://app?vid=cd2104e9-fe8f-4a8d-a2d7-15eafb601787"},"vehicle_type_id":"4","last_reported":1726146988,"current_range_meters":38400,"station_id":"ce4bgl92rcd13ifvqbq0","pricing_plan_id":"cebpf4jnsgd1na2vs0mg"},{"bike_id":"6d0ed854-e2c4-4b46-b4a0-fbef76d06942","system_id":"levelo_inurba_marseille","lat":43.26572,"lon":5.39013,"is_reserved":false,"is_disabled":false,"rental_uris":{"android":"levelo://app?vid=6d0ed854-e2c4-4b46-b4a0-fbef76d06942","ios":"levelo://app?vid=6d0ed854-e2c4-4b46-b4a0-fbef76d06942"},"vehicle_type_id":"4","last_reported":1726146988,"current_range_meters":20000,"station_id":"ce4bhe12rcd13ifvqf30","pricing_plan_id":"cebpf4jnsgd1na2vs0mg"},{"bike_id":"e966de64-1292-4704-b259-e51664eef95e","system_id":"levelo_inurba_marseille","lat":43.27616,"lon":5.36104,"is_reserved":false,"is_disabled":false,"rental_uris":{"android":"levelo://app?vid=e966de64-1292-4704-b259-e51664eef95e","ios":"levelo://app?vid=e966de64-1292-4704-b259-e51664eef95e"},"vehicle_type_id":"4","last_reported":1726146988,"current_range_meters":36400,"station_id":"ce4bgj92rcd13ifvqbe0","pricing_plan_id":"cebpf4jnsgd1na2vs0mg"},{"bike_id":"2e124a7a-275a-4db2-b3b6-68381ae43f6d","system_id":"levelo_inurba_marseille","lat":43.29008,"lon":5.3561,"is_reserved":false,"is_disabled":false,"rental_uris":{"android":"levelo://app?vid=2e124a7a-275a-4db2-b3b6-68381ae43f6d","ios":"levelo://app?vid=2e124a7a-275a-4db2-b3b6-68381ae43f6d"},"vehicle_type_id":"4","last_reported":1726146988,"current_range_meters":38800,"station_id":"ce4bhb92rcd13ifvqen0","pricing_plan_id":"cebpf4jnsgd1na2vs0mg"},{"bike_id":"6fd8660e-01ed-4760-957a-52e62ffb8142","system_id":"levelo_inurba_marseille","lat":43.29602,"lon":5.381,"is_reserved":false,"is_disabled":false,"rental_uris":{"android":"levelo://app?vid=6fd8660e-01ed-4760-957a-52e62ffb8142","ios":"levelo://app?vid=6fd8660e-01ed-4760-957a-52e62ffb8142"},"vehicle_type_id":"4","last_reported":1726146988,"current_range_meters":22000,"station_id":"ce4bgl12rcd13ifvqbo0","pricing_plan_id":"cebpf4jnsgd1na2vs0mg"},{"bike_id":"dc5dca54-8ebf-43b2-acf8-9ae498c9992e","system_id":"levelo_inurba_marseille","lat":43.29534,"lon":5.38551,"is_reserved":false,"is_disabled":false,"rental_uris":{"android":"levelo://app?vid=dc5dca54-8ebf-43b2-acf8-9ae498c9992e","ios":"levelo://app?vid=dc5dca54-8ebf-43b2-acf8-9ae498c9992e"},"vehicle_type_id":"4","last_reported":1726146988,"current_range_meters":35200,"station_id":"ce4bgih2rcd13ifvqba0","pricing_plan_id":"cebpf4jnsgd1na2vs0mg"},{"bike_id":"a5eb67ab-76b0-4200-9a0d-c31f911a6583","system_id":"levelo_inurba_marseille","lat":43.304346,"lon":5.397471,"is_reserved":false,"is_disabled":false,"rental_uris":{"android":"levelo://app?vid=a5eb67ab-76b0-4200-9a0d-c31f911a6583","ios":"levelo://app?vid=a5eb67ab-76b0-4200-9a0d-c31f911a6583"},"vehicle_type_id":"4","last_reported":1726146988,"current_range_meters":6800,"station_id":"ce4bh0h2rcd13ifvqd40","pricing_plan_id":"cebpf4jnsgd1na2vs0mg"},{"bike_id":"deaeb920-23ab-4b51-a90a-3a4d369b9959","system_id":"levelo_inurba_marseille","lat":43.26562,"lon":5.37289,"is_reserved":false,"is_disabled":false,"rental_uris":{"android":"levelo://app?vid=deaeb920-23ab-4b51-a90a-3a4d369b9959","ios":"levelo://app?vid=deaeb920-23ab-4b51-a90a-3a4d369b9959"},"vehicle_type_id":"4","last_reported":1726146988,"current_range_meters":12400,"station_id":"ce4bhg12rcd13ifvqf70","pricing_plan_id":"cebpf4jnsgd1na2vs0mg"},{"bike_id":"2978c8ef-7735-4057-b33e-747fe355072e","system_id":"levelo_inurba_marseille","lat":43.2604,"lon":5.37544,"is_reserved":false,"is_disabled":false,"rental_uris":{"android":"levelo://app?vid=2978c8ef-7735-4057-b33e-747fe355072e","ios":"levelo://app?vid=2978c8ef-7735-4057-b33e-747fe355072e"},"vehicle_type_id":"4","last_reported":1726146988,"current_range_meters":4400,"station_id":"ce4bhgh2rcd13ifvqfa0","pricing_plan_id":"cebpf4jnsgd1na2vs0mg"},{"bike_id":"6937cb5d-7d03-4b67-a4a2-9feeef6e6dd1","system_id":"levelo_inurba_marseille","lat":43.28083,"lon":5.39664,"is_reserved":false,"is_disabled":false,"rental_uris":{"android":"levelo://app?vid=6937cb5d-7d03-4b67-a4a2-9feeef6e6dd1","ios":"levelo://app?vid=6937cb5d-7d03-4b67-a4a2-9feeef6e6dd1"},"vehicle_type_id":"4","last_reported":1726146988,"current_range_meters":22000,"station_id":"ce4bho12rcd13ifvqh2g","pricing_plan_id":"cebpf4jnsgd1na2vs0mg"},{"bike_id":"fd5e7b3d-cf2a-4fb8-a047-cd07d0f36780","system_id":"levelo_inurba_marseille","lat":43.29606,"lon":5.38102,"is_reserved":false,"is_disabled":false,"rental_uris":{"android":"levelo://app?vid=fd5e7b3d-cf2a-4fb8-a047-cd07d0f36780","ios":"levelo://app?vid=fd5e7b3d-cf2a-4fb8-a047-cd07d0f36780"},"vehicle_type_id":"4","last_reported":1726146988,"current_range_meters":26000,"station_id":"ce4bgl12rcd13ifvqbo0","pricing_plan_id":"cebpf4jnsgd1na2vs0mg"},{"bike_id":"b8efb478-bb5d-4d25-9db6-10ca8878e20c","system_id":"levelo_inurba_marseille","lat":43.309418,"lon":5.390395,"is_reserved":false,"is_disabled":false,"rental_uris":{"android":"levelo://app?vid=b8efb478-bb5d-4d25-9db6-10ca8878e20c","ios":"levelo://app?vid=b8efb478-bb5d-4d25-9db6-10ca8878e20c"},"vehicle_type_id":"4","last_reported":1726146988,"current_range_meters":4000,"station_id":"ce4bh192rcd13ifvqdd0","pricing_plan_id":"cebpf4jnsgd1na2vs0mg"},{"bike_id":"5b447c57-133e-42cd-827f-e526e0bfeef2","system_id":"levelo_inurba_marseille","lat":43.31365,"lon":5.36715,"is_reserved":false,"is_disabled":false,"rental_uris":{"android":"levelo://app?vid=5b447c57-133e-42cd-827f-e526e0bfeef2","ios":"levelo://app?vid=5b447c57-133e-42cd-827f-e526e0bfeef2"},"vehicle_type_id":"4","last_reported":1726146988,"current_range_meters":39200,"station_id":"ce4bgr92rcd13ifvqc6g","pricing_plan_id":"cebpf4jnsgd1na2vs0mg"},{"bike_id":"b339ada7-e3c9-4078-8ab9-62d2173286d7","system_id":"levelo_inurba_marseille","lat":43.30533,"lon":5.36529,"is_reserved":false,"is_disabled":false,"rental_uris":{"android":"levelo://app?vid=b339ada7-e3c9-4078-8ab9-62d2173286d7","ios":"levelo://app?vid=b339ada7-e3c9-4078-8ab9-62d2173286d7"},"vehicle_type_id":"4","last_reported":1726146988,"current_range_meters":24000,"station_id":"ce4bgs12rcd13ifvqcag","pricing_plan_id":"cebpf4jnsgd1na2vs0mg"},{"bike_id":"e679e163-1881-43f2-b2b9-3e1daa0c9f8b","system_id":"levelo_inurba_marseille","lat":43.284488,"lon":5.391815,"is_reserved":false,"is_disabled":false,"rental_uris":{"android":"levelo://app?vid=e679e163-1881-43f2-b2b9-3e1daa0c9f8b","ios":"levelo://app?vid=e679e163-1881-43f2-b2b9-3e1daa0c9f8b"},"vehicle_type_id":"4","last_reported":1726146988,"current_range_meters":6000,"station_id":"ce4bhoh2rcd13ifvqh5g","pricing_plan_id":"cebpf4jnsgd1na2vs0mg"},{"bike_id":"7a9db6cc-034f-4ca0-a824-db851afb7f24","system_id":"levelo_inurba_marseille","lat":43.3124,"lon":5.36848,"is_reserved":false,"is_disabled":false,"rental_uris":{"android":"levelo://app?vid=7a9db6cc-034f-4ca0-a824-db851afb7f24","ios":"levelo://app?vid=7a9db6cc-034f-4ca0-a824-db851afb7f24"},"vehicle_type_id":"4","last_reported":1726146988,"current_range_meters":27600,"station_id":"ce4bgl92rcd13ifvqbq0","pricing_plan_id":"cebpf4jnsgd1na2vs0mg"},{"bike_id":"5816f75d-0877-4e33-8f3a-b424aef43126","system_id":"levelo_inurba_marseille","lat":43.337444,"lon":5.374475,"is_reserved":false,"is_disabled":false,"rental_uris":{"android":"levelo://app?vid=5816f75d-0877-4e33-8f3a-b424aef43126","ios":"levelo://app?vid=5816f75d-0877-4e33-8f3a-b424aef43126"},"vehicle_type_id":"4","last_reported":1726146988,"current_range_meters":35200,"station_id":"ce4bgph2rcd13ifvqc2g","pricing_plan_id":"cebpf4jnsgd1na2vs0mg"},{"bike_id":"a78102a0-bfeb-4bfd-a176-51b3099f4535","system_id":"levelo_inurba_marseille","lat":43.24083,"lon":5.3775,"is_reserved":false,"is_disabled":false,"rental_uris":{"android":"levelo://app?vid=a78102a0-bfeb-4bfd-a176-51b3099f4535","ios":"levelo://app?vid=a78102a0-bfeb-4bfd-a176-51b3099f4535"},"vehicle_type_id":"4","last_reported":1726146988,"current_range_meters":25200,"station_id":"ce4bhnp2rcd13ifvqgvg","pricing_plan_id":"cebpf4jnsgd1na2vs0mg"},{"bike_id":"efe76fae-4743-44aa-9633-0aa37a553ff5","system_id":"levelo_inurba_marseille","lat":43.28939,"lon":5.38386,"is_reserved":false,"is_disabled":false,"rental_uris":{"android":"levelo://app?vid=efe76fae-4743-44aa-9633-0aa37a553ff5","ios":"levelo://app?vid=efe76fae-4743-44aa-9633-0aa37a553ff5"},"vehicle_type_id":"4","last_reported":1726146988,"current_range_meters":23200,"station_id":"ce4bh612rcd13ifvqe6g","pricing_plan_id":"cebpf4jnsgd1na2vs0mg"},{"bike_id":"3a7e43d7-dffe-497b-977e-74a3a2ac2487","system_id":"levelo_inurba_marseille","lat":43.29231,"lon":5.36067,"is_reserved":false,"is_disabled":false,"rental_uris":{"android":"levelo://app?vid=3a7e43d7-dffe-497b-977e-74a3a2ac2487","ios":"levelo://app?vid=3a7e43d7-dffe-497b-977e-74a3a2ac2487"},"vehicle_type_id":"4","last_reported":1726146988,"current_range_meters":9200,"station_id":"ce4bhbh2rcd13ifvqeqg","pricing_plan_id":"cebpf4jnsgd1na2vs0mg"},{"bike_id":"8fbc0af9-06af-4008-9113-da08b1db43f7","system_id":"levelo_inurba_marseille","lat":43.30426,"lon":5.39751,"is_reserved":false,"is_disabled":false,"rental_uris":{"android":"levelo://app?vid=8fbc0af9-06af-4008-9113-da08b1db43f7","ios":"levelo://app?vid=8fbc0af9-06af-4008-9113-da08b1db43f7"},"vehicle_type_id":"4","last_reported":1726146988,"current_range_meters":18800,"station_id":"ce4bh092rcd13ifvqd20","pricing_plan_id":"cebpf4jnsgd1na2vs0mg"},{"bike_id":"027c6570-2efd-42d2-b636-6f866c0e0b02","system_id":"levelo_inurba_marseille","lat":43.29178,"lon":5.37159,"is_reserved":false,"is_disabled":false,"rental_uris":{"android":"levelo://app?vid=027c6570-2efd-42d2-b636-6f866c0e0b02","ios":"levelo://app?vid=027c6570-2efd-42d2-b636-6f866c0e0b02"},"vehicle_type_id":"4","last_reported":1726146988,"current_range_meters":4400,"station_id":"ce4bha92rcd13ifvqeh0","pricing_plan_id":"cebpf4jnsgd1na2vs0mg"},{"bike_id":"6cfd623d-1306-4849-9979-b14448f1a752","system_id":"levelo_inurba_marseille","lat":43.31493,"lon":5.37306,"is_reserved":false,"is_disabled":false,"rental_uris":{"android":"levelo://app?vid=6cfd623d-1306-4849-9979-b14448f1a752","ios":"levelo://app?vid=6cfd623d-1306-4849-9979-b14448f1a752"},"vehicle_type_id":"4","last_reported":1726146988,"current_range_meters":36000,"station_id":"ce4bgt12rcd13ifvqcd0","pricing_plan_id":"cebpf4jnsgd1na2vs0mg"},{"bike_id":"912f708d-72b0-4680-9490-0494b93ed38b","system_id":"levelo_inurba_marseille","lat":43.307983,"lon":5.381574,"is_reserved":false,"is_disabled":false,"rental_uris":{"android":"levelo://app?vid=912f708d-72b0-4680-9490-0494b93ed38b","ios":"levelo://app?vid=912f708d-72b0-4680-9490-0494b93ed38b"},"vehicle_type_id":"4","last_reported":1726146988,"current_range_meters":14800,"station_id":"ce4bgt12rcd13ifvqce0","pricing_plan_id":"cebpf4jnsgd1na2vs0mg"},{"bike_id":"f43be87c-a631-4245-8032-3add83f6ec2c","system_id":"levelo_inurba_marseille","lat":43.29193,"lon":5.39328,"is_reserved":false,"is_disabled":false,"rental_uris":{"android":"levelo://app?vid=f43be87c-a631-4245-8032-3add83f6ec2c","ios":"levelo://app?vid=f43be87c-a631-4245-8032-3add83f6ec2c"},"vehicle_type_id":"4","last_reported":1726146988,"current_range_meters":21600,"station_id":"ce4bh192rcd13ifvqdd0","pricing_plan_id":"cebpf4jnsgd1na2vs0mg"},{"bike_id":"9b8f0a3a-7dff-4fff-96a7-b5a6deeace85","system_id":"levelo_inurba_marseille","lat":43.23975,"lon":5.36625,"is_reserved":false,"is_disabled":false,"rental_uris":{"android":"levelo://app?vid=9b8f0a3a-7dff-4fff-96a7-b5a6deeace85","ios":"levelo://app?vid=9b8f0a3a-7dff-4fff-96a7-b5a6deeace85"},"vehicle_type_id":"4","last_reported":1726146988,"current_range_meters":8000,"station_id":"ce4bhi12rcd13ifvqfp0","pricing_plan_id":"cebpf4jnsgd1na2vs0mg"},{"bike_id":"849eb538-95cd-4aed-ba39-b18a7589f412","system_id":"levelo_inurba_marseille","lat":43.26956,"lon":5.38637,"is_reserved":false,"is_disabled":false,"rental_uris":{"android":"levelo://app?vid=849eb538-95cd-4aed-ba39-b18a7589f412","ios":"levelo://app?vid=849eb538-95cd-4aed-ba39-b18a7589f412"},"vehicle_type_id":"4","last_reported":1726146988,"current_range_meters":24400,"station_id":"ce4bhh92rcd13ifvqfh0","pricing_plan_id":"cebpf4jnsgd1na2vs0mg"},{"bike_id":"39b0a492-2ee4-4082-917a-7dac592a8cea","system_id":"levelo_inurba_marseille","lat":43.29728,"lon":5.37694,"is_reserved":false,"is_disabled":false,"rental_uris":{"android":"levelo://app?vid=39b0a492-2ee4-4082-917a-7dac592a8cea","ios":"levelo://app?vid=39b0a492-2ee4-4082-917a-7dac592a8cea"},"vehicle_type_id":"4","last_reported":1726146988,"current_range_meters":22000,"station_id":"ce4bgkh2rcd13ifvqbl0","pricing_plan_id":"cebpf4jnsgd1na2vs0mg"},{"bike_id":"a90b3083-ba78-472c-8cab-9482b6dd16f4","system_id":"levelo_inurba_marseille","lat":43.25589,"lon":5.3822,"is_reserved":false,"is_disabled":false,"rental_uris":{"android":"levelo://app?vid=a90b3083-ba78-472c-8cab-9482b6dd16f4","ios":"levelo://app?vid=a90b3083-ba78-472c-8cab-9482b6dd16f4"},"vehicle_type_id":"4","last_reported":1726146988,"current_range_meters":29600,"station_id":"ce4bhih2rcd13ifvqfs0","pricing_plan_id":"cebpf4jnsgd1na2vs0mg"},{"bike_id":"fc1c1c5c-b12c-4e98-9b4f-194e7f9d2519","system_id":"levelo_inurba_marseille","lat":43.30805,"lon":5.38174,"is_reserved":false,"is_disabled":false,"rental_uris":{"android":"levelo://app?vid=fc1c1c5c-b12c-4e98-9b4f-194e7f9d2519","ios":"levelo://app?vid=fc1c1c5c-b12c-4e98-9b4f-194e7f9d2519"},"vehicle_type_id":"4","last_reported":1726146988,"current_range_meters":32800,"station_id":"ce4bgt12rcd13ifvqce0","pricing_plan_id":"cebpf4jnsgd1na2vs0mg"},{"bike_id":"dd2d66a6-976d-43e6-83be-d6211ff78acc","system_id":"levelo_inurba_marseille","lat":43.33724,"lon":5.39178,"is_reserved":false,"is_disabled":false,"rental_uris":{"android":"levelo://app?vid=dd2d66a6-976d-43e6-83be-d6211ff78acc","ios":"levelo://app?vid=dd2d66a6-976d-43e6-83be-d6211ff78acc"},"vehicle_type_id":"4","last_reported":1726146988,"current_range_meters":11200,"station_id":"ce4bhr92rcd13ifvqhsg","pricing_plan_id":"cebpf4jnsgd1na2vs0mg"},{"bike_id":"5ef7b96a-1cb8-4f42-af16-3a0d049b19cc","system_id":"levelo_inurba_marseille","lat":43.29554,"lon":5.42284,"is_reserved":false,"is_disabled":false,"rental_uris":{"android":"levelo://app?vid=5ef7b96a-1cb8-4f42-af16-3a0d049b19cc","ios":"levelo://app?vid=5ef7b96a-1cb8-4f42-af16-3a0d049b19cc"},"vehicle_type_id":"4","last_reported":1726146988,"current_range_meters":13600,"station_id":"ce4bhph2rcd13ifvqhdg","pricing_plan_id":"cebpf4jnsgd1na2vs0mg"},{"bike_id":"398ea4fb-b49d-4697-bfb2-117feeb716c9","system_id":"levelo_inurba_marseille","lat":43.2792,"lon":5.39581,"is_reserved":false,"is_disabled":false,"rental_uris":{"android":"levelo://app?vid=398ea4fb-b49d-4697-bfb2-117feeb716c9","ios":"levelo://app?vid=398ea4fb-b49d-4697-bfb2-117feeb716c9"},"vehicle_type_id":"4","last_reported":1726146988,"current_range_meters":10000,"station_id":"ce4bhf92rcd13ifvqf40","pricing_plan_id":"cebpf4jnsgd1na2vs0mg"},{"bike_id":"a4f01b8b-d347-48b7-b3da-11ced5b95847","system_id":"levelo_inurba_marseille","lat":43.31233,"lon":5.36863,"is_reserved":false,"is_disabled":false,"rental_uris":{"android":"levelo://app?vid=a4f01b8b-d347-48b7-b3da-11ced5b95847","ios":"levelo://app?vid=a4f01b8b-d347-48b7-b3da-11ced5b95847"},"vehicle_type_id":"4","last_reported":1726146988,"current_range_meters":5600,"station_id":"ce4bgl92rcd13ifvqbq0","pricing_plan_id":"cebpf4jnsgd1na2vs0mg"},{"bike_id":"070fc8ea-88dd-4291-acb9-1461ce278772","system_id":"levelo_inurba_marseille","lat":43.27994,"lon":5.41662,"is_reserved":false,"is_disabled":false,"rental_uris":{"android":"levelo://app?vid=070fc8ea-88dd-4291-acb9-1461ce278772","ios":"levelo://app?vid=070fc8ea-88dd-4291-acb9-1461ce278772"},"vehicle_type_id":"4","last_reported":1726146988,"current_range_meters":3200,"station_id":"ce4bho12rcd13ifvqh1g","pricing_plan_id":"cebpf4jnsgd1na2vs0mg"},{"bike_id":"68cc0089-c61b-448b-bb15-05fc1417eeee","system_id":"levelo_inurba_marseille","lat":43.29228,"lon":5.36054,"is_reserved":false,"is_disabled":false,"rental_uris":{"android":"levelo://app?vid=68cc0089-c61b-448b-bb15-05fc1417eeee","ios":"levelo://app?vid=68cc0089-c61b-448b-bb15-05fc1417eeee"},"vehicle_type_id":"4","last_reported":1726146988,"current_range_meters":36400,"station_id":"ce4bhbh2rcd13ifvqeqg","pricing_plan_id":"cebpf4jnsgd1na2vs0mg"},{"bike_id":"7b16d790-f48c-4f07-a17e-934045f8b950","system_id":"levelo_inurba_marseille","lat":43.30141,"lon":5.3988,"is_reserved":false,"is_disabled":false,"rental_uris":{"android":"levelo://app?vid=7b16d790-f48c-4f07-a17e-934045f8b950","ios":"levelo://app?vid=7b16d790-f48c-4f07-a17e-934045f8b950"},"vehicle_type_id":"4","last_reported":1726146988,"current_range_meters":25600,"station_id":"ce4bh0h2rcd13ifvqd40","pricing_plan_id":"cebpf4jnsgd1na2vs0mg"},{"bike_id":"33b083fb-ff53-40c5-be9d-074bcef857d3","system_id":"levelo_inurba_marseille","lat":43.28003,"lon":5.40012,"is_reserved":false,"is_disabled":false,"rental_uris":{"android":"levelo://app?vid=33b083fb-ff53-40c5-be9d-074bcef857d3","ios":"levelo://app?vid=33b083fb-ff53-40c5-be9d-074bcef857d3"},"vehicle_type_id":"4","last_reported":1726146988,"current_range_meters":28000,"station_id":"ce4bho92rcd13ifvqh4g","pricing_plan_id":"cebpf4jnsgd1na2vs0mg"},{"bike_id":"d63b08fd-7716-422a-94e4-8f1dfff5bb11","system_id":"levelo_inurba_marseille","lat":43.28616,"lon":5.35102,"is_reserved":false,"is_disabled":false,"rental_uris":{"android":"levelo://app?vid=d63b08fd-7716-422a-94e4-8f1dfff5bb11","ios":"levelo://app?vid=d63b08fd-7716-422a-94e4-8f1dfff5bb11"},"vehicle_type_id":"4","last_reported":1726146988,"current_range_meters":18000,"station_id":"ce4bhch2rcd13ifvqeug","pricing_plan_id":"cebpf4jnsgd1na2vs0mg"},{"bike_id":"d32c8681-5c25-4caa-8515-f43cd3d9d0d7","system_id":"levelo_inurba_marseille","lat":43.24082,"lon":5.37744,"is_reserved":false,"is_disabled":false,"rental_uris":{"android":"levelo://app?vid=d32c8681-5c25-4caa-8515-f43cd3d9d0d7","ios":"levelo://app?vid=d32c8681-5c25-4caa-8515-f43cd3d9d0d7"},"vehicle_type_id":"4","last_reported":1726146988,"current_range_meters":26000,"station_id":"ce4bhnp2rcd13ifvqgvg","pricing_plan_id":"cebpf4jnsgd1na2vs0mg"},{"bike_id":"908558fc-af51-49be-a019-0e16afa07ae8","system_id":"levelo_inurba_marseille","lat":43.27493,"lon":5.42459,"is_reserved":false,"is_disabled":false,"rental_uris":{"android":"levelo://app?vid=908558fc-af51-49be-a019-0e16afa07ae8","ios":"levelo://app?vid=908558fc-af51-49be-a019-0e16afa07ae8"},"vehicle_type_id":"4","last_reported":1726146988,"current_range_meters":8400,"station_id":"ce4bhn92rcd13ifvqgrg","pricing_plan_id":"cebpf4jnsgd1na2vs0mg"},{"bike_id":"7ad9c4c2-8e82-4e19-bf1e-a8777466a1dc","system_id":"levelo_inurba_marseille","lat":43.28429,"lon":5.34982,"is_reserved":false,"is_disabled":false,"rental_uris":{"android":"levelo://app?vid=7ad9c4c2-8e82-4e19-bf1e-a8777466a1dc","ios":"levelo://app?vid=7ad9c4c2-8e82-4e19-bf1e-a8777466a1dc"},"vehicle_type_id":"4","last_reported":1726146988,"current_range_meters":38400,"station_id":"ce4bhbh2rcd13ifvqepg","pricing_plan_id":"cebpf4jnsgd1na2vs0mg"},{"bike_id":"9b0bddf8-22ef-4a8c-8650-bc3acf6ca0ba","system_id":"levelo_inurba_marseille","lat":43.28473,"lon":5.35916,"is_reserved":false,"is_disabled":false,"rental_uris":{"android":"levelo://app?vid=9b0bddf8-22ef-4a8c-8650-bc3acf6ca0ba","ios":"levelo://app?vid=9b0bddf8-22ef-4a8c-8650-bc3acf6ca0ba"},"vehicle_type_id":"4","last_reported":1726146988,"current_range_meters":17200,"station_id":"ce4bhah2rcd13ifvqei0","pricing_plan_id":"cebpf4jnsgd1na2vs0mg"},{"bike_id":"0137edf9-4cfa-40b6-ad64-2a40be855ebf","system_id":"levelo_inurba_marseille","lat":43.28464,"lon":5.35896,"is_reserved":false,"is_disabled":false,"rental_uris":{"android":"levelo://app?vid=0137edf9-4cfa-40b6-ad64-2a40be855ebf","ios":"levelo://app?vid=0137edf9-4cfa-40b6-ad64-2a40be855ebf"},"vehicle_type_id":"4","last_reported":1726146988,"current_range_meters":25200,"station_id":"ce4bhah2rcd13ifvqei0","pricing_plan_id":"cebpf4jnsgd1na2vs0mg"},{"bike_id":"dccadc39-7e75-4ff6-801e-d97b0e1812f2","system_id":"levelo_inurba_marseille","lat":43.33023,"lon":5.39036,"is_reserved":false,"is_disabled":false,"rental_uris":{"android":"levelo://app?vid=dccadc39-7e75-4ff6-801e-d97b0e1812f2","ios":"levelo://app?vid=dccadc39-7e75-4ff6-801e-d97b0e1812f2"},"vehicle_type_id":"4","last_reported":1726146988,"current_range_meters":28400,"station_id":"ce4bhr92rcd13ifvqhrg","pricing_plan_id":"cebpf4jnsgd1na2vs0mg"},{"bike_id":"41e2e5fd-b260-448a-a951-bddcd9555fd0","system_id":"levelo_inurba_marseille","lat":43.25828,"lon":5.39432,"is_reserved":false,"is_disabled":false,"rental_uris":{"android":"levelo://app?vid=41e2e5fd-b260-448a-a951-bddcd9555fd0","ios":"levelo://app?vid=41e2e5fd-b260-448a-a951-bddcd9555fd0"},"vehicle_type_id":"4","last_reported":1726146988,"current_range_meters":31200,"station_id":"ce4bhip2rcd13ifvqft0","pricing_plan_id":"cebpf4jnsgd1na2vs0mg"},{"bike_id":"8cecfdc6-d172-45b1-b59c-53e1a549ead6","system_id":"levelo_inurba_marseille","lat":43.29626,"lon":5.37162,"is_reserved":false,"is_disabled":false,"rental_uris":{"android":"levelo://app?vid=8cecfdc6-d172-45b1-b59c-53e1a549ead6","ios":"levelo://app?vid=8cecfdc6-d172-45b1-b59c-53e1a549ead6"},"vehicle_type_id":"4","last_reported":1726146988,"current_range_meters":36800,"station_id":"ce4bgnh2rcd13ifvqc0g","pricing_plan_id":"cebpf4jnsgd1na2vs0mg"},{"bike_id":"703c5b25-1435-45b2-8c89-d7647aa322b9","system_id":"levelo_inurba_marseille","lat":43.31361,"lon":5.36708,"is_reserved":false,"is_disabled":false,"rental_uris":{"android":"levelo://app?vid=703c5b25-1435-45b2-8c89-d7647aa322b9","ios":"levelo://app?vid=703c5b25-1435-45b2-8c89-d7647aa322b9"},"vehicle_type_id":"4","last_reported":1726146988,"current_range_meters":38800,"station_id":"ce4bgr92rcd13ifvqc6g","pricing_plan_id":"cebpf4jnsgd1na2vs0mg"},{"bike_id":"2ab898f9-4f45-4330-b58f-1198c37363bd","system_id":"levelo_inurba_marseille","lat":43.30143,"lon":5.37415,"is_reserved":false,"is_disabled":false,"rental_uris":{"android":"levelo://app?vid=2ab898f9-4f45-4330-b58f-1198c37363bd","ios":"levelo://app?vid=2ab898f9-4f45-4330-b58f-1198c37363bd"},"vehicle_type_id":"4","last_reported":1726146988,"current_range_meters":18000,"station_id":"ce4bgs92rcd13ifvqcc0","pricing_plan_id":"cebpf4jnsgd1na2vs0mg"},{"bike_id":"dd3fecec-0a50-4eb9-8dfc-5c61faf672e9","system_id":"levelo_inurba_marseille","lat":43.23158,"lon":5.43713,"is_reserved":false,"is_disabled":false,"rental_uris":{"android":"levelo://app?vid=dd3fecec-0a50-4eb9-8dfc-5c61faf672e9","ios":"levelo://app?vid=dd3fecec-0a50-4eb9-8dfc-5c61faf672e9"},"vehicle_type_id":"4","last_reported":1726146988,"current_range_meters":38800,"station_id":"ce4bhmp2rcd13ifvqgog","pricing_plan_id":"cebpf4jnsgd1na2vs0mg"},{"bike_id":"57fa5fde-7d0b-46b9-acd2-cbdf97625d62","system_id":"levelo_inurba_marseille","lat":43.30142,"lon":5.39852,"is_reserved":false,"is_disabled":false,"rental_uris":{"android":"levelo://app?vid=57fa5fde-7d0b-46b9-acd2-cbdf97625d62","ios":"levelo://app?vid=57fa5fde-7d0b-46b9-acd2-cbdf97625d62"},"vehicle_type_id":"4","last_reported":1726146988,"current_range_meters":22000,"station_id":"ce4bh0h2rcd13ifvqd40","pricing_plan_id":"cebpf4jnsgd1na2vs0mg"},{"bike_id":"0ae4c82d-7bf7-4f75-9cfc-82f2792f9ace","system_id":"levelo_inurba_marseille","lat":43.30908,"lon":5.36846,"is_reserved":false,"is_disabled":false,"rental_uris":{"android":"levelo://app?vid=0ae4c82d-7bf7-4f75-9cfc-82f2792f9ace","ios":"levelo://app?vid=0ae4c82d-7bf7-4f75-9cfc-82f2792f9ace"},"vehicle_type_id":"4","last_reported":1726146988,"current_range_meters":16000,"station_id":"ce4bgn92rcd13ifvqbvg","pricing_plan_id":"cebpf4jnsgd1na2vs0mg"},{"bike_id":"9e607323-5275-43d7-a6b2-94a0a325509b","system_id":"levelo_inurba_marseille","lat":43.27678,"lon":5.38872,"is_reserved":false,"is_disabled":false,"rental_uris":{"android":"levelo://app?vid=9e607323-5275-43d7-a6b2-94a0a325509b","ios":"levelo://app?vid=9e607323-5275-43d7-a6b2-94a0a325509b"},"vehicle_type_id":"4","last_reported":1726146988,"current_range_meters":21600,"station_id":"ce4bhi12rcd13ifvqfo0","pricing_plan_id":"cebpf4jnsgd1na2vs0mg"},{"bike_id":"7551d42d-8659-416d-896d-f767a7f37efa","system_id":"levelo_inurba_marseille","lat":43.24547,"lon":5.39521,"is_reserved":false,"is_disabled":false,"rental_uris":{"android":"levelo://app?vid=7551d42d-8659-416d-896d-f767a7f37efa","ios":"levelo://app?vid=7551d42d-8659-416d-896d-f767a7f37efa"},"vehicle_type_id":"4","last_reported":1726146988,"current_range_meters":37600,"station_id":"ce4bhlp2rcd13ifvqgjg","pricing_plan_id":"cebpf4jnsgd1na2vs0mg"},{"bike_id":"444b1a59-90e5-43e6-a4ec-19c22171c6f5","system_id":"levelo_inurba_marseille","lat":43.28727,"lon":5.37937,"is_reserved":false,"is_disabled":false,"rental_uris":{"android":"levelo://app?vid=444b1a59-90e5-43e6-a4ec-19c22171c6f5","ios":"levelo://app?vid=444b1a59-90e5-43e6-a4ec-19c22171c6f5"},"vehicle_type_id":"4","last_reported":1726146988,"current_range_meters":38800,"station_id":"ce4bh9p2rcd13ifvqec0","pricing_plan_id":"cebpf4jnsgd1na2vs0mg"},{"bike_id":"2a9275a5-5d7d-4a05-8399-ce4a4e40d403","system_id":"levelo_inurba_marseille","lat":43.31492,"lon":5.37305,"is_reserved":false,"is_disabled":false,"rental_uris":{"android":"levelo://app?vid=2a9275a5-5d7d-4a05-8399-ce4a4e40d403","ios":"levelo://app?vid=2a9275a5-5d7d-4a05-8399-ce4a4e40d403"},"vehicle_type_id":"4","last_reported":1726146988,"current_range_meters":2800,"station_id":"ce4bgt12rcd13ifvqcd0","pricing_plan_id":"cebpf4jnsgd1na2vs0mg"},{"bike_id":"accb2d6b-c07b-4c62-9cdf-3e82c02fb5c8","system_id":"levelo_inurba_marseille","lat":43.32545,"lon":5.41437,"is_reserved":false,"is_disabled":false,"rental_uris":{"android":"levelo://app?vid=accb2d6b-c07b-4c62-9cdf-3e82c02fb5c8","ios":"levelo://app?vid=accb2d6b-c07b-4c62-9cdf-3e82c02fb5c8"},"vehicle_type_id":"4","last_reported":1726146988,"current_range_meters":24400,"station_id":"ce4bhq12rcd13ifvqhhg","pricing_plan_id":"cebpf4jnsgd1na2vs0mg"},{"bike_id":"935541dc-0a07-42cf-80dd-37fbb8c795eb","system_id":"levelo_inurba_marseille","lat":43.31234,"lon":5.36855,"is_reserved":false,"is_disabled":false,"rental_uris":{"android":"levelo://app?vid=935541dc-0a07-42cf-80dd-37fbb8c795eb","ios":"levelo://app?vid=935541dc-0a07-42cf-80dd-37fbb8c795eb"},"vehicle_type_id":"4","last_reported":1726146988,"current_range_meters":33600,"station_id":"ce4bgl92rcd13ifvqbq0","pricing_plan_id":"cebpf4jnsgd1na2vs0mg"},{"bike_id":"2aad66d2-6ab9-40c3-9e5d-9c8252cb81ef","system_id":"levelo_inurba_marseille","lat":43.30389,"lon":5.4076,"is_reserved":false,"is_disabled":false,"rental_uris":{"android":"levelo://app?vid=2aad66d2-6ab9-40c3-9e5d-9c8252cb81ef","ios":"levelo://app?vid=2aad66d2-6ab9-40c3-9e5d-9c8252cb81ef"},"vehicle_type_id":"4","last_reported":1726146988,"current_range_meters":6800,"station_id":"","pricing_plan_id":"cebpf4jnsgd1na2vs0mg"},{"bike_id":"dc257456-5d47-403e-8156-50715631cd07","system_id":"levelo_inurba_marseille","lat":43.25502,"lon":5.37649,"is_reserved":false,"is_disabled":false,"rental_uris":{"android":"levelo://app?vid=dc257456-5d47-403e-8156-50715631cd07","ios":"levelo://app?vid=dc257456-5d47-403e-8156-50715631cd07"},"vehicle_type_id":"4","last_reported":1726146988,"current_range_meters":4400,"station_id":"ce4bhh12rcd13ifvqff0","pricing_plan_id":"cebpf4jnsgd1na2vs0mg"},{"bike_id":"3421d052-8e7b-4b13-896d-e772627d50ba","system_id":"levelo_inurba_marseille","lat":43.33775,"lon":5.3748,"is_reserved":false,"is_disabled":false,"rental_uris":{"android":"levelo://app?vid=3421d052-8e7b-4b13-896d-e772627d50ba","ios":"levelo://app?vid=3421d052-8e7b-4b13-896d-e772627d50ba"},"vehicle_type_id":"4","last_reported":1726146988,"current_range_meters":3600,"station_id":"","pricing_plan_id":"cebpf4jnsgd1na2vs0mg"},{"bike_id":"dbffc40a-ad29-4e86-8073-3c24ef7376f6","system_id":"levelo_inurba_marseille","lat":43.24074,"lon":5.3776,"is_reserved":false,"is_disabled":false,"rental_uris":{"android":"levelo://app?vid=dbffc40a-ad29-4e86-8073-3c24ef7376f6","ios":"levelo://app?vid=dbffc40a-ad29-4e86-8073-3c24ef7376f6"},"vehicle_type_id":"4","last_reported":1726146988,"current_range_meters":22000,"station_id":"ce4bhnp2rcd13ifvqgvg","pricing_plan_id":"cebpf4jnsgd1na2vs0mg"},{"bike_id":"c6910708-0b55-40ec-80d3-4675760528df","system_id":"levelo_inurba_marseille","lat":43.28158,"lon":5.42638,"is_reserved":false,"is_disabled":false,"rental_uris":{"android":"levelo://app?vid=c6910708-0b55-40ec-80d3-4675760528df","ios":"levelo://app?vid=c6910708-0b55-40ec-80d3-4675760528df"},"vehicle_type_id":"4","last_reported":1726146988,"current_range_meters":19600,"station_id":"ce4bhnh2rcd13ifvqgug","pricing_plan_id":"cebpf4jnsgd1na2vs0mg"},{"bike_id":"fda70a22-bd3a-4170-9aa8-bc25dc87be0d","system_id":"levelo_inurba_marseille","lat":43.29815,"lon":5.3821,"is_reserved":false,"is_disabled":false,"rental_uris":{"android":"levelo://app?vid=fda70a22-bd3a-4170-9aa8-bc25dc87be0d","ios":"levelo://app?vid=fda70a22-bd3a-4170-9aa8-bc25dc87be0d"},"vehicle_type_id":"4","last_reported":1726146988,"current_range_meters":28400,"station_id":"","pricing_plan_id":"cebpf4jnsgd1na2vs0mg"},{"bike_id":"2665568f-5c24-4523-9878-6df6164d3dbb","system_id":"levelo_inurba_marseille","lat":43.24081,"lon":5.37753,"is_reserved":false,"is_disabled":false,"rental_uris":{"android":"levelo://app?vid=2665568f-5c24-4523-9878-6df6164d3dbb","ios":"levelo://app?vid=2665568f-5c24-4523-9878-6df6164d3dbb"},"vehicle_type_id":"4","last_reported":1726146988,"current_range_meters":18800,"station_id":"ce4bhnp2rcd13ifvqgvg","pricing_plan_id":"cebpf4jnsgd1na2vs0mg"},{"bike_id":"f2f037b1-fc89-44bb-8ceb-e20adf67c2ad","system_id":"levelo_inurba_marseille","lat":43.28158,"lon":5.42639,"is_reserved":false,"is_disabled":false,"rental_uris":{"android":"levelo://app?vid=f2f037b1-fc89-44bb-8ceb-e20adf67c2ad","ios":"levelo://app?vid=f2f037b1-fc89-44bb-8ceb-e20adf67c2ad"},"vehicle_type_id":"4","last_reported":1726146988,"current_range_meters":14800,"station_id":"ce4bhnh2rcd13ifvqgug","pricing_plan_id":"cebpf4jnsgd1na2vs0mg"},{"bike_id":"0e3c080c-7af0-42a8-828a-82071e494a1d","system_id":"levelo_inurba_marseille","lat":43.29981,"lon":5.38486,"is_reserved":false,"is_disabled":false,"rental_uris":{"android":"levelo://app?vid=0e3c080c-7af0-42a8-828a-82071e494a1d","ios":"levelo://app?vid=0e3c080c-7af0-42a8-828a-82071e494a1d"},"vehicle_type_id":"4","last_reported":1726146988,"current_range_meters":36800,"station_id":"ce4bgj92rcd13ifvqbd0","pricing_plan_id":"cebpf4jnsgd1na2vs0mg"},{"bike_id":"35e327a1-1955-4d12-a070-7da01b3f8826","system_id":"levelo_inurba_marseille","lat":43.30909,"lon":5.36857,"is_reserved":false,"is_disabled":false,"rental_uris":{"android":"levelo://app?vid=35e327a1-1955-4d12-a070-7da01b3f8826","ios":"levelo://app?vid=35e327a1-1955-4d12-a070-7da01b3f8826"},"vehicle_type_id":"4","last_reported":1726146988,"current_range_meters":30800,"station_id":"ce4bgn92rcd13ifvqbvg","pricing_plan_id":"cebpf4jnsgd1na2vs0mg"},{"bike_id":"aa19fc99-f16a-4819-a418-d51a1a9bdec5","system_id":"levelo_inurba_marseille","lat":43.25504,"lon":5.37655,"is_reserved":false,"is_disabled":false,"rental_uris":{"android":"levelo://app?vid=aa19fc99-f16a-4819-a418-d51a1a9bdec5","ios":"levelo://app?vid=aa19fc99-f16a-4819-a418-d51a1a9bdec5"},"vehicle_type_id":"4","last_reported":1726146988,"current_range_meters":39200,"station_id":"ce4bhh12rcd13ifvqff0","pricing_plan_id":"cebpf4jnsgd1na2vs0mg"},{"bike_id":"12f3edb8-0ebe-43f1-827b-9bf773bd94be","system_id":"levelo_inurba_marseille","lat":43.3203,"lon":5.41568,"is_reserved":false,"is_disabled":false,"rental_uris":{"android":"levelo://app?vid=12f3edb8-0ebe-43f1-827b-9bf773bd94be","ios":"levelo://app?vid=12f3edb8-0ebe-43f1-827b-9bf773bd94be"},"vehicle_type_id":"4","last_reported":1726146988,"current_range_meters":38400,"station_id":"ce4bhq92rcd13ifvqhkg","pricing_plan_id":"cebpf4jnsgd1na2vs0mg"},{"bike_id":"04fe58d6-4409-4596-849d-49d219ae9538","system_id":"levelo_inurba_marseille","lat":43.24807,"lon":5.37453,"is_reserved":false,"is_disabled":false,"rental_uris":{"android":"levelo://app?vid=04fe58d6-4409-4596-849d-49d219ae9538","ios":"levelo://app?vid=04fe58d6-4409-4596-849d-49d219ae9538"},"vehicle_type_id":"4","last_reported":1726146988,"current_range_meters":4000,"station_id":"ce4bhgh2rcd13ifvqfb0","pricing_plan_id":"cebpf4jnsgd1na2vs0mg"},{"bike_id":"1604f26f-ad3a-4d75-a18e-68be36bbb951","system_id":"levelo_inurba_marseille","lat":43.28936,"lon":5.36401,"is_reserved":false,"is_disabled":false,"rental_uris":{"android":"levelo://app?vid=1604f26f-ad3a-4d75-a18e-68be36bbb951","ios":"levelo://app?vid=1604f26f-ad3a-4d75-a18e-68be36bbb951"},"vehicle_type_id":"4","last_reported":1726146988,"current_range_meters":28400,"station_id":"ce4bhc92rcd13ifvqetg","pricing_plan_id":"cebpf4jnsgd1na2vs0mg"},{"bike_id":"f0ab1e44-8ac5-4033-a7ac-b3e3da389903","system_id":"levelo_inurba_marseille","lat":43.27066,"lon":5.42273,"is_reserved":false,"is_disabled":false,"rental_uris":{"android":"levelo://app?vid=f0ab1e44-8ac5-4033-a7ac-b3e3da389903","ios":"levelo://app?vid=f0ab1e44-8ac5-4033-a7ac-b3e3da389903"},"vehicle_type_id":"4","last_reported":1726146988,"current_range_meters":38800,"station_id":"ce4bhk92rcd13ifvqgb0","pricing_plan_id":"cebpf4jnsgd1na2vs0mg"},{"bike_id":"915d4d7a-12e5-4ddb-a43a-5316cd281986","system_id":"levelo_inurba_marseille","lat":43.337444,"lon":5.374475,"is_reserved":false,"is_disabled":false,"rental_uris":{"android":"levelo://app?vid=915d4d7a-12e5-4ddb-a43a-5316cd281986","ios":"levelo://app?vid=915d4d7a-12e5-4ddb-a43a-5316cd281986"},"vehicle_type_id":"4","last_reported":1726146988,"current_range_meters":33600,"station_id":"","pricing_plan_id":"cebpf4jnsgd1na2vs0mg"},{"bike_id":"07472c68-717a-4c3e-8fb3-7db33a0de292","system_id":"levelo_inurba_marseille","lat":43.28419,"lon":5.34994,"is_reserved":false,"is_disabled":false,"rental_uris":{"android":"levelo://app?vid=07472c68-717a-4c3e-8fb3-7db33a0de292","ios":"levelo://app?vid=07472c68-717a-4c3e-8fb3-7db33a0de292"},"vehicle_type_id":"4","last_reported":1726146988,"current_range_meters":38800,"station_id":"ce4bhbh2rcd13ifvqepg","pricing_plan_id":"cebpf4jnsgd1na2vs0mg"},{"bike_id":"e07c9b3e-f7d2-4413-b94a-fa93be0c15b3","system_id":"levelo_inurba_marseille","lat":43.30544,"lon":5.3843,"is_reserved":false,"is_disabled":false,"rental_uris":{"android":"levelo://app?vid=e07c9b3e-f7d2-4413-b94a-fa93be0c15b3","ios":"levelo://app?vid=e07c9b3e-f7d2-4413-b94a-fa93be0c15b3"},"vehicle_type_id":"4","last_reported":1726146988,"current_range_meters":12800,"station_id":"ce4bgg92rcd13ifvqb30","pricing_plan_id":"cebpf4jnsgd1na2vs0mg"},{"bike_id":"84687087-684e-469f-92ea-cdc80226e0eb","system_id":"levelo_inurba_marseille","lat":43.29378,"lon":5.37842,"is_reserved":false,"is_disabled":false,"rental_uris":{"android":"levelo://app?vid=84687087-684e-469f-92ea-cdc80226e0eb","ios":"levelo://app?vid=84687087-684e-469f-92ea-cdc80226e0eb"},"vehicle_type_id":"4","last_reported":1726146988,"current_range_meters":17200,"station_id":"ce4bgjh2rcd13ifvqbf0","pricing_plan_id":"cebpf4jnsgd1na2vs0mg"},{"bike_id":"f436725f-afd9-41c1-99f1-be7189f34823","system_id":"levelo_inurba_marseille","lat":43.29733,"lon":5.37683,"is_reserved":false,"is_disabled":false,"rental_uris":{"android":"levelo://app?vid=f436725f-afd9-41c1-99f1-be7189f34823","ios":"levelo://app?vid=f436725f-afd9-41c1-99f1-be7189f34823"},"vehicle_type_id":"4","last_reported":1726146988,"current_range_meters":9600,"station_id":"ce4bgkh2rcd13ifvqbl0","pricing_plan_id":"cebpf4jnsgd1na2vs0mg"},{"bike_id":"db58cdfc-4c11-4d08-9795-51b78b37db20","system_id":"levelo_inurba_marseille","lat":43.30146,"lon":5.39865,"is_reserved":false,"is_disabled":false,"rental_uris":{"android":"levelo://app?vid=db58cdfc-4c11-4d08-9795-51b78b37db20","ios":"levelo://app?vid=db58cdfc-4c11-4d08-9795-51b78b37db20"},"vehicle_type_id":"4","last_reported":1726146988,"current_range_meters":26800,"station_id":"ce4bh0h2rcd13ifvqd40","pricing_plan_id":"cebpf4jnsgd1na2vs0mg"},{"bike_id":"0812723c-bd87-43d9-ba80-42e1368ee507","system_id":"levelo_inurba_marseille","lat":43.25937,"lon":5.409,"is_reserved":false,"is_disabled":false,"rental_uris":{"android":"levelo://app?vid=0812723c-bd87-43d9-ba80-42e1368ee507","ios":"levelo://app?vid=0812723c-bd87-43d9-ba80-42e1368ee507"},"vehicle_type_id":"4","last_reported":1726146988,"current_range_meters":25200,"station_id":"ce4bhm92rcd13ifvqglg","pricing_plan_id":"cebpf4jnsgd1na2vs0mg"},{"bike_id":"43f324fc-000b-4ca8-a7c3-f866285e436b","system_id":"levelo_inurba_marseille","lat":43.24073,"lon":5.37763,"is_reserved":false,"is_disabled":false,"rental_uris":{"android":"levelo://app?vid=43f324fc-000b-4ca8-a7c3-f866285e436b","ios":"levelo://app?vid=43f324fc-000b-4ca8-a7c3-f866285e436b"},"vehicle_type_id":"4","last_reported":1726146988,"current_range_meters":4400,"station_id":"ce4bhnp2rcd13ifvqgvg","pricing_plan_id":"cebpf4jnsgd1na2vs0mg"},{"bike_id":"77f4b5d0-9f37-4c8d-b6f5-5e74a6e0a18f","system_id":"levelo_inurba_marseille","lat":43.32485,"lon":5.3656,"is_reserved":false,"is_disabled":false,"rental_uris":{"android":"levelo://app?vid=77f4b5d0-9f37-4c8d-b6f5-5e74a6e0a18f","ios":"levelo://app?vid=77f4b5d0-9f37-4c8d-b6f5-5e74a6e0a18f"},"vehicle_type_id":"4","last_reported":1726146988,"current_range_meters":14400,"station_id":"ce4bhs12rcd13ifvqhvg","pricing_plan_id":"cebpf4jnsgd1na2vs0mg"},{"bike_id":"64b528f7-596e-4842-8f7a-56bcf72d3cb9","system_id":"levelo_inurba_marseille","lat":43.28859,"lon":5.35845,"is_reserved":false,"is_disabled":false,"rental_uris":{"android":"levelo://app?vid=64b528f7-596e-4842-8f7a-56bcf72d3cb9","ios":"levelo://app?vid=64b528f7-596e-4842-8f7a-56bcf72d3cb9"},"vehicle_type_id":"4","last_reported":1726146988,"current_range_meters":38800,"station_id":"ce4bhb12rcd13ifvqem0","pricing_plan_id":"cebpf4jnsgd1na2vs0mg"},{"bike_id":"cf537fb5-21f4-49dd-88c0-001baf6d9489","system_id":"levelo_inurba_marseille","lat":43.30545,"lon":5.36527,"is_reserved":false,"is_disabled":false,"rental_uris":{"android":"levelo://app?vid=cf537fb5-21f4-49dd-88c0-001baf6d9489","ios":"levelo://app?vid=cf537fb5-21f4-49dd-88c0-001baf6d9489"},"vehicle_type_id":"4","last_reported":1726146988,"current_range_meters":33600,"station_id":"ce4bgs12rcd13ifvqcag","pricing_plan_id":"cebpf4jnsgd1na2vs0mg"},{"bike_id":"ecf73010-b141-4236-811c-fe6f8f144efa","system_id":"levelo_inurba_marseille","lat":43.31498,"lon":5.37312,"is_reserved":false,"is_disabled":false,"rental_uris":{"android":"levelo://app?vid=ecf73010-b141-4236-811c-fe6f8f144efa","ios":"levelo://app?vid=ecf73010-b141-4236-811c-fe6f8f144efa"},"vehicle_type_id":"4","last_reported":1726146988,"current_range_meters":3600,"station_id":"ce4bgt12rcd13ifvqcd0","pricing_plan_id":"cebpf4jnsgd1na2vs0mg"},{"bike_id":"8e476c8b-4a0c-474a-884e-d68e4b8e3eca","system_id":"levelo_inurba_marseille","lat":43.32493,"lon":5.36561,"is_reserved":false,"is_disabled":false,"rental_uris":{"android":"levelo://app?vid=8e476c8b-4a0c-474a-884e-d68e4b8e3eca","ios":"levelo://app?vid=8e476c8b-4a0c-474a-884e-d68e4b8e3eca"},"vehicle_type_id":"4","last_reported":1726146988,"current_range_meters":14800,"station_id":"ce4bhs12rcd13ifvqhvg","pricing_plan_id":"cebpf4jnsgd1na2vs0mg"},{"bike_id":"d2d6102a-8092-4166-98be-8f0747906347","system_id":"levelo_inurba_marseille","lat":43.31236,"lon":5.36857,"is_reserved":false,"is_disabled":false,"rental_uris":{"android":"levelo://app?vid=d2d6102a-8092-4166-98be-8f0747906347","ios":"levelo://app?vid=d2d6102a-8092-4166-98be-8f0747906347"},"vehicle_type_id":"4","last_reported":1726146988,"current_range_meters":15200,"station_id":"ce4bgl92rcd13ifvqbq0","pricing_plan_id":"cebpf4jnsgd1na2vs0mg"},{"bike_id":"a4fc68e7-fa83-4bea-9d3c-144d106340f5","system_id":"levelo_inurba_marseille","lat":43.29024,"lon":5.38133,"is_reserved":false,"is_disabled":false,"rental_uris":{"android":"levelo://app?vid=a4fc68e7-fa83-4bea-9d3c-144d106340f5","ios":"levelo://app?vid=a4fc68e7-fa83-4bea-9d3c-144d106340f5"},"vehicle_type_id":"4","last_reported":1726146988,"current_range_meters":17600,"station_id":"ce4bh4p2rcd13ifvqe1g","pricing_plan_id":"cebpf4jnsgd1na2vs0mg"},{"bike_id":"f7383583-f6d9-4a1f-9651-744703bbb837","system_id":"levelo_inurba_marseille","lat":43.30801,"lon":5.43523,"is_reserved":false,"is_disabled":false,"rental_uris":{"android":"levelo://app?vid=f7383583-f6d9-4a1f-9651-744703bbb837","ios":"levelo://app?vid=f7383583-f6d9-4a1f-9651-744703bbb837"},"vehicle_type_id":"4","last_reported":1726146988,"current_range_meters":7200,"station_id":"ce4bhph2rcd13ifvqheg","pricing_plan_id":"cebpf4jnsgd1na2vs0mg"},{"bike_id":"eadd6469-1309-4c77-b811-34718ae1c75b","system_id":"levelo_inurba_marseille","lat":43.29901,"lon":5.38133,"is_reserved":false,"is_disabled":false,"rental_uris":{"android":"levelo://app?vid=eadd6469-1309-4c77-b811-34718ae1c75b","ios":"levelo://app?vid=eadd6469-1309-4c77-b811-34718ae1c75b"},"vehicle_type_id":"4","last_reported":1726146988,"current_range_meters":38000,"station_id":"ce4bgj12rcd13ifvqbc0","pricing_plan_id":"cebpf4jnsgd1na2vs0mg"},{"bike_id":"37c95c7a-f198-428d-ae5b-26db472543d0","system_id":"levelo_inurba_marseille","lat":43.24074,"lon":5.37755,"is_reserved":false,"is_disabled":false,"rental_uris":{"android":"levelo://app?vid=37c95c7a-f198-428d-ae5b-26db472543d0","ios":"levelo://app?vid=37c95c7a-f198-428d-ae5b-26db472543d0"},"vehicle_type_id":"4","last_reported":1726146988,"current_range_meters":22800,"station_id":"ce4bhnp2rcd13ifvqgvg","pricing_plan_id":"cebpf4jnsgd1na2vs0mg"},{"bike_id":"38c62449-fab3-4c09-8517-3de8b6001413","system_id":"levelo_inurba_marseille","lat":43.30934,"lon":5.40139,"is_reserved":false,"is_disabled":false,"rental_uris":{"android":"levelo://app?vid=38c62449-fab3-4c09-8517-3de8b6001413","ios":"levelo://app?vid=38c62449-fab3-4c09-8517-3de8b6001413"},"vehicle_type_id":"4","last_reported":1726146988,"current_range_meters":34000,"station_id":"ce4bgvp2rcd13ifvqct0","pricing_plan_id":"cebpf4jnsgd1na2vs0mg"},{"bike_id":"30760046-10fc-43a2-a8e1-cbf92416a68c","system_id":"levelo_inurba_marseille","lat":43.27215,"lon":5.39181,"is_reserved":false,"is_disabled":false,"rental_uris":{"android":"levelo://app?vid=30760046-10fc-43a2-a8e1-cbf92416a68c","ios":"levelo://app?vid=30760046-10fc-43a2-a8e1-cbf92416a68c"},"vehicle_type_id":"4","last_reported":1726146988,"current_range_meters":30400,"station_id":"ce4bhhp2rcd13ifvqfm0","pricing_plan_id":"cebpf4jnsgd1na2vs0mg"},{"bike_id":"2f6ea2ec-5ad7-4afe-911a-28046ca0bc56","system_id":"levelo_inurba_marseille","lat":43.29987,"lon":5.38487,"is_reserved":false,"is_disabled":false,"rental_uris":{"android":"levelo://app?vid=2f6ea2ec-5ad7-4afe-911a-28046ca0bc56","ios":"levelo://app?vid=2f6ea2ec-5ad7-4afe-911a-28046ca0bc56"},"vehicle_type_id":"4","last_reported":1726146988,"current_range_meters":31200,"station_id":"ce4bgj92rcd13ifvqbd0","pricing_plan_id":"cebpf4jnsgd1na2vs0mg"},{"bike_id":"d7558d08-bfba-441d-93de-ee7cca7eb86f","system_id":"levelo_inurba_marseille","lat":43.29878,"lon":5.37635,"is_reserved":false,"is_disabled":false,"rental_uris":{"android":"levelo://app?vid=d7558d08-bfba-441d-93de-ee7cca7eb86f","ios":"levelo://app?vid=d7558d08-bfba-441d-93de-ee7cca7eb86f"},"vehicle_type_id":"4","last_reported":1726146988,"current_range_meters":29600,"station_id":"","pricing_plan_id":"cebpf4jnsgd1na2vs0mg"},{"bike_id":"072a52ab-6ce9-476b-903d-4623c3ea4aa5","system_id":"levelo_inurba_marseille","lat":43.29008,"lon":5.3561,"is_reserved":false,"is_disabled":false,"rental_uris":{"android":"levelo://app?vid=072a52ab-6ce9-476b-903d-4623c3ea4aa5","ios":"levelo://app?vid=072a52ab-6ce9-476b-903d-4623c3ea4aa5"},"vehicle_type_id":"4","last_reported":1726146988,"current_range_meters":16400,"station_id":"ce4bhb92rcd13ifvqen0","pricing_plan_id":"cebpf4jnsgd1na2vs0mg"},{"bike_id":"1cf4b49b-0cc8-4e09-9515-1f626a4e313a","system_id":"levelo_inurba_marseille","lat":43.2669,"lon":5.38272,"is_reserved":false,"is_disabled":false,"rental_uris":{"android":"levelo://app?vid=1cf4b49b-0cc8-4e09-9515-1f626a4e313a","ios":"levelo://app?vid=1cf4b49b-0cc8-4e09-9515-1f626a4e313a"},"vehicle_type_id":"4","last_reported":1726146988,"current_range_meters":21600,"station_id":"ce4bhg92rcd13ifvqf90","pricing_plan_id":"cebpf4jnsgd1na2vs0mg"},{"bike_id":"f75e7898-fc4d-47b6-b4e9-bb02b29a1e0f","system_id":"levelo_inurba_marseille","lat":43.27672,"lon":5.38883,"is_reserved":false,"is_disabled":false,"rental_uris":{"android":"levelo://app?vid=f75e7898-fc4d-47b6-b4e9-bb02b29a1e0f","ios":"levelo://app?vid=f75e7898-fc4d-47b6-b4e9-bb02b29a1e0f"},"vehicle_type_id":"4","last_reported":1726146988,"current_range_meters":27200,"station_id":"ce4bhi12rcd13ifvqfo0","pricing_plan_id":"cebpf4jnsgd1na2vs0mg"},{"bike_id":"ca67b363-fb8e-4b7b-8058-52b7e75e6e73","system_id":"levelo_inurba_marseille","lat":43.30542,"lon":5.3654,"is_reserved":false,"is_disabled":false,"rental_uris":{"android":"levelo://app?vid=ca67b363-fb8e-4b7b-8058-52b7e75e6e73","ios":"levelo://app?vid=ca67b363-fb8e-4b7b-8058-52b7e75e6e73"},"vehicle_type_id":"4","last_reported":1726146988,"current_range_meters":38800,"station_id":"ce4bgs12rcd13ifvqcag","pricing_plan_id":"cebpf4jnsgd1na2vs0mg"},{"bike_id":"f4a94560-b74f-49e2-aaa1-40adb5c41a8d","system_id":"levelo_inurba_marseille","lat":43.3123,"lon":5.36844,"is_reserved":false,"is_disabled":false,"rental_uris":{"android":"levelo://app?vid=f4a94560-b74f-49e2-aaa1-40adb5c41a8d","ios":"levelo://app?vid=f4a94560-b74f-49e2-aaa1-40adb5c41a8d"},"vehicle_type_id":"4","last_reported":1726146988,"current_range_meters":26800,"station_id":"ce4bgl92rcd13ifvqbq0","pricing_plan_id":"cebpf4jnsgd1na2vs0mg"},{"bike_id":"af9421c8-e08e-45c9-9f79-72574fc04e9d","system_id":"levelo_inurba_marseille","lat":43.24173,"lon":5.36385,"is_reserved":false,"is_disabled":false,"rental_uris":{"android":"levelo://app?vid=af9421c8-e08e-45c9-9f79-72574fc04e9d","ios":"levelo://app?vid=af9421c8-e08e-45c9-9f79-72574fc04e9d"},"vehicle_type_id":"4","last_reported":1726146988,"current_range_meters":35600,"station_id":"cpo36qri1sfpv3e86is0","pricing_plan_id":"cebpf4jnsgd1na2vs0mg"},