{"last_updated":1738836582,"ttl":60,"version":"2.2","data":{"bikes":[{"bike_id":"9b310c92-efeb-4765-8a96-172429f0f07e","system_id":"levelo_inurba_marseille","lat":43.288468,"lon":5.358496,"is_reserved":false,"is_disabled":false,"rental_uris":{"android":"levelo://app?vid=9b310c92-efeb-4765-8a96-172429f0f07e","ios":"levelo://app?vid=9b310c92-efeb-4765-8a96-172429f0f07e"},"vehicle_type_id":"4","last_reported":1738836582,"current_range_meters":30800,"station_id":"ce4bhb12rcd13ifvqem0","pricing_plan_id":"cebpf4jnsgd1na2vs0mg"},{"bike_id":"c88a5332-299f-4c55-b376-657578c07d3a","system_id":"levelo_inurba_marseille","lat":43.25807,"lon":5.3943,"is_reserved":false,"is_disabled":false,"rental_uris":{"android":"levelo://app?vid=c88a5332-299f-4c55-b376-657578c07d3a","ios":"levelo://app?vid=c88a5332-299f-4c55-b376-657578c07d3a"},"vehicle_type_id":"4","last_reported":1738836582,"current_range_meters":32400,"station_id":"ce4bhip2rcd13ifvqft0","pricing_plan_id":"cebpf4jnsgd1na2vs0mg"},{"bike_id":"610fb8b2-ef24-429f-8026-ba3e2d414d35","system_id":"levelo_inurba_marseille","lat":43.33619,"lon":5.41018,"is_reserved":false,"is_disabled":false,"rental_uris":{"android":"levelo://app?vid=610fb8b2-ef24-429f-8026-ba3e2d414d35","ios":"levelo://app?vid=610fb8b2-ef24-429f-8026-ba3e2d414d35"},"vehicle_type_id":"4","last_reported":1738836582,"current_range_meters":39200,"station_id":"ce4bhqh2rcd13ifvqhmg","pricing_plan_id":"cebpf4jnsgd1na2vs0mg"},{"bike_id":"26ba1934-c8ef-48a9-980c-d71ca1604721","system_id":"levelo_inurba_marseille","lat":43.24643,"lon":5.38911,"is_reserved":false,"is_disabled":false,"rental_uris":{"android":"levelo://app?vid=26ba1934-c8ef-48a9-980c-d71ca1604721","ios":"levelo://app?vid=26ba1934-c8ef-48a9-980c-d71ca1604721"},"vehicle_type_id":"4","last_reported":1738836582,"current_range_meters":38800,"station_id":"ce4bhg12rcd13ifvqf60","pricing_plan_id":"cebpf4jnsgd1na2vs0mg"},{"bike_id":"7126e19a-268f-4c6e-a6a6-dc8c984c25e2","system_id":"levelo_inurba_marseille","lat":43.31364,"lon":5.38493,"is_reserved":false,"is_disabled":false,"rental_uris":{"android":"levelo://app?vid=7126e19a-268f-4c6e-a6a6-dc8c984c25e2","ios":"levelo://app?vid=7126e19a-268f-4c6e-a6a6-dc8c984c25e2"},"vehicle_type_id":"4","last_reported":1738836582,"current_range_meters":38000,"station_id":"ce4bgt92rcd13ifvqcf0","pricing_plan_id":"cebpf4jnsgd1na2vs0mg"},{"bike_id":"2d7f9513-ca4c-497c-b33a-44fa19bf5f1f","system_id":"levelo_inurba_marseille","lat":43.2971,"lon":5.37692,"is_reserved":false,"is_disabled":true,"rental_uris":{"android":"levelo://app?vid=2d7f9513-ca4c-497c-b33a-44fa19bf5f1f","ios":"levelo://app?vid=2d7f9513-ca4c-497c-b33a-44fa19bf5f1f"},"vehicle_type_id":"4","last_reported":1738836582,"current_range_meters":24800,"station_id":"ce4bgkh2rcd13ifvqbl0","pricing_plan_id":"cebpf4jnsgd1na2vs0mg"},{"bike_id":"2f1cf415-09de-41aa-895a-9eee8998baaf","system_id":"levelo_inurba_marseille","lat":43.2955,"lon":5.42293,"is_reserved":false,"is_disabled":false,"rental_uris":{"android":"levelo://app?vid=2f1cf415-09de-41aa-895a-9eee8998baaf","ios":"levelo://app?vid=2f1cf415-09de-41aa-895a-9eee8998baaf"},"vehicle_type_id":"4","last_reported":1738836582,"current_range_meters":39200,"station_id":"ce4bhph2rcd13ifvqhdg","pricing_plan_id":"cebpf4jnsgd1na2vs0mg"},{"bike_id":"d00cdb85-10d5-4b9c-90cf-8c66446d2f13","system_id":"levelo_inurba_marseille","lat":43.26826,"lon":5.39458,"is_reserved":false,"is_disabled":false,"rental_uris":{"android":"levelo://app?vid=d00cdb85-10d5-4b9c-90cf-8c66446d2f13","ios":"levelo://app?vid=d00cdb85-10d5-4b9c-90cf-8c66446d2f13"},"vehicle_type_id":"4","last_reported":1738836582,"current_range_meters":28000,"station_id":"ce4bhh12rcd13ifvqfg0","pricing_plan_id":"cebpf4jnsgd1na2vs0mg"},{"bike_id":"c9802735-5cab-49a6-9070-ee592ef68e90","system_id":"levelo_inurba_marseille","lat":43.26189,"lon":5.37457,"is_reserved":false,"is_disabled":false,"rental_uris":{"android":"levelo://app?vid=c9802735-5cab-49a6-9070-ee592ef68e90","ios":"levelo://app?vid=c9802735-5cab-49a6-9070-ee592ef68e90"},"vehicle_type_id":"4","last_reported":1738836582,"current_range_meters":35200,"station_id":"ce4bhgp2rcd13ifvqfc0","pricing_plan_id":"cebpf4jnsgd1na2vs0mg"},{"bike_id":"98fd826c-0bf1-4b38-a3d1-66676766ed4b","system_id":"levelo_inurba_marseille","lat":43.30556,"lon":5.36697,"is_reserved":false,"is_disabled":false,"rental_uris":{"android":"levelo://app?vid=98fd826c-0bf1-4b38-a3d1-66676766ed4b","ios":"levelo://app?vid=98fd826c-0bf1-4b38-a3d1-66676766ed4b"},"vehicle_type_id":"4","last_reported":1738836582,"current_range_meters":39200,"station_id":"ce4bgrp2rcd13ifvqc9g","pricing_plan_id":"cebpf4jnsgd1na2vs0mg"},{"bike_id":"60efba71-1f79-4331-8e03-d1cbb62a05fd","system_id":"levelo_inurba_marseille","lat":43.23187,"lon":5.3999,"is_reserved":false,"is_disabled":false,"rental_uris":{"android":"levelo://app?vid=60efba71-1f79-4331-8e03-d1cbb62a05fd","ios":"levelo://app?vid=60efba71-1f79-4331-8e03-d1cbb62a05fd"},"vehicle_type_id":"4","last_reported":1738836582,"current_range_meters":17600,"station_id":"ce4bhn12rcd13ifvqgqg","pricing_plan_id":"cebpf4jnsgd1na2vs0mg"},{"bike_id":"7d34c48a-7d5c-4fdb-b436-254657a5812d","system_id":"levelo_inurba_marseille","lat":43.30459,"lon":5.37922,"is_reserved":false,"is_disabled":false,"rental_uris":{"android":"levelo://app?vid=7d34c48a-7d5c-4fdb-b436-254657a5812d","ios":"levelo://app?vid=7d34c48a-7d5c-4fdb-b436-254657a5812d"},"vehicle_type_id":"4","last_reported":1738836582,"current_range_meters":37600,"station_id":"ce4bgup2rcd13ifvqcn0","pricing_plan_id":"cebpf4jnsgd1na2vs0mg"},{"bike_id":"fb7368e7-7db7-49e7-89a5-c245eb9a751a","system_id":"levelo_inurba_marseille","lat":43.29442,"lon":5.39746,"is_reserved":false,"is_disabled":false,"rental_uris":{"android":"levelo://app?vid=fb7368e7-7db7-49e7-89a5-c245eb9a751a","ios":"levelo://app?vid=fb7368e7-7db7-49e7-89a5-c245eb9a751a"},"vehicle_type_id":"4","last_reported":1738836582,"current_range_meters":26800,"station_id":"ce4bh3h2rcd13ifvqdo0","pricing_plan_id":"cebpf4jnsgd1na2vs0mg"},{"bike_id":"8bc49065-c8ba-4d53-ac8e-4d9031cc8605","system_id":"levelo_inurba_marseille","lat":43.29977,"lon":5.38478,"is_reserved":false,"is_disabled":true,"rental_uris":{"android":"levelo://app?vid=8bc49065-c8ba-4d53-ac8e-4d9031cc8605","ios":"levelo://app?vid=8bc49065-c8ba-4d53-ac8e-4d9031cc8605"},"vehicle_type_id":"4","last_reported":1738836582,"current_range_meters":0,"station_id":"ce4bgj92rcd13ifvqbd0","pricing_plan_id":"cebpf4jnsgd1na2vs0mg"},{"bike_id":"651d1907-1f17-497d-8669-68618f6db364","system_id":"levelo_inurba_marseille","lat":43.30415,"lon":5.41283,"is_reserved":false,"is_disabled":false,"rental_uris":{"android":"levelo://app?vid=651d1907-1f17-497d-8669-68618f6db364","ios":"levelo://app?vid=651d1907-1f17-497d-8669-68618f6db364"},"vehicle_type_id":"4","last_reported":1738836582,"current_range_meters":25600,"station_id":"ce4bhop2rcd13ifvqh8g","pricing_plan_id":"cebpf4jnsgd1na2vs0mg"},{"bike_id":"0234c022-ea73-42b4-bca4-cd8130ac0dc5","system_id":"levelo_inurba_marseille","lat":43.29796,"lon":5.38094,"is_reserved":false,"is_disabled":false,"rental_uris":{"android":"levelo://app?vid=0234c022-ea73-42b4-bca4-cd8130ac0dc5","ios":"levelo://app?vid=0234c022-ea73-42b4-bca4-cd8130ac0dc5"},"vehicle_type_id":"4","last_reported":1738836582,"current_range_meters":35200,"station_id":"ce4bgip2rcd13ifvqbb0","pricing_plan_id":"cebpf4jnsgd1na2vs0mg"},{"bike_id":"48387a09-94e7-4db4-8a78-34cf00f146fa","system_id":"levelo_inurba_marseille","lat":43.29546,"lon":5.42291,"is_reserved":false,"is_disabled":false,"rental_uris":{"android":"levelo://app?vid=48387a09-94e7-4db4-8a78-34cf00f146fa","ios":"levelo://app?vid=48387a09-94e7-4db4-8a78-34cf00f146fa"},"vehicle_type_id":"4","last_reported":1738836582,"current_range_meters":24400,"station_id":"ce4bhph2rcd13ifvqhdg","pricing_plan_id":"cebpf4jnsgd1na2vs0mg"},{"bike_id":"2e2103ea-1862-4a7c-aebb-70a8bcb44f35","system_id":"levelo_inurba_marseille","lat":43.30523,"lon":5.36731,"is_reserved":false,"is_disabled":false,"rental_uris":{"android":"levelo://app?vid=2e2103ea-1862-4a7c-aebb-70a8bcb44f35","ios":"levelo://app?vid=2e2103ea-1862-4a7c-aebb-70a8bcb44f35"},"vehicle_type_id":"4","last_reported":1738836582,"current_range_meters":28400,"station_id":"ce4bgrp2rcd13ifvqc9g","pricing_plan_id":"cebpf4jnsgd1na2vs0mg"},{"bike_id":"93436f32-c9ca-48fd-adf7-e627183ce3b5","system_id":"levelo_inurba_marseille","lat":43.28712,"lon":5.37971,"is_reserved":false,"is_disabled":true,"rental_uris":{"android":"levelo://app?vid=93436f32-c9ca-48fd-adf7-e627183ce3b5","ios":"levelo://app?vid=93436f32-c9ca-48fd-adf7-e627183ce3b5"},"vehicle_type_id":"4","last_reported":1738836582,"current_range_meters":36000,"station_id":"ce4bh9p2rcd13ifvqec0","pricing_plan_id":"cebpf4jnsgd1na2vs0mg"},{"bike_id":"32a3de1f-6f8f-47a1-9b3a-e5fb0dbaf5d3","system_id":"levelo_inurba_marseille","lat":43.28342,"lon":5.38108,"is_reserved":false,"is_disabled":false,"rental_uris":{"android":"levelo://app?vid=32a3de1f-6f8f-47a1-9b3a-e5fb0dbaf5d3","ios":"levelo://app?vid=32a3de1f-6f8f-47a1-9b3a-e5fb0dbaf5d3"},"vehicle_type_id":"4","last_reported":1738836582,"current_range_meters":38800,"station_id":"ce4bh412rcd13ifvqdr0","pricing_plan_id":"cebpf4jnsgd1na2vs0mg"},{"bike_id":"fa041172-745c-49ed-942f-eb70fbb1f908","system_id":"levelo_inurba_marseille","lat":43.25823,"lon":5.3945,"is_reserved":false,"is_disabled":false,"rental_uris":{"android":"levelo://app?vid=fa041172-745c-49ed-942f-eb70fbb1f908","ios":"levelo://app?vid=fa041172-745c-49ed-942f-eb70fbb1f908"},"vehicle_type_id":"4","last_reported":1738836582,"current_range_meters":16000,"station_id":"ce4bhip2rcd13ifvqft0","pricing_plan_id":"cebpf4jnsgd1na2vs0mg"},{"bike_id":"48c3441c-11db-44cf-b627-fa15456f0152","system_id":"levelo_inurba_marseille","lat":43.34153,"lon":5.40899,"is_reserved":false,"is_disabled":false,"rental_uris":{"android":"levelo://app?vid=48c3441c-11db-44cf-b627-fa15456f0152","ios":"levelo://app?vid=48c3441c-11db-44cf-b627-fa15456f0152"},"vehicle_type_id":"4","last_reported":1738836582,"current_range_meters":30000,"station_id":"ce4bhqh2rcd13ifvqhlg","pricing_plan_id":"cebpf4jnsgd1na2vs0mg"},{"bike_id":"aea6637b-74e1-408e-84ce-4461d165a1d7","system_id":"levelo_inurba_marseille","lat":43.30283,"lon":5.37714,"is_reserved":false,"is_disabled":false,"rental_uris":{"android":"levelo://app?vid=aea6637b-74e1-408e-84ce-4461d165a1d7","ios":"levelo://app?vid=aea6637b-74e1-408e-84ce-4461d165a1d7"},"vehicle_type_id":"4","last_reported":1738836582,"current_range_meters":32000,"station_id":"ce4bguh2rcd13ifvqcj0","pricing_plan_id":"cebpf4jnsgd1na2vs0mg"},{"bike_id":"dabda0f4-b7bc-4081-811a-b8b88e9d50be","system_id":"levelo_inurba_marseille","lat":43.26197,"lon":5.37448,"is_reserved":false,"is_disabled":false,"rental_uris":{"android":"levelo://app?vid=dabda0f4-b7bc-4081-811a-b8b88e9d50be","ios":"levelo://app?vid=dabda0f4-b7bc-4081-811a-b8b88e9d50be"},"vehicle_type_id":"4","last_reported":1738836582,"current_range_meters":38800,"station_id":"ce4bhgp2rcd13ifvqfc0","pricing_plan_id":"cebpf4jnsgd1na2vs0mg"},{"bike_id":"7eaacd34-10f9-4246-8aa1-4a22e07a7c06","system_id":"levelo_inurba_marseille","lat":43.3162,"lon":5.37399,"is_reserved":false,"is_disabled":false,"rental_uris":{"android":"levelo://app?vid=7eaacd34-10f9-4246-8aa1-4a22e07a7c06","ios":"levelo://app?vid=7eaacd34-10f9-4246-8aa1-4a22e07a7c06"},"vehicle_type_id":"4","last_reported":1738836582,"current_range_meters":23200,"station_id":"","pricing_plan_id":"cebpf4jnsgd1na2vs0mg"},{"bike_id":"b85d0f36-4ceb-47ae-b932-72d8372ef081","system_id":"levelo_inurba_marseille","lat":43.2319,"lon":5.39993,"is_reserved":false,"is_disabled":false,"rental_uris":{"android":"levelo://app?vid=b85d0f36-4ceb-47ae-b932-72d8372ef081","ios":"levelo://app?vid=b85d0f36-4ceb-47ae-b932-72d8372ef081"},"vehicle_type_id":"4","last_reported":1738836582,"current_range_meters":38000,"station_id":"ce4bhn12rcd13ifvqgqg","pricing_plan_id":"cebpf4jnsgd1na2vs0mg"},{"bike_id":"c4e55077-4eb0-47e2-a96e-7f002bcfe838","system_id":"levelo_inurba_marseille","lat":43.32477,"lon":5.36571,"is_reserved":false,"is_disabled":false,"rental_uris":{"android":"levelo://app?vid=c4e55077-4eb0-47e2-a96e-7f002bcfe838","ios":"levelo://app?vid=c4e55077-4eb0-47e2-a96e-7f002bcfe838"},"vehicle_type_id":"4","last_reported":1738836582,"current_range_meters":32400,"station_id":"ce4bhs12rcd13ifvqhvg","pricing_plan_id":"cebpf4jnsgd1na2vs0mg"},{"bike_id":"19cfb078-9854-4658-91b7-e1746e55420c","system_id":"levelo_inurba_marseille","lat":43.31539,"lon":5.38022,"is_reserved":false,"is_disabled":false,"rental_uris":{"android":"levelo://app?vid=19cfb078-9854-4658-91b7-e1746e55420c","ios":"levelo://app?vid=19cfb078-9854-4658-91b7-e1746e55420c"},"vehicle_type_id":"4","last_reported":1738836582,"current_range_meters":38800,"station_id":"ce4bhsp2rcd13ifvqi50","pricing_plan_id":"cebpf4jnsgd1na2vs0mg"},{"bike_id":"bf30465c-5d09-47ab-ba56-6e7954972992","system_id":"levelo_inurba_marseille","lat":43.290433,"lon":5.359028,"is_reserved":false,"is_disabled":false,"rental_uris":{"android":"levelo://app?vid=bf30465c-5d09-47ab-ba56-6e7954972992","ios":"levelo://app?vid=bf30465c-5d09-47ab-ba56-6e7954972992"},"vehicle_type_id":"4","last_reported":1738836582,"current_range_meters":31200,"station_id":"ce4bha92rcd13ifvqeg0","pricing_plan_id":"cebpf4jnsgd1na2vs0mg"},{"bike_id":"c87f8282-3539-4b73-a4e4-ca920fa0becd","system_id":"levelo_inurba_marseille","lat":43.30911,"lon":5.36828,"is_reserved":false,"is_disabled":true,"rental_uris":{"android":"levelo://app?vid=c87f8282-3539-4b73-a4e4-ca920fa0becd","ios":"levelo://app?vid=c87f8282-3539-4b73-a4e4-ca920fa0becd"},"vehicle_type_id":"4","last_reported":1738836582,"current_range_meters":0,"station_id":"ce4bgn92rcd13ifvqbvg","pricing_plan_id":"cebpf4jnsgd1na2vs0mg"},{"bike_id":"67f65001-8aae-43ad-afd9-b019b58f07f4","system_id":"levelo_inurba_marseille","lat":43.28936,"lon":5.39636,"is_reserved":false,"is_disabled":false,"rental_uris":{"android":"levelo://app?vid=67f65001-8aae-43ad-afd9-b019b58f07f4","ios":"levelo://app?vid=67f65001-8aae-43ad-afd9-b019b58f07f4"},"vehicle_type_id":"4","last_reported":1738836582,"current_range_meters":30400,"station_id":"ce4bh3h2rcd13ifvqdn0","pricing_plan_id":"cebpf4jnsgd1na2vs0mg"},{"bike_id":"b7eb1d29-c5ee-4080-8f84-5619ceb2add1","system_id":"levelo_inurba_marseille","lat":43.31389,"lon":5.36734,"is_reserved":false,"is_disabled":false,"rental_uris":{"android":"levelo://app?vid=b7eb1d29-c5ee-4080-8f84-5619ceb2add1","ios":"levelo://app?vid=b7eb1d29-c5ee-4080-8f84-5619ceb2add1"},"vehicle_type_id":"4","last_reported":1738836582,"current_range_meters":37600,"station_id":"","pricing_plan_id":"cebpf4jnsgd1na2vs0mg"},{"bike_id":"a6ba5ef6-5b99-47d9-acea-ad62a4cd0a59","system_id":"levelo_inurba_marseille","lat":43.265541,"lon":5.392203,"is_reserved":false,"is_disabled":false,"rental_uris":{"android":"levelo://app?vid=a6ba5ef6-5b99-47d9-acea-ad62a4cd0a59","ios":"levelo://app?vid=a6ba5ef6-5b99-47d9-acea-ad62a4cd0a59"},"vehicle_type_id":"4","last_reported":1738836582,"current_range_meters":35600,"station_id":"","pricing_plan_id":"cebpf4jnsgd1na2vs0mg"},{"bike_id":"a1a7079b-68b5-45ca-9af8-b6bc9f7cd559","system_id":"levelo_inurba_marseille","lat":43.2294,"lon":5.35376,"is_reserved":false,"is_disabled":false,"rental_uris":{"android":"levelo://app?vid=a1a7079b-68b5-45ca-9af8-b6bc9f7cd559","ios":"levelo://app?vid=a1a7079b-68b5-45ca-9af8-b6bc9f7cd559"},"vehicle_type_id":"4","last_reported":1738836582,"current_range_meters":38800,"station_id":"cpo3532slgdg3j2ikp40","pricing_plan_id":"cebpf4jnsgd1na2vs0mg"},{"bike_id":"00418135-3262-4cc3-adbc-fc08b9876df7","system_id":"levelo_inurba_marseille","lat":43.29258,"lon":5.38451,"is_reserved":false,"is_disabled":false,"rental_uris":{"android":"levelo://app?vid=00418135-3262-4cc3-adbc-fc08b9876df7","ios":"levelo://app?vid=00418135-3262-4cc3-adbc-fc08b9876df7"},"vehicle_type_id":"4","last_reported":1738836582,"current_range_meters":29600,"station_id":"ce4bh692rcd13ifvqea0","pricing_plan_id":"cebpf4jnsgd1na2vs0mg"},{"bike_id":"b3e15123-f412-47a1-bf1f-9c73196cafab","system_id":"levelo_inurba_marseille","lat":43.25839,"lon":5.39443,"is_reserved":false,"is_disabled":false,"rental_uris":{"android":"levelo://app?vid=b3e15123-f412-47a1-bf1f-9c73196cafab","ios":"levelo://app?vid=b3e15123-f412-47a1-bf1f-9c73196cafab"},"vehicle_type_id":"4","last_reported":1738836582,"current_range_meters":38800,"station_id":"ce4bhip2rcd13ifvqft0","pricing_plan_id":"cebpf4jnsgd1na2vs0mg"},{"bike_id":"99e6c8e3-5c86-415c-b3f7-c87c1418cb77","system_id":"levelo_inurba_marseille","lat":43.30469,"lon":5.37918,"is_reserved":false,"is_disabled":false,"rental_uris":{"android":"levelo://app?vid=99e6c8e3-5c86-415c-b3f7-c87c1418cb77","ios":"levelo://app?vid=99e6c8e3-5c86-415c-b3f7-c87c1418cb77"},"vehicle_type_id":"4","last_reported":1738836582,"current_range_meters":39200,"station_id":"ce4bgup2rcd13ifvqcn0","pricing_plan_id":"cebpf4jnsgd1na2vs0mg"},{"bike_id":"99bf38b1-b513-4e7d-815a-922ec24f68c3","system_id":"levelo_inurba_marseille","lat":43.2749,"lon":5.42457,"is_reserved":false,"is_disabled":false,"rental_uris":{"android":"levelo://app?vid=99bf38b1-b513-4e7d-815a-922ec24f68c3","ios":"levelo://app?vid=99bf38b1-b513-4e7d-815a-922ec24f68c3"},"vehicle_type_id":"4","last_reported":1738836582,"current_range_meters":34800,"station_id":"ce4bhn92rcd13ifvqgrg","pricing_plan_id":"cebpf4jnsgd1na2vs0mg"},{"bike_id":"08e42cd3-6257-4ea4-839f-08272f21e059","system_id":"levelo_inurba_marseille","lat":43.29026,"lon":5.37596,"is_reserved":false,"is_disabled":false,"rental_uris":{"android":"levelo://app?vid=08e42cd3-6257-4ea4-839f-08272f21e059","ios":"levelo://app?vid=08e42cd3-6257-4ea4-839f-08272f21e059"},"vehicle_type_id":"4","last_reported":1738836582,"current_range_meters":38800,"station_id":"ce4bh692rcd13ifvqe90","pricing_plan_id":"cebpf4jnsgd1na2vs0mg"},{"bike_id":"b0b70dbd-bdde-4326-96ee-f00c6aa1d2d8","system_id":"levelo_inurba_marseille","lat":43.33623,"lon":5.40983,"is_reserved":false,"is_disabled":false,"rental_uris":{"android":"levelo://app?vid=b0b70dbd-bdde-4326-96ee-f00c6aa1d2d8","ios":"levelo://app?vid=b0b70dbd-bdde-4326-96ee-f00c6aa1d2d8"},"vehicle_type_id":"4","last_reported":1738836582,"current_range_meters":25200,"station_id":"ce4bhqh2rcd13ifvqhmg","pricing_plan_id":"cebpf4jnsgd1na2vs0mg"},{"bike_id":"f423adf0-93aa-4c47-9d8a-b1e2e7e85005","system_id":"levelo_inurba_marseille","lat":43.28418,"lon":5.35014,"is_reserved":false,"is_disabled":true,"rental_uris":{"android":"levelo://app?vid=f423adf0-93aa-4c47-9d8a-b1e2e7e85005","ios":"levelo://app?vid=f423adf0-93aa-4c47-9d8a-b1e2e7e85005"},"vehicle_type_id":"4","last_reported":1738836582,"current_range_meters":8000,"station_id":"ce4bhbh2rcd13ifvqepg","pricing_plan_id":"cebpf4jnsgd1na2vs0mg"},{"bike_id":"eda4d722-bdb9-4040-a223-1024d7f41486","system_id":"levelo_inurba_marseille","lat":43.30539,"lon":5.36712,"is_reserved":false,"is_disabled":false,"rental_uris":{"android":"levelo://app?vid=eda4d722-bdb9-4040-a223-1024d7f41486","ios":"levelo://app?vid=eda4d722-bdb9-4040-a223-1024d7f41486"},"vehicle_type_id":"4","last_reported":1738836582,"current_range_meters":32000,"station_id":"ce4bgrp2rcd13ifvqc9g","pricing_plan_id":"cebpf4jnsgd1na2vs0mg"},{"bike_id":"fd4ca64f-5029-4b0d-ab92-66a16027c08b","system_id":"levelo_inurba_marseille","lat":43.28372,"lon":5.38616,"is_reserved":false,"is_disabled":false,"rental_uris":{"android":"levelo://app?vid=fd4ca64f-5029-4b0d-ab92-66a16027c08b","ios":"levelo://app?vid=fd4ca64f-5029-4b0d-ab92-66a16027c08b"},"vehicle_type_id":"4","last_reported":1738836582,"current_range_meters":23200,"station_id":"ce4bh492rcd13ifvqdvg","pricing_plan_id":"cebpf4jnsgd1na2vs0mg"},{"bike_id":"7878e9ce-4697-486f-9371-500fdf9b9d86","system_id":"levelo_inurba_marseille","lat":43.30405,"lon":5.41306,"is_reserved":false,"is_disabled":false,"rental_uris":{"android":"levelo://app?vid=7878e9ce-4697-486f-9371-500fdf9b9d86","ios":"levelo://app?vid=7878e9ce-4697-486f-9371-500fdf9b9d86"},"vehicle_type_id":"4","last_reported":1738836582,"current_range_meters":39200,"station_id":"ce4bhop2rcd13ifvqh8g","pricing_plan_id":"cebpf4jnsgd1na2vs0mg"},{"bike_id":"952afd09-03d4-4848-8861-01247835edfd","system_id":"levelo_inurba_marseille","lat":43.25929,"lon":5.40918,"is_reserved":false,"is_disabled":false,"rental_uris":{"android":"levelo://app?vid=952afd09-03d4-4848-8861-01247835edfd","ios":"levelo://app?vid=952afd09-03d4-4848-8861-01247835edfd"},"vehicle_type_id":"4","last_reported":1738836582,"current_range_meters":17200,"station_id":"ce4bhm92rcd13ifvqglg","pricing_plan_id":"cebpf4jnsgd1na2vs0mg"},{"bike_id":"76c3a5ce-1f74-4aac-866f-387e1b5ddfc0","system_id":"levelo_inurba_marseille","lat":43.24171,"lon":5.39729,"is_reserved":false,"is_disabled":false,"rental_uris":{"android":"levelo://app?vid=76c3a5ce-1f74-4aac-866f-387e1b5ddfc0","ios":"levelo://app?vid=76c3a5ce-1f74-4aac-866f-387e1b5ddfc0"},"vehicle_type_id":"4","last_reported":1738836582,"current_range_meters":18000,"station_id":"ce4bhn12rcd13ifvqgpg","pricing_plan_id":"cebpf4jnsgd1na2vs0mg"},{"bike_id":"859537e0-4cf9-4ee3-8f90-de5b287589dd","system_id":"levelo_inurba_marseille","lat":43.3095,"lon":5.36827,"is_reserved":false,"is_disabled":false,"rental_uris":{"android":"levelo://app?vid=859537e0-4cf9-4ee3-8f90-de5b287589dd","ios":"levelo://app?vid=859537e0-4cf9-4ee3-8f90-de5b287589dd"},"vehicle_type_id":"4","last_reported":1738836582,"current_range_meters":36800,"station_id":"ce4bgn92rcd13ifvqbvg","pricing_plan_id":"cebpf4jnsgd1na2vs0mg"},{"bike_id":"6bba36c7-75a6-4b1b-96cb-c03d219a6faa","system_id":"levelo_inurba_marseille","lat":43.3302,"lon":5.39097,"is_reserved":false,"is_disabled":false,"rental_uris":{"android":"levelo://app?vid=6bba36c7-75a6-4b1b-96cb-c03d219a6faa","ios":"levelo://app?vid=6bba36c7-75a6-4b1b-96cb-c03d219a6faa"},"vehicle_type_id":"4","last_reported":1738836582,"current_range_meters":34000,"station_id":"ce4bhr92rcd13ifvqhrg","pricing_plan_id":"cebpf4jnsgd1na2vs0mg"},{"bike_id":"5d7c6c97-aff2-4c71-9f05-bfda8fc965f5","system_id":"levelo_inurba_marseille","lat":43.29014,"lon":5.38122,"is_reserved":false,"is_disabled":false,"rental_uris":{"android":"levelo://app?vid=5d7c6c97-aff2-4c71-9f05-bfda8fc965f5","ios":"levelo://app?vid=5d7c6c97-aff2-4c71-9f05-bfda8fc965f5"},"vehicle_type_id":"4","last_reported":1738836582,"current_range_meters":30400,"station_id":"ce4bh4p2rcd13ifvqe1g","pricing_plan_id":"cebpf4jnsgd1na2vs0mg"},{"bike_id":"b4be2f42-ed53-40cd-8dfb-1555eefa95be","system_id":"levelo_inurba_marseille","lat":43.2942,"lon":5.3862,"is_reserved":false,"is_disabled":false,"rental_uris":{"android":"levelo://app?vid=b4be2f42-ed53-40cd-8dfb-1555eefa95be","ios":"levelo://app?vid=b4be2f42-ed53-40cd-8dfb-1555eefa95be"},"vehicle_type_id":"4","last_reported":1738836582,"current_range_meters":16000,"station_id":"ce4bh2h2rcd13ifvqdh0","pricing_plan_id":"cebpf4jnsgd1na2vs0mg"},{"bike_id":"5786637f-7aa3-4c94-860d-27f2b053d260","system_id":"levelo_inurba_marseille","lat":43.2769,"lon":5.3894,"is_reserved":false,"is_disabled":false,"rental_uris":{"android":"levelo://app?vid=5786637f-7aa3-4c94-860d-27f2b053d260","ios":"levelo://app?vid=5786637f-7aa3-4c94-860d-27f2b053d260"},"vehicle_type_id":"4","last_reported":1738836582,"current_range_meters":30400,"station_id":"ce4bhi12rcd13ifvqfo0","pricing_plan_id":"cebpf4jnsgd1na2vs0mg"},{"bike_id":"10e50f59-c87a-42f4-8fbb-d01f7149660f","system_id":"levelo_inurba_marseille","lat":43.30945,"lon":5.39039,"is_reserved":false,"is_disabled":false,"rental_uris":{"android":"levelo://app?vid=10e50f59-c87a-42f4-8fbb-d01f7149660f","ios":"levelo://app?vid=10e50f59-c87a-42f4-8fbb-d01f7149660f"},"vehicle_type_id":"4","last_reported":1738836582,"current_range_meters":22800,"station_id":"ce4bgup2rcd13ifvqco0","pricing_plan_id":"cebpf4jnsgd1na2vs0mg"},{"bike_id":"eb9df0e4-3834-43c6-b16a-e9ef33801258","system_id":"levelo_inurba_marseille","lat":43.29459,"lon":5.39741,"is_reserved":false,"is_disabled":true,"rental_uris":{"android":"levelo://app?vid=eb9df0e4-3834-43c6-b16a-e9ef33801258","ios":"levelo://app?vid=eb9df0e4-3834-43c6-b16a-e9ef33801258"},"vehicle_type_id":"4","last_reported":1738836582,"current_range_meters":400,"station_id":"ce4bh3h2rcd13ifvqdo0","pricing_plan_id":"cebpf4jnsgd1na2vs0mg"},{"bike_id":"2e8e8620-e82e-4444-a8cb-51177d5eef4b","system_id":"levelo_inurba_marseille","lat":43.33021,"lon":5.39042,"is_reserved":false,"is_disabled":false,"rental_uris":{"android":"levelo://app?vid=2e8e8620-e82e-4444-a8cb-51177d5eef4b","ios":"levelo://app?vid=2e8e8620-e82e-4444-a8cb-51177d5eef4b"},"vehicle_type_id":"4","last_reported":1738836582,"current_range_meters":26000,"station_id":"ce4bhr92rcd13ifvqhrg","pricing_plan_id":"cebpf4jnsgd1na2vs0mg"},{"bike_id":"f19511f1-492b-4fbf-b08a-45fc470a2f76","system_id":"levelo_inurba_marseille","lat":43.29438,"lon":5.39745,"is_reserved":false,"is_disabled":false,"rental_uris":{"android":"levelo://app?vid=f19511f1-492b-4fbf-b08a-45fc470a2f76","ios":"levelo://app?vid=f19511f1-492b-4fbf-b08a-45fc470a2f76"},"vehicle_type_id":"4","last_reported":1738836582,"current_range_meters":26000,"station_id":"ce4bh3h2rcd13ifvqdo0","pricing_plan_id":"cebpf4jnsgd1na2vs0mg"},{"bike_id":"7f657d43-65c7-468d-ad0e-f606466b52ae","system_id":"levelo_inurba_marseille","lat":43.3248,"lon":5.36568,"is_reserved":false,"is_disabled":false,"rental_uris":{"android":"levelo://app?vid=7f657d43-65c7-468d-ad0e-f606466b52ae","ios":"levelo://app?vid=7f657d43-65c7-468d-ad0e-f606466b52ae"},"vehicle_type_id":"4","last_reported":1738836582,"current_range_meters":14400,"station_id":"ce4bhs12rcd13ifvqhvg","pricing_plan_id":"cebpf4jnsgd1na2vs0mg"},{"bike_id":"16c1be9c-1971-4f3d-8853-7ff4f70c87d3","system_id":"levelo_inurba_marseille","lat":43.28128,"lon":5.42638,"is_reserved":false,"is_disabled":false,"rental_uris":{"android":"levelo://app?vid=16c1be9c-1971-4f3d-8853-7ff4f70c87d3","ios":"levelo://app?vid=16c1be9c-1971-4f3d-8853-7ff4f70c87d3"},"vehicle_type_id":"4","last_reported":1738836582,"current_range_meters":25200,"station_id":"ce4bhnh2rcd13ifvqgug","pricing_plan_id":"cebpf4jnsgd1na2vs0mg"},{"bike_id":"08a6fc52-d602-423d-a9b7-5ef7ccff1f07","system_id":"levelo_inurba_marseille","lat":43.30429,"lon":5.39754,"is_reserved":false,"is_disabled":false,"rental_uris":{"android":"levelo://app?vid=08a6fc52-d602-423d-a9b7-5ef7ccff1f07","ios":"levelo://app?vid=08a6fc52-d602-423d-a9b7-5ef7ccff1f07"},"vehicle_type_id":"4","last_reported":1738836582,"current_range_meters":28400,"station_id":"ce4bh092rcd13ifvqd20","pricing_plan_id":"cebpf4jnsgd1na2vs0mg"},{"bike_id":"c9ebdd2d-fe07-41ca-b670-8702fd2c73e6","system_id":"levelo_inurba_marseille","lat":43.30307,"lon":5.36934,"is_reserved":false,"is_disabled":true,"rental_uris":{"android":"levelo://app?vid=c9ebdd2d-fe07-41ca-b670-8702fd2c73e6","ios":"levelo://app?vid=c9ebdd2d-fe07-41ca-b670-8702fd2c73e6"},"vehicle_type_id":"4","last_reported":1738836582,"current_range_meters":23200,"station_id":"ce4bgqh2rcd13ifvqc5g","pricing_plan_id":"cebpf4jnsgd1na2vs0mg"},{"bike_id":"3cdf5500-b603-4191-94b1-b2268d9d99a3","system_id":"levelo_inurba_marseille","lat":43.28337,"lon":5.38104,"is_reserved":false,"is_disabled":false,"rental_uris":{"android":"levelo://app?vid=3cdf5500-b603-4191-94b1-b2268d9d99a3","ios":"levelo://app?vid=3cdf5500-b603-4191-94b1-b2268d9d99a3"},"vehicle_type_id":"4","last_reported":1738836582,"current_range_meters":33600,"station_id":"ce4bh412rcd13ifvqdr0","pricing_plan_id":"cebpf4jnsgd1na2vs0mg"},{"bike_id":"dc104847-4af8-4334-9efc-cab5fb4e3009","system_id":"levelo_inurba_marseille","lat":43.23147,"lon":5.43728,"is_reserved":false,"is_disabled":false,"rental_uris":{"android":"levelo://app?vid=dc104847-4af8-4334-9efc-cab5fb4e3009","ios":"levelo://app?vid=dc104847-4af8-4334-9efc-cab5fb4e3009"},"vehicle_type_id":"4","last_reported":1738836582,"current_range_meters":36800,"station_id":"ce4bhmp2rcd13ifvqgog","pricing_plan_id":"cebpf4jnsgd1na2vs0mg"},{"bike_id":"6712f04b-f35d-4e3a-a70d-c89aec85d9b2","system_id":"levelo_inurba_marseille","lat":43.22933,"lon":5.35388,"is_reserved":false,"is_disabled":false,"rental_uris":{"android":"levelo://app?vid=6712f04b-f35d-4e3a-a70d-c89aec85d9b2","ios":"levelo://app?vid=6712f04b-f35d-4e3a-a70d-c89aec85d9b2"},"vehicle_type_id":"4","last_reported":1738836582,"current_range_meters":38000,"station_id":"cpo3532slgdg3j2ikp40","pricing_plan_id":"cebpf4jnsgd1na2vs0mg"},{"bike_id":"80f789f5-fe59-4d39-929a-1d5e5cf352ea","system_id":"levelo_inurba_marseille","lat":43.29627,"lon":5.37712,"is_reserved":false,"is_disabled":false,"rental_uris":{"android":"levelo://app?vid=80f789f5-fe59-4d39-929a-1d5e5cf352ea","ios":"levelo://app?vid=80f789f5-fe59-4d39-929a-1d5e5cf352ea"},"vehicle_type_id":"4","last_reported":1738836582,"current_range_meters":38000,"station_id":"ce4bgi92rcd13ifvqb90","pricing_plan_id":"cebpf4jnsgd1na2vs0mg"},{"bike_id":"9470dd73-7393-47ca-8f05-fd76cdac2879","system_id":"levelo_inurba_marseille","lat":43.24036,"lon":5.37772,"is_reserved":false,"is_disabled":false,"rental_uris":{"android":"levelo://app?vid=9470dd73-7393-47ca-8f05-fd76cdac2879","ios":"levelo://app?vid=9470dd73-7393-47ca-8f05-fd76cdac2879"},"vehicle_type_id":"4","last_reported":1738836582,"current_range_meters":38800,"station_id":"ce4bhnp2rcd13ifvqgvg","pricing_plan_id":"cebpf4jnsgd1na2vs0mg"},{"bike_id":"5169f958-fc07-489b-b19b-5b31b5506996","system_id":"levelo_inurba_marseille","lat":43.30146,"lon":5.38094,"is_reserved":false,"is_disabled":false,"rental_uris":{"android":"levelo://app?vid=5169f958-fc07-489b-b19b-5b31b5506996","ios":"levelo://app?vid=5169f958-fc07-489b-b19b-5b31b5506996"},"vehicle_type_id":"4","last_reported":1738836582,"current_range_meters":25200,"station_id":"ce4bgjp2rcd13ifvqbh0","pricing_plan_id":"cebpf4jnsgd1na2vs0mg"},{"bike_id":"1631835e-eb64-4097-b39f-638a3f74b000","system_id":"levelo_inurba_marseille","lat":43.30305,"lon":5.37702,"is_reserved":false,"is_disabled":false,"rental_uris":{"android":"levelo://app?vid=1631835e-eb64-4097-b39f-638a3f74b000","ios":"levelo://app?vid=1631835e-eb64-4097-b39f-638a3f74b000"},"vehicle_type_id":"4","last_reported":1738836582,"current_range_meters":39200,"station_id":"ce4bguh2rcd13ifvqcj0","pricing_plan_id":"cebpf4jnsgd1na2vs0mg"},{"bike_id":"6dea8e87-99e2-4719-a10b-92fe44cf22a6","system_id":"levelo_inurba_marseille","lat":43.24079,"lon":5.3775,"is_reserved":false,"is_disabled":false,"rental_uris":{"android":"levelo://app?vid=6dea8e87-99e2-4719-a10b-92fe44cf22a6","ios":"levelo://app?vid=6dea8e87-99e2-4719-a10b-92fe44cf22a6"},"vehicle_type_id":"4","last_reported":1738836582,"current_range_meters":20000,"station_id":"ce4bhnp2rcd13ifvqgvg","pricing_plan_id":"cebpf4jnsgd1na2vs0mg"},{"bike_id":"69e03564-17f5-44a1-8879-5030df3f7e46","system_id":"levelo_inurba_marseille","lat":43.30137,"lon":5.37435,"is_reserved":false,"is_disabled":false,"rental_uris":{"android":"levelo://app?vid=69e03564-17f5-44a1-8879-5030df3f7e46","ios":"levelo://app?vid=69e03564-17f5-44a1-8879-5030df3f7e46"},"vehicle_type_id":"4","last_reported":1738836582,"current_range_meters":39200,"station_id":"ce4bgs92rcd13ifvqcc0","pricing_plan_id":"cebpf4jnsgd1na2vs0mg"},{"bike_id":"058d3b72-e750-49df-85ff-8e59412b305d","system_id":"levelo_inurba_marseille","lat":43.29277,"lon":5.36849,"is_reserved":false,"is_disabled":false,"rental_uris":{"android":"levelo://app?vid=058d3b72-e750-49df-85ff-8e59412b305d","ios":"levelo://app?vid=058d3b72-e750-49df-85ff-8e59412b305d"},"vehicle_type_id":"4","last_reported":1738836582,"current_range_meters":36400,"station_id":"ce4bhbp2rcd13ifvqesg","pricing_plan_id":"cebpf4jnsgd1na2vs0mg"},{"bike_id":"b0abb723-72c6-43cf-9217-df332ce37e33","system_id":"levelo_inurba_marseille","lat":43.29935,"lon":5.36554,"is_reserved":false,"is_disabled":true,"rental_uris":{"android":"levelo://app?vid=b0abb723-72c6-43cf-9217-df332ce37e33","ios":"levelo://app?vid=b0abb723-72c6-43cf-9217-df332ce37e33"},"vehicle_type_id":"4","last_reported":1738836582,"current_range_meters":23200,"station_id":"ce4bgm92rcd13ifvqbr0","pricing_plan_id":"cebpf4jnsgd1na2vs0mg"},{"bike_id":"c1c75084-6fe2-45e8-8aa7-83f2021a6f51","system_id":"levelo_inurba_marseille","lat":43.27949,"lon":5.38752,"is_reserved":false,"is_disabled":false,"rental_uris":{"android":"levelo://app?vid=c1c75084-6fe2-45e8-8aa7-83f2021a6f51","ios":"levelo://app?vid=c1c75084-6fe2-45e8-8aa7-83f2021a6f51"},"vehicle_type_id":"4","last_reported":1738836582,"current_range_meters":38800,"station_id":"ce4bhg12rcd13ifvqf80","pricing_plan_id":"cebpf4jnsgd1na2vs0mg"},{"bike_id":"25659fa6-7f8a-4039-a312-8f7176f52022","system_id":"levelo_inurba_marseille","lat":43.29585,"lon":5.36733,"is_reserved":false,"is_disabled":false,"rental_uris":{"android":"levelo://app?vid=25659fa6-7f8a-4039-a312-8f7176f52022","ios":"levelo://app?vid=25659fa6-7f8a-4039-a312-8f7176f52022"},"vehicle_type_id":"4","last_reported":1738836582,"current_range_meters":24400,"station_id":"ce4bgph2rcd13ifvqc2g","pricing_plan_id":"cebpf4jnsgd1na2vs0mg"},{"bike_id":"12be4a65-e7b3-4220-9442-37e04da9989a","system_id":"levelo_inurba_marseille","lat":43.27167,"lon":5.41007,"is_reserved":false,"is_disabled":false,"rental_uris":{"android":"levelo://app?vid=12be4a65-e7b3-4220-9442-37e04da9989a","ios":"levelo://app?vid=12be4a65-e7b3-4220-9442-37e04da9989a"},"vehicle_type_id":"4","last_reported":1738836582,"current_range_meters":39200,"station_id":"ce4bhl12rcd13ifvqgf0","pricing_plan_id":"cebpf4jnsgd1na2vs0mg"},{"bike_id":"8604271a-1856-49cc-98e1-13f33c6adfc2","system_id":"levelo_inurba_marseille","lat":43.31371,"lon":5.36714,"is_reserved":false,"is_disabled":false,"rental_uris":{"android":"levelo://app?vid=8604271a-1856-49cc-98e1-13f33c6adfc2","ios":"levelo://app?vid=8604271a-1856-49cc-98e1-13f33c6adfc2"},"vehicle_type_id":"4","last_reported":1738836582,"current_range_meters":38800,"station_id":"ce4bgr92rcd13ifvqc6g","pricing_plan_id":"cebpf4jnsgd1na2vs0mg"},{"bike_id":"091d41d7-c1d3-4cdf-9b5c-052439e6b669","system_id":"levelo_inurba_marseille","lat":43.30483,"lon":5.36693,"is_reserved":false,"is_disabled":true,"rental_uris":{"android":"levelo://app?vid=091d41d7-c1d3-4cdf-9b5c-052439e6b669","ios":"levelo://app?vid=091d41d7-c1d3-4cdf-9b5c-052439e6b669"},"vehicle_type_id":"4","last_reported":1738836582,"current_range_meters":23200,"station_id":"","pricing_plan_id":"cebpf4jnsgd1na2vs0mg"},{"bike_id":"97658022-11d9-44b3-8e7f-2eacbc9ac49d","system_id":"levelo_inurba_marseille","lat":43.30922,"lon":5.36857,"is_reserved":false,"is_disabled":false,"rental_uris":{"android":"levelo://app?vid=97658022-11d9-44b3-8e7f-2eacbc9ac49d","ios":"levelo://app?vid=97658022-11d9-44b3-8e7f-2eacbc9ac49d"},"vehicle_type_id":"4","last_reported":1738836582,"current_range_meters":38400,"station_id":"ce4bgn92rcd13ifvqbvg","pricing_plan_id":"cebpf4jnsgd1na2vs0mg"},{"bike_id":"bb59bbf9-a773-4050-b666-ab885ddc31a5","system_id":"levelo_inurba_marseille","lat":43.24064,"lon":5.37754,"is_reserved":false,"is_disabled":false,"rental_uris":{"android":"levelo://app?vid=bb59bbf9-a773-4050-b666-ab885ddc31a5","ios":"levelo://app?vid=bb59bbf9-a773-4050-b666-ab885ddc31a5"},"vehicle_type_id":"4","last_reported":1738836582,"current_range_meters":20800,"station_id":"ce4bhnp2rcd13ifvqgvg","pricing_plan_id":"cebpf4jnsgd1na2vs0mg"},{"bike_id":"eefbf219-f3ed-4192-8168-ec4f8f163df8","system_id":"levelo_inurba_marseille","lat":43.29965,"lon":5.38498,"is_reserved":false,"is_disabled":false,"rental_uris":{"android":"levelo://app?vid=eefbf219-f3ed-4192-8168-ec4f8f163df8","ios":"levelo://app?vid=eefbf219-f3ed-4192-8168-ec4f8f163df8"},"vehicle_type_id":"4","last_reported":1738836582,"current_range_meters":10000,"station_id":"ce4bgj92rcd13ifvqbd0","pricing_plan_id":"cebpf4jnsgd1na2vs0mg"},{"bike_id":"80cb7895-561b-442a-887e-3b96386e2cb2","system_id":"levelo_inurba_marseille","lat":43.27068,"lon":5.42281,"is_reserved":false,"is_disabled":false,"rental_uris":{"android":"levelo://app?vid=80cb7895-561b-442a-887e-3b96386e2cb2","ios":"levelo://app?vid=80cb7895-561b-442a-887e-3b96386e2cb2"},"vehicle_type_id":"4","last_reported":1738836582,"current_range_meters":24400,"station_id":"ce4bhk92rcd13ifvqgb0","pricing_plan_id":"cebpf4jnsgd1na2vs0mg"},{"bike_id":"ea51b30d-1640-4c8f-b921-076520204eb4","system_id":"levelo_inurba_marseille","lat":43.27323,"lon":5.39078,"is_reserved":false,"is_disabled":false,"rental_uris":{"android":"levelo://app?vid=ea51b30d-1640-4c8f-b921-076520204eb4","ios":"levelo://app?vid=ea51b30d-1640-4c8f-b921-076520204eb4"},"vehicle_type_id":"4","last_reported":1738836582,"current_range_meters":39200,"station_id":"ce4bhgp2rcd13ifvqfe0","pricing_plan_id":"cebpf4jnsgd1na2vs0mg"},{"bike_id":"b3af7cc8-dfb8-48ae-b853-7564e930dc8d","system_id":"levelo_inurba_marseille","lat":43.28491,"lon":5.3843,"is_reserved":false,"is_disabled":false,"rental_uris":{"android":"levelo://app?vid=b3af7cc8-dfb8-48ae-b853-7564e930dc8d","ios":"levelo://app?vid=b3af7cc8-dfb8-48ae-b853-7564e930dc8d"},"vehicle_type_id":"4","last_reported":1738836582,"current_range_meters":27600,"station_id":"ce4bh512rcd13ifvqe3g","pricing_plan_id":"cebpf4jnsgd1na2vs0mg"},{"bike_id":"c85a26e1-f53e-4ec1-b1ea-8b32d23f1f4d","system_id":"levelo_inurba_marseille","lat":43.2306,"lon":5.35493,"is_reserved":false,"is_disabled":false,"rental_uris":{"android":"levelo://app?vid=c85a26e1-f53e-4ec1-b1ea-8b32d23f1f4d","ios":"levelo://app?vid=c85a26e1-f53e-4ec1-b1ea-8b32d23f1f4d"},"vehicle_type_id":"4","last_reported":1738836582,"current_range_meters":17600,"station_id":"cpo3342slgdg3j2ifvpg","pricing_plan_id":"cebpf4jnsgd1na2vs0mg"},{"bike_id":"679274d3-e500-4dd7-ace3-877f33c86066","system_id":"levelo_inurba_marseille","lat":43.2706,"lon":5.40263,"is_reserved":false,"is_disabled":false,"rental_uris":{"android":"levelo://app?vid=679274d3-e500-4dd7-ace3-877f33c86066","ios":"levelo://app?vid=679274d3-e500-4dd7-ace3-877f33c86066"},"vehicle_type_id":"4","last_reported":1738836582,"current_range_meters":30400,"station_id":"ce4bhk92rcd13ifvqgc0","pricing_plan_id":"cebpf4jnsgd1na2vs0mg"},{"bike_id":"1115c527-862b-4452-8204-35292989f534","system_id":"levelo_inurba_marseille","lat":43.30549,"lon":5.36544,"is_reserved":false,"is_disabled":false,"rental_uris":{"android":"levelo://app?vid=1115c527-862b-4452-8204-35292989f534","ios":"levelo://app?vid=1115c527-862b-4452-8204-35292989f534"},"vehicle_type_id":"4","last_reported":1738836582,"current_range_meters":5600,"station_id":"ce4bgs12rcd13ifvqcag","pricing_plan_id":"cebpf4jnsgd1na2vs0mg"},{"bike_id":"3192cf42-79f3-4be1-8549-9fbaeef06aa7","system_id":"levelo_inurba_marseille","lat":43.30463,"lon":5.37908,"is_reserved":false,"is_disabled":false,"rental_uris":{"android":"levelo://app?vid=3192cf42-79f3-4be1-8549-9fbaeef06aa7","ios":"levelo://app?vid=3192cf42-79f3-4be1-8549-9fbaeef06aa7"},"vehicle_type_id":"4","last_reported":1738836582,"current_range_meters":17200,"station_id":"ce4bgup2rcd13ifvqcn0","pricing_plan_id":"cebpf4jnsgd1na2vs0mg"},{"bike_id":"f6abcce2-0993-4345-8889-2e5c8bb1bf44","system_id":"levelo_inurba_marseille","lat":43.23143,"lon":5.43713,"is_reserved":false,"is_disabled":false,"rental_uris":{"android":"levelo://app?vid=f6abcce2-0993-4345-8889-2e5c8bb1bf44","ios":"levelo://app?vid=f6abcce2-0993-4345-8889-2e5c8bb1bf44"},"vehicle_type_id":"4","last_reported":1738836582,"current_range_meters":17200,"station_id":"ce4bhmp2rcd13ifvqgog","pricing_plan_id":"cebpf4jnsgd1na2vs0mg"},{"bike_id":"017c3247-6847-4a18-aea2-0e806d0dec2a","system_id":"levelo_inurba_marseille","lat":43.33585,"lon":5.40994,"is_reserved":false,"is_disabled":false,"rental_uris":{"android":"levelo://app?vid=017c3247-6847-4a18-aea2-0e806d0dec2a","ios":"levelo://app?vid=017c3247-6847-4a18-aea2-0e806d0dec2a"},"vehicle_type_id":"4","last_reported":1738836582,"current_range_meters":17600,"station_id":"ce4bhqh2rcd13ifvqhmg","pricing_plan_id":"cebpf4jnsgd1na2vs0mg"},{"bike_id":"bfec391f-a951-48b3-8a91-fa55aac51292","system_id":"levelo_inurba_marseille","lat":43.28468,"lon":5.38566,"is_reserved":false,"is_disabled":false,"rental_uris":{"android":"levelo://app?vid=bfec391f-a951-48b3-8a91-fa55aac51292","ios":"levelo://app?vid=bfec391f-a951-48b3-8a91-fa55aac51292"},"vehicle_type_id":"4","last_reported":1738836582,"current_range_meters":29600,"station_id":"ce4bh8p2rcd13ifvqeb0","pricing_plan_id":"cebpf4jnsgd1na2vs0mg"},{"bike_id":"0f1a09b4-d03b-41ed-815c-5de42ce8a812","system_id":"levelo_inurba_marseille","lat":43.29964,"lon":5.38496,"is_reserved":false,"is_disabled":false,"rental_uris":{"android":"levelo://app?vid=0f1a09b4-d03b-41ed-815c-5de42ce8a812","ios":"levelo://app?vid=0f1a09b4-d03b-41ed-815c-5de42ce8a812"},"vehicle_type_id":"4","last_reported":1738836582,"current_range_meters":8000,"station_id":"ce4bgj92rcd13ifvqbd0","pricing_plan_id":"cebpf4jnsgd1na2vs0mg"},{"bike_id":"6a3f47a3-8f7a-4dd2-a856-450fdd8291f6","system_id":"levelo_inurba_marseille","lat":43.30539,"lon":5.36706,"is_reserved":false,"is_disabled":false,"rental_uris":{"android":"levelo://app?vid=6a3f47a3-8f7a-4dd2-a856-450fdd8291f6","ios":"levelo://app?vid=6a3f47a3-8f7a-4dd2-a856-450fdd8291f6"},"vehicle_type_id":"4","last_reported":1738836582,"current_range_meters":30000,"station_id":"ce4bgrp2rcd13ifvqc9g","pricing_plan_id":"cebpf4jnsgd1na2vs0mg"},{"bike_id":"1f60af65-67e4-4506-92ce-b099d71368bc","system_id":"levelo_inurba_marseille","lat":43.27374,"lon":5.36259,"is_reserved":false,"is_disabled":false,"rental_uris":{"android":"levelo://app?vid=1f60af65-67e4-4506-92ce-b099d71368bc","ios":"levelo://app?vid=1f60af65-67e4-4506-92ce-b099d71368bc"},"vehicle_type_id":"4","last_reported":1738836582,"current_range_meters":38800,"station_id":"ce4bhbh2rcd13ifvqeo0","pricing_plan_id":"cebpf4jnsgd1na2vs0mg"},{"bike_id":"7e8a0b28-3f8b-4de5-a3dd-c9e16385764f","system_id":"levelo_inurba_marseille","lat":43.2607,"lon":5.39378,"is_reserved":false,"is_disabled":false,"rental_uris":{"android":"levelo://app?vid=7e8a0b28-3f8b-4de5-a3dd-c9e16385764f","ios":"levelo://app?vid=7e8a0b28-3f8b-4de5-a3dd-c9e16385764f"},"vehicle_type_id":"4","last_reported":1738836582,"current_range_meters":38800,"station_id":"ce4bhh92rcd13ifvqfj0","pricing_plan_id":"cebpf4jnsgd1na2vs0mg"},{"bike_id":"ceff01f7-0e7c-4ecf-83e6-0d29bd10673e","system_id":"levelo_inurba_marseille","lat":43.30588,"lon":5.37213,"is_reserved":false,"is_disabled":false,"rental_uris":{"android":"levelo://app?vid=ceff01f7-0e7c-4ecf-83e6-0d29bd10673e","ios":"levelo://app?vid=ceff01f7-0e7c-4ecf-83e6-0d29bd10673e"},"vehicle_type_id":"4","last_reported":1738836582,"current_range_meters":38000,"station_id":"ce4bgqh2rcd13ifvqc4g","pricing_plan_id":"cebpf4jnsgd1na2vs0mg"},{"bike_id":"a9d2cdd8-e8cc-40c9-87d7-d5a1d12197b1","system_id":"levelo_inurba_marseille","lat":43.27491,"lon":5.42459,"is_reserved":false,"is_disabled":false,"rental_uris":{"android":"levelo://app?vid=a9d2cdd8-e8cc-40c9-87d7-d5a1d12197b1","ios":"levelo://app?vid=a9d2cdd8-e8cc-40c9-87d7-d5a1d12197b1"},"vehicle_type_id":"4","last_reported":1738836582,"current_range_meters":38400,"station_id":"ce4bhn92rcd13ifvqgrg","pricing_plan_id":"cebpf4jnsgd1na2vs0mg"},{"bike_id":"a08c3f50-2972-4fb5-8d9c-2be5365819fb","system_id":"levelo_inurba_marseille","lat":43.31752,"lon":5.3901,"is_reserved":false,"is_disabled":false,"rental_uris":{"android":"levelo://app?vid=a08c3f50-2972-4fb5-8d9c-2be5365819fb","ios":"levelo://app?vid=a08c3f50-2972-4fb5-8d9c-2be5365819fb"},"vehicle_type_id":"4","last_reported":1738836582,"current_range_meters":32800,"station_id":"ce4bhqp2rcd13ifvqhng","pricing_plan_id":"cebpf4jnsgd1na2vs0mg"},{"bike_id":"9193840a-a4d3-45d8-a9f7-dfd661a76b64","system_id":"levelo_inurba_marseille","lat":43.31398,"lon":5.36695,"is_reserved":false,"is_disabled":false,"rental_uris":{"android":"levelo://app?vid=9193840a-a4d3-45d8-a9f7-dfd661a76b64","ios":"levelo://app?vid=9193840a-a4d3-45d8-a9f7-dfd661a76b64"},"vehicle_type_id":"4","last_reported":1738836582,"current_range_meters":39200,"station_id":"ce4bgr92rcd13ifvqc6g","pricing_plan_id":"cebpf4jnsgd1na2vs0mg"},{"bike_id":"1a010daa-c187-41ef-85dd-32732f65ce5f","system_id":"levelo_inurba_marseille","lat":43.29264,"lon":5.38456,"is_reserved":false,"is_disabled":false,"rental_uris":{"android":"levelo://app?vid=1a010daa-c187-41ef-85dd-32732f65ce5f","ios":"levelo://app?vid=1a010daa-c187-41ef-85dd-32732f65ce5f"},"vehicle_type_id":"4","last_reported":1738836582,"current_range_meters":13600,"station_id":"ce4bh692rcd13ifvqea0","pricing_plan_id":"cebpf4jnsgd1na2vs0mg"},{"bike_id":"35b0fbe6-22db-46fb-a54a-76af362a8729","system_id":"levelo_inurba_marseille","lat":43.29985,"lon":5.41339,"is_reserved":false,"is_disabled":false,"rental_uris":{"android":"levelo://app?vid=35b0fbe6-22db-46fb-a54a-76af362a8729","ios":"levelo://app?vid=35b0fbe6-22db-46fb-a54a-76af362a8729"},"vehicle_type_id":"4","last_reported":1738836582,"current_range_meters":34800,"station_id":"ce4bhp12rcd13ifvqh9g","pricing_plan_id":"cebpf4jnsgd1na2vs0mg"},{"bike_id":"88ce7e1b-d6f8-4620-beef-be982f304f3e","system_id":"levelo_inurba_marseille","lat":43.32114,"lon":5.36778,"is_reserved":false,"is_disabled":false,"rental_uris":{"android":"levelo://app?vid=88ce7e1b-d6f8-4620-beef-be982f304f3e","ios":"levelo://app?vid=88ce7e1b-d6f8-4620-beef-be982f304f3e"},"vehicle_type_id":"4","last_reported":1738836582,"current_range_meters":38000,"station_id":"ce4bhrh2rcd13ifvqhug","pricing_plan_id":"cebpf4jnsgd1na2vs0mg"},{"bike_id":"344d1955-5263-40eb-a201-ab603aa02c10","system_id":"levelo_inurba_marseille","lat":43.23955,"lon":5.36653,"is_reserved":false,"is_disabled":false,"rental_uris":{"android":"levelo://app?vid=344d1955-5263-40eb-a201-ab603aa02c10","ios":"levelo://app?vid=344d1955-5263-40eb-a201-ab603aa02c10"},"vehicle_type_id":"4","last_reported":1738836582,"current_range_meters":38000,"station_id":"ce4bhi12rcd13ifvqfp0","pricing_plan_id":"cebpf4jnsgd1na2vs0mg"},{"bike_id":"0083c554-f72b-4dec-a9ea-993a6d3d9431","system_id":"levelo_inurba_marseille","lat":43.27062,"lon":5.40259,"is_reserved":false,"is_disabled":false,"rental_uris":{"android":"levelo://app?vid=0083c554-f72b-4dec-a9ea-993a6d3d9431","ios":"levelo://app?vid=0083c554-f72b-4dec-a9ea-993a6d3d9431"},"vehicle_type_id":"4","last_reported":1738836582,"current_range_meters":6400,"station_id":"ce4bhk92rcd13ifvqgc0","pricing_plan_id":"cebpf4jnsgd1na2vs0mg"},{"bike_id":"41a7c36a-2ba7-456e-9776-92a30f133957","system_id":"levelo_inurba_marseille","lat":43.27185,"lon":5.39195,"is_reserved":false,"is_disabled":false,"rental_uris":{"android":"levelo://app?vid=41a7c36a-2ba7-456e-9776-92a30f133957","ios":"levelo://app?vid=41a7c36a-2ba7-456e-9776-92a30f133957"},"vehicle_type_id":"4","last_reported":1738836582,"current_range_meters":38000,"station_id":"ce4bhhp2rcd13ifvqfm0","pricing_plan_id":"cebpf4jnsgd1na2vs0mg"},{"bike_id":"2f9a6647-bfb0-4c5f-b2d5-6b23d0794b76","system_id":"levelo_inurba_marseille","lat":43.25576,"lon":5.38224,"is_reserved":false,"is_disabled":true,"rental_uris":{"android":"levelo://app?vid=2f9a6647-bfb0-4c5f-b2d5-6b23d0794b76","ios":"levelo://app?vid=2f9a6647-bfb0-4c5f-b2d5-6b23d0794b76"},"vehicle_type_id":"4","last_reported":1738836582,"current_range_meters":35200,"station_id":"","pricing_plan_id":"cebpf4jnsgd1na2vs0mg"},{"bike_id":"d25a4504-17d4-4308-88f8-6085b6b06f28","system_id":"levelo_inurba_marseille","lat":43.28942,"lon":5.36397,"is_reserved":false,"is_disabled":true,"rental_uris":{"android":"levelo://app?vid=d25a4504-17d4-4308-88f8-6085b6b06f28","ios":"levelo://app?vid=d25a4504-17d4-4308-88f8-6085b6b06f28"},"vehicle_type_id":"4","last_reported":1738836582,"current_range_meters":17200,"station_id":"ce4bhc92rcd13ifvqetg","pricing_plan_id":"cebpf4jnsgd1na2vs0mg"},{"bike_id":"be98d1a4-25d6-4e7e-ac77-f18d78a92b9d","system_id":"levelo_inurba_marseille","lat":43.281551,"lon":5.426628,"is_reserved":false,"is_disabled":false,"rental_uris":{"android":"levelo://app?vid=be98d1a4-25d6-4e7e-ac77-f18d78a92b9d","ios":"levelo://app?vid=be98d1a4-25d6-4e7e-ac77-f18d78a92b9d"},"vehicle_type_id":"4","last_reported":1738836582,"current_range_meters":8000,"station_id":"ce4bhnh2rcd13ifvqgug","pricing_plan_id":"cebpf4jnsgd1na2vs0mg"},{"bike_id":"786af5a6-7181-4746-8e7c-5055a97f6274","system_id":"levelo_inurba_marseille","lat":43.28145,"lon":5.42652,"is_reserved":false,"is_disabled":true,"rental_uris":{"android":"levelo://app?vid=786af5a6-7181-4746-8e7c-5055a97f6274","ios":"levelo://app?vid=786af5a6-7181-4746-8e7c-5055a97f6274"},"vehicle_type_id":"4","last_reported":1738836582,"current_range_meters":28400,"station_id":"ce4bhnh2rcd13ifvqgug","pricing_plan_id":"cebpf4jnsgd1na2vs0mg"},{"bike_id":"e15065a6-8250-416b-8039-693e48ff6eed","system_id":"levelo_inurba_marseille","lat":43.24179,"lon":5.39742,"is_reserved":false,"is_disabled":false,"rental_uris":{"android":"levelo://app?vid=e15065a6-8250-416b-8039-693e48ff6eed","ios":"levelo://app?vid=e15065a6-8250-416b-8039-693e48ff6eed"},"vehicle_type_id":"4","last_reported":1738836582,"current_range_meters":38800,"station_id":"ce4bhn12rcd13ifvqgpg","pricing_plan_id":"cebpf4jnsgd1na2vs0mg"},{"bike_id":"dea3caf3-4372-452d-a8b7-101a967d7129","system_id":"levelo_inurba_marseille","lat":43.24196,"lon":5.39661,"is_reserved":false,"is_disabled":false,"rental_uris":{"android":"levelo://app?vid=dea3caf3-4372-452d-a8b7-101a967d7129","ios":"levelo://app?vid=dea3caf3-4372-452d-a8b7-101a967d7129"},"vehicle_type_id":"4","last_reported":1738836582,"current_range_meters":16800,"station_id":"","pricing_plan_id":"cebpf4jnsgd1na2vs0mg"},{"bike_id":"7fb777fd-9e5f-4bf2-a545-2aaf6bd1f9f1","system_id":"levelo_inurba_marseille","lat":43.2407,"lon":5.37773,"is_reserved":false,"is_disabled":false,"rental_uris":{"android":"levelo://app?vid=7fb777fd-9e5f-4bf2-a545-2aaf6bd1f9f1","ios":"levelo://app?vid=7fb777fd-9e5f-4bf2-a545-2aaf6bd1f9f1"},"vehicle_type_id":"4","last_reported":1738836582,"current_range_meters":38400,"station_id":"ce4bhnp2rcd13ifvqgvg","pricing_plan_id":"cebpf4jnsgd1na2vs0mg"},{"bike_id":"6cc17b24-c47e-420a-adb6-514dcc7d7a17","system_id":"levelo_inurba_marseille","lat":43.293,"lon":5.37436,"is_reserved":false,"is_disabled":false,"rental_uris":{"android":"levelo://app?vid=6cc17b24-c47e-420a-adb6-514dcc7d7a17","ios":"levelo://app?vid=6cc17b24-c47e-420a-adb6-514dcc7d7a17"},"vehicle_type_id":"4","last_reported":1738836582,"current_range_meters":38800,"station_id":"ce4bgi12rcd13ifvqb70","pricing_plan_id":"cebpf4jnsgd1na2vs0mg"},{"bike_id":"9b7355dc-7165-40f0-8cd2-81f22484ab5d","system_id":"levelo_inurba_marseille","lat":43.23961,"lon":5.36619,"is_reserved":false,"is_disabled":false,"rental_uris":{"android":"levelo://app?vid=9b7355dc-7165-40f0-8cd2-81f22484ab5d","ios":"levelo://app?vid=9b7355dc-7165-40f0-8cd2-81f22484ab5d"},"vehicle_type_id":"4","last_reported":1738836582,"current_range_meters":32400,"station_id":"ce4bhi12rcd13ifvqfp0","pricing_plan_id":"cebpf4jnsgd1na2vs0mg"},{"bike_id":"599d8ef5-e5c8-4c93-877c-f39657a7a8dc","system_id":"levelo_inurba_marseille","lat":43.30549,"lon":5.3671,"is_reserved":false,"is_disabled":false,"rental_uris":{"android":"levelo://app?vid=599d8ef5-e5c8-4c93-877c-f39657a7a8dc","ios":"levelo://app?vid=599d8ef5-e5c8-4c93-877c-f39657a7a8dc"},"vehicle_type_id":"4","last_reported":1738836582,"current_range_meters":36800,"station_id":"ce4bgrp2rcd13ifvqc9g","pricing_plan_id":"cebpf4jnsgd1na2vs0mg"},{"bike_id":"9b19789b-537f-4ed5-92aa-6fda84d65c3e","system_id":"levelo_inurba_marseille","lat":43.30935,"lon":5.36842,"is_reserved":false,"is_disabled":false,"rental_uris":{"android":"levelo://app?vid=9b19789b-537f-4ed5-92aa-6fda84d65c3e","ios":"levelo://app?vid=9b19789b-537f-4ed5-92aa-6fda84d65c3e"},"vehicle_type_id":"4","last_reported":1738836582,"current_range_meters":18800,"station_id":"ce4bgn92rcd13ifvqbvg","pricing_plan_id":"cebpf4jnsgd1na2vs0mg"},{"bike_id":"5faf1ae7-8dab-473f-a1d4-d668766e2b45","system_id":"levelo_inurba_marseille","lat":43.26678,"lon":5.38273,"is_reserved":false,"is_disabled":false,"rental_uris":{"android":"levelo://app?vid=5faf1ae7-8dab-473f-a1d4-d668766e2b45","ios":"levelo://app?vid=5faf1ae7-8dab-473f-a1d4-d668766e2b45"},"vehicle_type_id":"4","last_reported":1738836582,"current_range_meters":28000,"station_id":"ce4bhg92rcd13ifvqf90","pricing_plan_id":"cebpf4jnsgd1na2vs0mg"},{"bike_id":"931c3b97-cce1-4ebe-a291-6c50a6f2810e","system_id":"levelo_inurba_marseille","lat":43.31806,"lon":5.3742,"is_reserved":false,"is_disabled":true,"rental_uris":{"android":"levelo://app?vid=931c3b97-cce1-4ebe-a291-6c50a6f2810e","ios":"levelo://app?vid=931c3b97-cce1-4ebe-a291-6c50a6f2810e"},"vehicle_type_id":"4","last_reported":1738836582,"current_range_meters":1600,"station_id":"","pricing_plan_id":"cebpf4jnsgd1na2vs0mg"},{"bike_id":"b9452b32-8f5d-4c98-bc11-fee58cf523e3","system_id":"levelo_inurba_marseille","lat":43.29908,"lon":5.43658,"is_reserved":false,"is_disabled":false,"rental_uris":{"android":"levelo://app?vid=b9452b32-8f5d-4c98-bc11-fee58cf523e3","ios":"levelo://app?vid=b9452b32-8f5d-4c98-bc11-fee58cf523e3"},"vehicle_type_id":"4","last_reported":1738836582,"current_range_meters":20400,"station_id":"ce4bhpp2rcd13ifvqhfg","pricing_plan_id":"cebpf4jnsgd1na2vs0mg"},{"bike_id":"b553fb90-bc31-4d0d-b0ad-01b7ba79c22e","system_id":"levelo_inurba_marseille","lat":43.25002,"lon":5.38969,"is_reserved":false,"is_disabled":false,"rental_uris":{"android":"levelo://app?vid=b553fb90-bc31-4d0d-b0ad-01b7ba79c22e","ios":"levelo://app?vid=b553fb90-bc31-4d0d-b0ad-01b7ba79c22e"},"vehicle_type_id":"4","last_reported":1738836582,"current_range_meters":18800,"station_id":"ce4bhgp2rcd13ifvqfd0","pricing_plan_id":"cebpf4jnsgd1na2vs0mg"},{"bike_id":"13b3b6a1-f920-47ec-ad77-f4e3fb2eb0d2","system_id":"levelo_inurba_marseille","lat":43.25837,"lon":5.39398,"is_reserved":false,"is_disabled":false,"rental_uris":{"android":"levelo://app?vid=13b3b6a1-f920-47ec-ad77-f4e3fb2eb0d2","ios":"levelo://app?vid=13b3b6a1-f920-47ec-ad77-f4e3fb2eb0d2"},"vehicle_type_id":"4","last_reported":1738836582,"current_range_meters":39200,"station_id":"ce4bhip2rcd13ifvqft0","pricing_plan_id":"cebpf4jnsgd1na2vs0mg"},{"bike_id":"606a8f1d-223e-46f0-94eb-58a27a8d8c60","system_id":"levelo_inurba_marseille","lat":43.25926,"lon":5.40919,"is_reserved":false,"is_disabled":false,"rental_uris":{"android":"levelo://app?vid=606a8f1d-223e-46f0-94eb-58a27a8d8c60","ios":"levelo://app?vid=606a8f1d-223e-46f0-94eb-58a27a8d8c60"},"vehicle_type_id":"4","last_reported":1738836582,"current_range_meters":28400,"station_id":"ce4bhm92rcd13ifvqglg","pricing_plan_id":"cebpf4jnsgd1na2vs0mg"},{"bike_id":"874de4a1-e3bc-4b6a-b89b-f2d4ac15bc74","system_id":"levelo_inurba_marseille","lat":43.33009,"lon":5.3905,"is_reserved":false,"is_disabled":false,"rental_uris":{"android":"levelo://app?vid=874de4a1-e3bc-4b6a-b89b-f2d4ac15bc74","ios":"levelo://app?vid=874de4a1-e3bc-4b6a-b89b-f2d4ac15bc74"},"vehicle_type_id":"4","last_reported":1738836582,"current_range_meters":31200,"station_id":"ce4bhr92rcd13ifvqhrg","pricing_plan_id":"cebpf4jnsgd1na2vs0mg"},{"bike_id":"6100990f-c4b7-4419-ab12-3d9c2a9f7c81","system_id":"levelo_inurba_marseille","lat":43.28281,"lon":5.35078,"is_reserved":false,"is_disabled":false,"rental_uris":{"android":"levelo://app?vid=6100990f-c4b7-4419-ab12-3d9c2a9f7c81","ios":"levelo://app?vid=6100990f-c4b7-4419-ab12-3d9c2a9f7c81"},"vehicle_type_id":"4","last_reported":1738836582,"current_range_meters":35200,"station_id":"ce4bhbp2rcd13ifvqerg","pricing_plan_id":"cebpf4jnsgd1na2vs0mg"},{"bike_id":"b2345505-7749-4cdc-96ee-6aa5e76dc33d","system_id":"levelo_inurba_marseille","lat":43.34151,"lon":5.40915,"is_reserved":false,"is_disabled":false,"rental_uris":{"android":"levelo://app?vid=b2345505-7749-4cdc-96ee-6aa5e76dc33d","ios":"levelo://app?vid=b2345505-7749-4cdc-96ee-6aa5e76dc33d"},"vehicle_type_id":"4","last_reported":1738836582,"current_range_meters":25600,"station_id":"ce4bhqh2rcd13ifvqhlg","pricing_plan_id":"cebpf4jnsgd1na2vs0mg"},{"bike_id":"df422e90-d87c-4c18-a2c8-ad34c8f39129","system_id":"levelo_inurba_marseille","lat":43.28441,"lon":5.39203,"is_reserved":false,"is_disabled":false,"rental_uris":{"android":"levelo://app?vid=df422e90-d87c-4c18-a2c8-ad34c8f39129","ios":"levelo://app?vid=df422e90-d87c-4c18-a2c8-ad34c8f39129"},"vehicle_type_id":"4","last_reported":1738836582,"current_range_meters":38800,"station_id":"ce4bhoh2rcd13ifvqh5g","pricing_plan_id":"cebpf4jnsgd1na2vs0mg"},{"bike_id":"911f4bca-2035-4b31-a700-e992630ca766","system_id":"levelo_inurba_marseille","lat":43.26054,"lon":5.39399,"is_reserved":false,"is_disabled":false,"rental_uris":{"android":"levelo://app?vid=911f4bca-2035-4b31-a700-e992630ca766","ios":"levelo://app?vid=911f4bca-2035-4b31-a700-e992630ca766"},"vehicle_type_id":"4","last_reported":1738836582,"current_range_meters":38800,"station_id":"ce4bhh92rcd13ifvqfj0","pricing_plan_id":"cebpf4jnsgd1na2vs0mg"},{"bike_id":"0573d8db-ba52-4804-8faa-a5b4241c13e3","system_id":"levelo_inurba_marseille","lat":43.30933,"lon":5.39026,"is_reserved":false,"is_disabled":false,"rental_uris":{"android":"levelo://app?vid=0573d8db-ba52-4804-8faa-a5b4241c13e3","ios":"levelo://app?vid=0573d8db-ba52-4804-8faa-a5b4241c13e3"},"vehicle_type_id":"4","last_reported":1738836582,"current_range_meters":38400,"station_id":"ce4bgup2rcd13ifvqco0","pricing_plan_id":"cebpf4jnsgd1na2vs0mg"},{"bike_id":"f6efe962-0131-47e4-9dda-fd4f708560de","system_id":"levelo_inurba_marseille","lat":43.23146,"lon":5.43731,"is_reserved":false,"is_disabled":false,"rental_uris":{"android":"levelo://app?vid=f6efe962-0131-47e4-9dda-fd4f708560de","ios":"levelo://app?vid=f6efe962-0131-47e4-9dda-fd4f708560de"},"vehicle_type_id":"4","last_reported":1738836582,"current_range_meters":24000,"station_id":"ce4bhmp2rcd13ifvqgog","pricing_plan_id":"cebpf4jnsgd1na2vs0mg"},{"bike_id":"2a480fc9-8aba-413d-b048-db7d23138de6","system_id":"levelo_inurba_marseille","lat":43.29241,"lon":5.38465,"is_reserved":false,"is_disabled":false,"rental_uris":{"android":"levelo://app?vid=2a480fc9-8aba-413d-b048-db7d23138de6","ios":"levelo://app?vid=2a480fc9-8aba-413d-b048-db7d23138de6"},"vehicle_type_id":"4","last_reported":1738836582,"current_range_meters":24800,"station_id":"ce4bh692rcd13ifvqea0","pricing_plan_id":"cebpf4jnsgd1na2vs0mg"},{"bike_id":"de8b98cc-777c-42cf-a67e-2d28d36cc37e","system_id":"levelo_inurba_marseille","lat":43.28352,"lon":5.38107,"is_reserved":false,"is_disabled":false,"rental_uris":{"android":"levelo://app?vid=de8b98cc-777c-42cf-a67e-2d28d36cc37e","ios":"levelo://app?vid=de8b98cc-777c-42cf-a67e-2d28d36cc37e"},"vehicle_type_id":"4","last_reported":1738836582,"current_range_meters":37600,"station_id":"ce4bh412rcd13ifvqdr0","pricing_plan_id":"cebpf4jnsgd1na2vs0mg"},{"bike_id":"f66bb5d9-3da6-4930-bf55-0906bcacbe5b","system_id":"levelo_inurba_marseille","lat":43.28337,"lon":5.38089,"is_reserved":false,"is_disabled":false,"rental_uris":{"android":"levelo://app?vid=f66bb5d9-3da6-4930-bf55-0906bcacbe5b","ios":"levelo://app?vid=f66bb5d9-3da6-4930-bf55-0906bcacbe5b"},"vehicle_type_id":"4","last_reported":1738836582,"current_range_meters":34800,"station_id":"ce4bh412rcd13ifvqdr0","pricing_plan_id":"cebpf4jnsgd1na2vs0mg"},{"bike_id":"5a3dc70e-cca6-4850-8b0a-be39d9bb82df","system_id":"levelo_inurba_marseille","lat":43.25988,"lon":5.41503,"is_reserved":false,"is_disabled":false,"rental_uris":{"android":"levelo://app?vid=5a3dc70e-cca6-4850-8b0a-be39d9bb82df","ios":"levelo://app?vid=5a3dc70e-cca6-4850-8b0a-be39d9bb82df"},"vehicle_type_id":"4","last_reported":1738836582,"current_range_meters":4000,"station_id":"","pricing_plan_id":"cebpf4jnsgd1na2vs0mg"},{"bike_id":"bc4186b3-1073-492b-ab95-0326a7b12d0e","system_id":"levelo_inurba_marseille","lat":43.28415,"lon":5.35011,"is_reserved":false,"is_disabled":false,"rental_uris":{"android":"levelo://app?vid=bc4186b3-1073-492b-ab95-0326a7b12d0e","ios":"levelo://app?vid=bc4186b3-1073-492b-ab95-0326a7b12d0e"},"vehicle_type_id":"4","last_reported":1738836582,"current_range_meters":32400,"station_id":"ce4bhbh2rcd13ifvqepg","pricing_plan_id":"cebpf4jnsgd1na2vs0mg"},{"bike_id":"70fbe035-321d-404d-abb5-90c57c24fee3","system_id":"levelo_inurba_marseille","lat":43.29901,"lon":5.38141,"is_reserved":false,"is_disabled":true,"rental_uris":{"android":"levelo://app?vid=70fbe035-321d-404d-abb5-90c57c24fee3","ios":"levelo://app?vid=70fbe035-321d-404d-abb5-90c57c24fee3"},"vehicle_type_id":"4","last_reported":1738836582,"current_range_meters":0,"station_id":"ce4bgj12rcd13ifvqbc0","pricing_plan_id":"cebpf4jnsgd1na2vs0mg"},{"bike_id":"4d04ccd7-41fe-45b8-a433-538275d1104c","system_id":"levelo_inurba_marseille","lat":43.30115,"lon":5.37468,"is_reserved":false,"is_disabled":false,"rental_uris":{"android":"levelo://app?vid=4d04ccd7-41fe-45b8-a433-538275d1104c","ios":"levelo://app?vid=4d04ccd7-41fe-45b8-a433-538275d1104c"},"vehicle_type_id":"4","last_reported":1738836582,"current_range_meters":31200,"station_id":"ce4bgs92rcd13ifvqcc0","pricing_plan_id":"cebpf4jnsgd1na2vs0mg"},{"bike_id":"40c23737-2222-4604-930b-ea002d81140a","system_id":"levelo_inurba_marseille","lat":43.25815,"lon":5.39435,"is_reserved":false,"is_disabled":false,"rental_uris":{"android":"levelo://app?vid=40c23737-2222-4604-930b-ea002d81140a","ios":"levelo://app?vid=40c23737-2222-4604-930b-ea002d81140a"},"vehicle_type_id":"4","last_reported":1738836582,"current_range_meters":38400,"station_id":"ce4bhip2rcd13ifvqft0","pricing_plan_id":"cebpf4jnsgd1na2vs0mg"},{"bike_id":"eeeb7a04-0f26-41a9-88a1-9d9a641daae7","system_id":"levelo_inurba_marseille","lat":43.2749,"lon":5.4246,"is_reserved":false,"is_disabled":false,"rental_uris":{"android":"levelo://app?vid=eeeb7a04-0f26-41a9-88a1-9d9a641daae7","ios":"levelo://app?vid=eeeb7a04-0f26-41a9-88a1-9d9a641daae7"},"vehicle_type_id":"4","last_reported":1738836582,"current_range_meters":28400,"station_id":"ce4bhn92rcd13ifvqgrg","pricing_plan_id":"cebpf4jnsgd1na2vs0mg"},{"bike_id":"95823b3e-f00f-4f48-8ff1-d3edc43e838e","system_id":"levelo_inurba_marseille","lat":43.24811,"lon":5.37465,"is_reserved":false,"is_disabled":false,"rental_uris":{"android":"levelo://app?vid=95823b3e-f00f-4f48-8ff1-d3edc43e838e","ios":"levelo://app?vid=95823b3e-f00f-4f48-8ff1-d3edc43e838e"},"vehicle_type_id":"4","last_reported":1738836582,"current_range_meters":28000,"station_id":"ce4bhgh2rcd13ifvqfb0","pricing_plan_id":"cebpf4jnsgd1na2vs0mg"},{"bike_id":"f2f5faee-8807-4570-acdb-9ab56ad43b0b","system_id":"levelo_inurba_marseille","lat":43.31337,"lon":5.36726,"is_reserved":false,"is_disabled":false,"rental_uris":{"android":"levelo://app?vid=f2f5faee-8807-4570-acdb-9ab56ad43b0b","ios":"levelo://app?vid=f2f5faee-8807-4570-acdb-9ab56ad43b0b"},"vehicle_type_id":"4","last_reported":1738836582,"current_range_meters":27600,"station_id":"ce4bgr92rcd13ifvqc6g","pricing_plan_id":"cebpf4jnsgd1na2vs0mg"},{"bike_id":"2b52254f-933d-4903-ac07-21eb27a1e798","system_id":"levelo_inurba_marseille","lat":43.27192,"lon":5.41001,"is_reserved":false,"is_disabled":false,"rental_uris":{"android":"levelo://app?vid=2b52254f-933d-4903-ac07-21eb27a1e798","ios":"levelo://app?vid=2b52254f-933d-4903-ac07-21eb27a1e798"},"vehicle_type_id":"4","last_reported":1738836582,"current_range_meters":36800,"station_id":"ce4bhl12rcd13ifvqgf0","pricing_plan_id":"cebpf4jnsgd1na2vs0mg"},{"bike_id":"5181dc82-4f4d-45a5-b17e-fb03d054d9d9","system_id":"levelo_inurba_marseille","lat":43.28871,"lon":5.35851,"is_reserved":false,"is_disabled":true,"rental_uris":{"android":"levelo://app?vid=5181dc82-4f4d-45a5-b17e-fb03d054d9d9","ios":"levelo://app?vid=5181dc82-4f4d-45a5-b17e-fb03d054d9d9"},"vehicle_type_id":"4","last_reported":1738836582,"current_range_meters":38800,"station_id":"ce4bhb12rcd13ifvqem0","pricing_plan_id":"cebpf4jnsgd1na2vs0mg"},{"bike_id":"599cece5-0d29-4e11-b46b-81ed71253738","system_id":"levelo_inurba_marseille","lat":43.27988,"lon":5.41662,"is_reserved":false,"is_disabled":false,"rental_uris":{"android":"levelo://app?vid=599cece5-0d29-4e11-b46b-81ed71253738","ios":"levelo://app?vid=599cece5-0d29-4e11-b46b-81ed71253738"},"vehicle_type_id":"4","last_reported":1738836582,"current_range_meters":38000,"station_id":"ce4bho12rcd13ifvqh1g","pricing_plan_id":"cebpf4jnsgd1na2vs0mg"},{"bike_id":"6d3ec936-088f-4802-ba95-2c0493d6c98e","system_id":"levelo_inurba_marseille","lat":43.27486,"lon":5.42465,"is_reserved":false,"is_disabled":false,"rental_uris":{"android":"levelo://app?vid=6d3ec936-088f-4802-ba95-2c0493d6c98e","ios":"levelo://app?vid=6d3ec936-088f-4802-ba95-2c0493d6c98e"},"vehicle_type_id":"4","last_reported":1738836582,"current_range_meters":11200,"station_id":"ce4bhn92rcd13ifvqgrg","pricing_plan_id":"cebpf4jnsgd1na2vs0mg"},{"bike_id":"46b836cd-d8cd-4544-845f-11c1fa55ae35","system_id":"levelo_inurba_marseille","lat":43.29674,"lon":5.3731,"is_reserved":false,"is_disabled":false,"rental_uris":{"android":"levelo://app?vid=46b836cd-d8cd-4544-845f-11c1fa55ae35","ios":"levelo://app?vid=46b836cd-d8cd-4544-845f-11c1fa55ae35"},"vehicle_type_id":"4","last_reported":1738836582,"current_range_meters":38000,"station_id":"ce4bgk12rcd13ifvqbj0","pricing_plan_id":"cebpf4jnsgd1na2vs0mg"},{"bike_id":"407915f2-41ff-4297-882f-2cad73cc62b4","system_id":"levelo_inurba_marseille","lat":43.30897,"lon":5.368627,"is_reserved":false,"is_disabled":false,"rental_uris":{"android":"levelo://app?vid=407915f2-41ff-4297-882f-2cad73cc62b4","ios":"levelo://app?vid=407915f2-41ff-4297-882f-2cad73cc62b4"},"vehicle_type_id":"4","last_reported":1738836582,"current_range_meters":37600,"station_id":"ce4bgn92rcd13ifvqbvg","pricing_plan_id":"cebpf4jnsgd1na2vs0mg"},{"bike_id":"0da13c80-55fb-483d-bc78-309d72f0175e","system_id":"levelo_inurba_marseille","lat":43.29053,"lon":5.37179,"is_reserved":false,"is_disabled":false,"rental_uris":{"android":"levelo://app?vid=0da13c80-55fb-483d-bc78-309d72f0175e","ios":"levelo://app?vid=0da13c80-55fb-483d-bc78-309d72f0175e"},"vehicle_type_id":"4","last_reported":1738836582,"current_range_meters":28800,"station_id":"ce4bh5p2rcd13ifvqe4g","pricing_plan_id":"cebpf4jnsgd1na2vs0mg"},{"bike_id":"7ca9f374-ee35-4f21-92e1-feea20fa735d","system_id":"levelo_inurba_marseille","lat":43.25496,"lon":5.37653,"is_reserved":false,"is_disabled":false,"rental_uris":{"android":"levelo://app?vid=7ca9f374-ee35-4f21-92e1-feea20fa735d","ios":"levelo://app?vid=7ca9f374-ee35-4f21-92e1-feea20fa735d"},"vehicle_type_id":"4","last_reported":1738836582,"current_range_meters":3200,"station_id":"ce4bhh12rcd13ifvqff0","pricing_plan_id":"cebpf4jnsgd1na2vs0mg"},{"bike_id":"bc3a20aa-daf6-4c5e-ac1c-17a251997803","system_id":"levelo_inurba_marseille","lat":43.24536,"lon":5.39539,"is_reserved":false,"is_disabled":false,"rental_uris":{"android":"levelo://app?vid=bc3a20aa-daf6-4c5e-ac1c-17a251997803","ios":"levelo://app?vid=bc3a20aa-daf6-4c5e-ac1c-17a251997803"},"vehicle_type_id":"4","last_reported":1738836582,"current_range_meters":38400,"station_id":"ce4bhlp2rcd13ifvqgjg","pricing_plan_id":"cebpf4jnsgd1na2vs0mg"},{"bike_id":"2e06cead-7f65-4ae9-abd5-86c6a93c1cf2","system_id":"levelo_inurba_marseille","lat":43.29258,"lon":5.40903,"is_reserved":false,"is_disabled":false,"rental_uris":{"android":"levelo://app?vid=2e06cead-7f65-4ae9-abd5-86c6a93c1cf2","ios":"levelo://app?vid=2e06cead-7f65-4ae9-abd5-86c6a93c1cf2"},"vehicle_type_id":"4","last_reported":1738836582,"current_range_meters":32400,"station_id":"ce4bh192rcd13ifvqdc0","pricing_plan_id":"cebpf4jnsgd1na2vs0mg"},{"bike_id":"12dd591c-af41-4b22-9fb5-9d4eab8636c6","system_id":"levelo_inurba_marseille","lat":43.30478,"lon":5.3791,"is_reserved":false,"is_disabled":false,"rental_uris":{"android":"levelo://app?vid=12dd591c-af41-4b22-9fb5-9d4eab8636c6","ios":"levelo://app?vid=12dd591c-af41-4b22-9fb5-9d4eab8636c6"},"vehicle_type_id":"4","last_reported":1738836582,"current_range_meters":36000,"station_id":"ce4bgup2rcd13ifvqcn0","pricing_plan_id":"cebpf4jnsgd1na2vs0mg"},{"bike_id":"24f8948c-ad3c-4dd5-9fd9-8b499ad912db","system_id":"levelo_inurba_marseille","lat":43.28931,"lon":5.36391,"is_reserved":false,"is_disabled":false,"rental_uris":{"android":"levelo://app?vid=24f8948c-ad3c-4dd5-9fd9-8b499ad912db","ios":"levelo://app?vid=24f8948c-ad3c-4dd5-9fd9-8b499ad912db"},"vehicle_type_id":"4","last_reported":1738836582,"current_range_meters":20800,"station_id":"ce4bhc92rcd13ifvqetg","pricing_plan_id":"cebpf4jnsgd1na2vs0mg"},{"bike_id":"9eb01c18-d575-49b0-b335-bff70127852a","system_id":"levelo_inurba_marseille","lat":43.292626,"lon":5.384296,"is_reserved":false,"is_disabled":true,"rental_uris":{"android":"levelo://app?vid=9eb01c18-d575-49b0-b335-bff70127852a","ios":"levelo://app?vid=9eb01c18-d575-49b0-b335-bff70127852a"},"vehicle_type_id":"4","last_reported":1738836582,"current_range_meters":38400,"station_id":"ce4bh692rcd13ifvqea0","pricing_plan_id":"cebpf4jnsgd1na2vs0mg"},{"bike_id":"5839687c-ec5f-4351-a68e-45ba25ac463e","system_id":"levelo_inurba_marseille","lat":43.30424,"lon":5.38889,"is_reserved":false,"is_disabled":false,"rental_uris":{"android":"levelo://app?vid=5839687c-ec5f-4351-a68e-45ba25ac463e","ios":"levelo://app?vid=5839687c-ec5f-4351-a68e-45ba25ac463e"},"vehicle_type_id":"4","last_reported":1738836582,"current_range_meters":10800,"station_id":"ce4bgk12rcd13ifvqbi0","pricing_plan_id":"cebpf4jnsgd1na2vs0mg"},{"bike_id":"09963baf-f270-43fd-8845-1d0fc8b80973","system_id":"levelo_inurba_marseille","lat":43.29088,"lon":5.38172,"is_reserved":false,"is_disabled":true,"rental_uris":{"android":"levelo://app?vid=09963baf-f270-43fd-8845-1d0fc8b80973","ios":"levelo://app?vid=09963baf-f270-43fd-8845-1d0fc8b80973"},"vehicle_type_id":"4","last_reported":1738836582,"current_range_meters":0,"station_id":"ce4bh512rcd13ifvqe2g","pricing_plan_id":"cebpf4jnsgd1na2vs0mg"},{"bike_id":"4646af66-0dd4-47cf-83cb-4f3f70a6c2f5","system_id":"levelo_inurba_marseille","lat":43.2669,"lon":5.38249,"is_reserved":false,"is_disabled":false,"rental_uris":{"android":"levelo://app?vid=4646af66-0dd4-47cf-83cb-4f3f70a6c2f5","ios":"levelo://app?vid=4646af66-0dd4-47cf-83cb-4f3f70a6c2f5"},"vehicle_type_id":"4","last_reported":1738836582,"current_range_meters":39200,"station_id":"ce4bhg92rcd13ifvqf90","pricing_plan_id":"cebpf4jnsgd1na2vs0mg"},{"bike_id":"0d749b8b-94c3-4b93-a2e6-e46e0c637030","system_id":"levelo_inurba_marseille","lat":43.29589,"lon":5.38105,"is_reserved":false,"is_disabled":true,"rental_uris":{"android":"levelo://app?vid=0d749b8b-94c3-4b93-a2e6-e46e0c637030","ios":"levelo://app?vid=0d749b8b-94c3-4b93-a2e6-e46e0c637030"},"vehicle_type_id":"4","last_reported":1738836582,"current_range_meters":0,"station_id":"ce4bgl12rcd13ifvqbo0","pricing_plan_id":"cebpf4jnsgd1na2vs0mg"},{"bike_id":"9e1f3f21-cac8-4032-8cc5-7619214da968","system_id":"levelo_inurba_marseille","lat":43.28467,"lon":5.38537,"is_reserved":false,"is_disabled":false,"rental_uris":{"android":"levelo://app?vid=9e1f3f21-cac8-4032-8cc5-7619214da968","ios":"levelo://app?vid=9e1f3f21-cac8-4032-8cc5-7619214da968"},"vehicle_type_id":"4","last_reported":1738836582,"current_range_meters":38800,"station_id":"ce4bh8p2rcd13ifvqeb0","pricing_plan_id":"cebpf4jnsgd1na2vs0mg"},{"bike_id":"c8f5c26b-f468-45cd-ad47-7693ca5af32a","system_id":"levelo_inurba_marseille","lat":43.30189,"lon":5.36615,"is_reserved":false,"is_disabled":false,"rental_uris":{"android":"levelo://app?vid=c8f5c26b-f468-45cd-ad47-7693ca5af32a","ios":"levelo://app?vid=c8f5c26b-f468-45cd-ad47-7693ca5af32a"},"vehicle_type_id":"4","last_reported":1738836582,"current_range_meters":38800,"station_id":"ce4bgrh2rcd13ifvqc8g","pricing_plan_id":"cebpf4jnsgd1na2vs0mg"},{"bike_id":"3d13a1bd-14fb-4bcd-abcd-ded034c2c5a1","system_id":"levelo_inurba_marseille","lat":43.27808,"lon":5.40728,"is_reserved":false,"is_disabled":false,"rental_uris":{"android":"levelo://app?vid=3d13a1bd-14fb-4bcd-abcd-ded034c2c5a1","ios":"levelo://app?vid=3d13a1bd-14fb-4bcd-abcd-ded034c2c5a1"},"vehicle_type_id":"4","last_reported":1738836582,"current_range_meters":38800,"station_id":"ce4bhnh2rcd13ifvqgtg","pricing_plan_id":"cebpf4jnsgd1na2vs0mg"},{"bike_id":"16c08f4f-5078-4227-884d-a77ebbaaee0c","system_id":"levelo_inurba_marseille","lat":43.28152,"lon":5.4265,"is_reserved":false,"is_disabled":false,"rental_uris":{"android":"levelo://app?vid=16c08f4f-5078-4227-884d-a77ebbaaee0c","ios":"levelo://app?vid=16c08f4f-5078-4227-884d-a77ebbaaee0c"},"vehicle_type_id":"4","last_reported":1738836582,"current_range_meters":38800,"station_id":"ce4bhnh2rcd13ifvqgug","pricing_plan_id":"cebpf4jnsgd1na2vs0mg"},{"bike_id":"ff3d9c62-eb2a-492c-a8a9-5a5ad5f9a381","system_id":"levelo_inurba_marseille","lat":43.29298,"lon":5.37178,"is_reserved":false,"is_disabled":true,"rental_uris":{"android":"levelo://app?vid=ff3d9c62-eb2a-492c-a8a9-5a5ad5f9a381","ios":"levelo://app?vid=ff3d9c62-eb2a-492c-a8a9-5a5ad5f9a381"},"vehicle_type_id":"4","last_reported":1738836582,"current_range_meters":31200,"station_id":"ce4bgh92rcd13ifvqb40","pricing_plan_id":"cebpf4jnsgd1na2vs0mg"},{"bike_id":"66c91f0e-d404-4399-99c9-77276ceb134d","system_id":"levelo_inurba_marseille","lat":43.3054,"lon":5.36543,"is_reserved":false,"is_disabled":false,"rental_uris":{"android":"levelo://app?vid=66c91f0e-d404-4399-99c9-77276ceb134d","ios":"levelo://app?vid=66c91f0e-d404-4399-99c9-77276ceb134d"},"vehicle_type_id":"4","last_reported":1738836582,"current_range_meters":34800,"station_id":"ce4bgs12rcd13ifvqcag","pricing_plan_id":"cebpf4jnsgd1na2vs0mg"},{"bike_id":"0fe75a77-59c8-4e9b-a9c0-5d484c957c5c","system_id":"levelo_inurba_marseille","lat":43.2871,"lon":5.37954,"is_reserved":false,"is_disabled":true,"rental_uris":{"android":"levelo://app?vid=0fe75a77-59c8-4e9b-a9c0-5d484c957c5c","ios":"levelo://app?vid=0fe75a77-59c8-4e9b-a9c0-5d484c957c5c"},"vehicle_type_id":"4","last_reported":1738836582,"current_range_meters":9200,"station_id":"ce4bh9p2rcd13ifvqec0","pricing_plan_id":"cebpf4jnsgd1na2vs0mg"},{"bike_id":"bab07d03-5352-4a1b-80e4-e1f9df8edacd","system_id":"levelo_inurba_marseille","lat":43.23179,"lon":5.35589,"is_reserved":false,"is_disabled":false,"rental_uris":{"android":"levelo://app?vid=bab07d03-5352-4a1b-80e4-e1f9df8edacd","ios":"levelo://app?vid=bab07d03-5352-4a1b-80e4-e1f9df8edacd"},"vehicle_type_id":"4","last_reported":1738836582,"current_range_meters":34000,"station_id":"ce4bhu92rcd13ifvqi70","pricing_plan_id":"cebpf4jnsgd1na2vs0mg"},{"bike_id":"ae58f566-5afd-4c2c-9a43-e948f526a2e0","system_id":"levelo_inurba_marseille","lat":43.33605,"lon":5.40995,"is_reserved":false,"is_disabled":false,"rental_uris":{"android":"levelo://app?vid=ae58f566-5afd-4c2c-9a43-e948f526a2e0","ios":"levelo://app?vid=ae58f566-5afd-4c2c-9a43-e948f526a2e0"},"vehicle_type_id":"4","last_reported":1738836582,"current_range_meters":25200,"station_id":"ce4bhqh2rcd13ifvqhmg","pricing_plan_id":"cebpf4jnsgd1na2vs0mg"},{"bike_id":"d8bb33a3-1b15-4044-a9bd-7030a4461d24","system_id":"levelo_inurba_marseille","lat":43.2557,"lon":5.38245,"is_reserved":false,"is_disabled":false,"rental_uris":{"android":"levelo://app?vid=d8bb33a3-1b15-4044-a9bd-7030a4461d24","ios":"levelo://app?vid=d8bb33a3-1b15-4044-a9bd-7030a4461d24"},"vehicle_type_id":"4","last_reported":1738836582,"current_range_meters":38800,"station_id":"ce4bhih2rcd13ifvqfs0","pricing_plan_id":"cebpf4jnsgd1na2vs0mg"},{"bike_id":"08040fc4-efda-470c-9580-4019bf44ba10","system_id":"levelo_inurba_marseille","lat":43.24165,"lon":5.364,"is_reserved":false,"is_disabled":false,"rental_uris":{"android":"levelo://app?vid=08040fc4-efda-470c-9580-4019bf44ba10","ios":"levelo://app?vid=08040fc4-efda-470c-9580-4019bf44ba10"},"vehicle_type_id":"4","last_reported":1738836582,"current_range_meters":27200,"station_id":"cpo36qri1sfpv3e86is0","pricing_plan_id":"cebpf4jnsgd1na2vs0mg"},{"bike_id":"3b8e2dc4-e56e-4d1a-b60f-f224de8f13be","system_id":"levelo_inurba_marseille","lat":43.29443,"lon":5.39782,"is_reserved":false,"is_disabled":false,"rental_uris":{"android":"levelo://app?vid=3b8e2dc4-e56e-4d1a-b60f-f224de8f13be","ios":"levelo://app?vid=3b8e2dc4-e56e-4d1a-b60f-f224de8f13be"},"vehicle_type_id":"4","last_reported":1738836582,"current_range_meters":12400,"station_id":"ce4bh3h2rcd13ifvqdo0","pricing_plan_id":"cebpf4jnsgd1na2vs0mg"},{"bike_id":"e754019e-7c8b-4672-9a61-98573c199dda","system_id":"levelo_inurba_marseille","lat":43.32549,"lon":5.41456,"is_reserved":false,"is_disabled":false,"rental_uris":{"android":"levelo://app?vid=e754019e-7c8b-4672-9a61-98573c199dda","ios":"levelo://app?vid=e754019e-7c8b-4672-9a61-98573c199dda"},"vehicle_type_id":"4","last_reported":1738836582,"current_range_meters":39200,"station_id":"ce4bhq12rcd13ifvqhhg","pricing_plan_id":"cebpf4jnsgd1na2vs0mg"},{"bike_id":"595588ff-42cd-4170-8c75-046e92bfb34d","system_id":"levelo_inurba_marseille","lat":43.30467,"lon":5.37909,"is_reserved":false,"is_disabled":true,"rental_uris":{"android":"levelo://app?vid=595588ff-42cd-4170-8c75-046e92bfb34d","ios":"levelo://app?vid=595588ff-42cd-4170-8c75-046e92bfb34d"},"vehicle_type_id":"4","last_reported":1738836582,"current_range_meters":14400,"station_id":"ce4bho92rcd13ifvqh3g","pricing_plan_id":"cebpf4jnsgd1na2vs0mg"},{"bike_id":"738f56e0-4691-484c-a3d4-49c733b2e236","system_id":"levelo_inurba_marseille","lat":43.22931,"lon":5.3538,"is_reserved":false,"is_disabled":false,"rental_uris":{"android":"levelo://app?vid=738f56e0-4691-484c-a3d4-49c733b2e236","ios":"levelo://app?vid=738f56e0-4691-484c-a3d4-49c733b2e236"},"vehicle_type_id":"4","last_reported":1738836582,"current_range_meters":28400,"station_id":"cpo3532slgdg3j2ikp40","pricing_plan_id":"cebpf4jnsgd1na2vs0mg"},{"bike_id":"934710cf-9010-4a78-81b6-34b30dbe6d5c","system_id":"levelo_inurba_marseille","lat":43.26196,"lon":5.37929,"is_reserved":false,"is_disabled":false,"rental_uris":{"android":"levelo://app?vid=934710cf-9010-4a78-81b6-34b30dbe6d5c","ios":"levelo://app?vid=934710cf-9010-4a78-81b6-34b30dbe6d5c"},"vehicle_type_id":"4","last_reported":1738836582,"current_range_meters":39200,"station_id":"ce4bhjp2rcd13ifvqg90","pricing_plan_id":"cebpf4jnsgd1na2vs0mg"},{"bike_id":"db291362-da05-47eb-b6da-a2f10fa12168","system_id":"levelo_inurba_marseille","lat":43.2668,"lon":5.38267,"is_reserved":false,"is_disabled":false,"rental_uris":{"android":"levelo://app?vid=db291362-da05-47eb-b6da-a2f10fa12168","ios":"levelo://app?vid=db291362-da05-47eb-b6da-a2f10fa12168"},"vehicle_type_id":"4","last_reported":1738836582,"current_range_meters":23200,"station_id":"ce4bhg92rcd13ifvqf90","pricing_plan_id":"cebpf4jnsgd1na2vs0mg"},{"bike_id":"1581d598-5307-4e55-905b-001a70f200f9","system_id":"levelo_inurba_marseille","lat":43.25726,"lon":5.41105,"is_reserved":false,"is_disabled":false,"rental_uris":{"android":"levelo://app?vid=1581d598-5307-4e55-905b-001a70f200f9","ios":"levelo://app?vid=1581d598-5307-4e55-905b-001a70f200f9"},"vehicle_type_id":"4","last_reported":1738836582,"current_range_meters":30400,"station_id":"ce4bhkp2rcd13ifvqgd0","pricing_plan_id":"cebpf4jnsgd1na2vs0mg"},{"bike_id":"554d4d34-db2a-43ff-b073-f167bc955577","system_id":"levelo_inurba_marseille","lat":43.27481,"lon":5.42487,"is_reserved":false,"is_disabled":false,"rental_uris":{"android":"levelo://app?vid=554d4d34-db2a-43ff-b073-f167bc955577","ios":"levelo://app?vid=554d4d34-db2a-43ff-b073-f167bc955577"},"vehicle_type_id":"4","last_reported":1738836582,"current_range_meters":28800,"station_id":"ce4bhn92rcd13ifvqgrg","pricing_plan_id":"cebpf4jnsgd1na2vs0mg"},{"bike_id":"87ea7a2e-3367-4617-b793-d6e97e762c1f","system_id":"levelo_inurba_marseille","lat":43.27418,"lon":5.3938,"is_reserved":false,"is_disabled":false,"rental_uris":{"android":"levelo://app?vid=87ea7a2e-3367-4617-b793-d6e97e762c1f","ios":"levelo://app?vid=87ea7a2e-3367-4617-b793-d6e97e762c1f"},"vehicle_type_id":"4","last_reported":1738836582,"current_range_meters":38800,"station_id":"ce4bhdp2rcd13ifvqf20","pricing_plan_id":"cebpf4jnsgd1na2vs0mg"},{"bike_id":"6522239a-3688-4f94-bb02-adaf4a055ea5","system_id":"levelo_inurba_marseille","lat":43.23188,"lon":5.3556,"is_reserved":false,"is_disabled":false,"rental_uris":{"android":"levelo://app?vid=6522239a-3688-4f94-bb02-adaf4a055ea5","ios":"levelo://app?vid=6522239a-3688-4f94-bb02-adaf4a055ea5"},"vehicle_type_id":"4","last_reported":1738836582,"current_range_meters":38800,"station_id":"ce4bhu92rcd13ifvqi70","pricing_plan_id":"cebpf4jnsgd1na2vs0mg"},{"bike_id":"aee3719b-ff75-435e-aa1c-24b4bddf333e","system_id":"levelo_inurba_marseille","lat":43.24048,"lon":5.37766,"is_reserved":false,"is_disabled":false,"rental_uris":{"android":"levelo://app?vid=aee3719b-ff75-435e-aa1c-24b4bddf333e","ios":"levelo://app?vid=aee3719b-ff75-435e-aa1c-24b4bddf333e"},"vehicle_type_id":"4","last_reported":1738836582,"current_range_meters":16000,"station_id":"ce4bhnp2rcd13ifvqgvg","pricing_plan_id":"cebpf4jnsgd1na2vs0mg"},{"bike_id":"6fd0c732-3a1a-4c3f-8237-1cac68335031","system_id":"levelo_inurba_marseille","lat":43.27463,"lon":5.42505,"is_reserved":false,"is_disabled":true,"rental_uris":{"android":"levelo://app?vid=6fd0c732-3a1a-4c3f-8237-1cac68335031","ios":"levelo://app?vid=6fd0c732-3a1a-4c3f-8237-1cac68335031"},"vehicle_type_id":"4","last_reported":1738836582,"current_range_meters":18800,"station_id":"ce4bhn92rcd13ifvqgrg","pricing_plan_id":"cebpf4jnsgd1na2vs0mg"},{"bike_id":"2067b896-33e2-45f5-86d8-d65552e3842f","system_id":"levelo_inurba_marseille","lat":43.30117,"lon":5.37431,"is_reserved":false,"is_disabled":false,"rental_uris":{"android":"levelo://app?vid=2067b896-33e2-45f5-86d8-d65552e3842f","ios":"levelo://app?vid=2067b896-33e2-45f5-86d8-d65552e3842f"},"vehicle_type_id":"4","last_reported":1738836582,"current_range_meters":39200,"station_id":"ce4bgs92rcd13ifvqcc0","pricing_plan_id":"cebpf4jnsgd1na2vs0mg"},{"bike_id":"fb89295b-7ce5-4d72-b53b-e3381f3eddaa","system_id":"levelo_inurba_marseille","lat":43.28938,"lon":5.36399,"is_reserved":false,"is_disabled":false,"rental_uris":{"android":"levelo://app?vid=fb89295b-7ce5-4d72-b53b-e3381f3eddaa","ios":"levelo://app?vid=fb89295b-7ce5-4d72-b53b-e3381f3eddaa"},"vehicle_type_id":"4","last_reported":1738836582,"current_range_meters":22400,"station_id":"ce4bhc92rcd13ifvqetg","pricing_plan_id":"cebpf4jnsgd1na2vs0mg"},{"bike_id":"cd07e062-2af1-406e-bcb9-5f1ec4730937","system_id":"levelo_inurba_marseille","lat":43.23064,"lon":5.35496,"is_reserved":false,"is_disabled":false,"rental_uris":{"android":"levelo://app?vid=cd07e062-2af1-406e-bcb9-5f1ec4730937","ios":"levelo://app?vid=cd07e062-2af1-406e-bcb9-5f1ec4730937"},"vehicle_type_id":"4","last_reported":1738836582,"current_range_meters":36400,"station_id":"cpo3342slgdg3j2ifvpg","pricing_plan_id":"cebpf4jnsgd1na2vs0mg"},{"bike_id":"c3644d12-8427-4602-9945-9ef42c46feca","system_id":"levelo_inurba_marseille","lat":43.24136,"lon":5.36426,"is_reserved":false,"is_disabled":false,"rental_uris":{"android":"levelo://app?vid=c3644d12-8427-4602-9945-9ef42c46feca","ios":"levelo://app?vid=c3644d12-8427-4602-9945-9ef42c46feca"},"vehicle_type_id":"4","last_reported":1738836582,"current_range_meters":36400,"station_id":"cpo36qri1sfpv3e86is0","pricing_plan_id":"cebpf4jnsgd1na2vs0mg"},{"bike_id":"01b41886-2ed6-4662-b87a-6ee149db700f","system_id":"levelo_inurba_marseille","lat":43.29271,"lon":5.36849,"is_reserved":false,"is_disabled":false,"rental_uris":{"android":"levelo://app?vid=01b41886-2ed6-4662-b87a-6ee149db700f","ios":"levelo://app?vid=01b41886-2ed6-4662-b87a-6ee149db700f"},"vehicle_type_id":"4","last_reported":1738836582,"current_range_meters":31200,"station_id":"ce4bhbp2rcd13ifvqesg","pricing_plan_id":"cebpf4jnsgd1na2vs0mg"},{"bike_id":"20815bf0-f955-435e-a63e-482bd619f1c6","system_id":"levelo_inurba_marseille","lat":43.24163,"lon":5.39756,"is_reserved":false,"is_disabled":false,"rental_uris":{"android":"levelo://app?vid=20815bf0-f955-435e-a63e-482bd619f1c6","ios":"levelo://app?vid=20815bf0-f955-435e-a63e-482bd619f1c6"},"vehicle_type_id":"4","last_reported":1738836582,"current_range_meters":36800,"station_id":"ce4bhn12rcd13ifvqgpg","pricing_plan_id":"cebpf4jnsgd1na2vs0mg"},{"bike_id":"1e7bde43-ab8f-4755-b59a-acd0a53ae759","system_id":"levelo_inurba_marseille","lat":43.31697,"lon":5.42432,"is_reserved":false,"is_disabled":true,"rental_uris":{"android":"levelo://app?vid=1e7bde43-ab8f-4755-b59a-acd0a53ae759","ios":"levelo://app?vid=1e7bde43-ab8f-4755-b59a-acd0a53ae759"},"vehicle_type_id":"4","last_reported":1738836582,"current_range_meters":0,"station_id":"ce4bhp92rcd13ifvqhbg","pricing_plan_id":"cebpf4jnsgd1na2vs0mg"},{"bike_id":"53e1d245-2fa1-49d1-bd1b-b723202b5a85","system_id":"levelo_inurba_marseille","lat":43.33589,"lon":5.41029,"is_reserved":false,"is_disabled":false,"rental_uris":{"android":"levelo://app?vid=53e1d245-2fa1-49d1-bd1b-b723202b5a85","ios":"levelo://app?vid=53e1d245-2fa1-49d1-bd1b-b723202b5a85"},"vehicle_type_id":"4","last_reported":1738836582,"current_range_meters":30400,"station_id":"ce4bhqh2rcd13ifvqhmg","pricing_plan_id":"cebpf4jnsgd1na2vs0mg"},{"bike_id":"12f83b76-bc7a-463b-9760-1f418c756c34","system_id":"levelo_inurba_marseille","lat":43.24398,"lon":5.37072,"is_reserved":false,"is_disabled":false,"rental_uris":{"android":"levelo://app?vid=12f83b76-bc7a-463b-9760-1f418c756c34","ios":"levelo://app?vid=12f83b76-bc7a-463b-9760-1f418c756c34"},"vehicle_type_id":"4","last_reported":1738836582,"current_range_meters":34000,"station_id":"ce4bhhh2rcd13ifvqfk0","pricing_plan_id":"cebpf4jnsgd1na2vs0mg"},{"bike_id":"bd944b22-bdc4-45a8-9a31-0c38734abd7e","system_id":"levelo_inurba_marseille","lat":43.28917,"lon":5.36426,"is_reserved":false,"is_disabled":true,"rental_uris":{"android":"levelo://app?vid=bd944b22-bdc4-45a8-9a31-0c38734abd7e","ios":"levelo://app?vid=bd944b22-bdc4-45a8-9a31-0c38734abd7e"},"vehicle_type_id":"4","last_reported":1738836582,"current_range_meters":400,"station_id":"","pricing_plan_id":"cebpf4jnsgd1na2vs0mg"},{"bike_id":"323fd1fd-6fc6-4abf-8c9c-e67f624cbd31","system_id":"levelo_inurba_marseille","lat":43.33761,"lon":5.37449,"is_reserved":false,"is_disabled":false,"rental_uris":{"android":"levelo://app?vid=323fd1fd-6fc6-4abf-8c9c-e67f624cbd31","ios":"levelo://app?vid=323fd1fd-6fc6-4abf-8c9c-e67f624cbd31"},"vehicle_type_id":"4","last_reported":1738836582,"current_range_meters":32000,"station_id":"","pricing_plan_id":"cebpf4jnsgd1na2vs0mg"},{"bike_id":"78a4c83f-4d73-437d-9527-15d2cb2bd443","system_id":"levelo_inurba_marseille","lat":43.28143,"lon":5.42647,"is_reserved":false,"is_disabled":false,"rental_uris":{"android":"levelo://app?vid=78a4c83f-4d73-437d-9527-15d2cb2bd443","ios":"levelo://app?vid=78a4c83f-4d73-437d-9527-15d2cb2bd443"},"vehicle_type_id":"4","last_reported":1738836582,"current_range_meters":39200,"station_id":"ce4bhnh2rcd13ifvqgug","pricing_plan_id":"cebpf4jnsgd1na2vs0mg"},{"bike_id":"2ee7c118-49ff-47fe-a9e4-7a60ef2b2763","system_id":"levelo_inurba_marseille","lat":43.3236,"lon":5.38882,"is_reserved":false,"is_disabled":false,"rental_uris":{"android":"levelo://app?vid=2ee7c118-49ff-47fe-a9e4-7a60ef2b2763","ios":"levelo://app?vid=2ee7c118-49ff-47fe-a9e4-7a60ef2b2763"},"vehicle_type_id":"4","last_reported":1738836582,"current_range_meters":30400,"station_id":"ce4bhqp2rcd13ifvqhog","pricing_plan_id":"cebpf4jnsgd1na2vs0mg"},{"bike_id":"45a7daa2-2a2e-4454-90c3-1009aaecc5bd","system_id":"levelo_inurba_marseille","lat":43.231936,"lon":5.35548,"is_reserved":false,"is_disabled":false,"rental_uris":{"android":"levelo://app?vid=45a7daa2-2a2e-4454-90c3-1009aaecc5bd","ios":"levelo://app?vid=45a7daa2-2a2e-4454-90c3-1009aaecc5bd"},"vehicle_type_id":"4","last_reported":1738836582,"current_range_meters":39200,"station_id":"ce4bhu92rcd13ifvqi70","pricing_plan_id":"cebpf4jnsgd1na2vs0mg"},{"bike_id":"d5b9fb40-0c03-4ed2-b239-3760bd2b7021","system_id":"levelo_inurba_marseille","lat":43.28725,"lon":5.37941,"is_reserved":false,"is_disabled":false,"rental_uris":{"android":"levelo://app?vid=d5b9fb40-0c03-4ed2-b239-3760bd2b7021","ios":"levelo://app?vid=d5b9fb40-0c03-4ed2-b239-3760bd2b7021"},"vehicle_type_id":"4","last_reported":1738836582,"current_range_meters":0,"station_id":"ce4bh9p2rcd13ifvqec0","pricing_plan_id":"cebpf4jnsgd1na2vs0mg"},{"bike_id":"aece1634-918f-4f68-8bc7-9a7b7abafc1f","system_id":"levelo_inurba_marseille","lat":43.2818,"lon":5.42639,"is_reserved":false,"is_disabled":true,"rental_uris":{"android":"levelo://app?vid=aece1634-918f-4f68-8bc7-9a7b7abafc1f","ios":"levelo://app?vid=aece1634-918f-4f68-8bc7-9a7b7abafc1f"},"vehicle_type_id":"4","last_reported":1738836582,"current_range_meters":26800,"station_id":"ce4bhnh2rcd13ifvqgug","pricing_plan_id":"cebpf4jnsgd1na2vs0mg"},{"bike_id":"aed95c19-b94a-4cd1-bdd0-71dcebbed92e","system_id":"levelo_inurba_marseille","lat":43.32555,"lon":5.41497,"is_reserved":false,"is_disabled":false,"rental_uris":{"android":"levelo://app?vid=aed95c19-b94a-4cd1-bdd0-71dcebbed92e","ios":"levelo://app?vid=aed95c19-b94a-4cd1-bdd0-71dcebbed92e"},"vehicle_type_id":"4","last_reported":1738836582,"current_range_meters":38800,"station_id":"ce4bhq12rcd13ifvqhhg","pricing_plan_id":"cebpf4jnsgd1na2vs0mg"},{"bike_id":"f15323e2-4f0f-461f-9da3-dbaaf5dc0e8b","system_id":"levelo_inurba_marseille","lat":43.29365,"lon":5.37864,"is_reserved":false,"is_disabled":false,"rental_uris":{"android":"levelo://app?vid=f15323e2-4f0f-461f-9da3-dbaaf5dc0e8b","ios":"levelo://app?vid=f15323e2-4f0f-461f-9da3-dbaaf5dc0e8b"},"vehicle_type_id":"4","last_reported":1738836582,"current_range_meters":38000,"station_id":"ce4bgjh2rcd13ifvqbf0","pricing_plan_id":"cebpf4jnsgd1na2vs0mg"},{"bike_id":"3b1d5f28-8e2f-4cd2-84ee-32e60c8bc1d4","system_id":"levelo_inurba_marseille","lat":43.27939,"lon":5.38768,"is_reserved":false,"is_disabled":false,"rental_uris":{"android":"levelo://app?vid=3b1d5f28-8e2f-4cd2-84ee-32e60c8bc1d4","ios":"levelo://app?vid=3b1d5f28-8e2f-4cd2-84ee-32e60c8bc1d4"},"vehicle_type_id":"4","last_reported":1738836582,"current_range_meters":38000,"station_id":"ce4bhg12rcd13ifvqf80","pricing_plan_id":"cebpf4jnsgd1na2vs0mg"},{"bike_id":"66e475f0-1f94-4f0d-9bb7-45c45668a15f","system_id":"levelo_inurba_marseille","lat":43.26483,"lon":5.3955,"is_reserved":false,"is_disabled":false,"rental_uris":{"android":"levelo://app?vid=66e475f0-1f94-4f0d-9bb7-45c45668a15f","ios":"levelo://app?vid=66e475f0-1f94-4f0d-9bb7-45c45668a15f"},"vehicle_type_id":"4","last_reported":1738836582,"current_range_meters":15200,"station_id":"ce4bhi12rcd13ifvqfq0","pricing_plan_id":"cebpf4jnsgd1na2vs0mg"},{"bike_id":"dd71d97f-8b4b-4a1b-a8d7-a09a3041be67","system_id":"levelo_inurba_marseille","lat":43.28132,"lon":5.42667,"is_reserved":false,"is_disabled":false,"rental_uris":{"android":"levelo://app?vid=dd71d97f-8b4b-4a1b-a8d7-a09a3041be67","ios":"levelo://app?vid=dd71d97f-8b4b-4a1b-a8d7-a09a3041be67"},"vehicle_type_id":"4","last_reported":1738836582,"current_range_meters":38000,"station_id":"ce4bhnh2rcd13ifvqgug","pricing_plan_id":"cebpf4jnsgd1na2vs0mg"},{"bike_id":"a17b902b-bafc-49d0-9389-2ce74253b3a1","system_id":"levelo_inurba_marseille","lat":43.27166,"lon":5.41004,"is_reserved":false,"is_disabled":false,"rental_uris":{"android":"levelo://app?vid=a17b902b-bafc-49d0-9389-2ce74253b3a1","ios":"levelo://app?vid=a17b902b-bafc-49d0-9389-2ce74253b3a1"},"vehicle_type_id":"4","last_reported":1738836582,"current_range_meters":39200,"station_id":"ce4bhl12rcd13ifvqgf0","pricing_plan_id":"cebpf4jnsgd1na2vs0mg"},{"bike_id":"82928581-7cae-4db3-9a68-a5b9ec34a9ee","system_id":"levelo_inurba_marseille","lat":43.318921,"lon":5.4336,"is_reserved":false,"is_disabled":true,"rental_uris":{"android":"levelo://app?vid=82928581-7cae-4db3-9a68-a5b9ec34a9ee","ios":"levelo://app?vid=82928581-7cae-4db3-9a68-a5b9ec34a9ee"},"vehicle_type_id":"4","last_reported":1738836582,"current_range_meters":0,"station_id":"","pricing_plan_id":"cebpf4jnsgd1na2vs0mg"},{"bike_id":"9570fd30-4823-4c4c-9c30-a0698b1ec018","system_id":"levelo_inurba_marseille","lat":43.26555,"lon":5.37287,"is_reserved":false,"is_disabled":true,"rental_uris":{"android":"levelo://app?vid=9570fd30-4823-4c4c-9c30-a0698b1ec018","ios":"levelo://app?vid=9570fd30-4823-4c4c-9c30-a0698b1ec018"},"vehicle_type_id":"4","last_reported":1738836582,"current_range_meters":0,"station_id":"ce4bhg12rcd13ifvqf70","pricing_plan_id":"cebpf4jnsgd1na2vs0mg"},{"bike_id":"64eeddb9-f3f0-44ac-a096-e8cc0c20b0f9","system_id":"levelo_inurba_marseille","lat":43.28286,"lon":5.35067,"is_reserved":false,"is_disabled":false,"rental_uris":{"android":"levelo://app?vid=64eeddb9-f3f0-44ac-a096-e8cc0c20b0f9","ios":"levelo://app?vid=64eeddb9-f3f0-44ac-a096-e8cc0c20b0f9"},"vehicle_type_id":"4","last_reported":1738836582,"current_range_meters":27600,"station_id":"ce4bhbp2rcd13ifvqerg","pricing_plan_id":"cebpf4jnsgd1na2vs0mg"},{"bike_id":"ecae73d1-2c66-4113-a621-fef7465426a7","system_id":"levelo_inurba_marseille","lat":43.23184,"lon":5.35571,"is_reserved":false,"is_disabled":false,"rental_uris":{"android":"levelo://app?vid=ecae73d1-2c66-4113-a621-fef7465426a7","ios":"levelo://app?vid=ecae73d1-2c66-4113-a621-fef7465426a7"},"vehicle_type_id":"4","last_reported":1738836582,"current_range_meters":24000,"station_id":"ce4bhu92rcd13ifvqi70","pricing_plan_id":"cebpf4jnsgd1na2vs0mg"},{"bike_id":"b3215240-4dd2-4eb3-a277-f713905ed079","system_id":"levelo_inurba_marseille","lat":43.26198,"lon":5.37447,"is_reserved":false,"is_disabled":true,"rental_uris":{"android":"levelo://app?vid=b3215240-4dd2-4eb3-a277-f713905ed079","ios":"levelo://app?vid=b3215240-4dd2-4eb3-a277-f713905ed079"},"vehicle_type_id":"4","last_reported":1738836582,"current_range_meters":22400,"station_id":"ce4bhgp2rcd13ifvqfc0","pricing_plan_id":"cebpf4jnsgd1na2vs0mg"},{"bike_id":"8a3b1adc-e338-472b-9199-ede1c4fce4fb","system_id":"levelo_inurba_marseille","lat":43.30459,"lon":5.37922,"is_reserved":false,"is_disabled":false,"rental_uris":{"android":"levelo://app?vid=8a3b1adc-e338-472b-9199-ede1c4fce4fb","ios":"levelo://app?vid=8a3b1adc-e338-472b-9199-ede1c4fce4fb"},"vehicle_type_id":"4","last_reported":1738836582,"current_range_meters":39200,"station_id":"ce4bgup2rcd13ifvqcn0","pricing_plan_id":"cebpf4jnsgd1na2vs0mg"},{"bike_id":"96640a5d-a724-47aa-a964-25b29748e9bd","system_id":"levelo_inurba_marseille","lat":43.25941,"lon":5.40905,"is_reserved":false,"is_disabled":false,"rental_uris":{"android":"levelo://app?vid=96640a5d-a724-47aa-a964-25b29748e9bd","ios":"levelo://app?vid=96640a5d-a724-47aa-a964-25b29748e9bd"},"vehicle_type_id":"4","last_reported":1738836582,"current_range_meters":24000,"station_id":"ce4bhm92rcd13ifvqglg","pricing_plan_id":"cebpf4jnsgd1na2vs0mg"},{"bike_id":"955f501f-1062-4fff-b72b-efb835829125","system_id":"levelo_inurba_marseille","lat":43.27375,"lon":5.36258,"is_reserved":false,"is_disabled":false,"rental_uris":{"android":"levelo://app?vid=955f501f-1062-4fff-b72b-efb835829125","ios":"levelo://app?vid=955f501f-1062-4fff-b72b-efb835829125"},"vehicle_type_id":"4","last_reported":1738836582,"current_range_meters":22800,"station_id":"ce4bhbh2rcd13ifvqeo0","pricing_plan_id":"cebpf4jnsgd1na2vs0mg"},{"bike_id":"2e693b03-0e4d-4436-9e89-03cd994088b6","system_id":"levelo_inurba_marseille","lat":43.29576,"lon":5.36752,"is_reserved":false,"is_disabled":false,"rental_uris":{"android":"levelo://app?vid=2e693b03-0e4d-4436-9e89-03cd994088b6","ios":"levelo://app?vid=2e693b03-0e4d-4436-9e89-03cd994088b6"},"vehicle_type_id":"4","last_reported":1738836582,"current_range_meters":36000,"station_id":"ce4bgph2rcd13ifvqc2g","pricing_plan_id":"cebpf4jnsgd1na2vs0mg"},{"bike_id":"0a1d80a5-8567-473e-862c-e2d2e710157a","system_id":"levelo_inurba_marseille","lat":43.2842,"lon":5.34985,"is_reserved":false,"is_disabled":false,"rental_uris":{"android":"levelo://app?vid=0a1d80a5-8567-473e-862c-e2d2e710157a","ios":"levelo://app?vid=0a1d80a5-8567-473e-862c-e2d2e710157a"},"vehicle_type_id":"4","last_reported":1738836582,"current_range_meters":30000,"station_id":"ce4bhbh2rcd13ifvqepg","pricing_plan_id":"cebpf4jnsgd1na2vs0mg"},{"bike_id":"3e5eb2c1-62ce-47c3-8283-fc8a6b93c012","system_id":"levelo_inurba_marseille","lat":43.26785,"lon":5.39422,"is_reserved":false,"is_disabled":false,"rental_uris":{"android":"levelo://app?vid=3e5eb2c1-62ce-47c3-8283-fc8a6b93c012","ios":"levelo://app?vid=3e5eb2c1-62ce-47c3-8283-fc8a6b93c012"},"vehicle_type_id":"4","last_reported":1738836582,"current_range_meters":36000,"station_id":"ce4bhh12rcd13ifvqfg0","pricing_plan_id":"cebpf4jnsgd1na2vs0mg"},{"bike_id":"ef15b174-9029-4622-95b2-4e5f874342a6","system_id":"levelo_inurba_marseille","lat":43.240757,"lon":5.37734,"is_reserved":false,"is_disabled":false,"rental_uris":{"android":"levelo://app?vid=ef15b174-9029-4622-95b2-4e5f874342a6","ios":"levelo://app?vid=ef15b174-9029-4622-95b2-4e5f874342a6"},"vehicle_type_id":"4","last_reported":1738836582,"current_range_meters":8400,"station_id":"ce4bhnp2rcd13ifvqgvg","pricing_plan_id":"cebpf4jnsgd1na2vs0mg"},{"bike_id":"efc75f68-c0e7-4c38-a126-0f2ae1afe39d","system_id":"levelo_inurba_marseille","lat":43.271801,"lon":5.409849,"is_reserved":false,"is_disabled":false,"rental_uris":{"android":"levelo://app?vid=efc75f68-c0e7-4c38-a126-0f2ae1afe39d","ios":"levelo://app?vid=efc75f68-c0e7-4c38-a126-0f2ae1afe39d"},"vehicle_type_id":"4","last_reported":1738836582,"current_range_meters":39200,"station_id":"ce4bhl12rcd13ifvqgf0","pricing_plan_id":"cebpf4jnsgd1na2vs0mg"},{"bike_id":"c8867084-73b3-4ef6-939b-90719c3af5d4","system_id":"levelo_inurba_marseille","lat":43.24157,"lon":5.36455,"is_reserved":false,"is_disabled":true,"rental_uris":{"android":"levelo://app?vid=c8867084-73b3-4ef6-939b-90719c3af5d4","ios":"levelo://app?vid=c8867084-73b3-4ef6-939b-90719c3af5d4"},"vehicle_type_id":"4","last_reported":1738836582,"current_range_meters":800,"station_id":"","pricing_plan_id":"cebpf4jnsgd1na2vs0mg"},{"bike_id":"0dc28690-d1fc-4c68-886e-a1e203ae5896","system_id":"levelo_inurba_marseille","lat":43.31373,"lon":5.36705,"is_reserved":false,"is_disabled":false,"rental_uris":{"android":"levelo://app?vid=0dc28690-d1fc-4c68-886e-a1e203ae5896","ios":"levelo://app?vid=0dc28690-d1fc-4c68-886e-a1e203ae5896"},"vehicle_type_id":"4","last_reported":1738836582,"current_range_meters":38800,"station_id":"ce4bgr92rcd13ifvqc6g","pricing_plan_id":"cebpf4jnsgd1na2vs0mg"},{"bike_id":"e815bea6-a15d-4e98-b368-59ecfebf95c5","system_id":"levelo_inurba_marseille","lat":43.30908,"lon":5.36856,"is_reserved":false,"is_disabled":false,"rental_uris":{"android":"levelo://app?vid=e815bea6-a15d-4e98-b368-59ecfebf95c5","ios":"levelo://app?vid=e815bea6-a15d-4e98-b368-59ecfebf95c5"},"vehicle_type_id":"4","last_reported":1738836582,"current_range_meters":38800,"station_id":"ce4bgn92rcd13ifvqbvg","pricing_plan_id":"cebpf4jnsgd1na2vs0mg"},{"bike_id":"6e5e516d-eba5-4da7-8530-376e87c826b3","system_id":"levelo_inurba_marseille","lat":43.23193,"lon":5.39978,"is_reserved":false,"is_disabled":false,"rental_uris":{"android":"levelo://app?vid=6e5e516d-eba5-4da7-8530-376e87c826b3","ios":"levelo://app?vid=6e5e516d-eba5-4da7-8530-376e87c826b3"},"vehicle_type_id":"4","last_reported":1738836582,"current_range_meters":17200,"station_id":"ce4bhn12rcd13ifvqgqg","pricing_plan_id":"cebpf4jnsgd1na2vs0mg"},{"bike_id":"c6a64351-9db3-4bb5-be12-a507bb068d20","system_id":"levelo_inurba_marseille","lat":43.30282,"lon":5.37726,"is_reserved":false,"is_disabled":false,"rental_uris":{"android":"levelo://app?vid=c6a64351-9db3-4bb5-be12-a507bb068d20","ios":"levelo://app?vid=c6a64351-9db3-4bb5-be12-a507bb068d20"},"vehicle_type_id":"4","last_reported":1738836582,"current_range_meters":32800,"station_id":"ce4bguh2rcd13ifvqcj0","pricing_plan_id":"cebpf4jnsgd1na2vs0mg"},{"bike_id":"66502117-174e-4624-bc1b-cdfaf99d636f","system_id":"levelo_inurba_marseille","lat":43.30465,"lon":5.37905,"is_reserved":false,"is_disabled":false,"rental_uris":{"android":"levelo://app?vid=66502117-174e-4624-bc1b-cdfaf99d636f","ios":"levelo://app?vid=66502117-174e-4624-bc1b-cdfaf99d636f"},"vehicle_type_id":"4","last_reported":1738836582,"current_range_meters":20800,"station_id":"ce4bgup2rcd13ifvqcn0","pricing_plan_id":"cebpf4jnsgd1na2vs0mg"},{"bike_id":"97e3f16d-c680-499c-b7df-c4ab9d43861c","system_id":"levelo_inurba_marseille","lat":43.23185,"lon":5.39987,"is_reserved":false,"is_disabled":false,"rental_uris":{"android":"levelo://app?vid=97e3f16d-c680-499c-b7df-c4ab9d43861c","ios":"levelo://app?vid=97e3f16d-c680-499c-b7df-c4ab9d43861c"},"vehicle_type_id":"4","last_reported":1738836582,"current_range_meters":18800,"station_id":"ce4bhn12rcd13ifvqgqg","pricing_plan_id":"cebpf4jnsgd1na2vs0mg"},