{"last_updated":1714410389,"ttl":30,"version":"2.2","data":{"bikes":[{"bike_id":"af6ee421-000a-4b7e-b43a-20aa942eaa40","system_id":"levelo_inurba_marseille","lat":43.294153,"lon":5.386305,"is_reserved":false,"is_disabled":false,"rental_uris":{"android":"levelo://app?vid=af6ee421-000a-4b7e-b43a-20aa942eaa40","ios":"levelo://app?vid=af6ee421-000a-4b7e-b43a-20aa942eaa40"},"vehicle_type_id":"4","last_reported":1714410389,"current_range_meters":20400,"station_id":"ce4bh2h2rcd13ifvqdh0","pricing_plan_id":"cebpf4jnsgd1na2vs0mg"},{"bike_id":"cffa8e3e-0b3d-4473-8103-ea6b61b60a03","system_id":"levelo_inurba_marseille","lat":43.312239,"lon":5.368562,"is_reserved":false,"is_disabled":false,"rental_uris":{"android":"levelo://app?vid=cffa8e3e-0b3d-4473-8103-ea6b61b60a03","ios":"levelo://app?vid=cffa8e3e-0b3d-4473-8103-ea6b61b60a03"},"vehicle_type_id":"4","last_reported":1714410389,"current_range_meters":28800,"station_id":"ce4bgl92rcd13ifvqbq0","pricing_plan_id":"cebpf4jnsgd1na2vs0mg"},{"bike_id":"6723d065-47bb-43cc-8c63-be8cf2bb8e45","system_id":"levelo_inurba_marseille","lat":43.312239,"lon":5.368562,"is_reserved":false,"is_disabled":false,"rental_uris":{"android":"levelo://app?vid=6723d065-47bb-43cc-8c63-be8cf2bb8e45","ios":"levelo://app?vid=6723d065-47bb-43cc-8c63-be8cf2bb8e45"},"vehicle_type_id":"4","last_reported":1714410389,"current_range_meters":18400,"station_id":"ce4bgl92rcd13ifvqbq0","pricing_plan_id":"cebpf4jnsgd1na2vs0mg"},{"bike_id":"d56815c2-42b7-484b-a25c-b230c8e7b1d8","system_id":"levelo_inurba_marseille","lat":43.312239,"lon":5.368562,"is_reserved":false,"is_disabled":false,"rental_uris":{"android":"levelo://app?vid=d56815c2-42b7-484b-a25c-b230c8e7b1d8","ios":"levelo://app?vid=d56815c2-42b7-484b-a25c-b230c8e7b1d8"},"vehicle_type_id":"4","last_reported":1714410389,"current_range_meters":23600,"station_id":"ce4bgl92rcd13ifvqbq0","pricing_plan_id":"cebpf4jnsgd1na2vs0mg"},{"bike_id":"f5235161-2822-42b3-9944-91619e60df78","system_id":"levelo_inurba_marseille","lat":43.312239,"lon":5.368562,"is_reserved":false,"is_disabled":false,"rental_uris":{"android":"levelo://app?vid=f5235161-2822-42b3-9944-91619e60df78","ios":"levelo://app?vid=f5235161-2822-42b3-9944-91619e60df78"},"vehicle_type_id":"4","last_reported":1714410389,"current_range_meters":31200,"station_id":"ce4bgl92rcd13ifvqbq0","pricing_plan_id":"cebpf4jnsgd1na2vs0mg"},{"bike_id":"c5045343-548d-4719-bdf1-97f6c6c2da84","system_id":"levelo_inurba_marseille","lat":43.312239,"lon":5.368562,"is_reserved":false,"is_disabled":false,"rental_uris":{"android":"levelo://app?vid=c5045343-548d-4719-bdf1-97f6c6c2da84","ios":"levelo://app?vid=c5045343-548d-4719-bdf1-97f6c6c2da84"},"vehicle_type_id":"4","last_reported":1714410389,"current_range_meters":29600,"station_id":"ce4bgl92rcd13ifvqbq0","pricing_plan_id":"cebpf4jnsgd1na2vs0mg"},{"bike_id":"ffca9167-f720-4c2d-ba65-22c71ca11048","system_id":"levelo_inurba_marseille","lat":43.312239,"lon":5.368562,"is_reserved":false,"is_disabled":false,"rental_uris":{"android":"levelo://app?vid=ffca9167-f720-4c2d-ba65-22c71ca11048","ios":"levelo://app?vid=ffca9167-f720-4c2d-ba65-22c71ca11048"},"vehicle_type_id":"4","last_reported":1714410389,"current_range_meters":30800,"station_id":"ce4bgl92rcd13ifvqbq0","pricing_plan_id":"cebpf4jnsgd1na2vs0mg"},{"bike_id":"09a1676f-cf6b-46f3-9135-c42baeeae80f","system_id":"levelo_inurba_marseille","lat":43.312239,"lon":5.368562,"is_reserved":false,"is_disabled":false,"rental_uris":{"android":"levelo://app?vid=09a1676f-cf6b-46f3-9135-c42baeeae80f","ios":"levelo://app?vid=09a1676f-cf6b-46f3-9135-c42baeeae80f"},"vehicle_type_id":"4","last_reported":1714410389,"current_range_meters":31200,"station_id":"ce4bgl92rcd13ifvqbq0","pricing_plan_id":"cebpf4jnsgd1na2vs0mg"},{"bike_id":"43abb2d7-0991-4396-b050-8747fc99a3a0","system_id":"levelo_inurba_marseille","lat":43.312239,"lon":5.368562,"is_reserved":false,"is_disabled":false,"rental_uris":{"android":"levelo://app?vid=43abb2d7-0991-4396-b050-8747fc99a3a0","ios":"levelo://app?vid=43abb2d7-0991-4396-b050-8747fc99a3a0"},"vehicle_type_id":"4","last_reported":1714410389,"current_range_meters":31200,"station_id":"ce4bgl92rcd13ifvqbq0","pricing_plan_id":"cebpf4jnsgd1na2vs0mg"},{"bike_id":"7b475b20-9ef3-48ea-9f3b-4cebe760c03f","system_id":"levelo_inurba_marseille","lat":43.312239,"lon":5.368562,"is_reserved":false,"is_disabled":false,"rental_uris":{"android":"levelo://app?vid=7b475b20-9ef3-48ea-9f3b-4cebe760c03f","ios":"levelo://app?vid=7b475b20-9ef3-48ea-9f3b-4cebe760c03f"},"vehicle_type_id":"4","last_reported":1714410389,"current_range_meters":24400,"station_id":"ce4bgl92rcd13ifvqbq0","pricing_plan_id":"cebpf4jnsgd1na2vs0mg"},{"bike_id":"627046aa-e180-4b25-9bb1-bb98c73deaff","system_id":"levelo_inurba_marseille","lat":43.309039,"lon":5.371797,"is_reserved":false,"is_disabled":false,"rental_uris":{"android":"levelo://app?vid=627046aa-e180-4b25-9bb1-bb98c73deaff","ios":"levelo://app?vid=627046aa-e180-4b25-9bb1-bb98c73deaff"},"vehicle_type_id":"4","last_reported":1714410389,"current_range_meters":20400,"station_id":"ce4bguh2rcd13ifvqckg","pricing_plan_id":"cebpf4jnsgd1na2vs0mg"},{"bike_id":"536e2769-113b-4fd1-85e3-7e4559be1005","system_id":"levelo_inurba_marseille","lat":43.309034,"lon":5.371783,"is_reserved":false,"is_disabled":false,"rental_uris":{"android":"levelo://app?vid=536e2769-113b-4fd1-85e3-7e4559be1005","ios":"levelo://app?vid=536e2769-113b-4fd1-85e3-7e4559be1005"},"vehicle_type_id":"4","last_reported":1714410389,"current_range_meters":13200,"station_id":"ce4bguh2rcd13ifvqckg","pricing_plan_id":"cebpf4jnsgd1na2vs0mg"},{"bike_id":"f55d5e61-3f83-4d52-9afc-bfa138093058","system_id":"levelo_inurba_marseille","lat":43.309076,"lon":5.368465,"is_reserved":false,"is_disabled":false,"rental_uris":{"android":"levelo://app?vid=f55d5e61-3f83-4d52-9afc-bfa138093058","ios":"levelo://app?vid=f55d5e61-3f83-4d52-9afc-bfa138093058"},"vehicle_type_id":"4","last_reported":1714410389,"current_range_meters":24000,"station_id":"ce4bgn92rcd13ifvqbvg","pricing_plan_id":"cebpf4jnsgd1na2vs0mg"},{"bike_id":"01ee3234-b93f-49ad-b31f-56163eb3c130","system_id":"levelo_inurba_marseille","lat":43.309034,"lon":5.371783,"is_reserved":false,"is_disabled":false,"rental_uris":{"android":"levelo://app?vid=01ee3234-b93f-49ad-b31f-56163eb3c130","ios":"levelo://app?vid=01ee3234-b93f-49ad-b31f-56163eb3c130"},"vehicle_type_id":"4","last_reported":1714410389,"current_range_meters":30000,"station_id":"ce4bguh2rcd13ifvqckg","pricing_plan_id":"cebpf4jnsgd1na2vs0mg"},{"bike_id":"63ff7068-04f0-4b1c-89ad-260bbd2d045f","system_id":"levelo_inurba_marseille","lat":43.30538,"lon":5.367276,"is_reserved":false,"is_disabled":false,"rental_uris":{"android":"levelo://app?vid=63ff7068-04f0-4b1c-89ad-260bbd2d045f","ios":"levelo://app?vid=63ff7068-04f0-4b1c-89ad-260bbd2d045f"},"vehicle_type_id":"4","last_reported":1714410389,"current_range_meters":0,"station_id":"ce4bgrp2rcd13ifvqc9g","pricing_plan_id":"cebpf4jnsgd1na2vs0mg"},{"bike_id":"890aa124-61f2-4596-833e-53142ff6f3fa","system_id":"levelo_inurba_marseille","lat":43.305447,"lon":5.365459,"is_reserved":false,"is_disabled":false,"rental_uris":{"android":"levelo://app?vid=890aa124-61f2-4596-833e-53142ff6f3fa","ios":"levelo://app?vid=890aa124-61f2-4596-833e-53142ff6f3fa"},"vehicle_type_id":"4","last_reported":1714410389,"current_range_meters":16000,"station_id":"ce4bgs12rcd13ifvqcag","pricing_plan_id":"cebpf4jnsgd1na2vs0mg"},{"bike_id":"c354cc98-08f8-497e-a728-5ad60cd17841","system_id":"levelo_inurba_marseille","lat":43.305706,"lon":5.365654,"is_reserved":false,"is_disabled":false,"rental_uris":{"android":"levelo://app?vid=c354cc98-08f8-497e-a728-5ad60cd17841","ios":"levelo://app?vid=c354cc98-08f8-497e-a728-5ad60cd17841"},"vehicle_type_id":"4","last_reported":1714410389,"current_range_meters":27600,"station_id":"ce4bgs12rcd13ifvqcag","pricing_plan_id":"cebpf4jnsgd1na2vs0mg"},{"bike_id":"e8be192b-3bba-4c79-b7cf-d5406e6b0337","system_id":"levelo_inurba_marseille","lat":43.305989,"lon":5.37225,"is_reserved":false,"is_disabled":false,"rental_uris":{"android":"levelo://app?vid=e8be192b-3bba-4c79-b7cf-d5406e6b0337","ios":"levelo://app?vid=e8be192b-3bba-4c79-b7cf-d5406e6b0337"},"vehicle_type_id":"4","last_reported":1714410389,"current_range_meters":23600,"station_id":"ce4bgqh2rcd13ifvqc4g","pricing_plan_id":"cebpf4jnsgd1na2vs0mg"},{"bike_id":"870ed444-d96d-4337-9a04-4ed7bbb84293","system_id":"levelo_inurba_marseille","lat":43.305989,"lon":5.37225,"is_reserved":false,"is_disabled":false,"rental_uris":{"android":"levelo://app?vid=870ed444-d96d-4337-9a04-4ed7bbb84293","ios":"levelo://app?vid=870ed444-d96d-4337-9a04-4ed7bbb84293"},"vehicle_type_id":"4","last_reported":1714410389,"current_range_meters":19600,"station_id":"ce4bgqh2rcd13ifvqc4g","pricing_plan_id":"cebpf4jnsgd1na2vs0mg"},{"bike_id":"d1402e43-18b8-424c-929b-dcedd7bde9a6","system_id":"levelo_inurba_marseille","lat":43.311131,"lon":5.377651,"is_reserved":false,"is_disabled":false,"rental_uris":{"android":"levelo://app?vid=d1402e43-18b8-424c-929b-dcedd7bde9a6","ios":"levelo://app?vid=d1402e43-18b8-424c-929b-dcedd7bde9a6"},"vehicle_type_id":"4","last_reported":1714410389,"current_range_meters":29200,"station_id":"ce4bgt92rcd13ifvqcg0","pricing_plan_id":"cebpf4jnsgd1na2vs0mg"},{"bike_id":"62e3672a-5145-4461-b9f7-3cc81b1d10f3","system_id":"levelo_inurba_marseille","lat":43.311722,"lon":5.387247,"is_reserved":false,"is_disabled":false,"rental_uris":{"android":"levelo://app?vid=62e3672a-5145-4461-b9f7-3cc81b1d10f3","ios":"levelo://app?vid=62e3672a-5145-4461-b9f7-3cc81b1d10f3"},"vehicle_type_id":"4","last_reported":1714410389,"current_range_meters":0,"station_id":"ce4bgv12rcd13ifvqcp0","pricing_plan_id":"cebpf4jnsgd1na2vs0mg"},{"bike_id":"b778a900-a918-4504-bf1a-53e35faecfee","system_id":"levelo_inurba_marseille","lat":43.30783,"lon":5.37643,"is_reserved":false,"is_disabled":false,"rental_uris":{"android":"levelo://app?vid=b778a900-a918-4504-bf1a-53e35faecfee","ios":"levelo://app?vid=b778a900-a918-4504-bf1a-53e35faecfee"},"vehicle_type_id":"4","last_reported":1714410389,"current_range_meters":11600,"station_id":"ce4bgv92rcd13ifvqcq0","pricing_plan_id":"cebpf4jnsgd1na2vs0mg"},{"bike_id":"f7612dd1-b2de-43a3-abe4-3ce32365dc64","system_id":"levelo_inurba_marseille","lat":43.317075,"lon":5.377367,"is_reserved":false,"is_disabled":false,"rental_uris":{"android":"levelo://app?vid=f7612dd1-b2de-43a3-abe4-3ce32365dc64","ios":"levelo://app?vid=f7612dd1-b2de-43a3-abe4-3ce32365dc64"},"vehicle_type_id":"4","last_reported":1714410389,"current_range_meters":11600,"station_id":"ce4bgth2rcd13ifvqch0","pricing_plan_id":"cebpf4jnsgd1na2vs0mg"},{"bike_id":"6f083176-3d93-4c7e-b17f-c204c6f58692","system_id":"levelo_inurba_marseille","lat":43.317075,"lon":5.377367,"is_reserved":false,"is_disabled":false,"rental_uris":{"android":"levelo://app?vid=6f083176-3d93-4c7e-b17f-c204c6f58692","ios":"levelo://app?vid=6f083176-3d93-4c7e-b17f-c204c6f58692"},"vehicle_type_id":"4","last_reported":1714410389,"current_range_meters":19200,"station_id":"ce4bgth2rcd13ifvqch0","pricing_plan_id":"cebpf4jnsgd1na2vs0mg"},{"bike_id":"8eda472f-66e1-4489-abb8-77f58ad3edee","system_id":"levelo_inurba_marseille","lat":43.317063,"lon":5.377573,"is_reserved":false,"is_disabled":false,"rental_uris":{"android":"levelo://app?vid=8eda472f-66e1-4489-abb8-77f58ad3edee","ios":"levelo://app?vid=8eda472f-66e1-4489-abb8-77f58ad3edee"},"vehicle_type_id":"4","last_reported":1714410389,"current_range_meters":8800,"station_id":"ce4bgth2rcd13ifvqch0","pricing_plan_id":"cebpf4jnsgd1na2vs0mg"},{"bike_id":"b3315898-80a7-4c47-afaa-1d4393383362","system_id":"levelo_inurba_marseille","lat":43.317075,"lon":5.377367,"is_reserved":false,"is_disabled":false,"rental_uris":{"android":"levelo://app?vid=b3315898-80a7-4c47-afaa-1d4393383362","ios":"levelo://app?vid=b3315898-80a7-4c47-afaa-1d4393383362"},"vehicle_type_id":"4","last_reported":1714410389,"current_range_meters":31200,"station_id":"ce4bgth2rcd13ifvqch0","pricing_plan_id":"cebpf4jnsgd1na2vs0mg"},{"bike_id":"dfb421c9-f75d-4dc4-8028-8338aab56653","system_id":"levelo_inurba_marseille","lat":43.313571,"lon":5.384829,"is_reserved":false,"is_disabled":false,"rental_uris":{"android":"levelo://app?vid=dfb421c9-f75d-4dc4-8028-8338aab56653","ios":"levelo://app?vid=dfb421c9-f75d-4dc4-8028-8338aab56653"},"vehicle_type_id":"4","last_reported":1714410389,"current_range_meters":11600,"station_id":"ce4bgt92rcd13ifvqcf0","pricing_plan_id":"cebpf4jnsgd1na2vs0mg"},{"bike_id":"04442232-818b-4a94-b3e7-6600e1d254f4","system_id":"levelo_inurba_marseille","lat":43.30481,"lon":5.37321,"is_reserved":false,"is_disabled":false,"rental_uris":{"android":"levelo://app?vid=04442232-818b-4a94-b3e7-6600e1d254f4","ios":"levelo://app?vid=04442232-818b-4a94-b3e7-6600e1d254f4"},"vehicle_type_id":"4","last_reported":1714410389,"current_range_meters":14400,"station_id":"","pricing_plan_id":"cebpf4jnsgd1na2vs0mg"},{"bike_id":"06e0efcf-97b3-4525-82f0-45e62b3060e0","system_id":"levelo_inurba_marseille","lat":43.303046,"lon":5.368981,"is_reserved":false,"is_disabled":false,"rental_uris":{"android":"levelo://app?vid=06e0efcf-97b3-4525-82f0-45e62b3060e0","ios":"levelo://app?vid=06e0efcf-97b3-4525-82f0-45e62b3060e0"},"vehicle_type_id":"4","last_reported":1714410389,"current_range_meters":0,"station_id":"ce4bgqh2rcd13ifvqc5g","pricing_plan_id":"cebpf4jnsgd1na2vs0mg"},{"bike_id":"2209f364-125e-4d42-a014-6e67f951f4e7","system_id":"levelo_inurba_marseille","lat":43.292311,"lon":5.360731,"is_reserved":false,"is_disabled":false,"rental_uris":{"android":"levelo://app?vid=2209f364-125e-4d42-a014-6e67f951f4e7","ios":"levelo://app?vid=2209f364-125e-4d42-a014-6e67f951f4e7"},"vehicle_type_id":"4","last_reported":1714410389,"current_range_meters":18800,"station_id":"ce4bhbh2rcd13ifvqeqg","pricing_plan_id":"cebpf4jnsgd1na2vs0mg"},{"bike_id":"63787801-ea49-4136-91b9-6764edddc26d","system_id":"levelo_inurba_marseille","lat":43.30307,"lon":5.36892,"is_reserved":false,"is_disabled":false,"rental_uris":{"android":"levelo://app?vid=63787801-ea49-4136-91b9-6764edddc26d","ios":"levelo://app?vid=63787801-ea49-4136-91b9-6764edddc26d"},"vehicle_type_id":"4","last_reported":1714410389,"current_range_meters":400,"station_id":"","pricing_plan_id":"cebpf4jnsgd1na2vs0mg"},{"bike_id":"eddb8e1a-0191-4a56-9bfc-45631c4e8e46","system_id":"levelo_inurba_marseille","lat":43.303046,"lon":5.368981,"is_reserved":false,"is_disabled":false,"rental_uris":{"android":"levelo://app?vid=eddb8e1a-0191-4a56-9bfc-45631c4e8e46","ios":"levelo://app?vid=eddb8e1a-0191-4a56-9bfc-45631c4e8e46"},"vehicle_type_id":"4","last_reported":1714410389,"current_range_meters":0,"station_id":"ce4bgqh2rcd13ifvqc5g","pricing_plan_id":"cebpf4jnsgd1na2vs0mg"},{"bike_id":"7f7980c4-115f-4840-9311-8726cbfac525","system_id":"levelo_inurba_marseille","lat":43.315293,"lon":5.380349,"is_reserved":false,"is_disabled":false,"rental_uris":{"android":"levelo://app?vid=7f7980c4-115f-4840-9311-8726cbfac525","ios":"levelo://app?vid=7f7980c4-115f-4840-9311-8726cbfac525"},"vehicle_type_id":"4","last_reported":1714410389,"current_range_meters":30000,"station_id":"ce4bhsp2rcd13ifvqi50","pricing_plan_id":"cebpf4jnsgd1na2vs0mg"},{"bike_id":"6217c7be-3f74-4df0-9f8d-54071ca21eb5","system_id":"levelo_inurba_marseille","lat":43.315293,"lon":5.380349,"is_reserved":false,"is_disabled":false,"rental_uris":{"android":"levelo://app?vid=6217c7be-3f74-4df0-9f8d-54071ca21eb5","ios":"levelo://app?vid=6217c7be-3f74-4df0-9f8d-54071ca21eb5"},"vehicle_type_id":"4","last_reported":1714410389,"current_range_meters":0,"station_id":"ce4bhsp2rcd13ifvqi50","pricing_plan_id":"cebpf4jnsgd1na2vs0mg"},{"bike_id":"dcb7f1b7-6042-4a21-a18a-ca80c30841d8","system_id":"levelo_inurba_marseille","lat":43.315289,"lon":5.380349,"is_reserved":false,"is_disabled":false,"rental_uris":{"android":"levelo://app?vid=dcb7f1b7-6042-4a21-a18a-ca80c30841d8","ios":"levelo://app?vid=dcb7f1b7-6042-4a21-a18a-ca80c30841d8"},"vehicle_type_id":"4","last_reported":1714410389,"current_range_meters":16400,"station_id":"ce4bhsp2rcd13ifvqi50","pricing_plan_id":"cebpf4jnsgd1na2vs0mg"},{"bike_id":"682f5c46-5a7f-41f7-88b2-fc6b21c1e5af","system_id":"levelo_inurba_marseille","lat":43.296131,"lon":5.370791,"is_reserved":false,"is_disabled":false,"rental_uris":{"android":"levelo://app?vid=682f5c46-5a7f-41f7-88b2-fc6b21c1e5af","ios":"levelo://app?vid=682f5c46-5a7f-41f7-88b2-fc6b21c1e5af"},"vehicle_type_id":"4","last_reported":1714410389,"current_range_meters":17200,"station_id":"ce4bgnh2rcd13ifvqc0g","pricing_plan_id":"cebpf4jnsgd1na2vs0mg"},{"bike_id":"9a6b917d-249b-445a-b0d3-d679c1f3df1e","system_id":"levelo_inurba_marseille","lat":43.301939,"lon":5.366286,"is_reserved":false,"is_disabled":false,"rental_uris":{"android":"levelo://app?vid=9a6b917d-249b-445a-b0d3-d679c1f3df1e","ios":"levelo://app?vid=9a6b917d-249b-445a-b0d3-d679c1f3df1e"},"vehicle_type_id":"4","last_reported":1714410389,"current_range_meters":25200,"station_id":"ce4bgrh2rcd13ifvqc8g","pricing_plan_id":"cebpf4jnsgd1na2vs0mg"},{"bike_id":"acdc75ce-390d-43c5-9c50-48c8ca0b013d","system_id":"levelo_inurba_marseille","lat":43.301939,"lon":5.366286,"is_reserved":false,"is_disabled":false,"rental_uris":{"android":"levelo://app?vid=acdc75ce-390d-43c5-9c50-48c8ca0b013d","ios":"levelo://app?vid=acdc75ce-390d-43c5-9c50-48c8ca0b013d"},"vehicle_type_id":"4","last_reported":1714410389,"current_range_meters":6400,"station_id":"ce4bgrh2rcd13ifvqc8g","pricing_plan_id":"cebpf4jnsgd1na2vs0mg"},{"bike_id":"2d52b1bd-2fb5-458f-b648-209a865e91a5","system_id":"levelo_inurba_marseille","lat":43.308012,"lon":5.381511,"is_reserved":false,"is_disabled":false,"rental_uris":{"android":"levelo://app?vid=2d52b1bd-2fb5-458f-b648-209a865e91a5","ios":"levelo://app?vid=2d52b1bd-2fb5-458f-b648-209a865e91a5"},"vehicle_type_id":"4","last_reported":1714410389,"current_range_meters":21200,"station_id":"ce4bgt12rcd13ifvqce0","pricing_plan_id":"cebpf4jnsgd1na2vs0mg"},{"bike_id":"5a1e7eae-de16-40e4-8f25-124bfbb8516e","system_id":"levelo_inurba_marseille","lat":43.324771,"lon":5.36557,"is_reserved":false,"is_disabled":false,"rental_uris":{"android":"levelo://app?vid=5a1e7eae-de16-40e4-8f25-124bfbb8516e","ios":"levelo://app?vid=5a1e7eae-de16-40e4-8f25-124bfbb8516e"},"vehicle_type_id":"4","last_reported":1714410389,"current_range_meters":16000,"station_id":"ce4bhs12rcd13ifvqhvg","pricing_plan_id":"cebpf4jnsgd1na2vs0mg"},{"bike_id":"bbf2a905-eb42-4a3d-8885-e5fc8c48ef3b","system_id":"levelo_inurba_marseille","lat":43.330442,"lon":5.389148,"is_reserved":false,"is_disabled":false,"rental_uris":{"android":"levelo://app?vid=bbf2a905-eb42-4a3d-8885-e5fc8c48ef3b","ios":"levelo://app?vid=bbf2a905-eb42-4a3d-8885-e5fc8c48ef3b"},"vehicle_type_id":"4","last_reported":1714410389,"current_range_meters":2400,"station_id":"ce4bhr92rcd13ifvqhrg","pricing_plan_id":"cebpf4jnsgd1na2vs0mg"},{"bike_id":"0c65e678-6085-4cd5-b181-a521ce5af2ea","system_id":"levelo_inurba_marseille","lat":43.304606,"lon":5.379026,"is_reserved":false,"is_disabled":false,"rental_uris":{"android":"levelo://app?vid=0c65e678-6085-4cd5-b181-a521ce5af2ea","ios":"levelo://app?vid=0c65e678-6085-4cd5-b181-a521ce5af2ea"},"vehicle_type_id":"4","last_reported":1714410389,"current_range_meters":9600,"station_id":"ce4bgup2rcd13ifvqcn0","pricing_plan_id":"cebpf4jnsgd1na2vs0mg"},{"bike_id":"e3279bff-47c8-401a-bcde-2693c050c76f","system_id":"levelo_inurba_marseille","lat":43.304606,"lon":5.379026,"is_reserved":false,"is_disabled":false,"rental_uris":{"android":"levelo://app?vid=e3279bff-47c8-401a-bcde-2693c050c76f","ios":"levelo://app?vid=e3279bff-47c8-401a-bcde-2693c050c76f"},"vehicle_type_id":"4","last_reported":1714410389,"current_range_meters":1600,"station_id":"ce4bgup2rcd13ifvqcn0","pricing_plan_id":"cebpf4jnsgd1na2vs0mg"},{"bike_id":"88d22b82-f5b7-4c04-8042-bb4f530d944a","system_id":"levelo_inurba_marseille","lat":43.304606,"lon":5.379026,"is_reserved":false,"is_disabled":false,"rental_uris":{"android":"levelo://app?vid=88d22b82-f5b7-4c04-8042-bb4f530d944a","ios":"levelo://app?vid=88d22b82-f5b7-4c04-8042-bb4f530d944a"},"vehicle_type_id":"4","last_reported":1714410389,"current_range_meters":16400,"station_id":"ce4bgup2rcd13ifvqcn0","pricing_plan_id":"cebpf4jnsgd1na2vs0mg"},{"bike_id":"decf58cc-8a5b-4910-9378-33a8bfc80cc1","system_id":"levelo_inurba_marseille","lat":43.304606,"lon":5.379026,"is_reserved":false,"is_disabled":false,"rental_uris":{"android":"levelo://app?vid=decf58cc-8a5b-4910-9378-33a8bfc80cc1","ios":"levelo://app?vid=decf58cc-8a5b-4910-9378-33a8bfc80cc1"},"vehicle_type_id":"4","last_reported":1714410389,"current_range_meters":22400,"station_id":"ce4bgup2rcd13ifvqcn0","pricing_plan_id":"cebpf4jnsgd1na2vs0mg"},{"bike_id":"c5598aae-29a4-4fbc-bae4-35030a185e40","system_id":"levelo_inurba_marseille","lat":43.304606,"lon":5.379026,"is_reserved":false,"is_disabled":false,"rental_uris":{"android":"levelo://app?vid=c5598aae-29a4-4fbc-bae4-35030a185e40","ios":"levelo://app?vid=c5598aae-29a4-4fbc-bae4-35030a185e40"},"vehicle_type_id":"4","last_reported":1714410389,"current_range_meters":4400,"station_id":"ce4bgup2rcd13ifvqcn0","pricing_plan_id":"cebpf4jnsgd1na2vs0mg"},{"bike_id":"447765a3-2306-48ec-a532-c96b438e9044","system_id":"levelo_inurba_marseille","lat":43.304606,"lon":5.379026,"is_reserved":false,"is_disabled":false,"rental_uris":{"android":"levelo://app?vid=447765a3-2306-48ec-a532-c96b438e9044","ios":"levelo://app?vid=447765a3-2306-48ec-a532-c96b438e9044"},"vehicle_type_id":"4","last_reported":1714410389,"current_range_meters":18800,"station_id":"ce4bgup2rcd13ifvqcn0","pricing_plan_id":"cebpf4jnsgd1na2vs0mg"},{"bike_id":"132bacdc-8e73-4afa-9890-359e4c1c3ca1","system_id":"levelo_inurba_marseille","lat":43.324771,"lon":5.36557,"is_reserved":false,"is_disabled":false,"rental_uris":{"android":"levelo://app?vid=132bacdc-8e73-4afa-9890-359e4c1c3ca1","ios":"levelo://app?vid=132bacdc-8e73-4afa-9890-359e4c1c3ca1"},"vehicle_type_id":"4","last_reported":1714410389,"current_range_meters":10800,"station_id":"ce4bhs12rcd13ifvqhvg","pricing_plan_id":"cebpf4jnsgd1na2vs0mg"},{"bike_id":"da7cf71b-c76d-435c-8bcc-78ee9cc66204","system_id":"levelo_inurba_marseille","lat":43.324771,"lon":5.36557,"is_reserved":false,"is_disabled":false,"rental_uris":{"android":"levelo://app?vid=da7cf71b-c76d-435c-8bcc-78ee9cc66204","ios":"levelo://app?vid=da7cf71b-c76d-435c-8bcc-78ee9cc66204"},"vehicle_type_id":"4","last_reported":1714410389,"current_range_meters":14800,"station_id":"ce4bhs12rcd13ifvqhvg","pricing_plan_id":"cebpf4jnsgd1na2vs0mg"},{"bike_id":"ea9f8f61-be81-43ec-8055-fdf55dd5c39f","system_id":"levelo_inurba_marseille","lat":43.324771,"lon":5.36557,"is_reserved":false,"is_disabled":false,"rental_uris":{"android":"levelo://app?vid=ea9f8f61-be81-43ec-8055-fdf55dd5c39f","ios":"levelo://app?vid=ea9f8f61-be81-43ec-8055-fdf55dd5c39f"},"vehicle_type_id":"4","last_reported":1714410389,"current_range_meters":28400,"station_id":"ce4bhs12rcd13ifvqhvg","pricing_plan_id":"cebpf4jnsgd1na2vs0mg"},{"bike_id":"2f74409a-74ce-40db-b3a5-f6503f4a675a","system_id":"levelo_inurba_marseille","lat":43.3248,"lon":5.36567,"is_reserved":false,"is_disabled":false,"rental_uris":{"android":"levelo://app?vid=2f74409a-74ce-40db-b3a5-f6503f4a675a","ios":"levelo://app?vid=2f74409a-74ce-40db-b3a5-f6503f4a675a"},"vehicle_type_id":"4","last_reported":1714410389,"current_range_meters":22800,"station_id":"ce4bhs12rcd13ifvqhvg","pricing_plan_id":"cebpf4jnsgd1na2vs0mg"},{"bike_id":"43b64350-638b-4fde-955e-6a2365e245df","system_id":"levelo_inurba_marseille","lat":43.324771,"lon":5.36557,"is_reserved":false,"is_disabled":false,"rental_uris":{"android":"levelo://app?vid=43b64350-638b-4fde-955e-6a2365e245df","ios":"levelo://app?vid=43b64350-638b-4fde-955e-6a2365e245df"},"vehicle_type_id":"4","last_reported":1714410389,"current_range_meters":13600,"station_id":"ce4bhs12rcd13ifvqhvg","pricing_plan_id":"cebpf4jnsgd1na2vs0mg"},{"bike_id":"2bd54964-39ec-4baf-8d62-ee67fc4efecf","system_id":"levelo_inurba_marseille","lat":43.324771,"lon":5.36557,"is_reserved":false,"is_disabled":false,"rental_uris":{"android":"levelo://app?vid=2bd54964-39ec-4baf-8d62-ee67fc4efecf","ios":"levelo://app?vid=2bd54964-39ec-4baf-8d62-ee67fc4efecf"},"vehicle_type_id":"4","last_reported":1714410389,"current_range_meters":20000,"station_id":"ce4bhs12rcd13ifvqhvg","pricing_plan_id":"cebpf4jnsgd1na2vs0mg"},{"bike_id":"fed24aee-80a4-4b73-a424-9a65cb9ef4bf","system_id":"levelo_inurba_marseille","lat":43.324771,"lon":5.36557,"is_reserved":false,"is_disabled":false,"rental_uris":{"android":"levelo://app?vid=fed24aee-80a4-4b73-a424-9a65cb9ef4bf","ios":"levelo://app?vid=fed24aee-80a4-4b73-a424-9a65cb9ef4bf"},"vehicle_type_id":"4","last_reported":1714410389,"current_range_meters":24000,"station_id":"ce4bhs12rcd13ifvqhvg","pricing_plan_id":"cebpf4jnsgd1na2vs0mg"},{"bike_id":"0a99ee72-e43a-44c1-9027-262098246010","system_id":"levelo_inurba_marseille","lat":43.324771,"lon":5.36557,"is_reserved":false,"is_disabled":false,"rental_uris":{"android":"levelo://app?vid=0a99ee72-e43a-44c1-9027-262098246010","ios":"levelo://app?vid=0a99ee72-e43a-44c1-9027-262098246010"},"vehicle_type_id":"4","last_reported":1714410389,"current_range_meters":18800,"station_id":"ce4bhs12rcd13ifvqhvg","pricing_plan_id":"cebpf4jnsgd1na2vs0mg"},{"bike_id":"e2f0d488-485b-42ce-a5eb-a605ce20dfe8","system_id":"levelo_inurba_marseille","lat":43.324771,"lon":5.36557,"is_reserved":false,"is_disabled":false,"rental_uris":{"android":"levelo://app?vid=e2f0d488-485b-42ce-a5eb-a605ce20dfe8","ios":"levelo://app?vid=e2f0d488-485b-42ce-a5eb-a605ce20dfe8"},"vehicle_type_id":"4","last_reported":1714410389,"current_range_meters":14400,"station_id":"ce4bhs12rcd13ifvqhvg","pricing_plan_id":"cebpf4jnsgd1na2vs0mg"},{"bike_id":"8b58a7c2-18e3-45ad-acbd-655ea693af73","system_id":"levelo_inurba_marseille","lat":43.324771,"lon":5.36557,"is_reserved":false,"is_disabled":false,"rental_uris":{"android":"levelo://app?vid=8b58a7c2-18e3-45ad-acbd-655ea693af73","ios":"levelo://app?vid=8b58a7c2-18e3-45ad-acbd-655ea693af73"},"vehicle_type_id":"4","last_reported":1714410389,"current_range_meters":23200,"station_id":"ce4bhs12rcd13ifvqhvg","pricing_plan_id":"cebpf4jnsgd1na2vs0mg"},{"bike_id":"7d2182b4-dbc2-4a24-a45c-47ca0cb96df7","system_id":"levelo_inurba_marseille","lat":43.324771,"lon":5.36557,"is_reserved":false,"is_disabled":false,"rental_uris":{"android":"levelo://app?vid=7d2182b4-dbc2-4a24-a45c-47ca0cb96df7","ios":"levelo://app?vid=7d2182b4-dbc2-4a24-a45c-47ca0cb96df7"},"vehicle_type_id":"4","last_reported":1714410389,"current_range_meters":9600,"station_id":"ce4bhs12rcd13ifvqhvg","pricing_plan_id":"cebpf4jnsgd1na2vs0mg"},{"bike_id":"1b4acdb9-b533-4fbe-be14-3d235a47355f","system_id":"levelo_inurba_marseille","lat":43.324771,"lon":5.36557,"is_reserved":false,"is_disabled":false,"rental_uris":{"android":"levelo://app?vid=1b4acdb9-b533-4fbe-be14-3d235a47355f","ios":"levelo://app?vid=1b4acdb9-b533-4fbe-be14-3d235a47355f"},"vehicle_type_id":"4","last_reported":1714410389,"current_range_meters":28000,"station_id":"ce4bhs12rcd13ifvqhvg","pricing_plan_id":"cebpf4jnsgd1na2vs0mg"},{"bike_id":"cf0f8186-3423-4c8b-bbb6-5d421d0e57bf","system_id":"levelo_inurba_marseille","lat":43.324771,"lon":5.36557,"is_reserved":false,"is_disabled":false,"rental_uris":{"android":"levelo://app?vid=cf0f8186-3423-4c8b-bbb6-5d421d0e57bf","ios":"levelo://app?vid=cf0f8186-3423-4c8b-bbb6-5d421d0e57bf"},"vehicle_type_id":"4","last_reported":1714410389,"current_range_meters":10000,"station_id":"ce4bhs12rcd13ifvqhvg","pricing_plan_id":"cebpf4jnsgd1na2vs0mg"},{"bike_id":"0c158e1b-4722-4f12-8396-1c9d9f4a29d5","system_id":"levelo_inurba_marseille","lat":43.324771,"lon":5.36557,"is_reserved":false,"is_disabled":false,"rental_uris":{"android":"levelo://app?vid=0c158e1b-4722-4f12-8396-1c9d9f4a29d5","ios":"levelo://app?vid=0c158e1b-4722-4f12-8396-1c9d9f4a29d5"},"vehicle_type_id":"4","last_reported":1714410389,"current_range_meters":13200,"station_id":"ce4bhs12rcd13ifvqhvg","pricing_plan_id":"cebpf4jnsgd1na2vs0mg"},{"bike_id":"70fb4549-3b6d-4d72-b915-ed8e6cd24dd8","system_id":"levelo_inurba_marseille","lat":43.324771,"lon":5.36557,"is_reserved":false,"is_disabled":false,"rental_uris":{"android":"levelo://app?vid=70fb4549-3b6d-4d72-b915-ed8e6cd24dd8","ios":"levelo://app?vid=70fb4549-3b6d-4d72-b915-ed8e6cd24dd8"},"vehicle_type_id":"4","last_reported":1714410389,"current_range_meters":18000,"station_id":"ce4bhs12rcd13ifvqhvg","pricing_plan_id":"cebpf4jnsgd1na2vs0mg"},{"bike_id":"543576bd-b295-4580-81b0-e36e0805c360","system_id":"levelo_inurba_marseille","lat":43.32486,"lon":5.3658,"is_reserved":false,"is_disabled":false,"rental_uris":{"android":"levelo://app?vid=543576bd-b295-4580-81b0-e36e0805c360","ios":"levelo://app?vid=543576bd-b295-4580-81b0-e36e0805c360"},"vehicle_type_id":"4","last_reported":1714410389,"current_range_meters":11600,"station_id":"ce4bhs12rcd13ifvqhvg","pricing_plan_id":"cebpf4jnsgd1na2vs0mg"},{"bike_id":"fd1360a1-fed0-4851-b9bf-5735671c98cc","system_id":"levelo_inurba_marseille","lat":43.324771,"lon":5.36557,"is_reserved":false,"is_disabled":false,"rental_uris":{"android":"levelo://app?vid=fd1360a1-fed0-4851-b9bf-5735671c98cc","ios":"levelo://app?vid=fd1360a1-fed0-4851-b9bf-5735671c98cc"},"vehicle_type_id":"4","last_reported":1714410389,"current_range_meters":13200,"station_id":"ce4bhs12rcd13ifvqhvg","pricing_plan_id":"cebpf4jnsgd1na2vs0mg"},{"bike_id":"bf86c245-53a6-4c88-a168-0d313437f078","system_id":"levelo_inurba_marseille","lat":43.324771,"lon":5.36557,"is_reserved":false,"is_disabled":false,"rental_uris":{"android":"levelo://app?vid=bf86c245-53a6-4c88-a168-0d313437f078","ios":"levelo://app?vid=bf86c245-53a6-4c88-a168-0d313437f078"},"vehicle_type_id":"4","last_reported":1714410389,"current_range_meters":9200,"station_id":"ce4bhs12rcd13ifvqhvg","pricing_plan_id":"cebpf4jnsgd1na2vs0mg"},{"bike_id":"b144120d-38dd-4e64-847f-ed76d7dcc561","system_id":"levelo_inurba_marseille","lat":43.324771,"lon":5.36557,"is_reserved":false,"is_disabled":false,"rental_uris":{"android":"levelo://app?vid=b144120d-38dd-4e64-847f-ed76d7dcc561","ios":"levelo://app?vid=b144120d-38dd-4e64-847f-ed76d7dcc561"},"vehicle_type_id":"4","last_reported":1714410389,"current_range_meters":8800,"station_id":"ce4bhs12rcd13ifvqhvg","pricing_plan_id":"cebpf4jnsgd1na2vs0mg"},{"bike_id":"57564487-dc35-4e27-8f50-deca87251429","system_id":"levelo_inurba_marseille","lat":43.319935,"lon":5.381699,"is_reserved":false,"is_disabled":false,"rental_uris":{"android":"levelo://app?vid=57564487-dc35-4e27-8f50-deca87251429","ios":"levelo://app?vid=57564487-dc35-4e27-8f50-deca87251429"},"vehicle_type_id":"4","last_reported":1714410389,"current_range_meters":14400,"station_id":"ce4bhr12rcd13ifvqhpg","pricing_plan_id":"cebpf4jnsgd1na2vs0mg"},{"bike_id":"d4a93352-25cf-45d9-be28-f962b9e65449","system_id":"levelo_inurba_marseille","lat":43.319935,"lon":5.381699,"is_reserved":false,"is_disabled":false,"rental_uris":{"android":"levelo://app?vid=d4a93352-25cf-45d9-be28-f962b9e65449","ios":"levelo://app?vid=d4a93352-25cf-45d9-be28-f962b9e65449"},"vehicle_type_id":"4","last_reported":1714410389,"current_range_meters":18000,"station_id":"ce4bhr12rcd13ifvqhpg","pricing_plan_id":"cebpf4jnsgd1na2vs0mg"},{"bike_id":"3ddffb14-8006-4643-9540-5c5366e3fb9b","system_id":"levelo_inurba_marseille","lat":43.299724,"lon":5.371829,"is_reserved":false,"is_disabled":false,"rental_uris":{"android":"levelo://app?vid=3ddffb14-8006-4643-9540-5c5366e3fb9b","ios":"levelo://app?vid=3ddffb14-8006-4643-9540-5c5366e3fb9b"},"vehicle_type_id":"4","last_reported":1714410389,"current_range_meters":18000,"station_id":"ce4bgr92rcd13ifvqc7g","pricing_plan_id":"cebpf4jnsgd1na2vs0mg"},{"bike_id":"cfccc38c-063d-4c58-881b-ece2299054a1","system_id":"levelo_inurba_marseille","lat":43.305364,"lon":5.384119,"is_reserved":false,"is_disabled":false,"rental_uris":{"android":"levelo://app?vid=cfccc38c-063d-4c58-881b-ece2299054a1","ios":"levelo://app?vid=cfccc38c-063d-4c58-881b-ece2299054a1"},"vehicle_type_id":"4","last_reported":1714410389,"current_range_meters":27200,"station_id":"ce4bgg92rcd13ifvqb30","pricing_plan_id":"cebpf4jnsgd1na2vs0mg"},{"bike_id":"4c748747-9b72-4ba8-8bf2-10ef2aa572a8","system_id":"levelo_inurba_marseille","lat":43.298433,"lon":5.362774,"is_reserved":false,"is_disabled":false,"rental_uris":{"android":"levelo://app?vid=4c748747-9b72-4ba8-8bf2-10ef2aa572a8","ios":"levelo://app?vid=4c748747-9b72-4ba8-8bf2-10ef2aa572a8"},"vehicle_type_id":"4","last_reported":1714410389,"current_range_meters":9600,"station_id":"ce4bgpp2rcd13ifvqc3g","pricing_plan_id":"cebpf4jnsgd1na2vs0mg"},{"bike_id":"d38e480f-9afd-4957-b1e0-afe52e676b51","system_id":"levelo_inurba_marseille","lat":43.30014,"lon":5.377079,"is_reserved":false,"is_disabled":false,"rental_uris":{"android":"levelo://app?vid=d38e480f-9afd-4957-b1e0-afe52e676b51","ios":"levelo://app?vid=d38e480f-9afd-4957-b1e0-afe52e676b51"},"vehicle_type_id":"4","last_reported":1714410389,"current_range_meters":7600,"station_id":"","pricing_plan_id":"cebpf4jnsgd1na2vs0mg"},{"bike_id":"4347760b-2323-490d-8a8b-945b9fc3684e","system_id":"levelo_inurba_marseille","lat":43.299243,"lon":5.37481,"is_reserved":false,"is_disabled":false,"rental_uris":{"android":"levelo://app?vid=4347760b-2323-490d-8a8b-945b9fc3684e","ios":"levelo://app?vid=4347760b-2323-490d-8a8b-945b9fc3684e"},"vehicle_type_id":"4","last_reported":1714410389,"current_range_meters":22000,"station_id":"ce4bgjh2rcd13ifvqbg0","pricing_plan_id":"cebpf4jnsgd1na2vs0mg"},{"bike_id":"a84e29d0-2110-440c-8303-d4245c72c569","system_id":"levelo_inurba_marseille","lat":43.311722,"lon":5.387247,"is_reserved":false,"is_disabled":false,"rental_uris":{"android":"levelo://app?vid=a84e29d0-2110-440c-8303-d4245c72c569","ios":"levelo://app?vid=a84e29d0-2110-440c-8303-d4245c72c569"},"vehicle_type_id":"4","last_reported":1714410389,"current_range_meters":10000,"station_id":"ce4bgv12rcd13ifvqcp0","pricing_plan_id":"cebpf4jnsgd1na2vs0mg"},{"bike_id":"6e1bf8d2-63be-429a-9ccd-317df793ddc2","system_id":"levelo_inurba_marseille","lat":43.311676,"lon":5.387183,"is_reserved":false,"is_disabled":false,"rental_uris":{"android":"levelo://app?vid=6e1bf8d2-63be-429a-9ccd-317df793ddc2","ios":"levelo://app?vid=6e1bf8d2-63be-429a-9ccd-317df793ddc2"},"vehicle_type_id":"4","last_reported":1714410389,"current_range_meters":1600,"station_id":"ce4bgv12rcd13ifvqcp0","pricing_plan_id":"cebpf4jnsgd1na2vs0mg"},{"bike_id":"d8f7347a-eeed-4519-8452-9296701fc247","system_id":"levelo_inurba_marseille","lat":43.311722,"lon":5.387247,"is_reserved":false,"is_disabled":false,"rental_uris":{"android":"levelo://app?vid=d8f7347a-eeed-4519-8452-9296701fc247","ios":"levelo://app?vid=d8f7347a-eeed-4519-8452-9296701fc247"},"vehicle_type_id":"4","last_reported":1714410389,"current_range_meters":14400,"station_id":"ce4bgv12rcd13ifvqcp0","pricing_plan_id":"cebpf4jnsgd1na2vs0mg"},{"bike_id":"3c98acfd-ef49-4190-a315-afd7fb63f1e3","system_id":"levelo_inurba_marseille","lat":43.311722,"lon":5.387247,"is_reserved":false,"is_disabled":false,"rental_uris":{"android":"levelo://app?vid=3c98acfd-ef49-4190-a315-afd7fb63f1e3","ios":"levelo://app?vid=3c98acfd-ef49-4190-a315-afd7fb63f1e3"},"vehicle_type_id":"4","last_reported":1714410389,"current_range_meters":11600,"station_id":"ce4bgv12rcd13ifvqcp0","pricing_plan_id":"cebpf4jnsgd1na2vs0mg"},{"bike_id":"91bb0a92-9018-46c6-8185-f8524b8c506d","system_id":"levelo_inurba_marseille","lat":43.311722,"lon":5.387247,"is_reserved":false,"is_disabled":false,"rental_uris":{"android":"levelo://app?vid=91bb0a92-9018-46c6-8185-f8524b8c506d","ios":"levelo://app?vid=91bb0a92-9018-46c6-8185-f8524b8c506d"},"vehicle_type_id":"4","last_reported":1714410389,"current_range_meters":4800,"station_id":"ce4bgv12rcd13ifvqcp0","pricing_plan_id":"cebpf4jnsgd1na2vs0mg"},{"bike_id":"662656f5-faf1-42cc-8843-6746806cf88b","system_id":"levelo_inurba_marseille","lat":43.297794,"lon":5.370888,"is_reserved":false,"is_disabled":false,"rental_uris":{"android":"levelo://app?vid=662656f5-faf1-42cc-8843-6746806cf88b","ios":"levelo://app?vid=662656f5-faf1-42cc-8843-6746806cf88b"},"vehicle_type_id":"4","last_reported":1714410389,"current_range_meters":26800,"station_id":"ce4bgop2rcd13ifvqc1g","pricing_plan_id":"cebpf4jnsgd1na2vs0mg"},{"bike_id":"7d0dc6e4-237d-4e2c-9f6d-5a67d8478718","system_id":"levelo_inurba_marseille","lat":43.32289,"lon":5.38264,"is_reserved":false,"is_disabled":false,"rental_uris":{"android":"levelo://app?vid=7d0dc6e4-237d-4e2c-9f6d-5a67d8478718","ios":"levelo://app?vid=7d0dc6e4-237d-4e2c-9f6d-5a67d8478718"},"vehicle_type_id":"4","last_reported":1714410389,"current_range_meters":23600,"station_id":"ce4bhr12rcd13ifvqhqg","pricing_plan_id":"cebpf4jnsgd1na2vs0mg"},{"bike_id":"90f46afa-97a4-48f2-84a2-899bcf460e9a","system_id":"levelo_inurba_marseille","lat":43.322872,"lon":5.382756,"is_reserved":false,"is_disabled":false,"rental_uris":{"android":"levelo://app?vid=90f46afa-97a4-48f2-84a2-899bcf460e9a","ios":"levelo://app?vid=90f46afa-97a4-48f2-84a2-899bcf460e9a"},"vehicle_type_id":"4","last_reported":1714410389,"current_range_meters":25200,"station_id":"ce4bhr12rcd13ifvqhqg","pricing_plan_id":"cebpf4jnsgd1na2vs0mg"},{"bike_id":"e7620d48-0589-458f-9112-8f2d8a96c05b","system_id":"levelo_inurba_marseille","lat":43.322872,"lon":5.382756,"is_reserved":false,"is_disabled":false,"rental_uris":{"android":"levelo://app?vid=e7620d48-0589-458f-9112-8f2d8a96c05b","ios":"levelo://app?vid=e7620d48-0589-458f-9112-8f2d8a96c05b"},"vehicle_type_id":"4","last_reported":1714410389,"current_range_meters":7600,"station_id":"ce4bhr12rcd13ifvqhqg","pricing_plan_id":"cebpf4jnsgd1na2vs0mg"},{"bike_id":"f02e7649-dc40-48fa-8c4d-12d98c304645","system_id":"levelo_inurba_marseille","lat":43.32293,"lon":5.38267,"is_reserved":false,"is_disabled":false,"rental_uris":{"android":"levelo://app?vid=f02e7649-dc40-48fa-8c4d-12d98c304645","ios":"levelo://app?vid=f02e7649-dc40-48fa-8c4d-12d98c304645"},"vehicle_type_id":"4","last_reported":1714410389,"current_range_meters":28400,"station_id":"ce4bhr12rcd13ifvqhqg","pricing_plan_id":"cebpf4jnsgd1na2vs0mg"},{"bike_id":"b46b8a58-bd5d-4598-90cd-10c626b528ca","system_id":"levelo_inurba_marseille","lat":43.322872,"lon":5.382756,"is_reserved":false,"is_disabled":false,"rental_uris":{"android":"levelo://app?vid=b46b8a58-bd5d-4598-90cd-10c626b528ca","ios":"levelo://app?vid=b46b8a58-bd5d-4598-90cd-10c626b528ca"},"vehicle_type_id":"4","last_reported":1714410389,"current_range_meters":31200,"station_id":"ce4bhr12rcd13ifvqhqg","pricing_plan_id":"cebpf4jnsgd1na2vs0mg"},{"bike_id":"1eb014b0-d233-4917-a9dc-6a24e8b31219","system_id":"levelo_inurba_marseille","lat":43.322872,"lon":5.382756,"is_reserved":false,"is_disabled":false,"rental_uris":{"android":"levelo://app?vid=1eb014b0-d233-4917-a9dc-6a24e8b31219","ios":"levelo://app?vid=1eb014b0-d233-4917-a9dc-6a24e8b31219"},"vehicle_type_id":"4","last_reported":1714410389,"current_range_meters":20000,"station_id":"ce4bhr12rcd13ifvqhqg","pricing_plan_id":"cebpf4jnsgd1na2vs0mg"},{"bike_id":"9ba418ec-33e9-4f5a-b166-316af3b363cd","system_id":"levelo_inurba_marseille","lat":43.297163,"lon":5.365866,"is_reserved":false,"is_disabled":false,"rental_uris":{"android":"levelo://app?vid=9ba418ec-33e9-4f5a-b166-316af3b363cd","ios":"levelo://app?vid=9ba418ec-33e9-4f5a-b166-316af3b363cd"},"vehicle_type_id":"4","last_reported":1714410389,"current_range_meters":24800,"station_id":"ce4bgn12rcd13ifvqbt0","pricing_plan_id":"cebpf4jnsgd1na2vs0mg"},{"bike_id":"96504af2-d0d2-4faf-9f46-7cd36be72200","system_id":"levelo_inurba_marseille","lat":43.29573,"lon":5.367355,"is_reserved":false,"is_disabled":false,"rental_uris":{"android":"levelo://app?vid=96504af2-d0d2-4faf-9f46-7cd36be72200","ios":"levelo://app?vid=96504af2-d0d2-4faf-9f46-7cd36be72200"},"vehicle_type_id":"4","last_reported":1714410389,"current_range_meters":4000,"station_id":"ce4bgph2rcd13ifvqc2g","pricing_plan_id":"cebpf4jnsgd1na2vs0mg"},{"bike_id":"4f048319-f04f-4e14-b2a3-4668f422d322","system_id":"levelo_inurba_marseille","lat":43.29621,"lon":5.3715,"is_reserved":false,"is_disabled":false,"rental_uris":{"android":"levelo://app?vid=4f048319-f04f-4e14-b2a3-4668f422d322","ios":"levelo://app?vid=4f048319-f04f-4e14-b2a3-4668f422d322"},"vehicle_type_id":"4","last_reported":1714410389,"current_range_meters":31200,"station_id":"ce4bgnh2rcd13ifvqc0g","pricing_plan_id":"cebpf4jnsgd1na2vs0mg"},{"bike_id":"4cb5319d-aae5-4b2f-801f-eb3f32d9cf7f","system_id":"levelo_inurba_marseille","lat":43.29573,"lon":5.367355,"is_reserved":false,"is_disabled":false,"rental_uris":{"android":"levelo://app?vid=4cb5319d-aae5-4b2f-801f-eb3f32d9cf7f","ios":"levelo://app?vid=4cb5319d-aae5-4b2f-801f-eb3f32d9cf7f"},"vehicle_type_id":"4","last_reported":1714410389,"current_range_meters":22800,"station_id":"ce4bgph2rcd13ifvqc2g","pricing_plan_id":"cebpf4jnsgd1na2vs0mg"},{"bike_id":"71a870df-27af-4ded-8fb9-5dde50c014fd","system_id":"levelo_inurba_marseille","lat":43.309589,"lon":5.390258,"is_reserved":false,"is_disabled":false,"rental_uris":{"android":"levelo://app?vid=71a870df-27af-4ded-8fb9-5dde50c014fd","ios":"levelo://app?vid=71a870df-27af-4ded-8fb9-5dde50c014fd"},"vehicle_type_id":"4","last_reported":1714410389,"current_range_meters":13200,"station_id":"ce4bgup2rcd13ifvqco0","pricing_plan_id":"cebpf4jnsgd1na2vs0mg"},{"bike_id":"9f96351d-a95a-43fa-a611-cbdd01bed54d","system_id":"levelo_inurba_marseille","lat":43.296921,"lon":5.376579,"is_reserved":false,"is_disabled":false,"rental_uris":{"android":"levelo://app?vid=9f96351d-a95a-43fa-a611-cbdd01bed54d","ios":"levelo://app?vid=9f96351d-a95a-43fa-a611-cbdd01bed54d"},"vehicle_type_id":"4","last_reported":1714410389,"current_range_meters":19600,"station_id":"ce4bgkh2rcd13ifvqbl0","pricing_plan_id":"cebpf4jnsgd1na2vs0mg"},{"bike_id":"cf472e77-4f9e-4957-85a6-8ce13666956f","system_id":"levelo_inurba_marseille","lat":43.309589,"lon":5.390258,"is_reserved":false,"is_disabled":false,"rental_uris":{"android":"levelo://app?vid=cf472e77-4f9e-4957-85a6-8ce13666956f","ios":"levelo://app?vid=cf472e77-4f9e-4957-85a6-8ce13666956f"},"vehicle_type_id":"4","last_reported":1714410389,"current_range_meters":0,"station_id":"ce4bgup2rcd13ifvqco0","pricing_plan_id":"cebpf4jnsgd1na2vs0mg"},{"bike_id":"d0b6f677-fd24-4fa5-a47f-ef600e5189d5","system_id":"levelo_inurba_marseille","lat":43.296935,"lon":5.376544,"is_reserved":false,"is_disabled":false,"rental_uris":{"android":"levelo://app?vid=d0b6f677-fd24-4fa5-a47f-ef600e5189d5","ios":"levelo://app?vid=d0b6f677-fd24-4fa5-a47f-ef600e5189d5"},"vehicle_type_id":"4","last_reported":1714410389,"current_range_meters":8000,"station_id":"ce4bgkh2rcd13ifvqbl0","pricing_plan_id":"cebpf4jnsgd1na2vs0mg"},{"bike_id":"fb36a241-a5df-41d2-9a63-e1f801bd485d","system_id":"levelo_inurba_marseille","lat":43.309597,"lon":5.390973,"is_reserved":false,"is_disabled":false,"rental_uris":{"android":"levelo://app?vid=fb36a241-a5df-41d2-9a63-e1f801bd485d","ios":"levelo://app?vid=fb36a241-a5df-41d2-9a63-e1f801bd485d"},"vehicle_type_id":"4","last_reported":1714410389,"current_range_meters":0,"station_id":"","pricing_plan_id":"cebpf4jnsgd1na2vs0mg"},{"bike_id":"4c02c42a-73d2-49cc-8e5c-adb22cd55db7","system_id":"levelo_inurba_marseille","lat":43.298037,"lon":5.381066,"is_reserved":false,"is_disabled":false,"rental_uris":{"android":"levelo://app?vid=4c02c42a-73d2-49cc-8e5c-adb22cd55db7","ios":"levelo://app?vid=4c02c42a-73d2-49cc-8e5c-adb22cd55db7"},"vehicle_type_id":"4","last_reported":1714410389,"current_range_meters":0,"station_id":"ce4bgip2rcd13ifvqbb0","pricing_plan_id":"cebpf4jnsgd1na2vs0mg"},{"bike_id":"49620964-1aa5-4138-98e4-8a1ddefba650","system_id":"levelo_inurba_marseille","lat":43.297963,"lon":5.380917,"is_reserved":false,"is_disabled":false,"rental_uris":{"android":"levelo://app?vid=49620964-1aa5-4138-98e4-8a1ddefba650","ios":"levelo://app?vid=49620964-1aa5-4138-98e4-8a1ddefba650"},"vehicle_type_id":"4","last_reported":1714410389,"current_range_meters":0,"station_id":"ce4bgip2rcd13ifvqbb0","pricing_plan_id":"cebpf4jnsgd1na2vs0mg"},{"bike_id":"5117a69b-8e6e-45a5-8e3a-7bd2f61e0c0a","system_id":"levelo_inurba_marseille","lat":43.30642,"lon":5.401031,"is_reserved":false,"is_disabled":false,"rental_uris":{"android":"levelo://app?vid=5117a69b-8e6e-45a5-8e3a-7bd2f61e0c0a","ios":"levelo://app?vid=5117a69b-8e6e-45a5-8e3a-7bd2f61e0c0a"},"vehicle_type_id":"4","last_reported":1714410389,"current_range_meters":30000,"station_id":"ce4bh112rcd13ifvqda0","pricing_plan_id":"cebpf4jnsgd1na2vs0mg"},{"bike_id":"b677d623-73be-4916-85a0-16cbf8aaa551","system_id":"levelo_inurba_marseille","lat":43.297973,"lon":5.381002,"is_reserved":false,"is_disabled":false,"rental_uris":{"android":"levelo://app?vid=b677d623-73be-4916-85a0-16cbf8aaa551","ios":"levelo://app?vid=b677d623-73be-4916-85a0-16cbf8aaa551"},"vehicle_type_id":"4","last_reported":1714410389,"current_range_meters":0,"station_id":"ce4bgip2rcd13ifvqbb0","pricing_plan_id":"cebpf4jnsgd1na2vs0mg"},{"bike_id":"f7bd5756-faf9-4dd3-8703-2b72e3abdb01","system_id":"levelo_inurba_marseille","lat":43.304306,"lon":5.388806,"is_reserved":false,"is_disabled":false,"rental_uris":{"android":"levelo://app?vid=f7bd5756-faf9-4dd3-8703-2b72e3abdb01","ios":"levelo://app?vid=f7bd5756-faf9-4dd3-8703-2b72e3abdb01"},"vehicle_type_id":"4","last_reported":1714410389,"current_range_meters":26800,"station_id":"ce4bgk12rcd13ifvqbi0","pricing_plan_id":"cebpf4jnsgd1na2vs0mg"},{"bike_id":"b9ce516a-bb11-4207-839c-b8732eadbad6","system_id":"levelo_inurba_marseille","lat":43.29569,"lon":5.375,"is_reserved":false,"is_disabled":false,"rental_uris":{"android":"levelo://app?vid=b9ce516a-bb11-4207-839c-b8732eadbad6","ios":"levelo://app?vid=b9ce516a-bb11-4207-839c-b8732eadbad6"},"vehicle_type_id":"4","last_reported":1714410389,"current_range_meters":0,"station_id":"ce4bgh92rcd13ifvqb50","pricing_plan_id":"cebpf4jnsgd1na2vs0mg"},{"bike_id":"8fd70a8a-4c98-4a65-a13c-fec9254d89d3","system_id":"levelo_inurba_marseille","lat":43.295748,"lon":5.37522,"is_reserved":false,"is_disabled":false,"rental_uris":{"android":"levelo://app?vid=8fd70a8a-4c98-4a65-a13c-fec9254d89d3","ios":"levelo://app?vid=8fd70a8a-4c98-4a65-a13c-fec9254d89d3"},"vehicle_type_id":"4","last_reported":1714410389,"current_range_meters":0,"station_id":"ce4bgh92rcd13ifvqb50","pricing_plan_id":"cebpf4jnsgd1na2vs0mg"},{"bike_id":"b50ad471-6b72-44f8-a80f-267e79a347ee","system_id":"levelo_inurba_marseille","lat":43.296277,"lon":5.377108,"is_reserved":false,"is_disabled":false,"rental_uris":{"android":"levelo://app?vid=b50ad471-6b72-44f8-a80f-267e79a347ee","ios":"levelo://app?vid=b50ad471-6b72-44f8-a80f-267e79a347ee"},"vehicle_type_id":"4","last_reported":1714410389,"current_range_meters":25600,"station_id":"ce4bgi92rcd13ifvqb90","pricing_plan_id":"cebpf4jnsgd1na2vs0mg"},{"bike_id":"cf91edd0-acc0-46fb-ad7b-967a260b1436","system_id":"levelo_inurba_marseille","lat":43.29625,"lon":5.3771,"is_reserved":false,"is_disabled":false,"rental_uris":{"android":"levelo://app?vid=cf91edd0-acc0-46fb-ad7b-967a260b1436","ios":"levelo://app?vid=cf91edd0-acc0-46fb-ad7b-967a260b1436"},"vehicle_type_id":"4","last_reported":1714410389,"current_range_meters":0,"station_id":"ce4bgi92rcd13ifvqb90","pricing_plan_id":"cebpf4jnsgd1na2vs0mg"},{"bike_id":"2283ea35-5efc-4f5e-b91d-5cf85e1613d6","system_id":"levelo_inurba_marseille","lat":43.304606,"lon":5.379026,"is_reserved":false,"is_disabled":false,"rental_uris":{"android":"levelo://app?vid=2283ea35-5efc-4f5e-b91d-5cf85e1613d6","ios":"levelo://app?vid=2283ea35-5efc-4f5e-b91d-5cf85e1613d6"},"vehicle_type_id":"4","last_reported":1714410389,"current_range_meters":5600,"station_id":"ce4bgup2rcd13ifvqcn0","pricing_plan_id":"cebpf4jnsgd1na2vs0mg"},{"bike_id":"a79d6403-dded-4a4f-abce-c0018e379696","system_id":"levelo_inurba_marseille","lat":43.297883,"lon":5.381143,"is_reserved":false,"is_disabled":false,"rental_uris":{"android":"levelo://app?vid=a79d6403-dded-4a4f-abce-c0018e379696","ios":"levelo://app?vid=a79d6403-dded-4a4f-abce-c0018e379696"},"vehicle_type_id":"4","last_reported":1714410389,"current_range_meters":0,"station_id":"ce4bgip2rcd13ifvqbb0","pricing_plan_id":"cebpf4jnsgd1na2vs0mg"},{"bike_id":"79ffc15e-1308-4efa-8b3a-e2f4bf437b67","system_id":"levelo_inurba_marseille","lat":43.290104,"lon":5.356111,"is_reserved":false,"is_disabled":false,"rental_uris":{"android":"levelo://app?vid=79ffc15e-1308-4efa-8b3a-e2f4bf437b67","ios":"levelo://app?vid=79ffc15e-1308-4efa-8b3a-e2f4bf437b67"},"vehicle_type_id":"4","last_reported":1714410389,"current_range_meters":14000,"station_id":"ce4bhb92rcd13ifvqen0","pricing_plan_id":"cebpf4jnsgd1na2vs0mg"},{"bike_id":"fa4940c2-2c28-4275-9f36-ec873075e52b","system_id":"levelo_inurba_marseille","lat":43.292749,"lon":5.368398,"is_reserved":false,"is_disabled":false,"rental_uris":{"android":"levelo://app?vid=fa4940c2-2c28-4275-9f36-ec873075e52b","ios":"levelo://app?vid=fa4940c2-2c28-4275-9f36-ec873075e52b"},"vehicle_type_id":"4","last_reported":1714410389,"current_range_meters":4800,"station_id":"ce4bhbp2rcd13ifvqesg","pricing_plan_id":"cebpf4jnsgd1na2vs0mg"},{"bike_id":"b6613b19-42fd-40e1-a500-36b466a30327","system_id":"levelo_inurba_marseille","lat":43.304274,"lon":5.388978,"is_reserved":false,"is_disabled":false,"rental_uris":{"android":"levelo://app?vid=b6613b19-42fd-40e1-a500-36b466a30327","ios":"levelo://app?vid=b6613b19-42fd-40e1-a500-36b466a30327"},"vehicle_type_id":"4","last_reported":1714410389,"current_range_meters":18800,"station_id":"ce4bgk12rcd13ifvqbi0","pricing_plan_id":"cebpf4jnsgd1na2vs0mg"},{"bike_id":"69d6dce0-a1b3-430a-9086-8c29241109d2","system_id":"levelo_inurba_marseille","lat":43.294153,"lon":5.386305,"is_reserved":false,"is_disabled":false,"rental_uris":{"android":"levelo://app?vid=69d6dce0-a1b3-430a-9086-8c29241109d2","ios":"levelo://app?vid=69d6dce0-a1b3-430a-9086-8c29241109d2"},"vehicle_type_id":"4","last_reported":1714410389,"current_range_meters":7600,"station_id":"ce4bh2h2rcd13ifvqdh0","pricing_plan_id":"cebpf4jnsgd1na2vs0mg"},{"bike_id":"a4484509-38cf-4203-addd-61fa3cbe7170","system_id":"levelo_inurba_marseille","lat":43.304096,"lon":5.425385,"is_reserved":false,"is_disabled":false,"rental_uris":{"android":"levelo://app?vid=a4484509-38cf-4203-addd-61fa3cbe7170","ios":"levelo://app?vid=a4484509-38cf-4203-addd-61fa3cbe7170"},"vehicle_type_id":"4","last_reported":1714410389,"current_range_meters":800,"station_id":"ce4bhoh2rcd13ifvqh6g","pricing_plan_id":"cebpf4jnsgd1na2vs0mg"},{"bike_id":"409ecb46-7bf3-42ce-bed8-c2dc9341a3be","system_id":"levelo_inurba_marseille","lat":43.299724,"lon":5.384848,"is_reserved":false,"is_disabled":false,"rental_uris":{"android":"levelo://app?vid=409ecb46-7bf3-42ce-bed8-c2dc9341a3be","ios":"levelo://app?vid=409ecb46-7bf3-42ce-bed8-c2dc9341a3be"},"vehicle_type_id":"4","last_reported":1714410389,"current_range_meters":1600,"station_id":"ce4bgj92rcd13ifvqbd0","pricing_plan_id":"cebpf4jnsgd1na2vs0mg"},{"bike_id":"e2fbeac7-0468-490f-95ba-fae813c7fd71","system_id":"levelo_inurba_marseille","lat":43.299717,"lon":5.384845,"is_reserved":false,"is_disabled":false,"rental_uris":{"android":"levelo://app?vid=e2fbeac7-0468-490f-95ba-fae813c7fd71","ios":"levelo://app?vid=e2fbeac7-0468-490f-95ba-fae813c7fd71"},"vehicle_type_id":"4","last_reported":1714410389,"current_range_meters":14400,"station_id":"ce4bgj92rcd13ifvqbd0","pricing_plan_id":"cebpf4jnsgd1na2vs0mg"},{"bike_id":"6654fedd-e8cc-41b3-88bc-7689e77da3e5","system_id":"levelo_inurba_marseille","lat":43.299717,"lon":5.384845,"is_reserved":false,"is_disabled":false,"rental_uris":{"android":"levelo://app?vid=6654fedd-e8cc-41b3-88bc-7689e77da3e5","ios":"levelo://app?vid=6654fedd-e8cc-41b3-88bc-7689e77da3e5"},"vehicle_type_id":"4","last_reported":1714410389,"current_range_meters":7600,"station_id":"ce4bgj92rcd13ifvqbd0","pricing_plan_id":"cebpf4jnsgd1na2vs0mg"},{"bike_id":"80016a25-551c-4eed-bd04-c19780eac56a","system_id":"levelo_inurba_marseille","lat":43.295279,"lon":5.375048,"is_reserved":false,"is_disabled":false,"rental_uris":{"android":"levelo://app?vid=80016a25-551c-4eed-bd04-c19780eac56a","ios":"levelo://app?vid=80016a25-551c-4eed-bd04-c19780eac56a"},"vehicle_type_id":"4","last_reported":1714410389,"current_range_meters":20800,"station_id":"ce4bgkp2rcd13ifvqbmg","pricing_plan_id":"cebpf4jnsgd1na2vs0mg"},{"bike_id":"4e261f87-feba-4b1c-8c75-c54b0a8786e8","system_id":"levelo_inurba_marseille","lat":43.299724,"lon":5.384848,"is_reserved":false,"is_disabled":false,"rental_uris":{"android":"levelo://app?vid=4e261f87-feba-4b1c-8c75-c54b0a8786e8","ios":"levelo://app?vid=4e261f87-feba-4b1c-8c75-c54b0a8786e8"},"vehicle_type_id":"4","last_reported":1714410389,"current_range_meters":0,"station_id":"ce4bgj92rcd13ifvqbd0","pricing_plan_id":"cebpf4jnsgd1na2vs0mg"},{"bike_id":"73b37800-277b-4d68-afd4-4b2ddd3b798e","system_id":"levelo_inurba_marseille","lat":43.29602,"lon":5.37954,"is_reserved":false,"is_disabled":false,"rental_uris":{"android":"levelo://app?vid=73b37800-277b-4d68-afd4-4b2ddd3b798e","ios":"levelo://app?vid=73b37800-277b-4d68-afd4-4b2ddd3b798e"},"vehicle_type_id":"4","last_reported":1714410389,"current_range_meters":7200,"station_id":"","pricing_plan_id":"cebpf4jnsgd1na2vs0mg"},{"bike_id":"c93f0588-29a3-4771-bb3f-9c988287b600","system_id":"levelo_inurba_marseille","lat":43.32367,"lon":5.388836,"is_reserved":false,"is_disabled":false,"rental_uris":{"android":"levelo://app?vid=c93f0588-29a3-4771-bb3f-9c988287b600","ios":"levelo://app?vid=c93f0588-29a3-4771-bb3f-9c988287b600"},"vehicle_type_id":"4","last_reported":1714410389,"current_range_meters":13600,"station_id":"ce4bhqp2rcd13ifvqhog","pricing_plan_id":"cebpf4jnsgd1na2vs0mg"},{"bike_id":"2c30f776-57a5-47da-9a89-9dc7d459c2c6","system_id":"levelo_inurba_marseille","lat":43.302759,"lon":5.400793,"is_reserved":false,"is_disabled":false,"rental_uris":{"android":"levelo://app?vid=2c30f776-57a5-47da-9a89-9dc7d459c2c6","ios":"levelo://app?vid=2c30f776-57a5-47da-9a89-9dc7d459c2c6"},"vehicle_type_id":"4","last_reported":1714410389,"current_range_meters":11200,"station_id":"ce4bgvh2rcd13ifvqcs0","pricing_plan_id":"cebpf4jnsgd1na2vs0mg"},{"bike_id":"db36872a-de1f-425d-8920-cdc03a22eb48","system_id":"levelo_inurba_marseille","lat":43.29605,"lon":5.38086,"is_reserved":false,"is_disabled":false,"rental_uris":{"android":"levelo://app?vid=db36872a-de1f-425d-8920-cdc03a22eb48","ios":"levelo://app?vid=db36872a-de1f-425d-8920-cdc03a22eb48"},"vehicle_type_id":"4","last_reported":1714410389,"current_range_meters":12400,"station_id":"ce4bgl12rcd13ifvqbo0","pricing_plan_id":"cebpf4jnsgd1na2vs0mg"},{"bike_id":"abe90bc8-22d2-48c6-93ed-76940e3bdf06","system_id":"levelo_inurba_marseille","lat":43.29602,"lon":5.381084,"is_reserved":false,"is_disabled":false,"rental_uris":{"android":"levelo://app?vid=abe90bc8-22d2-48c6-93ed-76940e3bdf06","ios":"levelo://app?vid=abe90bc8-22d2-48c6-93ed-76940e3bdf06"},"vehicle_type_id":"4","last_reported":1714410389,"current_range_meters":16000,"station_id":"ce4bgl12rcd13ifvqbo0","pricing_plan_id":"cebpf4jnsgd1na2vs0mg"},{"bike_id":"4a4096c5-6507-42da-89d7-137282d906dd","system_id":"levelo_inurba_marseille","lat":43.29601,"lon":5.380937,"is_reserved":false,"is_disabled":false,"rental_uris":{"android":"levelo://app?vid=4a4096c5-6507-42da-89d7-137282d906dd","ios":"levelo://app?vid=4a4096c5-6507-42da-89d7-137282d906dd"},"vehicle_type_id":"4","last_reported":1714410389,"current_range_meters":6800,"station_id":"ce4bgl12rcd13ifvqbo0","pricing_plan_id":"cebpf4jnsgd1na2vs0mg"},{"bike_id":"2523aecc-92e2-495a-8a8d-58451d8e38dc","system_id":"levelo_inurba_marseille","lat":43.295987,"lon":5.380984,"is_reserved":false,"is_disabled":false,"rental_uris":{"android":"levelo://app?vid=2523aecc-92e2-495a-8a8d-58451d8e38dc","ios":"levelo://app?vid=2523aecc-92e2-495a-8a8d-58451d8e38dc"},"vehicle_type_id":"4","last_reported":1714410389,"current_range_meters":0,"station_id":"ce4bgl12rcd13ifvqbo0","pricing_plan_id":"cebpf4jnsgd1na2vs0mg"},{"bike_id":"2bed64d7-3eda-4ea4-bc5f-a8a40a73dd58","system_id":"levelo_inurba_marseille","lat":43.29602,"lon":5.381084,"is_reserved":false,"is_disabled":false,"rental_uris":{"android":"levelo://app?vid=2bed64d7-3eda-4ea4-bc5f-a8a40a73dd58","ios":"levelo://app?vid=2bed64d7-3eda-4ea4-bc5f-a8a40a73dd58"},"vehicle_type_id":"4","last_reported":1714410389,"current_range_meters":26400,"station_id":"ce4bgl12rcd13ifvqbo0","pricing_plan_id":"cebpf4jnsgd1na2vs0mg"},{"bike_id":"6b254039-abe7-4235-9363-2e5922ac72e9","system_id":"levelo_inurba_marseille","lat":43.29602,"lon":5.381084,"is_reserved":false,"is_disabled":false,"rental_uris":{"android":"levelo://app?vid=6b254039-abe7-4235-9363-2e5922ac72e9","ios":"levelo://app?vid=6b254039-abe7-4235-9363-2e5922ac72e9"},"vehicle_type_id":"4","last_reported":1714410389,"current_range_meters":8400,"station_id":"ce4bgl12rcd13ifvqbo0","pricing_plan_id":"cebpf4jnsgd1na2vs0mg"},{"bike_id":"710132a8-febd-4451-a897-cdcd6a51e53d","system_id":"levelo_inurba_marseille","lat":43.29602,"lon":5.381084,"is_reserved":false,"is_disabled":false,"rental_uris":{"android":"levelo://app?vid=710132a8-febd-4451-a897-cdcd6a51e53d","ios":"levelo://app?vid=710132a8-febd-4451-a897-cdcd6a51e53d"},"vehicle_type_id":"4","last_reported":1714410389,"current_range_meters":26800,"station_id":"ce4bgl12rcd13ifvqbo0","pricing_plan_id":"cebpf4jnsgd1na2vs0mg"},{"bike_id":"564f44ca-5007-4467-9615-ce1122921a75","system_id":"levelo_inurba_marseille","lat":43.293259,"lon":5.371586,"is_reserved":false,"is_disabled":false,"rental_uris":{"android":"levelo://app?vid=564f44ca-5007-4467-9615-ce1122921a75","ios":"levelo://app?vid=564f44ca-5007-4467-9615-ce1122921a75"},"vehicle_type_id":"4","last_reported":1714410389,"current_range_meters":2000,"station_id":"ce4bgh92rcd13ifvqb40","pricing_plan_id":"cebpf4jnsgd1na2vs0mg"},{"bike_id":"3190e011-9d54-48c3-8df4-24c375041388","system_id":"levelo_inurba_marseille","lat":43.292749,"lon":5.368402,"is_reserved":false,"is_disabled":false,"rental_uris":{"android":"levelo://app?vid=3190e011-9d54-48c3-8df4-24c375041388","ios":"levelo://app?vid=3190e011-9d54-48c3-8df4-24c375041388"},"vehicle_type_id":"4","last_reported":1714410389,"current_range_meters":26000,"station_id":"ce4bhbp2rcd13ifvqesg","pricing_plan_id":"cebpf4jnsgd1na2vs0mg"},{"bike_id":"d00290e1-3cc8-40bf-9498-be8979466f3e","system_id":"levelo_inurba_marseille","lat":43.293122,"lon":5.374463,"is_reserved":false,"is_disabled":false,"rental_uris":{"android":"levelo://app?vid=d00290e1-3cc8-40bf-9498-be8979466f3e","ios":"levelo://app?vid=d00290e1-3cc8-40bf-9498-be8979466f3e"},"vehicle_type_id":"4","last_reported":1714410389,"current_range_meters":1200,"station_id":"ce4bgi12rcd13ifvqb70","pricing_plan_id":"cebpf4jnsgd1na2vs0mg"},{"bike_id":"e82d8226-03be-429a-b0c1-9048d8cf4a39","system_id":"levelo_inurba_marseille","lat":43.302992,"lon":5.392136,"is_reserved":false,"is_disabled":false,"rental_uris":{"android":"levelo://app?vid=e82d8226-03be-429a-b0c1-9048d8cf4a39","ios":"levelo://app?vid=e82d8226-03be-429a-b0c1-9048d8cf4a39"},"vehicle_type_id":"4","last_reported":1714410389,"current_range_meters":28400,"station_id":"ce4bgkh2rcd13ifvqbk0","pricing_plan_id":"cebpf4jnsgd1na2vs0mg"},{"bike_id":"469094c4-ef40-4c12-bed8-e06dd19f46c6","system_id":"levelo_inurba_marseille","lat":43.293009,"lon":5.374584,"is_reserved":false,"is_disabled":false,"rental_uris":{"android":"levelo://app?vid=469094c4-ef40-4c12-bed8-e06dd19f46c6","ios":"levelo://app?vid=469094c4-ef40-4c12-bed8-e06dd19f46c6"},"vehicle_type_id":"4","last_reported":1714410389,"current_range_meters":16800,"station_id":"ce4bgi12rcd13ifvqb70","pricing_plan_id":"cebpf4jnsgd1na2vs0mg"},{"bike_id":"4ffa5666-f383-40b7-a4cb-e9dc581f4376","system_id":"levelo_inurba_marseille","lat":43.298681,"lon":5.397225,"is_reserved":false,"is_disabled":false,"rental_uris":{"android":"levelo://app?vid=4ffa5666-f383-40b7-a4cb-e9dc581f4376","ios":"levelo://app?vid=4ffa5666-f383-40b7-a4cb-e9dc581f4376"},"vehicle_type_id":"4","last_reported":1714410389,"current_range_meters":5600,"station_id":"ce4bh0h2rcd13ifvqd50","pricing_plan_id":"cebpf4jnsgd1na2vs0mg"},{"bike_id":"7e9c2a1f-9a9b-4db5-9b1a-997c03ad15b3","system_id":"levelo_inurba_marseille","lat":43.302008,"lon":5.394694,"is_reserved":false,"is_disabled":false,"rental_uris":{"android":"levelo://app?vid=7e9c2a1f-9a9b-4db5-9b1a-997c03ad15b3","ios":"levelo://app?vid=7e9c2a1f-9a9b-4db5-9b1a-997c03ad15b3"},"vehicle_type_id":"4","last_reported":1714410389,"current_range_meters":22800,"station_id":"ce4bh0p2rcd13ifvqd70","pricing_plan_id":"cebpf4jnsgd1na2vs0mg"},{"bike_id":"668a459b-167b-4dd6-a6a7-877c62a56a1f","system_id":"levelo_inurba_marseille","lat":43.298764,"lon":5.388973,"is_reserved":false,"is_disabled":false,"rental_uris":{"android":"levelo://app?vid=668a459b-167b-4dd6-a6a7-877c62a56a1f","ios":"levelo://app?vid=668a459b-167b-4dd6-a6a7-877c62a56a1f"},"vehicle_type_id":"4","last_reported":1714410389,"current_range_meters":8400,"station_id":"ce4bh392rcd13ifvqdl0","pricing_plan_id":"cebpf4jnsgd1na2vs0mg"},{"bike_id":"2737634b-a5e0-4447-a399-f567e89877d3","system_id":"levelo_inurba_marseille","lat":43.2923,"lon":5.36224,"is_reserved":false,"is_disabled":false,"rental_uris":{"android":"levelo://app?vid=2737634b-a5e0-4447-a399-f567e89877d3","ios":"levelo://app?vid=2737634b-a5e0-4447-a399-f567e89877d3"},"vehicle_type_id":"4","last_reported":1714410389,"current_range_meters":5600,"station_id":"","pricing_plan_id":"cebpf4jnsgd1na2vs0mg"},{"bike_id":"f081eaf1-8e08-45b9-84d4-8bdfdf9143e3","system_id":"levelo_inurba_marseille","lat":43.303002,"lon":5.392142,"is_reserved":false,"is_disabled":false,"rental_uris":{"android":"levelo://app?vid=f081eaf1-8e08-45b9-84d4-8bdfdf9143e3","ios":"levelo://app?vid=f081eaf1-8e08-45b9-84d4-8bdfdf9143e3"},"vehicle_type_id":"4","last_reported":1714410389,"current_range_meters":8400,"station_id":"ce4bgkh2rcd13ifvqbk0","pricing_plan_id":"cebpf4jnsgd1na2vs0mg"},{"bike_id":"8823c19e-38f0-443d-b40f-def4b1f9a3ce","system_id":"levelo_inurba_marseille","lat":43.302992,"lon":5.392136,"is_reserved":false,"is_disabled":false,"rental_uris":{"android":"levelo://app?vid=8823c19e-38f0-443d-b40f-def4b1f9a3ce","ios":"levelo://app?vid=8823c19e-38f0-443d-b40f-def4b1f9a3ce"},"vehicle_type_id":"4","last_reported":1714410389,"current_range_meters":2000,"station_id":"ce4bgkh2rcd13ifvqbk0","pricing_plan_id":"cebpf4jnsgd1na2vs0mg"},{"bike_id":"0c106a00-2c03-42a5-8217-099ea134faa3","system_id":"levelo_inurba_marseille","lat":43.296263,"lon":5.40601,"is_reserved":false,"is_disabled":false,"rental_uris":{"android":"levelo://app?vid=0c106a00-2c03-42a5-8217-099ea134faa3","ios":"levelo://app?vid=0c106a00-2c03-42a5-8217-099ea134faa3"},"vehicle_type_id":"4","last_reported":1714410389,"current_range_meters":7200,"station_id":"ce4bh0h2rcd13ifvqd60","pricing_plan_id":"cebpf4jnsgd1na2vs0mg"},{"bike_id":"ae58078f-cf7d-41d3-a847-f5e998644713","system_id":"levelo_inurba_marseille","lat":43.303002,"lon":5.392142,"is_reserved":false,"is_disabled":false,"rental_uris":{"android":"levelo://app?vid=ae58078f-cf7d-41d3-a847-f5e998644713","ios":"levelo://app?vid=ae58078f-cf7d-41d3-a847-f5e998644713"},"vehicle_type_id":"4","last_reported":1714410389,"current_range_meters":24400,"station_id":"ce4bgkh2rcd13ifvqbk0","pricing_plan_id":"cebpf4jnsgd1na2vs0mg"},{"bike_id":"3f19e852-801f-4209-8630-939015a2a8ac","system_id":"levelo_inurba_marseille","lat":43.302992,"lon":5.392136,"is_reserved":false,"is_disabled":false,"rental_uris":{"android":"levelo://app?vid=3f19e852-801f-4209-8630-939015a2a8ac","ios":"levelo://app?vid=3f19e852-801f-4209-8630-939015a2a8ac"},"vehicle_type_id":"4","last_reported":1714410389,"current_range_meters":21200,"station_id":"ce4bgkh2rcd13ifvqbk0","pricing_plan_id":"cebpf4jnsgd1na2vs0mg"},{"bike_id":"e0f0d0c9-3433-4102-8a13-395eb5109c0e","system_id":"levelo_inurba_marseille","lat":43.301014,"lon":5.390658,"is_reserved":false,"is_disabled":false,"rental_uris":{"android":"levelo://app?vid=e0f0d0c9-3433-4102-8a13-395eb5109c0e","ios":"levelo://app?vid=e0f0d0c9-3433-4102-8a13-395eb5109c0e"},"vehicle_type_id":"4","last_reported":1714410389,"current_range_meters":25600,"station_id":"ce4bh192rcd13ifvqdb0","pricing_plan_id":"cebpf4jnsgd1na2vs0mg"},{"bike_id":"82e83db1-7081-4b3a-bd3c-fcbcde67bc33","system_id":"levelo_inurba_marseille","lat":43.302992,"lon":5.392136,"is_reserved":false,"is_disabled":false,"rental_uris":{"android":"levelo://app?vid=82e83db1-7081-4b3a-bd3c-fcbcde67bc33","ios":"levelo://app?vid=82e83db1-7081-4b3a-bd3c-fcbcde67bc33"},"vehicle_type_id":"4","last_reported":1714410389,"current_range_meters":4000,"station_id":"ce4bgkh2rcd13ifvqbk0","pricing_plan_id":"cebpf4jnsgd1na2vs0mg"},{"bike_id":"7c458a4e-dce3-4e51-8640-8de257945ebd","system_id":"levelo_inurba_marseille","lat":43.302992,"lon":5.392136,"is_reserved":false,"is_disabled":false,"rental_uris":{"android":"levelo://app?vid=7c458a4e-dce3-4e51-8640-8de257945ebd","ios":"levelo://app?vid=7c458a4e-dce3-4e51-8640-8de257945ebd"},"vehicle_type_id":"4","last_reported":1714410389,"current_range_meters":18800,"station_id":"ce4bgkh2rcd13ifvqbk0","pricing_plan_id":"cebpf4jnsgd1na2vs0mg"},{"bike_id":"0fa59905-b1d0-4f53-9a5a-64c46f5c53e3","system_id":"levelo_inurba_marseille","lat":43.298764,"lon":5.388973,"is_reserved":false,"is_disabled":false,"rental_uris":{"android":"levelo://app?vid=0fa59905-b1d0-4f53-9a5a-64c46f5c53e3","ios":"levelo://app?vid=0fa59905-b1d0-4f53-9a5a-64c46f5c53e3"},"vehicle_type_id":"4","last_reported":1714410389,"current_range_meters":22000,"station_id":"ce4bh392rcd13ifvqdl0","pricing_plan_id":"cebpf4jnsgd1na2vs0mg"},{"bike_id":"d19b95aa-b45c-49ce-8c0e-f3ce7515e227","system_id":"levelo_inurba_marseille","lat":43.300852,"lon":5.390859,"is_reserved":false,"is_disabled":false,"rental_uris":{"android":"levelo://app?vid=d19b95aa-b45c-49ce-8c0e-f3ce7515e227","ios":"levelo://app?vid=d19b95aa-b45c-49ce-8c0e-f3ce7515e227"},"vehicle_type_id":"4","last_reported":1714410389,"current_range_meters":12000,"station_id":"ce4bh192rcd13ifvqdb0","pricing_plan_id":"cebpf4jnsgd1na2vs0mg"},{"bike_id":"513fe0bc-a3fe-4069-b182-dee09862672d","system_id":"levelo_inurba_marseille","lat":43.302992,"lon":5.392136,"is_reserved":false,"is_disabled":false,"rental_uris":{"android":"levelo://app?vid=513fe0bc-a3fe-4069-b182-dee09862672d","ios":"levelo://app?vid=513fe0bc-a3fe-4069-b182-dee09862672d"},"vehicle_type_id":"4","last_reported":1714410389,"current_range_meters":18400,"station_id":"ce4bgkh2rcd13ifvqbk0","pricing_plan_id":"cebpf4jnsgd1na2vs0mg"},{"bike_id":"8758c215-6172-4e06-860a-886840d47e96","system_id":"levelo_inurba_marseille","lat":43.30085,"lon":5.390856,"is_reserved":false,"is_disabled":false,"rental_uris":{"android":"levelo://app?vid=8758c215-6172-4e06-860a-886840d47e96","ios":"levelo://app?vid=8758c215-6172-4e06-860a-886840d47e96"},"vehicle_type_id":"4","last_reported":1714410389,"current_range_meters":26400,"station_id":"ce4bh192rcd13ifvqdb0","pricing_plan_id":"cebpf4jnsgd1na2vs0mg"},{"bike_id":"f99536a3-4dce-492f-8fc1-c2e89cbd4d94","system_id":"levelo_inurba_marseille","lat":43.30085,"lon":5.390856,"is_reserved":false,"is_disabled":false,"rental_uris":{"android":"levelo://app?vid=f99536a3-4dce-492f-8fc1-c2e89cbd4d94","ios":"levelo://app?vid=f99536a3-4dce-492f-8fc1-c2e89cbd4d94"},"vehicle_type_id":"4","last_reported":1714410389,"current_range_meters":15200,"station_id":"ce4bh192rcd13ifvqdb0","pricing_plan_id":"cebpf4jnsgd1na2vs0mg"},{"bike_id":"39601162-2160-4f01-a953-3f3d078a0034","system_id":"levelo_inurba_marseille","lat":43.302857,"lon":5.392385,"is_reserved":false,"is_disabled":false,"rental_uris":{"android":"levelo://app?vid=39601162-2160-4f01-a953-3f3d078a0034","ios":"levelo://app?vid=39601162-2160-4f01-a953-3f3d078a0034"},"vehicle_type_id":"4","last_reported":1714410389,"current_range_meters":9200,"station_id":"ce4bh0p2rcd13ifvqd70","pricing_plan_id":"cebpf4jnsgd1na2vs0mg"},{"bike_id":"e808c261-0a04-4793-b8d5-2980e0fbacc6","system_id":"levelo_inurba_marseille","lat":43.30085,"lon":5.390856,"is_reserved":false,"is_disabled":false,"rental_uris":{"android":"levelo://app?vid=e808c261-0a04-4793-b8d5-2980e0fbacc6","ios":"levelo://app?vid=e808c261-0a04-4793-b8d5-2980e0fbacc6"},"vehicle_type_id":"4","last_reported":1714410389,"current_range_meters":8400,"station_id":"ce4bh192rcd13ifvqdb0","pricing_plan_id":"cebpf4jnsgd1na2vs0mg"},{"bike_id":"023ec1d4-debe-4900-9f29-77db77267ef7","system_id":"levelo_inurba_marseille","lat":43.302008,"lon":5.394694,"is_reserved":false,"is_disabled":false,"rental_uris":{"android":"levelo://app?vid=023ec1d4-debe-4900-9f29-77db77267ef7","ios":"levelo://app?vid=023ec1d4-debe-4900-9f29-77db77267ef7"},"vehicle_type_id":"4","last_reported":1714410389,"current_range_meters":26000,"station_id":"ce4bh0p2rcd13ifvqd70","pricing_plan_id":"cebpf4jnsgd1na2vs0mg"},{"bike_id":"97f6ec3e-8277-4b83-9a4e-4e16ec55fc15","system_id":"levelo_inurba_marseille","lat":43.302992,"lon":5.392136,"is_reserved":false,"is_disabled":false,"rental_uris":{"android":"levelo://app?vid=97f6ec3e-8277-4b83-9a4e-4e16ec55fc15","ios":"levelo://app?vid=97f6ec3e-8277-4b83-9a4e-4e16ec55fc15"},"vehicle_type_id":"4","last_reported":1714410389,"current_range_meters":20800,"station_id":"ce4bgkh2rcd13ifvqbk0","pricing_plan_id":"cebpf4jnsgd1na2vs0mg"},{"bike_id":"c77266d1-1226-4336-9222-fe9e2dae689c","system_id":"levelo_inurba_marseille","lat":43.304274,"lon":5.397513,"is_reserved":false,"is_disabled":false,"rental_uris":{"android":"levelo://app?vid=c77266d1-1226-4336-9222-fe9e2dae689c","ios":"levelo://app?vid=c77266d1-1226-4336-9222-fe9e2dae689c"},"vehicle_type_id":"4","last_reported":1714410389,"current_range_meters":3200,"station_id":"ce4bh092rcd13ifvqd20","pricing_plan_id":"cebpf4jnsgd1na2vs0mg"},{"bike_id":"942f4c2e-6bc8-4522-b312-b846782e3ec5","system_id":"levelo_inurba_marseille","lat":43.298764,"lon":5.388973,"is_reserved":false,"is_disabled":false,"rental_uris":{"android":"levelo://app?vid=942f4c2e-6bc8-4522-b312-b846782e3ec5","ios":"levelo://app?vid=942f4c2e-6bc8-4522-b312-b846782e3ec5"},"vehicle_type_id":"4","last_reported":1714410389,"current_range_meters":12800,"station_id":"ce4bh392rcd13ifvqdl0","pricing_plan_id":"cebpf4jnsgd1na2vs0mg"},{"bike_id":"9c9a2f69-0da8-4609-afef-76883f931b45","system_id":"levelo_inurba_marseille","lat":43.29172,"lon":5.37155,"is_reserved":false,"is_disabled":false,"rental_uris":{"android":"levelo://app?vid=9c9a2f69-0da8-4609-afef-76883f931b45","ios":"levelo://app?vid=9c9a2f69-0da8-4609-afef-76883f931b45"},"vehicle_type_id":"4","last_reported":1714410389,"current_range_meters":0,"station_id":"ce4bh2h2rcd13ifvqdh0","pricing_plan_id":"cebpf4jnsgd1na2vs0mg"},{"bike_id":"f066ac3f-da69-4e71-a014-d2d0f5d7edb3","system_id":"levelo_inurba_marseille","lat":43.298764,"lon":5.388973,"is_reserved":false,"is_disabled":false,"rental_uris":{"android":"levelo://app?vid=f066ac3f-da69-4e71-a014-d2d0f5d7edb3","ios":"levelo://app?vid=f066ac3f-da69-4e71-a014-d2d0f5d7edb3"},"vehicle_type_id":"4","last_reported":1714410389,"current_range_meters":4000,"station_id":"ce4bh392rcd13ifvqdl0","pricing_plan_id":"cebpf4jnsgd1na2vs0mg"},{"bike_id":"2e83fba3-f2a9-43d8-bbd9-56def08b1699","system_id":"levelo_inurba_marseille","lat":43.298764,"lon":5.388973,"is_reserved":false,"is_disabled":false,"rental_uris":{"android":"levelo://app?vid=2e83fba3-f2a9-43d8-bbd9-56def08b1699","ios":"levelo://app?vid=2e83fba3-f2a9-43d8-bbd9-56def08b1699"},"vehicle_type_id":"4","last_reported":1714410389,"current_range_meters":13200,"station_id":"ce4bh392rcd13ifvqdl0","pricing_plan_id":"cebpf4jnsgd1na2vs0mg"},{"bike_id":"1dd05304-80e3-4cf1-819b-f6147a6ae56f","system_id":"levelo_inurba_marseille","lat":43.298764,"lon":5.388973,"is_reserved":false,"is_disabled":false,"rental_uris":{"android":"levelo://app?vid=1dd05304-80e3-4cf1-819b-f6147a6ae56f","ios":"levelo://app?vid=1dd05304-80e3-4cf1-819b-f6147a6ae56f"},"vehicle_type_id":"4","last_reported":1714410389,"current_range_meters":10400,"station_id":"ce4bh392rcd13ifvqdl0","pricing_plan_id":"cebpf4jnsgd1na2vs0mg"},{"bike_id":"8e7f8bb3-1eb3-4875-a4da-d1f74d83999d","system_id":"levelo_inurba_marseille","lat":43.298764,"lon":5.388973,"is_reserved":false,"is_disabled":false,"rental_uris":{"android":"levelo://app?vid=8e7f8bb3-1eb3-4875-a4da-d1f74d83999d","ios":"levelo://app?vid=8e7f8bb3-1eb3-4875-a4da-d1f74d83999d"},"vehicle_type_id":"4","last_reported":1714410389,"current_range_meters":14800,"station_id":"ce4bh392rcd13ifvqdl0","pricing_plan_id":"cebpf4jnsgd1na2vs0mg"},{"bike_id":"7edce3f5-2b8d-4d39-bca6-09889569592d","system_id":"levelo_inurba_marseille","lat":43.292005,"lon":5.357875,"is_reserved":false,"is_disabled":false,"rental_uris":{"android":"levelo://app?vid=7edce3f5-2b8d-4d39-bca6-09889569592d","ios":"levelo://app?vid=7edce3f5-2b8d-4d39-bca6-09889569592d"},"vehicle_type_id":"4","last_reported":1714410389,"current_range_meters":14800,"station_id":"ce4bhb12rcd13ifvqel0","pricing_plan_id":"cebpf4jnsgd1na2vs0mg"},{"bike_id":"4828b669-ef6c-4a41-af75-9ceaad5ae6df","system_id":"levelo_inurba_marseille","lat":43.313291,"lon":5.396838,"is_reserved":false,"is_disabled":false,"rental_uris":{"android":"levelo://app?vid=4828b669-ef6c-4a41-af75-9ceaad5ae6df","ios":"levelo://app?vid=4828b669-ef6c-4a41-af75-9ceaad5ae6df"},"vehicle_type_id":"4","last_reported":1714410389,"current_range_meters":14400,"station_id":"ce4bgvp2rcd13ifvqcu0","pricing_plan_id":"cebpf4jnsgd1na2vs0mg"},{"bike_id":"7630cc94-f5ba-492e-8fa9-6a45eeb2ca97","system_id":"levelo_inurba_marseille","lat":43.313291,"lon":5.396838,"is_reserved":false,"is_disabled":false,"rental_uris":{"android":"levelo://app?vid=7630cc94-f5ba-492e-8fa9-6a45eeb2ca97","ios":"levelo://app?vid=7630cc94-f5ba-492e-8fa9-6a45eeb2ca97"},"vehicle_type_id":"4","last_reported":1714410389,"current_range_meters":22800,"station_id":"ce4bgvp2rcd13ifvqcu0","pricing_plan_id":"cebpf4jnsgd1na2vs0mg"},{"bike_id":"44ce2f88-32c4-4783-b380-1212a7cd9d3b","system_id":"levelo_inurba_marseille","lat":43.292749,"lon":5.368398,"is_reserved":false,"is_disabled":false,"rental_uris":{"android":"levelo://app?vid=44ce2f88-32c4-4783-b380-1212a7cd9d3b","ios":"levelo://app?vid=44ce2f88-32c4-4783-b380-1212a7cd9d3b"},"vehicle_type_id":"4","last_reported":1714410389,"current_range_meters":2800,"station_id":"ce4bhbp2rcd13ifvqesg","pricing_plan_id":"cebpf4jnsgd1na2vs0mg"},{"bike_id":"490398bc-6bac-4caf-bf5b-92e0bdac6c34","system_id":"levelo_inurba_marseille","lat":43.313291,"lon":5.396838,"is_reserved":false,"is_disabled":false,"rental_uris":{"android":"levelo://app?vid=490398bc-6bac-4caf-bf5b-92e0bdac6c34","ios":"levelo://app?vid=490398bc-6bac-4caf-bf5b-92e0bdac6c34"},"vehicle_type_id":"4","last_reported":1714410389,"current_range_meters":16000,"station_id":"ce4bgvp2rcd13ifvqcu0","pricing_plan_id":"cebpf4jnsgd1na2vs0mg"},{"bike_id":"e2404618-bf13-4ff6-a0c1-33d566a098b5","system_id":"levelo_inurba_marseille","lat":43.291994,"lon":5.357886,"is_reserved":false,"is_disabled":false,"rental_uris":{"android":"levelo://app?vid=e2404618-bf13-4ff6-a0c1-33d566a098b5","ios":"levelo://app?vid=e2404618-bf13-4ff6-a0c1-33d566a098b5"},"vehicle_type_id":"4","last_reported":1714410389,"current_range_meters":25600,"station_id":"ce4bhb12rcd13ifvqel0","pricing_plan_id":"cebpf4jnsgd1na2vs0mg"},{"bike_id":"e51898eb-ccd9-47b4-9add-f8cbcee75bb8","system_id":"levelo_inurba_marseille","lat":43.29529,"lon":5.385581,"is_reserved":false,"is_disabled":false,"rental_uris":{"android":"levelo://app?vid=e51898eb-ccd9-47b4-9add-f8cbcee75bb8","ios":"levelo://app?vid=e51898eb-ccd9-47b4-9add-f8cbcee75bb8"},"vehicle_type_id":"4","last_reported":1714410389,"current_range_meters":5600,"station_id":"ce4bgih2rcd13ifvqba0","pricing_plan_id":"cebpf4jnsgd1na2vs0mg"},{"bike_id":"be4161d8-1577-4643-8f49-a19ae844131a","system_id":"levelo_inurba_marseille","lat":43.309047,"lon":5.396551,"is_reserved":false,"is_disabled":false,"rental_uris":{"android":"levelo://app?vid=be4161d8-1577-4643-8f49-a19ae844131a","ios":"levelo://app?vid=be4161d8-1577-4643-8f49-a19ae844131a"},"vehicle_type_id":"4","last_reported":1714410389,"current_range_meters":14000,"station_id":"ce4bh012rcd13ifvqcv0","pricing_plan_id":"cebpf4jnsgd1na2vs0mg"},{"bike_id":"e8b744ba-f73d-45a0-bc09-b035b387f0d0","system_id":"levelo_inurba_marseille","lat":43.29529,"lon":5.385581,"is_reserved":false,"is_disabled":false,"rental_uris":{"android":"levelo://app?vid=e8b744ba-f73d-45a0-bc09-b035b387f0d0","ios":"levelo://app?vid=e8b744ba-f73d-45a0-bc09-b035b387f0d0"},"vehicle_type_id":"4","last_reported":1714410389,"current_range_meters":5600,"station_id":"ce4bgih2rcd13ifvqba0","pricing_plan_id":"cebpf4jnsgd1na2vs0mg"},{"bike_id":"73819ffe-c1ee-4ad1-b040-ca420b003c74","system_id":"levelo_inurba_marseille","lat":43.29529,"lon":5.385581,"is_reserved":false,"is_disabled":false,"rental_uris":{"android":"levelo://app?vid=73819ffe-c1ee-4ad1-b040-ca420b003c74","ios":"levelo://app?vid=73819ffe-c1ee-4ad1-b040-ca420b003c74"},"vehicle_type_id":"4","last_reported":1714410389,"current_range_meters":18400,"station_id":"ce4bgih2rcd13ifvqba0","pricing_plan_id":"cebpf4jnsgd1na2vs0mg"},{"bike_id":"5551551b-a26b-4d06-b906-f5dfa7c7aa6c","system_id":"levelo_inurba_marseille","lat":43.29529,"lon":5.385581,"is_reserved":false,"is_disabled":false,"rental_uris":{"android":"levelo://app?vid=5551551b-a26b-4d06-b906-f5dfa7c7aa6c","ios":"levelo://app?vid=5551551b-a26b-4d06-b906-f5dfa7c7aa6c"},"vehicle_type_id":"4","last_reported":1714410389,"current_range_meters":20400,"station_id":"ce4bgih2rcd13ifvqba0","pricing_plan_id":"cebpf4jnsgd1na2vs0mg"},{"bike_id":"87f8db0c-7730-4d55-a541-a4bbe79113c6","system_id":"levelo_inurba_marseille","lat":43.29529,"lon":5.385581,"is_reserved":false,"is_disabled":false,"rental_uris":{"android":"levelo://app?vid=87f8db0c-7730-4d55-a541-a4bbe79113c6","ios":"levelo://app?vid=87f8db0c-7730-4d55-a541-a4bbe79113c6"},"vehicle_type_id":"4","last_reported":1714410389,"current_range_meters":4800,"station_id":"ce4bgih2rcd13ifvqba0","pricing_plan_id":"cebpf4jnsgd1na2vs0mg"},{"bike_id":"9bcc4378-39a6-45b7-8d7b-65828e886cce","system_id":"levelo_inurba_marseille","lat":43.29529,"lon":5.385581,"is_reserved":false,"is_disabled":false,"rental_uris":{"android":"levelo://app?vid=9bcc4378-39a6-45b7-8d7b-65828e886cce","ios":"levelo://app?vid=9bcc4378-39a6-45b7-8d7b-65828e886cce"},"vehicle_type_id":"4","last_reported":1714410389,"current_range_meters":5600,"station_id":"ce4bgih2rcd13ifvqba0","pricing_plan_id":"cebpf4jnsgd1na2vs0mg"},{"bike_id":"1cc2a5e6-d781-49a3-a5da-c9652499b13e","system_id":"levelo_inurba_marseille","lat":43.29529,"lon":5.385581,"is_reserved":false,"is_disabled":false,"rental_uris":{"android":"levelo://app?vid=1cc2a5e6-d781-49a3-a5da-c9652499b13e","ios":"levelo://app?vid=1cc2a5e6-d781-49a3-a5da-c9652499b13e"},"vehicle_type_id":"4","last_reported":1714410389,"current_range_meters":1600,"station_id":"ce4bgih2rcd13ifvqba0","pricing_plan_id":"cebpf4jnsgd1na2vs0mg"},{"bike_id":"0ba399a7-acb9-46a5-b828-7d61dad25319","system_id":"levelo_inurba_marseille","lat":43.29529,"lon":5.385581,"is_reserved":false,"is_disabled":false,"rental_uris":{"android":"levelo://app?vid=0ba399a7-acb9-46a5-b828-7d61dad25319","ios":"levelo://app?vid=0ba399a7-acb9-46a5-b828-7d61dad25319"},"vehicle_type_id":"4","last_reported":1714410389,"current_range_meters":6800,"station_id":"ce4bgih2rcd13ifvqba0","pricing_plan_id":"cebpf4jnsgd1na2vs0mg"},{"bike_id":"a8c59259-b142-4f1d-840d-f8559eba2b2d","system_id":"levelo_inurba_marseille","lat":43.29529,"lon":5.385581,"is_reserved":false,"is_disabled":false,"rental_uris":{"android":"levelo://app?vid=a8c59259-b142-4f1d-840d-f8559eba2b2d","ios":"levelo://app?vid=a8c59259-b142-4f1d-840d-f8559eba2b2d"},"vehicle_type_id":"4","last_reported":1714410389,"current_range_meters":8400,"station_id":"ce4bgih2rcd13ifvqba0","pricing_plan_id":"cebpf4jnsgd1na2vs0mg"},{"bike_id":"627bd480-4bd1-42f5-b336-04f4d10b020f","system_id":"levelo_inurba_marseille","lat":43.290779,"lon":5.371482,"is_reserved":false,"is_disabled":false,"rental_uris":{"android":"levelo://app?vid=627bd480-4bd1-42f5-b336-04f4d10b020f","ios":"levelo://app?vid=627bd480-4bd1-42f5-b336-04f4d10b020f"},"vehicle_type_id":"4","last_reported":1714410389,"current_range_meters":24400,"station_id":"ce4bh5p2rcd13ifvqe4g","pricing_plan_id":"cebpf4jnsgd1na2vs0mg"},{"bike_id":"04701eba-8942-4ada-ac25-6f2d4a10dde4","system_id":"levelo_inurba_marseille","lat":43.302008,"lon":5.394694,"is_reserved":false,"is_disabled":false,"rental_uris":{"android":"levelo://app?vid=04701eba-8942-4ada-ac25-6f2d4a10dde4","ios":"levelo://app?vid=04701eba-8942-4ada-ac25-6f2d4a10dde4"},"vehicle_type_id":"4","last_reported":1714410389,"current_range_meters":2400,"station_id":"ce4bh0p2rcd13ifvqd70","pricing_plan_id":"cebpf4jnsgd1na2vs0mg"},{"bike_id":"956542f9-0e6d-4294-b232-00f6fcfbd44e","system_id":"levelo_inurba_marseille","lat":43.294153,"lon":5.386305,"is_reserved":false,"is_disabled":false,"rental_uris":{"android":"levelo://app?vid=956542f9-0e6d-4294-b232-00f6fcfbd44e","ios":"levelo://app?vid=956542f9-0e6d-4294-b232-00f6fcfbd44e"},"vehicle_type_id":"4","last_reported":1714410389,"current_range_meters":9600,"station_id":"ce4bh2h2rcd13ifvqdh0","pricing_plan_id":"cebpf4jnsgd1na2vs0mg"},{"bike_id":"161710c8-611f-4607-8984-4f8dc2acf919","system_id":"levelo_inurba_marseille","lat":43.301952,"lon":5.394093,"is_reserved":false,"is_disabled":false,"rental_uris":{"android":"levelo://app?vid=161710c8-611f-4607-8984-4f8dc2acf919","ios":"levelo://app?vid=161710c8-611f-4607-8984-4f8dc2acf919"},"vehicle_type_id":"4","last_reported":1714410389,"current_range_meters":25200,"station_id":"ce4bh0p2rcd13ifvqd70","pricing_plan_id":"cebpf4jnsgd1na2vs0mg"},{"bike_id":"8dc77e0d-05eb-4ab9-9438-bac296b0f6b3","system_id":"levelo_inurba_marseille","lat":43.302008,"lon":5.394694,"is_reserved":false,"is_disabled":false,"rental_uris":{"android":"levelo://app?vid=8dc77e0d-05eb-4ab9-9438-bac296b0f6b3","ios":"levelo://app?vid=8dc77e0d-05eb-4ab9-9438-bac296b0f6b3"},"vehicle_type_id":"4","last_reported":1714410389,"current_range_meters":1200,"station_id":"ce4bh0p2rcd13ifvqd70","pricing_plan_id":"cebpf4jnsgd1na2vs0mg"},{"bike_id":"ba97dedf-3502-4e50-9e27-90202e4f7bab","system_id":"levelo_inurba_marseille","lat":43.302008,"lon":5.394694,"is_reserved":false,"is_disabled":false,"rental_uris":{"android":"levelo://app?vid=ba97dedf-3502-4e50-9e27-90202e4f7bab","ios":"levelo://app?vid=ba97dedf-3502-4e50-9e27-90202e4f7bab"},"vehicle_type_id":"4","last_reported":1714410389,"current_range_meters":18800,"station_id":"ce4bh0p2rcd13ifvqd70","pricing_plan_id":"cebpf4jnsgd1na2vs0mg"},{"bike_id":"24515d3c-0caa-4698-980f-9013a45a25ab","system_id":"levelo_inurba_marseille","lat":43.302008,"lon":5.394694,"is_reserved":false,"is_disabled":false,"rental_uris":{"android":"levelo://app?vid=24515d3c-0caa-4698-980f-9013a45a25ab","ios":"levelo://app?vid=24515d3c-0caa-4698-980f-9013a45a25ab"},"vehicle_type_id":"4","last_reported":1714410389,"current_range_meters":26400,"station_id":"ce4bh0p2rcd13ifvqd70","pricing_plan_id":"cebpf4jnsgd1na2vs0mg"},{"bike_id":"ad318097-3db5-455a-b4a4-e281398c1f92","system_id":"levelo_inurba_marseille","lat":43.3021,"lon":5.39461,"is_reserved":false,"is_disabled":false,"rental_uris":{"android":"levelo://app?vid=ad318097-3db5-455a-b4a4-e281398c1f92","ios":"levelo://app?vid=ad318097-3db5-455a-b4a4-e281398c1f92"},"vehicle_type_id":"4","last_reported":1714410389,"current_range_meters":0,"station_id":"ce4bh0p2rcd13ifvqd70","pricing_plan_id":"cebpf4jnsgd1na2vs0mg"},{"bike_id":"507aa63b-15d6-4504-87df-b3672a6c6fb9","system_id":"levelo_inurba_marseille","lat":43.313291,"lon":5.396838,"is_reserved":false,"is_disabled":false,"rental_uris":{"android":"levelo://app?vid=507aa63b-15d6-4504-87df-b3672a6c6fb9","ios":"levelo://app?vid=507aa63b-15d6-4504-87df-b3672a6c6fb9"},"vehicle_type_id":"4","last_reported":1714410389,"current_range_meters":28400,"station_id":"ce4bgvp2rcd13ifvqcu0","pricing_plan_id":"cebpf4jnsgd1na2vs0mg"},{"bike_id":"c7993405-1b8d-455c-acaf-c77fd68f7e76","system_id":"levelo_inurba_marseille","lat":43.302008,"lon":5.394694,"is_reserved":false,"is_disabled":false,"rental_uris":{"android":"levelo://app?vid=c7993405-1b8d-455c-acaf-c77fd68f7e76","ios":"levelo://app?vid=c7993405-1b8d-455c-acaf-c77fd68f7e76"},"vehicle_type_id":"4","last_reported":1714410389,"current_range_meters":20000,"station_id":"ce4bh0p2rcd13ifvqd70","pricing_plan_id":"cebpf4jnsgd1na2vs0mg"},{"bike_id":"ad6fd122-91fb-46a8-8c4a-ce963580ad0f","system_id":"levelo_inurba_marseille","lat":43.30209,"lon":5.39471,"is_reserved":false,"is_disabled":false,"rental_uris":{"android":"levelo://app?vid=ad6fd122-91fb-46a8-8c4a-ce963580ad0f","ios":"levelo://app?vid=ad6fd122-91fb-46a8-8c4a-ce963580ad0f"},"vehicle_type_id":"4","last_reported":1714410389,"current_range_meters":31200,"station_id":"ce4bh0p2rcd13ifvqd70","pricing_plan_id":"cebpf4jnsgd1na2vs0mg"},{"bike_id":"ce4cccbc-db35-458f-a75a-21a8528be306","system_id":"levelo_inurba_marseille","lat":43.302008,"lon":5.394694,"is_reserved":false,"is_disabled":false,"rental_uris":{"android":"levelo://app?vid=ce4cccbc-db35-458f-a75a-21a8528be306","ios":"levelo://app?vid=ce4cccbc-db35-458f-a75a-21a8528be306"},"vehicle_type_id":"4","last_reported":1714410389,"current_range_meters":25200,"station_id":"ce4bh0p2rcd13ifvqd70","pricing_plan_id":"cebpf4jnsgd1na2vs0mg"},{"bike_id":"ab69bd10-7cd2-4a48-b82c-d6da8e2e16a8","system_id":"levelo_inurba_marseille","lat":43.30213,"lon":5.39476,"is_reserved":false,"is_disabled":false,"rental_uris":{"android":"levelo://app?vid=ab69bd10-7cd2-4a48-b82c-d6da8e2e16a8","ios":"levelo://app?vid=ab69bd10-7cd2-4a48-b82c-d6da8e2e16a8"},"vehicle_type_id":"4","last_reported":1714410389,"current_range_meters":26800,"station_id":"ce4bh0p2rcd13ifvqd70","pricing_plan_id":"cebpf4jnsgd1na2vs0mg"},{"bike_id":"165aeec1-222e-464f-9167-e3cfe6934166","system_id":"levelo_inurba_marseille","lat":43.290555,"lon":5.359183,"is_reserved":false,"is_disabled":false,"rental_uris":{"android":"levelo://app?vid=165aeec1-222e-464f-9167-e3cfe6934166","ios":"levelo://app?vid=165aeec1-222e-464f-9167-e3cfe6934166"},"vehicle_type_id":"4","last_reported":1714410389,"current_range_meters":27200,"station_id":"","pricing_plan_id":"cebpf4jnsgd1na2vs0mg"},{"bike_id":"81b0ca01-dda6-4ac3-a833-3e884a7f779a","system_id":"levelo_inurba_marseille","lat":43.294162,"lon":5.386292,"is_reserved":false,"is_disabled":false,"rental_uris":{"android":"levelo://app?vid=81b0ca01-dda6-4ac3-a833-3e884a7f779a","ios":"levelo://app?vid=81b0ca01-dda6-4ac3-a833-3e884a7f779a"},"vehicle_type_id":"4","last_reported":1714410389,"current_range_meters":29200,"station_id":"ce4bh2h2rcd13ifvqdh0","pricing_plan_id":"cebpf4jnsgd1na2vs0mg"},{"bike_id":"08f3d5ab-75b1-4389-b082-b255df16b629","system_id":"levelo_inurba_marseille","lat":43.290631,"lon":5.359244,"is_reserved":false,"is_disabled":false,"rental_uris":{"android":"levelo://app?vid=08f3d5ab-75b1-4389-b082-b255df16b629","ios":"levelo://app?vid=08f3d5ab-75b1-4389-b082-b255df16b629"},"vehicle_type_id":"4","last_reported":1714410389,"current_range_meters":25600,"station_id":"ce4bha92rcd13ifvqeg0","pricing_plan_id":"cebpf4jnsgd1na2vs0mg"},{"bike_id":"97e3afc0-fa97-45c7-a0b0-5f95e156ca23","system_id":"levelo_inurba_marseille","lat":43.290327,"lon":5.375711,"is_reserved":false,"is_disabled":false,"rental_uris":{"android":"levelo://app?vid=97e3afc0-fa97-45c7-a0b0-5f95e156ca23","ios":"levelo://app?vid=97e3afc0-fa97-45c7-a0b0-5f95e156ca23"},"vehicle_type_id":"4","last_reported":1714410389,"current_range_meters":12400,"station_id":"ce4bh692rcd13ifvqe90","pricing_plan_id":"cebpf4jnsgd1na2vs0mg"},{"bike_id":"2b11c64a-41d9-4c44-bb7d-684cd1675536","system_id":"levelo_inurba_marseille","lat":43.290631,"lon":5.359244,"is_reserved":false,"is_disabled":false,"rental_uris":{"android":"levelo://app?vid=2b11c64a-41d9-4c44-bb7d-684cd1675536","ios":"levelo://app?vid=2b11c64a-41d9-4c44-bb7d-684cd1675536"},"vehicle_type_id":"4","last_reported":1714410389,"current_range_meters":1200,"station_id":"ce4bha92rcd13ifvqeg0","pricing_plan_id":"cebpf4jnsgd1na2vs0mg"},{"bike_id":"6f5deae5-e6d8-45cf-a0a2-29cc0a209f15","system_id":"levelo_inurba_marseille","lat":43.294153,"lon":5.386305,"is_reserved":false,"is_disabled":false,"rental_uris":{"android":"levelo://app?vid=6f5deae5-e6d8-45cf-a0a2-29cc0a209f15","ios":"levelo://app?vid=6f5deae5-e6d8-45cf-a0a2-29cc0a209f15"},"vehicle_type_id":"4","last_reported":1714410389,"current_range_meters":3200,"station_id":"ce4bh2h2rcd13ifvqdh0","pricing_plan_id":"cebpf4jnsgd1na2vs0mg"},{"bike_id":"60ed39be-3a5b-4214-a39e-6cf53078622e","system_id":"levelo_inurba_marseille","lat":43.294153,"lon":5.386305,"is_reserved":false,"is_disabled":false,"rental_uris":{"android":"levelo://app?vid=60ed39be-3a5b-4214-a39e-6cf53078622e","ios":"levelo://app?vid=60ed39be-3a5b-4214-a39e-6cf53078622e"},"vehicle_type_id":"4","last_reported":1714410389,"current_range_meters":10000,"station_id":"ce4bh2h2rcd13ifvqdh0","pricing_plan_id":"cebpf4jnsgd1na2vs0mg"},{"bike_id":"0968f7db-47e8-4115-8dca-c423e72be4ac","system_id":"levelo_inurba_marseille","lat":43.294162,"lon":5.386292,"is_reserved":false,"is_disabled":false,"rental_uris":{"android":"levelo://app?vid=0968f7db-47e8-4115-8dca-c423e72be4ac","ios":"levelo://app?vid=0968f7db-47e8-4115-8dca-c423e72be4ac"},"vehicle_type_id":"4","last_reported":1714410389,"current_range_meters":0,"station_id":"ce4bh2h2rcd13ifvqdh0","pricing_plan_id":"cebpf4jnsgd1na2vs0mg"},{"bike_id":"f2ee4999-f959-488f-862f-edbcb04b5491","system_id":"levelo_inurba_marseille","lat":43.294328,"lon":5.386385,"is_reserved":false,"is_disabled":false,"rental_uris":{"android":"levelo://app?vid=f2ee4999-f959-488f-862f-edbcb04b5491","ios":"levelo://app?vid=f2ee4999-f959-488f-862f-edbcb04b5491"},"vehicle_type_id":"4","last_reported":1714410389,"current_range_meters":5600,"station_id":"ce4bh2h2rcd13ifvqdh0","pricing_plan_id":"cebpf4jnsgd1na2vs0mg"},{"bike_id":"d792dbfc-eb27-44eb-b68f-96e7bc1e5dab","system_id":"levelo_inurba_marseille","lat":43.289468,"lon":5.363719,"is_reserved":false,"is_disabled":false,"rental_uris":{"android":"levelo://app?vid=d792dbfc-eb27-44eb-b68f-96e7bc1e5dab","ios":"levelo://app?vid=d792dbfc-eb27-44eb-b68f-96e7bc1e5dab"},"vehicle_type_id":"4","last_reported":1714410389,"current_range_meters":0,"station_id":"ce4bhc92rcd13ifvqetg","pricing_plan_id":"cebpf4jnsgd1na2vs0mg"},{"bike_id":"2a02cfeb-4257-4589-954a-f3f88a9d86af","system_id":"levelo_inurba_marseille","lat":43.294208,"lon":5.386201,"is_reserved":false,"is_disabled":false,"rental_uris":{"android":"levelo://app?vid=2a02cfeb-4257-4589-954a-f3f88a9d86af","ios":"levelo://app?vid=2a02cfeb-4257-4589-954a-f3f88a9d86af"},"vehicle_type_id":"4","last_reported":1714410389,"current_range_meters":12000,"station_id":"ce4bh2h2rcd13ifvqdh0","pricing_plan_id":"cebpf4jnsgd1na2vs0mg"},{"bike_id":"07a093f1-a07d-4987-951a-960656eef9c5","system_id":"levelo_inurba_marseille","lat":43.2942,"lon":5.38619,"is_reserved":false,"is_disabled":false,"rental_uris":{"android":"levelo://app?vid=07a093f1-a07d-4987-951a-960656eef9c5","ios":"levelo://app?vid=07a093f1-a07d-4987-951a-960656eef9c5"},"vehicle_type_id":"4","last_reported":1714410389,"current_range_meters":3200,"station_id":"ce4bh2h2rcd13ifvqdh0","pricing_plan_id":"cebpf4jnsgd1na2vs0mg"},{"bike_id":"1db16bbe-9e9e-42d0-9be7-6fd0f06bda63","system_id":"levelo_inurba_marseille","lat":43.289184,"lon":5.366408,"is_reserved":false,"is_disabled":false,"rental_uris":{"android":"levelo://app?vid=1db16bbe-9e9e-42d0-9be7-6fd0f06bda63","ios":"levelo://app?vid=1db16bbe-9e9e-42d0-9be7-6fd0f06bda63"},"vehicle_type_id":"4","last_reported":1714410389,"current_range_meters":9200,"station_id":"ce4bhap2rcd13ifvqek0","pricing_plan_id":"cebpf4jnsgd1na2vs0mg"},{"bike_id":"7815c9e4-110f-41b4-9680-b488fa9d6cdb","system_id":"levelo_inurba_marseille","lat":43.2942,"lon":5.38623,"is_reserved":false,"is_disabled":false,"rental_uris":{"android":"levelo://app?vid=7815c9e4-110f-41b4-9680-b488fa9d6cdb","ios":"levelo://app?vid=7815c9e4-110f-41b4-9680-b488fa9d6cdb"},"vehicle_type_id":"4","last_reported":1714410389,"current_range_meters":2000,"station_id":"ce4bh2h2rcd13ifvqdh0","pricing_plan_id":"cebpf4jnsgd1na2vs0mg"},{"bike_id":"b33aa869-6bcc-4157-b615-ee2bc9c7ec07","system_id":"levelo_inurba_marseille","lat":43.294153,"lon":5.386305,"is_reserved":false,"is_disabled":false,"rental_uris":{"android":"levelo://app?vid=b33aa869-6bcc-4157-b615-ee2bc9c7ec07","ios":"levelo://app?vid=b33aa869-6bcc-4157-b615-ee2bc9c7ec07"},"vehicle_type_id":"4","last_reported":1714410389,"current_range_meters":8800,"station_id":"ce4bh2h2rcd13ifvqdh0","pricing_plan_id":"cebpf4jnsgd1na2vs0mg"},{"bike_id":"19b434c4-b0ad-4adf-97c4-c71f16dddaf4","system_id":"levelo_inurba_marseille","lat":43.290327,"lon":5.375711,"is_reserved":false,"is_disabled":false,"rental_uris":{"android":"levelo://app?vid=19b434c4-b0ad-4adf-97c4-c71f16dddaf4","ios":"levelo://app?vid=19b434c4-b0ad-4adf-97c4-c71f16dddaf4"},"vehicle_type_id":"4","last_reported":1714410389,"current_range_meters":0,"station_id":"ce4bh692rcd13ifvqe90","pricing_plan_id":"cebpf4jnsgd1na2vs0mg"},{"bike_id":"775e58bf-75da-4985-ad55-69846f1d6c52","system_id":"levelo_inurba_marseille","lat":43.294162,"lon":5.386292,"is_reserved":false,"is_disabled":false,"rental_uris":{"android":"levelo://app?vid=775e58bf-75da-4985-ad55-69846f1d6c52","ios":"levelo://app?vid=775e58bf-75da-4985-ad55-69846f1d6c52"},"vehicle_type_id":"4","last_reported":1714410389,"current_range_meters":18400,"station_id":"ce4bh2h2rcd13ifvqdh0","pricing_plan_id":"cebpf4jnsgd1na2vs0mg"},{"bike_id":"f621ee93-e2aa-42fe-bafa-26d958db6cfa","system_id":"levelo_inurba_marseille","lat":43.294162,"lon":5.386292,"is_reserved":false,"is_disabled":false,"rental_uris":{"android":"levelo://app?vid=f621ee93-e2aa-42fe-bafa-26d958db6cfa","ios":"levelo://app?vid=f621ee93-e2aa-42fe-bafa-26d958db6cfa"},"vehicle_type_id":"4","last_reported":1714410389,"current_range_meters":0,"station_id":"ce4bh2h2rcd13ifvqdh0","pricing_plan_id":"cebpf4jnsgd1na2vs0mg"},{"bike_id":"26ceb2b6-bb7c-4273-910c-fbc06abeeb24","system_id":"levelo_inurba_marseille","lat":43.294162,"lon":5.386292,"is_reserved":false,"is_disabled":false,"rental_uris":{"android":"levelo://app?vid=26ceb2b6-bb7c-4273-910c-fbc06abeeb24","ios":"levelo://app?vid=26ceb2b6-bb7c-4273-910c-fbc06abeeb24"},"vehicle_type_id":"4","last_reported":1714410389,"current_range_meters":4000,"station_id":"ce4bh2h2rcd13ifvqdh0","pricing_plan_id":"cebpf4jnsgd1na2vs0mg"},{"bike_id":"46867c2c-7b0e-4802-a5a4-eb651f8e0864","system_id":"levelo_inurba_marseille","lat":43.294162,"lon":5.386292,"is_reserved":false,"is_disabled":false,"rental_uris":{"android":"levelo://app?vid=46867c2c-7b0e-4802-a5a4-eb651f8e0864","ios":"levelo://app?vid=46867c2c-7b0e-4802-a5a4-eb651f8e0864"},"vehicle_type_id":"4","last_reported":1714410389,"current_range_meters":4400,"station_id":"ce4bh2h2rcd13ifvqdh0","pricing_plan_id":"cebpf4jnsgd1na2vs0mg"},{"bike_id":"f4e2bc30-c539-47c9-94bd-f2ceaf22e46c","system_id":"levelo_inurba_marseille","lat":43.289184,"lon":5.366408,"is_reserved":false,"is_disabled":false,"rental_uris":{"android":"levelo://app?vid=f4e2bc30-c539-47c9-94bd-f2ceaf22e46c","ios":"levelo://app?vid=f4e2bc30-c539-47c9-94bd-f2ceaf22e46c"},"vehicle_type_id":"4","last_reported":1714410389,"current_range_meters":25200,"station_id":"ce4bhap2rcd13ifvqek0","pricing_plan_id":"cebpf4jnsgd1na2vs0mg"},{"bike_id":"25064d07-abf1-4555-a57c-504143d85a5a","system_id":"levelo_inurba_marseille","lat":43.295343,"lon":5.388271,"is_reserved":false,"is_disabled":false,"rental_uris":{"android":"levelo://app?vid=25064d07-abf1-4555-a57c-504143d85a5a","ios":"levelo://app?vid=25064d07-abf1-4555-a57c-504143d85a5a"},"vehicle_type_id":"4","last_reported":1714410389,"current_range_meters":14800,"station_id":"","pricing_plan_id":"cebpf4jnsgd1na2vs0mg"},{"bike_id":"6ef862c6-6e0a-43c1-80d7-b205414bd00d","system_id":"levelo_inurba_marseille","lat":43.292642,"lon":5.384254,"is_reserved":false,"is_disabled":false,"rental_uris":{"android":"levelo://app?vid=6ef862c6-6e0a-43c1-80d7-b205414bd00d","ios":"levelo://app?vid=6ef862c6-6e0a-43c1-80d7-b205414bd00d"},"vehicle_type_id":"4","last_reported":1714410389,"current_range_meters":18000,"station_id":"ce4bh692rcd13ifvqea0","pricing_plan_id":"cebpf4jnsgd1na2vs0mg"},{"bike_id":"d06cf22c-e30e-4c20-8e73-6532a0906412","system_id":"levelo_inurba_marseille","lat":43.289184,"lon":5.366408,"is_reserved":false,"is_disabled":false,"rental_uris":{"android":"levelo://app?vid=d06cf22c-e30e-4c20-8e73-6532a0906412","ios":"levelo://app?vid=d06cf22c-e30e-4c20-8e73-6532a0906412"},"vehicle_type_id":"4","last_reported":1714410389,"current_range_meters":800,"station_id":"ce4bhap2rcd13ifvqek0","pricing_plan_id":"cebpf4jnsgd1na2vs0mg"},{"bike_id":"5fa567b3-b509-442f-9c7a-e7389c01c817","system_id":"levelo_inurba_marseille","lat":43.289468,"lon":5.363719,"is_reserved":false,"is_disabled":false,"rental_uris":{"android":"levelo://app?vid=5fa567b3-b509-442f-9c7a-e7389c01c817","ios":"levelo://app?vid=5fa567b3-b509-442f-9c7a-e7389c01c817"},"vehicle_type_id":"4","last_reported":1714410389,"current_range_meters":28000,"station_id":"ce4bhc92rcd13ifvqetg","pricing_plan_id":"cebpf4jnsgd1na2vs0mg"},{"bike_id":"b8635fa0-6457-4618-84ac-e2e16fcdeb32","system_id":"levelo_inurba_marseille","lat":43.289184,"lon":5.366408,"is_reserved":false,"is_disabled":false,"rental_uris":{"android":"levelo://app?vid=b8635fa0-6457-4618-84ac-e2e16fcdeb32","ios":"levelo://app?vid=b8635fa0-6457-4618-84ac-e2e16fcdeb32"},"vehicle_type_id":"4","last_reported":1714410389,"current_range_meters":24400,"station_id":"ce4bhap2rcd13ifvqek0","pricing_plan_id":"cebpf4jnsgd1na2vs0mg"},{"bike_id":"a4587109-175e-44c3-ae70-7c63aa21f35a","system_id":"levelo_inurba_marseille","lat":43.289333,"lon":5.363961,"is_reserved":false,"is_disabled":false,"rental_uris":{"android":"levelo://app?vid=a4587109-175e-44c3-ae70-7c63aa21f35a","ios":"levelo://app?vid=a4587109-175e-44c3-ae70-7c63aa21f35a"},"vehicle_type_id":"4","last_reported":1714410389,"current_range_meters":29600,"station_id":"","pricing_plan_id":"cebpf4jnsgd1na2vs0mg"},{"bike_id":"9c935bb5-1f39-4245-971e-73ce22e36beb","system_id":"levelo_inurba_marseille","lat":43.309589,"lon":5.390258,"is_reserved":false,"is_disabled":false,"rental_uris":{"android":"levelo://app?vid=9c935bb5-1f39-4245-971e-73ce22e36beb","ios":"levelo://app?vid=9c935bb5-1f39-4245-971e-73ce22e36beb"},"vehicle_type_id":"4","last_reported":1714410389,"current_range_meters":0,"station_id":"ce4bgup2rcd13ifvqco0","pricing_plan_id":"cebpf4jnsgd1na2vs0mg"},{"bike_id":"90202c7a-751f-4eb5-8441-618e52100d5f","system_id":"levelo_inurba_marseille","lat":43.292644,"lon":5.384257,"is_reserved":false,"is_disabled":false,"rental_uris":{"android":"levelo://app?vid=90202c7a-751f-4eb5-8441-618e52100d5f","ios":"levelo://app?vid=90202c7a-751f-4eb5-8441-618e52100d5f"},"vehicle_type_id":"4","last_reported":1714410389,"current_range_meters":10000,"station_id":"ce4bh692rcd13ifvqea0","pricing_plan_id":"cebpf4jnsgd1na2vs0mg"},{"bike_id":"e7003fc9-993c-4d25-8f90-54c11d5449cf","system_id":"levelo_inurba_marseille","lat":43.289184,"lon":5.366408,"is_reserved":false,"is_disabled":false,"rental_uris":{"android":"levelo://app?vid=e7003fc9-993c-4d25-8f90-54c11d5449cf","ios":"levelo://app?vid=e7003fc9-993c-4d25-8f90-54c11d5449cf"},"vehicle_type_id":"4","last_reported":1714410389,"current_range_meters":0,"station_id":"ce4bhap2rcd13ifvqek0","pricing_plan_id":"cebpf4jnsgd1na2vs0mg"},{"bike_id":"e6f3db1b-92ac-408c-acbf-d3c2183e98d6","system_id":"levelo_inurba_marseille","lat":43.304274,"lon":5.397513,"is_reserved":false,"is_disabled":false,"rental_uris":{"android":"levelo://app?vid=e6f3db1b-92ac-408c-acbf-d3c2183e98d6","ios":"levelo://app?vid=e6f3db1b-92ac-408c-acbf-d3c2183e98d6"},"vehicle_type_id":"4","last_reported":1714410389,"current_range_meters":24000,"station_id":"ce4bh092rcd13ifvqd20","pricing_plan_id":"cebpf4jnsgd1na2vs0mg"},