{"last_updated":1730758093,"ttl":60,"version":"2.2","data":{"bikes":[{"bike_id":"b9ec57ae-8189-4fa9-a859-429fb89b29e6","system_id":"levelo_inurba_marseille","lat":43.318183,"lon":5.410019,"is_reserved":false,"is_disabled":false,"rental_uris":{"android":"levelo://app?vid=b9ec57ae-8189-4fa9-a859-429fb89b29e6","ios":"levelo://app?vid=b9ec57ae-8189-4fa9-a859-429fb89b29e6"},"vehicle_type_id":"4","last_reported":1730758093,"current_range_meters":30400,"station_id":"ce4bhq92rcd13ifvqhkg","pricing_plan_id":"cebpf4jnsgd1na2vs0mg"},{"bike_id":"0371acda-a2cf-455b-8ec8-056cee40fd62","system_id":"levelo_inurba_marseille","lat":43.29272,"lon":5.40128,"is_reserved":false,"is_disabled":false,"rental_uris":{"android":"levelo://app?vid=0371acda-a2cf-455b-8ec8-056cee40fd62","ios":"levelo://app?vid=0371acda-a2cf-455b-8ec8-056cee40fd62"},"vehicle_type_id":"4","last_reported":1730758093,"current_range_meters":21600,"station_id":"ce4bh312rcd13ifvqdk0","pricing_plan_id":"cebpf4jnsgd1na2vs0mg"},{"bike_id":"b7837f34-17a9-43ad-b99a-4bf61e4fa6db","system_id":"levelo_inurba_marseille","lat":43.30238,"lon":5.40044,"is_reserved":false,"is_disabled":false,"rental_uris":{"android":"levelo://app?vid=b7837f34-17a9-43ad-b99a-4bf61e4fa6db","ios":"levelo://app?vid=b7837f34-17a9-43ad-b99a-4bf61e4fa6db"},"vehicle_type_id":"4","last_reported":1730758093,"current_range_meters":36800,"station_id":"","pricing_plan_id":"cebpf4jnsgd1na2vs0mg"},{"bike_id":"bcac3ad2-33ea-454e-b32a-bb7e115d1f16","system_id":"levelo_inurba_marseille","lat":43.28079,"lon":5.39664,"is_reserved":false,"is_disabled":false,"rental_uris":{"android":"levelo://app?vid=bcac3ad2-33ea-454e-b32a-bb7e115d1f16","ios":"levelo://app?vid=bcac3ad2-33ea-454e-b32a-bb7e115d1f16"},"vehicle_type_id":"4","last_reported":1730758093,"current_range_meters":36400,"station_id":"ce4bho12rcd13ifvqh2g","pricing_plan_id":"cebpf4jnsgd1na2vs0mg"},{"bike_id":"c24fb9a5-b454-4ee1-a0d9-7727e66a5e9b","system_id":"levelo_inurba_marseille","lat":43.29088,"lon":5.38143,"is_reserved":false,"is_disabled":false,"rental_uris":{"android":"levelo://app?vid=c24fb9a5-b454-4ee1-a0d9-7727e66a5e9b","ios":"levelo://app?vid=c24fb9a5-b454-4ee1-a0d9-7727e66a5e9b"},"vehicle_type_id":"4","last_reported":1730758093,"current_range_meters":38000,"station_id":"ce4bh512rcd13ifvqe2g","pricing_plan_id":"cebpf4jnsgd1na2vs0mg"},{"bike_id":"2b6c8443-1848-4bd1-a5f7-cb79fbd151e5","system_id":"levelo_inurba_marseille","lat":43.28461,"lon":5.35892,"is_reserved":false,"is_disabled":false,"rental_uris":{"android":"levelo://app?vid=2b6c8443-1848-4bd1-a5f7-cb79fbd151e5","ios":"levelo://app?vid=2b6c8443-1848-4bd1-a5f7-cb79fbd151e5"},"vehicle_type_id":"4","last_reported":1730758093,"current_range_meters":33200,"station_id":"ce4bhah2rcd13ifvqei0","pricing_plan_id":"cebpf4jnsgd1na2vs0mg"},{"bike_id":"75ffce48-8c1d-4207-a3ed-d2d7ad52ce2d","system_id":"levelo_inurba_marseille","lat":43.23972,"lon":5.36617,"is_reserved":false,"is_disabled":false,"rental_uris":{"android":"levelo://app?vid=75ffce48-8c1d-4207-a3ed-d2d7ad52ce2d","ios":"levelo://app?vid=75ffce48-8c1d-4207-a3ed-d2d7ad52ce2d"},"vehicle_type_id":"4","last_reported":1730758093,"current_range_meters":32800,"station_id":"ce4bhi12rcd13ifvqfp0","pricing_plan_id":"cebpf4jnsgd1na2vs0mg"},{"bike_id":"0813b8d9-95b0-4ee8-8c30-0a2f8f5acae7","system_id":"levelo_inurba_marseille","lat":43.28662,"lon":5.36357,"is_reserved":false,"is_disabled":false,"rental_uris":{"android":"levelo://app?vid=0813b8d9-95b0-4ee8-8c30-0a2f8f5acae7","ios":"levelo://app?vid=0813b8d9-95b0-4ee8-8c30-0a2f8f5acae7"},"vehicle_type_id":"4","last_reported":1730758093,"current_range_meters":39200,"station_id":"ce4bhah2rcd13ifvqej0","pricing_plan_id":"cebpf4jnsgd1na2vs0mg"},{"bike_id":"c4b03e3d-df93-4a23-b160-471b8c850168","system_id":"levelo_inurba_marseille","lat":43.30791,"lon":5.38169,"is_reserved":false,"is_disabled":false,"rental_uris":{"android":"levelo://app?vid=c4b03e3d-df93-4a23-b160-471b8c850168","ios":"levelo://app?vid=c4b03e3d-df93-4a23-b160-471b8c850168"},"vehicle_type_id":"4","last_reported":1730758093,"current_range_meters":28000,"station_id":"ce4bgt12rcd13ifvqce0","pricing_plan_id":"cebpf4jnsgd1na2vs0mg"},{"bike_id":"e69268df-bf99-404c-a39a-ee9f2a3ecdf5","system_id":"levelo_inurba_marseille","lat":43.30638,"lon":5.40082,"is_reserved":false,"is_disabled":false,"rental_uris":{"android":"levelo://app?vid=e69268df-bf99-404c-a39a-ee9f2a3ecdf5","ios":"levelo://app?vid=e69268df-bf99-404c-a39a-ee9f2a3ecdf5"},"vehicle_type_id":"4","last_reported":1730758093,"current_range_meters":8000,"station_id":"ce4bh112rcd13ifvqda0","pricing_plan_id":"cebpf4jnsgd1na2vs0mg"},{"bike_id":"14327985-1f81-49de-b608-0a749b28a9af","system_id":"levelo_inurba_marseille","lat":43.29261,"lon":5.38442,"is_reserved":false,"is_disabled":false,"rental_uris":{"android":"levelo://app?vid=14327985-1f81-49de-b608-0a749b28a9af","ios":"levelo://app?vid=14327985-1f81-49de-b608-0a749b28a9af"},"vehicle_type_id":"4","last_reported":1730758093,"current_range_meters":28400,"station_id":"ce4bh692rcd13ifvqea0","pricing_plan_id":"cebpf4jnsgd1na2vs0mg"},{"bike_id":"0491a692-c395-4566-a937-f7786ff3a5f7","system_id":"levelo_inurba_marseille","lat":43.31261,"lon":5.40168,"is_reserved":false,"is_disabled":false,"rental_uris":{"android":"levelo://app?vid=0491a692-c395-4566-a937-f7786ff3a5f7","ios":"levelo://app?vid=0491a692-c395-4566-a937-f7786ff3a5f7"},"vehicle_type_id":"4","last_reported":1730758093,"current_range_meters":10800,"station_id":"ce4bh092rcd13ifvqd30","pricing_plan_id":"cebpf4jnsgd1na2vs0mg"},{"bike_id":"7d640c47-a4ae-4641-8ed6-4165bb1caeb6","system_id":"levelo_inurba_marseille","lat":43.26487,"lon":5.39554,"is_reserved":false,"is_disabled":false,"rental_uris":{"android":"levelo://app?vid=7d640c47-a4ae-4641-8ed6-4165bb1caeb6","ios":"levelo://app?vid=7d640c47-a4ae-4641-8ed6-4165bb1caeb6"},"vehicle_type_id":"4","last_reported":1730758093,"current_range_meters":38000,"station_id":"ce4bhi12rcd13ifvqfq0","pricing_plan_id":"cebpf4jnsgd1na2vs0mg"},{"bike_id":"bef6e360-e6a9-4673-8e18-0a89fd02a098","system_id":"levelo_inurba_marseille","lat":43.30093,"lon":5.39093,"is_reserved":false,"is_disabled":false,"rental_uris":{"android":"levelo://app?vid=bef6e360-e6a9-4673-8e18-0a89fd02a098","ios":"levelo://app?vid=bef6e360-e6a9-4673-8e18-0a89fd02a098"},"vehicle_type_id":"4","last_reported":1730758093,"current_range_meters":17200,"station_id":"ce4bh192rcd13ifvqdb0","pricing_plan_id":"cebpf4jnsgd1na2vs0mg"},{"bike_id":"944a3ee4-32b7-4613-bb82-96e96f54f71c","system_id":"levelo_inurba_marseille","lat":43.2845,"lon":5.35893,"is_reserved":false,"is_disabled":false,"rental_uris":{"android":"levelo://app?vid=944a3ee4-32b7-4613-bb82-96e96f54f71c","ios":"levelo://app?vid=944a3ee4-32b7-4613-bb82-96e96f54f71c"},"vehicle_type_id":"4","last_reported":1730758093,"current_range_meters":35200,"station_id":"ce4bhah2rcd13ifvqei0","pricing_plan_id":"cebpf4jnsgd1na2vs0mg"},{"bike_id":"d7680b91-790b-4028-b988-1d6c2608791c","system_id":"levelo_inurba_marseille","lat":43.32363,"lon":5.38883,"is_reserved":false,"is_disabled":false,"rental_uris":{"android":"levelo://app?vid=d7680b91-790b-4028-b988-1d6c2608791c","ios":"levelo://app?vid=d7680b91-790b-4028-b988-1d6c2608791c"},"vehicle_type_id":"4","last_reported":1730758093,"current_range_meters":23200,"station_id":"ce4bhqp2rcd13ifvqhog","pricing_plan_id":"cebpf4jnsgd1na2vs0mg"},{"bike_id":"99b1c731-d11f-47af-b837-9b3a4c13e227","system_id":"levelo_inurba_marseille","lat":43.27378,"lon":5.36271,"is_reserved":false,"is_disabled":false,"rental_uris":{"android":"levelo://app?vid=99b1c731-d11f-47af-b837-9b3a4c13e227","ios":"levelo://app?vid=99b1c731-d11f-47af-b837-9b3a4c13e227"},"vehicle_type_id":"4","last_reported":1730758093,"current_range_meters":28800,"station_id":"ce4bhbh2rcd13ifvqeo0","pricing_plan_id":"cebpf4jnsgd1na2vs0mg"},{"bike_id":"43535956-3f12-41fb-9c36-3df2359b2d79","system_id":"levelo_inurba_marseille","lat":43.29005,"lon":5.35616,"is_reserved":false,"is_disabled":false,"rental_uris":{"android":"levelo://app?vid=43535956-3f12-41fb-9c36-3df2359b2d79","ios":"levelo://app?vid=43535956-3f12-41fb-9c36-3df2359b2d79"},"vehicle_type_id":"4","last_reported":1730758093,"current_range_meters":38000,"station_id":"ce4bhb92rcd13ifvqen0","pricing_plan_id":"cebpf4jnsgd1na2vs0mg"},{"bike_id":"590de1cb-eae9-4a79-b020-0e8321b145ef","system_id":"levelo_inurba_marseille","lat":43.23194,"lon":5.35551,"is_reserved":false,"is_disabled":false,"rental_uris":{"android":"levelo://app?vid=590de1cb-eae9-4a79-b020-0e8321b145ef","ios":"levelo://app?vid=590de1cb-eae9-4a79-b020-0e8321b145ef"},"vehicle_type_id":"4","last_reported":1730758093,"current_range_meters":24000,"station_id":"ce4bhu92rcd13ifvqi70","pricing_plan_id":"cebpf4jnsgd1na2vs0mg"},{"bike_id":"4147bbfb-4b14-4aca-b782-8ec6c0473609","system_id":"levelo_inurba_marseille","lat":43.23594,"lon":5.40343,"is_reserved":false,"is_disabled":false,"rental_uris":{"android":"levelo://app?vid=4147bbfb-4b14-4aca-b782-8ec6c0473609","ios":"levelo://app?vid=4147bbfb-4b14-4aca-b782-8ec6c0473609"},"vehicle_type_id":"4","last_reported":1730758093,"current_range_meters":11200,"station_id":"","pricing_plan_id":"cebpf4jnsgd1na2vs0mg"},{"bike_id":"8113a11d-faa1-4a73-a7b9-57f2c7a19838","system_id":"levelo_inurba_marseille","lat":43.3234,"lon":5.40622,"is_reserved":false,"is_disabled":false,"rental_uris":{"android":"levelo://app?vid=8113a11d-faa1-4a73-a7b9-57f2c7a19838","ios":"levelo://app?vid=8113a11d-faa1-4a73-a7b9-57f2c7a19838"},"vehicle_type_id":"4","last_reported":1730758093,"current_range_meters":17600,"station_id":"ce4bhq92rcd13ifvqhjg","pricing_plan_id":"cebpf4jnsgd1na2vs0mg"},{"bike_id":"fa66adb8-19da-4b56-aeb9-ccf1206b3e1e","system_id":"levelo_inurba_marseille","lat":43.32367,"lon":5.36756,"is_reserved":false,"is_disabled":false,"rental_uris":{"android":"levelo://app?vid=fa66adb8-19da-4b56-aeb9-ccf1206b3e1e","ios":"levelo://app?vid=fa66adb8-19da-4b56-aeb9-ccf1206b3e1e"},"vehicle_type_id":"4","last_reported":1730758093,"current_range_meters":37600,"station_id":"ce4bhsh2rcd13ifvqi2g","pricing_plan_id":"cebpf4jnsgd1na2vs0mg"},{"bike_id":"146b94cf-b81c-43a8-a126-d1471621d458","system_id":"levelo_inurba_marseille","lat":43.28001,"lon":5.40011,"is_reserved":false,"is_disabled":false,"rental_uris":{"android":"levelo://app?vid=146b94cf-b81c-43a8-a126-d1471621d458","ios":"levelo://app?vid=146b94cf-b81c-43a8-a126-d1471621d458"},"vehicle_type_id":"4","last_reported":1730758093,"current_range_meters":29600,"station_id":"ce4bho92rcd13ifvqh4g","pricing_plan_id":"cebpf4jnsgd1na2vs0mg"},{"bike_id":"64a2b89f-49f7-40b2-a980-02000405203c","system_id":"levelo_inurba_marseille","lat":43.288407,"lon":5.393205,"is_reserved":false,"is_disabled":false,"rental_uris":{"android":"levelo://app?vid=64a2b89f-49f7-40b2-a980-02000405203c","ios":"levelo://app?vid=64a2b89f-49f7-40b2-a980-02000405203c"},"vehicle_type_id":"4","last_reported":1730758093,"current_range_meters":24000,"station_id":"ce4bh2p2rcd13ifvqdi0","pricing_plan_id":"cebpf4jnsgd1na2vs0mg"},{"bike_id":"9dd4c1b5-f2ec-496b-8f02-a2c3d2c60a9c","system_id":"levelo_inurba_marseille","lat":43.24772,"lon":5.41842,"is_reserved":false,"is_disabled":false,"rental_uris":{"android":"levelo://app?vid=9dd4c1b5-f2ec-496b-8f02-a2c3d2c60a9c","ios":"levelo://app?vid=9dd4c1b5-f2ec-496b-8f02-a2c3d2c60a9c"},"vehicle_type_id":"4","last_reported":1730758093,"current_range_meters":30800,"station_id":"ce4bhkp2rcd13ifvqgd0","pricing_plan_id":"cebpf4jnsgd1na2vs0mg"},{"bike_id":"526eedd4-db5c-4687-9de3-3c089eba7751","system_id":"levelo_inurba_marseille","lat":43.23184,"lon":5.39993,"is_reserved":false,"is_disabled":false,"rental_uris":{"android":"levelo://app?vid=526eedd4-db5c-4687-9de3-3c089eba7751","ios":"levelo://app?vid=526eedd4-db5c-4687-9de3-3c089eba7751"},"vehicle_type_id":"4","last_reported":1730758093,"current_range_meters":9600,"station_id":"ce4bhn12rcd13ifvqgqg","pricing_plan_id":"cebpf4jnsgd1na2vs0mg"},{"bike_id":"47662166-db17-4d16-a97b-519c42566d41","system_id":"levelo_inurba_marseille","lat":43.27812,"lon":5.40717,"is_reserved":false,"is_disabled":false,"rental_uris":{"android":"levelo://app?vid=47662166-db17-4d16-a97b-519c42566d41","ios":"levelo://app?vid=47662166-db17-4d16-a97b-519c42566d41"},"vehicle_type_id":"4","last_reported":1730758093,"current_range_meters":6800,"station_id":"ce4bhnh2rcd13ifvqgtg","pricing_plan_id":"cebpf4jnsgd1na2vs0mg"},{"bike_id":"2afa43fc-2ebd-43bb-b650-01b2aada10d0","system_id":"levelo_inurba_marseille","lat":43.29785,"lon":5.39343,"is_reserved":false,"is_disabled":false,"rental_uris":{"android":"levelo://app?vid=2afa43fc-2ebd-43bb-b650-01b2aada10d0","ios":"levelo://app?vid=2afa43fc-2ebd-43bb-b650-01b2aada10d0"},"vehicle_type_id":"4","last_reported":1730758093,"current_range_meters":35600,"station_id":"chh1huq6cuj3fo74tm60","pricing_plan_id":"cebpf4jnsgd1na2vs0mg"},{"bike_id":"f8d6bfe4-b2b8-4aea-bfff-de5e831f4330","system_id":"levelo_inurba_marseille","lat":43.31484,"lon":5.37305,"is_reserved":false,"is_disabled":false,"rental_uris":{"android":"levelo://app?vid=f8d6bfe4-b2b8-4aea-bfff-de5e831f4330","ios":"levelo://app?vid=f8d6bfe4-b2b8-4aea-bfff-de5e831f4330"},"vehicle_type_id":"4","last_reported":1730758093,"current_range_meters":20800,"station_id":"ce4bgt12rcd13ifvqcd0","pricing_plan_id":"cebpf4jnsgd1na2vs0mg"},{"bike_id":"525c40cf-ce5d-40cc-a112-46953ad38731","system_id":"levelo_inurba_marseille","lat":43.31169,"lon":5.38715,"is_reserved":false,"is_disabled":false,"rental_uris":{"android":"levelo://app?vid=525c40cf-ce5d-40cc-a112-46953ad38731","ios":"levelo://app?vid=525c40cf-ce5d-40cc-a112-46953ad38731"},"vehicle_type_id":"4","last_reported":1730758093,"current_range_meters":40000,"station_id":"ce4bgv12rcd13ifvqcp0","pricing_plan_id":"cebpf4jnsgd1na2vs0mg"},{"bike_id":"ef762b0a-886e-4da9-adfe-1739a57163ed","system_id":"levelo_inurba_marseille","lat":43.3233,"lon":5.40626,"is_reserved":false,"is_disabled":false,"rental_uris":{"android":"levelo://app?vid=ef762b0a-886e-4da9-adfe-1739a57163ed","ios":"levelo://app?vid=ef762b0a-886e-4da9-adfe-1739a57163ed"},"vehicle_type_id":"4","last_reported":1730758093,"current_range_meters":11600,"station_id":"ce4bhq92rcd13ifvqhjg","pricing_plan_id":"cebpf4jnsgd1na2vs0mg"},{"bike_id":"35d46972-faca-4525-a2d2-3f928f24f16c","system_id":"levelo_inurba_marseille","lat":43.24175,"lon":5.36404,"is_reserved":false,"is_disabled":false,"rental_uris":{"android":"levelo://app?vid=35d46972-faca-4525-a2d2-3f928f24f16c","ios":"levelo://app?vid=35d46972-faca-4525-a2d2-3f928f24f16c"},"vehicle_type_id":"4","last_reported":1730758093,"current_range_meters":38800,"station_id":"cpo36qri1sfpv3e86is0","pricing_plan_id":"cebpf4jnsgd1na2vs0mg"},{"bike_id":"2af6be3f-eaed-4be8-a196-a65251f911e8","system_id":"levelo_inurba_marseille","lat":43.30311,"lon":5.36919,"is_reserved":false,"is_disabled":false,"rental_uris":{"android":"levelo://app?vid=2af6be3f-eaed-4be8-a196-a65251f911e8","ios":"levelo://app?vid=2af6be3f-eaed-4be8-a196-a65251f911e8"},"vehicle_type_id":"4","last_reported":1730758093,"current_range_meters":38800,"station_id":"ce4bgqh2rcd13ifvqc5g","pricing_plan_id":"cebpf4jnsgd1na2vs0mg"},{"bike_id":"f7b02530-438b-4535-927c-07793d571ea5","system_id":"levelo_inurba_marseille","lat":43.2963,"lon":5.40599,"is_reserved":false,"is_disabled":false,"rental_uris":{"android":"levelo://app?vid=f7b02530-438b-4535-927c-07793d571ea5","ios":"levelo://app?vid=f7b02530-438b-4535-927c-07793d571ea5"},"vehicle_type_id":"4","last_reported":1730758093,"current_range_meters":39200,"station_id":"ce4bh0h2rcd13ifvqd60","pricing_plan_id":"cebpf4jnsgd1na2vs0mg"},{"bike_id":"2378f453-72a7-4eb2-ab3b-946285d406fd","system_id":"levelo_inurba_marseille","lat":43.292228,"lon":5.37724,"is_reserved":false,"is_disabled":false,"rental_uris":{"android":"levelo://app?vid=2378f453-72a7-4eb2-ab3b-946285d406fd","ios":"levelo://app?vid=2378f453-72a7-4eb2-ab3b-946285d406fd"},"vehicle_type_id":"4","last_reported":1730758093,"current_range_meters":6800,"station_id":"","pricing_plan_id":"cebpf4jnsgd1na2vs0mg"},{"bike_id":"014e77a6-0034-465e-8a5b-a5686eadcc57","system_id":"levelo_inurba_marseille","lat":43.32656,"lon":5.40995,"is_reserved":false,"is_disabled":false,"rental_uris":{"android":"levelo://app?vid=014e77a6-0034-465e-8a5b-a5686eadcc57","ios":"levelo://app?vid=014e77a6-0034-465e-8a5b-a5686eadcc57"},"vehicle_type_id":"4","last_reported":1730758093,"current_range_meters":38800,"station_id":"ce4bhpp2rcd13ifvqhgg","pricing_plan_id":"cebpf4jnsgd1na2vs0mg"},{"bike_id":"1091bc82-0517-4c7f-9d60-1fd8a7a0f826","system_id":"levelo_inurba_marseille","lat":43.29265,"lon":5.4014,"is_reserved":false,"is_disabled":false,"rental_uris":{"android":"levelo://app?vid=1091bc82-0517-4c7f-9d60-1fd8a7a0f826","ios":"levelo://app?vid=1091bc82-0517-4c7f-9d60-1fd8a7a0f826"},"vehicle_type_id":"4","last_reported":1730758093,"current_range_meters":39200,"station_id":"ce4bh312rcd13ifvqdk0","pricing_plan_id":"cebpf4jnsgd1na2vs0mg"},{"bike_id":"bc2b219d-e065-4de1-8fdd-dffe50ebac62","system_id":"levelo_inurba_marseille","lat":43.31174,"lon":5.38728,"is_reserved":false,"is_disabled":false,"rental_uris":{"android":"levelo://app?vid=bc2b219d-e065-4de1-8fdd-dffe50ebac62","ios":"levelo://app?vid=bc2b219d-e065-4de1-8fdd-dffe50ebac62"},"vehicle_type_id":"4","last_reported":1730758093,"current_range_meters":27600,"station_id":"ce4bgv12rcd13ifvqcp0","pricing_plan_id":"cebpf4jnsgd1na2vs0mg"},{"bike_id":"bdbf7863-30af-4a7a-accb-c5dc85031aca","system_id":"levelo_inurba_marseille","lat":43.29267,"lon":5.40147,"is_reserved":false,"is_disabled":false,"rental_uris":{"android":"levelo://app?vid=bdbf7863-30af-4a7a-accb-c5dc85031aca","ios":"levelo://app?vid=bdbf7863-30af-4a7a-accb-c5dc85031aca"},"vehicle_type_id":"4","last_reported":1730758093,"current_range_meters":40000,"station_id":"ce4bh312rcd13ifvqdk0","pricing_plan_id":"cebpf4jnsgd1na2vs0mg"},{"bike_id":"2602b645-c58e-4030-8510-c723643c7d20","system_id":"levelo_inurba_marseille","lat":43.28556,"lon":5.39509,"is_reserved":false,"is_disabled":false,"rental_uris":{"android":"levelo://app?vid=2602b645-c58e-4030-8510-c723643c7d20","ios":"levelo://app?vid=2602b645-c58e-4030-8510-c723643c7d20"},"vehicle_type_id":"4","last_reported":1730758093,"current_range_meters":3200,"station_id":"ce4bh292rcd13ifvqdg0","pricing_plan_id":"cebpf4jnsgd1na2vs0mg"},{"bike_id":"1dcc4078-31e5-4cab-8516-eb6896bc0e11","system_id":"levelo_inurba_marseille","lat":43.30896,"lon":5.37208,"is_reserved":false,"is_disabled":false,"rental_uris":{"android":"levelo://app?vid=1dcc4078-31e5-4cab-8516-eb6896bc0e11","ios":"levelo://app?vid=1dcc4078-31e5-4cab-8516-eb6896bc0e11"},"vehicle_type_id":"4","last_reported":1730758093,"current_range_meters":40000,"station_id":"ce4bguh2rcd13ifvqckg","pricing_plan_id":"cebpf4jnsgd1na2vs0mg"},{"bike_id":"57648f51-6893-4ff8-8f45-2fb3884d8355","system_id":"levelo_inurba_marseille","lat":43.27613,"lon":5.36113,"is_reserved":false,"is_disabled":false,"rental_uris":{"android":"levelo://app?vid=57648f51-6893-4ff8-8f45-2fb3884d8355","ios":"levelo://app?vid=57648f51-6893-4ff8-8f45-2fb3884d8355"},"vehicle_type_id":"4","last_reported":1730758093,"current_range_meters":24800,"station_id":"ce4bgj92rcd13ifvqbe0","pricing_plan_id":"cebpf4jnsgd1na2vs0mg"},{"bike_id":"fc2c3f9b-061b-4b88-8d47-8a6d27bb94ba","system_id":"levelo_inurba_marseille","lat":43.25116,"lon":5.40316,"is_reserved":false,"is_disabled":false,"rental_uris":{"android":"levelo://app?vid=fc2c3f9b-061b-4b88-8d47-8a6d27bb94ba","ios":"levelo://app?vid=fc2c3f9b-061b-4b88-8d47-8a6d27bb94ba"},"vehicle_type_id":"4","last_reported":1730758093,"current_range_meters":9200,"station_id":"ce4bhlh2rcd13ifvqgig","pricing_plan_id":"cebpf4jnsgd1na2vs0mg"},{"bike_id":"be569dbd-7574-4aea-9eb3-dd7998ac8895","system_id":"levelo_inurba_marseille","lat":43.27069,"lon":5.42282,"is_reserved":false,"is_disabled":false,"rental_uris":{"android":"levelo://app?vid=be569dbd-7574-4aea-9eb3-dd7998ac8895","ios":"levelo://app?vid=be569dbd-7574-4aea-9eb3-dd7998ac8895"},"vehicle_type_id":"4","last_reported":1730758093,"current_range_meters":14400,"station_id":"ce4bhk92rcd13ifvqgb0","pricing_plan_id":"cebpf4jnsgd1na2vs0mg"},{"bike_id":"21888221-3c5f-485c-9fbb-e03f5a1cff75","system_id":"levelo_inurba_marseille","lat":43.27673,"lon":5.38892,"is_reserved":false,"is_disabled":false,"rental_uris":{"android":"levelo://app?vid=21888221-3c5f-485c-9fbb-e03f5a1cff75","ios":"levelo://app?vid=21888221-3c5f-485c-9fbb-e03f5a1cff75"},"vehicle_type_id":"4","last_reported":1730758093,"current_range_meters":9600,"station_id":"ce4bhi12rcd13ifvqfo0","pricing_plan_id":"cebpf4jnsgd1na2vs0mg"},{"bike_id":"c02cb689-cac5-4dfa-bde0-e095a992c4d0","system_id":"levelo_inurba_marseille","lat":43.29789,"lon":5.39344,"is_reserved":false,"is_disabled":false,"rental_uris":{"android":"levelo://app?vid=c02cb689-cac5-4dfa-bde0-e095a992c4d0","ios":"levelo://app?vid=c02cb689-cac5-4dfa-bde0-e095a992c4d0"},"vehicle_type_id":"4","last_reported":1730758093,"current_range_meters":39200,"station_id":"chh1huq6cuj3fo74tm60","pricing_plan_id":"cebpf4jnsgd1na2vs0mg"},{"bike_id":"e12d7650-f1b2-4c4b-8eb8-23651f70543b","system_id":"levelo_inurba_marseille","lat":43.32358,"lon":5.38887,"is_reserved":false,"is_disabled":false,"rental_uris":{"android":"levelo://app?vid=e12d7650-f1b2-4c4b-8eb8-23651f70543b","ios":"levelo://app?vid=e12d7650-f1b2-4c4b-8eb8-23651f70543b"},"vehicle_type_id":"4","last_reported":1730758093,"current_range_meters":8400,"station_id":"ce4bhqp2rcd13ifvqhog","pricing_plan_id":"cebpf4jnsgd1na2vs0mg"},{"bike_id":"fbe1344d-a732-4551-86e4-3b4d6dad7b24","system_id":"levelo_inurba_marseille","lat":43.2926,"lon":5.40911,"is_reserved":false,"is_disabled":false,"rental_uris":{"android":"levelo://app?vid=fbe1344d-a732-4551-86e4-3b4d6dad7b24","ios":"levelo://app?vid=fbe1344d-a732-4551-86e4-3b4d6dad7b24"},"vehicle_type_id":"4","last_reported":1730758093,"current_range_meters":37600,"station_id":"ce4bh192rcd13ifvqdc0","pricing_plan_id":"cebpf4jnsgd1na2vs0mg"},{"bike_id":"3731b232-5ac2-42f6-ad4f-510332e4c316","system_id":"levelo_inurba_marseille","lat":43.239677,"lon":5.366252,"is_reserved":false,"is_disabled":false,"rental_uris":{"android":"levelo://app?vid=3731b232-5ac2-42f6-ad4f-510332e4c316","ios":"levelo://app?vid=3731b232-5ac2-42f6-ad4f-510332e4c316"},"vehicle_type_id":"4","last_reported":1730758093,"current_range_meters":38800,"station_id":"ce4bhi12rcd13ifvqfp0","pricing_plan_id":"cebpf4jnsgd1na2vs0mg"},{"bike_id":"07f8f1bf-d68f-4b58-92a7-b1443614c858","system_id":"levelo_inurba_marseille","lat":43.30943,"lon":5.39021,"is_reserved":false,"is_disabled":false,"rental_uris":{"android":"levelo://app?vid=07f8f1bf-d68f-4b58-92a7-b1443614c858","ios":"levelo://app?vid=07f8f1bf-d68f-4b58-92a7-b1443614c858"},"vehicle_type_id":"4","last_reported":1730758093,"current_range_meters":38400,"station_id":"ce4bgup2rcd13ifvqco0","pricing_plan_id":"cebpf4jnsgd1na2vs0mg"},{"bike_id":"2f27399c-a924-4473-9d9b-dbf4e2858c4b","system_id":"levelo_inurba_marseille","lat":43.25867,"lon":5.39909,"is_reserved":false,"is_disabled":false,"rental_uris":{"android":"levelo://app?vid=2f27399c-a924-4473-9d9b-dbf4e2858c4b","ios":"levelo://app?vid=2f27399c-a924-4473-9d9b-dbf4e2858c4b"},"vehicle_type_id":"4","last_reported":1730758093,"current_range_meters":39200,"station_id":"ce4bhl92rcd13ifvqghg","pricing_plan_id":"cebpf4jnsgd1na2vs0mg"},{"bike_id":"afb4951c-b08c-4d64-9938-fe2618de5e61","system_id":"levelo_inurba_marseille","lat":43.28836,"lon":5.35853,"is_reserved":false,"is_disabled":false,"rental_uris":{"android":"levelo://app?vid=afb4951c-b08c-4d64-9938-fe2618de5e61","ios":"levelo://app?vid=afb4951c-b08c-4d64-9938-fe2618de5e61"},"vehicle_type_id":"4","last_reported":1730758093,"current_range_meters":32800,"station_id":"ce4bhb12rcd13ifvqem0","pricing_plan_id":"cebpf4jnsgd1na2vs0mg"},{"bike_id":"c4433828-9bba-4566-b842-c784d6671a51","system_id":"levelo_inurba_marseille","lat":43.29862,"lon":5.39746,"is_reserved":false,"is_disabled":false,"rental_uris":{"android":"levelo://app?vid=c4433828-9bba-4566-b842-c784d6671a51","ios":"levelo://app?vid=c4433828-9bba-4566-b842-c784d6671a51"},"vehicle_type_id":"4","last_reported":1730758093,"current_range_meters":38800,"station_id":"ce4bh0h2rcd13ifvqd50","pricing_plan_id":"cebpf4jnsgd1na2vs0mg"},{"bike_id":"91f5b76d-bdfe-4048-8a04-c9679d35526a","system_id":"levelo_inurba_marseille","lat":43.33026,"lon":5.39038,"is_reserved":false,"is_disabled":false,"rental_uris":{"android":"levelo://app?vid=91f5b76d-bdfe-4048-8a04-c9679d35526a","ios":"levelo://app?vid=91f5b76d-bdfe-4048-8a04-c9679d35526a"},"vehicle_type_id":"4","last_reported":1730758093,"current_range_meters":38800,"station_id":"ce4bhr92rcd13ifvqhrg","pricing_plan_id":"cebpf4jnsgd1na2vs0mg"},{"bike_id":"003d7fda-4443-4148-aec1-729df37750b9","system_id":"levelo_inurba_marseille","lat":43.281,"lon":5.37842,"is_reserved":false,"is_disabled":false,"rental_uris":{"android":"levelo://app?vid=003d7fda-4443-4148-aec1-729df37750b9","ios":"levelo://app?vid=003d7fda-4443-4148-aec1-729df37750b9"},"vehicle_type_id":"4","last_reported":1730758093,"current_range_meters":38400,"station_id":"ce4bha12rcd13ifvqee0","pricing_plan_id":"cebpf4jnsgd1na2vs0mg"},{"bike_id":"54a53193-b42f-4e81-af8d-b5da45c2ad7e","system_id":"levelo_inurba_marseille","lat":43.27179,"lon":5.40988,"is_reserved":false,"is_disabled":false,"rental_uris":{"android":"levelo://app?vid=54a53193-b42f-4e81-af8d-b5da45c2ad7e","ios":"levelo://app?vid=54a53193-b42f-4e81-af8d-b5da45c2ad7e"},"vehicle_type_id":"4","last_reported":1730758093,"current_range_meters":38800,"station_id":"ce4bhl12rcd13ifvqgf0","pricing_plan_id":"cebpf4jnsgd1na2vs0mg"},{"bike_id":"99d78f6e-5bfc-4e99-baa1-b9137a41c134","system_id":"levelo_inurba_marseille","lat":43.28152,"lon":5.42646,"is_reserved":false,"is_disabled":false,"rental_uris":{"android":"levelo://app?vid=99d78f6e-5bfc-4e99-baa1-b9137a41c134","ios":"levelo://app?vid=99d78f6e-5bfc-4e99-baa1-b9137a41c134"},"vehicle_type_id":"4","last_reported":1730758093,"current_range_meters":38800,"station_id":"ce4bhnh2rcd13ifvqgug","pricing_plan_id":"cebpf4jnsgd1na2vs0mg"},{"bike_id":"46d7b9e4-4d95-4565-ad4c-d95ad5e9ab18","system_id":"levelo_inurba_marseille","lat":43.24664,"lon":5.38159,"is_reserved":false,"is_disabled":false,"rental_uris":{"android":"levelo://app?vid=46d7b9e4-4d95-4565-ad4c-d95ad5e9ab18","ios":"levelo://app?vid=46d7b9e4-4d95-4565-ad4c-d95ad5e9ab18"},"vehicle_type_id":"4","last_reported":1730758093,"current_range_meters":20400,"station_id":"ce4bhih2rcd13ifvqfr0","pricing_plan_id":"cebpf4jnsgd1na2vs0mg"},{"bike_id":"0fb9819f-f5ed-4bc1-9006-4b1ad7d9b36e","system_id":"levelo_inurba_marseille","lat":43.32487,"lon":5.36574,"is_reserved":false,"is_disabled":false,"rental_uris":{"android":"levelo://app?vid=0fb9819f-f5ed-4bc1-9006-4b1ad7d9b36e","ios":"levelo://app?vid=0fb9819f-f5ed-4bc1-9006-4b1ad7d9b36e"},"vehicle_type_id":"4","last_reported":1730758093,"current_range_meters":18800,"station_id":"ce4bhs12rcd13ifvqhvg","pricing_plan_id":"cebpf4jnsgd1na2vs0mg"},{"bike_id":"e122c03a-bdc0-46d4-afc9-625ada9184ae","system_id":"levelo_inurba_marseille","lat":43.30315,"lon":5.369,"is_reserved":false,"is_disabled":false,"rental_uris":{"android":"levelo://app?vid=e122c03a-bdc0-46d4-afc9-625ada9184ae","ios":"levelo://app?vid=e122c03a-bdc0-46d4-afc9-625ada9184ae"},"vehicle_type_id":"4","last_reported":1730758093,"current_range_meters":32000,"station_id":"ce4bgqh2rcd13ifvqc5g","pricing_plan_id":"cebpf4jnsgd1na2vs0mg"},{"bike_id":"28911f8a-fc5c-49ac-ae37-166be5980723","system_id":"levelo_inurba_marseille","lat":43.30889,"lon":5.39659,"is_reserved":false,"is_disabled":false,"rental_uris":{"android":"levelo://app?vid=28911f8a-fc5c-49ac-ae37-166be5980723","ios":"levelo://app?vid=28911f8a-fc5c-49ac-ae37-166be5980723"},"vehicle_type_id":"4","last_reported":1730758093,"current_range_meters":32400,"station_id":"ce4bh012rcd13ifvqcv0","pricing_plan_id":"cebpf4jnsgd1na2vs0mg"},{"bike_id":"372b79ea-d145-403a-86aa-4421629e3558","system_id":"levelo_inurba_marseille","lat":43.31276,"lon":5.40163,"is_reserved":false,"is_disabled":false,"rental_uris":{"android":"levelo://app?vid=372b79ea-d145-403a-86aa-4421629e3558","ios":"levelo://app?vid=372b79ea-d145-403a-86aa-4421629e3558"},"vehicle_type_id":"4","last_reported":1730758093,"current_range_meters":24000,"station_id":"ce4bh092rcd13ifvqd30","pricing_plan_id":"cebpf4jnsgd1na2vs0mg"},{"bike_id":"037eaf0f-9112-47d3-aa8d-7a0ef0d58625","system_id":"levelo_inurba_marseille","lat":43.24167,"lon":5.36394,"is_reserved":false,"is_disabled":false,"rental_uris":{"android":"levelo://app?vid=037eaf0f-9112-47d3-aa8d-7a0ef0d58625","ios":"levelo://app?vid=037eaf0f-9112-47d3-aa8d-7a0ef0d58625"},"vehicle_type_id":"4","last_reported":1730758093,"current_range_meters":38800,"station_id":"cpo36qri1sfpv3e86is0","pricing_plan_id":"cebpf4jnsgd1na2vs0mg"},{"bike_id":"0688e1f9-1bf1-4863-9a6f-f01b30b1aed3","system_id":"levelo_inurba_marseille","lat":43.2845,"lon":5.35894,"is_reserved":false,"is_disabled":false,"rental_uris":{"android":"levelo://app?vid=0688e1f9-1bf1-4863-9a6f-f01b30b1aed3","ios":"levelo://app?vid=0688e1f9-1bf1-4863-9a6f-f01b30b1aed3"},"vehicle_type_id":"4","last_reported":1730758093,"current_range_meters":39200,"station_id":"ce4bhah2rcd13ifvqei0","pricing_plan_id":"cebpf4jnsgd1na2vs0mg"},{"bike_id":"4ea0507a-3008-47a9-a8e4-08fc8842bae4","system_id":"levelo_inurba_marseille","lat":43.27171,"lon":5.40994,"is_reserved":false,"is_disabled":false,"rental_uris":{"android":"levelo://app?vid=4ea0507a-3008-47a9-a8e4-08fc8842bae4","ios":"levelo://app?vid=4ea0507a-3008-47a9-a8e4-08fc8842bae4"},"vehicle_type_id":"4","last_reported":1730758093,"current_range_meters":40000,"station_id":"ce4bhl12rcd13ifvqgf0","pricing_plan_id":"cebpf4jnsgd1na2vs0mg"},{"bike_id":"5f7bea16-ee2b-4b3b-8d0f-0102e87cabea","system_id":"levelo_inurba_marseille","lat":43.30799,"lon":5.43521,"is_reserved":false,"is_disabled":false,"rental_uris":{"android":"levelo://app?vid=5f7bea16-ee2b-4b3b-8d0f-0102e87cabea","ios":"levelo://app?vid=5f7bea16-ee2b-4b3b-8d0f-0102e87cabea"},"vehicle_type_id":"4","last_reported":1730758093,"current_range_meters":7200,"station_id":"ce4bhph2rcd13ifvqheg","pricing_plan_id":"cebpf4jnsgd1na2vs0mg"},{"bike_id":"215539c5-792d-4f67-a36b-a111124af74c","system_id":"levelo_inurba_marseille","lat":43.29307,"lon":5.37177,"is_reserved":false,"is_disabled":false,"rental_uris":{"android":"levelo://app?vid=215539c5-792d-4f67-a36b-a111124af74c","ios":"levelo://app?vid=215539c5-792d-4f67-a36b-a111124af74c"},"vehicle_type_id":"4","last_reported":1730758093,"current_range_meters":4000,"station_id":"ce4bgh92rcd13ifvqb40","pricing_plan_id":"cebpf4jnsgd1na2vs0mg"},{"bike_id":"095ac0fd-1cb3-48a6-9da4-99e836b3b8c3","system_id":"levelo_inurba_marseille","lat":43.2318,"lon":5.39994,"is_reserved":false,"is_disabled":false,"rental_uris":{"android":"levelo://app?vid=095ac0fd-1cb3-48a6-9da4-99e836b3b8c3","ios":"levelo://app?vid=095ac0fd-1cb3-48a6-9da4-99e836b3b8c3"},"vehicle_type_id":"4","last_reported":1730758093,"current_range_meters":36400,"station_id":"ce4bhn12rcd13ifvqgqg","pricing_plan_id":"cebpf4jnsgd1na2vs0mg"},{"bike_id":"a034fd9f-6722-43e9-b566-c9a9b717b473","system_id":"levelo_inurba_marseille","lat":43.30606,"lon":5.37224,"is_reserved":false,"is_disabled":false,"rental_uris":{"android":"levelo://app?vid=a034fd9f-6722-43e9-b566-c9a9b717b473","ios":"levelo://app?vid=a034fd9f-6722-43e9-b566-c9a9b717b473"},"vehicle_type_id":"4","last_reported":1730758093,"current_range_meters":39200,"station_id":"ce4bgqh2rcd13ifvqc4g","pricing_plan_id":"cebpf4jnsgd1na2vs0mg"},{"bike_id":"190ab154-8298-4b3b-94c9-6d2abf0f4f50","system_id":"levelo_inurba_marseille","lat":43.28696,"lon":5.39988,"is_reserved":false,"is_disabled":false,"rental_uris":{"android":"levelo://app?vid=190ab154-8298-4b3b-94c9-6d2abf0f4f50","ios":"levelo://app?vid=190ab154-8298-4b3b-94c9-6d2abf0f4f50"},"vehicle_type_id":"4","last_reported":1730758093,"current_range_meters":22400,"station_id":"ce4bho92rcd13ifvqh3g","pricing_plan_id":"cebpf4jnsgd1na2vs0mg"},{"bike_id":"26f563a1-6925-4b54-9321-37a74c933ecd","system_id":"levelo_inurba_marseille","lat":43.28563,"lon":5.39492,"is_reserved":false,"is_disabled":false,"rental_uris":{"android":"levelo://app?vid=26f563a1-6925-4b54-9321-37a74c933ecd","ios":"levelo://app?vid=26f563a1-6925-4b54-9321-37a74c933ecd"},"vehicle_type_id":"4","last_reported":1730758093,"current_range_meters":38800,"station_id":"ce4bh292rcd13ifvqdg0","pricing_plan_id":"cebpf4jnsgd1na2vs0mg"},{"bike_id":"41c0771f-c62c-477c-b7d2-d876a83f3ce1","system_id":"levelo_inurba_marseille","lat":43.27557,"lon":5.38409,"is_reserved":false,"is_disabled":false,"rental_uris":{"android":"levelo://app?vid=41c0771f-c62c-477c-b7d2-d876a83f3ce1","ios":"levelo://app?vid=41c0771f-c62c-477c-b7d2-d876a83f3ce1"},"vehicle_type_id":"4","last_reported":1730758093,"current_range_meters":34800,"station_id":"ce4bhh92rcd13ifvqfi0","pricing_plan_id":"cebpf4jnsgd1na2vs0mg"},{"bike_id":"7456f770-5dea-4f37-afa6-eca01272107d","system_id":"levelo_inurba_marseille","lat":43.28389,"lon":5.37514,"is_reserved":false,"is_disabled":false,"rental_uris":{"android":"levelo://app?vid=7456f770-5dea-4f37-afa6-eca01272107d","ios":"levelo://app?vid=7456f770-5dea-4f37-afa6-eca01272107d"},"vehicle_type_id":"4","last_reported":1730758093,"current_range_meters":36000,"station_id":"ce4bh412rcd13ifvqds0","pricing_plan_id":"cebpf4jnsgd1na2vs0mg"},{"bike_id":"8a6108fb-39e5-44c9-bb0e-c92b1fbe0362","system_id":"levelo_inurba_marseille","lat":43.27997,"lon":5.40011,"is_reserved":false,"is_disabled":false,"rental_uris":{"android":"levelo://app?vid=8a6108fb-39e5-44c9-bb0e-c92b1fbe0362","ios":"levelo://app?vid=8a6108fb-39e5-44c9-bb0e-c92b1fbe0362"},"vehicle_type_id":"4","last_reported":1730758093,"current_range_meters":38800,"station_id":"ce4bho92rcd13ifvqh4g","pricing_plan_id":"cebpf4jnsgd1na2vs0mg"},{"bike_id":"d58881d1-fb71-4bd6-84f4-42463659a515","system_id":"levelo_inurba_marseille","lat":43.29514,"lon":5.39406,"is_reserved":false,"is_disabled":false,"rental_uris":{"android":"levelo://app?vid=d58881d1-fb71-4bd6-84f4-42463659a515","ios":"levelo://app?vid=d58881d1-fb71-4bd6-84f4-42463659a515"},"vehicle_type_id":"4","last_reported":1730758093,"current_range_meters":38800,"station_id":"ce4bh292rcd13ifvqdf0","pricing_plan_id":"cebpf4jnsgd1na2vs0mg"},{"bike_id":"8d5faf28-e526-4d5b-93d3-399bd2cb1046","system_id":"levelo_inurba_marseille","lat":43.31758,"lon":5.39028,"is_reserved":false,"is_disabled":false,"rental_uris":{"android":"levelo://app?vid=8d5faf28-e526-4d5b-93d3-399bd2cb1046","ios":"levelo://app?vid=8d5faf28-e526-4d5b-93d3-399bd2cb1046"},"vehicle_type_id":"4","last_reported":1730758093,"current_range_meters":12400,"station_id":"ce4bhqp2rcd13ifvqhng","pricing_plan_id":"cebpf4jnsgd1na2vs0mg"},{"bike_id":"d091c632-30d3-490c-afc1-84ac5592a733","system_id":"levelo_inurba_marseille","lat":43.312948,"lon":5.396632,"is_reserved":false,"is_disabled":false,"rental_uris":{"android":"levelo://app?vid=d091c632-30d3-490c-afc1-84ac5592a733","ios":"levelo://app?vid=d091c632-30d3-490c-afc1-84ac5592a733"},"vehicle_type_id":"4","last_reported":1730758093,"current_range_meters":20000,"station_id":"ce4bgvp2rcd13ifvqcu0","pricing_plan_id":"cebpf4jnsgd1na2vs0mg"},{"bike_id":"b937fd4a-52f2-4a1e-bc07-748f50a02f78","system_id":"levelo_inurba_marseille","lat":43.28697,"lon":5.37393,"is_reserved":false,"is_disabled":false,"rental_uris":{"android":"levelo://app?vid=b937fd4a-52f2-4a1e-bc07-748f50a02f78","ios":"levelo://app?vid=b937fd4a-52f2-4a1e-bc07-748f50a02f78"},"vehicle_type_id":"4","last_reported":1730758093,"current_range_meters":34000,"station_id":"ce4bh3p2rcd13ifvqdq0","pricing_plan_id":"cebpf4jnsgd1na2vs0mg"},{"bike_id":"09829a24-f639-4891-80cb-ed9f598d5fde","system_id":"levelo_inurba_marseille","lat":43.291966,"lon":5.393236,"is_reserved":false,"is_disabled":false,"rental_uris":{"android":"levelo://app?vid=09829a24-f639-4891-80cb-ed9f598d5fde","ios":"levelo://app?vid=09829a24-f639-4891-80cb-ed9f598d5fde"},"vehicle_type_id":"4","last_reported":1730758093,"current_range_meters":9200,"station_id":"ce4bh192rcd13ifvqdd0","pricing_plan_id":"cebpf4jnsgd1na2vs0mg"},{"bike_id":"4d39a779-31fa-49e8-8dd7-1884b4a4ae25","system_id":"levelo_inurba_marseille","lat":43.26194,"lon":5.3745,"is_reserved":false,"is_disabled":false,"rental_uris":{"android":"levelo://app?vid=4d39a779-31fa-49e8-8dd7-1884b4a4ae25","ios":"levelo://app?vid=4d39a779-31fa-49e8-8dd7-1884b4a4ae25"},"vehicle_type_id":"4","last_reported":1730758093,"current_range_meters":6800,"station_id":"ce4bhgp2rcd13ifvqfc0","pricing_plan_id":"cebpf4jnsgd1na2vs0mg"},{"bike_id":"8c90d0b3-f1b0-424d-a4c3-3b5f9d847e56","system_id":"levelo_inurba_marseille","lat":43.30601,"lon":5.3722,"is_reserved":false,"is_disabled":false,"rental_uris":{"android":"levelo://app?vid=8c90d0b3-f1b0-424d-a4c3-3b5f9d847e56","ios":"levelo://app?vid=8c90d0b3-f1b0-424d-a4c3-3b5f9d847e56"},"vehicle_type_id":"4","last_reported":1730758093,"current_range_meters":38800,"station_id":"ce4bgqh2rcd13ifvqc4g","pricing_plan_id":"cebpf4jnsgd1na2vs0mg"},{"bike_id":"488a81d4-ac37-4f27-9692-3a640bcfce1a","system_id":"levelo_inurba_marseille","lat":43.28401,"lon":5.37532,"is_reserved":false,"is_disabled":false,"rental_uris":{"android":"levelo://app?vid=488a81d4-ac37-4f27-9692-3a640bcfce1a","ios":"levelo://app?vid=488a81d4-ac37-4f27-9692-3a640bcfce1a"},"vehicle_type_id":"4","last_reported":1730758093,"current_range_meters":10800,"station_id":"ce4bh412rcd13ifvqds0","pricing_plan_id":"cebpf4jnsgd1na2vs0mg"},{"bike_id":"53b845dc-04ea-40c0-805b-a14f055c685a","system_id":"levelo_inurba_marseille","lat":43.30888,"lon":5.39657,"is_reserved":false,"is_disabled":false,"rental_uris":{"android":"levelo://app?vid=53b845dc-04ea-40c0-805b-a14f055c685a","ios":"levelo://app?vid=53b845dc-04ea-40c0-805b-a14f055c685a"},"vehicle_type_id":"4","last_reported":1730758093,"current_range_meters":38800,"station_id":"ce4bh012rcd13ifvqcv0","pricing_plan_id":"cebpf4jnsgd1na2vs0mg"},{"bike_id":"37deeb23-ece9-4f69-9fee-a33b9b0b9f3f","system_id":"levelo_inurba_marseille","lat":43.29519,"lon":5.39032,"is_reserved":false,"is_disabled":false,"rental_uris":{"android":"levelo://app?vid=37deeb23-ece9-4f69-9fee-a33b9b0b9f3f","ios":"levelo://app?vid=37deeb23-ece9-4f69-9fee-a33b9b0b9f3f"},"vehicle_type_id":"4","last_reported":1730758093,"current_range_meters":34000,"station_id":"ce4bh3p2rcd13ifvqdp0","pricing_plan_id":"cebpf4jnsgd1na2vs0mg"},{"bike_id":"80659de5-ff6a-45eb-8c9e-025397ab7c8e","system_id":"levelo_inurba_marseille","lat":43.29913,"lon":5.40125,"is_reserved":false,"is_disabled":false,"rental_uris":{"android":"levelo://app?vid=80659de5-ff6a-45eb-8c9e-025397ab7c8e","ios":"levelo://app?vid=80659de5-ff6a-45eb-8c9e-025397ab7c8e"},"vehicle_type_id":"4","last_reported":1730758093,"current_range_meters":29600,"station_id":"ce4bgvh2rcd13ifvqcs0","pricing_plan_id":"cebpf4jnsgd1na2vs0mg"},{"bike_id":"3aefeb89-86d7-4b13-b83a-b42cfb812c9d","system_id":"levelo_inurba_marseille","lat":43.25088,"lon":5.39523,"is_reserved":false,"is_disabled":false,"rental_uris":{"android":"levelo://app?vid=3aefeb89-86d7-4b13-b83a-b42cfb812c9d","ios":"levelo://app?vid=3aefeb89-86d7-4b13-b83a-b42cfb812c9d"},"vehicle_type_id":"4","last_reported":1730758093,"current_range_meters":38800,"station_id":"ce4bhm12rcd13ifvqgkg","pricing_plan_id":"cebpf4jnsgd1na2vs0mg"},{"bike_id":"eb39e603-ad9f-4225-9a3b-12ae2097763c","system_id":"levelo_inurba_marseille","lat":43.25086,"lon":5.39518,"is_reserved":false,"is_disabled":false,"rental_uris":{"android":"levelo://app?vid=eb39e603-ad9f-4225-9a3b-12ae2097763c","ios":"levelo://app?vid=eb39e603-ad9f-4225-9a3b-12ae2097763c"},"vehicle_type_id":"4","last_reported":1730758093,"current_range_meters":32800,"station_id":"ce4bhm12rcd13ifvqgkg","pricing_plan_id":"cebpf4jnsgd1na2vs0mg"},{"bike_id":"dfdbab8c-1f1d-443d-b108-183c4b7fb7c3","system_id":"levelo_inurba_marseille","lat":43.28075,"lon":5.39652,"is_reserved":false,"is_disabled":false,"rental_uris":{"android":"levelo://app?vid=dfdbab8c-1f1d-443d-b108-183c4b7fb7c3","ios":"levelo://app?vid=dfdbab8c-1f1d-443d-b108-183c4b7fb7c3"},"vehicle_type_id":"4","last_reported":1730758093,"current_range_meters":28000,"station_id":"ce4bho12rcd13ifvqh2g","pricing_plan_id":"cebpf4jnsgd1na2vs0mg"},{"bike_id":"ef035a9e-e33e-4137-b881-272584da15b9","system_id":"levelo_inurba_marseille","lat":43.27838,"lon":5.39211,"is_reserved":false,"is_disabled":false,"rental_uris":{"android":"levelo://app?vid=ef035a9e-e33e-4137-b881-272584da15b9","ios":"levelo://app?vid=ef035a9e-e33e-4137-b881-272584da15b9"},"vehicle_type_id":"4","last_reported":1730758093,"current_range_meters":11200,"station_id":"ce4bhjp2rcd13ifvqga0","pricing_plan_id":"cebpf4jnsgd1na2vs0mg"},{"bike_id":"99ffb61d-4b9d-4c24-9f95-7dc54f8ce1a0","system_id":"levelo_inurba_marseille","lat":43.29302,"lon":5.37171,"is_reserved":false,"is_disabled":false,"rental_uris":{"android":"levelo://app?vid=99ffb61d-4b9d-4c24-9f95-7dc54f8ce1a0","ios":"levelo://app?vid=99ffb61d-4b9d-4c24-9f95-7dc54f8ce1a0"},"vehicle_type_id":"4","last_reported":1730758093,"current_range_meters":12400,"station_id":"ce4bgh92rcd13ifvqb40","pricing_plan_id":"cebpf4jnsgd1na2vs0mg"},{"bike_id":"3ab4030e-66fe-403c-8479-fde3f9e0f5d6","system_id":"levelo_inurba_marseille","lat":43.29872,"lon":5.39739,"is_reserved":false,"is_disabled":false,"rental_uris":{"android":"levelo://app?vid=3ab4030e-66fe-403c-8479-fde3f9e0f5d6","ios":"levelo://app?vid=3ab4030e-66fe-403c-8479-fde3f9e0f5d6"},"vehicle_type_id":"4","last_reported":1730758093,"current_range_meters":38400,"station_id":"ce4bh0h2rcd13ifvqd50","pricing_plan_id":"cebpf4jnsgd1na2vs0mg"},{"bike_id":"bc09bd59-7629-4bf2-921b-6600d712b8de","system_id":"levelo_inurba_marseille","lat":43.28456,"lon":5.3589,"is_reserved":false,"is_disabled":false,"rental_uris":{"android":"levelo://app?vid=bc09bd59-7629-4bf2-921b-6600d712b8de","ios":"levelo://app?vid=bc09bd59-7629-4bf2-921b-6600d712b8de"},"vehicle_type_id":"4","last_reported":1730758093,"current_range_meters":24400,"station_id":"ce4bhah2rcd13ifvqei0","pricing_plan_id":"cebpf4jnsgd1na2vs0mg"},{"bike_id":"64c3694d-27d0-4aea-96ae-5b7e15fcb04c","system_id":"levelo_inurba_marseille","lat":43.29374,"lon":5.37852,"is_reserved":false,"is_disabled":false,"rental_uris":{"android":"levelo://app?vid=64c3694d-27d0-4aea-96ae-5b7e15fcb04c","ios":"levelo://app?vid=64c3694d-27d0-4aea-96ae-5b7e15fcb04c"},"vehicle_type_id":"4","last_reported":1730758093,"current_range_meters":32800,"station_id":"ce4bgjh2rcd13ifvqbf0","pricing_plan_id":"cebpf4jnsgd1na2vs0mg"},{"bike_id":"0aded8fa-6c73-4a38-83ef-5eb881973e8f","system_id":"levelo_inurba_marseille","lat":43.28828,"lon":5.39325,"is_reserved":false,"is_disabled":false,"rental_uris":{"android":"levelo://app?vid=0aded8fa-6c73-4a38-83ef-5eb881973e8f","ios":"levelo://app?vid=0aded8fa-6c73-4a38-83ef-5eb881973e8f"},"vehicle_type_id":"4","last_reported":1730758093,"current_range_meters":32000,"station_id":"ce4bh2p2rcd13ifvqdi0","pricing_plan_id":"cebpf4jnsgd1na2vs0mg"},{"bike_id":"b3fb21eb-ef1e-403e-b454-0cbb8bb12bd0","system_id":"levelo_inurba_marseille","lat":43.29586,"lon":5.38743,"is_reserved":false,"is_disabled":false,"rental_uris":{"android":"levelo://app?vid=b3fb21eb-ef1e-403e-b454-0cbb8bb12bd0","ios":"levelo://app?vid=b3fb21eb-ef1e-403e-b454-0cbb8bb12bd0"},"vehicle_type_id":"4","last_reported":1730758093,"current_range_meters":32000,"station_id":"","pricing_plan_id":"cebpf4jnsgd1na2vs0mg"},{"bike_id":"efd52e43-c6c4-4283-8f94-e8c17d086d54","system_id":"levelo_inurba_marseille","lat":43.2866,"lon":5.36351,"is_reserved":false,"is_disabled":false,"rental_uris":{"android":"levelo://app?vid=efd52e43-c6c4-4283-8f94-e8c17d086d54","ios":"levelo://app?vid=efd52e43-c6c4-4283-8f94-e8c17d086d54"},"vehicle_type_id":"4","last_reported":1730758093,"current_range_meters":27600,"station_id":"ce4bhah2rcd13ifvqej0","pricing_plan_id":"cebpf4jnsgd1na2vs0mg"},{"bike_id":"37b85e7a-f380-4294-b12c-b89ad324abcd","system_id":"levelo_inurba_marseille","lat":43.30188,"lon":5.36614,"is_reserved":false,"is_disabled":false,"rental_uris":{"android":"levelo://app?vid=37b85e7a-f380-4294-b12c-b89ad324abcd","ios":"levelo://app?vid=37b85e7a-f380-4294-b12c-b89ad324abcd"},"vehicle_type_id":"4","last_reported":1730758093,"current_range_meters":12800,"station_id":"ce4bgrh2rcd13ifvqc8g","pricing_plan_id":"cebpf4jnsgd1na2vs0mg"},{"bike_id":"87231ffe-0ac7-469b-8716-78c258e514db","system_id":"levelo_inurba_marseille","lat":43.24663,"lon":5.38163,"is_reserved":false,"is_disabled":false,"rental_uris":{"android":"levelo://app?vid=87231ffe-0ac7-469b-8716-78c258e514db","ios":"levelo://app?vid=87231ffe-0ac7-469b-8716-78c258e514db"},"vehicle_type_id":"4","last_reported":1730758093,"current_range_meters":37600,"station_id":"ce4bhih2rcd13ifvqfr0","pricing_plan_id":"cebpf4jnsgd1na2vs0mg"},{"bike_id":"1a262795-7407-49d2-b8b5-844e6a51667f","system_id":"levelo_inurba_marseille","lat":43.2923,"lon":5.36108,"is_reserved":false,"is_disabled":false,"rental_uris":{"android":"levelo://app?vid=1a262795-7407-49d2-b8b5-844e6a51667f","ios":"levelo://app?vid=1a262795-7407-49d2-b8b5-844e6a51667f"},"vehicle_type_id":"4","last_reported":1730758093,"current_range_meters":25600,"station_id":"ce4bhbh2rcd13ifvqeqg","pricing_plan_id":"cebpf4jnsgd1na2vs0mg"},{"bike_id":"d4472d20-9c4b-4c70-ad00-3a005519a429","system_id":"levelo_inurba_marseille","lat":43.3536,"lon":5.35726,"is_reserved":false,"is_disabled":false,"rental_uris":{"android":"levelo://app?vid=d4472d20-9c4b-4c70-ad00-3a005519a429","ios":"levelo://app?vid=d4472d20-9c4b-4c70-ad00-3a005519a429"},"vehicle_type_id":"4","last_reported":1730758093,"current_range_meters":8000,"station_id":"","pricing_plan_id":"cebpf4jnsgd1na2vs0mg"},{"bike_id":"8836ac1e-2fdf-45e0-994f-b1abc5758b61","system_id":"levelo_inurba_marseille","lat":43.29914,"lon":5.38162,"is_reserved":false,"is_disabled":false,"rental_uris":{"android":"levelo://app?vid=8836ac1e-2fdf-45e0-994f-b1abc5758b61","ios":"levelo://app?vid=8836ac1e-2fdf-45e0-994f-b1abc5758b61"},"vehicle_type_id":"4","last_reported":1730758093,"current_range_meters":38000,"station_id":"ce4bgj12rcd13ifvqbc0","pricing_plan_id":"cebpf4jnsgd1na2vs0mg"},{"bike_id":"93e1a5ab-3065-4d73-b07a-8664739a1737","system_id":"levelo_inurba_marseille","lat":43.26946,"lon":5.40242,"is_reserved":false,"is_disabled":false,"rental_uris":{"android":"levelo://app?vid=93e1a5ab-3065-4d73-b07a-8664739a1737","ios":"levelo://app?vid=93e1a5ab-3065-4d73-b07a-8664739a1737"},"vehicle_type_id":"4","last_reported":1730758093,"current_range_meters":38800,"station_id":"cjm6bp8fraef2m0cb0m0","pricing_plan_id":"cebpf4jnsgd1na2vs0mg"},{"bike_id":"c84b0bfc-34a9-475b-9f04-6a326b51d4f9","system_id":"levelo_inurba_marseille","lat":43.29524,"lon":5.39046,"is_reserved":false,"is_disabled":false,"rental_uris":{"android":"levelo://app?vid=c84b0bfc-34a9-475b-9f04-6a326b51d4f9","ios":"levelo://app?vid=c84b0bfc-34a9-475b-9f04-6a326b51d4f9"},"vehicle_type_id":"4","last_reported":1730758093,"current_range_meters":36000,"station_id":"ce4bh3p2rcd13ifvqdp0","pricing_plan_id":"cebpf4jnsgd1na2vs0mg"},{"bike_id":"ca63c9ac-5579-4ae8-889f-e29bee4476de","system_id":"levelo_inurba_marseille","lat":43.241408,"lon":5.368813,"is_reserved":false,"is_disabled":false,"rental_uris":{"android":"levelo://app?vid=ca63c9ac-5579-4ae8-889f-e29bee4476de","ios":"levelo://app?vid=ca63c9ac-5579-4ae8-889f-e29bee4476de"},"vehicle_type_id":"4","last_reported":1730758093,"current_range_meters":30800,"station_id":"ce4bhi12rcd13ifvqfp0","pricing_plan_id":"cebpf4jnsgd1na2vs0mg"},{"bike_id":"b934b83b-a0ef-45c5-becd-ac014a76a723","system_id":"levelo_inurba_marseille","lat":43.29195,"lon":5.39333,"is_reserved":false,"is_disabled":false,"rental_uris":{"android":"levelo://app?vid=b934b83b-a0ef-45c5-becd-ac014a76a723","ios":"levelo://app?vid=b934b83b-a0ef-45c5-becd-ac014a76a723"},"vehicle_type_id":"4","last_reported":1730758093,"current_range_meters":6400,"station_id":"ce4bh192rcd13ifvqdd0","pricing_plan_id":"cebpf4jnsgd1na2vs0mg"},{"bike_id":"ed8908e8-3043-4187-a7bd-b9080da9eb38","system_id":"levelo_inurba_marseille","lat":43.30935,"lon":5.4015,"is_reserved":false,"is_disabled":false,"rental_uris":{"android":"levelo://app?vid=ed8908e8-3043-4187-a7bd-b9080da9eb38","ios":"levelo://app?vid=ed8908e8-3043-4187-a7bd-b9080da9eb38"},"vehicle_type_id":"4","last_reported":1730758093,"current_range_meters":40000,"station_id":"ce4bgvp2rcd13ifvqct0","pricing_plan_id":"cebpf4jnsgd1na2vs0mg"},{"bike_id":"0a1a40db-b474-4571-b7c4-fd7400638eb1","system_id":"levelo_inurba_marseille","lat":43.31713,"lon":5.4371,"is_reserved":false,"is_disabled":false,"rental_uris":{"android":"levelo://app?vid=0a1a40db-b474-4571-b7c4-fd7400638eb1","ios":"levelo://app?vid=0a1a40db-b474-4571-b7c4-fd7400638eb1"},"vehicle_type_id":"4","last_reported":1730758093,"current_range_meters":7200,"station_id":"ce4bhp92rcd13ifvqhcg","pricing_plan_id":"cebpf4jnsgd1na2vs0mg"},{"bike_id":"be5bb167-8e9d-4764-9cac-04dc5e3697e1","system_id":"levelo_inurba_marseille","lat":43.28455,"lon":5.35899,"is_reserved":false,"is_disabled":false,"rental_uris":{"android":"levelo://app?vid=be5bb167-8e9d-4764-9cac-04dc5e3697e1","ios":"levelo://app?vid=be5bb167-8e9d-4764-9cac-04dc5e3697e1"},"vehicle_type_id":"4","last_reported":1730758093,"current_range_meters":25200,"station_id":"ce4bhah2rcd13ifvqei0","pricing_plan_id":"cebpf4jnsgd1na2vs0mg"},{"bike_id":"fc4ff40e-36f2-4ff7-b01d-91d5f35360be","system_id":"levelo_inurba_marseille","lat":43.28655,"lon":5.36355,"is_reserved":false,"is_disabled":false,"rental_uris":{"android":"levelo://app?vid=fc4ff40e-36f2-4ff7-b01d-91d5f35360be","ios":"levelo://app?vid=fc4ff40e-36f2-4ff7-b01d-91d5f35360be"},"vehicle_type_id":"4","last_reported":1730758093,"current_range_meters":26800,"station_id":"ce4bhah2rcd13ifvqej0","pricing_plan_id":"cebpf4jnsgd1na2vs0mg"},{"bike_id":"2a620781-b8da-499d-9d4e-854e7a1d11af","system_id":"levelo_inurba_marseille","lat":43.27162,"lon":5.4099,"is_reserved":false,"is_disabled":false,"rental_uris":{"android":"levelo://app?vid=2a620781-b8da-499d-9d4e-854e7a1d11af","ios":"levelo://app?vid=2a620781-b8da-499d-9d4e-854e7a1d11af"},"vehicle_type_id":"4","last_reported":1730758093,"current_range_meters":39200,"station_id":"ce4bhl12rcd13ifvqgf0","pricing_plan_id":"cebpf4jnsgd1na2vs0mg"},{"bike_id":"ac8e8dbf-951e-4b21-b505-e77177b36fd2","system_id":"levelo_inurba_marseille","lat":43.27988,"lon":5.41658,"is_reserved":false,"is_disabled":false,"rental_uris":{"android":"levelo://app?vid=ac8e8dbf-951e-4b21-b505-e77177b36fd2","ios":"levelo://app?vid=ac8e8dbf-951e-4b21-b505-e77177b36fd2"},"vehicle_type_id":"4","last_reported":1730758093,"current_range_meters":8400,"station_id":"ce4bho12rcd13ifvqh1g","pricing_plan_id":"cebpf4jnsgd1na2vs0mg"},{"bike_id":"2dd40e8a-347a-4069-9f04-901c41b0a3c7","system_id":"levelo_inurba_marseille","lat":43.321,"lon":5.36776,"is_reserved":false,"is_disabled":false,"rental_uris":{"android":"levelo://app?vid=2dd40e8a-347a-4069-9f04-901c41b0a3c7","ios":"levelo://app?vid=2dd40e8a-347a-4069-9f04-901c41b0a3c7"},"vehicle_type_id":"4","last_reported":1730758093,"current_range_meters":38400,"station_id":"ce4bhrh2rcd13ifvqhug","pricing_plan_id":"cebpf4jnsgd1na2vs0mg"},{"bike_id":"55997e55-a382-466e-8f77-ed9e8d468b84","system_id":"levelo_inurba_marseille","lat":43.30415,"lon":5.41286,"is_reserved":false,"is_disabled":false,"rental_uris":{"android":"levelo://app?vid=55997e55-a382-466e-8f77-ed9e8d468b84","ios":"levelo://app?vid=55997e55-a382-466e-8f77-ed9e8d468b84"},"vehicle_type_id":"4","last_reported":1730758093,"current_range_meters":26000,"station_id":"ce4bhop2rcd13ifvqh8g","pricing_plan_id":"cebpf4jnsgd1na2vs0mg"},{"bike_id":"8377c6ae-db03-40cf-b6d8-e6a320e27281","system_id":"levelo_inurba_marseille","lat":43.3042,"lon":5.38897,"is_reserved":false,"is_disabled":false,"rental_uris":{"android":"levelo://app?vid=8377c6ae-db03-40cf-b6d8-e6a320e27281","ios":"levelo://app?vid=8377c6ae-db03-40cf-b6d8-e6a320e27281"},"vehicle_type_id":"4","last_reported":1730758093,"current_range_meters":39200,"station_id":"ce4bgk12rcd13ifvqbi0","pricing_plan_id":"cebpf4jnsgd1na2vs0mg"},{"bike_id":"6fc2326c-4cde-4ad0-9f66-cc0b4811ab5d","system_id":"levelo_inurba_marseille","lat":43.31992,"lon":5.38144,"is_reserved":false,"is_disabled":false,"rental_uris":{"android":"levelo://app?vid=6fc2326c-4cde-4ad0-9f66-cc0b4811ab5d","ios":"levelo://app?vid=6fc2326c-4cde-4ad0-9f66-cc0b4811ab5d"},"vehicle_type_id":"4","last_reported":1730758093,"current_range_meters":38800,"station_id":"ce4bhr12rcd13ifvqhpg","pricing_plan_id":"cebpf4jnsgd1na2vs0mg"},{"bike_id":"d22fb1b1-2550-4a1c-9826-b88923c7be78","system_id":"levelo_inurba_marseille","lat":43.30887,"lon":5.39646,"is_reserved":false,"is_disabled":false,"rental_uris":{"android":"levelo://app?vid=d22fb1b1-2550-4a1c-9826-b88923c7be78","ios":"levelo://app?vid=d22fb1b1-2550-4a1c-9826-b88923c7be78"},"vehicle_type_id":"4","last_reported":1730758093,"current_range_meters":22000,"station_id":"ce4bh012rcd13ifvqcv0","pricing_plan_id":"cebpf4jnsgd1na2vs0mg"},{"bike_id":"148ef324-e0ba-4f3f-a972-788a9d2d9cf2","system_id":"levelo_inurba_marseille","lat":43.28727,"lon":5.36097,"is_reserved":false,"is_disabled":false,"rental_uris":{"android":"levelo://app?vid=148ef324-e0ba-4f3f-a972-788a9d2d9cf2","ios":"levelo://app?vid=148ef324-e0ba-4f3f-a972-788a9d2d9cf2"},"vehicle_type_id":"4","last_reported":1730758093,"current_range_meters":38800,"station_id":"cki0cbj6b192h4jlfktg","pricing_plan_id":"cebpf4jnsgd1na2vs0mg"},{"bike_id":"7ddf4dd9-e8f9-4545-aaa1-ba04aaba824c","system_id":"levelo_inurba_marseille","lat":43.31067,"lon":5.38359,"is_reserved":false,"is_disabled":false,"rental_uris":{"android":"levelo://app?vid=7ddf4dd9-e8f9-4545-aaa1-ba04aaba824c","ios":"levelo://app?vid=7ddf4dd9-e8f9-4545-aaa1-ba04aaba824c"},"vehicle_type_id":"4","last_reported":1730758093,"current_range_meters":38800,"station_id":"ce4bgv92rcd13ifvqcr0","pricing_plan_id":"cebpf4jnsgd1na2vs0mg"},{"bike_id":"476b1032-3456-4e75-9225-7aec38b7121d","system_id":"levelo_inurba_marseille","lat":43.27811,"lon":5.4071,"is_reserved":false,"is_disabled":false,"rental_uris":{"android":"levelo://app?vid=476b1032-3456-4e75-9225-7aec38b7121d","ios":"levelo://app?vid=476b1032-3456-4e75-9225-7aec38b7121d"},"vehicle_type_id":"4","last_reported":1730758093,"current_range_meters":25600,"station_id":"ce4bhnh2rcd13ifvqgtg","pricing_plan_id":"cebpf4jnsgd1na2vs0mg"},{"bike_id":"bdde6b7b-ba8c-4d13-b147-d10426e579cd","system_id":"levelo_inurba_marseille","lat":43.3107,"lon":5.38349,"is_reserved":false,"is_disabled":false,"rental_uris":{"android":"levelo://app?vid=bdde6b7b-ba8c-4d13-b147-d10426e579cd","ios":"levelo://app?vid=bdde6b7b-ba8c-4d13-b147-d10426e579cd"},"vehicle_type_id":"4","last_reported":1730758093,"current_range_meters":38800,"station_id":"ce4bgv92rcd13ifvqcr0","pricing_plan_id":"cebpf4jnsgd1na2vs0mg"},{"bike_id":"9d764d20-b2dd-4da1-acae-03a5ed91a76d","system_id":"levelo_inurba_marseille","lat":43.28437,"lon":5.39183,"is_reserved":false,"is_disabled":false,"rental_uris":{"android":"levelo://app?vid=9d764d20-b2dd-4da1-acae-03a5ed91a76d","ios":"levelo://app?vid=9d764d20-b2dd-4da1-acae-03a5ed91a76d"},"vehicle_type_id":"4","last_reported":1730758093,"current_range_meters":36400,"station_id":"ce4bhoh2rcd13ifvqh5g","pricing_plan_id":"cebpf4jnsgd1na2vs0mg"},{"bike_id":"1e424f81-48df-4d2e-870f-f07824c786da","system_id":"levelo_inurba_marseille","lat":43.28456,"lon":5.35883,"is_reserved":false,"is_disabled":false,"rental_uris":{"android":"levelo://app?vid=1e424f81-48df-4d2e-870f-f07824c786da","ios":"levelo://app?vid=1e424f81-48df-4d2e-870f-f07824c786da"},"vehicle_type_id":"4","last_reported":1730758093,"current_range_meters":32000,"station_id":"ce4bhah2rcd13ifvqei0","pricing_plan_id":"cebpf4jnsgd1na2vs0mg"},{"bike_id":"8b751894-1161-4d7b-a0e2-88850f36a102","system_id":"levelo_inurba_marseille","lat":43.3175,"lon":5.39029,"is_reserved":false,"is_disabled":false,"rental_uris":{"android":"levelo://app?vid=8b751894-1161-4d7b-a0e2-88850f36a102","ios":"levelo://app?vid=8b751894-1161-4d7b-a0e2-88850f36a102"},"vehicle_type_id":"4","last_reported":1730758093,"current_range_meters":40000,"station_id":"ce4bhqp2rcd13ifvqhng","pricing_plan_id":"cebpf4jnsgd1na2vs0mg"},{"bike_id":"3ef99431-3adb-46de-97da-821b1b9d3028","system_id":"levelo_inurba_marseille","lat":43.2694,"lon":5.40252,"is_reserved":false,"is_disabled":false,"rental_uris":{"android":"levelo://app?vid=3ef99431-3adb-46de-97da-821b1b9d3028","ios":"levelo://app?vid=3ef99431-3adb-46de-97da-821b1b9d3028"},"vehicle_type_id":"4","last_reported":1730758093,"current_range_meters":38800,"station_id":"cjm6bp8fraef2m0cb0m0","pricing_plan_id":"cebpf4jnsgd1na2vs0mg"},{"bike_id":"284a58f0-ac34-4623-8869-59696274e7c5","system_id":"levelo_inurba_marseille","lat":43.31073,"lon":5.38349,"is_reserved":false,"is_disabled":false,"rental_uris":{"android":"levelo://app?vid=284a58f0-ac34-4623-8869-59696274e7c5","ios":"levelo://app?vid=284a58f0-ac34-4623-8869-59696274e7c5"},"vehicle_type_id":"4","last_reported":1730758093,"current_range_meters":20800,"station_id":"ce4bgv92rcd13ifvqcr0","pricing_plan_id":"cebpf4jnsgd1na2vs0mg"},{"bike_id":"a1e9a334-a473-4351-aa60-c0bec8d3a41f","system_id":"levelo_inurba_marseille","lat":43.29519,"lon":5.39042,"is_reserved":false,"is_disabled":false,"rental_uris":{"android":"levelo://app?vid=a1e9a334-a473-4351-aa60-c0bec8d3a41f","ios":"levelo://app?vid=a1e9a334-a473-4351-aa60-c0bec8d3a41f"},"vehicle_type_id":"4","last_reported":1730758093,"current_range_meters":10000,"station_id":"ce4bh3p2rcd13ifvqdp0","pricing_plan_id":"cebpf4jnsgd1na2vs0mg"},{"bike_id":"ee0f6b67-b360-47d4-b992-6d950adba1c0","system_id":"levelo_inurba_marseille","lat":43.30186,"lon":5.36613,"is_reserved":false,"is_disabled":false,"rental_uris":{"android":"levelo://app?vid=ee0f6b67-b360-47d4-b992-6d950adba1c0","ios":"levelo://app?vid=ee0f6b67-b360-47d4-b992-6d950adba1c0"},"vehicle_type_id":"4","last_reported":1730758093,"current_range_meters":39200,"station_id":"ce4bgrh2rcd13ifvqc8g","pricing_plan_id":"cebpf4jnsgd1na2vs0mg"},{"bike_id":"9c269b39-08b3-4bc3-a549-71a71e294410","system_id":"levelo_inurba_marseille","lat":43.29511,"lon":5.3941,"is_reserved":false,"is_disabled":false,"rental_uris":{"android":"levelo://app?vid=9c269b39-08b3-4bc3-a549-71a71e294410","ios":"levelo://app?vid=9c269b39-08b3-4bc3-a549-71a71e294410"},"vehicle_type_id":"4","last_reported":1730758093,"current_range_meters":38800,"station_id":"ce4bh292rcd13ifvqdf0","pricing_plan_id":"cebpf4jnsgd1na2vs0mg"},{"bike_id":"ba8f5d9a-4861-4465-b828-23e2245ef053","system_id":"levelo_inurba_marseille","lat":43.23182,"lon":5.39981,"is_reserved":false,"is_disabled":false,"rental_uris":{"android":"levelo://app?vid=ba8f5d9a-4861-4465-b828-23e2245ef053","ios":"levelo://app?vid=ba8f5d9a-4861-4465-b828-23e2245ef053"},"vehicle_type_id":"4","last_reported":1730758093,"current_range_meters":40000,"station_id":"ce4bhn12rcd13ifvqgqg","pricing_plan_id":"cebpf4jnsgd1na2vs0mg"},{"bike_id":"6c78a033-e104-48bc-bb54-3615bf76d1ad","system_id":"levelo_inurba_marseille","lat":43.25865,"lon":5.39904,"is_reserved":false,"is_disabled":false,"rental_uris":{"android":"levelo://app?vid=6c78a033-e104-48bc-bb54-3615bf76d1ad","ios":"levelo://app?vid=6c78a033-e104-48bc-bb54-3615bf76d1ad"},"vehicle_type_id":"4","last_reported":1730758093,"current_range_meters":39200,"station_id":"ce4bhl92rcd13ifvqghg","pricing_plan_id":"cebpf4jnsgd1na2vs0mg"},{"bike_id":"772f5a1a-0240-4436-8273-7fb69704d5fd","system_id":"levelo_inurba_marseille","lat":43.25083,"lon":5.39515,"is_reserved":false,"is_disabled":false,"rental_uris":{"android":"levelo://app?vid=772f5a1a-0240-4436-8273-7fb69704d5fd","ios":"levelo://app?vid=772f5a1a-0240-4436-8273-7fb69704d5fd"},"vehicle_type_id":"4","last_reported":1730758093,"current_range_meters":30800,"station_id":"ce4bhm12rcd13ifvqgkg","pricing_plan_id":"cebpf4jnsgd1na2vs0mg"},{"bike_id":"9377e808-6d3b-4fd4-9e1e-26ed2099fc9c","system_id":"levelo_inurba_marseille","lat":43.33023,"lon":5.39043,"is_reserved":false,"is_disabled":false,"rental_uris":{"android":"levelo://app?vid=9377e808-6d3b-4fd4-9e1e-26ed2099fc9c","ios":"levelo://app?vid=9377e808-6d3b-4fd4-9e1e-26ed2099fc9c"},"vehicle_type_id":"4","last_reported":1730758093,"current_range_meters":36800,"station_id":"ce4bhr92rcd13ifvqhrg","pricing_plan_id":"cebpf4jnsgd1na2vs0mg"},{"bike_id":"7b4fe856-4dc7-41f6-b07c-6194ffb9d50b","system_id":"levelo_inurba_marseille","lat":43.25092,"lon":5.39514,"is_reserved":false,"is_disabled":false,"rental_uris":{"android":"levelo://app?vid=7b4fe856-4dc7-41f6-b07c-6194ffb9d50b","ios":"levelo://app?vid=7b4fe856-4dc7-41f6-b07c-6194ffb9d50b"},"vehicle_type_id":"4","last_reported":1730758093,"current_range_meters":38800,"station_id":"ce4bhm12rcd13ifvqgkg","pricing_plan_id":"cebpf4jnsgd1na2vs0mg"},{"bike_id":"4314c959-0960-488f-8a5e-47a2dcd21d56","system_id":"levelo_inurba_marseille","lat":43.31873,"lon":5.40741,"is_reserved":false,"is_disabled":false,"rental_uris":{"android":"levelo://app?vid=4314c959-0960-488f-8a5e-47a2dcd21d56","ios":"levelo://app?vid=4314c959-0960-488f-8a5e-47a2dcd21d56"},"vehicle_type_id":"4","last_reported":1730758093,"current_range_meters":28000,"station_id":"ce4bhq12rcd13ifvqhig","pricing_plan_id":"cebpf4jnsgd1na2vs0mg"},{"bike_id":"5d1708ee-ea56-470e-a759-d68052530c0f","system_id":"levelo_inurba_marseille","lat":43.3064,"lon":5.4008,"is_reserved":false,"is_disabled":false,"rental_uris":{"android":"levelo://app?vid=5d1708ee-ea56-470e-a759-d68052530c0f","ios":"levelo://app?vid=5d1708ee-ea56-470e-a759-d68052530c0f"},"vehicle_type_id":"4","last_reported":1730758093,"current_range_meters":38800,"station_id":"ce4bh112rcd13ifvqda0","pricing_plan_id":"cebpf4jnsgd1na2vs0mg"},{"bike_id":"beeef4e4-0d45-4dfa-9ccc-aedb2ce31115","system_id":"levelo_inurba_marseille","lat":43.32109,"lon":5.36779,"is_reserved":false,"is_disabled":false,"rental_uris":{"android":"levelo://app?vid=beeef4e4-0d45-4dfa-9ccc-aedb2ce31115","ios":"levelo://app?vid=beeef4e4-0d45-4dfa-9ccc-aedb2ce31115"},"vehicle_type_id":"4","last_reported":1730758093,"current_range_meters":28400,"station_id":"ce4bhrh2rcd13ifvqhug","pricing_plan_id":"cebpf4jnsgd1na2vs0mg"},{"bike_id":"ce3363fe-f85c-423f-8432-468153dec5d7","system_id":"levelo_inurba_marseille","lat":43.30259,"lon":5.4006,"is_reserved":false,"is_disabled":false,"rental_uris":{"android":"levelo://app?vid=ce3363fe-f85c-423f-8432-468153dec5d7","ios":"levelo://app?vid=ce3363fe-f85c-423f-8432-468153dec5d7"},"vehicle_type_id":"4","last_reported":1730758093,"current_range_meters":37600,"station_id":"ce4bgvh2rcd13ifvqcs0","pricing_plan_id":"cebpf4jnsgd1na2vs0mg"},{"bike_id":"1ea4c3c0-dbf4-4dab-b6f1-22e20d00b9a5","system_id":"levelo_inurba_marseille","lat":43.31167,"lon":5.38712,"is_reserved":false,"is_disabled":false,"rental_uris":{"android":"levelo://app?vid=1ea4c3c0-dbf4-4dab-b6f1-22e20d00b9a5","ios":"levelo://app?vid=1ea4c3c0-dbf4-4dab-b6f1-22e20d00b9a5"},"vehicle_type_id":"4","last_reported":1730758093,"current_range_meters":36800,"station_id":"ce4bgv12rcd13ifvqcp0","pricing_plan_id":"cebpf4jnsgd1na2vs0mg"},{"bike_id":"b6172196-9807-43b5-a075-3469067adfb9","system_id":"levelo_inurba_marseille","lat":43.2799,"lon":5.41654,"is_reserved":false,"is_disabled":false,"rental_uris":{"android":"levelo://app?vid=b6172196-9807-43b5-a075-3469067adfb9","ios":"levelo://app?vid=b6172196-9807-43b5-a075-3469067adfb9"},"vehicle_type_id":"4","last_reported":1730758093,"current_range_meters":12000,"station_id":"ce4bho12rcd13ifvqh1g","pricing_plan_id":"cebpf4jnsgd1na2vs0mg"},{"bike_id":"ff79eb82-e5d1-4036-b08a-6743cabbacce","system_id":"levelo_inurba_marseille","lat":43.32283,"lon":5.38276,"is_reserved":false,"is_disabled":false,"rental_uris":{"android":"levelo://app?vid=ff79eb82-e5d1-4036-b08a-6743cabbacce","ios":"levelo://app?vid=ff79eb82-e5d1-4036-b08a-6743cabbacce"},"vehicle_type_id":"4","last_reported":1730758093,"current_range_meters":14000,"station_id":"ce4bhr12rcd13ifvqhqg","pricing_plan_id":"cebpf4jnsgd1na2vs0mg"},{"bike_id":"176ff4e6-f708-4c06-812b-5b1de7ea63cb","system_id":"levelo_inurba_marseille","lat":43.29253,"lon":5.40908,"is_reserved":false,"is_disabled":false,"rental_uris":{"android":"levelo://app?vid=176ff4e6-f708-4c06-812b-5b1de7ea63cb","ios":"levelo://app?vid=176ff4e6-f708-4c06-812b-5b1de7ea63cb"},"vehicle_type_id":"4","last_reported":1730758093,"current_range_meters":38800,"station_id":"ce4bh192rcd13ifvqdc0","pricing_plan_id":"cebpf4jnsgd1na2vs0mg"},{"bike_id":"71721fe2-35d7-41f2-9225-983e1943836f","system_id":"levelo_inurba_marseille","lat":43.337552,"lon":5.374709,"is_reserved":false,"is_disabled":false,"rental_uris":{"android":"levelo://app?vid=71721fe2-35d7-41f2-9225-983e1943836f","ios":"levelo://app?vid=71721fe2-35d7-41f2-9225-983e1943836f"},"vehicle_type_id":"4","last_reported":1730758093,"current_range_meters":38000,"station_id":"","pricing_plan_id":"cebpf4jnsgd1na2vs0mg"},{"bike_id":"1d63e703-0fa2-4f14-a658-9e2ec25cd456","system_id":"levelo_inurba_marseille","lat":43.305223,"lon":5.384739,"is_reserved":false,"is_disabled":false,"rental_uris":{"android":"levelo://app?vid=1d63e703-0fa2-4f14-a658-9e2ec25cd456","ios":"levelo://app?vid=1d63e703-0fa2-4f14-a658-9e2ec25cd456"},"vehicle_type_id":"4","last_reported":1730758093,"current_range_meters":26800,"station_id":"ce4bgkh2rcd13ifvqbl0","pricing_plan_id":"cebpf4jnsgd1na2vs0mg"},{"bike_id":"6c895aa1-f856-4bb1-a39a-0580e4bdd6fe","system_id":"levelo_inurba_marseille","lat":43.3176,"lon":5.39011,"is_reserved":false,"is_disabled":false,"rental_uris":{"android":"levelo://app?vid=6c895aa1-f856-4bb1-a39a-0580e4bdd6fe","ios":"levelo://app?vid=6c895aa1-f856-4bb1-a39a-0580e4bdd6fe"},"vehicle_type_id":"4","last_reported":1730758093,"current_range_meters":4000,"station_id":"ce4bhqp2rcd13ifvqhng","pricing_plan_id":"cebpf4jnsgd1na2vs0mg"},{"bike_id":"12d53c0d-d89e-4e19-abf7-edb534328611","system_id":"levelo_inurba_marseille","lat":43.3025,"lon":5.40054,"is_reserved":false,"is_disabled":false,"rental_uris":{"android":"levelo://app?vid=12d53c0d-d89e-4e19-abf7-edb534328611","ios":"levelo://app?vid=12d53c0d-d89e-4e19-abf7-edb534328611"},"vehicle_type_id":"4","last_reported":1730758093,"current_range_meters":8800,"station_id":"ce4bgvh2rcd13ifvqcs0","pricing_plan_id":"cebpf4jnsgd1na2vs0mg"},{"bike_id":"697dd118-268c-406e-bad8-371dfe74ed47","system_id":"levelo_inurba_marseille","lat":43.31757,"lon":5.39015,"is_reserved":false,"is_disabled":false,"rental_uris":{"android":"levelo://app?vid=697dd118-268c-406e-bad8-371dfe74ed47","ios":"levelo://app?vid=697dd118-268c-406e-bad8-371dfe74ed47"},"vehicle_type_id":"4","last_reported":1730758093,"current_range_meters":36800,"station_id":"ce4bhqp2rcd13ifvqhng","pricing_plan_id":"cebpf4jnsgd1na2vs0mg"},{"bike_id":"cc6dacd3-4d41-4ba3-9ae7-c10a17bcccc1","system_id":"levelo_inurba_marseille","lat":43.27173,"lon":5.40995,"is_reserved":false,"is_disabled":false,"rental_uris":{"android":"levelo://app?vid=cc6dacd3-4d41-4ba3-9ae7-c10a17bcccc1","ios":"levelo://app?vid=cc6dacd3-4d41-4ba3-9ae7-c10a17bcccc1"},"vehicle_type_id":"4","last_reported":1730758093,"current_range_meters":20800,"station_id":"ce4bhl12rcd13ifvqgf0","pricing_plan_id":"cebpf4jnsgd1na2vs0mg"},{"bike_id":"cd6beada-9f09-4aef-8902-9ca2dfbf130c","system_id":"levelo_inurba_marseille","lat":43.32657,"lon":5.41001,"is_reserved":false,"is_disabled":false,"rental_uris":{"android":"levelo://app?vid=cd6beada-9f09-4aef-8902-9ca2dfbf130c","ios":"levelo://app?vid=cd6beada-9f09-4aef-8902-9ca2dfbf130c"},"vehicle_type_id":"4","last_reported":1730758093,"current_range_meters":35600,"station_id":"ce4bhpp2rcd13ifvqhgg","pricing_plan_id":"cebpf4jnsgd1na2vs0mg"},{"bike_id":"fb55b91a-8e06-4813-8c4e-a864dbf76b47","system_id":"levelo_inurba_marseille","lat":43.28105,"lon":5.37839,"is_reserved":false,"is_disabled":false,"rental_uris":{"android":"levelo://app?vid=fb55b91a-8e06-4813-8c4e-a864dbf76b47","ios":"levelo://app?vid=fb55b91a-8e06-4813-8c4e-a864dbf76b47"},"vehicle_type_id":"4","last_reported":1730758093,"current_range_meters":30000,"station_id":"ce4bha12rcd13ifvqee0","pricing_plan_id":"cebpf4jnsgd1na2vs0mg"},{"bike_id":"ba0b5239-2f55-40e3-b795-58e5b6a45c54","system_id":"levelo_inurba_marseille","lat":43.30776,"lon":5.37656,"is_reserved":false,"is_disabled":false,"rental_uris":{"android":"levelo://app?vid=ba0b5239-2f55-40e3-b795-58e5b6a45c54","ios":"levelo://app?vid=ba0b5239-2f55-40e3-b795-58e5b6a45c54"},"vehicle_type_id":"4","last_reported":1730758093,"current_range_meters":38800,"station_id":"ce4bgv92rcd13ifvqcq0","pricing_plan_id":"cebpf4jnsgd1na2vs0mg"},{"bike_id":"fb1e742f-426f-44b1-b969-49f4f93c2973","system_id":"levelo_inurba_marseille","lat":43.29783,"lon":5.39359,"is_reserved":false,"is_disabled":false,"rental_uris":{"android":"levelo://app?vid=fb1e742f-426f-44b1-b969-49f4f93c2973","ios":"levelo://app?vid=fb1e742f-426f-44b1-b969-49f4f93c2973"},"vehicle_type_id":"4","last_reported":1730758093,"current_range_meters":36800,"station_id":"chh1huq6cuj3fo74tm60","pricing_plan_id":"cebpf4jnsgd1na2vs0mg"},{"bike_id":"35db7418-caea-44fa-9677-10c75926c990","system_id":"levelo_inurba_marseille","lat":43.27819,"lon":5.40717,"is_reserved":false,"is_disabled":false,"rental_uris":{"android":"levelo://app?vid=35db7418-caea-44fa-9677-10c75926c990","ios":"levelo://app?vid=35db7418-caea-44fa-9677-10c75926c990"},"vehicle_type_id":"4","last_reported":1730758093,"current_range_meters":14400,"station_id":"ce4bhnh2rcd13ifvqgtg","pricing_plan_id":"cebpf4jnsgd1na2vs0mg"},{"bike_id":"7003b7f5-9c6c-47cc-9530-adc83588b1d3","system_id":"levelo_inurba_marseille","lat":43.31071,"lon":5.38362,"is_reserved":false,"is_disabled":false,"rental_uris":{"android":"levelo://app?vid=7003b7f5-9c6c-47cc-9530-adc83588b1d3","ios":"levelo://app?vid=7003b7f5-9c6c-47cc-9530-adc83588b1d3"},"vehicle_type_id":"4","last_reported":1730758093,"current_range_meters":36400,"station_id":"ce4bgv92rcd13ifvqcr0","pricing_plan_id":"cebpf4jnsgd1na2vs0mg"},{"bike_id":"01f66810-1655-408b-9d69-c62fab5a7cc8","system_id":"levelo_inurba_marseille","lat":43.29794,"lon":5.39344,"is_reserved":false,"is_disabled":false,"rental_uris":{"android":"levelo://app?vid=01f66810-1655-408b-9d69-c62fab5a7cc8","ios":"levelo://app?vid=01f66810-1655-408b-9d69-c62fab5a7cc8"},"vehicle_type_id":"4","last_reported":1730758093,"current_range_meters":36400,"station_id":"chh1huq6cuj3fo74tm60","pricing_plan_id":"cebpf4jnsgd1na2vs0mg"},{"bike_id":"b543fb5a-af02-4ad5-b268-8a02bc55959a","system_id":"levelo_inurba_marseille","lat":43.31497,"lon":5.37311,"is_reserved":false,"is_disabled":false,"rental_uris":{"android":"levelo://app?vid=b543fb5a-af02-4ad5-b268-8a02bc55959a","ios":"levelo://app?vid=b543fb5a-af02-4ad5-b268-8a02bc55959a"},"vehicle_type_id":"4","last_reported":1730758093,"current_range_meters":36800,"station_id":"ce4bgt12rcd13ifvqcd0","pricing_plan_id":"cebpf4jnsgd1na2vs0mg"},{"bike_id":"dc11fb10-7966-4c34-a425-c94a472bc4a8","system_id":"levelo_inurba_marseille","lat":43.28001,"lon":5.40023,"is_reserved":false,"is_disabled":false,"rental_uris":{"android":"levelo://app?vid=dc11fb10-7966-4c34-a425-c94a472bc4a8","ios":"levelo://app?vid=dc11fb10-7966-4c34-a425-c94a472bc4a8"},"vehicle_type_id":"4","last_reported":1730758093,"current_range_meters":39200,"station_id":"ce4bho92rcd13ifvqh4g","pricing_plan_id":"cebpf4jnsgd1na2vs0mg"},{"bike_id":"f9b32f09-4fc6-4fd8-a1d9-57184b69f3d3","system_id":"levelo_inurba_marseille","lat":43.30181,"lon":5.36612,"is_reserved":false,"is_disabled":false,"rental_uris":{"android":"levelo://app?vid=f9b32f09-4fc6-4fd8-a1d9-57184b69f3d3","ios":"levelo://app?vid=f9b32f09-4fc6-4fd8-a1d9-57184b69f3d3"},"vehicle_type_id":"4","last_reported":1730758093,"current_range_meters":35200,"station_id":"ce4bgrh2rcd13ifvqc8g","pricing_plan_id":"cebpf4jnsgd1na2vs0mg"},{"bike_id":"ba04515b-2530-4f99-bfe4-78243134c10b","system_id":"levelo_inurba_marseille","lat":43.280579,"lon":5.409851,"is_reserved":false,"is_disabled":false,"rental_uris":{"android":"levelo://app?vid=ba04515b-2530-4f99-bfe4-78243134c10b","ios":"levelo://app?vid=ba04515b-2530-4f99-bfe4-78243134c10b"},"vehicle_type_id":"4","last_reported":1730758093,"current_range_meters":35200,"station_id":"","pricing_plan_id":"cebpf4jnsgd1na2vs0mg"},{"bike_id":"5bfadea6-7d89-4a6d-bc5b-ce4b0131d5c6","system_id":"levelo_inurba_marseille","lat":43.2857,"lon":5.39498,"is_reserved":false,"is_disabled":false,"rental_uris":{"android":"levelo://app?vid=5bfadea6-7d89-4a6d-bc5b-ce4b0131d5c6","ios":"levelo://app?vid=5bfadea6-7d89-4a6d-bc5b-ce4b0131d5c6"},"vehicle_type_id":"4","last_reported":1730758093,"current_range_meters":33200,"station_id":"ce4bh292rcd13ifvqdg0","pricing_plan_id":"cebpf4jnsgd1na2vs0mg"},{"bike_id":"de93a5ad-f4b7-43a9-a384-d70f5a94dc07","system_id":"levelo_inurba_marseille","lat":43.29521,"lon":5.39405,"is_reserved":false,"is_disabled":false,"rental_uris":{"android":"levelo://app?vid=de93a5ad-f4b7-43a9-a384-d70f5a94dc07","ios":"levelo://app?vid=de93a5ad-f4b7-43a9-a384-d70f5a94dc07"},"vehicle_type_id":"4","last_reported":1730758093,"current_range_meters":28800,"station_id":"ce4bh292rcd13ifvqdf0","pricing_plan_id":"cebpf4jnsgd1na2vs0mg"},{"bike_id":"91ddf3a2-9e64-479c-b406-ec026c267e7e","system_id":"levelo_inurba_marseille","lat":43.28266,"lon":5.35067,"is_reserved":false,"is_disabled":false,"rental_uris":{"android":"levelo://app?vid=91ddf3a2-9e64-479c-b406-ec026c267e7e","ios":"levelo://app?vid=91ddf3a2-9e64-479c-b406-ec026c267e7e"},"vehicle_type_id":"4","last_reported":1730758093,"current_range_meters":8800,"station_id":"ce4bhbp2rcd13ifvqerg","pricing_plan_id":"cebpf4jnsgd1na2vs0mg"},{"bike_id":"819340a6-562b-46a4-9301-df7b52968f6c","system_id":"levelo_inurba_marseille","lat":43.25121,"lon":5.40322,"is_reserved":false,"is_disabled":false,"rental_uris":{"android":"levelo://app?vid=819340a6-562b-46a4-9301-df7b52968f6c","ios":"levelo://app?vid=819340a6-562b-46a4-9301-df7b52968f6c"},"vehicle_type_id":"4","last_reported":1730758093,"current_range_meters":8400,"station_id":"ce4bhlh2rcd13ifvqgig","pricing_plan_id":"cebpf4jnsgd1na2vs0mg"},{"bike_id":"660f9ab5-0ee6-45bd-9ba0-20f4579b8e99","system_id":"levelo_inurba_marseille","lat":43.33599,"lon":5.41022,"is_reserved":false,"is_disabled":false,"rental_uris":{"android":"levelo://app?vid=660f9ab5-0ee6-45bd-9ba0-20f4579b8e99","ios":"levelo://app?vid=660f9ab5-0ee6-45bd-9ba0-20f4579b8e99"},"vehicle_type_id":"4","last_reported":1730758093,"current_range_meters":39200,"station_id":"ce4bhqh2rcd13ifvqhmg","pricing_plan_id":"cebpf4jnsgd1na2vs0mg"},{"bike_id":"194a0437-24f4-46dc-b1b1-f7378512a499","system_id":"levelo_inurba_marseille","lat":43.29245,"lon":5.39819,"is_reserved":false,"is_disabled":false,"rental_uris":{"android":"levelo://app?vid=194a0437-24f4-46dc-b1b1-f7378512a499","ios":"levelo://app?vid=194a0437-24f4-46dc-b1b1-f7378512a499"},"vehicle_type_id":"4","last_reported":1730758093,"current_range_meters":7200,"station_id":"","pricing_plan_id":"cebpf4jnsgd1na2vs0mg"},{"bike_id":"061ef25d-4a75-45e6-8f0d-443c96029c69","system_id":"levelo_inurba_marseille","lat":43.26571,"lon":5.39018,"is_reserved":false,"is_disabled":false,"rental_uris":{"android":"levelo://app?vid=061ef25d-4a75-45e6-8f0d-443c96029c69","ios":"levelo://app?vid=061ef25d-4a75-45e6-8f0d-443c96029c69"},"vehicle_type_id":"4","last_reported":1730758093,"current_range_meters":30400,"station_id":"ce4bhe12rcd13ifvqf30","pricing_plan_id":"cebpf4jnsgd1na2vs0mg"},{"bike_id":"5fc9e1bd-0406-4ef1-8fbc-71d62631ecd1","system_id":"levelo_inurba_marseille","lat":43.29191,"lon":5.39322,"is_reserved":false,"is_disabled":false,"rental_uris":{"android":"levelo://app?vid=5fc9e1bd-0406-4ef1-8fbc-71d62631ecd1","ios":"levelo://app?vid=5fc9e1bd-0406-4ef1-8fbc-71d62631ecd1"},"vehicle_type_id":"4","last_reported":1730758093,"current_range_meters":22400,"station_id":"ce4bh192rcd13ifvqdd0","pricing_plan_id":"cebpf4jnsgd1na2vs0mg"},{"bike_id":"d844a569-2803-4908-ac9c-866a60aea8c4","system_id":"levelo_inurba_marseille","lat":43.29864,"lon":5.39739,"is_reserved":false,"is_disabled":false,"rental_uris":{"android":"levelo://app?vid=d844a569-2803-4908-ac9c-866a60aea8c4","ios":"levelo://app?vid=d844a569-2803-4908-ac9c-866a60aea8c4"},"vehicle_type_id":"4","last_reported":1730758093,"current_range_meters":39200,"station_id":"ce4bh0h2rcd13ifvqd50","pricing_plan_id":"cebpf4jnsgd1na2vs0mg"},{"bike_id":"32226b21-dbcc-474c-9004-398b3fdc8208","system_id":"levelo_inurba_marseille","lat":43.28453,"lon":5.35882,"is_reserved":false,"is_disabled":false,"rental_uris":{"android":"levelo://app?vid=32226b21-dbcc-474c-9004-398b3fdc8208","ios":"levelo://app?vid=32226b21-dbcc-474c-9004-398b3fdc8208"},"vehicle_type_id":"4","last_reported":1730758093,"current_range_meters":38800,"station_id":"ce4bhah2rcd13ifvqei0","pricing_plan_id":"cebpf4jnsgd1na2vs0mg"},{"bike_id":"bfc7a472-a33f-4d68-bca5-3040824e0155","system_id":"levelo_inurba_marseille","lat":43.2992,"lon":5.37477,"is_reserved":false,"is_disabled":false,"rental_uris":{"android":"levelo://app?vid=bfc7a472-a33f-4d68-bca5-3040824e0155","ios":"levelo://app?vid=bfc7a472-a33f-4d68-bca5-3040824e0155"},"vehicle_type_id":"4","last_reported":1730758093,"current_range_meters":39200,"station_id":"ce4bgjh2rcd13ifvqbg0","pricing_plan_id":"cebpf4jnsgd1na2vs0mg"},{"bike_id":"bca824f0-899b-496e-9d3d-f554eb5cdf79","system_id":"levelo_inurba_marseille","lat":43.297089,"lon":5.38073,"is_reserved":false,"is_disabled":false,"rental_uris":{"android":"levelo://app?vid=bca824f0-899b-496e-9d3d-f554eb5cdf79","ios":"levelo://app?vid=bca824f0-899b-496e-9d3d-f554eb5cdf79"},"vehicle_type_id":"4","last_reported":1730758093,"current_range_meters":17200,"station_id":"ce4bh092rcd13ifvqd20","pricing_plan_id":"cebpf4jnsgd1na2vs0mg"},{"bike_id":"8e11a423-f1bd-46aa-b37b-5165df3156db","system_id":"levelo_inurba_marseille","lat":43.29519,"lon":5.39044,"is_reserved":false,"is_disabled":false,"rental_uris":{"android":"levelo://app?vid=8e11a423-f1bd-46aa-b37b-5165df3156db","ios":"levelo://app?vid=8e11a423-f1bd-46aa-b37b-5165df3156db"},"vehicle_type_id":"4","last_reported":1730758093,"current_range_meters":16800,"station_id":"ce4bhq92rcd13ifvqhjg","pricing_plan_id":"cebpf4jnsgd1na2vs0mg"},{"bike_id":"cb3e0f7a-2749-41ab-b789-484e25d26bc7","system_id":"levelo_inurba_marseille","lat":43.29789,"lon":5.37101,"is_reserved":false,"is_disabled":false,"rental_uris":{"android":"levelo://app?vid=cb3e0f7a-2749-41ab-b789-484e25d26bc7","ios":"levelo://app?vid=cb3e0f7a-2749-41ab-b789-484e25d26bc7"},"vehicle_type_id":"4","last_reported":1730758093,"current_range_meters":17200,"station_id":"ce4bgop2rcd13ifvqc1g","pricing_plan_id":"cebpf4jnsgd1na2vs0mg"},{"bike_id":"823967de-5ba0-4689-8bf8-641b466fd8b1","system_id":"levelo_inurba_marseille","lat":43.23195,"lon":5.35543,"is_reserved":false,"is_disabled":false,"rental_uris":{"android":"levelo://app?vid=823967de-5ba0-4689-8bf8-641b466fd8b1","ios":"levelo://app?vid=823967de-5ba0-4689-8bf8-641b466fd8b1"},"vehicle_type_id":"4","last_reported":1730758093,"current_range_meters":38800,"station_id":"ce4bhu92rcd13ifvqi70","pricing_plan_id":"cebpf4jnsgd1na2vs0mg"},{"bike_id":"df2000e4-7ce1-46ba-980f-a90a63f2d7a2","system_id":"levelo_inurba_marseille","lat":43.29849,"lon":5.36285,"is_reserved":false,"is_disabled":false,"rental_uris":{"android":"levelo://app?vid=df2000e4-7ce1-46ba-980f-a90a63f2d7a2","ios":"levelo://app?vid=df2000e4-7ce1-46ba-980f-a90a63f2d7a2"},"vehicle_type_id":"4","last_reported":1730758093,"current_range_meters":38800,"station_id":"ce4bgpp2rcd13ifvqc3g","pricing_plan_id":"cebpf4jnsgd1na2vs0mg"},{"bike_id":"65557df6-2816-42b1-b18c-f4f90151d698","system_id":"levelo_inurba_marseille","lat":43.3137,"lon":5.38501,"is_reserved":false,"is_disabled":false,"rental_uris":{"android":"levelo://app?vid=65557df6-2816-42b1-b18c-f4f90151d698","ios":"levelo://app?vid=65557df6-2816-42b1-b18c-f4f90151d698"},"vehicle_type_id":"4","last_reported":1730758093,"current_range_meters":38400,"station_id":"ce4bgt92rcd13ifvqcf0","pricing_plan_id":"cebpf4jnsgd1na2vs0mg"},{"bike_id":"484e26c0-df19-4702-80bc-1033455ece33","system_id":"levelo_inurba_marseille","lat":43.26684,"lon":5.38264,"is_reserved":false,"is_disabled":false,"rental_uris":{"android":"levelo://app?vid=484e26c0-df19-4702-80bc-1033455ece33","ios":"levelo://app?vid=484e26c0-df19-4702-80bc-1033455ece33"},"vehicle_type_id":"4","last_reported":1730758093,"current_range_meters":28400,"station_id":"ce4bhg92rcd13ifvqf90","pricing_plan_id":"cebpf4jnsgd1na2vs0mg"},{"bike_id":"371ed9b9-117f-4304-a294-be3251d3642c","system_id":"levelo_inurba_marseille","lat":43.31755,"lon":5.39017,"is_reserved":false,"is_disabled":false,"rental_uris":{"android":"levelo://app?vid=371ed9b9-117f-4304-a294-be3251d3642c","ios":"levelo://app?vid=371ed9b9-117f-4304-a294-be3251d3642c"},"vehicle_type_id":"4","last_reported":1730758093,"current_range_meters":28800,"station_id":"ce4bhqp2rcd13ifvqhng","pricing_plan_id":"cebpf4jnsgd1na2vs0mg"},{"bike_id":"952d3c9f-096e-4042-9ee5-ace51a8b176b","system_id":"levelo_inurba_marseille","lat":43.2956,"lon":5.42291,"is_reserved":false,"is_disabled":false,"rental_uris":{"android":"levelo://app?vid=952d3c9f-096e-4042-9ee5-ace51a8b176b","ios":"levelo://app?vid=952d3c9f-096e-4042-9ee5-ace51a8b176b"},"vehicle_type_id":"4","last_reported":1730758093,"current_range_meters":37600,"station_id":"ce4bhph2rcd13ifvqhdg","pricing_plan_id":"cebpf4jnsgd1na2vs0mg"},{"bike_id":"99e882d5-29de-49d7-b824-19e3a26af3e8","system_id":"levelo_inurba_marseille","lat":43.29936,"lon":5.36536,"is_reserved":false,"is_disabled":false,"rental_uris":{"android":"levelo://app?vid=99e882d5-29de-49d7-b824-19e3a26af3e8","ios":"levelo://app?vid=99e882d5-29de-49d7-b824-19e3a26af3e8"},"vehicle_type_id":"4","last_reported":1730758093,"current_range_meters":19200,"station_id":"ce4bgm92rcd13ifvqbr0","pricing_plan_id":"cebpf4jnsgd1na2vs0mg"},{"bike_id":"fee5ca3f-af5f-4ea9-bb9c-70e28ead54f9","system_id":"levelo_inurba_marseille","lat":43.299164,"lon":5.374715,"is_reserved":false,"is_disabled":false,"rental_uris":{"android":"levelo://app?vid=fee5ca3f-af5f-4ea9-bb9c-70e28ead54f9","ios":"levelo://app?vid=fee5ca3f-af5f-4ea9-bb9c-70e28ead54f9"},"vehicle_type_id":"4","last_reported":1730758093,"current_range_meters":1200,"station_id":"ce4bgjh2rcd13ifvqbg0","pricing_plan_id":"cebpf4jnsgd1na2vs0mg"},{"bike_id":"b97d231f-b06d-444f-93ba-90193ccee906","system_id":"levelo_inurba_marseille","lat":43.25084,"lon":5.39513,"is_reserved":false,"is_disabled":false,"rental_uris":{"android":"levelo://app?vid=b97d231f-b06d-444f-93ba-90193ccee906","ios":"levelo://app?vid=b97d231f-b06d-444f-93ba-90193ccee906"},"vehicle_type_id":"4","last_reported":1730758093,"current_range_meters":38000,"station_id":"ce4bhm12rcd13ifvqgkg","pricing_plan_id":"cebpf4jnsgd1na2vs0mg"},{"bike_id":"ed3cc475-9352-4500-9e2a-f8144dc4b6f1","system_id":"levelo_inurba_marseille","lat":43.33018,"lon":5.39047,"is_reserved":false,"is_disabled":false,"rental_uris":{"android":"levelo://app?vid=ed3cc475-9352-4500-9e2a-f8144dc4b6f1","ios":"levelo://app?vid=ed3cc475-9352-4500-9e2a-f8144dc4b6f1"},"vehicle_type_id":"4","last_reported":1730758093,"current_range_meters":39200,"station_id":"ce4bhr92rcd13ifvqhrg","pricing_plan_id":"cebpf4jnsgd1na2vs0mg"},{"bike_id":"70564515-7b78-4a47-885c-ce95b9b32f7b","system_id":"levelo_inurba_marseille","lat":43.2307,"lon":5.35491,"is_reserved":false,"is_disabled":false,"rental_uris":{"android":"levelo://app?vid=70564515-7b78-4a47-885c-ce95b9b32f7b","ios":"levelo://app?vid=70564515-7b78-4a47-885c-ce95b9b32f7b"},"vehicle_type_id":"4","last_reported":1730758093,"current_range_meters":34800,"station_id":"cpo3342slgdg3j2ifvpg","pricing_plan_id":"cebpf4jnsgd1na2vs0mg"},{"bike_id":"683d5dbe-5bd3-40ba-ae6e-0a3d7f949763","system_id":"levelo_inurba_marseille","lat":43.27984,"lon":5.3874,"is_reserved":false,"is_disabled":false,"rental_uris":{"android":"levelo://app?vid=683d5dbe-5bd3-40ba-ae6e-0a3d7f949763","ios":"levelo://app?vid=683d5dbe-5bd3-40ba-ae6e-0a3d7f949763"},"vehicle_type_id":"4","last_reported":1730758093,"current_range_meters":18000,"station_id":"ce4bhg12rcd13ifvqf80","pricing_plan_id":"cebpf4jnsgd1na2vs0mg"},{"bike_id":"b90d4090-0f79-4cab-ad4f-de4c68b41e53","system_id":"levelo_inurba_marseille","lat":43.29713,"lon":5.36624,"is_reserved":false,"is_disabled":false,"rental_uris":{"android":"levelo://app?vid=b90d4090-0f79-4cab-ad4f-de4c68b41e53","ios":"levelo://app?vid=b90d4090-0f79-4cab-ad4f-de4c68b41e53"},"vehicle_type_id":"4","last_reported":1730758093,"current_range_meters":38800,"station_id":"ce4bgn12rcd13ifvqbt0","pricing_plan_id":"cebpf4jnsgd1na2vs0mg"},{"bike_id":"9f376b10-d50e-4eca-b2c0-88629c3daaaf","system_id":"levelo_inurba_marseille","lat":43.28448,"lon":5.39211,"is_reserved":false,"is_disabled":false,"rental_uris":{"android":"levelo://app?vid=9f376b10-d50e-4eca-b2c0-88629c3daaaf","ios":"levelo://app?vid=9f376b10-d50e-4eca-b2c0-88629c3daaaf"},"vehicle_type_id":"4","last_reported":1730758093,"current_range_meters":38800,"station_id":"ce4bhoh2rcd13ifvqh5g","pricing_plan_id":"cebpf4jnsgd1na2vs0mg"},{"bike_id":"7a58136c-3165-4313-8fac-2c364b399752","system_id":"levelo_inurba_marseille","lat":43.33725,"lon":5.39195,"is_reserved":false,"is_disabled":false,"rental_uris":{"android":"levelo://app?vid=7a58136c-3165-4313-8fac-2c364b399752","ios":"levelo://app?vid=7a58136c-3165-4313-8fac-2c364b399752"},"vehicle_type_id":"4","last_reported":1730758093,"current_range_meters":26800,"station_id":"ce4bhr92rcd13ifvqhsg","pricing_plan_id":"cebpf4jnsgd1na2vs0mg"},{"bike_id":"a422d3ad-87b5-492e-ad8f-69176f6bde58","system_id":"levelo_inurba_marseille","lat":43.30432,"lon":5.38902,"is_reserved":false,"is_disabled":false,"rental_uris":{"android":"levelo://app?vid=a422d3ad-87b5-492e-ad8f-69176f6bde58","ios":"levelo://app?vid=a422d3ad-87b5-492e-ad8f-69176f6bde58"},"vehicle_type_id":"4","last_reported":1730758093,"current_range_meters":11200,"station_id":"ce4bgk12rcd13ifvqbi0","pricing_plan_id":"cebpf4jnsgd1na2vs0mg"},{"bike_id":"eeb4ba85-95a0-470b-8187-12bea3eb846a","system_id":"levelo_inurba_marseille","lat":43.29068,"lon":5.3718,"is_reserved":false,"is_disabled":false,"rental_uris":{"android":"levelo://app?vid=eeb4ba85-95a0-470b-8187-12bea3eb846a","ios":"levelo://app?vid=eeb4ba85-95a0-470b-8187-12bea3eb846a"},"vehicle_type_id":"4","last_reported":1730758093,"current_range_meters":22400,"station_id":"ce4bh5p2rcd13ifvqe4g","pricing_plan_id":"cebpf4jnsgd1na2vs0mg"},{"bike_id":"d53b57e5-6868-433d-b990-24fcbe41bcf1","system_id":"levelo_inurba_marseille","lat":43.2757,"lon":5.38435,"is_reserved":false,"is_disabled":false,"rental_uris":{"android":"levelo://app?vid=d53b57e5-6868-433d-b990-24fcbe41bcf1","ios":"levelo://app?vid=d53b57e5-6868-433d-b990-24fcbe41bcf1"},"vehicle_type_id":"4","last_reported":1730758093,"current_range_meters":28800,"station_id":"ce4bhh92rcd13ifvqfi0","pricing_plan_id":"cebpf4jnsgd1na2vs0mg"},{"bike_id":"7248f01a-c809-467e-8a9f-115d104cfd36","system_id":"levelo_inurba_marseille","lat":43.30138,"lon":5.38797,"is_reserved":false,"is_disabled":false,"rental_uris":{"android":"levelo://app?vid=7248f01a-c809-467e-8a9f-115d104cfd36","ios":"levelo://app?vid=7248f01a-c809-467e-8a9f-115d104cfd36"},"vehicle_type_id":"4","last_reported":1730758093,"current_range_meters":37600,"station_id":"ce4bghh2rcd13ifvqb60","pricing_plan_id":"cebpf4jnsgd1na2vs0mg"},{"bike_id":"a8758df9-3f5a-492e-a2ad-bc762183546e","system_id":"levelo_inurba_marseille","lat":43.28418,"lon":5.37502,"is_reserved":false,"is_disabled":false,"rental_uris":{"android":"levelo://app?vid=a8758df9-3f5a-492e-a2ad-bc762183546e","ios":"levelo://app?vid=a8758df9-3f5a-492e-a2ad-bc762183546e"},"vehicle_type_id":"4","last_reported":1730758093,"current_range_meters":9600,"station_id":"ce4bh412rcd13ifvqds0","pricing_plan_id":"cebpf4jnsgd1na2vs0mg"},{"bike_id":"eb1b101c-373a-4e26-af89-f24812d1d223","system_id":"levelo_inurba_marseille","lat":43.32054,"lon":5.41557,"is_reserved":false,"is_disabled":false,"rental_uris":{"android":"levelo://app?vid=eb1b101c-373a-4e26-af89-f24812d1d223","ios":"levelo://app?vid=eb1b101c-373a-4e26-af89-f24812d1d223"},"vehicle_type_id":"4","last_reported":1730758093,"current_range_meters":37600,"station_id":"ce4bhq92rcd13ifvqhkg","pricing_plan_id":"cebpf4jnsgd1na2vs0mg"},{"bike_id":"eab47ed5-f83a-4939-80d1-ff052743bdd1","system_id":"levelo_inurba_marseille","lat":43.32111,"lon":5.36779,"is_reserved":false,"is_disabled":false,"rental_uris":{"android":"levelo://app?vid=eab47ed5-f83a-4939-80d1-ff052743bdd1","ios":"levelo://app?vid=eab47ed5-f83a-4939-80d1-ff052743bdd1"},"vehicle_type_id":"4","last_reported":1730758093,"current_range_meters":34000,"station_id":"ce4bhrh2rcd13ifvqhug","pricing_plan_id":"cebpf4jnsgd1na2vs0mg"},{"bike_id":"a0be6000-a8f5-4b39-a1ab-df18f1dd4304","system_id":"levelo_inurba_marseille","lat":43.28345,"lon":5.38105,"is_reserved":false,"is_disabled":false,"rental_uris":{"android":"levelo://app?vid=a0be6000-a8f5-4b39-a1ab-df18f1dd4304","ios":"levelo://app?vid=a0be6000-a8f5-4b39-a1ab-df18f1dd4304"},"vehicle_type_id":"4","last_reported":1730758093,"current_range_meters":18000,"station_id":"ce4bh412rcd13ifvqdr0","pricing_plan_id":"cebpf4jnsgd1na2vs0mg"},{"bike_id":"5b041e65-a357-4f5f-8060-dee3ef26553f","system_id":"levelo_inurba_marseille","lat":43.26203,"lon":5.3793,"is_reserved":false,"is_disabled":false,"rental_uris":{"android":"levelo://app?vid=5b041e65-a357-4f5f-8060-dee3ef26553f","ios":"levelo://app?vid=5b041e65-a357-4f5f-8060-dee3ef26553f"},"vehicle_type_id":"4","last_reported":1730758093,"current_range_meters":28000,"station_id":"ce4bhjp2rcd13ifvqg90","pricing_plan_id":"cebpf4jnsgd1na2vs0mg"},{"bike_id":"02dbcd6c-8390-4265-bdef-38c0c6b3b526","system_id":"levelo_inurba_marseille","lat":43.26057,"lon":5.39394,"is_reserved":false,"is_disabled":false,"rental_uris":{"android":"levelo://app?vid=02dbcd6c-8390-4265-bdef-38c0c6b3b526","ios":"levelo://app?vid=02dbcd6c-8390-4265-bdef-38c0c6b3b526"},"vehicle_type_id":"4","last_reported":1730758093,"current_range_meters":4400,"station_id":"ce4bhh92rcd13ifvqfj0","pricing_plan_id":"cebpf4jnsgd1na2vs0mg"},{"bike_id":"d7a411fb-32c0-4524-bcdb-bc40bfeaca08","system_id":"levelo_inurba_marseille","lat":43.269416,"lon":5.402455,"is_reserved":false,"is_disabled":false,"rental_uris":{"android":"levelo://app?vid=d7a411fb-32c0-4524-bcdb-bc40bfeaca08","ios":"levelo://app?vid=d7a411fb-32c0-4524-bcdb-bc40bfeaca08"},"vehicle_type_id":"4","last_reported":1730758093,"current_range_meters":40000,"station_id":"cjm6bp8fraef2m0cb0m0","pricing_plan_id":"cebpf4jnsgd1na2vs0mg"},{"bike_id":"eeb6fa2a-003b-4e78-b5b2-99abb33a724d","system_id":"levelo_inurba_marseille","lat":43.29568,"lon":5.39974,"is_reserved":false,"is_disabled":false,"rental_uris":{"android":"levelo://app?vid=eeb6fa2a-003b-4e78-b5b2-99abb33a724d","ios":"levelo://app?vid=eeb6fa2a-003b-4e78-b5b2-99abb33a724d"},"vehicle_type_id":"4","last_reported":1730758093,"current_range_meters":38800,"station_id":"ce4bh312rcd13ifvqdj0","pricing_plan_id":"cebpf4jnsgd1na2vs0mg"},{"bike_id":"ce8e5906-0d4f-4085-a6e2-c7f244080cc6","system_id":"levelo_inurba_marseille","lat":43.32285,"lon":5.38277,"is_reserved":false,"is_disabled":false,"rental_uris":{"android":"levelo://app?vid=ce8e5906-0d4f-4085-a6e2-c7f244080cc6","ios":"levelo://app?vid=ce8e5906-0d4f-4085-a6e2-c7f244080cc6"},"vehicle_type_id":"4","last_reported":1730758093,"current_range_meters":39200,"station_id":"ce4bhr12rcd13ifvqhqg","pricing_plan_id":"cebpf4jnsgd1na2vs0mg"},{"bike_id":"c1a3850b-58a8-40e1-822b-5a6aa55801a2","system_id":"levelo_inurba_marseille","lat":43.30134,"lon":5.39861,"is_reserved":false,"is_disabled":false,"rental_uris":{"android":"levelo://app?vid=c1a3850b-58a8-40e1-822b-5a6aa55801a2","ios":"levelo://app?vid=c1a3850b-58a8-40e1-822b-5a6aa55801a2"},"vehicle_type_id":"4","last_reported":1730758093,"current_range_meters":39200,"station_id":"ce4bh0h2rcd13ifvqd40","pricing_plan_id":"cebpf4jnsgd1na2vs0mg"},{"bike_id":"6c6f793a-b4ae-48da-ab03-1e7093a0eced","system_id":"levelo_inurba_marseille","lat":43.28566,"lon":5.39497,"is_reserved":false,"is_disabled":false,"rental_uris":{"android":"levelo://app?vid=6c6f793a-b4ae-48da-ab03-1e7093a0eced","ios":"levelo://app?vid=6c6f793a-b4ae-48da-ab03-1e7093a0eced"},"vehicle_type_id":"4","last_reported":1730758093,"current_range_meters":40000,"station_id":"ce4bh292rcd13ifvqdg0","pricing_plan_id":"cebpf4jnsgd1na2vs0mg"},{"bike_id":"061af2b2-d26c-4fd5-bc63-3604d8d8b438","system_id":"levelo_inurba_marseille","lat":43.26802,"lon":5.40266,"is_reserved":false,"is_disabled":false,"rental_uris":{"android":"levelo://app?vid=061af2b2-d26c-4fd5-bc63-3604d8d8b438","ios":"levelo://app?vid=061af2b2-d26c-4fd5-bc63-3604d8d8b438"},"vehicle_type_id":"4","last_reported":1730758093,"current_range_meters":24800,"station_id":"ce501612rcd8frsf0b60","pricing_plan_id":"cebpf4jnsgd1na2vs0mg"},{"bike_id":"17b21d05-68c9-4983-a221-7a75089ec945","system_id":"levelo_inurba_marseille","lat":43.27809,"lon":5.40706,"is_reserved":false,"is_disabled":false,"rental_uris":{"android":"levelo://app?vid=17b21d05-68c9-4983-a221-7a75089ec945","ios":"levelo://app?vid=17b21d05-68c9-4983-a221-7a75089ec945"},"vehicle_type_id":"4","last_reported":1730758093,"current_range_meters":38000,"station_id":"ce4bhnh2rcd13ifvqgtg","pricing_plan_id":"cebpf4jnsgd1na2vs0mg"},{"bike_id":"260fa75a-01a4-4465-ba93-2899bc76795b","system_id":"levelo_inurba_marseille","lat":43.27069,"lon":5.42273,"is_reserved":false,"is_disabled":false,"rental_uris":{"android":"levelo://app?vid=260fa75a-01a4-4465-ba93-2899bc76795b","ios":"levelo://app?vid=260fa75a-01a4-4465-ba93-2899bc76795b"},"vehicle_type_id":"4","last_reported":1730758093,"current_range_meters":20400,"station_id":"ce4bhk92rcd13ifvqgb0","pricing_plan_id":"cebpf4jnsgd1na2vs0mg"},{"bike_id":"c2ab1373-b2da-4300-9c5b-f62a7f827980","system_id":"levelo_inurba_marseille","lat":43.27568,"lon":5.38422,"is_reserved":false,"is_disabled":false,"rental_uris":{"android":"levelo://app?vid=c2ab1373-b2da-4300-9c5b-f62a7f827980","ios":"levelo://app?vid=c2ab1373-b2da-4300-9c5b-f62a7f827980"},"vehicle_type_id":"4","last_reported":1730758093,"current_range_meters":21600,"station_id":"ce4bhh92rcd13ifvqfi0","pricing_plan_id":"cebpf4jnsgd1na2vs0mg"},{"bike_id":"4045aee7-8160-400e-b3b0-5deaa0bf98f8","system_id":"levelo_inurba_marseille","lat":43.29877,"lon":5.39737,"is_reserved":false,"is_disabled":false,"rental_uris":{"android":"levelo://app?vid=4045aee7-8160-400e-b3b0-5deaa0bf98f8","ios":"levelo://app?vid=4045aee7-8160-400e-b3b0-5deaa0bf98f8"},"vehicle_type_id":"4","last_reported":1730758093,"current_range_meters":19200,"station_id":"ce4bh0h2rcd13ifvqd50","pricing_plan_id":"cebpf4jnsgd1na2vs0mg"},{"bike_id":"8a010bec-a8c4-4b9d-8b98-c94b6f7ea998","system_id":"levelo_inurba_marseille","lat":43.29628,"lon":5.406,"is_reserved":false,"is_disabled":false,"rental_uris":{"android":"levelo://app?vid=8a010bec-a8c4-4b9d-8b98-c94b6f7ea998","ios":"levelo://app?vid=8a010bec-a8c4-4b9d-8b98-c94b6f7ea998"},"vehicle_type_id":"4","last_reported":1730758093,"current_range_meters":35200,"station_id":"ce4bh0h2rcd13ifvqd60","pricing_plan_id":"cebpf4jnsgd1na2vs0mg"},{"bike_id":"4b49e3b9-fa65-43e0-9263-416c68d23984","system_id":"levelo_inurba_marseille","lat":43.30182,"lon":5.36624,"is_reserved":false,"is_disabled":false,"rental_uris":{"android":"levelo://app?vid=4b49e3b9-fa65-43e0-9263-416c68d23984","ios":"levelo://app?vid=4b49e3b9-fa65-43e0-9263-416c68d23984"},"vehicle_type_id":"4","last_reported":1730758093,"current_range_meters":39200,"station_id":"ce4bgrh2rcd13ifvqc8g","pricing_plan_id":"cebpf4jnsgd1na2vs0mg"},{"bike_id":"69d728d9-309b-4a8b-a56b-95b3944c9f36","system_id":"levelo_inurba_marseille","lat":43.311661,"lon":5.387131,"is_reserved":false,"is_disabled":false,"rental_uris":{"android":"levelo://app?vid=69d728d9-309b-4a8b-a56b-95b3944c9f36","ios":"levelo://app?vid=69d728d9-309b-4a8b-a56b-95b3944c9f36"},"vehicle_type_id":"4","last_reported":1730758093,"current_range_meters":10800,"station_id":"ce4bgv12rcd13ifvqcp0","pricing_plan_id":"cebpf4jnsgd1na2vs0mg"},{"bike_id":"eacad915-093e-4dfe-b81f-285eace3d477","system_id":"levelo_inurba_marseille","lat":43.25716,"lon":5.41123,"is_reserved":false,"is_disabled":false,"rental_uris":{"android":"levelo://app?vid=eacad915-093e-4dfe-b81f-285eace3d477","ios":"levelo://app?vid=eacad915-093e-4dfe-b81f-285eace3d477"},"vehicle_type_id":"4","last_reported":1730758093,"current_range_meters":38800,"station_id":"ce4bhkp2rcd13ifvqgd0","pricing_plan_id":"cebpf4jnsgd1na2vs0mg"},{"bike_id":"6b203e94-dbf2-4a85-aba6-861192269bba","system_id":"levelo_inurba_marseille","lat":43.23956,"lon":5.36626,"is_reserved":false,"is_disabled":false,"rental_uris":{"android":"levelo://app?vid=6b203e94-dbf2-4a85-aba6-861192269bba","ios":"levelo://app?vid=6b203e94-dbf2-4a85-aba6-861192269bba"},"vehicle_type_id":"4","last_reported":1730758093,"current_range_meters":12800,"station_id":"ce4bhi12rcd13ifvqfp0","pricing_plan_id":"cebpf4jnsgd1na2vs0mg"},{"bike_id":"937d9d32-4190-4f15-8672-8583105f5f78","system_id":"levelo_inurba_marseille","lat":43.27911,"lon":5.38012,"is_reserved":false,"is_disabled":false,"rental_uris":{"android":"levelo://app?vid=937d9d32-4190-4f15-8672-8583105f5f78","ios":"levelo://app?vid=937d9d32-4190-4f15-8672-8583105f5f78"},"vehicle_type_id":"4","last_reported":1730758093,"current_range_meters":36800,"station_id":"ce4bhf92rcd13ifvqf50","pricing_plan_id":"cebpf4jnsgd1na2vs0mg"},{"bike_id":"cb67bb56-cc54-409f-bfb4-1716c4daf1af","system_id":"levelo_inurba_marseille","lat":43.3107,"lon":5.38345,"is_reserved":false,"is_disabled":false,"rental_uris":{"android":"levelo://app?vid=cb67bb56-cc54-409f-bfb4-1716c4daf1af","ios":"levelo://app?vid=cb67bb56-cc54-409f-bfb4-1716c4daf1af"},"vehicle_type_id":"4","last_reported":1730758093,"current_range_meters":38400,"station_id":"ce4bgv92rcd13ifvqcr0","pricing_plan_id":"cebpf4jnsgd1na2vs0mg"},{"bike_id":"db31db70-cc20-4b5f-acb8-538f14a09b27","system_id":"levelo_inurba_marseille","lat":43.23188,"lon":5.39987,"is_reserved":false,"is_disabled":false,"rental_uris":{"android":"levelo://app?vid=db31db70-cc20-4b5f-acb8-538f14a09b27","ios":"levelo://app?vid=db31db70-cc20-4b5f-acb8-538f14a09b27"},"vehicle_type_id":"4","last_reported":1730758093,"current_range_meters":37600,"station_id":"ce4bhn12rcd13ifvqgqg","pricing_plan_id":"cebpf4jnsgd1na2vs0mg"},{"bike_id":"c4c0de2f-a87e-415a-bc12-145e90238b59","system_id":"levelo_inurba_marseille","lat":43.279453,"lon":5.410414,"is_reserved":false,"is_disabled":false,"rental_uris":{"android":"levelo://app?vid=c4c0de2f-a87e-415a-bc12-145e90238b59","ios":"levelo://app?vid=c4c0de2f-a87e-415a-bc12-145e90238b59"},"vehicle_type_id":"4","last_reported":1730758093,"current_range_meters":9200,"station_id":"ce4bhnp2rcd13ifvqh0g","pricing_plan_id":"cebpf4jnsgd1na2vs0mg"},{"bike_id":"315c1c1d-520a-4ffa-a5e3-1531060d087e","system_id":"levelo_inurba_marseille","lat":43.31526,"lon":5.38033,"is_reserved":false,"is_disabled":false,"rental_uris":{"android":"levelo://app?vid=315c1c1d-520a-4ffa-a5e3-1531060d087e","ios":"levelo://app?vid=315c1c1d-520a-4ffa-a5e3-1531060d087e"},"vehicle_type_id":"4","last_reported":1730758093,"current_range_meters":18000,"station_id":"ce4bhsp2rcd13ifvqi50","pricing_plan_id":"cebpf4jnsgd1na2vs0mg"},{"bike_id":"e60cb3b9-f0a8-4d1f-9ec7-fe893071610d","system_id":"levelo_inurba_marseille","lat":43.30443,"lon":5.388835,"is_reserved":false,"is_disabled":false,"rental_uris":{"android":"levelo://app?vid=e60cb3b9-f0a8-4d1f-9ec7-fe893071610d","ios":"levelo://app?vid=e60cb3b9-f0a8-4d1f-9ec7-fe893071610d"},"vehicle_type_id":"4","last_reported":1730758093,"current_range_meters":38800,"station_id":"ce4bgk12rcd13ifvqbi0","pricing_plan_id":"cebpf4jnsgd1na2vs0mg"},{"bike_id":"37ef2ca3-2c43-4d66-9992-5cf3dddabb46","system_id":"levelo_inurba_marseille","lat":43.31073,"lon":5.3835,"is_reserved":false,"is_disabled":false,"rental_uris":{"android":"levelo://app?vid=37ef2ca3-2c43-4d66-9992-5cf3dddabb46","ios":"levelo://app?vid=37ef2ca3-2c43-4d66-9992-5cf3dddabb46"},"vehicle_type_id":"4","last_reported":1730758093,"current_range_meters":12800,"station_id":"ce4bgv92rcd13ifvqcr0","pricing_plan_id":"cebpf4jnsgd1na2vs0mg"},