{"last_updated":1687370908,"ttl":30,"version":"2.2","data":{"bikes":[{"bike_id":"ccc828d3-7e91-45d8-befc-c97a4d425cf6","system_id":"levelo_inurba_marseille","lat":43.313391,"lon":5.36706,"is_reserved":false,"is_disabled":false,"rental_uris":{"android":"levelo://app?vid=ccc828d3-7e91-45d8-befc-c97a4d425cf6","ios":"levelo://app?vid=ccc828d3-7e91-45d8-befc-c97a4d425cf6"},"vehicle_type_id":"4","last_reported":1687370909,"current_range_meters":2000,"station_id":"ce4bgr92rcd13ifvqc6g","pricing_plan_id":"free"},{"bike_id":"0530671b-510d-4848-b6e8-33fe8f78f898","system_id":"levelo_inurba_marseille","lat":43.313391,"lon":5.36706,"is_reserved":false,"is_disabled":false,"rental_uris":{"android":"levelo://app?vid=0530671b-510d-4848-b6e8-33fe8f78f898","ios":"levelo://app?vid=0530671b-510d-4848-b6e8-33fe8f78f898"},"vehicle_type_id":"4","last_reported":1687370909,"current_range_meters":400,"station_id":"ce4bgr92rcd13ifvqc6g","pricing_plan_id":"free"},{"bike_id":"6e4fd040-1866-4783-872c-dd21a7ae18af","system_id":"levelo_inurba_marseille","lat":43.31354,"lon":5.37064,"is_reserved":false,"is_disabled":false,"rental_uris":{"android":"levelo://app?vid=6e4fd040-1866-4783-872c-dd21a7ae18af","ios":"levelo://app?vid=6e4fd040-1866-4783-872c-dd21a7ae18af"},"vehicle_type_id":"4","last_reported":1687370909,"current_range_meters":8800,"station_id":"","pricing_plan_id":"free"},{"bike_id":"aac2ac87-b5ab-4c9b-aff3-a1eb35991277","system_id":"levelo_inurba_marseille","lat":43.308606,"lon":5.372099,"is_reserved":false,"is_disabled":false,"rental_uris":{"android":"levelo://app?vid=aac2ac87-b5ab-4c9b-aff3-a1eb35991277","ios":"levelo://app?vid=aac2ac87-b5ab-4c9b-aff3-a1eb35991277"},"vehicle_type_id":"4","last_reported":1687370909,"current_range_meters":21200,"station_id":"ce4bguh2rcd13ifvqckg","pricing_plan_id":"free"},{"bike_id":"d01929e6-4a04-4118-af12-4ffdfcec1b49","system_id":"levelo_inurba_marseille","lat":43.308606,"lon":5.372099,"is_reserved":false,"is_disabled":false,"rental_uris":{"android":"levelo://app?vid=d01929e6-4a04-4118-af12-4ffdfcec1b49","ios":"levelo://app?vid=d01929e6-4a04-4118-af12-4ffdfcec1b49"},"vehicle_type_id":"4","last_reported":1687370909,"current_range_meters":2000,"station_id":"ce4bguh2rcd13ifvqckg","pricing_plan_id":"free"},{"bike_id":"5fbdbe65-e141-4473-b7c7-3ca166ee6d1f","system_id":"levelo_inurba_marseille","lat":43.30815,"lon":5.37176,"is_reserved":false,"is_disabled":false,"rental_uris":{"android":"levelo://app?vid=5fbdbe65-e141-4473-b7c7-3ca166ee6d1f","ios":"levelo://app?vid=5fbdbe65-e141-4473-b7c7-3ca166ee6d1f"},"vehicle_type_id":"4","last_reported":1687370909,"current_range_meters":3600,"station_id":"","pricing_plan_id":"free"},{"bike_id":"16900a8a-bea2-487a-82ca-b1196ed85ed2","system_id":"levelo_inurba_marseille","lat":43.305706,"lon":5.365654,"is_reserved":false,"is_disabled":false,"rental_uris":{"android":"levelo://app?vid=16900a8a-bea2-487a-82ca-b1196ed85ed2","ios":"levelo://app?vid=16900a8a-bea2-487a-82ca-b1196ed85ed2"},"vehicle_type_id":"4","last_reported":1687370909,"current_range_meters":6000,"station_id":"ce4bgs12rcd13ifvqcag","pricing_plan_id":"free"},{"bike_id":"e8dccba0-e83e-4a9b-bbb7-dec408eb7c90","system_id":"levelo_inurba_marseille","lat":43.305989,"lon":5.37225,"is_reserved":false,"is_disabled":false,"rental_uris":{"android":"levelo://app?vid=e8dccba0-e83e-4a9b-bbb7-dec408eb7c90","ios":"levelo://app?vid=e8dccba0-e83e-4a9b-bbb7-dec408eb7c90"},"vehicle_type_id":"4","last_reported":1687370909,"current_range_meters":10800,"station_id":"ce4bgqh2rcd13ifvqc4g","pricing_plan_id":"free"},{"bike_id":"7a52535e-218c-4062-992a-6f41b59f6f59","system_id":"levelo_inurba_marseille","lat":43.305989,"lon":5.37225,"is_reserved":false,"is_disabled":false,"rental_uris":{"android":"levelo://app?vid=7a52535e-218c-4062-992a-6f41b59f6f59","ios":"levelo://app?vid=7a52535e-218c-4062-992a-6f41b59f6f59"},"vehicle_type_id":"4","last_reported":1687370909,"current_range_meters":11600,"station_id":"ce4bgqh2rcd13ifvqc4g","pricing_plan_id":"free"},{"bike_id":"7681bb0c-2f7d-4cf6-9aa9-3972093ae026","system_id":"levelo_inurba_marseille","lat":43.305989,"lon":5.37225,"is_reserved":false,"is_disabled":false,"rental_uris":{"android":"levelo://app?vid=7681bb0c-2f7d-4cf6-9aa9-3972093ae026","ios":"levelo://app?vid=7681bb0c-2f7d-4cf6-9aa9-3972093ae026"},"vehicle_type_id":"4","last_reported":1687370909,"current_range_meters":30000,"station_id":"ce4bgqh2rcd13ifvqc4g","pricing_plan_id":"free"},{"bike_id":"a2dc2103-cc4a-41c2-8c7c-ff501a3139fd","system_id":"levelo_inurba_marseille","lat":43.30504,"lon":5.36562,"is_reserved":false,"is_disabled":false,"rental_uris":{"android":"levelo://app?vid=a2dc2103-cc4a-41c2-8c7c-ff501a3139fd","ios":"levelo://app?vid=a2dc2103-cc4a-41c2-8c7c-ff501a3139fd"},"vehicle_type_id":"4","last_reported":1687370909,"current_range_meters":2000,"station_id":"","pricing_plan_id":"free"},{"bike_id":"26810f22-9dd6-4986-b7e0-88fb60650cfb","system_id":"levelo_inurba_marseille","lat":43.305989,"lon":5.37225,"is_reserved":false,"is_disabled":false,"rental_uris":{"android":"levelo://app?vid=26810f22-9dd6-4986-b7e0-88fb60650cfb","ios":"levelo://app?vid=26810f22-9dd6-4986-b7e0-88fb60650cfb"},"vehicle_type_id":"4","last_reported":1687370909,"current_range_meters":5200,"station_id":"ce4bgqh2rcd13ifvqc4g","pricing_plan_id":"free"},{"bike_id":"1bb85147-23d9-4e6d-b947-1fb7b02e9eee","system_id":"levelo_inurba_marseille","lat":43.30593,"lon":5.37245,"is_reserved":false,"is_disabled":false,"rental_uris":{"android":"levelo://app?vid=1bb85147-23d9-4e6d-b947-1fb7b02e9eee","ios":"levelo://app?vid=1bb85147-23d9-4e6d-b947-1fb7b02e9eee"},"vehicle_type_id":"4","last_reported":1687370909,"current_range_meters":29200,"station_id":"ce4bgqh2rcd13ifvqc4g","pricing_plan_id":"free"},{"bike_id":"ae33307b-fcd5-479b-9ae1-9002ed226c6e","system_id":"levelo_inurba_marseille","lat":43.308012,"lon":5.381511,"is_reserved":false,"is_disabled":false,"rental_uris":{"android":"levelo://app?vid=ae33307b-fcd5-479b-9ae1-9002ed226c6e","ios":"levelo://app?vid=ae33307b-fcd5-479b-9ae1-9002ed226c6e"},"vehicle_type_id":"4","last_reported":1687370909,"current_range_meters":15200,"station_id":"ce4bgt12rcd13ifvqce0","pricing_plan_id":"free"},{"bike_id":"43fc693e-f2a9-4aec-8fd9-d094bb02cb70","system_id":"levelo_inurba_marseille","lat":43.304606,"lon":5.379026,"is_reserved":false,"is_disabled":false,"rental_uris":{"android":"levelo://app?vid=43fc693e-f2a9-4aec-8fd9-d094bb02cb70","ios":"levelo://app?vid=43fc693e-f2a9-4aec-8fd9-d094bb02cb70"},"vehicle_type_id":"4","last_reported":1687370909,"current_range_meters":5200,"station_id":"ce4bgup2rcd13ifvqcn0","pricing_plan_id":"free"},{"bike_id":"24772ffa-3423-4b94-9532-0126847fd7ae","system_id":"levelo_inurba_marseille","lat":43.319935,"lon":5.381699,"is_reserved":false,"is_disabled":false,"rental_uris":{"android":"levelo://app?vid=24772ffa-3423-4b94-9532-0126847fd7ae","ios":"levelo://app?vid=24772ffa-3423-4b94-9532-0126847fd7ae"},"vehicle_type_id":"4","last_reported":1687370909,"current_range_meters":0,"station_id":"ce4bhr12rcd13ifvqhpg","pricing_plan_id":"free"},{"bike_id":"e565be34-4cbf-40cb-aa32-9a335f6735ce","system_id":"levelo_inurba_marseille","lat":43.31355,"lon":5.38497,"is_reserved":false,"is_disabled":false,"rental_uris":{"android":"levelo://app?vid=e565be34-4cbf-40cb-aa32-9a335f6735ce","ios":"levelo://app?vid=e565be34-4cbf-40cb-aa32-9a335f6735ce"},"vehicle_type_id":"4","last_reported":1687370909,"current_range_meters":0,"station_id":"ce4bgt92rcd13ifvqcf0","pricing_plan_id":"free"},{"bike_id":"4b31722a-84ce-43c4-a3c1-15388fafd93f","system_id":"levelo_inurba_marseille","lat":43.29927,"lon":5.36548,"is_reserved":false,"is_disabled":false,"rental_uris":{"android":"levelo://app?vid=4b31722a-84ce-43c4-a3c1-15388fafd93f","ios":"levelo://app?vid=4b31722a-84ce-43c4-a3c1-15388fafd93f"},"vehicle_type_id":"4","last_reported":1687370909,"current_range_meters":24400,"station_id":"ce4bgm92rcd13ifvqbr0","pricing_plan_id":"free"},{"bike_id":"cb54e71d-63b5-49fa-ad50-a77c04de2b9f","system_id":"levelo_inurba_marseille","lat":43.299243,"lon":5.37481,"is_reserved":false,"is_disabled":false,"rental_uris":{"android":"levelo://app?vid=cb54e71d-63b5-49fa-ad50-a77c04de2b9f","ios":"levelo://app?vid=cb54e71d-63b5-49fa-ad50-a77c04de2b9f"},"vehicle_type_id":"4","last_reported":1687370909,"current_range_meters":0,"station_id":"ce4bgjh2rcd13ifvqbg0","pricing_plan_id":"free"},{"bike_id":"3e6a8747-270c-4278-bf7c-3705ee017be1","system_id":"levelo_inurba_marseille","lat":43.29529,"lon":5.385581,"is_reserved":false,"is_disabled":false,"rental_uris":{"android":"levelo://app?vid=3e6a8747-270c-4278-bf7c-3705ee017be1","ios":"levelo://app?vid=3e6a8747-270c-4278-bf7c-3705ee017be1"},"vehicle_type_id":"4","last_reported":1687370909,"current_range_meters":4800,"station_id":"ce4bgih2rcd13ifvqba0","pricing_plan_id":"free"},{"bike_id":"ff8037f8-7b20-468d-bcdd-7e284a6bf099","system_id":"levelo_inurba_marseille","lat":43.299243,"lon":5.374807,"is_reserved":false,"is_disabled":false,"rental_uris":{"android":"levelo://app?vid=ff8037f8-7b20-468d-bcdd-7e284a6bf099","ios":"levelo://app?vid=ff8037f8-7b20-468d-bcdd-7e284a6bf099"},"vehicle_type_id":"4","last_reported":1687370909,"current_range_meters":18400,"station_id":"ce4bgjh2rcd13ifvqbg0","pricing_plan_id":"free"},{"bike_id":"408cdbd3-920b-45b4-ab4e-0217d7cee4ab","system_id":"levelo_inurba_marseille","lat":43.32767,"lon":5.36694,"is_reserved":false,"is_disabled":false,"rental_uris":{"android":"levelo://app?vid=408cdbd3-920b-45b4-ab4e-0217d7cee4ab","ios":"levelo://app?vid=408cdbd3-920b-45b4-ab4e-0217d7cee4ab"},"vehicle_type_id":"4","last_reported":1687370909,"current_range_meters":4800,"station_id":"","pricing_plan_id":"free"},{"bike_id":"c3339efb-c603-45cb-8da9-01d5c529aca8","system_id":"levelo_inurba_marseille","lat":43.32356,"lon":5.38192,"is_reserved":false,"is_disabled":false,"rental_uris":{"android":"levelo://app?vid=c3339efb-c603-45cb-8da9-01d5c529aca8","ios":"levelo://app?vid=c3339efb-c603-45cb-8da9-01d5c529aca8"},"vehicle_type_id":"4","last_reported":1687370909,"current_range_meters":19200,"station_id":"","pricing_plan_id":"free"},{"bike_id":"fd53ee84-24b3-4ec6-b22a-b4cac25a1233","system_id":"levelo_inurba_marseille","lat":43.328371,"lon":5.366909,"is_reserved":false,"is_disabled":false,"rental_uris":{"android":"levelo://app?vid=fd53ee84-24b3-4ec6-b22a-b4cac25a1233","ios":"levelo://app?vid=fd53ee84-24b3-4ec6-b22a-b4cac25a1233"},"vehicle_type_id":"4","last_reported":1687370909,"current_range_meters":400,"station_id":"ce4bhs92rcd13ifvqi0g","pricing_plan_id":"free"},{"bike_id":"19a8c12c-b500-4dbe-beff-6f8b33af62b7","system_id":"levelo_inurba_marseille","lat":43.297163,"lon":5.365866,"is_reserved":false,"is_disabled":false,"rental_uris":{"android":"levelo://app?vid=19a8c12c-b500-4dbe-beff-6f8b33af62b7","ios":"levelo://app?vid=19a8c12c-b500-4dbe-beff-6f8b33af62b7"},"vehicle_type_id":"4","last_reported":1687370909,"current_range_meters":13600,"station_id":"ce4bgn12rcd13ifvqbt0","pricing_plan_id":"free"},{"bike_id":"176f4894-d7fc-460e-aa5d-7c8c1e206dc3","system_id":"levelo_inurba_marseille","lat":43.29701,"lon":5.36615,"is_reserved":false,"is_disabled":false,"rental_uris":{"android":"levelo://app?vid=176f4894-d7fc-460e-aa5d-7c8c1e206dc3","ios":"levelo://app?vid=176f4894-d7fc-460e-aa5d-7c8c1e206dc3"},"vehicle_type_id":"4","last_reported":1687370909,"current_range_meters":18800,"station_id":"ce4bgn12rcd13ifvqbt0","pricing_plan_id":"free"},{"bike_id":"f300b2c9-9ef7-4fe4-a9f1-de1fad2c09d0","system_id":"levelo_inurba_marseille","lat":43.29573,"lon":5.367355,"is_reserved":false,"is_disabled":false,"rental_uris":{"android":"levelo://app?vid=f300b2c9-9ef7-4fe4-a9f1-de1fad2c09d0","ios":"levelo://app?vid=f300b2c9-9ef7-4fe4-a9f1-de1fad2c09d0"},"vehicle_type_id":"4","last_reported":1687370909,"current_range_meters":14400,"station_id":"ce4bgph2rcd13ifvqc2g","pricing_plan_id":"free"},{"bike_id":"24f41ca5-b432-4feb-a0c8-a15026b97306","system_id":"levelo_inurba_marseille","lat":43.296131,"lon":5.370773,"is_reserved":false,"is_disabled":false,"rental_uris":{"android":"levelo://app?vid=24f41ca5-b432-4feb-a0c8-a15026b97306","ios":"levelo://app?vid=24f41ca5-b432-4feb-a0c8-a15026b97306"},"vehicle_type_id":"4","last_reported":1687370909,"current_range_meters":0,"station_id":"ce4bgnh2rcd13ifvqc0g","pricing_plan_id":"free"},{"bike_id":"041bc147-ef2f-419b-bb81-deca3bdf89e2","system_id":"levelo_inurba_marseille","lat":43.29611,"lon":5.36046,"is_reserved":false,"is_disabled":false,"rental_uris":{"android":"levelo://app?vid=041bc147-ef2f-419b-bb81-deca3bdf89e2","ios":"levelo://app?vid=041bc147-ef2f-419b-bb81-deca3bdf89e2"},"vehicle_type_id":"4","last_reported":1687370909,"current_range_meters":17600,"station_id":"","pricing_plan_id":"free"},{"bike_id":"5a2e27fc-9c92-4460-b739-30076e740994","system_id":"levelo_inurba_marseille","lat":43.31753,"lon":5.39013,"is_reserved":false,"is_disabled":false,"rental_uris":{"android":"levelo://app?vid=5a2e27fc-9c92-4460-b739-30076e740994","ios":"levelo://app?vid=5a2e27fc-9c92-4460-b739-30076e740994"},"vehicle_type_id":"4","last_reported":1687370909,"current_range_meters":20400,"station_id":"ce4bhqp2rcd13ifvqhng","pricing_plan_id":"free"},{"bike_id":"0ed8ecec-046c-4730-a463-bda301f800c6","system_id":"levelo_inurba_marseille","lat":43.31761,"lon":5.3901,"is_reserved":false,"is_disabled":false,"rental_uris":{"android":"levelo://app?vid=0ed8ecec-046c-4730-a463-bda301f800c6","ios":"levelo://app?vid=0ed8ecec-046c-4730-a463-bda301f800c6"},"vehicle_type_id":"4","last_reported":1687370909,"current_range_meters":16000,"station_id":"ce4bhqp2rcd13ifvqhng","pricing_plan_id":"free"},{"bike_id":"16e5fedd-6e86-436a-a0a2-72c7cd60a6ea","system_id":"levelo_inurba_marseille","lat":43.317557,"lon":5.390173,"is_reserved":false,"is_disabled":false,"rental_uris":{"android":"levelo://app?vid=16e5fedd-6e86-436a-a0a2-72c7cd60a6ea","ios":"levelo://app?vid=16e5fedd-6e86-436a-a0a2-72c7cd60a6ea"},"vehicle_type_id":"4","last_reported":1687370909,"current_range_meters":28800,"station_id":"ce4bhqp2rcd13ifvqhng","pricing_plan_id":"free"},{"bike_id":"649e680e-6821-4d1f-9d81-7005fd94a102","system_id":"levelo_inurba_marseille","lat":43.31749,"lon":5.39024,"is_reserved":false,"is_disabled":false,"rental_uris":{"android":"levelo://app?vid=649e680e-6821-4d1f-9d81-7005fd94a102","ios":"levelo://app?vid=649e680e-6821-4d1f-9d81-7005fd94a102"},"vehicle_type_id":"4","last_reported":1687370909,"current_range_meters":28000,"station_id":"ce4bhqp2rcd13ifvqhng","pricing_plan_id":"free"},{"bike_id":"d38c5de4-1b75-44fb-88b5-eb30bcdcd7d0","system_id":"levelo_inurba_marseille","lat":43.302008,"lon":5.394694,"is_reserved":false,"is_disabled":false,"rental_uris":{"android":"levelo://app?vid=d38c5de4-1b75-44fb-88b5-eb30bcdcd7d0","ios":"levelo://app?vid=d38c5de4-1b75-44fb-88b5-eb30bcdcd7d0"},"vehicle_type_id":"4","last_reported":1687370909,"current_range_meters":17600,"station_id":"ce4bh0p2rcd13ifvqd70","pricing_plan_id":"free"},{"bike_id":"42e82a28-f959-4838-8b1e-f8181c91fea6","system_id":"levelo_inurba_marseille","lat":43.29798,"lon":5.38089,"is_reserved":false,"is_disabled":false,"rental_uris":{"android":"levelo://app?vid=42e82a28-f959-4838-8b1e-f8181c91fea6","ios":"levelo://app?vid=42e82a28-f959-4838-8b1e-f8181c91fea6"},"vehicle_type_id":"4","last_reported":1687370909,"current_range_meters":17600,"station_id":"ce4bgip2rcd13ifvqbb0","pricing_plan_id":"free"},{"bike_id":"768eee3d-6e59-45be-bc98-9dac3e065d76","system_id":"levelo_inurba_marseille","lat":43.304278,"lon":5.388868,"is_reserved":false,"is_disabled":false,"rental_uris":{"android":"levelo://app?vid=768eee3d-6e59-45be-bc98-9dac3e065d76","ios":"levelo://app?vid=768eee3d-6e59-45be-bc98-9dac3e065d76"},"vehicle_type_id":"4","last_reported":1687370909,"current_range_meters":9600,"station_id":"ce4bgk12rcd13ifvqbi0","pricing_plan_id":"free"},{"bike_id":"250c8a96-8498-4211-b8f3-1b00a8d1fbaf","system_id":"levelo_inurba_marseille","lat":43.296477,"lon":5.37768,"is_reserved":false,"is_disabled":false,"rental_uris":{"android":"levelo://app?vid=250c8a96-8498-4211-b8f3-1b00a8d1fbaf","ios":"levelo://app?vid=250c8a96-8498-4211-b8f3-1b00a8d1fbaf"},"vehicle_type_id":"4","last_reported":1687370909,"current_range_meters":400,"station_id":"","pricing_plan_id":"free"},{"bike_id":"8ae11103-d359-41ac-9e90-26ee00f8e3e1","system_id":"levelo_inurba_marseille","lat":43.29568,"lon":5.37525,"is_reserved":false,"is_disabled":false,"rental_uris":{"android":"levelo://app?vid=8ae11103-d359-41ac-9e90-26ee00f8e3e1","ios":"levelo://app?vid=8ae11103-d359-41ac-9e90-26ee00f8e3e1"},"vehicle_type_id":"4","last_reported":1687370909,"current_range_meters":23600,"station_id":"ce4bgh92rcd13ifvqb50","pricing_plan_id":"free"},{"bike_id":"b528d267-d1e8-4152-a4d6-ad2bf3d8c020","system_id":"levelo_inurba_marseille","lat":43.304274,"lon":5.388873,"is_reserved":false,"is_disabled":false,"rental_uris":{"android":"levelo://app?vid=b528d267-d1e8-4152-a4d6-ad2bf3d8c020","ios":"levelo://app?vid=b528d267-d1e8-4152-a4d6-ad2bf3d8c020"},"vehicle_type_id":"4","last_reported":1687370909,"current_range_meters":4000,"station_id":"ce4bgk12rcd13ifvqbi0","pricing_plan_id":"free"},{"bike_id":"17850765-90af-41e8-b5fb-158d1200e1d1","system_id":"levelo_inurba_marseille","lat":43.29547,"lon":5.37495,"is_reserved":false,"is_disabled":false,"rental_uris":{"android":"levelo://app?vid=17850765-90af-41e8-b5fb-158d1200e1d1","ios":"levelo://app?vid=17850765-90af-41e8-b5fb-158d1200e1d1"},"vehicle_type_id":"4","last_reported":1687370909,"current_range_meters":30000,"station_id":"ce4bgkp2rcd13ifvqbmg","pricing_plan_id":"free"},{"bike_id":"0ff78847-9e64-4255-98a7-aab6407be6d8","system_id":"levelo_inurba_marseille","lat":43.29965,"lon":5.38494,"is_reserved":false,"is_disabled":false,"rental_uris":{"android":"levelo://app?vid=0ff78847-9e64-4255-98a7-aab6407be6d8","ios":"levelo://app?vid=0ff78847-9e64-4255-98a7-aab6407be6d8"},"vehicle_type_id":"4","last_reported":1687370909,"current_range_meters":6800,"station_id":"ce4bgj92rcd13ifvqbd0","pricing_plan_id":"free"},{"bike_id":"e0768ba6-a6e5-451b-a364-713b5e964afd","system_id":"levelo_inurba_marseille","lat":43.299717,"lon":5.384845,"is_reserved":false,"is_disabled":false,"rental_uris":{"android":"levelo://app?vid=e0768ba6-a6e5-451b-a364-713b5e964afd","ios":"levelo://app?vid=e0768ba6-a6e5-451b-a364-713b5e964afd"},"vehicle_type_id":"4","last_reported":1687370909,"current_range_meters":15200,"station_id":"ce4bgj92rcd13ifvqbd0","pricing_plan_id":"free"},{"bike_id":"48bc0cca-fccd-48c2-8460-10703cb93900","system_id":"levelo_inurba_marseille","lat":43.29959,"lon":5.38492,"is_reserved":false,"is_disabled":false,"rental_uris":{"android":"levelo://app?vid=48bc0cca-fccd-48c2-8460-10703cb93900","ios":"levelo://app?vid=48bc0cca-fccd-48c2-8460-10703cb93900"},"vehicle_type_id":"4","last_reported":1687370909,"current_range_meters":2400,"station_id":"ce4bgj92rcd13ifvqbd0","pricing_plan_id":"free"},{"bike_id":"69531477-838e-400e-8ae2-54362d84f535","system_id":"levelo_inurba_marseille","lat":43.29959,"lon":5.38498,"is_reserved":false,"is_disabled":false,"rental_uris":{"android":"levelo://app?vid=69531477-838e-400e-8ae2-54362d84f535","ios":"levelo://app?vid=69531477-838e-400e-8ae2-54362d84f535"},"vehicle_type_id":"4","last_reported":1687370909,"current_range_meters":2800,"station_id":"ce4bgj92rcd13ifvqbd0","pricing_plan_id":"free"},{"bike_id":"58eb65af-6f68-4577-b59a-e2a557a3c728","system_id":"levelo_inurba_marseille","lat":43.32363,"lon":5.38878,"is_reserved":false,"is_disabled":false,"rental_uris":{"android":"levelo://app?vid=58eb65af-6f68-4577-b59a-e2a557a3c728","ios":"levelo://app?vid=58eb65af-6f68-4577-b59a-e2a557a3c728"},"vehicle_type_id":"4","last_reported":1687370909,"current_range_meters":4400,"station_id":"ce4bhqp2rcd13ifvqhog","pricing_plan_id":"free"},{"bike_id":"07e16fb3-d2a9-448f-a2bf-2b98a5617d56","system_id":"levelo_inurba_marseille","lat":43.32367,"lon":5.388836,"is_reserved":false,"is_disabled":false,"rental_uris":{"android":"levelo://app?vid=07e16fb3-d2a9-448f-a2bf-2b98a5617d56","ios":"levelo://app?vid=07e16fb3-d2a9-448f-a2bf-2b98a5617d56"},"vehicle_type_id":"4","last_reported":1687370909,"current_range_meters":20400,"station_id":"ce4bhqp2rcd13ifvqhog","pricing_plan_id":"free"},{"bike_id":"e041460a-54ae-4871-ad9f-b6135e0ef88f","system_id":"levelo_inurba_marseille","lat":43.32367,"lon":5.388836,"is_reserved":false,"is_disabled":false,"rental_uris":{"android":"levelo://app?vid=e041460a-54ae-4871-ad9f-b6135e0ef88f","ios":"levelo://app?vid=e041460a-54ae-4871-ad9f-b6135e0ef88f"},"vehicle_type_id":"4","last_reported":1687370909,"current_range_meters":0,"station_id":"ce4bhqp2rcd13ifvqhog","pricing_plan_id":"free"},{"bike_id":"e9a5f79a-69b5-4c7c-81b9-81e43f3bff7b","system_id":"levelo_inurba_marseille","lat":43.32367,"lon":5.388836,"is_reserved":false,"is_disabled":false,"rental_uris":{"android":"levelo://app?vid=e9a5f79a-69b5-4c7c-81b9-81e43f3bff7b","ios":"levelo://app?vid=e9a5f79a-69b5-4c7c-81b9-81e43f3bff7b"},"vehicle_type_id":"4","last_reported":1687370909,"current_range_meters":24800,"station_id":"ce4bhqp2rcd13ifvqhog","pricing_plan_id":"free"},{"bike_id":"2bb753e4-bb9d-4c44-9b5d-9a165202f648","system_id":"levelo_inurba_marseille","lat":43.32367,"lon":5.388836,"is_reserved":false,"is_disabled":false,"rental_uris":{"android":"levelo://app?vid=2bb753e4-bb9d-4c44-9b5d-9a165202f648","ios":"levelo://app?vid=2bb753e4-bb9d-4c44-9b5d-9a165202f648"},"vehicle_type_id":"4","last_reported":1687370909,"current_range_meters":16800,"station_id":"ce4bhqp2rcd13ifvqhog","pricing_plan_id":"free"},{"bike_id":"2416699f-f4ca-4fd7-861f-2eb65620cbe4","system_id":"levelo_inurba_marseille","lat":43.32367,"lon":5.388836,"is_reserved":false,"is_disabled":false,"rental_uris":{"android":"levelo://app?vid=2416699f-f4ca-4fd7-861f-2eb65620cbe4","ios":"levelo://app?vid=2416699f-f4ca-4fd7-861f-2eb65620cbe4"},"vehicle_type_id":"4","last_reported":1687370909,"current_range_meters":22800,"station_id":"ce4bhqp2rcd13ifvqhog","pricing_plan_id":"free"},{"bike_id":"62e1e21f-3f88-43a4-83a5-bbb9f2a86bae","system_id":"levelo_inurba_marseille","lat":43.32367,"lon":5.388836,"is_reserved":false,"is_disabled":false,"rental_uris":{"android":"levelo://app?vid=62e1e21f-3f88-43a4-83a5-bbb9f2a86bae","ios":"levelo://app?vid=62e1e21f-3f88-43a4-83a5-bbb9f2a86bae"},"vehicle_type_id":"4","last_reported":1687370909,"current_range_meters":19600,"station_id":"ce4bhqp2rcd13ifvqhog","pricing_plan_id":"free"},{"bike_id":"678739d7-1043-4057-885b-2cec53f5494e","system_id":"levelo_inurba_marseille","lat":43.32367,"lon":5.388836,"is_reserved":false,"is_disabled":false,"rental_uris":{"android":"levelo://app?vid=678739d7-1043-4057-885b-2cec53f5494e","ios":"levelo://app?vid=678739d7-1043-4057-885b-2cec53f5494e"},"vehicle_type_id":"4","last_reported":1687370909,"current_range_meters":16000,"station_id":"ce4bhqp2rcd13ifvqhog","pricing_plan_id":"free"},{"bike_id":"2adcf804-d89f-42c0-b3b5-6da028ba8a95","system_id":"levelo_inurba_marseille","lat":43.29601,"lon":5.381084,"is_reserved":false,"is_disabled":false,"rental_uris":{"android":"levelo://app?vid=2adcf804-d89f-42c0-b3b5-6da028ba8a95","ios":"levelo://app?vid=2adcf804-d89f-42c0-b3b5-6da028ba8a95"},"vehicle_type_id":"4","last_reported":1687370909,"current_range_meters":12000,"station_id":"ce4bgl12rcd13ifvqbo0","pricing_plan_id":"free"},{"bike_id":"cf5da4f2-2318-4ec0-ac2b-a092d563ced3","system_id":"levelo_inurba_marseille","lat":43.29602,"lon":5.381084,"is_reserved":false,"is_disabled":false,"rental_uris":{"android":"levelo://app?vid=cf5da4f2-2318-4ec0-ac2b-a092d563ced3","ios":"levelo://app?vid=cf5da4f2-2318-4ec0-ac2b-a092d563ced3"},"vehicle_type_id":"4","last_reported":1687370909,"current_range_meters":9200,"station_id":"ce4bgl12rcd13ifvqbo0","pricing_plan_id":"free"},{"bike_id":"c7dda4cc-9def-4b6a-aff0-4060a54f0dc0","system_id":"levelo_inurba_marseille","lat":43.29602,"lon":5.381084,"is_reserved":false,"is_disabled":false,"rental_uris":{"android":"levelo://app?vid=c7dda4cc-9def-4b6a-aff0-4060a54f0dc0","ios":"levelo://app?vid=c7dda4cc-9def-4b6a-aff0-4060a54f0dc0"},"vehicle_type_id":"4","last_reported":1687370909,"current_range_meters":20800,"station_id":"ce4bgl12rcd13ifvqbo0","pricing_plan_id":"free"},{"bike_id":"62c9e3ca-2686-4e37-89ea-81571f2b57a6","system_id":"levelo_inurba_marseille","lat":43.29602,"lon":5.381084,"is_reserved":false,"is_disabled":false,"rental_uris":{"android":"levelo://app?vid=62c9e3ca-2686-4e37-89ea-81571f2b57a6","ios":"levelo://app?vid=62c9e3ca-2686-4e37-89ea-81571f2b57a6"},"vehicle_type_id":"4","last_reported":1687370909,"current_range_meters":0,"station_id":"ce4bgl12rcd13ifvqbo0","pricing_plan_id":"free"},{"bike_id":"cc7ca3b1-0cc1-4c19-ba6b-98b64adb69f3","system_id":"levelo_inurba_marseille","lat":43.2479,"lon":5.374457,"is_reserved":false,"is_disabled":false,"rental_uris":{"android":"levelo://app?vid=cc7ca3b1-0cc1-4c19-ba6b-98b64adb69f3","ios":"levelo://app?vid=cc7ca3b1-0cc1-4c19-ba6b-98b64adb69f3"},"vehicle_type_id":"4","last_reported":1687370909,"current_range_meters":0,"station_id":"ce4bhgh2rcd13ifvqfb0","pricing_plan_id":"free"},{"bike_id":"81f07d7e-df5e-405c-9695-29717cb005cd","system_id":"levelo_inurba_marseille","lat":43.293249,"lon":5.371578,"is_reserved":false,"is_disabled":false,"rental_uris":{"android":"levelo://app?vid=81f07d7e-df5e-405c-9695-29717cb005cd","ios":"levelo://app?vid=81f07d7e-df5e-405c-9695-29717cb005cd"},"vehicle_type_id":"4","last_reported":1687370909,"current_range_meters":800,"station_id":"ce4bgh92rcd13ifvqb40","pricing_plan_id":"free"},{"bike_id":"91b1291a-3d52-4d32-a5cf-a1afcaa97385","system_id":"levelo_inurba_marseille","lat":43.29304,"lon":5.37168,"is_reserved":false,"is_disabled":false,"rental_uris":{"android":"levelo://app?vid=91b1291a-3d52-4d32-a5cf-a1afcaa97385","ios":"levelo://app?vid=91b1291a-3d52-4d32-a5cf-a1afcaa97385"},"vehicle_type_id":"4","last_reported":1687370909,"current_range_meters":26800,"station_id":"ce4bgh92rcd13ifvqb40","pricing_plan_id":"free"},{"bike_id":"5852035a-de66-4ee6-ad39-27d666487fc5","system_id":"levelo_inurba_marseille","lat":43.292749,"lon":5.368402,"is_reserved":false,"is_disabled":false,"rental_uris":{"android":"levelo://app?vid=5852035a-de66-4ee6-ad39-27d666487fc5","ios":"levelo://app?vid=5852035a-de66-4ee6-ad39-27d666487fc5"},"vehicle_type_id":"4","last_reported":1687370909,"current_range_meters":0,"station_id":"ce4bhbp2rcd13ifvqesg","pricing_plan_id":"free"},{"bike_id":"f2de0d5a-cbb0-4b1f-a952-a7a82fa05c11","system_id":"levelo_inurba_marseille","lat":43.29273,"lon":5.36844,"is_reserved":false,"is_disabled":false,"rental_uris":{"android":"levelo://app?vid=f2de0d5a-cbb0-4b1f-a952-a7a82fa05c11","ios":"levelo://app?vid=f2de0d5a-cbb0-4b1f-a952-a7a82fa05c11"},"vehicle_type_id":"4","last_reported":1687370909,"current_range_meters":3600,"station_id":"ce4bhbp2rcd13ifvqesg","pricing_plan_id":"free"},{"bike_id":"0753865e-ce3c-4621-9643-30dbcb21433b","system_id":"levelo_inurba_marseille","lat":43.29309,"lon":5.37453,"is_reserved":false,"is_disabled":false,"rental_uris":{"android":"levelo://app?vid=0753865e-ce3c-4621-9643-30dbcb21433b","ios":"levelo://app?vid=0753865e-ce3c-4621-9643-30dbcb21433b"},"vehicle_type_id":"4","last_reported":1687370909,"current_range_meters":31200,"station_id":"ce4bgi12rcd13ifvqb70","pricing_plan_id":"free"},{"bike_id":"3ff6796c-8f83-4283-8bcf-a3342b9eefb3","system_id":"levelo_inurba_marseille","lat":43.293009,"lon":5.374584,"is_reserved":false,"is_disabled":false,"rental_uris":{"android":"levelo://app?vid=3ff6796c-8f83-4283-8bcf-a3342b9eefb3","ios":"levelo://app?vid=3ff6796c-8f83-4283-8bcf-a3342b9eefb3"},"vehicle_type_id":"4","last_reported":1687370909,"current_range_meters":8400,"station_id":"ce4bgi12rcd13ifvqb70","pricing_plan_id":"free"},{"bike_id":"f9431321-138c-4bc7-ac12-1514c7557fe4","system_id":"levelo_inurba_marseille","lat":43.305994,"lon":5.393687,"is_reserved":false,"is_disabled":false,"rental_uris":{"android":"levelo://app?vid=f9431321-138c-4bc7-ac12-1514c7557fe4","ios":"levelo://app?vid=f9431321-138c-4bc7-ac12-1514c7557fe4"},"vehicle_type_id":"4","last_reported":1687370909,"current_range_meters":0,"station_id":"ce4bh0p2rcd13ifvqd80","pricing_plan_id":"free"},{"bike_id":"f47d889e-f3a7-4cf7-b89b-498d12032e77","system_id":"levelo_inurba_marseille","lat":43.3056,"lon":5.39335,"is_reserved":false,"is_disabled":false,"rental_uris":{"android":"levelo://app?vid=f47d889e-f3a7-4cf7-b89b-498d12032e77","ios":"levelo://app?vid=f47d889e-f3a7-4cf7-b89b-498d12032e77"},"vehicle_type_id":"4","last_reported":1687370909,"current_range_meters":24000,"station_id":"","pricing_plan_id":"free"},{"bike_id":"1242d56e-6bea-4507-aa5d-b4814f8d5545","system_id":"levelo_inurba_marseille","lat":43.305994,"lon":5.393687,"is_reserved":false,"is_disabled":false,"rental_uris":{"android":"levelo://app?vid=1242d56e-6bea-4507-aa5d-b4814f8d5545","ios":"levelo://app?vid=1242d56e-6bea-4507-aa5d-b4814f8d5545"},"vehicle_type_id":"4","last_reported":1687370909,"current_range_meters":21600,"station_id":"ce4bh0p2rcd13ifvqd80","pricing_plan_id":"free"},{"bike_id":"4fa14772-91e5-4cf1-a8ca-fdb4c221fb32","system_id":"levelo_inurba_marseille","lat":43.302992,"lon":5.392136,"is_reserved":false,"is_disabled":false,"rental_uris":{"android":"levelo://app?vid=4fa14772-91e5-4cf1-a8ca-fdb4c221fb32","ios":"levelo://app?vid=4fa14772-91e5-4cf1-a8ca-fdb4c221fb32"},"vehicle_type_id":"4","last_reported":1687370909,"current_range_meters":19200,"station_id":"ce4bgkh2rcd13ifvqbk0","pricing_plan_id":"free"},{"bike_id":"13d3370f-51ab-4d15-b3bd-92e1db331ddd","system_id":"levelo_inurba_marseille","lat":43.302992,"lon":5.392136,"is_reserved":false,"is_disabled":false,"rental_uris":{"android":"levelo://app?vid=13d3370f-51ab-4d15-b3bd-92e1db331ddd","ios":"levelo://app?vid=13d3370f-51ab-4d15-b3bd-92e1db331ddd"},"vehicle_type_id":"4","last_reported":1687370909,"current_range_meters":0,"station_id":"ce4bgkh2rcd13ifvqbk0","pricing_plan_id":"free"},{"bike_id":"eae3958c-3012-46d9-8b47-b7024080d212","system_id":"levelo_inurba_marseille","lat":43.292311,"lon":5.360731,"is_reserved":false,"is_disabled":false,"rental_uris":{"android":"levelo://app?vid=eae3958c-3012-46d9-8b47-b7024080d212","ios":"levelo://app?vid=eae3958c-3012-46d9-8b47-b7024080d212"},"vehicle_type_id":"4","last_reported":1687370909,"current_range_meters":16800,"station_id":"ce4bhbh2rcd13ifvqeqg","pricing_plan_id":"free"},{"bike_id":"66b480a6-9947-4496-98e2-93e61a3244b4","system_id":"levelo_inurba_marseille","lat":43.30407,"lon":5.39323,"is_reserved":false,"is_disabled":false,"rental_uris":{"android":"levelo://app?vid=66b480a6-9947-4496-98e2-93e61a3244b4","ios":"levelo://app?vid=66b480a6-9947-4496-98e2-93e61a3244b4"},"vehicle_type_id":"4","last_reported":1687370909,"current_range_meters":30400,"station_id":"","pricing_plan_id":"free"},{"bike_id":"c955773d-e969-4b9d-9623-92d952a2c39d","system_id":"levelo_inurba_marseille","lat":43.29883,"lon":5.38895,"is_reserved":false,"is_disabled":false,"rental_uris":{"android":"levelo://app?vid=c955773d-e969-4b9d-9623-92d952a2c39d","ios":"levelo://app?vid=c955773d-e969-4b9d-9623-92d952a2c39d"},"vehicle_type_id":"4","last_reported":1687370909,"current_range_meters":0,"station_id":"ce4bh392rcd13ifvqdl0","pricing_plan_id":"free"},{"bike_id":"1bdf94c9-47b9-4003-9c48-8820a2ae12c6","system_id":"levelo_inurba_marseille","lat":43.29255,"lon":5.37618,"is_reserved":false,"is_disabled":false,"rental_uris":{"android":"levelo://app?vid=1bdf94c9-47b9-4003-9c48-8820a2ae12c6","ios":"levelo://app?vid=1bdf94c9-47b9-4003-9c48-8820a2ae12c6"},"vehicle_type_id":"4","last_reported":1687370909,"current_range_meters":18400,"station_id":"","pricing_plan_id":"free"},{"bike_id":"69586c36-0c7a-49e6-a9e1-f5efa2f907de","system_id":"levelo_inurba_marseille","lat":43.298764,"lon":5.388973,"is_reserved":false,"is_disabled":false,"rental_uris":{"android":"levelo://app?vid=69586c36-0c7a-49e6-a9e1-f5efa2f907de","ios":"levelo://app?vid=69586c36-0c7a-49e6-a9e1-f5efa2f907de"},"vehicle_type_id":"4","last_reported":1687370909,"current_range_meters":0,"station_id":"ce4bh392rcd13ifvqdl0","pricing_plan_id":"free"},{"bike_id":"4b424566-8e3c-45b9-8643-4990d624868e","system_id":"levelo_inurba_marseille","lat":43.3012,"lon":5.3919,"is_reserved":false,"is_disabled":false,"rental_uris":{"android":"levelo://app?vid=4b424566-8e3c-45b9-8643-4990d624868e","ios":"levelo://app?vid=4b424566-8e3c-45b9-8643-4990d624868e"},"vehicle_type_id":"4","last_reported":1687370909,"current_range_meters":2800,"station_id":"","pricing_plan_id":"free"},{"bike_id":"a65f0c29-80bd-4811-814f-6a52d02a9418","system_id":"levelo_inurba_marseille","lat":43.29529,"lon":5.385581,"is_reserved":false,"is_disabled":false,"rental_uris":{"android":"levelo://app?vid=a65f0c29-80bd-4811-814f-6a52d02a9418","ios":"levelo://app?vid=a65f0c29-80bd-4811-814f-6a52d02a9418"},"vehicle_type_id":"4","last_reported":1687370909,"current_range_meters":19200,"station_id":"ce4bgih2rcd13ifvqba0","pricing_plan_id":"free"},{"bike_id":"5e60d836-3132-44e2-8a6e-e0167b2af157","system_id":"levelo_inurba_marseille","lat":43.29529,"lon":5.385581,"is_reserved":false,"is_disabled":false,"rental_uris":{"android":"levelo://app?vid=5e60d836-3132-44e2-8a6e-e0167b2af157","ios":"levelo://app?vid=5e60d836-3132-44e2-8a6e-e0167b2af157"},"vehicle_type_id":"4","last_reported":1687370909,"current_range_meters":8400,"station_id":"ce4bgih2rcd13ifvqba0","pricing_plan_id":"free"},{"bike_id":"f5d00e77-a7bb-4c68-8cc6-65b2e7f8890b","system_id":"levelo_inurba_marseille","lat":43.29529,"lon":5.385581,"is_reserved":false,"is_disabled":false,"rental_uris":{"android":"levelo://app?vid=f5d00e77-a7bb-4c68-8cc6-65b2e7f8890b","ios":"levelo://app?vid=f5d00e77-a7bb-4c68-8cc6-65b2e7f8890b"},"vehicle_type_id":"4","last_reported":1687370909,"current_range_meters":24800,"station_id":"ce4bgih2rcd13ifvqba0","pricing_plan_id":"free"},{"bike_id":"74b6738a-3147-4780-aaaf-f1918df8d2fa","system_id":"levelo_inurba_marseille","lat":43.29529,"lon":5.385581,"is_reserved":false,"is_disabled":false,"rental_uris":{"android":"levelo://app?vid=74b6738a-3147-4780-aaaf-f1918df8d2fa","ios":"levelo://app?vid=74b6738a-3147-4780-aaaf-f1918df8d2fa"},"vehicle_type_id":"4","last_reported":1687370909,"current_range_meters":24800,"station_id":"ce4bgih2rcd13ifvqba0","pricing_plan_id":"free"},{"bike_id":"f0813ac6-20fc-44e7-8b93-141ec7d50818","system_id":"levelo_inurba_marseille","lat":43.29529,"lon":5.385581,"is_reserved":false,"is_disabled":false,"rental_uris":{"android":"levelo://app?vid=f0813ac6-20fc-44e7-8b93-141ec7d50818","ios":"levelo://app?vid=f0813ac6-20fc-44e7-8b93-141ec7d50818"},"vehicle_type_id":"4","last_reported":1687370909,"current_range_meters":30000,"station_id":"ce4bgih2rcd13ifvqba0","pricing_plan_id":"free"},{"bike_id":"27c2568a-1014-4f37-acc8-a5b0c8e12613","system_id":"levelo_inurba_marseille","lat":43.29529,"lon":5.385581,"is_reserved":false,"is_disabled":false,"rental_uris":{"android":"levelo://app?vid=27c2568a-1014-4f37-acc8-a5b0c8e12613","ios":"levelo://app?vid=27c2568a-1014-4f37-acc8-a5b0c8e12613"},"vehicle_type_id":"4","last_reported":1687370909,"current_range_meters":20800,"station_id":"ce4bgih2rcd13ifvqba0","pricing_plan_id":"free"},{"bike_id":"4e51c541-4f16-49ff-b70d-b7e667f15735","system_id":"levelo_inurba_marseille","lat":43.29529,"lon":5.385581,"is_reserved":false,"is_disabled":false,"rental_uris":{"android":"levelo://app?vid=4e51c541-4f16-49ff-b70d-b7e667f15735","ios":"levelo://app?vid=4e51c541-4f16-49ff-b70d-b7e667f15735"},"vehicle_type_id":"4","last_reported":1687370909,"current_range_meters":30800,"station_id":"ce4bgih2rcd13ifvqba0","pricing_plan_id":"free"},{"bike_id":"a4460a9a-683a-4ea8-91d6-3904ec6c6041","system_id":"levelo_inurba_marseille","lat":43.29529,"lon":5.385581,"is_reserved":false,"is_disabled":false,"rental_uris":{"android":"levelo://app?vid=a4460a9a-683a-4ea8-91d6-3904ec6c6041","ios":"levelo://app?vid=a4460a9a-683a-4ea8-91d6-3904ec6c6041"},"vehicle_type_id":"4","last_reported":1687370909,"current_range_meters":14400,"station_id":"ce4bgih2rcd13ifvqba0","pricing_plan_id":"free"},{"bike_id":"f007e17c-2761-4232-a630-34ced7aacdd0","system_id":"levelo_inurba_marseille","lat":43.29535,"lon":5.38546,"is_reserved":false,"is_disabled":false,"rental_uris":{"android":"levelo://app?vid=f007e17c-2761-4232-a630-34ced7aacdd0","ios":"levelo://app?vid=f007e17c-2761-4232-a630-34ced7aacdd0"},"vehicle_type_id":"4","last_reported":1687370909,"current_range_meters":17200,"station_id":"ce4bgih2rcd13ifvqba0","pricing_plan_id":"free"},{"bike_id":"a4a64297-15c2-4b5f-85a7-d9988eca1bc3","system_id":"levelo_inurba_marseille","lat":43.29529,"lon":5.385581,"is_reserved":false,"is_disabled":false,"rental_uris":{"android":"levelo://app?vid=a4a64297-15c2-4b5f-85a7-d9988eca1bc3","ios":"levelo://app?vid=a4a64297-15c2-4b5f-85a7-d9988eca1bc3"},"vehicle_type_id":"4","last_reported":1687370909,"current_range_meters":2000,"station_id":"ce4bgih2rcd13ifvqba0","pricing_plan_id":"free"},{"bike_id":"39df84fd-910f-44b2-ad06-d34e1cda26fe","system_id":"levelo_inurba_marseille","lat":43.29529,"lon":5.385581,"is_reserved":false,"is_disabled":false,"rental_uris":{"android":"levelo://app?vid=39df84fd-910f-44b2-ad06-d34e1cda26fe","ios":"levelo://app?vid=39df84fd-910f-44b2-ad06-d34e1cda26fe"},"vehicle_type_id":"4","last_reported":1687370909,"current_range_meters":19600,"station_id":"ce4bgih2rcd13ifvqba0","pricing_plan_id":"free"},{"bike_id":"89fd4d11-7b9c-49a3-98b4-d53154fafe89","system_id":"levelo_inurba_marseille","lat":43.29529,"lon":5.385581,"is_reserved":false,"is_disabled":false,"rental_uris":{"android":"levelo://app?vid=89fd4d11-7b9c-49a3-98b4-d53154fafe89","ios":"levelo://app?vid=89fd4d11-7b9c-49a3-98b4-d53154fafe89"},"vehicle_type_id":"4","last_reported":1687370909,"current_range_meters":23600,"station_id":"ce4bgih2rcd13ifvqba0","pricing_plan_id":"free"},{"bike_id":"f3b881fb-c065-4d0c-9c56-fe8599642ac9","system_id":"levelo_inurba_marseille","lat":43.29529,"lon":5.385581,"is_reserved":false,"is_disabled":false,"rental_uris":{"android":"levelo://app?vid=f3b881fb-c065-4d0c-9c56-fe8599642ac9","ios":"levelo://app?vid=f3b881fb-c065-4d0c-9c56-fe8599642ac9"},"vehicle_type_id":"4","last_reported":1687370909,"current_range_meters":23200,"station_id":"ce4bgih2rcd13ifvqba0","pricing_plan_id":"free"},{"bike_id":"0bf297fa-43ef-4c77-b339-fe61a0540d9a","system_id":"levelo_inurba_marseille","lat":43.29529,"lon":5.385581,"is_reserved":false,"is_disabled":false,"rental_uris":{"android":"levelo://app?vid=0bf297fa-43ef-4c77-b339-fe61a0540d9a","ios":"levelo://app?vid=0bf297fa-43ef-4c77-b339-fe61a0540d9a"},"vehicle_type_id":"4","last_reported":1687370909,"current_range_meters":14000,"station_id":"ce4bgih2rcd13ifvqba0","pricing_plan_id":"free"},{"bike_id":"120993b5-2212-46aa-8bc5-6443a0e30eb8","system_id":"levelo_inurba_marseille","lat":43.29529,"lon":5.385581,"is_reserved":false,"is_disabled":false,"rental_uris":{"android":"levelo://app?vid=120993b5-2212-46aa-8bc5-6443a0e30eb8","ios":"levelo://app?vid=120993b5-2212-46aa-8bc5-6443a0e30eb8"},"vehicle_type_id":"4","last_reported":1687370909,"current_range_meters":15600,"station_id":"ce4bgih2rcd13ifvqba0","pricing_plan_id":"free"},{"bike_id":"a0502e54-2612-4f1e-b924-d6b5fdd01304","system_id":"levelo_inurba_marseille","lat":43.29529,"lon":5.385581,"is_reserved":false,"is_disabled":false,"rental_uris":{"android":"levelo://app?vid=a0502e54-2612-4f1e-b924-d6b5fdd01304","ios":"levelo://app?vid=a0502e54-2612-4f1e-b924-d6b5fdd01304"},"vehicle_type_id":"4","last_reported":1687370909,"current_range_meters":19200,"station_id":"ce4bgih2rcd13ifvqba0","pricing_plan_id":"free"},{"bike_id":"77119e4d-6eb1-4f01-9e29-869c31d9d971","system_id":"levelo_inurba_marseille","lat":43.29529,"lon":5.385581,"is_reserved":false,"is_disabled":false,"rental_uris":{"android":"levelo://app?vid=77119e4d-6eb1-4f01-9e29-869c31d9d971","ios":"levelo://app?vid=77119e4d-6eb1-4f01-9e29-869c31d9d971"},"vehicle_type_id":"4","last_reported":1687370909,"current_range_meters":3600,"station_id":"ce4bgih2rcd13ifvqba0","pricing_plan_id":"free"},{"bike_id":"cd9dfd13-ded1-4c58-b3bb-5ba8690b04f7","system_id":"levelo_inurba_marseille","lat":43.29529,"lon":5.385581,"is_reserved":false,"is_disabled":false,"rental_uris":{"android":"levelo://app?vid=cd9dfd13-ded1-4c58-b3bb-5ba8690b04f7","ios":"levelo://app?vid=cd9dfd13-ded1-4c58-b3bb-5ba8690b04f7"},"vehicle_type_id":"4","last_reported":1687370909,"current_range_meters":16400,"station_id":"ce4bgih2rcd13ifvqba0","pricing_plan_id":"free"},{"bike_id":"d43583b5-22a3-4d1b-b57c-4441737af27f","system_id":"levelo_inurba_marseille","lat":43.29518,"lon":5.38549,"is_reserved":false,"is_disabled":false,"rental_uris":{"android":"levelo://app?vid=d43583b5-22a3-4d1b-b57c-4441737af27f","ios":"levelo://app?vid=d43583b5-22a3-4d1b-b57c-4441737af27f"},"vehicle_type_id":"4","last_reported":1687370909,"current_range_meters":8400,"station_id":"ce4bgih2rcd13ifvqba0","pricing_plan_id":"free"},{"bike_id":"14d4de31-c23b-433f-9f19-a0521e7e562f","system_id":"levelo_inurba_marseille","lat":43.302008,"lon":5.394694,"is_reserved":false,"is_disabled":false,"rental_uris":{"android":"levelo://app?vid=14d4de31-c23b-433f-9f19-a0521e7e562f","ios":"levelo://app?vid=14d4de31-c23b-433f-9f19-a0521e7e562f"},"vehicle_type_id":"4","last_reported":1687370909,"current_range_meters":5600,"station_id":"ce4bh0p2rcd13ifvqd70","pricing_plan_id":"free"},{"bike_id":"12469d0e-3df5-4ca0-b1ea-50f51669d2e9","system_id":"levelo_inurba_marseille","lat":43.29421,"lon":5.38618,"is_reserved":false,"is_disabled":false,"rental_uris":{"android":"levelo://app?vid=12469d0e-3df5-4ca0-b1ea-50f51669d2e9","ios":"levelo://app?vid=12469d0e-3df5-4ca0-b1ea-50f51669d2e9"},"vehicle_type_id":"4","last_reported":1687370909,"current_range_meters":8000,"station_id":"ce4bh2h2rcd13ifvqdh0","pricing_plan_id":"free"},{"bike_id":"5e991787-5a24-4f7a-a834-4dfc56f55145","system_id":"levelo_inurba_marseille","lat":43.29422,"lon":5.38622,"is_reserved":false,"is_disabled":false,"rental_uris":{"android":"levelo://app?vid=5e991787-5a24-4f7a-a834-4dfc56f55145","ios":"levelo://app?vid=5e991787-5a24-4f7a-a834-4dfc56f55145"},"vehicle_type_id":"4","last_reported":1687370909,"current_range_meters":12000,"station_id":"ce4bh2h2rcd13ifvqdh0","pricing_plan_id":"free"},{"bike_id":"b1c64199-04ca-4a70-9de0-03cdd3939a6d","system_id":"levelo_inurba_marseille","lat":43.29417,"lon":5.38616,"is_reserved":false,"is_disabled":false,"rental_uris":{"android":"levelo://app?vid=b1c64199-04ca-4a70-9de0-03cdd3939a6d","ios":"levelo://app?vid=b1c64199-04ca-4a70-9de0-03cdd3939a6d"},"vehicle_type_id":"4","last_reported":1687370909,"current_range_meters":15200,"station_id":"ce4bh2h2rcd13ifvqdh0","pricing_plan_id":"free"},{"bike_id":"c0cb8f0e-9e76-4df0-9336-f4d5ebc1e527","system_id":"levelo_inurba_marseille","lat":43.29417,"lon":5.38617,"is_reserved":false,"is_disabled":false,"rental_uris":{"android":"levelo://app?vid=c0cb8f0e-9e76-4df0-9336-f4d5ebc1e527","ios":"levelo://app?vid=c0cb8f0e-9e76-4df0-9336-f4d5ebc1e527"},"vehicle_type_id":"4","last_reported":1687370909,"current_range_meters":7200,"station_id":"ce4bh2h2rcd13ifvqdh0","pricing_plan_id":"free"},{"bike_id":"5daa5356-5d61-4c5e-b3fa-717a626b8c9a","system_id":"levelo_inurba_marseille","lat":43.29418,"lon":5.3862,"is_reserved":false,"is_disabled":false,"rental_uris":{"android":"levelo://app?vid=5daa5356-5d61-4c5e-b3fa-717a626b8c9a","ios":"levelo://app?vid=5daa5356-5d61-4c5e-b3fa-717a626b8c9a"},"vehicle_type_id":"4","last_reported":1687370909,"current_range_meters":8800,"station_id":"ce4bh2h2rcd13ifvqdh0","pricing_plan_id":"free"},{"bike_id":"4d6706b1-9d02-4ca4-8788-f980b715cfeb","system_id":"levelo_inurba_marseille","lat":43.29418,"lon":5.38621,"is_reserved":false,"is_disabled":false,"rental_uris":{"android":"levelo://app?vid=4d6706b1-9d02-4ca4-8788-f980b715cfeb","ios":"levelo://app?vid=4d6706b1-9d02-4ca4-8788-f980b715cfeb"},"vehicle_type_id":"4","last_reported":1687370909,"current_range_meters":17200,"station_id":"ce4bh2h2rcd13ifvqdh0","pricing_plan_id":"free"},{"bike_id":"23d93928-84bd-4706-a11b-2eca2dcb0356","system_id":"levelo_inurba_marseille","lat":43.29413,"lon":5.38614,"is_reserved":false,"is_disabled":false,"rental_uris":{"android":"levelo://app?vid=23d93928-84bd-4706-a11b-2eca2dcb0356","ios":"levelo://app?vid=23d93928-84bd-4706-a11b-2eca2dcb0356"},"vehicle_type_id":"4","last_reported":1687370909,"current_range_meters":28400,"station_id":"ce4bh2h2rcd13ifvqdh0","pricing_plan_id":"free"},{"bike_id":"d219d81f-dfee-44da-b923-bb5f0511daa3","system_id":"levelo_inurba_marseille","lat":43.29419,"lon":5.38625,"is_reserved":false,"is_disabled":false,"rental_uris":{"android":"levelo://app?vid=d219d81f-dfee-44da-b923-bb5f0511daa3","ios":"levelo://app?vid=d219d81f-dfee-44da-b923-bb5f0511daa3"},"vehicle_type_id":"4","last_reported":1687370909,"current_range_meters":4400,"station_id":"ce4bh2h2rcd13ifvqdh0","pricing_plan_id":"free"},{"bike_id":"556ef209-2510-4ec4-98b5-ffdf6c92f32c","system_id":"levelo_inurba_marseille","lat":43.29417,"lon":5.38622,"is_reserved":false,"is_disabled":false,"rental_uris":{"android":"levelo://app?vid=556ef209-2510-4ec4-98b5-ffdf6c92f32c","ios":"levelo://app?vid=556ef209-2510-4ec4-98b5-ffdf6c92f32c"},"vehicle_type_id":"4","last_reported":1687370909,"current_range_meters":9600,"station_id":"ce4bh2h2rcd13ifvqdh0","pricing_plan_id":"free"},{"bike_id":"5062e34e-114b-4cc1-a529-13c661e4d38e","system_id":"levelo_inurba_marseille","lat":43.2942,"lon":5.38629,"is_reserved":false,"is_disabled":false,"rental_uris":{"android":"levelo://app?vid=5062e34e-114b-4cc1-a529-13c661e4d38e","ios":"levelo://app?vid=5062e34e-114b-4cc1-a529-13c661e4d38e"},"vehicle_type_id":"4","last_reported":1687370909,"current_range_meters":12800,"station_id":"ce4bh2h2rcd13ifvqdh0","pricing_plan_id":"free"},{"bike_id":"c9793947-2553-4c3d-b367-7150dbefe93a","system_id":"levelo_inurba_marseille","lat":43.29417,"lon":5.38624,"is_reserved":false,"is_disabled":false,"rental_uris":{"android":"levelo://app?vid=c9793947-2553-4c3d-b367-7150dbefe93a","ios":"levelo://app?vid=c9793947-2553-4c3d-b367-7150dbefe93a"},"vehicle_type_id":"4","last_reported":1687370909,"current_range_meters":22000,"station_id":"ce4bh2h2rcd13ifvqdh0","pricing_plan_id":"free"},{"bike_id":"64cc9ff4-f388-4c76-94dd-9b1f30158f5d","system_id":"levelo_inurba_marseille","lat":43.29419,"lon":5.38628,"is_reserved":false,"is_disabled":false,"rental_uris":{"android":"levelo://app?vid=64cc9ff4-f388-4c76-94dd-9b1f30158f5d","ios":"levelo://app?vid=64cc9ff4-f388-4c76-94dd-9b1f30158f5d"},"vehicle_type_id":"4","last_reported":1687370909,"current_range_meters":20800,"station_id":"ce4bh2h2rcd13ifvqdh0","pricing_plan_id":"free"},{"bike_id":"1fedf06c-b213-4b79-a0d8-fd2d5324150e","system_id":"levelo_inurba_marseille","lat":43.29416,"lon":5.38623,"is_reserved":false,"is_disabled":false,"rental_uris":{"android":"levelo://app?vid=1fedf06c-b213-4b79-a0d8-fd2d5324150e","ios":"levelo://app?vid=1fedf06c-b213-4b79-a0d8-fd2d5324150e"},"vehicle_type_id":"4","last_reported":1687370909,"current_range_meters":16800,"station_id":"ce4bh2h2rcd13ifvqdh0","pricing_plan_id":"free"},{"bike_id":"57862e7a-00d5-45c2-83c4-6aef1b9ef88e","system_id":"levelo_inurba_marseille","lat":43.29416,"lon":5.38624,"is_reserved":false,"is_disabled":false,"rental_uris":{"android":"levelo://app?vid=57862e7a-00d5-45c2-83c4-6aef1b9ef88e","ios":"levelo://app?vid=57862e7a-00d5-45c2-83c4-6aef1b9ef88e"},"vehicle_type_id":"4","last_reported":1687370909,"current_range_meters":26400,"station_id":"ce4bh2h2rcd13ifvqdh0","pricing_plan_id":"free"},{"bike_id":"b3f95771-49e1-4cd6-be92-7d54963182fe","system_id":"levelo_inurba_marseille","lat":43.29417,"lon":5.38626,"is_reserved":false,"is_disabled":false,"rental_uris":{"android":"levelo://app?vid=b3f95771-49e1-4cd6-be92-7d54963182fe","ios":"levelo://app?vid=b3f95771-49e1-4cd6-be92-7d54963182fe"},"vehicle_type_id":"4","last_reported":1687370909,"current_range_meters":27600,"station_id":"ce4bh2h2rcd13ifvqdh0","pricing_plan_id":"free"},{"bike_id":"2a5a52b7-74a6-4be3-b55c-5a74621fb274","system_id":"levelo_inurba_marseille","lat":43.29416,"lon":5.38625,"is_reserved":false,"is_disabled":false,"rental_uris":{"android":"levelo://app?vid=2a5a52b7-74a6-4be3-b55c-5a74621fb274","ios":"levelo://app?vid=2a5a52b7-74a6-4be3-b55c-5a74621fb274"},"vehicle_type_id":"4","last_reported":1687370909,"current_range_meters":11600,"station_id":"ce4bh2h2rcd13ifvqdh0","pricing_plan_id":"free"},{"bike_id":"f667310b-6501-4e7d-b2d6-bbe451adc31e","system_id":"levelo_inurba_marseille","lat":43.29413,"lon":5.38621,"is_reserved":false,"is_disabled":false,"rental_uris":{"android":"levelo://app?vid=f667310b-6501-4e7d-b2d6-bbe451adc31e","ios":"levelo://app?vid=f667310b-6501-4e7d-b2d6-bbe451adc31e"},"vehicle_type_id":"4","last_reported":1687370909,"current_range_meters":1600,"station_id":"ce4bh2h2rcd13ifvqdh0","pricing_plan_id":"free"},{"bike_id":"6e91b9a9-0d12-42d8-88a2-a36791541a8f","system_id":"levelo_inurba_marseille","lat":43.29414,"lon":5.38623,"is_reserved":false,"is_disabled":false,"rental_uris":{"android":"levelo://app?vid=6e91b9a9-0d12-42d8-88a2-a36791541a8f","ios":"levelo://app?vid=6e91b9a9-0d12-42d8-88a2-a36791541a8f"},"vehicle_type_id":"4","last_reported":1687370909,"current_range_meters":13600,"station_id":"ce4bh2h2rcd13ifvqdh0","pricing_plan_id":"free"},{"bike_id":"a03eef47-1c4a-43ea-a59a-869d3fccdd12","system_id":"levelo_inurba_marseille","lat":43.29416,"lon":5.38627,"is_reserved":false,"is_disabled":false,"rental_uris":{"android":"levelo://app?vid=a03eef47-1c4a-43ea-a59a-869d3fccdd12","ios":"levelo://app?vid=a03eef47-1c4a-43ea-a59a-869d3fccdd12"},"vehicle_type_id":"4","last_reported":1687370909,"current_range_meters":6800,"station_id":"ce4bh2h2rcd13ifvqdh0","pricing_plan_id":"free"},{"bike_id":"3f8a925a-6a54-4259-a38f-9cf091aab246","system_id":"levelo_inurba_marseille","lat":43.29412,"lon":5.3862,"is_reserved":false,"is_disabled":false,"rental_uris":{"android":"levelo://app?vid=3f8a925a-6a54-4259-a38f-9cf091aab246","ios":"levelo://app?vid=3f8a925a-6a54-4259-a38f-9cf091aab246"},"vehicle_type_id":"4","last_reported":1687370909,"current_range_meters":31200,"station_id":"ce4bh2h2rcd13ifvqdh0","pricing_plan_id":"free"},{"bike_id":"f459f43d-1ca2-4ffb-a899-eced0352f326","system_id":"levelo_inurba_marseille","lat":43.294162,"lon":5.386292,"is_reserved":false,"is_disabled":false,"rental_uris":{"android":"levelo://app?vid=f459f43d-1ca2-4ffb-a899-eced0352f326","ios":"levelo://app?vid=f459f43d-1ca2-4ffb-a899-eced0352f326"},"vehicle_type_id":"4","last_reported":1687370909,"current_range_meters":0,"station_id":"ce4bh2h2rcd13ifvqdh0","pricing_plan_id":"free"},{"bike_id":"141864d8-4455-46f4-9222-b8dd0362cac7","system_id":"levelo_inurba_marseille","lat":43.290327,"lon":5.375711,"is_reserved":false,"is_disabled":false,"rental_uris":{"android":"levelo://app?vid=141864d8-4455-46f4-9222-b8dd0362cac7","ios":"levelo://app?vid=141864d8-4455-46f4-9222-b8dd0362cac7"},"vehicle_type_id":"4","last_reported":1687370909,"current_range_meters":31200,"station_id":"ce4bh692rcd13ifvqe90","pricing_plan_id":"free"},{"bike_id":"b804f41b-17c1-480a-acc3-218f91356eb3","system_id":"levelo_inurba_marseille","lat":43.29415,"lon":5.38627,"is_reserved":false,"is_disabled":false,"rental_uris":{"android":"levelo://app?vid=b804f41b-17c1-480a-acc3-218f91356eb3","ios":"levelo://app?vid=b804f41b-17c1-480a-acc3-218f91356eb3"},"vehicle_type_id":"4","last_reported":1687370909,"current_range_meters":24800,"station_id":"ce4bh2h2rcd13ifvqdh0","pricing_plan_id":"free"},{"bike_id":"b55d046b-5f0d-4e9c-8522-7de85d7a1c61","system_id":"levelo_inurba_marseille","lat":43.29416,"lon":5.38629,"is_reserved":false,"is_disabled":false,"rental_uris":{"android":"levelo://app?vid=b55d046b-5f0d-4e9c-8522-7de85d7a1c61","ios":"levelo://app?vid=b55d046b-5f0d-4e9c-8522-7de85d7a1c61"},"vehicle_type_id":"4","last_reported":1687370909,"current_range_meters":23600,"station_id":"ce4bh2h2rcd13ifvqdh0","pricing_plan_id":"free"},{"bike_id":"4b017146-7c4c-4f06-9fab-b938fea8baa4","system_id":"levelo_inurba_marseille","lat":43.29415,"lon":5.38628,"is_reserved":false,"is_disabled":false,"rental_uris":{"android":"levelo://app?vid=4b017146-7c4c-4f06-9fab-b938fea8baa4","ios":"levelo://app?vid=4b017146-7c4c-4f06-9fab-b938fea8baa4"},"vehicle_type_id":"4","last_reported":1687370909,"current_range_meters":24800,"station_id":"ce4bh2h2rcd13ifvqdh0","pricing_plan_id":"free"},{"bike_id":"0609f09b-61e5-40d1-a057-3a5b9409ddd1","system_id":"levelo_inurba_marseille","lat":43.29411,"lon":5.38622,"is_reserved":false,"is_disabled":false,"rental_uris":{"android":"levelo://app?vid=0609f09b-61e5-40d1-a057-3a5b9409ddd1","ios":"levelo://app?vid=0609f09b-61e5-40d1-a057-3a5b9409ddd1"},"vehicle_type_id":"4","last_reported":1687370909,"current_range_meters":27600,"station_id":"ce4bh2h2rcd13ifvqdh0","pricing_plan_id":"free"},{"bike_id":"cb53ed09-1457-48b3-8a36-a168111270e0","system_id":"levelo_inurba_marseille","lat":43.29412,"lon":5.38626,"is_reserved":false,"is_disabled":false,"rental_uris":{"android":"levelo://app?vid=cb53ed09-1457-48b3-8a36-a168111270e0","ios":"levelo://app?vid=cb53ed09-1457-48b3-8a36-a168111270e0"},"vehicle_type_id":"4","last_reported":1687370909,"current_range_meters":6000,"station_id":"ce4bh2h2rcd13ifvqdh0","pricing_plan_id":"free"},{"bike_id":"b143243a-a885-42f6-8e50-f24606ee1f79","system_id":"levelo_inurba_marseille","lat":43.29414,"lon":5.3863,"is_reserved":false,"is_disabled":false,"rental_uris":{"android":"levelo://app?vid=b143243a-a885-42f6-8e50-f24606ee1f79","ios":"levelo://app?vid=b143243a-a885-42f6-8e50-f24606ee1f79"},"vehicle_type_id":"4","last_reported":1687370909,"current_range_meters":8000,"station_id":"ce4bh2h2rcd13ifvqdh0","pricing_plan_id":"free"},{"bike_id":"6bb05afa-1742-4f8b-a8b6-d6dccae9b898","system_id":"levelo_inurba_marseille","lat":43.29406,"lon":5.38619,"is_reserved":false,"is_disabled":false,"rental_uris":{"android":"levelo://app?vid=6bb05afa-1742-4f8b-a8b6-d6dccae9b898","ios":"levelo://app?vid=6bb05afa-1742-4f8b-a8b6-d6dccae9b898"},"vehicle_type_id":"4","last_reported":1687370909,"current_range_meters":10000,"station_id":"ce4bh2h2rcd13ifvqdh0","pricing_plan_id":"free"},{"bike_id":"57bcee52-df44-4da3-9ba0-07c1827de776","system_id":"levelo_inurba_marseille","lat":43.29412,"lon":5.3863,"is_reserved":false,"is_disabled":false,"rental_uris":{"android":"levelo://app?vid=57bcee52-df44-4da3-9ba0-07c1827de776","ios":"levelo://app?vid=57bcee52-df44-4da3-9ba0-07c1827de776"},"vehicle_type_id":"4","last_reported":1687370909,"current_range_meters":14000,"station_id":"ce4bh2h2rcd13ifvqdh0","pricing_plan_id":"free"},{"bike_id":"dcce7b26-512a-433d-bb47-2ef834fc3b6e","system_id":"levelo_inurba_marseille","lat":43.29412,"lon":5.3863,"is_reserved":false,"is_disabled":false,"rental_uris":{"android":"levelo://app?vid=dcce7b26-512a-433d-bb47-2ef834fc3b6e","ios":"levelo://app?vid=dcce7b26-512a-433d-bb47-2ef834fc3b6e"},"vehicle_type_id":"4","last_reported":1687370909,"current_range_meters":1200,"station_id":"ce4bh2h2rcd13ifvqdh0","pricing_plan_id":"free"},{"bike_id":"6aa16cc1-12e8-4dab-805f-fc79b301ab8c","system_id":"levelo_inurba_marseille","lat":43.29411,"lon":5.3863,"is_reserved":false,"is_disabled":false,"rental_uris":{"android":"levelo://app?vid=6aa16cc1-12e8-4dab-805f-fc79b301ab8c","ios":"levelo://app?vid=6aa16cc1-12e8-4dab-805f-fc79b301ab8c"},"vehicle_type_id":"4","last_reported":1687370909,"current_range_meters":4800,"station_id":"ce4bh2h2rcd13ifvqdh0","pricing_plan_id":"free"},{"bike_id":"e424b1b1-a4ea-42b4-bf96-2333b919d643","system_id":"levelo_inurba_marseille","lat":43.29409,"lon":5.38632,"is_reserved":false,"is_disabled":false,"rental_uris":{"android":"levelo://app?vid=e424b1b1-a4ea-42b4-bf96-2333b919d643","ios":"levelo://app?vid=e424b1b1-a4ea-42b4-bf96-2333b919d643"},"vehicle_type_id":"4","last_reported":1687370909,"current_range_meters":6400,"station_id":"ce4bh2h2rcd13ifvqdh0","pricing_plan_id":"free"},{"bike_id":"d907cb1a-4a73-4d00-8a98-711a0b7525c9","system_id":"levelo_inurba_marseille","lat":43.289468,"lon":5.363719,"is_reserved":false,"is_disabled":false,"rental_uris":{"android":"levelo://app?vid=d907cb1a-4a73-4d00-8a98-711a0b7525c9","ios":"levelo://app?vid=d907cb1a-4a73-4d00-8a98-711a0b7525c9"},"vehicle_type_id":"4","last_reported":1687370909,"current_range_meters":1600,"station_id":"ce4bhc92rcd13ifvqetg","pricing_plan_id":"free"},{"bike_id":"a66c9b66-f101-44c9-99e6-aad9aa69bc36","system_id":"levelo_inurba_marseille","lat":43.29405,"lon":5.38626,"is_reserved":false,"is_disabled":false,"rental_uris":{"android":"levelo://app?vid=a66c9b66-f101-44c9-99e6-aad9aa69bc36","ios":"levelo://app?vid=a66c9b66-f101-44c9-99e6-aad9aa69bc36"},"vehicle_type_id":"4","last_reported":1687370909,"current_range_meters":22400,"station_id":"ce4bh2h2rcd13ifvqdh0","pricing_plan_id":"free"},{"bike_id":"e053e4ef-c64c-49f1-833b-986400307407","system_id":"levelo_inurba_marseille","lat":43.29426,"lon":5.38665,"is_reserved":false,"is_disabled":false,"rental_uris":{"android":"levelo://app?vid=e053e4ef-c64c-49f1-833b-986400307407","ios":"levelo://app?vid=e053e4ef-c64c-49f1-833b-986400307407"},"vehicle_type_id":"4","last_reported":1687370909,"current_range_meters":11600,"station_id":"","pricing_plan_id":"free"},{"bike_id":"7d75377a-38c6-48cb-aedc-46d12c403e9a","system_id":"levelo_inurba_marseille","lat":43.289184,"lon":5.366408,"is_reserved":false,"is_disabled":false,"rental_uris":{"android":"levelo://app?vid=7d75377a-38c6-48cb-aedc-46d12c403e9a","ios":"levelo://app?vid=7d75377a-38c6-48cb-aedc-46d12c403e9a"},"vehicle_type_id":"4","last_reported":1687370909,"current_range_meters":11200,"station_id":"ce4bhap2rcd13ifvqek0","pricing_plan_id":"free"},{"bike_id":"5924eca5-b8cd-45b9-8c7c-dbfbf28beb02","system_id":"levelo_inurba_marseille","lat":43.29272,"lon":5.38439,"is_reserved":false,"is_disabled":false,"rental_uris":{"android":"levelo://app?vid=5924eca5-b8cd-45b9-8c7c-dbfbf28beb02","ios":"levelo://app?vid=5924eca5-b8cd-45b9-8c7c-dbfbf28beb02"},"vehicle_type_id":"4","last_reported":1687370909,"current_range_meters":18800,"station_id":"ce4bgip2rcd13ifvqbb0","pricing_plan_id":"free"},{"bike_id":"480f6172-054b-4378-ad7c-54da82e1cf20","system_id":"levelo_inurba_marseille","lat":43.29266,"lon":5.38435,"is_reserved":false,"is_disabled":false,"rental_uris":{"android":"levelo://app?vid=480f6172-054b-4378-ad7c-54da82e1cf20","ios":"levelo://app?vid=480f6172-054b-4378-ad7c-54da82e1cf20"},"vehicle_type_id":"4","last_reported":1687370909,"current_range_meters":23200,"station_id":"ce4bh692rcd13ifvqea0","pricing_plan_id":"free"},{"bike_id":"5ee4b91a-6f41-4726-b7e5-4c0be4c60950","system_id":"levelo_inurba_marseille","lat":43.29262,"lon":5.38429,"is_reserved":false,"is_disabled":false,"rental_uris":{"android":"levelo://app?vid=5ee4b91a-6f41-4726-b7e5-4c0be4c60950","ios":"levelo://app?vid=5ee4b91a-6f41-4726-b7e5-4c0be4c60950"},"vehicle_type_id":"4","last_reported":1687370909,"current_range_meters":28400,"station_id":"ce4bh692rcd13ifvqea0","pricing_plan_id":"free"},{"bike_id":"e1c6a2fa-0aae-4c58-ab67-13fb47a37c85","system_id":"levelo_inurba_marseille","lat":43.29263,"lon":5.38435,"is_reserved":false,"is_disabled":false,"rental_uris":{"android":"levelo://app?vid=e1c6a2fa-0aae-4c58-ab67-13fb47a37c85","ios":"levelo://app?vid=e1c6a2fa-0aae-4c58-ab67-13fb47a37c85"},"vehicle_type_id":"4","last_reported":1687370909,"current_range_meters":27600,"station_id":"ce4bh692rcd13ifvqea0","pricing_plan_id":"free"},{"bike_id":"cf6e217a-318a-4656-bed9-192447dbf053","system_id":"levelo_inurba_marseille","lat":43.29262,"lon":5.38437,"is_reserved":false,"is_disabled":false,"rental_uris":{"android":"levelo://app?vid=cf6e217a-318a-4656-bed9-192447dbf053","ios":"levelo://app?vid=cf6e217a-318a-4656-bed9-192447dbf053"},"vehicle_type_id":"4","last_reported":1687370909,"current_range_meters":2000,"station_id":"ce4bh692rcd13ifvqea0","pricing_plan_id":"free"},{"bike_id":"cebd88fa-d056-4f77-bf6b-e9cf44fe8d2a","system_id":"levelo_inurba_marseille","lat":43.29263,"lon":5.3844,"is_reserved":false,"is_disabled":false,"rental_uris":{"android":"levelo://app?vid=cebd88fa-d056-4f77-bf6b-e9cf44fe8d2a","ios":"levelo://app?vid=cebd88fa-d056-4f77-bf6b-e9cf44fe8d2a"},"vehicle_type_id":"4","last_reported":1687370909,"current_range_meters":4800,"station_id":"ce4bh692rcd13ifvqea0","pricing_plan_id":"free"},{"bike_id":"1851c252-4198-4765-93ae-c4fdf643b927","system_id":"levelo_inurba_marseille","lat":43.29261,"lon":5.38436,"is_reserved":false,"is_disabled":false,"rental_uris":{"android":"levelo://app?vid=1851c252-4198-4765-93ae-c4fdf643b927","ios":"levelo://app?vid=1851c252-4198-4765-93ae-c4fdf643b927"},"vehicle_type_id":"4","last_reported":1687370909,"current_range_meters":26400,"station_id":"ce4bh692rcd13ifvqea0","pricing_plan_id":"free"},{"bike_id":"c0ca2879-9e77-4315-b57e-b7057524210d","system_id":"levelo_inurba_marseille","lat":43.292644,"lon":5.384257,"is_reserved":false,"is_disabled":false,"rental_uris":{"android":"levelo://app?vid=c0ca2879-9e77-4315-b57e-b7057524210d","ios":"levelo://app?vid=c0ca2879-9e77-4315-b57e-b7057524210d"},"vehicle_type_id":"4","last_reported":1687370909,"current_range_meters":10000,"station_id":"ce4bh692rcd13ifvqea0","pricing_plan_id":"free"},{"bike_id":"c4b4d5a4-54d3-4884-99be-dd660a3b96cd","system_id":"levelo_inurba_marseille","lat":43.29262,"lon":5.38439,"is_reserved":false,"is_disabled":false,"rental_uris":{"android":"levelo://app?vid=c4b4d5a4-54d3-4884-99be-dd660a3b96cd","ios":"levelo://app?vid=c4b4d5a4-54d3-4884-99be-dd660a3b96cd"},"vehicle_type_id":"4","last_reported":1687370909,"current_range_meters":22400,"station_id":"ce4bh692rcd13ifvqea0","pricing_plan_id":"free"},{"bike_id":"98bd934b-719d-473d-acb7-bcf4b1c492a6","system_id":"levelo_inurba_marseille","lat":43.29264,"lon":5.38449,"is_reserved":false,"is_disabled":false,"rental_uris":{"android":"levelo://app?vid=98bd934b-719d-473d-acb7-bcf4b1c492a6","ios":"levelo://app?vid=98bd934b-719d-473d-acb7-bcf4b1c492a6"},"vehicle_type_id":"4","last_reported":1687370909,"current_range_meters":0,"station_id":"ce4bh692rcd13ifvqea0","pricing_plan_id":"free"},{"bike_id":"b4c0edef-1ef8-4796-8942-022582cba013","system_id":"levelo_inurba_marseille","lat":43.29258,"lon":5.38436,"is_reserved":false,"is_disabled":false,"rental_uris":{"android":"levelo://app?vid=b4c0edef-1ef8-4796-8942-022582cba013","ios":"levelo://app?vid=b4c0edef-1ef8-4796-8942-022582cba013"},"vehicle_type_id":"4","last_reported":1687370909,"current_range_meters":12800,"station_id":"ce4bh692rcd13ifvqea0","pricing_plan_id":"free"},{"bike_id":"0a6bdd83-f309-4819-9eeb-738bbcbd1e61","system_id":"levelo_inurba_marseille","lat":43.29256,"lon":5.38432,"is_reserved":false,"is_disabled":false,"rental_uris":{"android":"levelo://app?vid=0a6bdd83-f309-4819-9eeb-738bbcbd1e61","ios":"levelo://app?vid=0a6bdd83-f309-4819-9eeb-738bbcbd1e61"},"vehicle_type_id":"4","last_reported":1687370909,"current_range_meters":1200,"station_id":"ce4bh692rcd13ifvqea0","pricing_plan_id":"free"},{"bike_id":"90f3de37-aa8b-4550-b80d-2014e28238f4","system_id":"levelo_inurba_marseille","lat":43.29258,"lon":5.38437,"is_reserved":false,"is_disabled":false,"rental_uris":{"android":"levelo://app?vid=90f3de37-aa8b-4550-b80d-2014e28238f4","ios":"levelo://app?vid=90f3de37-aa8b-4550-b80d-2014e28238f4"},"vehicle_type_id":"4","last_reported":1687370909,"current_range_meters":4800,"station_id":"ce4bh692rcd13ifvqea0","pricing_plan_id":"free"},{"bike_id":"f1977299-3f2b-4212-bff3-33746ff7cc3e","system_id":"levelo_inurba_marseille","lat":43.29259,"lon":5.3844,"is_reserved":false,"is_disabled":false,"rental_uris":{"android":"levelo://app?vid=f1977299-3f2b-4212-bff3-33746ff7cc3e","ios":"levelo://app?vid=f1977299-3f2b-4212-bff3-33746ff7cc3e"},"vehicle_type_id":"4","last_reported":1687370909,"current_range_meters":19600,"station_id":"ce4bh692rcd13ifvqea0","pricing_plan_id":"free"},{"bike_id":"a6c5255c-0785-4fc8-9c59-8aa23a423d09","system_id":"levelo_inurba_marseille","lat":43.29257,"lon":5.38436,"is_reserved":false,"is_disabled":false,"rental_uris":{"android":"levelo://app?vid=a6c5255c-0785-4fc8-9c59-8aa23a423d09","ios":"levelo://app?vid=a6c5255c-0785-4fc8-9c59-8aa23a423d09"},"vehicle_type_id":"4","last_reported":1687370909,"current_range_meters":0,"station_id":"ce4bh692rcd13ifvqea0","pricing_plan_id":"free"},{"bike_id":"ab5ab02d-4d4c-4509-a0e2-ba35249d516b","system_id":"levelo_inurba_marseille","lat":43.29261,"lon":5.38445,"is_reserved":false,"is_disabled":false,"rental_uris":{"android":"levelo://app?vid=ab5ab02d-4d4c-4509-a0e2-ba35249d516b","ios":"levelo://app?vid=ab5ab02d-4d4c-4509-a0e2-ba35249d516b"},"vehicle_type_id":"4","last_reported":1687370909,"current_range_meters":2800,"station_id":"ce4bh692rcd13ifvqea0","pricing_plan_id":"free"},{"bike_id":"d9c36832-856e-4a3e-9028-426dee8d3fa3","system_id":"levelo_inurba_marseille","lat":43.292644,"lon":5.384257,"is_reserved":false,"is_disabled":false,"rental_uris":{"android":"levelo://app?vid=d9c36832-856e-4a3e-9028-426dee8d3fa3","ios":"levelo://app?vid=d9c36832-856e-4a3e-9028-426dee8d3fa3"},"vehicle_type_id":"4","last_reported":1687370909,"current_range_meters":22000,"station_id":"ce4bh692rcd13ifvqea0","pricing_plan_id":"free"},{"bike_id":"cb380ef2-11e7-48f7-b652-7c36d461954a","system_id":"levelo_inurba_marseille","lat":43.29256,"lon":5.38438,"is_reserved":false,"is_disabled":false,"rental_uris":{"android":"levelo://app?vid=cb380ef2-11e7-48f7-b652-7c36d461954a","ios":"levelo://app?vid=cb380ef2-11e7-48f7-b652-7c36d461954a"},"vehicle_type_id":"4","last_reported":1687370909,"current_range_meters":11600,"station_id":"ce4bh692rcd13ifvqea0","pricing_plan_id":"free"},{"bike_id":"82de8d15-2800-4f19-be56-da7f41dd6385","system_id":"levelo_inurba_marseille","lat":43.29256,"lon":5.38438,"is_reserved":false,"is_disabled":false,"rental_uris":{"android":"levelo://app?vid=82de8d15-2800-4f19-be56-da7f41dd6385","ios":"levelo://app?vid=82de8d15-2800-4f19-be56-da7f41dd6385"},"vehicle_type_id":"4","last_reported":1687370909,"current_range_meters":22400,"station_id":"ce4bh692rcd13ifvqea0","pricing_plan_id":"free"},{"bike_id":"38eb09af-7166-42b9-865e-84246929498f","system_id":"levelo_inurba_marseille","lat":43.292644,"lon":5.384257,"is_reserved":false,"is_disabled":false,"rental_uris":{"android":"levelo://app?vid=38eb09af-7166-42b9-865e-84246929498f","ios":"levelo://app?vid=38eb09af-7166-42b9-865e-84246929498f"},"vehicle_type_id":"4","last_reported":1687370909,"current_range_meters":31600,"station_id":"ce4bh692rcd13ifvqea0","pricing_plan_id":"free"},{"bike_id":"8c9bc9c1-6de4-44ba-9306-6fcecdbb6ea7","system_id":"levelo_inurba_marseille","lat":43.292644,"lon":5.384257,"is_reserved":false,"is_disabled":false,"rental_uris":{"android":"levelo://app?vid=8c9bc9c1-6de4-44ba-9306-6fcecdbb6ea7","ios":"levelo://app?vid=8c9bc9c1-6de4-44ba-9306-6fcecdbb6ea7"},"vehicle_type_id":"4","last_reported":1687370909,"current_range_meters":20400,"station_id":"ce4bh692rcd13ifvqea0","pricing_plan_id":"free"},{"bike_id":"db193e39-f994-40d4-8567-af7fdfc7d932","system_id":"levelo_inurba_marseille","lat":43.29257,"lon":5.38441,"is_reserved":false,"is_disabled":false,"rental_uris":{"android":"levelo://app?vid=db193e39-f994-40d4-8567-af7fdfc7d932","ios":"levelo://app?vid=db193e39-f994-40d4-8567-af7fdfc7d932"},"vehicle_type_id":"4","last_reported":1687370909,"current_range_meters":2800,"station_id":"ce4bh692rcd13ifvqea0","pricing_plan_id":"free"},{"bike_id":"6e57227c-0558-45ea-9375-6f379efbbd00","system_id":"levelo_inurba_marseille","lat":43.29252,"lon":5.38433,"is_reserved":false,"is_disabled":false,"rental_uris":{"android":"levelo://app?vid=6e57227c-0558-45ea-9375-6f379efbbd00","ios":"levelo://app?vid=6e57227c-0558-45ea-9375-6f379efbbd00"},"vehicle_type_id":"4","last_reported":1687370909,"current_range_meters":11200,"station_id":"ce4bh692rcd13ifvqea0","pricing_plan_id":"free"},{"bike_id":"14532a89-8064-4eb5-ba54-bf8ebaef3f4d","system_id":"levelo_inurba_marseille","lat":43.29257,"lon":5.38444,"is_reserved":false,"is_disabled":false,"rental_uris":{"android":"levelo://app?vid=14532a89-8064-4eb5-ba54-bf8ebaef3f4d","ios":"levelo://app?vid=14532a89-8064-4eb5-ba54-bf8ebaef3f4d"},"vehicle_type_id":"4","last_reported":1687370909,"current_range_meters":12800,"station_id":"ce4bh692rcd13ifvqea0","pricing_plan_id":"free"},{"bike_id":"c4a01258-d28c-4ec8-a5c0-5185a9110f39","system_id":"levelo_inurba_marseille","lat":43.29251,"lon":5.38432,"is_reserved":false,"is_disabled":false,"rental_uris":{"android":"levelo://app?vid=c4a01258-d28c-4ec8-a5c0-5185a9110f39","ios":"levelo://app?vid=c4a01258-d28c-4ec8-a5c0-5185a9110f39"},"vehicle_type_id":"4","last_reported":1687370909,"current_range_meters":11600,"station_id":"ce4bh692rcd13ifvqea0","pricing_plan_id":"free"},{"bike_id":"bb30dac8-31ae-4f7d-9c0e-2ccf5168a1fc","system_id":"levelo_inurba_marseille","lat":43.29254,"lon":5.3844,"is_reserved":false,"is_disabled":false,"rental_uris":{"android":"levelo://app?vid=bb30dac8-31ae-4f7d-9c0e-2ccf5168a1fc","ios":"levelo://app?vid=bb30dac8-31ae-4f7d-9c0e-2ccf5168a1fc"},"vehicle_type_id":"4","last_reported":1687370909,"current_range_meters":0,"station_id":"ce4bh692rcd13ifvqea0","pricing_plan_id":"free"},{"bike_id":"a8803c9e-7338-4791-9a71-03e2ad5b6e0d","system_id":"levelo_inurba_marseille","lat":43.29254,"lon":5.3844,"is_reserved":false,"is_disabled":false,"rental_uris":{"android":"levelo://app?vid=a8803c9e-7338-4791-9a71-03e2ad5b6e0d","ios":"levelo://app?vid=a8803c9e-7338-4791-9a71-03e2ad5b6e0d"},"vehicle_type_id":"4","last_reported":1687370909,"current_range_meters":13200,"station_id":"ce4bh692rcd13ifvqea0","pricing_plan_id":"free"},{"bike_id":"c9698bab-c312-4c03-a230-4429b6a655f2","system_id":"levelo_inurba_marseille","lat":43.292644,"lon":5.384257,"is_reserved":false,"is_disabled":false,"rental_uris":{"android":"levelo://app?vid=c9698bab-c312-4c03-a230-4429b6a655f2","ios":"levelo://app?vid=c9698bab-c312-4c03-a230-4429b6a655f2"},"vehicle_type_id":"4","last_reported":1687370909,"current_range_meters":0,"station_id":"ce4bh692rcd13ifvqea0","pricing_plan_id":"free"},{"bike_id":"51c94ac5-ad35-4d1f-a04a-86afb72fa89e","system_id":"levelo_inurba_marseille","lat":43.29253,"lon":5.3844,"is_reserved":false,"is_disabled":false,"rental_uris":{"android":"levelo://app?vid=51c94ac5-ad35-4d1f-a04a-86afb72fa89e","ios":"levelo://app?vid=51c94ac5-ad35-4d1f-a04a-86afb72fa89e"},"vehicle_type_id":"4","last_reported":1687370909,"current_range_meters":24000,"station_id":"ce4bh692rcd13ifvqea0","pricing_plan_id":"free"},{"bike_id":"ece978e5-d5e8-43e7-b7ed-1a4edeaaa5a2","system_id":"levelo_inurba_marseille","lat":43.29252,"lon":5.38439,"is_reserved":false,"is_disabled":false,"rental_uris":{"android":"levelo://app?vid=ece978e5-d5e8-43e7-b7ed-1a4edeaaa5a2","ios":"levelo://app?vid=ece978e5-d5e8-43e7-b7ed-1a4edeaaa5a2"},"vehicle_type_id":"4","last_reported":1687370909,"current_range_meters":0,"station_id":"ce4bh692rcd13ifvqea0","pricing_plan_id":"free"},{"bike_id":"901b023e-9aff-49e7-8cd5-710887367712","system_id":"levelo_inurba_marseille","lat":43.292644,"lon":5.384257,"is_reserved":false,"is_disabled":false,"rental_uris":{"android":"levelo://app?vid=901b023e-9aff-49e7-8cd5-710887367712","ios":"levelo://app?vid=901b023e-9aff-49e7-8cd5-710887367712"},"vehicle_type_id":"4","last_reported":1687370909,"current_range_meters":16800,"station_id":"ce4bh692rcd13ifvqea0","pricing_plan_id":"free"},{"bike_id":"109df3f3-164e-4fc7-8886-65748a5bf27e","system_id":"levelo_inurba_marseille","lat":43.292644,"lon":5.384257,"is_reserved":false,"is_disabled":false,"rental_uris":{"android":"levelo://app?vid=109df3f3-164e-4fc7-8886-65748a5bf27e","ios":"levelo://app?vid=109df3f3-164e-4fc7-8886-65748a5bf27e"},"vehicle_type_id":"4","last_reported":1687370909,"current_range_meters":25600,"station_id":"ce4bh692rcd13ifvqea0","pricing_plan_id":"free"},{"bike_id":"1ee039c9-6f9e-4b72-b23e-31b9d22e4229","system_id":"levelo_inurba_marseille","lat":43.292644,"lon":5.384257,"is_reserved":false,"is_disabled":false,"rental_uris":{"android":"levelo://app?vid=1ee039c9-6f9e-4b72-b23e-31b9d22e4229","ios":"levelo://app?vid=1ee039c9-6f9e-4b72-b23e-31b9d22e4229"},"vehicle_type_id":"4","last_reported":1687370909,"current_range_meters":6800,"station_id":"ce4bh692rcd13ifvqea0","pricing_plan_id":"free"},{"bike_id":"2f03f0dd-5a42-4e2c-b4d5-73d75d430246","system_id":"levelo_inurba_marseille","lat":43.29255,"lon":5.38446,"is_reserved":false,"is_disabled":false,"rental_uris":{"android":"levelo://app?vid=2f03f0dd-5a42-4e2c-b4d5-73d75d430246","ios":"levelo://app?vid=2f03f0dd-5a42-4e2c-b4d5-73d75d430246"},"vehicle_type_id":"4","last_reported":1687370909,"current_range_meters":14400,"station_id":"","pricing_plan_id":"free"},{"bike_id":"fc488e7e-6f76-4707-bf83-66c59215fd0f","system_id":"levelo_inurba_marseille","lat":43.2925,"lon":5.38437,"is_reserved":false,"is_disabled":false,"rental_uris":{"android":"levelo://app?vid=fc488e7e-6f76-4707-bf83-66c59215fd0f","ios":"levelo://app?vid=fc488e7e-6f76-4707-bf83-66c59215fd0f"},"vehicle_type_id":"4","last_reported":1687370909,"current_range_meters":26800,"station_id":"ce4bh692rcd13ifvqea0","pricing_plan_id":"free"},{"bike_id":"0bd2a4f2-7800-4877-bb9c-27a6f6711edb","system_id":"levelo_inurba_marseille","lat":43.292644,"lon":5.384257,"is_reserved":false,"is_disabled":false,"rental_uris":{"android":"levelo://app?vid=0bd2a4f2-7800-4877-bb9c-27a6f6711edb","ios":"levelo://app?vid=0bd2a4f2-7800-4877-bb9c-27a6f6711edb"},"vehicle_type_id":"4","last_reported":1687370909,"current_range_meters":17600,"station_id":"ce4bh692rcd13ifvqea0","pricing_plan_id":"free"},{"bike_id":"0978ea99-9dbd-4d3b-8e4b-741b353efd2f","system_id":"levelo_inurba_marseille","lat":43.292644,"lon":5.384257,"is_reserved":false,"is_disabled":false,"rental_uris":{"android":"levelo://app?vid=0978ea99-9dbd-4d3b-8e4b-741b353efd2f","ios":"levelo://app?vid=0978ea99-9dbd-4d3b-8e4b-741b353efd2f"},"vehicle_type_id":"4","last_reported":1687370909,"current_range_meters":30800,"station_id":"ce4bh692rcd13ifvqea0","pricing_plan_id":"free"},{"bike_id":"986e6a6b-142d-4377-8446-f8d69aa410f4","system_id":"levelo_inurba_marseille","lat":43.29254,"lon":5.38447,"is_reserved":false,"is_disabled":false,"rental_uris":{"android":"levelo://app?vid=986e6a6b-142d-4377-8446-f8d69aa410f4","ios":"levelo://app?vid=986e6a6b-142d-4377-8446-f8d69aa410f4"},"vehicle_type_id":"4","last_reported":1687370909,"current_range_meters":0,"station_id":"ce4bh692rcd13ifvqea0","pricing_plan_id":"free"},{"bike_id":"032a1b33-a3db-4ade-a835-783e1efa110c","system_id":"levelo_inurba_marseille","lat":43.29248,"lon":5.38435,"is_reserved":false,"is_disabled":false,"rental_uris":{"android":"levelo://app?vid=032a1b33-a3db-4ade-a835-783e1efa110c","ios":"levelo://app?vid=032a1b33-a3db-4ade-a835-783e1efa110c"},"vehicle_type_id":"4","last_reported":1687370909,"current_range_meters":0,"station_id":"ce4bh692rcd13ifvqea0","pricing_plan_id":"free"},{"bike_id":"4c1f562c-1e6e-452d-861d-bef18a603830","system_id":"levelo_inurba_marseille","lat":43.2925,"lon":5.38441,"is_reserved":false,"is_disabled":false,"rental_uris":{"android":"levelo://app?vid=4c1f562c-1e6e-452d-861d-bef18a603830","ios":"levelo://app?vid=4c1f562c-1e6e-452d-861d-bef18a603830"},"vehicle_type_id":"4","last_reported":1687370909,"current_range_meters":22000,"station_id":"ce4bh692rcd13ifvqea0","pricing_plan_id":"free"},{"bike_id":"215f01a5-b1b1-4e02-b640-dba8da112be5","system_id":"levelo_inurba_marseille","lat":43.29252,"lon":5.38446,"is_reserved":false,"is_disabled":false,"rental_uris":{"android":"levelo://app?vid=215f01a5-b1b1-4e02-b640-dba8da112be5","ios":"levelo://app?vid=215f01a5-b1b1-4e02-b640-dba8da112be5"},"vehicle_type_id":"4","last_reported":1687370909,"current_range_meters":5600,"station_id":"ce4bh692rcd13ifvqea0","pricing_plan_id":"free"},{"bike_id":"05091e55-a56f-452a-976c-ce732fa6bad3","system_id":"levelo_inurba_marseille","lat":43.2925,"lon":5.38446,"is_reserved":false,"is_disabled":false,"rental_uris":{"android":"levelo://app?vid=05091e55-a56f-452a-976c-ce732fa6bad3","ios":"levelo://app?vid=05091e55-a56f-452a-976c-ce732fa6bad3"},"vehicle_type_id":"4","last_reported":1687370909,"current_range_meters":11600,"station_id":"ce4bh692rcd13ifvqea0","pricing_plan_id":"free"},{"bike_id":"bf99b357-1923-4700-b7f6-4cadffdcae65","system_id":"levelo_inurba_marseille","lat":43.29248,"lon":5.38442,"is_reserved":false,"is_disabled":false,"rental_uris":{"android":"levelo://app?vid=bf99b357-1923-4700-b7f6-4cadffdcae65","ios":"levelo://app?vid=bf99b357-1923-4700-b7f6-4cadffdcae65"},"vehicle_type_id":"4","last_reported":1687370909,"current_range_meters":800,"station_id":"ce4bh692rcd13ifvqea0","pricing_plan_id":"free"},{"bike_id":"59d125af-16ef-419c-b0b1-36a03e1202e7","system_id":"levelo_inurba_marseille","lat":43.3304,"lon":5.38918,"is_reserved":false,"is_disabled":false,"rental_uris":{"android":"levelo://app?vid=59d125af-16ef-419c-b0b1-36a03e1202e7","ios":"levelo://app?vid=59d125af-16ef-419c-b0b1-36a03e1202e7"},"vehicle_type_id":"4","last_reported":1687370909,"current_range_meters":4800,"station_id":"ce4bhr92rcd13ifvqhrg","pricing_plan_id":"free"},{"bike_id":"078a5b0a-9f7d-4a31-bb26-0809e0066315","system_id":"levelo_inurba_marseille","lat":43.33047,"lon":5.38914,"is_reserved":false,"is_disabled":false,"rental_uris":{"android":"levelo://app?vid=078a5b0a-9f7d-4a31-bb26-0809e0066315","ios":"levelo://app?vid=078a5b0a-9f7d-4a31-bb26-0809e0066315"},"vehicle_type_id":"4","last_reported":1687370909,"current_range_meters":18800,"station_id":"ce4bhr92rcd13ifvqhrg","pricing_plan_id":"free"},{"bike_id":"e1a45b0a-bebd-4c51-9017-f46b52c8e6b7","system_id":"levelo_inurba_marseille","lat":43.33043,"lon":5.38922,"is_reserved":false,"is_disabled":false,"rental_uris":{"android":"levelo://app?vid=e1a45b0a-bebd-4c51-9017-f46b52c8e6b7","ios":"levelo://app?vid=e1a45b0a-bebd-4c51-9017-f46b52c8e6b7"},"vehicle_type_id":"4","last_reported":1687370909,"current_range_meters":400,"station_id":"ce4bhr92rcd13ifvqhrg","pricing_plan_id":"free"},{"bike_id":"a76819d6-d3cf-4725-9758-3ddfb405a5b6","system_id":"levelo_inurba_marseille","lat":43.33045,"lon":5.3892,"is_reserved":false,"is_disabled":false,"rental_uris":{"android":"levelo://app?vid=a76819d6-d3cf-4725-9758-3ddfb405a5b6","ios":"levelo://app?vid=a76819d6-d3cf-4725-9758-3ddfb405a5b6"},"vehicle_type_id":"4","last_reported":1687370909,"current_range_meters":14800,"station_id":"ce4bhr92rcd13ifvqhrg","pricing_plan_id":"free"},{"bike_id":"86e87ce5-c74b-4a02-8679-cb3841fd3721","system_id":"levelo_inurba_marseille","lat":43.290025,"lon":5.356256,"is_reserved":false,"is_disabled":false,"rental_uris":{"android":"levelo://app?vid=86e87ce5-c74b-4a02-8679-cb3841fd3721","ios":"levelo://app?vid=86e87ce5-c74b-4a02-8679-cb3841fd3721"},"vehicle_type_id":"4","last_reported":1687370909,"current_range_meters":31200,"station_id":"ce4bhb92rcd13ifvqen0","pricing_plan_id":"free"},{"bike_id":"5100f80c-9ff1-4846-bb3b-7bf389ea0f73","system_id":"levelo_inurba_marseille","lat":43.290995,"lon":5.381361,"is_reserved":false,"is_disabled":false,"rental_uris":{"android":"levelo://app?vid=5100f80c-9ff1-4846-bb3b-7bf389ea0f73","ios":"levelo://app?vid=5100f80c-9ff1-4846-bb3b-7bf389ea0f73"},"vehicle_type_id":"4","last_reported":1687370909,"current_range_meters":31200,"station_id":"ce4bh512rcd13ifvqe2g","pricing_plan_id":"free"},{"bike_id":"281aaaa4-4f0a-4563-90ab-9f554eb335b2","system_id":"levelo_inurba_marseille","lat":43.290995,"lon":5.381361,"is_reserved":false,"is_disabled":false,"rental_uris":{"android":"levelo://app?vid=281aaaa4-4f0a-4563-90ab-9f554eb335b2","ios":"levelo://app?vid=281aaaa4-4f0a-4563-90ab-9f554eb335b2"},"vehicle_type_id":"4","last_reported":1687370909,"current_range_meters":20800,"station_id":"ce4bh512rcd13ifvqe2g","pricing_plan_id":"free"},{"bike_id":"1eb8cc70-597a-4bd5-872a-441025962f44","system_id":"levelo_inurba_marseille","lat":43.290995,"lon":5.381361,"is_reserved":false,"is_disabled":false,"rental_uris":{"android":"levelo://app?vid=1eb8cc70-597a-4bd5-872a-441025962f44","ios":"levelo://app?vid=1eb8cc70-597a-4bd5-872a-441025962f44"},"vehicle_type_id":"4","last_reported":1687370909,"current_range_meters":31200,"station_id":"ce4bh512rcd13ifvqe2g","pricing_plan_id":"free"},{"bike_id":"2eec7001-aa51-4fe6-875f-c82cd8d8e0ae","system_id":"levelo_inurba_marseille","lat":43.290995,"lon":5.381361,"is_reserved":false,"is_disabled":false,"rental_uris":{"android":"levelo://app?vid=2eec7001-aa51-4fe6-875f-c82cd8d8e0ae","ios":"levelo://app?vid=2eec7001-aa51-4fe6-875f-c82cd8d8e0ae"},"vehicle_type_id":"4","last_reported":1687370909,"current_range_meters":20400,"station_id":"ce4bh512rcd13ifvqe2g","pricing_plan_id":"free"},{"bike_id":"a6b01308-a800-4e7e-856d-b7ca22d72af4","system_id":"levelo_inurba_marseille","lat":43.290995,"lon":5.381361,"is_reserved":false,"is_disabled":false,"rental_uris":{"android":"levelo://app?vid=a6b01308-a800-4e7e-856d-b7ca22d72af4","ios":"levelo://app?vid=a6b01308-a800-4e7e-856d-b7ca22d72af4"},"vehicle_type_id":"4","last_reported":1687370909,"current_range_meters":31200,"station_id":"ce4bh512rcd13ifvqe2g","pricing_plan_id":"free"},{"bike_id":"6ae1f001-9584-4f34-b286-947cb209b303","system_id":"levelo_inurba_marseille","lat":43.290995,"lon":5.381361,"is_reserved":false,"is_disabled":false,"rental_uris":{"android":"levelo://app?vid=6ae1f001-9584-4f34-b286-947cb209b303","ios":"levelo://app?vid=6ae1f001-9584-4f34-b286-947cb209b303"},"vehicle_type_id":"4","last_reported":1687370909,"current_range_meters":23600,"station_id":"ce4bh512rcd13ifvqe2g","pricing_plan_id":"free"},{"bike_id":"ace47a4b-a5ec-47ef-b88e-e83321d2e9ee","system_id":"levelo_inurba_marseille","lat":43.290995,"lon":5.381361,"is_reserved":false,"is_disabled":false,"rental_uris":{"android":"levelo://app?vid=ace47a4b-a5ec-47ef-b88e-e83321d2e9ee","ios":"levelo://app?vid=ace47a4b-a5ec-47ef-b88e-e83321d2e9ee"},"vehicle_type_id":"4","last_reported":1687370909,"current_range_meters":28000,"station_id":"ce4bh512rcd13ifvqe2g","pricing_plan_id":"free"},{"bike_id":"c12a39f5-e2db-468a-bf2e-e08dbef73a26","system_id":"levelo_inurba_marseille","lat":43.290995,"lon":5.381361,"is_reserved":false,"is_disabled":false,"rental_uris":{"android":"levelo://app?vid=c12a39f5-e2db-468a-bf2e-e08dbef73a26","ios":"levelo://app?vid=c12a39f5-e2db-468a-bf2e-e08dbef73a26"},"vehicle_type_id":"4","last_reported":1687370909,"current_range_meters":26000,"station_id":"ce4bh512rcd13ifvqe2g","pricing_plan_id":"free"},{"bike_id":"f3527626-9870-4cf1-87ea-f234e13f86cd","system_id":"levelo_inurba_marseille","lat":43.290995,"lon":5.381361,"is_reserved":false,"is_disabled":false,"rental_uris":{"android":"levelo://app?vid=f3527626-9870-4cf1-87ea-f234e13f86cd","ios":"levelo://app?vid=f3527626-9870-4cf1-87ea-f234e13f86cd"},"vehicle_type_id":"4","last_reported":1687370909,"current_range_meters":12800,"station_id":"ce4bh512rcd13ifvqe2g","pricing_plan_id":"free"},{"bike_id":"78d92aec-e547-4189-b789-fe8c4a2b4847","system_id":"levelo_inurba_marseille","lat":43.295169,"lon":5.390426,"is_reserved":false,"is_disabled":false,"rental_uris":{"android":"levelo://app?vid=78d92aec-e547-4189-b789-fe8c4a2b4847","ios":"levelo://app?vid=78d92aec-e547-4189-b789-fe8c4a2b4847"},"vehicle_type_id":"4","last_reported":1687370909,"current_range_meters":5200,"station_id":"ce4bh3p2rcd13ifvqdp0","pricing_plan_id":"free"},{"bike_id":"e848ec25-89d6-40e1-afa5-9824cad16dae","system_id":"levelo_inurba_marseille","lat":43.295169,"lon":5.390426,"is_reserved":false,"is_disabled":false,"rental_uris":{"android":"levelo://app?vid=e848ec25-89d6-40e1-afa5-9824cad16dae","ios":"levelo://app?vid=e848ec25-89d6-40e1-afa5-9824cad16dae"},"vehicle_type_id":"4","last_reported":1687370909,"current_range_meters":25200,"station_id":"ce4bh3p2rcd13ifvqdp0","pricing_plan_id":"free"},{"bike_id":"40cf9b6d-a9aa-4709-b4f3-5ce0dab9c822","system_id":"levelo_inurba_marseille","lat":43.295169,"lon":5.390426,"is_reserved":false,"is_disabled":false,"rental_uris":{"android":"levelo://app?vid=40cf9b6d-a9aa-4709-b4f3-5ce0dab9c822","ios":"levelo://app?vid=40cf9b6d-a9aa-4709-b4f3-5ce0dab9c822"},"vehicle_type_id":"4","last_reported":1687370909,"current_range_meters":12400,"station_id":"ce4bh3p2rcd13ifvqdp0","pricing_plan_id":"free"},{"bike_id":"5863179b-f4ba-4b0f-825a-f866a169f286","system_id":"levelo_inurba_marseille","lat":43.295169,"lon":5.390426,"is_reserved":false,"is_disabled":false,"rental_uris":{"android":"levelo://app?vid=5863179b-f4ba-4b0f-825a-f866a169f286","ios":"levelo://app?vid=5863179b-f4ba-4b0f-825a-f866a169f286"},"vehicle_type_id":"4","last_reported":1687370909,"current_range_meters":13600,"station_id":"ce4bh3p2rcd13ifvqdp0","pricing_plan_id":"free"},{"bike_id":"fdeb2af1-876e-48a8-b752-d05c422b42ad","system_id":"levelo_inurba_marseille","lat":43.295169,"lon":5.390426,"is_reserved":false,"is_disabled":false,"rental_uris":{"android":"levelo://app?vid=fdeb2af1-876e-48a8-b752-d05c422b42ad","ios":"levelo://app?vid=fdeb2af1-876e-48a8-b752-d05c422b42ad"},"vehicle_type_id":"4","last_reported":1687370909,"current_range_meters":14400,"station_id":"ce4bh3p2rcd13ifvqdp0","pricing_plan_id":"free"},{"bike_id":"a13d0a2c-62c4-454f-9c98-95a9d08f5ad0","system_id":"levelo_inurba_marseille","lat":43.289741,"lon":5.378306,"is_reserved":false,"is_disabled":false,"rental_uris":{"android":"levelo://app?vid=a13d0a2c-62c4-454f-9c98-95a9d08f5ad0","ios":"levelo://app?vid=a13d0a2c-62c4-454f-9c98-95a9d08f5ad0"},"vehicle_type_id":"4","last_reported":1687370909,"current_range_meters":2800,"station_id":"ce4bh9p2rcd13ifvqed0","pricing_plan_id":"free"},{"bike_id":"2bae6adf-ba5a-49d2-9a4e-f594fc6656bc","system_id":"levelo_inurba_marseille","lat":43.295169,"lon":5.390426,"is_reserved":false,"is_disabled":false,"rental_uris":{"android":"levelo://app?vid=2bae6adf-ba5a-49d2-9a4e-f594fc6656bc","ios":"levelo://app?vid=2bae6adf-ba5a-49d2-9a4e-f594fc6656bc"},"vehicle_type_id":"4","last_reported":1687370909,"current_range_meters":4000,"station_id":"ce4bh3p2rcd13ifvqdp0","pricing_plan_id":"free"},{"bike_id":"48be1337-18bb-4f5b-9f4a-f348ffa82576","system_id":"levelo_inurba_marseille","lat":43.295169,"lon":5.390426,"is_reserved":false,"is_disabled":false,"rental_uris":{"android":"levelo://app?vid=48be1337-18bb-4f5b-9f4a-f348ffa82576","ios":"levelo://app?vid=48be1337-18bb-4f5b-9f4a-f348ffa82576"},"vehicle_type_id":"4","last_reported":1687370909,"current_range_meters":23200,"station_id":"ce4bh3p2rcd13ifvqdp0","pricing_plan_id":"free"},{"bike_id":"7de3dd83-59de-4387-a38f-8d18da2bfea7","system_id":"levelo_inurba_marseille","lat":43.295169,"lon":5.390426,"is_reserved":false,"is_disabled":false,"rental_uris":{"android":"levelo://app?vid=7de3dd83-59de-4387-a38f-8d18da2bfea7","ios":"levelo://app?vid=7de3dd83-59de-4387-a38f-8d18da2bfea7"},"vehicle_type_id":"4","last_reported":1687370909,"current_range_meters":0,"station_id":"ce4bh3p2rcd13ifvqdp0","pricing_plan_id":"free"},{"bike_id":"f1de422c-b195-4920-8931-6151620bc1cc","system_id":"levelo_inurba_marseille","lat":43.295169,"lon":5.390426,"is_reserved":false,"is_disabled":false,"rental_uris":{"android":"levelo://app?vid=f1de422c-b195-4920-8931-6151620bc1cc","ios":"levelo://app?vid=f1de422c-b195-4920-8931-6151620bc1cc"},"vehicle_type_id":"4","last_reported":1687370909,"current_range_meters":23200,"station_id":"ce4bh3p2rcd13ifvqdp0","pricing_plan_id":"free"},{"bike_id":"5b9d18e3-c70f-48a1-ac62-fdc91cd6eace","system_id":"levelo_inurba_marseille","lat":43.295169,"lon":5.390426,"is_reserved":false,"is_disabled":false,"rental_uris":{"android":"levelo://app?vid=5b9d18e3-c70f-48a1-ac62-fdc91cd6eace","ios":"levelo://app?vid=5b9d18e3-c70f-48a1-ac62-fdc91cd6eace"},"vehicle_type_id":"4","last_reported":1687370909,"current_range_meters":20800,"station_id":"ce4bh3p2rcd13ifvqdp0","pricing_plan_id":"free"},{"bike_id":"8d1c6b5d-00a4-4297-ab8e-3cd24d399cab","system_id":"levelo_inurba_marseille","lat":43.295169,"lon":5.390426,"is_reserved":false,"is_disabled":false,"rental_uris":{"android":"levelo://app?vid=8d1c6b5d-00a4-4297-ab8e-3cd24d399cab","ios":"levelo://app?vid=8d1c6b5d-00a4-4297-ab8e-3cd24d399cab"},"vehicle_type_id":"4","last_reported":1687370909,"current_range_meters":13200,"station_id":"ce4bh3p2rcd13ifvqdp0","pricing_plan_id":"free"},{"bike_id":"dc8e348b-9f87-4aae-b06a-12267a52e2c0","system_id":"levelo_inurba_marseille","lat":43.295169,"lon":5.390426,"is_reserved":false,"is_disabled":false,"rental_uris":{"android":"levelo://app?vid=dc8e348b-9f87-4aae-b06a-12267a52e2c0","ios":"levelo://app?vid=dc8e348b-9f87-4aae-b06a-12267a52e2c0"},"vehicle_type_id":"4","last_reported":1687370909,"current_range_meters":24000,"station_id":"ce4bh3p2rcd13ifvqdp0","pricing_plan_id":"free"},{"bike_id":"a018f518-a1c7-4f2e-821b-aa9f21204ceb","system_id":"levelo_inurba_marseille","lat":43.29021,"lon":5.38122,"is_reserved":false,"is_disabled":false,"rental_uris":{"android":"levelo://app?vid=a018f518-a1c7-4f2e-821b-aa9f21204ceb","ios":"levelo://app?vid=a018f518-a1c7-4f2e-821b-aa9f21204ceb"},"vehicle_type_id":"4","last_reported":1687370909,"current_range_meters":23200,"station_id":"ce4bh4p2rcd13ifvqe1g","pricing_plan_id":"free"},{"bike_id":"2326342a-5142-4a32-85f7-346e3305b98c","system_id":"levelo_inurba_marseille","lat":43.29014,"lon":5.38125,"is_reserved":false,"is_disabled":false,"rental_uris":{"android":"levelo://app?vid=2326342a-5142-4a32-85f7-346e3305b98c","ios":"levelo://app?vid=2326342a-5142-4a32-85f7-346e3305b98c"},"vehicle_type_id":"4","last_reported":1687370909,"current_range_meters":27200,"station_id":"ce4bh4p2rcd13ifvqe1g","pricing_plan_id":"free"},{"bike_id":"a85989fe-50c4-4617-82b5-b7f51254bfcc","system_id":"levelo_inurba_marseille","lat":43.33743,"lon":5.37474,"is_reserved":false,"is_disabled":false,"rental_uris":{"android":"levelo://app?vid=a85989fe-50c4-4617-82b5-b7f51254bfcc","ios":"levelo://app?vid=a85989fe-50c4-4617-82b5-b7f51254bfcc"},"vehicle_type_id":"4","last_reported":1687370909,"current_range_meters":2000,"station_id":"","pricing_plan_id":"free"},{"bike_id":"922d5635-0368-4cd9-87ce-54f5cac11858","system_id":"levelo_inurba_marseille","lat":43.287184,"lon":5.37937,"is_reserved":false,"is_disabled":false,"rental_uris":{"android":"levelo://app?vid=922d5635-0368-4cd9-87ce-54f5cac11858","ios":"levelo://app?vid=922d5635-0368-4cd9-87ce-54f5cac11858"},"vehicle_type_id":"4","last_reported":1687370909,"current_range_meters":6000,"station_id":"ce4bh9p2rcd13ifvqec0","pricing_plan_id":"free"},{"bike_id":"b0bd3bcb-bd35-4f75-8285-8f528f09b8d5","system_id":"levelo_inurba_marseille","lat":43.337575,"lon":5.374489,"is_reserved":false,"is_disabled":false,"rental_uris":{"android":"levelo://app?vid=b0bd3bcb-bd35-4f75-8285-8f528f09b8d5","ios":"levelo://app?vid=b0bd3bcb-bd35-4f75-8285-8f528f09b8d5"},"vehicle_type_id":"4","last_reported":1687370909,"current_range_meters":19200,"station_id":"","pricing_plan_id":"free"},{"bike_id":"e98fd470-ba5c-4335-83c7-0d48f777407a","system_id":"levelo_inurba_marseille","lat":43.33759,"lon":5.37459,"is_reserved":false,"is_disabled":false,"rental_uris":{"android":"levelo://app?vid=e98fd470-ba5c-4335-83c7-0d48f777407a","ios":"levelo://app?vid=e98fd470-ba5c-4335-83c7-0d48f777407a"},"vehicle_type_id":"4","last_reported":1687370909,"current_range_meters":30400,"station_id":"","pricing_plan_id":"free"},{"bike_id":"5e579d58-70c7-4bb1-b89b-55f156596054","system_id":"levelo_inurba_marseille","lat":43.29872,"lon":5.39733,"is_reserved":false,"is_disabled":false,"rental_uris":{"android":"levelo://app?vid=5e579d58-70c7-4bb1-b89b-55f156596054","ios":"levelo://app?vid=5e579d58-70c7-4bb1-b89b-55f156596054"},"vehicle_type_id":"4","last_reported":1687370909,"current_range_meters":20000,"station_id":"ce4bh0h2rcd13ifvqd50","pricing_plan_id":"free"},{"bike_id":"0a7eb2ee-19d8-4400-8e24-51f914b0e40e","system_id":"levelo_inurba_marseille","lat":43.29521,"lon":5.394,"is_reserved":false,"is_disabled":false,"rental_uris":{"android":"levelo://app?vid=0a7eb2ee-19d8-4400-8e24-51f914b0e40e","ios":"levelo://app?vid=0a7eb2ee-19d8-4400-8e24-51f914b0e40e"},"vehicle_type_id":"4","last_reported":1687370909,"current_range_meters":10400,"station_id":"ce4bh292rcd13ifvqdf0","pricing_plan_id":"free"},{"bike_id":"025e28d1-5b17-4f2d-961b-0c8792677464","system_id":"levelo_inurba_marseille","lat":43.290345,"lon":5.38646,"is_reserved":false,"is_disabled":false,"rental_uris":{"android":"levelo://app?vid=025e28d1-5b17-4f2d-961b-0c8792677464","ios":"levelo://app?vid=025e28d1-5b17-4f2d-961b-0c8792677464"},"vehicle_type_id":"4","last_reported":1687370909,"current_range_meters":400,"station_id":"ce4bh4p2rcd13ifvqe0g","pricing_plan_id":"free"},{"bike_id":"55fe42c7-9015-42b5-9d90-f37a49a33f85","system_id":"levelo_inurba_marseille","lat":43.29513,"lon":5.39405,"is_reserved":false,"is_disabled":false,"rental_uris":{"android":"levelo://app?vid=55fe42c7-9015-42b5-9d90-f37a49a33f85","ios":"levelo://app?vid=55fe42c7-9015-42b5-9d90-f37a49a33f85"},"vehicle_type_id":"4","last_reported":1687370909,"current_range_meters":18800,"station_id":"ce4bh292rcd13ifvqdf0","pricing_plan_id":"free"},{"bike_id":"d8fef59b-b5db-4d47-bd05-1f3c3c00b6d8","system_id":"levelo_inurba_marseille","lat":43.29521,"lon":5.39417,"is_reserved":false,"is_disabled":false,"rental_uris":{"android":"levelo://app?vid=d8fef59b-b5db-4d47-bd05-1f3c3c00b6d8","ios":"levelo://app?vid=d8fef59b-b5db-4d47-bd05-1f3c3c00b6d8"},"vehicle_type_id":"4","last_reported":1687370909,"current_range_meters":20400,"station_id":"ce4bh292rcd13ifvqdf0","pricing_plan_id":"free"},{"bike_id":"ee26ef66-788a-4421-af93-87754e4777dd","system_id":"levelo_inurba_marseille","lat":43.290345,"lon":5.38646,"is_reserved":false,"is_disabled":false,"rental_uris":{"android":"levelo://app?vid=ee26ef66-788a-4421-af93-87754e4777dd","ios":"levelo://app?vid=ee26ef66-788a-4421-af93-87754e4777dd"},"vehicle_type_id":"4","last_reported":1687370909,"current_range_meters":1600,"station_id":"ce4bh4p2rcd13ifvqe0g","pricing_plan_id":"free"},{"bike_id":"1818c50a-32e3-491f-b509-16d1f4b4e4ff","system_id":"levelo_inurba_marseille","lat":43.290336,"lon":5.386425,"is_reserved":false,"is_disabled":false,"rental_uris":{"android":"levelo://app?vid=1818c50a-32e3-491f-b509-16d1f4b4e4ff","ios":"levelo://app?vid=1818c50a-32e3-491f-b509-16d1f4b4e4ff"},"vehicle_type_id":"4","last_reported":1687370909,"current_range_meters":10800,"station_id":"ce4bh4p2rcd13ifvqe0g","pricing_plan_id":"free"},{"bike_id":"ed1a5811-3641-40ff-a765-85396bc4ebf6","system_id":"levelo_inurba_marseille","lat":43.290336,"lon":5.386425,"is_reserved":false,"is_disabled":false,"rental_uris":{"android":"levelo://app?vid=ed1a5811-3641-40ff-a765-85396bc4ebf6","ios":"levelo://app?vid=ed1a5811-3641-40ff-a765-85396bc4ebf6"},"vehicle_type_id":"4","last_reported":1687370909,"current_range_meters":6800,"station_id":"ce4bh4p2rcd13ifvqe0g","pricing_plan_id":"free"},{"bike_id":"65e2825b-44d8-4d82-836d-62818f42561b","system_id":"levelo_inurba_marseille","lat":43.290336,"lon":5.386425,"is_reserved":false,"is_disabled":false,"rental_uris":{"android":"levelo://app?vid=65e2825b-44d8-4d82-836d-62818f42561b","ios":"levelo://app?vid=65e2825b-44d8-4d82-836d-62818f42561b"},"vehicle_type_id":"4","last_reported":1687370909,"current_range_meters":0,"station_id":"ce4bh4p2rcd13ifvqe0g","pricing_plan_id":"free"},{"bike_id":"9db30139-e08b-4af5-abac-40333ef11ebe","system_id":"levelo_inurba_marseille","lat":43.290336,"lon":5.386425,"is_reserved":false,"is_disabled":false,"rental_uris":{"android":"levelo://app?vid=9db30139-e08b-4af5-abac-40333ef11ebe","ios":"levelo://app?vid=9db30139-e08b-4af5-abac-40333ef11ebe"},"vehicle_type_id":"4","last_reported":1687370909,"current_range_meters":10400,"station_id":"ce4bh4p2rcd13ifvqe0g","pricing_plan_id":"free"},{"bike_id":"f63cece4-d859-43a8-8e09-9c6b3f1b924b","system_id":"levelo_inurba_marseille","lat":43.302759,"lon":5.400793,"is_reserved":false,"is_disabled":false,"rental_uris":{"android":"levelo://app?vid=f63cece4-d859-43a8-8e09-9c6b3f1b924b","ios":"levelo://app?vid=f63cece4-d859-43a8-8e09-9c6b3f1b924b"},"vehicle_type_id":"4","last_reported":1687370909,"current_range_meters":0,"station_id":"ce4bgvh2rcd13ifvqcs0","pricing_plan_id":"free"},{"bike_id":"a69611a4-4427-48f1-8cf5-68e91a38613f","system_id":"levelo_inurba_marseille","lat":43.28609,"lon":5.37054,"is_reserved":false,"is_disabled":false,"rental_uris":{"android":"levelo://app?vid=a69611a4-4427-48f1-8cf5-68e91a38613f","ios":"levelo://app?vid=a69611a4-4427-48f1-8cf5-68e91a38613f"},"vehicle_type_id":"4","last_reported":1687370909,"current_range_meters":0,"station_id":"ce4bht12rcd13ifvqi60","pricing_plan_id":"free"},{"bike_id":"817899ce-2989-49a1-a28c-e89ba0a9f069","system_id":"levelo_inurba_marseille","lat":43.287184,"lon":5.37937,"is_reserved":false,"is_disabled":false,"rental_uris":{"android":"levelo://app?vid=817899ce-2989-49a1-a28c-e89ba0a9f069","ios":"levelo://app?vid=817899ce-2989-49a1-a28c-e89ba0a9f069"},"vehicle_type_id":"4","last_reported":1687370909,"current_range_meters":7200,"station_id":"ce4bh9p2rcd13ifvqec0","pricing_plan_id":"free"},{"bike_id":"72460982-a4b5-49d7-a502-a086b6ccf0e7","system_id":"levelo_inurba_marseille","lat":43.316517,"lon":5.404375,"is_reserved":false,"is_disabled":false,"rental_uris":{"android":"levelo://app?vid=72460982-a4b5-49d7-a502-a086b6ccf0e7","ios":"levelo://app?vid=72460982-a4b5-49d7-a502-a086b6ccf0e7"},"vehicle_type_id":"4","last_reported":1687370909,"current_range_meters":24000,"station_id":"ce4bh012rcd13ifvqd00","pricing_plan_id":"free"},{"bike_id":"9e8c8c73-57af-4fa6-aed3-4c9a03e24ff1","system_id":"levelo_inurba_marseille","lat":43.316517,"lon":5.404375,"is_reserved":false,"is_disabled":false,"rental_uris":{"android":"levelo://app?vid=9e8c8c73-57af-4fa6-aed3-4c9a03e24ff1","ios":"levelo://app?vid=9e8c8c73-57af-4fa6-aed3-4c9a03e24ff1"},"vehicle_type_id":"4","last_reported":1687370909,"current_range_meters":3600,"station_id":"ce4bh012rcd13ifvqd00","pricing_plan_id":"free"},{"bike_id":"4fb8b8c0-e7a5-44f8-87a1-fe5dc5e5c7ce","system_id":"levelo_inurba_marseille","lat":43.316517,"lon":5.404375,"is_reserved":false,"is_disabled":false,"rental_uris":{"android":"levelo://app?vid=4fb8b8c0-e7a5-44f8-87a1-fe5dc5e5c7ce","ios":"levelo://app?vid=4fb8b8c0-e7a5-44f8-87a1-fe5dc5e5c7ce"},"vehicle_type_id":"4","last_reported":1687370909,"current_range_meters":9600,"station_id":"ce4bh012rcd13ifvqd00","pricing_plan_id":"free"},{"bike_id":"27d388c0-c79b-4186-b871-9cb0866b1cb2","system_id":"levelo_inurba_marseille","lat":43.28447,"lon":5.35899,"is_reserved":false,"is_disabled":false,"rental_uris":{"android":"levelo://app?vid=27d388c0-c79b-4186-b871-9cb0866b1cb2","ios":"levelo://app?vid=27d388c0-c79b-4186-b871-9cb0866b1cb2"},"vehicle_type_id":"4","last_reported":1687370909,"current_range_meters":23600,"station_id":"ce4bhah2rcd13ifvqei0","pricing_plan_id":"free"},{"bike_id":"8747481c-2536-47df-9caf-48b288e16a21","system_id":"levelo_inurba_marseille","lat":43.294314,"lon":5.397498,"is_reserved":false,"is_disabled":false,"rental_uris":{"android":"levelo://app?vid=8747481c-2536-47df-9caf-48b288e16a21","ios":"levelo://app?vid=8747481c-2536-47df-9caf-48b288e16a21"},"vehicle_type_id":"4","last_reported":1687370909,"current_range_meters":12800,"station_id":"ce4bh3h2rcd13ifvqdo0","pricing_plan_id":"free"},{"bike_id":"e5263a6f-83f0-4e67-a25a-d362e0d3ada5","system_id":"levelo_inurba_marseille","lat":43.28613,"lon":5.35101,"is_reserved":false,"is_disabled":false,"rental_uris":{"android":"levelo://app?vid=e5263a6f-83f0-4e67-a25a-d362e0d3ada5","ios":"levelo://app?vid=e5263a6f-83f0-4e67-a25a-d362e0d3ada5"},"vehicle_type_id":"4","last_reported":1687370909,"current_range_meters":31200,"station_id":"ce4bhch2rcd13ifvqeug","pricing_plan_id":"free"},{"bike_id":"0f58ca27-fd0d-4b1c-9ec4-28237f927d30","system_id":"levelo_inurba_marseille","lat":43.283998,"lon":5.375062,"is_reserved":false,"is_disabled":false,"rental_uris":{"android":"levelo://app?vid=0f58ca27-fd0d-4b1c-9ec4-28237f927d30","ios":"levelo://app?vid=0f58ca27-fd0d-4b1c-9ec4-28237f927d30"},"vehicle_type_id":"4","last_reported":1687370909,"current_range_meters":10800,"station_id":"ce4bh412rcd13ifvqds0","pricing_plan_id":"free"},