{"last_updated":1758560942,"ttl":60,"version":"2.2","data":{"bikes":[{"bike_id":"4f4d17ca-ede2-494f-9324-8da13cfbcdf9","system_id":"levelo_inurba_marseille","lat":43.29571,"lon":5.37525,"is_reserved":false,"is_disabled":false,"rental_uris":{"android":"levelo://app?vid=4f4d17ca-ede2-494f-9324-8da13cfbcdf9","ios":"levelo://app?vid=4f4d17ca-ede2-494f-9324-8da13cfbcdf9"},"vehicle_type_id":"4","last_reported":1758560942,"current_range_meters":2000,"station_id":"ce4bgh92rcd13ifvqb50","pricing_plan_id":"cebpf4jnsgd1na2vs0mg"},{"bike_id":"c58b367c-3d0a-430f-9c7a-3d60e2113b8c","system_id":"levelo_inurba_marseille","lat":43.29459,"lon":5.38144,"is_reserved":false,"is_disabled":false,"rental_uris":{"android":"levelo://app?vid=c58b367c-3d0a-430f-9c7a-3d60e2113b8c","ios":"levelo://app?vid=c58b367c-3d0a-430f-9c7a-3d60e2113b8c"},"vehicle_type_id":"4","last_reported":1758560942,"current_range_meters":2800,"station_id":"","pricing_plan_id":"cebpf4jnsgd1na2vs0mg"},{"bike_id":"ebbbc30a-f25a-42fe-8060-02d7528a942d","system_id":"levelo_inurba_marseille","lat":43.30411,"lon":5.38876,"is_reserved":false,"is_disabled":false,"rental_uris":{"android":"levelo://app?vid=ebbbc30a-f25a-42fe-8060-02d7528a942d","ios":"levelo://app?vid=ebbbc30a-f25a-42fe-8060-02d7528a942d"},"vehicle_type_id":"4","last_reported":1758560942,"current_range_meters":2800,"station_id":"ce4bgk12rcd13ifvqbi0","pricing_plan_id":"cebpf4jnsgd1na2vs0mg"},{"bike_id":"d7c25918-4ee2-4f07-aafe-045313861472","system_id":"levelo_inurba_marseille","lat":43.27437,"lon":5.3614,"is_reserved":false,"is_disabled":false,"rental_uris":{"android":"levelo://app?vid=d7c25918-4ee2-4f07-aafe-045313861472","ios":"levelo://app?vid=d7c25918-4ee2-4f07-aafe-045313861472"},"vehicle_type_id":"4","last_reported":1758560942,"current_range_meters":2800,"station_id":"","pricing_plan_id":"cebpf4jnsgd1na2vs0mg"},{"bike_id":"2e602afb-9465-419f-a6f4-092301451330","system_id":"levelo_inurba_marseille","lat":43.29711,"lon":5.36615,"is_reserved":false,"is_disabled":false,"rental_uris":{"android":"levelo://app?vid=2e602afb-9465-419f-a6f4-092301451330","ios":"levelo://app?vid=2e602afb-9465-419f-a6f4-092301451330"},"vehicle_type_id":"4","last_reported":1758560942,"current_range_meters":2800,"station_id":"ce4bgn12rcd13ifvqbt0","pricing_plan_id":"cebpf4jnsgd1na2vs0mg"},{"bike_id":"d9fc2674-e1ca-4fc5-b99c-11542a55fcff","system_id":"levelo_inurba_marseille","lat":43.214505,"lon":5.348525,"is_reserved":false,"is_disabled":false,"rental_uris":{"android":"levelo://app?vid=d9fc2674-e1ca-4fc5-b99c-11542a55fcff","ios":"levelo://app?vid=d9fc2674-e1ca-4fc5-b99c-11542a55fcff"},"vehicle_type_id":"4","last_reported":1758560942,"current_range_meters":3200,"station_id":"","pricing_plan_id":"cebpf4jnsgd1na2vs0mg"},{"bike_id":"3a0e7348-3971-4485-90fa-056e15f13442","system_id":"levelo_inurba_marseille","lat":43.26776,"lon":5.39419,"is_reserved":false,"is_disabled":false,"rental_uris":{"android":"levelo://app?vid=3a0e7348-3971-4485-90fa-056e15f13442","ios":"levelo://app?vid=3a0e7348-3971-4485-90fa-056e15f13442"},"vehicle_type_id":"4","last_reported":1758560942,"current_range_meters":3200,"station_id":"ce4bhh12rcd13ifvqfg0","pricing_plan_id":"cebpf4jnsgd1na2vs0mg"},{"bike_id":"82097bb8-76d4-4b32-a54b-59eb308fc809","system_id":"levelo_inurba_marseille","lat":43.26502,"lon":5.39541,"is_reserved":false,"is_disabled":false,"rental_uris":{"android":"levelo://app?vid=82097bb8-76d4-4b32-a54b-59eb308fc809","ios":"levelo://app?vid=82097bb8-76d4-4b32-a54b-59eb308fc809"},"vehicle_type_id":"4","last_reported":1758560942,"current_range_meters":3200,"station_id":"ce4bhi12rcd13ifvqfq0","pricing_plan_id":"cebpf4jnsgd1na2vs0mg"},{"bike_id":"a3f66b10-50dc-4429-8e86-2020b0da7989","system_id":"levelo_inurba_marseille","lat":43.28401,"lon":5.37511,"is_reserved":false,"is_disabled":false,"rental_uris":{"android":"levelo://app?vid=a3f66b10-50dc-4429-8e86-2020b0da7989","ios":"levelo://app?vid=a3f66b10-50dc-4429-8e86-2020b0da7989"},"vehicle_type_id":"4","last_reported":1758560942,"current_range_meters":3200,"station_id":"ce4bh412rcd13ifvqds0","pricing_plan_id":"cebpf4jnsgd1na2vs0mg"},{"bike_id":"1ab6760a-4e13-4093-a4da-517fcf4d596b","system_id":"levelo_inurba_marseille","lat":43.23173,"lon":5.39982,"is_reserved":false,"is_disabled":false,"rental_uris":{"android":"levelo://app?vid=1ab6760a-4e13-4093-a4da-517fcf4d596b","ios":"levelo://app?vid=1ab6760a-4e13-4093-a4da-517fcf4d596b"},"vehicle_type_id":"4","last_reported":1758560942,"current_range_meters":3200,"station_id":"ce4bhn12rcd13ifvqgqg","pricing_plan_id":"cebpf4jnsgd1na2vs0mg"},{"bike_id":"0f0e7621-ec1b-4cb3-95ce-91085a952de4","system_id":"levelo_inurba_marseille","lat":43.276764,"lon":5.388696,"is_reserved":false,"is_disabled":false,"rental_uris":{"android":"levelo://app?vid=0f0e7621-ec1b-4cb3-95ce-91085a952de4","ios":"levelo://app?vid=0f0e7621-ec1b-4cb3-95ce-91085a952de4"},"vehicle_type_id":"4","last_reported":1758560942,"current_range_meters":3200,"station_id":"","pricing_plan_id":"cebpf4jnsgd1na2vs0mg"},{"bike_id":"d0c5c14c-0d83-4233-af9a-3578cef413f2","system_id":"levelo_inurba_marseille","lat":43.217525,"lon":5.346003,"is_reserved":false,"is_disabled":false,"rental_uris":{"android":"levelo://app?vid=d0c5c14c-0d83-4233-af9a-3578cef413f2","ios":"levelo://app?vid=d0c5c14c-0d83-4233-af9a-3578cef413f2"},"vehicle_type_id":"4","last_reported":1758560942,"current_range_meters":3200,"station_id":"","pricing_plan_id":"cebpf4jnsgd1na2vs0mg"},{"bike_id":"c3440d1c-a7d4-4dd9-a3b5-e19800d39473","system_id":"levelo_inurba_marseille","lat":43.27811,"lon":5.40726,"is_reserved":false,"is_disabled":false,"rental_uris":{"android":"levelo://app?vid=c3440d1c-a7d4-4dd9-a3b5-e19800d39473","ios":"levelo://app?vid=c3440d1c-a7d4-4dd9-a3b5-e19800d39473"},"vehicle_type_id":"4","last_reported":1758560942,"current_range_meters":3200,"station_id":"ce4bhnh2rcd13ifvqgtg","pricing_plan_id":"cebpf4jnsgd1na2vs0mg"},{"bike_id":"5b8373bb-23a9-4e3a-a648-8f59583a1e38","system_id":"levelo_inurba_marseille","lat":43.24905,"lon":5.39026,"is_reserved":false,"is_disabled":true,"rental_uris":{"android":"levelo://app?vid=5b8373bb-23a9-4e3a-a648-8f59583a1e38","ios":"levelo://app?vid=5b8373bb-23a9-4e3a-a648-8f59583a1e38"},"vehicle_type_id":"4","last_reported":1758560942,"current_range_meters":3200,"station_id":"","pricing_plan_id":"cebpf4jnsgd1na2vs0mg"},{"bike_id":"7fc59504-32c0-44a3-b292-c3dc53353c19","system_id":"levelo_inurba_marseille","lat":43.279089,"lon":5.387284,"is_reserved":false,"is_disabled":false,"rental_uris":{"android":"levelo://app?vid=7fc59504-32c0-44a3-b292-c3dc53353c19","ios":"levelo://app?vid=7fc59504-32c0-44a3-b292-c3dc53353c19"},"vehicle_type_id":"4","last_reported":1758560942,"current_range_meters":3200,"station_id":"ce4bhe12rcd13ifvqf30","pricing_plan_id":"cebpf4jnsgd1na2vs0mg"},{"bike_id":"303105bd-3cb9-49a9-a939-60af0aabea69","system_id":"levelo_inurba_marseille","lat":43.27439,"lon":5.39395,"is_reserved":false,"is_disabled":false,"rental_uris":{"android":"levelo://app?vid=303105bd-3cb9-49a9-a939-60af0aabea69","ios":"levelo://app?vid=303105bd-3cb9-49a9-a939-60af0aabea69"},"vehicle_type_id":"4","last_reported":1758560942,"current_range_meters":3200,"station_id":"ce4bhdp2rcd13ifvqf20","pricing_plan_id":"cebpf4jnsgd1na2vs0mg"},{"bike_id":"96c098cf-634d-4eaf-9fa2-091667a12abe","system_id":"levelo_inurba_marseille","lat":43.27618,"lon":5.36105,"is_reserved":false,"is_disabled":false,"rental_uris":{"android":"levelo://app?vid=96c098cf-634d-4eaf-9fa2-091667a12abe","ios":"levelo://app?vid=96c098cf-634d-4eaf-9fa2-091667a12abe"},"vehicle_type_id":"4","last_reported":1758560942,"current_range_meters":2800,"station_id":"ce4bgj92rcd13ifvqbe0","pricing_plan_id":"cebpf4jnsgd1na2vs0mg"},{"bike_id":"39303fa4-a606-4729-9ef2-59c2716a3810","system_id":"levelo_inurba_marseille","lat":43.24664,"lon":5.38174,"is_reserved":false,"is_disabled":false,"rental_uris":{"android":"levelo://app?vid=39303fa4-a606-4729-9ef2-59c2716a3810","ios":"levelo://app?vid=39303fa4-a606-4729-9ef2-59c2716a3810"},"vehicle_type_id":"4","last_reported":1758560942,"current_range_meters":3600,"station_id":"ce4bhih2rcd13ifvqfr0","pricing_plan_id":"cebpf4jnsgd1na2vs0mg"},{"bike_id":"7bb4df4e-2320-4fac-9d2f-52410b3e28de","system_id":"levelo_inurba_marseille","lat":43.27318,"lon":5.39066,"is_reserved":false,"is_disabled":false,"rental_uris":{"android":"levelo://app?vid=7bb4df4e-2320-4fac-9d2f-52410b3e28de","ios":"levelo://app?vid=7bb4df4e-2320-4fac-9d2f-52410b3e28de"},"vehicle_type_id":"4","last_reported":1758560942,"current_range_meters":3600,"station_id":"ce4bhgp2rcd13ifvqfe0","pricing_plan_id":"cebpf4jnsgd1na2vs0mg"},{"bike_id":"4d12cd0a-2a78-45bb-86f7-6e5dfda6b893","system_id":"levelo_inurba_marseille","lat":43.29021,"lon":5.38151,"is_reserved":false,"is_disabled":false,"rental_uris":{"android":"levelo://app?vid=4d12cd0a-2a78-45bb-86f7-6e5dfda6b893","ios":"levelo://app?vid=4d12cd0a-2a78-45bb-86f7-6e5dfda6b893"},"vehicle_type_id":"4","last_reported":1758560942,"current_range_meters":3600,"station_id":"ce4bh4p2rcd13ifvqe1g","pricing_plan_id":"cebpf4jnsgd1na2vs0mg"},{"bike_id":"f1fc4d7c-4374-49f0-98f3-017f26c5b04a","system_id":"levelo_inurba_marseille","lat":43.28459,"lon":5.35899,"is_reserved":false,"is_disabled":false,"rental_uris":{"android":"levelo://app?vid=f1fc4d7c-4374-49f0-98f3-017f26c5b04a","ios":"levelo://app?vid=f1fc4d7c-4374-49f0-98f3-017f26c5b04a"},"vehicle_type_id":"4","last_reported":1758560942,"current_range_meters":3600,"station_id":"ce4bhah2rcd13ifvqei0","pricing_plan_id":"cebpf4jnsgd1na2vs0mg"},{"bike_id":"db1dc065-e8a3-4f03-a831-79c354b89a8c","system_id":"levelo_inurba_marseille","lat":43.253326,"lon":5.42176,"is_reserved":false,"is_disabled":false,"rental_uris":{"android":"levelo://app?vid=db1dc065-e8a3-4f03-a831-79c354b89a8c","ios":"levelo://app?vid=db1dc065-e8a3-4f03-a831-79c354b89a8c"},"vehicle_type_id":"4","last_reported":1758560942,"current_range_meters":4000,"station_id":"st_d2m65c5bi1j21697t3ng","pricing_plan_id":"cebpf4jnsgd1na2vs0mg"},{"bike_id":"7fa18066-c653-464d-bbc1-35bdaa1b66be","system_id":"levelo_inurba_marseille","lat":43.286513,"lon":5.363646,"is_reserved":false,"is_disabled":false,"rental_uris":{"android":"levelo://app?vid=7fa18066-c653-464d-bbc1-35bdaa1b66be","ios":"levelo://app?vid=7fa18066-c653-464d-bbc1-35bdaa1b66be"},"vehicle_type_id":"4","last_reported":1758560942,"current_range_meters":4000,"station_id":"ce4bhah2rcd13ifvqej0","pricing_plan_id":"cebpf4jnsgd1na2vs0mg"},{"bike_id":"0f7caa9f-1d1a-40d7-9b4a-2f8720e63681","system_id":"levelo_inurba_marseille","lat":43.30827,"lon":5.37509,"is_reserved":false,"is_disabled":false,"rental_uris":{"android":"levelo://app?vid=0f7caa9f-1d1a-40d7-9b4a-2f8720e63681","ios":"levelo://app?vid=0f7caa9f-1d1a-40d7-9b4a-2f8720e63681"},"vehicle_type_id":"4","last_reported":1758560942,"current_range_meters":4000,"station_id":"","pricing_plan_id":"cebpf4jnsgd1na2vs0mg"},{"bike_id":"f298022c-b637-44e8-bd09-e395a6979427","system_id":"levelo_inurba_marseille","lat":43.27052,"lon":5.4027,"is_reserved":false,"is_disabled":false,"rental_uris":{"android":"levelo://app?vid=f298022c-b637-44e8-bd09-e395a6979427","ios":"levelo://app?vid=f298022c-b637-44e8-bd09-e395a6979427"},"vehicle_type_id":"4","last_reported":1758560942,"current_range_meters":4000,"station_id":"ce4bhk92rcd13ifvqgc0","pricing_plan_id":"cebpf4jnsgd1na2vs0mg"},{"bike_id":"a76967bb-1969-4c8d-96c8-e68d60bf2f15","system_id":"levelo_inurba_marseille","lat":43.27203,"lon":5.39184,"is_reserved":false,"is_disabled":false,"rental_uris":{"android":"levelo://app?vid=a76967bb-1969-4c8d-96c8-e68d60bf2f15","ios":"levelo://app?vid=a76967bb-1969-4c8d-96c8-e68d60bf2f15"},"vehicle_type_id":"4","last_reported":1758560942,"current_range_meters":4000,"station_id":"ce4bhhp2rcd13ifvqfm0","pricing_plan_id":"cebpf4jnsgd1na2vs0mg"},{"bike_id":"a7b1f259-0642-4285-9b2d-01986a40f4f6","system_id":"levelo_inurba_marseille","lat":43.3043,"lon":5.38889,"is_reserved":false,"is_disabled":false,"rental_uris":{"android":"levelo://app?vid=a7b1f259-0642-4285-9b2d-01986a40f4f6","ios":"levelo://app?vid=a7b1f259-0642-4285-9b2d-01986a40f4f6"},"vehicle_type_id":"4","last_reported":1758560942,"current_range_meters":3600,"station_id":"ce4bgk12rcd13ifvqbi0","pricing_plan_id":"cebpf4jnsgd1na2vs0mg"},{"bike_id":"01bce555-e79e-4f12-aa08-43ed1c16d776","system_id":"levelo_inurba_marseille","lat":43.27051,"lon":5.40261,"is_reserved":false,"is_disabled":false,"rental_uris":{"android":"levelo://app?vid=01bce555-e79e-4f12-aa08-43ed1c16d776","ios":"levelo://app?vid=01bce555-e79e-4f12-aa08-43ed1c16d776"},"vehicle_type_id":"4","last_reported":1758560942,"current_range_meters":4000,"station_id":"ce4bhk92rcd13ifvqgc0","pricing_plan_id":"cebpf4jnsgd1na2vs0mg"},{"bike_id":"66f4dfeb-8402-4c83-ab49-d9beafc6f234","system_id":"levelo_inurba_marseille","lat":43.29255,"lon":5.40911,"is_reserved":false,"is_disabled":false,"rental_uris":{"android":"levelo://app?vid=66f4dfeb-8402-4c83-ab49-d9beafc6f234","ios":"levelo://app?vid=66f4dfeb-8402-4c83-ab49-d9beafc6f234"},"vehicle_type_id":"4","last_reported":1758560942,"current_range_meters":4000,"station_id":"ce4bh192rcd13ifvqdc0","pricing_plan_id":"cebpf4jnsgd1na2vs0mg"},{"bike_id":"fcf97d58-0ef2-4dc7-bbff-8b1faa9c6aad","system_id":"levelo_inurba_marseille","lat":43.27415,"lon":5.39428,"is_reserved":false,"is_disabled":false,"rental_uris":{"android":"levelo://app?vid=fcf97d58-0ef2-4dc7-bbff-8b1faa9c6aad","ios":"levelo://app?vid=fcf97d58-0ef2-4dc7-bbff-8b1faa9c6aad"},"vehicle_type_id":"4","last_reported":1758560942,"current_range_meters":4000,"station_id":"ce4bhdp2rcd13ifvqf20","pricing_plan_id":"cebpf4jnsgd1na2vs0mg"},{"bike_id":"b904e936-107b-47c4-90ac-d3c54db59940","system_id":"levelo_inurba_marseille","lat":43.30324,"lon":5.40439,"is_reserved":false,"is_disabled":false,"rental_uris":{"android":"levelo://app?vid=b904e936-107b-47c4-90ac-d3c54db59940","ios":"levelo://app?vid=b904e936-107b-47c4-90ac-d3c54db59940"},"vehicle_type_id":"4","last_reported":1758560942,"current_range_meters":4000,"station_id":"ce4bh012rcd13ifvqd10","pricing_plan_id":"cebpf4jnsgd1na2vs0mg"},{"bike_id":"8473f8bc-5a1d-4f76-97d8-dd8e2139d38f","system_id":"levelo_inurba_marseille","lat":43.23178,"lon":5.39986,"is_reserved":false,"is_disabled":false,"rental_uris":{"android":"levelo://app?vid=8473f8bc-5a1d-4f76-97d8-dd8e2139d38f","ios":"levelo://app?vid=8473f8bc-5a1d-4f76-97d8-dd8e2139d38f"},"vehicle_type_id":"4","last_reported":1758560942,"current_range_meters":4400,"station_id":"ce4bhn12rcd13ifvqgqg","pricing_plan_id":"cebpf4jnsgd1na2vs0mg"},{"bike_id":"07aa1c74-1ee0-476d-ae7f-cec4b3c55e07","system_id":"levelo_inurba_marseille","lat":43.23193,"lon":5.35559,"is_reserved":false,"is_disabled":false,"rental_uris":{"android":"levelo://app?vid=07aa1c74-1ee0-476d-ae7f-cec4b3c55e07","ios":"levelo://app?vid=07aa1c74-1ee0-476d-ae7f-cec4b3c55e07"},"vehicle_type_id":"4","last_reported":1758560942,"current_range_meters":4400,"station_id":"ce4bhu92rcd13ifvqi70","pricing_plan_id":"cebpf4jnsgd1na2vs0mg"},{"bike_id":"ad4f0e3b-ec90-4f84-9733-c3c4fd397687","system_id":"levelo_inurba_marseille","lat":43.279446,"lon":5.410448,"is_reserved":false,"is_disabled":false,"rental_uris":{"android":"levelo://app?vid=ad4f0e3b-ec90-4f84-9733-c3c4fd397687","ios":"levelo://app?vid=ad4f0e3b-ec90-4f84-9733-c3c4fd397687"},"vehicle_type_id":"4","last_reported":1758560942,"current_range_meters":4400,"station_id":"ce4bhnp2rcd13ifvqh0g","pricing_plan_id":"cebpf4jnsgd1na2vs0mg"},{"bike_id":"55991a73-378d-488b-b726-56977cf94391","system_id":"levelo_inurba_marseille","lat":43.249474,"lon":5.404966,"is_reserved":false,"is_disabled":false,"rental_uris":{"android":"levelo://app?vid=55991a73-378d-488b-b726-56977cf94391","ios":"levelo://app?vid=55991a73-378d-488b-b726-56977cf94391"},"vehicle_type_id":"4","last_reported":1758560942,"current_range_meters":4400,"station_id":"st_d2ngiaodas8pm72gd1h0","pricing_plan_id":"cebpf4jnsgd1na2vs0mg"},{"bike_id":"6e76b346-a37a-4a68-947f-317dac2e5a1d","system_id":"levelo_inurba_marseille","lat":43.29304,"lon":5.37149,"is_reserved":false,"is_disabled":false,"rental_uris":{"android":"levelo://app?vid=6e76b346-a37a-4a68-947f-317dac2e5a1d","ios":"levelo://app?vid=6e76b346-a37a-4a68-947f-317dac2e5a1d"},"vehicle_type_id":"4","last_reported":1758560942,"current_range_meters":4800,"station_id":"ce4bgh92rcd13ifvqb40","pricing_plan_id":"cebpf4jnsgd1na2vs0mg"},{"bike_id":"7a6ca0c7-f30b-4855-97f4-aad9e431b9e6","system_id":"levelo_inurba_marseille","lat":43.24165,"lon":5.36396,"is_reserved":false,"is_disabled":false,"rental_uris":{"android":"levelo://app?vid=7a6ca0c7-f30b-4855-97f4-aad9e431b9e6","ios":"levelo://app?vid=7a6ca0c7-f30b-4855-97f4-aad9e431b9e6"},"vehicle_type_id":"4","last_reported":1758560942,"current_range_meters":4800,"station_id":"cpo36qri1sfpv3e86is0","pricing_plan_id":"cebpf4jnsgd1na2vs0mg"},{"bike_id":"428dbeac-a976-4e9f-9dd5-a37a448d15e9","system_id":"levelo_inurba_marseille","lat":43.27396,"lon":5.39399,"is_reserved":false,"is_disabled":false,"rental_uris":{"android":"levelo://app?vid=428dbeac-a976-4e9f-9dd5-a37a448d15e9","ios":"levelo://app?vid=428dbeac-a976-4e9f-9dd5-a37a448d15e9"},"vehicle_type_id":"4","last_reported":1758560942,"current_range_meters":4800,"station_id":"ce4bhdp2rcd13ifvqf20","pricing_plan_id":"cebpf4jnsgd1na2vs0mg"},{"bike_id":"3be83ad6-a09f-4099-9486-9bc5a9292c9a","system_id":"levelo_inurba_marseille","lat":43.27202,"lon":5.39177,"is_reserved":false,"is_disabled":false,"rental_uris":{"android":"levelo://app?vid=3be83ad6-a09f-4099-9486-9bc5a9292c9a","ios":"levelo://app?vid=3be83ad6-a09f-4099-9486-9bc5a9292c9a"},"vehicle_type_id":"4","last_reported":1758560942,"current_range_meters":4800,"station_id":"ce4bhhp2rcd13ifvqfm0","pricing_plan_id":"cebpf4jnsgd1na2vs0mg"},{"bike_id":"820382f2-ea2c-4b70-a4b0-e0be11e1a199","system_id":"levelo_inurba_marseille","lat":43.30888,"lon":5.39654,"is_reserved":false,"is_disabled":false,"rental_uris":{"android":"levelo://app?vid=820382f2-ea2c-4b70-a4b0-e0be11e1a199","ios":"levelo://app?vid=820382f2-ea2c-4b70-a4b0-e0be11e1a199"},"vehicle_type_id":"4","last_reported":1758560942,"current_range_meters":4800,"station_id":"ce4bh012rcd13ifvqcv0","pricing_plan_id":"cebpf4jnsgd1na2vs0mg"},{"bike_id":"a07a513e-e5a9-4481-8592-d991379bc662","system_id":"levelo_inurba_marseille","lat":43.337536,"lon":5.374536,"is_reserved":false,"is_disabled":false,"rental_uris":{"android":"levelo://app?vid=a07a513e-e5a9-4481-8592-d991379bc662","ios":"levelo://app?vid=a07a513e-e5a9-4481-8592-d991379bc662"},"vehicle_type_id":"4","last_reported":1758560942,"current_range_meters":4800,"station_id":"","pricing_plan_id":"cebpf4jnsgd1na2vs0mg"},{"bike_id":"625582c2-01e9-4f55-8623-80decf82d3a0","system_id":"levelo_inurba_marseille","lat":43.24542,"lon":5.39541,"is_reserved":false,"is_disabled":false,"rental_uris":{"android":"levelo://app?vid=625582c2-01e9-4f55-8623-80decf82d3a0","ios":"levelo://app?vid=625582c2-01e9-4f55-8623-80decf82d3a0"},"vehicle_type_id":"4","last_reported":1758560942,"current_range_meters":5600,"station_id":"ce4bhlp2rcd13ifvqgjg","pricing_plan_id":"cebpf4jnsgd1na2vs0mg"},{"bike_id":"813042df-2ed4-4e9f-8309-d374befaca44","system_id":"levelo_inurba_marseille","lat":43.29279,"lon":5.40116,"is_reserved":false,"is_disabled":false,"rental_uris":{"android":"levelo://app?vid=813042df-2ed4-4e9f-8309-d374befaca44","ios":"levelo://app?vid=813042df-2ed4-4e9f-8309-d374befaca44"},"vehicle_type_id":"4","last_reported":1758560942,"current_range_meters":5600,"station_id":"ce4bh312rcd13ifvqdk0","pricing_plan_id":"cebpf4jnsgd1na2vs0mg"},{"bike_id":"85c794d5-8ea8-496c-b893-18f16c05b13c","system_id":"levelo_inurba_marseille","lat":43.27055,"lon":5.40273,"is_reserved":false,"is_disabled":false,"rental_uris":{"android":"levelo://app?vid=85c794d5-8ea8-496c-b893-18f16c05b13c","ios":"levelo://app?vid=85c794d5-8ea8-496c-b893-18f16c05b13c"},"vehicle_type_id":"4","last_reported":1758560942,"current_range_meters":5600,"station_id":"ce4bhk92rcd13ifvqgc0","pricing_plan_id":"cebpf4jnsgd1na2vs0mg"},{"bike_id":"9dd89cfb-328c-437f-8777-73d134f29848","system_id":"levelo_inurba_marseille","lat":43.217499,"lon":5.34602,"is_reserved":false,"is_disabled":false,"rental_uris":{"android":"levelo://app?vid=9dd89cfb-328c-437f-8777-73d134f29848","ios":"levelo://app?vid=9dd89cfb-328c-437f-8777-73d134f29848"},"vehicle_type_id":"4","last_reported":1758560942,"current_range_meters":5600,"station_id":"","pricing_plan_id":"cebpf4jnsgd1na2vs0mg"},{"bike_id":"1aab61a2-20f8-44ee-8736-5455037532ab","system_id":"levelo_inurba_marseille","lat":43.296048,"lon":5.381102,"is_reserved":false,"is_disabled":false,"rental_uris":{"android":"levelo://app?vid=1aab61a2-20f8-44ee-8736-5455037532ab","ios":"levelo://app?vid=1aab61a2-20f8-44ee-8736-5455037532ab"},"vehicle_type_id":"4","last_reported":1758560942,"current_range_meters":4800,"station_id":"ce4bgl12rcd13ifvqbo0","pricing_plan_id":"cebpf4jnsgd1na2vs0mg"},{"bike_id":"18dc38cc-98fb-4ab8-80c3-bb884cd57428","system_id":"levelo_inurba_marseille","lat":43.267797,"lon":5.394172,"is_reserved":false,"is_disabled":false,"rental_uris":{"android":"levelo://app?vid=18dc38cc-98fb-4ab8-80c3-bb884cd57428","ios":"levelo://app?vid=18dc38cc-98fb-4ab8-80c3-bb884cd57428"},"vehicle_type_id":"4","last_reported":1758560942,"current_range_meters":5600,"station_id":"ce4bhh12rcd13ifvqfg0","pricing_plan_id":"cebpf4jnsgd1na2vs0mg"},{"bike_id":"ab8426c7-7bdb-4fd4-bd86-a2eebf7bd056","system_id":"levelo_inurba_marseille","lat":43.27321,"lon":5.3908,"is_reserved":false,"is_disabled":false,"rental_uris":{"android":"levelo://app?vid=ab8426c7-7bdb-4fd4-bd86-a2eebf7bd056","ios":"levelo://app?vid=ab8426c7-7bdb-4fd4-bd86-a2eebf7bd056"},"vehicle_type_id":"4","last_reported":1758560942,"current_range_meters":5600,"station_id":"ce4bhgp2rcd13ifvqfe0","pricing_plan_id":"cebpf4jnsgd1na2vs0mg"},{"bike_id":"213f818a-2fc2-423a-8734-2921a1895f7c","system_id":"levelo_inurba_marseille","lat":43.21189,"lon":5.35091,"is_reserved":false,"is_disabled":false,"rental_uris":{"android":"levelo://app?vid=213f818a-2fc2-423a-8734-2921a1895f7c","ios":"levelo://app?vid=213f818a-2fc2-423a-8734-2921a1895f7c"},"vehicle_type_id":"4","last_reported":1758560942,"current_range_meters":6000,"station_id":"st_cvj6sg6p6f1abm77japg","pricing_plan_id":"cebpf4jnsgd1na2vs0mg"},{"bike_id":"68295758-ed98-4d86-acd0-90cc189eef7e","system_id":"levelo_inurba_marseille","lat":43.30646,"lon":5.40082,"is_reserved":false,"is_disabled":false,"rental_uris":{"android":"levelo://app?vid=68295758-ed98-4d86-acd0-90cc189eef7e","ios":"levelo://app?vid=68295758-ed98-4d86-acd0-90cc189eef7e"},"vehicle_type_id":"4","last_reported":1758560942,"current_range_meters":6000,"station_id":"ce4bh112rcd13ifvqda0","pricing_plan_id":"cebpf4jnsgd1na2vs0mg"},{"bike_id":"fa5693b1-beb6-4fc6-8929-084b686ee988","system_id":"levelo_inurba_marseille","lat":43.27057,"lon":5.40263,"is_reserved":false,"is_disabled":false,"rental_uris":{"android":"levelo://app?vid=fa5693b1-beb6-4fc6-8929-084b686ee988","ios":"levelo://app?vid=fa5693b1-beb6-4fc6-8929-084b686ee988"},"vehicle_type_id":"4","last_reported":1758560942,"current_range_meters":6000,"station_id":"ce4bhk92rcd13ifvqgc0","pricing_plan_id":"cebpf4jnsgd1na2vs0mg"},{"bike_id":"26625b33-2969-4153-b1ce-34664f62808f","system_id":"levelo_inurba_marseille","lat":43.27686,"lon":5.38866,"is_reserved":false,"is_disabled":false,"rental_uris":{"android":"levelo://app?vid=26625b33-2969-4153-b1ce-34664f62808f","ios":"levelo://app?vid=26625b33-2969-4153-b1ce-34664f62808f"},"vehicle_type_id":"4","last_reported":1758560942,"current_range_meters":6000,"station_id":"ce4bhi12rcd13ifvqfo0","pricing_plan_id":"cebpf4jnsgd1na2vs0mg"},{"bike_id":"2289a0ff-9c3e-4f79-ad38-4b41158d6057","system_id":"levelo_inurba_marseille","lat":43.29882,"lon":5.37911,"is_reserved":false,"is_disabled":false,"rental_uris":{"android":"levelo://app?vid=2289a0ff-9c3e-4f79-ad38-4b41158d6057","ios":"levelo://app?vid=2289a0ff-9c3e-4f79-ad38-4b41158d6057"},"vehicle_type_id":"4","last_reported":1758560942,"current_range_meters":6000,"station_id":"","pricing_plan_id":"cebpf4jnsgd1na2vs0mg"},{"bike_id":"fba26669-f2e8-4f12-8e6b-1f03419ac7d8","system_id":"levelo_inurba_marseille","lat":43.25583,"lon":5.38226,"is_reserved":false,"is_disabled":false,"rental_uris":{"android":"levelo://app?vid=fba26669-f2e8-4f12-8e6b-1f03419ac7d8","ios":"levelo://app?vid=fba26669-f2e8-4f12-8e6b-1f03419ac7d8"},"vehicle_type_id":"4","last_reported":1758560942,"current_range_meters":6000,"station_id":"ce4bhih2rcd13ifvqfs0","pricing_plan_id":"cebpf4jnsgd1na2vs0mg"},{"bike_id":"38a465a2-d5f0-449c-9035-3e6ee220f374","system_id":"levelo_inurba_marseille","lat":43.2604,"lon":5.39423,"is_reserved":false,"is_disabled":false,"rental_uris":{"android":"levelo://app?vid=38a465a2-d5f0-449c-9035-3e6ee220f374","ios":"levelo://app?vid=38a465a2-d5f0-449c-9035-3e6ee220f374"},"vehicle_type_id":"4","last_reported":1758560942,"current_range_meters":6000,"station_id":"ce4bhh92rcd13ifvqfj0","pricing_plan_id":"cebpf4jnsgd1na2vs0mg"},{"bike_id":"318e565f-609f-4a20-9d12-2fa1ceba5c99","system_id":"levelo_inurba_marseille","lat":43.26498,"lon":5.39537,"is_reserved":false,"is_disabled":false,"rental_uris":{"android":"levelo://app?vid=318e565f-609f-4a20-9d12-2fa1ceba5c99","ios":"levelo://app?vid=318e565f-609f-4a20-9d12-2fa1ceba5c99"},"vehicle_type_id":"4","last_reported":1758560942,"current_range_meters":6000,"station_id":"ce4bhi12rcd13ifvqfq0","pricing_plan_id":"cebpf4jnsgd1na2vs0mg"},{"bike_id":"98523a5d-c3bb-4c14-840f-393f466a869d","system_id":"levelo_inurba_marseille","lat":43.30421,"lon":5.41287,"is_reserved":false,"is_disabled":false,"rental_uris":{"android":"levelo://app?vid=98523a5d-c3bb-4c14-840f-393f466a869d","ios":"levelo://app?vid=98523a5d-c3bb-4c14-840f-393f466a869d"},"vehicle_type_id":"4","last_reported":1758560942,"current_range_meters":6000,"station_id":"ce4bhop2rcd13ifvqh8g","pricing_plan_id":"cebpf4jnsgd1na2vs0mg"},{"bike_id":"f2a56516-1b5b-4bbe-9165-e6166ce07411","system_id":"levelo_inurba_marseille","lat":43.32655,"lon":5.40996,"is_reserved":false,"is_disabled":false,"rental_uris":{"android":"levelo://app?vid=f2a56516-1b5b-4bbe-9165-e6166ce07411","ios":"levelo://app?vid=f2a56516-1b5b-4bbe-9165-e6166ce07411"},"vehicle_type_id":"4","last_reported":1758560942,"current_range_meters":6000,"station_id":"ce4bhpp2rcd13ifvqhgg","pricing_plan_id":"cebpf4jnsgd1na2vs0mg"},{"bike_id":"0ad5c6a5-8b05-4faa-8590-609348c11288","system_id":"levelo_inurba_marseille","lat":43.27797,"lon":5.40746,"is_reserved":false,"is_disabled":false,"rental_uris":{"android":"levelo://app?vid=0ad5c6a5-8b05-4faa-8590-609348c11288","ios":"levelo://app?vid=0ad5c6a5-8b05-4faa-8590-609348c11288"},"vehicle_type_id":"4","last_reported":1758560942,"current_range_meters":6400,"station_id":"ce4bhnh2rcd13ifvqgtg","pricing_plan_id":"cebpf4jnsgd1na2vs0mg"},{"bike_id":"5449a629-a8a8-43e8-b21c-8770e5010e63","system_id":"levelo_inurba_marseille","lat":43.28691,"lon":5.3741,"is_reserved":false,"is_disabled":false,"rental_uris":{"android":"levelo://app?vid=5449a629-a8a8-43e8-b21c-8770e5010e63","ios":"levelo://app?vid=5449a629-a8a8-43e8-b21c-8770e5010e63"},"vehicle_type_id":"4","last_reported":1758560942,"current_range_meters":6400,"station_id":"ce4bh3p2rcd13ifvqdq0","pricing_plan_id":"cebpf4jnsgd1na2vs0mg"},{"bike_id":"0e8bb623-c975-4df6-92f5-7c6019457157","system_id":"levelo_inurba_marseille","lat":43.27054,"lon":5.40262,"is_reserved":false,"is_disabled":false,"rental_uris":{"android":"levelo://app?vid=0e8bb623-c975-4df6-92f5-7c6019457157","ios":"levelo://app?vid=0e8bb623-c975-4df6-92f5-7c6019457157"},"vehicle_type_id":"4","last_reported":1758560942,"current_range_meters":6400,"station_id":"ce4bhk92rcd13ifvqgc0","pricing_plan_id":"cebpf4jnsgd1na2vs0mg"},{"bike_id":"092b11bc-db61-46a8-a258-2ec253586f18","system_id":"levelo_inurba_marseille","lat":43.29871,"lon":5.39729,"is_reserved":false,"is_disabled":false,"rental_uris":{"android":"levelo://app?vid=092b11bc-db61-46a8-a258-2ec253586f18","ios":"levelo://app?vid=092b11bc-db61-46a8-a258-2ec253586f18"},"vehicle_type_id":"4","last_reported":1758560942,"current_range_meters":6400,"station_id":"ce4bh0h2rcd13ifvqd50","pricing_plan_id":"cebpf4jnsgd1na2vs0mg"},{"bike_id":"95b2c900-07a9-4d99-822d-5f69058b55f4","system_id":"levelo_inurba_marseille","lat":43.28713,"lon":5.39996,"is_reserved":false,"is_disabled":true,"rental_uris":{"android":"levelo://app?vid=95b2c900-07a9-4d99-822d-5f69058b55f4","ios":"levelo://app?vid=95b2c900-07a9-4d99-822d-5f69058b55f4"},"vehicle_type_id":"4","last_reported":1758560942,"current_range_meters":6400,"station_id":"ce4bho92rcd13ifvqh3g","pricing_plan_id":"cebpf4jnsgd1na2vs0mg"},{"bike_id":"55d1bc08-fd54-4a82-afc7-2adcaa7b1c4e","system_id":"levelo_inurba_marseille","lat":43.30011,"lon":5.37717,"is_reserved":false,"is_disabled":false,"rental_uris":{"android":"levelo://app?vid=55d1bc08-fd54-4a82-afc7-2adcaa7b1c4e","ios":"levelo://app?vid=55d1bc08-fd54-4a82-afc7-2adcaa7b1c4e"},"vehicle_type_id":"4","last_reported":1758560942,"current_range_meters":6400,"station_id":"","pricing_plan_id":"cebpf4jnsgd1na2vs0mg"},{"bike_id":"b3ee816f-19cc-49a8-9318-eed4d78b7758","system_id":"levelo_inurba_marseille","lat":43.29155,"lon":5.3829,"is_reserved":false,"is_disabled":false,"rental_uris":{"android":"levelo://app?vid=b3ee816f-19cc-49a8-9318-eed4d78b7758","ios":"levelo://app?vid=b3ee816f-19cc-49a8-9318-eed4d78b7758"},"vehicle_type_id":"4","last_reported":1758560942,"current_range_meters":6400,"station_id":"","pricing_plan_id":"cebpf4jnsgd1na2vs0mg"},{"bike_id":"f0745855-de63-46fd-bcad-bafef38405ed","system_id":"levelo_inurba_marseille","lat":43.28093,"lon":5.40966,"is_reserved":false,"is_disabled":false,"rental_uris":{"android":"levelo://app?vid=f0745855-de63-46fd-bcad-bafef38405ed","ios":"levelo://app?vid=f0745855-de63-46fd-bcad-bafef38405ed"},"vehicle_type_id":"4","last_reported":1758560942,"current_range_meters":6800,"station_id":"","pricing_plan_id":"cebpf4jnsgd1na2vs0mg"},{"bike_id":"b74e6332-ebe2-49c2-a1d4-9f28579a2157","system_id":"levelo_inurba_marseille","lat":43.27817,"lon":5.40717,"is_reserved":false,"is_disabled":false,"rental_uris":{"android":"levelo://app?vid=b74e6332-ebe2-49c2-a1d4-9f28579a2157","ios":"levelo://app?vid=b74e6332-ebe2-49c2-a1d4-9f28579a2157"},"vehicle_type_id":"4","last_reported":1758560942,"current_range_meters":6800,"station_id":"ce4bhnh2rcd13ifvqgtg","pricing_plan_id":"cebpf4jnsgd1na2vs0mg"},{"bike_id":"68adab37-f5ad-4072-b58a-fe6c68285ca6","system_id":"levelo_inurba_marseille","lat":43.30607,"lon":5.37677,"is_reserved":false,"is_disabled":false,"rental_uris":{"android":"levelo://app?vid=68adab37-f5ad-4072-b58a-fe6c68285ca6","ios":"levelo://app?vid=68adab37-f5ad-4072-b58a-fe6c68285ca6"},"vehicle_type_id":"4","last_reported":1758560942,"current_range_meters":6800,"station_id":"","pricing_plan_id":"cebpf4jnsgd1na2vs0mg"},{"bike_id":"2e9e66e7-e9fc-4a3c-924e-6852220d6118","system_id":"levelo_inurba_marseille","lat":43.27991,"lon":5.40014,"is_reserved":false,"is_disabled":false,"rental_uris":{"android":"levelo://app?vid=2e9e66e7-e9fc-4a3c-924e-6852220d6118","ios":"levelo://app?vid=2e9e66e7-e9fc-4a3c-924e-6852220d6118"},"vehicle_type_id":"4","last_reported":1758560942,"current_range_meters":6800,"station_id":"ce4bho92rcd13ifvqh4g","pricing_plan_id":"cebpf4jnsgd1na2vs0mg"},{"bike_id":"63974a36-a647-4d0e-936c-aa339c9b11a5","system_id":"levelo_inurba_marseille","lat":43.28625,"lon":5.35137,"is_reserved":false,"is_disabled":false,"rental_uris":{"android":"levelo://app?vid=63974a36-a647-4d0e-936c-aa339c9b11a5","ios":"levelo://app?vid=63974a36-a647-4d0e-936c-aa339c9b11a5"},"vehicle_type_id":"4","last_reported":1758560942,"current_range_meters":6800,"station_id":"ce4bhch2rcd13ifvqeug","pricing_plan_id":"cebpf4jnsgd1na2vs0mg"},{"bike_id":"1f7a2a4a-1cb9-4784-8ea2-26353db4bb35","system_id":"levelo_inurba_marseille","lat":43.298676,"lon":5.397308,"is_reserved":false,"is_disabled":false,"rental_uris":{"android":"levelo://app?vid=1f7a2a4a-1cb9-4784-8ea2-26353db4bb35","ios":"levelo://app?vid=1f7a2a4a-1cb9-4784-8ea2-26353db4bb35"},"vehicle_type_id":"4","last_reported":1758560942,"current_range_meters":6800,"station_id":"ce4bh0h2rcd13ifvqd50","pricing_plan_id":"cebpf4jnsgd1na2vs0mg"},{"bike_id":"2b4c58da-e41b-49a0-b215-96c1ba43af40","system_id":"levelo_inurba_marseille","lat":43.26788,"lon":5.39415,"is_reserved":false,"is_disabled":false,"rental_uris":{"android":"levelo://app?vid=2b4c58da-e41b-49a0-b215-96c1ba43af40","ios":"levelo://app?vid=2b4c58da-e41b-49a0-b215-96c1ba43af40"},"vehicle_type_id":"4","last_reported":1758560942,"current_range_meters":6800,"station_id":"ce4bhh12rcd13ifvqfg0","pricing_plan_id":"cebpf4jnsgd1na2vs0mg"},{"bike_id":"b6beb9be-ef3a-4c76-9ce3-7c5c485be413","system_id":"levelo_inurba_marseille","lat":43.303241,"lon":5.40439,"is_reserved":false,"is_disabled":false,"rental_uris":{"android":"levelo://app?vid=b6beb9be-ef3a-4c76-9ce3-7c5c485be413","ios":"levelo://app?vid=b6beb9be-ef3a-4c76-9ce3-7c5c485be413"},"vehicle_type_id":"4","last_reported":1758560942,"current_range_meters":6800,"station_id":"ce4bh012rcd13ifvqd10","pricing_plan_id":"cebpf4jnsgd1na2vs0mg"},{"bike_id":"b5efe5fe-f661-4ad8-bf89-c64dc70497a2","system_id":"levelo_inurba_marseille","lat":43.27084,"lon":5.39254,"is_reserved":false,"is_disabled":false,"rental_uris":{"android":"levelo://app?vid=b5efe5fe-f661-4ad8-bf89-c64dc70497a2","ios":"levelo://app?vid=b5efe5fe-f661-4ad8-bf89-c64dc70497a2"},"vehicle_type_id":"4","last_reported":1758560942,"current_range_meters":7200,"station_id":"","pricing_plan_id":"cebpf4jnsgd1na2vs0mg"},{"bike_id":"66745418-4096-4ebc-9907-df1c52615286","system_id":"levelo_inurba_marseille","lat":43.2894,"lon":5.36642,"is_reserved":false,"is_disabled":false,"rental_uris":{"android":"levelo://app?vid=66745418-4096-4ebc-9907-df1c52615286","ios":"levelo://app?vid=66745418-4096-4ebc-9907-df1c52615286"},"vehicle_type_id":"4","last_reported":1758560942,"current_range_meters":7200,"station_id":"ce4bhap2rcd13ifvqek0","pricing_plan_id":"cebpf4jnsgd1na2vs0mg"},{"bike_id":"64d457b9-4a4f-487b-876c-b2b7e230c57c","system_id":"levelo_inurba_marseille","lat":43.27425,"lon":5.39423,"is_reserved":false,"is_disabled":false,"rental_uris":{"android":"levelo://app?vid=64d457b9-4a4f-487b-876c-b2b7e230c57c","ios":"levelo://app?vid=64d457b9-4a4f-487b-876c-b2b7e230c57c"},"vehicle_type_id":"4","last_reported":1758560942,"current_range_meters":6800,"station_id":"ce4bhdp2rcd13ifvqf20","pricing_plan_id":"cebpf4jnsgd1na2vs0mg"},{"bike_id":"2a2fbf45-e13d-4c58-b779-b4c75a4a65c4","system_id":"levelo_inurba_marseille","lat":43.27063,"lon":5.40257,"is_reserved":false,"is_disabled":false,"rental_uris":{"android":"levelo://app?vid=2a2fbf45-e13d-4c58-b779-b4c75a4a65c4","ios":"levelo://app?vid=2a2fbf45-e13d-4c58-b779-b4c75a4a65c4"},"vehicle_type_id":"4","last_reported":1758560942,"current_range_meters":7200,"station_id":"ce4bhk92rcd13ifvqgc0","pricing_plan_id":"cebpf4jnsgd1na2vs0mg"},{"bike_id":"756c4371-76d1-4c1f-bb57-dd5c75b1b2c3","system_id":"levelo_inurba_marseille","lat":43.28942,"lon":5.36393,"is_reserved":false,"is_disabled":false,"rental_uris":{"android":"levelo://app?vid=756c4371-76d1-4c1f-bb57-dd5c75b1b2c3","ios":"levelo://app?vid=756c4371-76d1-4c1f-bb57-dd5c75b1b2c3"},"vehicle_type_id":"4","last_reported":1758560942,"current_range_meters":7200,"station_id":"ce4bhc92rcd13ifvqetg","pricing_plan_id":"cebpf4jnsgd1na2vs0mg"},{"bike_id":"fe3fd3ec-c652-4173-9e74-99984dbd1200","system_id":"levelo_inurba_marseille","lat":43.31453,"lon":5.39253,"is_reserved":false,"is_disabled":false,"rental_uris":{"android":"levelo://app?vid=fe3fd3ec-c652-4173-9e74-99984dbd1200","ios":"levelo://app?vid=fe3fd3ec-c652-4173-9e74-99984dbd1200"},"vehicle_type_id":"4","last_reported":1758560942,"current_range_meters":7200,"station_id":"","pricing_plan_id":"cebpf4jnsgd1na2vs0mg"},{"bike_id":"2c7bc467-3cf8-418b-9574-62608c8b031c","system_id":"levelo_inurba_marseille","lat":43.2657,"lon":5.39026,"is_reserved":false,"is_disabled":false,"rental_uris":{"android":"levelo://app?vid=2c7bc467-3cf8-418b-9574-62608c8b031c","ios":"levelo://app?vid=2c7bc467-3cf8-418b-9574-62608c8b031c"},"vehicle_type_id":"4","last_reported":1758560942,"current_range_meters":7200,"station_id":"ce4bhe12rcd13ifvqf30","pricing_plan_id":"cebpf4jnsgd1na2vs0mg"},{"bike_id":"23703529-3e8c-4535-a8d6-b87d42736942","system_id":"levelo_inurba_marseille","lat":43.29227,"lon":5.3606,"is_reserved":false,"is_disabled":false,"rental_uris":{"android":"levelo://app?vid=23703529-3e8c-4535-a8d6-b87d42736942","ios":"levelo://app?vid=23703529-3e8c-4535-a8d6-b87d42736942"},"vehicle_type_id":"4","last_reported":1758560942,"current_range_meters":8000,"station_id":"ce4bhbh2rcd13ifvqeqg","pricing_plan_id":"cebpf4jnsgd1na2vs0mg"},{"bike_id":"af43ff26-8e47-4908-b83a-7407653e3fbc","system_id":"levelo_inurba_marseille","lat":43.28026,"lon":5.3695,"is_reserved":false,"is_disabled":false,"rental_uris":{"android":"levelo://app?vid=af43ff26-8e47-4908-b83a-7407653e3fbc","ios":"levelo://app?vid=af43ff26-8e47-4908-b83a-7407653e3fbc"},"vehicle_type_id":"4","last_reported":1758560942,"current_range_meters":8000,"station_id":"ce4bha12rcd13ifvqef0","pricing_plan_id":"cebpf4jnsgd1na2vs0mg"},{"bike_id":"a1751511-117b-48d7-8726-9a6880f2c458","system_id":"levelo_inurba_marseille","lat":43.24546,"lon":5.39525,"is_reserved":false,"is_disabled":false,"rental_uris":{"android":"levelo://app?vid=a1751511-117b-48d7-8726-9a6880f2c458","ios":"levelo://app?vid=a1751511-117b-48d7-8726-9a6880f2c458"},"vehicle_type_id":"4","last_reported":1758560942,"current_range_meters":8000,"station_id":"ce4bhlp2rcd13ifvqgjg","pricing_plan_id":"cebpf4jnsgd1na2vs0mg"},{"bike_id":"e2125fb0-7208-4966-b0cf-46f32390129e","system_id":"levelo_inurba_marseille","lat":43.279446,"lon":5.410448,"is_reserved":false,"is_disabled":false,"rental_uris":{"android":"levelo://app?vid=e2125fb0-7208-4966-b0cf-46f32390129e","ios":"levelo://app?vid=e2125fb0-7208-4966-b0cf-46f32390129e"},"vehicle_type_id":"4","last_reported":1758560942,"current_range_meters":4400,"station_id":"ce4bhnp2rcd13ifvqh0g","pricing_plan_id":"cebpf4jnsgd1na2vs0mg"},{"bike_id":"e86857f8-f405-4657-b145-ec58ed187087","system_id":"levelo_inurba_marseille","lat":43.313618,"lon":5.384976,"is_reserved":false,"is_disabled":false,"rental_uris":{"android":"levelo://app?vid=e86857f8-f405-4657-b145-ec58ed187087","ios":"levelo://app?vid=e86857f8-f405-4657-b145-ec58ed187087"},"vehicle_type_id":"4","last_reported":1758560942,"current_range_meters":8000,"station_id":"ce4bgt92rcd13ifvqcf0","pricing_plan_id":"cebpf4jnsgd1na2vs0mg"},{"bike_id":"3bdd5bb9-a0e9-4635-93b6-b52acf859d7a","system_id":"levelo_inurba_marseille","lat":43.28261,"lon":5.35048,"is_reserved":false,"is_disabled":true,"rental_uris":{"android":"levelo://app?vid=3bdd5bb9-a0e9-4635-93b6-b52acf859d7a","ios":"levelo://app?vid=3bdd5bb9-a0e9-4635-93b6-b52acf859d7a"},"vehicle_type_id":"4","last_reported":1758560942,"current_range_meters":8000,"station_id":"ce4bhbp2rcd13ifvqerg","pricing_plan_id":"cebpf4jnsgd1na2vs0mg"},{"bike_id":"876ebfe6-bc1e-43f3-9ad9-dcb232c281de","system_id":"levelo_inurba_marseille","lat":43.29223,"lon":5.36059,"is_reserved":false,"is_disabled":false,"rental_uris":{"android":"levelo://app?vid=876ebfe6-bc1e-43f3-9ad9-dcb232c281de","ios":"levelo://app?vid=876ebfe6-bc1e-43f3-9ad9-dcb232c281de"},"vehicle_type_id":"4","last_reported":1758560942,"current_range_meters":8000,"station_id":"ce4bhbh2rcd13ifvqeqg","pricing_plan_id":"cebpf4jnsgd1na2vs0mg"},{"bike_id":"0caee1e9-0b03-47eb-b007-ab6208ab7a0e","system_id":"levelo_inurba_marseille","lat":43.24662,"lon":5.38162,"is_reserved":false,"is_disabled":false,"rental_uris":{"android":"levelo://app?vid=0caee1e9-0b03-47eb-b007-ab6208ab7a0e","ios":"levelo://app?vid=0caee1e9-0b03-47eb-b007-ab6208ab7a0e"},"vehicle_type_id":"4","last_reported":1758560942,"current_range_meters":8000,"station_id":"ce4bhih2rcd13ifvqfr0","pricing_plan_id":"cebpf4jnsgd1na2vs0mg"},{"bike_id":"f581ccb4-ae4a-44ef-9aee-8da2f62ff531","system_id":"levelo_inurba_marseille","lat":43.31244,"lon":5.36824,"is_reserved":false,"is_disabled":false,"rental_uris":{"android":"levelo://app?vid=f581ccb4-ae4a-44ef-9aee-8da2f62ff531","ios":"levelo://app?vid=f581ccb4-ae4a-44ef-9aee-8da2f62ff531"},"vehicle_type_id":"4","last_reported":1758560942,"current_range_meters":8400,"station_id":"ce4bgl92rcd13ifvqbq0","pricing_plan_id":"cebpf4jnsgd1na2vs0mg"},{"bike_id":"6bb37551-5c23-4dc3-a319-f7a659819463","system_id":"levelo_inurba_marseille","lat":43.25869,"lon":5.39904,"is_reserved":false,"is_disabled":false,"rental_uris":{"android":"levelo://app?vid=6bb37551-5c23-4dc3-a319-f7a659819463","ios":"levelo://app?vid=6bb37551-5c23-4dc3-a319-f7a659819463"},"vehicle_type_id":"4","last_reported":1758560942,"current_range_meters":8400,"station_id":"ce4bhl92rcd13ifvqghg","pricing_plan_id":"cebpf4jnsgd1na2vs0mg"},{"bike_id":"a95c8be8-4c98-4db2-ad56-575e43e98a04","system_id":"levelo_inurba_marseille","lat":43.28852,"lon":5.39303,"is_reserved":false,"is_disabled":false,"rental_uris":{"android":"levelo://app?vid=a95c8be8-4c98-4db2-ad56-575e43e98a04","ios":"levelo://app?vid=a95c8be8-4c98-4db2-ad56-575e43e98a04"},"vehicle_type_id":"4","last_reported":1758560942,"current_range_meters":8000,"station_id":"ce4bh2p2rcd13ifvqdi0","pricing_plan_id":"cebpf4jnsgd1na2vs0mg"},{"bike_id":"37bc9878-7b4a-4541-8d84-bf5849623bcb","system_id":"levelo_inurba_marseille","lat":43.29078,"lon":5.37168,"is_reserved":false,"is_disabled":false,"rental_uris":{"android":"levelo://app?vid=37bc9878-7b4a-4541-8d84-bf5849623bcb","ios":"levelo://app?vid=37bc9878-7b4a-4541-8d84-bf5849623bcb"},"vehicle_type_id":"4","last_reported":1758560942,"current_range_meters":8400,"station_id":"ce4bh5p2rcd13ifvqe4g","pricing_plan_id":"cebpf4jnsgd1na2vs0mg"},{"bike_id":"9278c8e4-f92e-4b80-9d1a-f8764c260a72","system_id":"levelo_inurba_marseille","lat":43.21754,"lon":5.34597,"is_reserved":false,"is_disabled":false,"rental_uris":{"android":"levelo://app?vid=9278c8e4-f92e-4b80-9d1a-f8764c260a72","ios":"levelo://app?vid=9278c8e4-f92e-4b80-9d1a-f8764c260a72"},"vehicle_type_id":"4","last_reported":1758560942,"current_range_meters":8400,"station_id":"st_cvj6r9ubvosntc0bgbag","pricing_plan_id":"cebpf4jnsgd1na2vs0mg"},{"bike_id":"69984514-67df-4d59-92c1-6f20c40fa92a","system_id":"levelo_inurba_marseille","lat":43.27533,"lon":5.3853,"is_reserved":false,"is_disabled":false,"rental_uris":{"android":"levelo://app?vid=69984514-67df-4d59-92c1-6f20c40fa92a","ios":"levelo://app?vid=69984514-67df-4d59-92c1-6f20c40fa92a"},"vehicle_type_id":"4","last_reported":1758560942,"current_range_meters":8400,"station_id":"","pricing_plan_id":"cebpf4jnsgd1na2vs0mg"},{"bike_id":"834b4d84-c9bb-4bc6-bdb4-f4bde9f4ae49","system_id":"levelo_inurba_marseille","lat":43.27057,"lon":5.40258,"is_reserved":false,"is_disabled":false,"rental_uris":{"android":"levelo://app?vid=834b4d84-c9bb-4bc6-bdb4-f4bde9f4ae49","ios":"levelo://app?vid=834b4d84-c9bb-4bc6-bdb4-f4bde9f4ae49"},"vehicle_type_id":"4","last_reported":1758560942,"current_range_meters":8400,"station_id":"ce4bhk92rcd13ifvqgc0","pricing_plan_id":"cebpf4jnsgd1na2vs0mg"},{"bike_id":"80126a76-aa37-46a3-9d29-de059f7a8a98","system_id":"levelo_inurba_marseille","lat":43.27042,"lon":5.40269,"is_reserved":false,"is_disabled":false,"rental_uris":{"android":"levelo://app?vid=80126a76-aa37-46a3-9d29-de059f7a8a98","ios":"levelo://app?vid=80126a76-aa37-46a3-9d29-de059f7a8a98"},"vehicle_type_id":"4","last_reported":1758560942,"current_range_meters":8400,"station_id":"ce4bhk92rcd13ifvqgc0","pricing_plan_id":"cebpf4jnsgd1na2vs0mg"},{"bike_id":"cb4f8639-9d47-4e29-a75a-b971214052c4","system_id":"levelo_inurba_marseille","lat":43.2466,"lon":5.38167,"is_reserved":false,"is_disabled":false,"rental_uris":{"android":"levelo://app?vid=cb4f8639-9d47-4e29-a75a-b971214052c4","ios":"levelo://app?vid=cb4f8639-9d47-4e29-a75a-b971214052c4"},"vehicle_type_id":"4","last_reported":1758560942,"current_range_meters":8400,"station_id":"ce4bhih2rcd13ifvqfr0","pricing_plan_id":"cebpf4jnsgd1na2vs0mg"},{"bike_id":"46fe0edd-64da-4ce0-a2e1-122895d31c24","system_id":"levelo_inurba_marseille","lat":43.27051,"lon":5.40265,"is_reserved":false,"is_disabled":false,"rental_uris":{"android":"levelo://app?vid=46fe0edd-64da-4ce0-a2e1-122895d31c24","ios":"levelo://app?vid=46fe0edd-64da-4ce0-a2e1-122895d31c24"},"vehicle_type_id":"4","last_reported":1758560942,"current_range_meters":8400,"station_id":"ce4bhk92rcd13ifvqgc0","pricing_plan_id":"cebpf4jnsgd1na2vs0mg"},{"bike_id":"2b29f045-8ad4-4007-abfd-59afa7a647ed","system_id":"levelo_inurba_marseille","lat":43.24073,"lon":5.37757,"is_reserved":false,"is_disabled":false,"rental_uris":{"android":"levelo://app?vid=2b29f045-8ad4-4007-abfd-59afa7a647ed","ios":"levelo://app?vid=2b29f045-8ad4-4007-abfd-59afa7a647ed"},"vehicle_type_id":"4","last_reported":1758560942,"current_range_meters":8400,"station_id":"ce4bhnp2rcd13ifvqgvg","pricing_plan_id":"cebpf4jnsgd1na2vs0mg"},{"bike_id":"54b3de99-6f20-4756-9886-db2bd8dd170c","system_id":"levelo_inurba_marseille","lat":43.292581,"lon":5.409043,"is_reserved":false,"is_disabled":false,"rental_uris":{"android":"levelo://app?vid=54b3de99-6f20-4756-9886-db2bd8dd170c","ios":"levelo://app?vid=54b3de99-6f20-4756-9886-db2bd8dd170c"},"vehicle_type_id":"4","last_reported":1758560942,"current_range_meters":8400,"station_id":"ce4bh192rcd13ifvqdc0","pricing_plan_id":"cebpf4jnsgd1na2vs0mg"},{"bike_id":"59362b21-e7ae-4d89-a581-7623f0cabe74","system_id":"levelo_inurba_marseille","lat":43.29005,"lon":5.35623,"is_reserved":false,"is_disabled":true,"rental_uris":{"android":"levelo://app?vid=59362b21-e7ae-4d89-a581-7623f0cabe74","ios":"levelo://app?vid=59362b21-e7ae-4d89-a581-7623f0cabe74"},"vehicle_type_id":"4","last_reported":1758560942,"current_range_meters":8800,"station_id":"ce4bhb92rcd13ifvqen0","pricing_plan_id":"cebpf4jnsgd1na2vs0mg"},{"bike_id":"a95a546a-691f-414b-9f19-eb455305a59b","system_id":"levelo_inurba_marseille","lat":43.21745,"lon":5.34624,"is_reserved":false,"is_disabled":false,"rental_uris":{"android":"levelo://app?vid=a95a546a-691f-414b-9f19-eb455305a59b","ios":"levelo://app?vid=a95a546a-691f-414b-9f19-eb455305a59b"},"vehicle_type_id":"4","last_reported":1758560942,"current_range_meters":8800,"station_id":"st_cvj6r9ubvosntc0bgbag","pricing_plan_id":"cebpf4jnsgd1na2vs0mg"},{"bike_id":"0cef570f-c482-4c96-9d28-09200049bd64","system_id":"levelo_inurba_marseille","lat":43.284789,"lon":5.384165,"is_reserved":false,"is_disabled":false,"rental_uris":{"android":"levelo://app?vid=0cef570f-c482-4c96-9d28-09200049bd64","ios":"levelo://app?vid=0cef570f-c482-4c96-9d28-09200049bd64"},"vehicle_type_id":"4","last_reported":1758560942,"current_range_meters":8800,"station_id":"ce4bh512rcd13ifvqe3g","pricing_plan_id":"cebpf4jnsgd1na2vs0mg"},{"bike_id":"ff8e0023-698e-4d84-aa4b-8544cd18a846","system_id":"levelo_inurba_marseille","lat":43.30129,"lon":5.39864,"is_reserved":false,"is_disabled":false,"rental_uris":{"android":"levelo://app?vid=ff8e0023-698e-4d84-aa4b-8544cd18a846","ios":"levelo://app?vid=ff8e0023-698e-4d84-aa4b-8544cd18a846"},"vehicle_type_id":"4","last_reported":1758560942,"current_range_meters":8800,"station_id":"ce4bh0h2rcd13ifvqd40","pricing_plan_id":"cebpf4jnsgd1na2vs0mg"},{"bike_id":"b1f4954f-fe37-48f2-8e12-0b3f7e21c51a","system_id":"levelo_inurba_marseille","lat":43.28267,"lon":5.35068,"is_reserved":false,"is_disabled":false,"rental_uris":{"android":"levelo://app?vid=b1f4954f-fe37-48f2-8e12-0b3f7e21c51a","ios":"levelo://app?vid=b1f4954f-fe37-48f2-8e12-0b3f7e21c51a"},"vehicle_type_id":"4","last_reported":1758560942,"current_range_meters":8800,"station_id":"ce4bhbp2rcd13ifvqerg","pricing_plan_id":"cebpf4jnsgd1na2vs0mg"},{"bike_id":"d078ca7c-25c3-4861-8e45-4fd0d1ee2d70","system_id":"levelo_inurba_marseille","lat":43.27915,"lon":5.39584,"is_reserved":false,"is_disabled":false,"rental_uris":{"android":"levelo://app?vid=d078ca7c-25c3-4861-8e45-4fd0d1ee2d70","ios":"levelo://app?vid=d078ca7c-25c3-4861-8e45-4fd0d1ee2d70"},"vehicle_type_id":"4","last_reported":1758560942,"current_range_meters":8800,"station_id":"ce4bhf92rcd13ifvqf40","pricing_plan_id":"cebpf4jnsgd1na2vs0mg"},{"bike_id":"396649d1-8c17-4df3-aa3a-bf0d0c91c89b","system_id":"levelo_inurba_marseille","lat":43.269394,"lon":5.402434,"is_reserved":false,"is_disabled":false,"rental_uris":{"android":"levelo://app?vid=396649d1-8c17-4df3-aa3a-bf0d0c91c89b","ios":"levelo://app?vid=396649d1-8c17-4df3-aa3a-bf0d0c91c89b"},"vehicle_type_id":"4","last_reported":1758560942,"current_range_meters":8800,"station_id":"cjm6bp8fraef2m0cb0m0","pricing_plan_id":"cebpf4jnsgd1na2vs0mg"},{"bike_id":"e2874cef-10ba-46d3-829f-6fefa2772506","system_id":"levelo_inurba_marseille","lat":43.25866,"lon":5.39894,"is_reserved":false,"is_disabled":false,"rental_uris":{"android":"levelo://app?vid=e2874cef-10ba-46d3-829f-6fefa2772506","ios":"levelo://app?vid=e2874cef-10ba-46d3-829f-6fefa2772506"},"vehicle_type_id":"4","last_reported":1758560942,"current_range_meters":8800,"station_id":"ce4bhl92rcd13ifvqghg","pricing_plan_id":"cebpf4jnsgd1na2vs0mg"},{"bike_id":"76bbf107-7ec5-4826-b296-ab629ecd14ab","system_id":"levelo_inurba_marseille","lat":43.2981,"lon":5.42121,"is_reserved":false,"is_disabled":false,"rental_uris":{"android":"levelo://app?vid=76bbf107-7ec5-4826-b296-ab629ecd14ab","ios":"levelo://app?vid=76bbf107-7ec5-4826-b296-ab629ecd14ab"},"vehicle_type_id":"4","last_reported":1758560942,"current_range_meters":8800,"station_id":"","pricing_plan_id":"cebpf4jnsgd1na2vs0mg"},{"bike_id":"118b6d7e-3328-44e2-ae13-d04071b8c00f","system_id":"levelo_inurba_marseille","lat":43.21186,"lon":5.35085,"is_reserved":false,"is_disabled":false,"rental_uris":{"android":"levelo://app?vid=118b6d7e-3328-44e2-ae13-d04071b8c00f","ios":"levelo://app?vid=118b6d7e-3328-44e2-ae13-d04071b8c00f"},"vehicle_type_id":"4","last_reported":1758560942,"current_range_meters":9200,"station_id":"st_cvj6sg6p6f1abm77japg","pricing_plan_id":"cebpf4jnsgd1na2vs0mg"},{"bike_id":"8a569a47-46ff-4e91-972f-c6991b590b75","system_id":"levelo_inurba_marseille","lat":43.302445,"lon":5.40089,"is_reserved":false,"is_disabled":true,"rental_uris":{"android":"levelo://app?vid=8a569a47-46ff-4e91-972f-c6991b590b75","ios":"levelo://app?vid=8a569a47-46ff-4e91-972f-c6991b590b75"},"vehicle_type_id":"4","last_reported":1758560942,"current_range_meters":9200,"station_id":"ce4bgvh2rcd13ifvqcs0","pricing_plan_id":"cebpf4jnsgd1na2vs0mg"},{"bike_id":"ca7cfd93-60d9-4fda-b2da-28a86ec02074","system_id":"levelo_inurba_marseille","lat":43.33488,"lon":5.36232,"is_reserved":false,"is_disabled":false,"rental_uris":{"android":"levelo://app?vid=ca7cfd93-60d9-4fda-b2da-28a86ec02074","ios":"levelo://app?vid=ca7cfd93-60d9-4fda-b2da-28a86ec02074"},"vehicle_type_id":"4","last_reported":1758560942,"current_range_meters":9200,"station_id":"","pricing_plan_id":"cebpf4jnsgd1na2vs0mg"},{"bike_id":"9176512c-2cc1-4df2-a8e0-6be514fbcdbf","system_id":"levelo_inurba_marseille","lat":43.33748,"lon":5.37465,"is_reserved":false,"is_disabled":false,"rental_uris":{"android":"levelo://app?vid=9176512c-2cc1-4df2-a8e0-6be514fbcdbf","ios":"levelo://app?vid=9176512c-2cc1-4df2-a8e0-6be514fbcdbf"},"vehicle_type_id":"4","last_reported":1758560942,"current_range_meters":9200,"station_id":"","pricing_plan_id":"cebpf4jnsgd1na2vs0mg"},{"bike_id":"438ead59-de14-4fa0-a61d-03a70a4122ae","system_id":"levelo_inurba_marseille","lat":43.97285,"lon":4.89134,"is_reserved":false,"is_disabled":true,"rental_uris":{"android":"levelo://app?vid=438ead59-de14-4fa0-a61d-03a70a4122ae","ios":"levelo://app?vid=438ead59-de14-4fa0-a61d-03a70a4122ae"},"vehicle_type_id":"4","last_reported":1758560942,"current_range_meters":9200,"station_id":"","pricing_plan_id":"cebpf4jnsgd1na2vs0mg"},{"bike_id":"0402438e-d72b-4870-8e22-17facef5f22b","system_id":"levelo_inurba_marseille","lat":43.29594,"lon":5.39166,"is_reserved":false,"is_disabled":false,"rental_uris":{"android":"levelo://app?vid=0402438e-d72b-4870-8e22-17facef5f22b","ios":"levelo://app?vid=0402438e-d72b-4870-8e22-17facef5f22b"},"vehicle_type_id":"4","last_reported":1758560942,"current_range_meters":9600,"station_id":"","pricing_plan_id":"cebpf4jnsgd1na2vs0mg"},{"bike_id":"9deb0fc3-1b5d-4f93-ac2e-072239d233e4","system_id":"levelo_inurba_marseille","lat":43.2705,"lon":5.40264,"is_reserved":false,"is_disabled":false,"rental_uris":{"android":"levelo://app?vid=9deb0fc3-1b5d-4f93-ac2e-072239d233e4","ios":"levelo://app?vid=9deb0fc3-1b5d-4f93-ac2e-072239d233e4"},"vehicle_type_id":"4","last_reported":1758560942,"current_range_meters":9600,"station_id":"ce4bhk92rcd13ifvqgc0","pricing_plan_id":"cebpf4jnsgd1na2vs0mg"},{"bike_id":"0c2d83bc-bfa2-4dc0-b055-d5d278eccc90","system_id":"levelo_inurba_marseille","lat":43.25003,"lon":5.38927,"is_reserved":false,"is_disabled":false,"rental_uris":{"android":"levelo://app?vid=0c2d83bc-bfa2-4dc0-b055-d5d278eccc90","ios":"levelo://app?vid=0c2d83bc-bfa2-4dc0-b055-d5d278eccc90"},"vehicle_type_id":"4","last_reported":1758560942,"current_range_meters":10000,"station_id":"ce4bhgp2rcd13ifvqfd0","pricing_plan_id":"cebpf4jnsgd1na2vs0mg"},{"bike_id":"e52d5da6-e202-4386-aad1-b6104513e285","system_id":"levelo_inurba_marseille","lat":43.27674,"lon":5.38874,"is_reserved":false,"is_disabled":false,"rental_uris":{"android":"levelo://app?vid=e52d5da6-e202-4386-aad1-b6104513e285","ios":"levelo://app?vid=e52d5da6-e202-4386-aad1-b6104513e285"},"vehicle_type_id":"4","last_reported":1758560942,"current_range_meters":10000,"station_id":"ce4bhi12rcd13ifvqfo0","pricing_plan_id":"cebpf4jnsgd1na2vs0mg"},{"bike_id":"ec6d83fe-b736-418d-9613-b1d895cb4fd8","system_id":"levelo_inurba_marseille","lat":43.24997,"lon":5.38943,"is_reserved":false,"is_disabled":false,"rental_uris":{"android":"levelo://app?vid=ec6d83fe-b736-418d-9613-b1d895cb4fd8","ios":"levelo://app?vid=ec6d83fe-b736-418d-9613-b1d895cb4fd8"},"vehicle_type_id":"4","last_reported":1758560942,"current_range_meters":10000,"station_id":"ce4bhgp2rcd13ifvqfd0","pricing_plan_id":"cebpf4jnsgd1na2vs0mg"},{"bike_id":"2c35bcb8-6f1e-407b-8a1a-9337b1b5f0f0","system_id":"levelo_inurba_marseille","lat":43.31534,"lon":5.38023,"is_reserved":false,"is_disabled":false,"rental_uris":{"android":"levelo://app?vid=2c35bcb8-6f1e-407b-8a1a-9337b1b5f0f0","ios":"levelo://app?vid=2c35bcb8-6f1e-407b-8a1a-9337b1b5f0f0"},"vehicle_type_id":"4","last_reported":1758560942,"current_range_meters":10000,"station_id":"ce4bhsp2rcd13ifvqi50","pricing_plan_id":"cebpf4jnsgd1na2vs0mg"},{"bike_id":"4874b48b-7c23-4423-9821-08260f8ab3de","system_id":"levelo_inurba_marseille","lat":43.265054,"lon":5.395386,"is_reserved":false,"is_disabled":false,"rental_uris":{"android":"levelo://app?vid=4874b48b-7c23-4423-9821-08260f8ab3de","ios":"levelo://app?vid=4874b48b-7c23-4423-9821-08260f8ab3de"},"vehicle_type_id":"4","last_reported":1758560942,"current_range_meters":10000,"station_id":"ce4bhi12rcd13ifvqfq0","pricing_plan_id":"cebpf4jnsgd1na2vs0mg"},{"bike_id":"61770c49-cf1c-4cdb-8a76-b62d53617107","system_id":"levelo_inurba_marseille","lat":43.27423,"lon":5.39427,"is_reserved":false,"is_disabled":false,"rental_uris":{"android":"levelo://app?vid=61770c49-cf1c-4cdb-8a76-b62d53617107","ios":"levelo://app?vid=61770c49-cf1c-4cdb-8a76-b62d53617107"},"vehicle_type_id":"4","last_reported":1758560942,"current_range_meters":10800,"station_id":"ce4bhdp2rcd13ifvqf20","pricing_plan_id":"cebpf4jnsgd1na2vs0mg"},{"bike_id":"f9f24b93-41a2-49a1-b746-22fdea4e60b6","system_id":"levelo_inurba_marseille","lat":43.287115,"lon":5.373876,"is_reserved":false,"is_disabled":false,"rental_uris":{"android":"levelo://app?vid=f9f24b93-41a2-49a1-b746-22fdea4e60b6","ios":"levelo://app?vid=f9f24b93-41a2-49a1-b746-22fdea4e60b6"},"vehicle_type_id":"4","last_reported":1758560942,"current_range_meters":10000,"station_id":"ce4bh3p2rcd13ifvqdq0","pricing_plan_id":"cebpf4jnsgd1na2vs0mg"},{"bike_id":"8d7c62eb-d227-4963-ae32-c547d651f737","system_id":"levelo_inurba_marseille","lat":43.27826,"lon":5.39218,"is_reserved":false,"is_disabled":false,"rental_uris":{"android":"levelo://app?vid=8d7c62eb-d227-4963-ae32-c547d651f737","ios":"levelo://app?vid=8d7c62eb-d227-4963-ae32-c547d651f737"},"vehicle_type_id":"4","last_reported":1758560942,"current_range_meters":10800,"station_id":"ce4bhjp2rcd13ifvqga0","pricing_plan_id":"cebpf4jnsgd1na2vs0mg"},{"bike_id":"1acc509b-af85-4b58-bd74-e0c052811dd7","system_id":"levelo_inurba_marseille","lat":43.30284,"lon":5.396613,"is_reserved":false,"is_disabled":false,"rental_uris":{"android":"levelo://app?vid=1acc509b-af85-4b58-bd74-e0c052811dd7","ios":"levelo://app?vid=1acc509b-af85-4b58-bd74-e0c052811dd7"},"vehicle_type_id":"4","last_reported":1758560942,"current_range_meters":10800,"station_id":"","pricing_plan_id":"cebpf4jnsgd1na2vs0mg"},{"bike_id":"0ca405c5-50f7-42f0-ad59-fa4f401dba3d","system_id":"levelo_inurba_marseille","lat":43.24666,"lon":5.38165,"is_reserved":false,"is_disabled":true,"rental_uris":{"android":"levelo://app?vid=0ca405c5-50f7-42f0-ad59-fa4f401dba3d","ios":"levelo://app?vid=0ca405c5-50f7-42f0-ad59-fa4f401dba3d"},"vehicle_type_id":"4","last_reported":1758560942,"current_range_meters":10800,"station_id":"ce4bhih2rcd13ifvqfr0","pricing_plan_id":"cebpf4jnsgd1na2vs0mg"},{"bike_id":"339f8fa6-5cb8-49ad-a3e6-0764325e568b","system_id":"levelo_inurba_marseille","lat":43.27689,"lon":5.38877,"is_reserved":false,"is_disabled":false,"rental_uris":{"android":"levelo://app?vid=339f8fa6-5cb8-49ad-a3e6-0764325e568b","ios":"levelo://app?vid=339f8fa6-5cb8-49ad-a3e6-0764325e568b"},"vehicle_type_id":"4","last_reported":1758560942,"current_range_meters":10800,"station_id":"ce4bhi12rcd13ifvqfo0","pricing_plan_id":"cebpf4jnsgd1na2vs0mg"},{"bike_id":"c012b5ee-bbe2-40c3-81a9-754e5b76b090","system_id":"levelo_inurba_marseille","lat":43.2318,"lon":5.39972,"is_reserved":false,"is_disabled":false,"rental_uris":{"android":"levelo://app?vid=c012b5ee-bbe2-40c3-81a9-754e5b76b090","ios":"levelo://app?vid=c012b5ee-bbe2-40c3-81a9-754e5b76b090"},"vehicle_type_id":"4","last_reported":1758560942,"current_range_meters":10800,"station_id":"ce4bhn12rcd13ifvqgqg","pricing_plan_id":"cebpf4jnsgd1na2vs0mg"},{"bike_id":"c297cbe1-c964-4bcb-9a3a-1287a83a77b6","system_id":"levelo_inurba_marseille","lat":43.24547,"lon":5.39526,"is_reserved":false,"is_disabled":false,"rental_uris":{"android":"levelo://app?vid=c297cbe1-c964-4bcb-9a3a-1287a83a77b6","ios":"levelo://app?vid=c297cbe1-c964-4bcb-9a3a-1287a83a77b6"},"vehicle_type_id":"4","last_reported":1758560942,"current_range_meters":10800,"station_id":"ce4bhlp2rcd13ifvqgjg","pricing_plan_id":"cebpf4jnsgd1na2vs0mg"},{"bike_id":"1607b6cb-205d-442c-825d-3fcc73f7e601","system_id":"levelo_inurba_marseille","lat":43.29712,"lon":5.37697,"is_reserved":false,"is_disabled":false,"rental_uris":{"android":"levelo://app?vid=1607b6cb-205d-442c-825d-3fcc73f7e601","ios":"levelo://app?vid=1607b6cb-205d-442c-825d-3fcc73f7e601"},"vehicle_type_id":"4","last_reported":1758560942,"current_range_meters":11200,"station_id":"ce4bgkh2rcd13ifvqbl0","pricing_plan_id":"cebpf4jnsgd1na2vs0mg"},{"bike_id":"a15e48c8-16c3-437e-a237-62b9e19d84cb","system_id":"levelo_inurba_marseille","lat":43.21749,"lon":5.34604,"is_reserved":false,"is_disabled":false,"rental_uris":{"android":"levelo://app?vid=a15e48c8-16c3-437e-a237-62b9e19d84cb","ios":"levelo://app?vid=a15e48c8-16c3-437e-a237-62b9e19d84cb"},"vehicle_type_id":"4","last_reported":1758560942,"current_range_meters":11200,"station_id":"st_cvj6r9ubvosntc0bgbag","pricing_plan_id":"cebpf4jnsgd1na2vs0mg"},{"bike_id":"eacf6cab-7b46-41a2-bdec-98874f91cc7f","system_id":"levelo_inurba_marseille","lat":43.229303,"lon":5.353764,"is_reserved":false,"is_disabled":false,"rental_uris":{"android":"levelo://app?vid=eacf6cab-7b46-41a2-bdec-98874f91cc7f","ios":"levelo://app?vid=eacf6cab-7b46-41a2-bdec-98874f91cc7f"},"vehicle_type_id":"4","last_reported":1758560942,"current_range_meters":11200,"station_id":"cpo3532slgdg3j2ikp40","pricing_plan_id":"cebpf4jnsgd1na2vs0mg"},{"bike_id":"6e417fed-8d43-4963-b52e-c54cd79d652e","system_id":"levelo_inurba_marseille","lat":43.30122,"lon":5.38793,"is_reserved":false,"is_disabled":true,"rental_uris":{"android":"levelo://app?vid=6e417fed-8d43-4963-b52e-c54cd79d652e","ios":"levelo://app?vid=6e417fed-8d43-4963-b52e-c54cd79d652e"},"vehicle_type_id":"4","last_reported":1758560942,"current_range_meters":11200,"station_id":"ce4bghh2rcd13ifvqb60","pricing_plan_id":"cebpf4jnsgd1na2vs0mg"},{"bike_id":"c46575d3-d222-4081-9970-3a38bb708282","system_id":"levelo_inurba_marseille","lat":43.2294,"lon":5.354,"is_reserved":false,"is_disabled":false,"rental_uris":{"android":"levelo://app?vid=c46575d3-d222-4081-9970-3a38bb708282","ios":"levelo://app?vid=c46575d3-d222-4081-9970-3a38bb708282"},"vehicle_type_id":"4","last_reported":1758560942,"current_range_meters":11200,"station_id":"cpo3532slgdg3j2ikp40","pricing_plan_id":"cebpf4jnsgd1na2vs0mg"},{"bike_id":"99200961-8cc7-40fb-9692-0fdd64fe3e63","system_id":"levelo_inurba_marseille","lat":43.27425,"lon":5.39423,"is_reserved":false,"is_disabled":false,"rental_uris":{"android":"levelo://app?vid=99200961-8cc7-40fb-9692-0fdd64fe3e63","ios":"levelo://app?vid=99200961-8cc7-40fb-9692-0fdd64fe3e63"},"vehicle_type_id":"4","last_reported":1758560942,"current_range_meters":11200,"station_id":"ce4bhdp2rcd13ifvqf20","pricing_plan_id":"cebpf4jnsgd1na2vs0mg"},{"bike_id":"05e4fb95-862e-4c1e-8373-8d7429247ce0","system_id":"levelo_inurba_marseille","lat":43.30895,"lon":5.37195,"is_reserved":false,"is_disabled":false,"rental_uris":{"android":"levelo://app?vid=05e4fb95-862e-4c1e-8373-8d7429247ce0","ios":"levelo://app?vid=05e4fb95-862e-4c1e-8373-8d7429247ce0"},"vehicle_type_id":"4","last_reported":1758560942,"current_range_meters":10800,"station_id":"ce4bguh2rcd13ifvqckg","pricing_plan_id":"cebpf4jnsgd1na2vs0mg"},{"bike_id":"27b31f82-21fe-4d89-b1ad-bc7372195054","system_id":"levelo_inurba_marseille","lat":43.24675,"lon":5.38148,"is_reserved":false,"is_disabled":false,"rental_uris":{"android":"levelo://app?vid=27b31f82-21fe-4d89-b1ad-bc7372195054","ios":"levelo://app?vid=27b31f82-21fe-4d89-b1ad-bc7372195054"},"vehicle_type_id":"4","last_reported":1758560942,"current_range_meters":11200,"station_id":"ce4bhih2rcd13ifvqfr0","pricing_plan_id":"cebpf4jnsgd1na2vs0mg"},{"bike_id":"2b03d350-4b38-4d04-8c13-10ece185ed86","system_id":"levelo_inurba_marseille","lat":43.29926,"lon":5.37484,"is_reserved":false,"is_disabled":false,"rental_uris":{"android":"levelo://app?vid=2b03d350-4b38-4d04-8c13-10ece185ed86","ios":"levelo://app?vid=2b03d350-4b38-4d04-8c13-10ece185ed86"},"vehicle_type_id":"4","last_reported":1758560942,"current_range_meters":11600,"station_id":"ce4bgjh2rcd13ifvqbg0","pricing_plan_id":"cebpf4jnsgd1na2vs0mg"},{"bike_id":"bc5bdce1-bf12-446e-b31e-3cfc29bb8dd1","system_id":"levelo_inurba_marseille","lat":43.29558,"lon":5.38174,"is_reserved":false,"is_disabled":false,"rental_uris":{"android":"levelo://app?vid=bc5bdce1-bf12-446e-b31e-3cfc29bb8dd1","ios":"levelo://app?vid=bc5bdce1-bf12-446e-b31e-3cfc29bb8dd1"},"vehicle_type_id":"4","last_reported":1758560942,"current_range_meters":11600,"station_id":"","pricing_plan_id":"cebpf4jnsgd1na2vs0mg"},{"bike_id":"c6e803c9-c230-41c2-b9e6-0441b3c8476b","system_id":"levelo_inurba_marseille","lat":43.25582,"lon":5.38227,"is_reserved":false,"is_disabled":false,"rental_uris":{"android":"levelo://app?vid=c6e803c9-c230-41c2-b9e6-0441b3c8476b","ios":"levelo://app?vid=c6e803c9-c230-41c2-b9e6-0441b3c8476b"},"vehicle_type_id":"4","last_reported":1758560942,"current_range_meters":11600,"station_id":"ce4bhih2rcd13ifvqfs0","pricing_plan_id":"cebpf4jnsgd1na2vs0mg"},{"bike_id":"9a66b3a9-915e-4cc8-83c4-5335bc6f74dd","system_id":"levelo_inurba_marseille","lat":43.27828,"lon":5.39206,"is_reserved":false,"is_disabled":false,"rental_uris":{"android":"levelo://app?vid=9a66b3a9-915e-4cc8-83c4-5335bc6f74dd","ios":"levelo://app?vid=9a66b3a9-915e-4cc8-83c4-5335bc6f74dd"},"vehicle_type_id":"4","last_reported":1758560942,"current_range_meters":11600,"station_id":"ce4bhjp2rcd13ifvqga0","pricing_plan_id":"cebpf4jnsgd1na2vs0mg"},{"bike_id":"7d73570a-4165-46a4-a4d9-6c3b91773a9c","system_id":"levelo_inurba_marseille","lat":43.22923,"lon":5.35377,"is_reserved":false,"is_disabled":false,"rental_uris":{"android":"levelo://app?vid=7d73570a-4165-46a4-a4d9-6c3b91773a9c","ios":"levelo://app?vid=7d73570a-4165-46a4-a4d9-6c3b91773a9c"},"vehicle_type_id":"4","last_reported":1758560942,"current_range_meters":12000,"station_id":"cpo3532slgdg3j2ikp40","pricing_plan_id":"cebpf4jnsgd1na2vs0mg"},{"bike_id":"c7709a54-d673-4ad2-924e-1a51886ff671","system_id":"levelo_inurba_marseille","lat":43.31274,"lon":5.40183,"is_reserved":false,"is_disabled":false,"rental_uris":{"android":"levelo://app?vid=c7709a54-d673-4ad2-924e-1a51886ff671","ios":"levelo://app?vid=c7709a54-d673-4ad2-924e-1a51886ff671"},"vehicle_type_id":"4","last_reported":1758560942,"current_range_meters":12000,"station_id":"ce4bh092rcd13ifvqd30","pricing_plan_id":"cebpf4jnsgd1na2vs0mg"},{"bike_id":"94dc763b-5c60-4e8c-a6fc-573bcaf8f7f0","system_id":"levelo_inurba_marseille","lat":43.32454,"lon":5.36521,"is_reserved":false,"is_disabled":false,"rental_uris":{"android":"levelo://app?vid=94dc763b-5c60-4e8c-a6fc-573bcaf8f7f0","ios":"levelo://app?vid=94dc763b-5c60-4e8c-a6fc-573bcaf8f7f0"},"vehicle_type_id":"4","last_reported":1758560942,"current_range_meters":12400,"station_id":"ce4bhs12rcd13ifvqhvg","pricing_plan_id":"cebpf4jnsgd1na2vs0mg"},{"bike_id":"51d92c87-aa59-4783-b818-f9c5a7eebd73","system_id":"levelo_inurba_marseille","lat":43.29527,"lon":5.37403,"is_reserved":false,"is_disabled":false,"rental_uris":{"android":"levelo://app?vid=51d92c87-aa59-4783-b818-f9c5a7eebd73","ios":"levelo://app?vid=51d92c87-aa59-4783-b818-f9c5a7eebd73"},"vehicle_type_id":"4","last_reported":1758560942,"current_range_meters":12400,"station_id":"","pricing_plan_id":"cebpf4jnsgd1na2vs0mg"},{"bike_id":"84d6f16b-f738-4e27-98f3-548b2ba2e4ec","system_id":"levelo_inurba_marseille","lat":43.29636,"lon":5.40594,"is_reserved":false,"is_disabled":false,"rental_uris":{"android":"levelo://app?vid=84d6f16b-f738-4e27-98f3-548b2ba2e4ec","ios":"levelo://app?vid=84d6f16b-f738-4e27-98f3-548b2ba2e4ec"},"vehicle_type_id":"4","last_reported":1758560942,"current_range_meters":12400,"station_id":"ce4bh0h2rcd13ifvqd60","pricing_plan_id":"cebpf4jnsgd1na2vs0mg"},{"bike_id":"debcb0cc-e336-4bf5-a22d-cda1edc08966","system_id":"levelo_inurba_marseille","lat":43.29906,"lon":5.38141,"is_reserved":false,"is_disabled":false,"rental_uris":{"android":"levelo://app?vid=debcb0cc-e336-4bf5-a22d-cda1edc08966","ios":"levelo://app?vid=debcb0cc-e336-4bf5-a22d-cda1edc08966"},"vehicle_type_id":"4","last_reported":1758560942,"current_range_meters":12400,"station_id":"ce4bgj12rcd13ifvqbc0","pricing_plan_id":"cebpf4jnsgd1na2vs0mg"},{"bike_id":"90e14a2d-1c9e-457a-a1d7-7257e3270581","system_id":"levelo_inurba_marseille","lat":43.27992,"lon":5.41659,"is_reserved":false,"is_disabled":true,"rental_uris":{"android":"levelo://app?vid=90e14a2d-1c9e-457a-a1d7-7257e3270581","ios":"levelo://app?vid=90e14a2d-1c9e-457a-a1d7-7257e3270581"},"vehicle_type_id":"4","last_reported":1758560942,"current_range_meters":12400,"station_id":"ce4bho12rcd13ifvqh1g","pricing_plan_id":"cebpf4jnsgd1na2vs0mg"},{"bike_id":"fa4e9bf0-ebcb-4802-a9f0-1293fb11fb32","system_id":"levelo_inurba_marseille","lat":43.25104,"lon":5.40339,"is_reserved":false,"is_disabled":false,"rental_uris":{"android":"levelo://app?vid=fa4e9bf0-ebcb-4802-a9f0-1293fb11fb32","ios":"levelo://app?vid=fa4e9bf0-ebcb-4802-a9f0-1293fb11fb32"},"vehicle_type_id":"4","last_reported":1758560942,"current_range_meters":12400,"station_id":"ce4bhlh2rcd13ifvqgig","pricing_plan_id":"cebpf4jnsgd1na2vs0mg"},{"bike_id":"143e4a51-26e4-4598-a682-3437273d4001","system_id":"levelo_inurba_marseille","lat":43.25333,"lon":5.42179,"is_reserved":false,"is_disabled":false,"rental_uris":{"android":"levelo://app?vid=143e4a51-26e4-4598-a682-3437273d4001","ios":"levelo://app?vid=143e4a51-26e4-4598-a682-3437273d4001"},"vehicle_type_id":"4","last_reported":1758560942,"current_range_meters":12400,"station_id":"st_d2m65c5bi1j21697t3ng","pricing_plan_id":"cebpf4jnsgd1na2vs0mg"},{"bike_id":"2fe447d4-ef2c-44a7-8a4f-84fef8b9c6d2","system_id":"levelo_inurba_marseille","lat":43.27214,"lon":5.39184,"is_reserved":false,"is_disabled":false,"rental_uris":{"android":"levelo://app?vid=2fe447d4-ef2c-44a7-8a4f-84fef8b9c6d2","ios":"levelo://app?vid=2fe447d4-ef2c-44a7-8a4f-84fef8b9c6d2"},"vehicle_type_id":"4","last_reported":1758560942,"current_range_meters":12800,"station_id":"ce4bhhp2rcd13ifvqfm0","pricing_plan_id":"cebpf4jnsgd1na2vs0mg"},{"bike_id":"fb94f67f-b8d5-4f4c-bd33-7db8ce6f9a8f","system_id":"levelo_inurba_marseille","lat":43.292489,"lon":5.384268,"is_reserved":false,"is_disabled":false,"rental_uris":{"android":"levelo://app?vid=fb94f67f-b8d5-4f4c-bd33-7db8ce6f9a8f","ios":"levelo://app?vid=fb94f67f-b8d5-4f4c-bd33-7db8ce6f9a8f"},"vehicle_type_id":"4","last_reported":1758560942,"current_range_meters":12800,"station_id":"ce4bh692rcd13ifvqea0","pricing_plan_id":"cebpf4jnsgd1na2vs0mg"},{"bike_id":"77eeb9b5-0e68-4a7b-b5d1-530ce6c04cd4","system_id":"levelo_inurba_marseille","lat":43.22941,"lon":5.35387,"is_reserved":false,"is_disabled":false,"rental_uris":{"android":"levelo://app?vid=77eeb9b5-0e68-4a7b-b5d1-530ce6c04cd4","ios":"levelo://app?vid=77eeb9b5-0e68-4a7b-b5d1-530ce6c04cd4"},"vehicle_type_id":"4","last_reported":1758560942,"current_range_meters":12800,"station_id":"cpo3532slgdg3j2ikp40","pricing_plan_id":"cebpf4jnsgd1na2vs0mg"},{"bike_id":"2d0f6ba7-b28e-4fbc-8113-014ea8616d03","system_id":"levelo_inurba_marseille","lat":43.30892,"lon":5.37195,"is_reserved":false,"is_disabled":false,"rental_uris":{"android":"levelo://app?vid=2d0f6ba7-b28e-4fbc-8113-014ea8616d03","ios":"levelo://app?vid=2d0f6ba7-b28e-4fbc-8113-014ea8616d03"},"vehicle_type_id":"4","last_reported":1758560942,"current_range_meters":12800,"station_id":"ce4bguh2rcd13ifvqckg","pricing_plan_id":"cebpf4jnsgd1na2vs0mg"},{"bike_id":"c7fe42cc-8455-46b8-abdb-85cedb6bb137","system_id":"levelo_inurba_marseille","lat":43.29366,"lon":5.37835,"is_reserved":false,"is_disabled":false,"rental_uris":{"android":"levelo://app?vid=c7fe42cc-8455-46b8-abdb-85cedb6bb137","ios":"levelo://app?vid=c7fe42cc-8455-46b8-abdb-85cedb6bb137"},"vehicle_type_id":"4","last_reported":1758560942,"current_range_meters":12400,"station_id":"ce4bgjh2rcd13ifvqbf0","pricing_plan_id":"cebpf4jnsgd1na2vs0mg"},{"bike_id":"807b20cd-9c21-4158-b4b7-c257e7ab59cd","system_id":"levelo_inurba_marseille","lat":43.30324,"lon":5.40442,"is_reserved":false,"is_disabled":false,"rental_uris":{"android":"levelo://app?vid=807b20cd-9c21-4158-b4b7-c257e7ab59cd","ios":"levelo://app?vid=807b20cd-9c21-4158-b4b7-c257e7ab59cd"},"vehicle_type_id":"4","last_reported":1758560942,"current_range_meters":13600,"station_id":"ce4bh012rcd13ifvqd10","pricing_plan_id":"cebpf4jnsgd1na2vs0mg"},{"bike_id":"b1e60506-2570-4acd-8448-9bda6f138b4e","system_id":"levelo_inurba_marseille","lat":43.27679,"lon":5.388624,"is_reserved":false,"is_disabled":false,"rental_uris":{"android":"levelo://app?vid=b1e60506-2570-4acd-8448-9bda6f138b4e","ios":"levelo://app?vid=b1e60506-2570-4acd-8448-9bda6f138b4e"},"vehicle_type_id":"4","last_reported":1758560942,"current_range_meters":13600,"station_id":"ce4bhi12rcd13ifvqfo0","pricing_plan_id":"cebpf4jnsgd1na2vs0mg"},{"bike_id":"0b2230e3-adb9-421c-91b1-c113eb397705","system_id":"levelo_inurba_marseille","lat":43.28902,"lon":5.37657,"is_reserved":false,"is_disabled":false,"rental_uris":{"android":"levelo://app?vid=0b2230e3-adb9-421c-91b1-c113eb397705","ios":"levelo://app?vid=0b2230e3-adb9-421c-91b1-c113eb397705"},"vehicle_type_id":"4","last_reported":1758560942,"current_range_meters":13600,"station_id":"","pricing_plan_id":"cebpf4jnsgd1na2vs0mg"},{"bike_id":"47a3d40d-5a10-4f70-a027-a5fe0e72ed45","system_id":"levelo_inurba_marseille","lat":43.32536,"lon":5.41428,"is_reserved":false,"is_disabled":false,"rental_uris":{"android":"levelo://app?vid=47a3d40d-5a10-4f70-a027-a5fe0e72ed45","ios":"levelo://app?vid=47a3d40d-5a10-4f70-a027-a5fe0e72ed45"},"vehicle_type_id":"4","last_reported":1758560942,"current_range_meters":13600,"station_id":"ce4bhq12rcd13ifvqhhg","pricing_plan_id":"cebpf4jnsgd1na2vs0mg"},{"bike_id":"f9f6eeee-7962-4929-b948-a214524a3e98","system_id":"levelo_inurba_marseille","lat":43.26803,"lon":5.4027,"is_reserved":false,"is_disabled":false,"rental_uris":{"android":"levelo://app?vid=f9f6eeee-7962-4929-b948-a214524a3e98","ios":"levelo://app?vid=f9f6eeee-7962-4929-b948-a214524a3e98"},"vehicle_type_id":"4","last_reported":1758560942,"current_range_meters":14000,"station_id":"ce501612rcd8frsf0b60","pricing_plan_id":"cebpf4jnsgd1na2vs0mg"},{"bike_id":"94d430e6-52b3-4d21-80c9-c6dd4519a8fb","system_id":"levelo_inurba_marseille","lat":43.31778,"lon":5.38289,"is_reserved":false,"is_disabled":false,"rental_uris":{"android":"levelo://app?vid=94d430e6-52b3-4d21-80c9-c6dd4519a8fb","ios":"levelo://app?vid=94d430e6-52b3-4d21-80c9-c6dd4519a8fb"},"vehicle_type_id":"4","last_reported":1758560942,"current_range_meters":14000,"station_id":"","pricing_plan_id":"cebpf4jnsgd1na2vs0mg"},{"bike_id":"d1d1aac8-f5c0-4ced-a6fe-c9bd87f16172","system_id":"levelo_inurba_marseille","lat":43.2706,"lon":5.40258,"is_reserved":false,"is_disabled":false,"rental_uris":{"android":"levelo://app?vid=d1d1aac8-f5c0-4ced-a6fe-c9bd87f16172","ios":"levelo://app?vid=d1d1aac8-f5c0-4ced-a6fe-c9bd87f16172"},"vehicle_type_id":"4","last_reported":1758560942,"current_range_meters":14000,"station_id":"ce4bhk92rcd13ifvqgc0","pricing_plan_id":"cebpf4jnsgd1na2vs0mg"},{"bike_id":"1fd71981-16ff-48a9-a84a-bf8e8eea0531","system_id":"levelo_inurba_marseille","lat":43.23196,"lon":5.39988,"is_reserved":false,"is_disabled":false,"rental_uris":{"android":"levelo://app?vid=1fd71981-16ff-48a9-a84a-bf8e8eea0531","ios":"levelo://app?vid=1fd71981-16ff-48a9-a84a-bf8e8eea0531"},"vehicle_type_id":"4","last_reported":1758560942,"current_range_meters":14000,"station_id":"ce4bhn12rcd13ifvqgqg","pricing_plan_id":"cebpf4jnsgd1na2vs0mg"},{"bike_id":"912fc427-3aa2-4fa7-a83d-3f2956b972bb","system_id":"levelo_inurba_marseille","lat":43.32421,"lon":5.39343,"is_reserved":false,"is_disabled":false,"rental_uris":{"android":"levelo://app?vid=912fc427-3aa2-4fa7-a83d-3f2956b972bb","ios":"levelo://app?vid=912fc427-3aa2-4fa7-a83d-3f2956b972bb"},"vehicle_type_id":"4","last_reported":1758560942,"current_range_meters":14000,"station_id":"","pricing_plan_id":"cebpf4jnsgd1na2vs0mg"},{"bike_id":"b2be2404-53eb-4f74-9829-8104df3de106","system_id":"levelo_inurba_marseille","lat":43.336113,"lon":5.354287,"is_reserved":false,"is_disabled":false,"rental_uris":{"android":"levelo://app?vid=b2be2404-53eb-4f74-9829-8104df3de106","ios":"levelo://app?vid=b2be2404-53eb-4f74-9829-8104df3de106"},"vehicle_type_id":"4","last_reported":1758560942,"current_range_meters":14000,"station_id":"","pricing_plan_id":"cebpf4jnsgd1na2vs0mg"},{"bike_id":"f88a5d96-794f-4a2d-a056-5edf5b95b5aa","system_id":"levelo_inurba_marseille","lat":43.28421,"lon":5.374921,"is_reserved":false,"is_disabled":false,"rental_uris":{"android":"levelo://app?vid=f88a5d96-794f-4a2d-a056-5edf5b95b5aa","ios":"levelo://app?vid=f88a5d96-794f-4a2d-a056-5edf5b95b5aa"},"vehicle_type_id":"4","last_reported":1758560942,"current_range_meters":14400,"station_id":"ce4bh412rcd13ifvqds0","pricing_plan_id":"cebpf4jnsgd1na2vs0mg"},{"bike_id":"7814e5a5-c4f6-4d0c-9f90-a2ebb1dc404d","system_id":"levelo_inurba_marseille","lat":43.25583,"lon":5.38228,"is_reserved":false,"is_disabled":false,"rental_uris":{"android":"levelo://app?vid=7814e5a5-c4f6-4d0c-9f90-a2ebb1dc404d","ios":"levelo://app?vid=7814e5a5-c4f6-4d0c-9f90-a2ebb1dc404d"},"vehicle_type_id":"4","last_reported":1758560942,"current_range_meters":14400,"station_id":"ce4bhih2rcd13ifvqfs0","pricing_plan_id":"cebpf4jnsgd1na2vs0mg"},{"bike_id":"7dd84507-3e8c-4d08-809b-9c977554b684","system_id":"levelo_inurba_marseille","lat":43.28007,"lon":5.40004,"is_reserved":false,"is_disabled":false,"rental_uris":{"android":"levelo://app?vid=7dd84507-3e8c-4d08-809b-9c977554b684","ios":"levelo://app?vid=7dd84507-3e8c-4d08-809b-9c977554b684"},"vehicle_type_id":"4","last_reported":1758560942,"current_range_meters":14400,"station_id":"ce4bho92rcd13ifvqh4g","pricing_plan_id":"cebpf4jnsgd1na2vs0mg"},{"bike_id":"c6756f77-f0d5-4bf6-94a3-f33e4393780a","system_id":"levelo_inurba_marseille","lat":43.29006,"lon":5.35609,"is_reserved":false,"is_disabled":false,"rental_uris":{"android":"levelo://app?vid=c6756f77-f0d5-4bf6-94a3-f33e4393780a","ios":"levelo://app?vid=c6756f77-f0d5-4bf6-94a3-f33e4393780a"},"vehicle_type_id":"4","last_reported":1758560942,"current_range_meters":14400,"station_id":"ce4bhb92rcd13ifvqen0","pricing_plan_id":"cebpf4jnsgd1na2vs0mg"},{"bike_id":"f2d09ffe-7372-4027-9f1c-3d8e194e2af3","system_id":"levelo_inurba_marseille","lat":43.27809,"lon":5.40718,"is_reserved":false,"is_disabled":false,"rental_uris":{"android":"levelo://app?vid=f2d09ffe-7372-4027-9f1c-3d8e194e2af3","ios":"levelo://app?vid=f2d09ffe-7372-4027-9f1c-3d8e194e2af3"},"vehicle_type_id":"4","last_reported":1758560942,"current_range_meters":14400,"station_id":"ce4bhnh2rcd13ifvqgtg","pricing_plan_id":"cebpf4jnsgd1na2vs0mg"},{"bike_id":"6e8f08a8-a28b-4118-a426-8a5c1c8571b3","system_id":"levelo_inurba_marseille","lat":43.27317,"lon":5.39078,"is_reserved":false,"is_disabled":false,"rental_uris":{"android":"levelo://app?vid=6e8f08a8-a28b-4118-a426-8a5c1c8571b3","ios":"levelo://app?vid=6e8f08a8-a28b-4118-a426-8a5c1c8571b3"},"vehicle_type_id":"4","last_reported":1758560942,"current_range_meters":14400,"station_id":"ce4bhgp2rcd13ifvqfe0","pricing_plan_id":"cebpf4jnsgd1na2vs0mg"},{"bike_id":"a8173706-8534-43a1-9d9b-728c64fdfe61","system_id":"levelo_inurba_marseille","lat":43.27197,"lon":5.39223,"is_reserved":false,"is_disabled":true,"rental_uris":{"android":"levelo://app?vid=a8173706-8534-43a1-9d9b-728c64fdfe61","ios":"levelo://app?vid=a8173706-8534-43a1-9d9b-728c64fdfe61"},"vehicle_type_id":"4","last_reported":1758560942,"current_range_meters":14800,"station_id":"ce4bhhp2rcd13ifvqfm0","pricing_plan_id":"cebpf4jnsgd1na2vs0mg"},{"bike_id":"eb14e0c2-3194-45ec-8471-2fc50af87dad","system_id":"levelo_inurba_marseille","lat":43.22932,"lon":5.35376,"is_reserved":false,"is_disabled":false,"rental_uris":{"android":"levelo://app?vid=eb14e0c2-3194-45ec-8471-2fc50af87dad","ios":"levelo://app?vid=eb14e0c2-3194-45ec-8471-2fc50af87dad"},"vehicle_type_id":"4","last_reported":1758560942,"current_range_meters":15200,"station_id":"cpo3532slgdg3j2ikp40","pricing_plan_id":"cebpf4jnsgd1na2vs0mg"},{"bike_id":"051218d4-8e4b-4be6-90a0-ef31a99b412e","system_id":"levelo_inurba_marseille","lat":43.29271,"lon":5.384368,"is_reserved":false,"is_disabled":false,"rental_uris":{"android":"levelo://app?vid=051218d4-8e4b-4be6-90a0-ef31a99b412e","ios":"levelo://app?vid=051218d4-8e4b-4be6-90a0-ef31a99b412e"},"vehicle_type_id":"4","last_reported":1758560942,"current_range_meters":14800,"station_id":"ce4bh692rcd13ifvqea0","pricing_plan_id":"cebpf4jnsgd1na2vs0mg"},{"bike_id":"ef75d15d-c28a-4fe7-853a-ed887e41d629","system_id":"levelo_inurba_marseille","lat":43.21755,"lon":5.34625,"is_reserved":false,"is_disabled":false,"rental_uris":{"android":"levelo://app?vid=ef75d15d-c28a-4fe7-853a-ed887e41d629","ios":"levelo://app?vid=ef75d15d-c28a-4fe7-853a-ed887e41d629"},"vehicle_type_id":"4","last_reported":1758560942,"current_range_meters":14800,"station_id":"st_cvj6r9ubvosntc0bgbag","pricing_plan_id":"cebpf4jnsgd1na2vs0mg"},{"bike_id":"3d210c87-141c-444b-a484-58bba1f93959","system_id":"levelo_inurba_marseille","lat":43.26785,"lon":5.3941,"is_reserved":false,"is_disabled":false,"rental_uris":{"android":"levelo://app?vid=3d210c87-141c-444b-a484-58bba1f93959","ios":"levelo://app?vid=3d210c87-141c-444b-a484-58bba1f93959"},"vehicle_type_id":"4","last_reported":1758560942,"current_range_meters":14800,"station_id":"ce4bhh12rcd13ifvqfg0","pricing_plan_id":"cebpf4jnsgd1na2vs0mg"},{"bike_id":"a57ec678-3f9e-4769-a06b-b0e36f8205fe","system_id":"levelo_inurba_marseille","lat":43.23192,"lon":5.39982,"is_reserved":false,"is_disabled":false,"rental_uris":{"android":"levelo://app?vid=a57ec678-3f9e-4769-a06b-b0e36f8205fe","ios":"levelo://app?vid=a57ec678-3f9e-4769-a06b-b0e36f8205fe"},"vehicle_type_id":"4","last_reported":1758560942,"current_range_meters":14800,"station_id":"ce4bhn12rcd13ifvqgqg","pricing_plan_id":"cebpf4jnsgd1na2vs0mg"},{"bike_id":"69cb839a-ed82-4e13-b810-f1f73e9d9b05","system_id":"levelo_inurba_marseille","lat":43.28043,"lon":5.36947,"is_reserved":false,"is_disabled":false,"rental_uris":{"android":"levelo://app?vid=69cb839a-ed82-4e13-b810-f1f73e9d9b05","ios":"levelo://app?vid=69cb839a-ed82-4e13-b810-f1f73e9d9b05"},"vehicle_type_id":"4","last_reported":1758560942,"current_range_meters":14800,"station_id":"ce4bha12rcd13ifvqef0","pricing_plan_id":"cebpf4jnsgd1na2vs0mg"},{"bike_id":"34072093-f9b6-4017-998e-95b181d82c91","system_id":"levelo_inurba_marseille","lat":43.29461,"lon":5.38825,"is_reserved":false,"is_disabled":false,"rental_uris":{"android":"levelo://app?vid=34072093-f9b6-4017-998e-95b181d82c91","ios":"levelo://app?vid=34072093-f9b6-4017-998e-95b181d82c91"},"vehicle_type_id":"4","last_reported":1758560942,"current_range_meters":14800,"station_id":"","pricing_plan_id":"cebpf4jnsgd1na2vs0mg"},{"bike_id":"31936879-d317-4bea-9fe8-ec8f47bfe52d","system_id":"levelo_inurba_marseille","lat":43.27327,"lon":5.39072,"is_reserved":false,"is_disabled":false,"rental_uris":{"android":"levelo://app?vid=31936879-d317-4bea-9fe8-ec8f47bfe52d","ios":"levelo://app?vid=31936879-d317-4bea-9fe8-ec8f47bfe52d"},"vehicle_type_id":"4","last_reported":1758560942,"current_range_meters":14400,"station_id":"ce4bhgp2rcd13ifvqfe0","pricing_plan_id":"cebpf4jnsgd1na2vs0mg"},{"bike_id":"47fe8ecd-0327-4d83-b8c0-ab7264c95b0b","system_id":"levelo_inurba_marseille","lat":43.24545,"lon":5.39519,"is_reserved":false,"is_disabled":false,"rental_uris":{"android":"levelo://app?vid=47fe8ecd-0327-4d83-b8c0-ab7264c95b0b","ios":"levelo://app?vid=47fe8ecd-0327-4d83-b8c0-ab7264c95b0b"},"vehicle_type_id":"4","last_reported":1758560942,"current_range_meters":14800,"station_id":"ce4bhlp2rcd13ifvqgjg","pricing_plan_id":"cebpf4jnsgd1na2vs0mg"},{"bike_id":"b32d00cb-4781-4337-8534-580d5c37a35d","system_id":"levelo_inurba_marseille","lat":43.26778,"lon":5.39411,"is_reserved":false,"is_disabled":false,"rental_uris":{"android":"levelo://app?vid=b32d00cb-4781-4337-8534-580d5c37a35d","ios":"levelo://app?vid=b32d00cb-4781-4337-8534-580d5c37a35d"},"vehicle_type_id":"4","last_reported":1758560942,"current_range_meters":15200,"station_id":"ce4bhh12rcd13ifvqfg0","pricing_plan_id":"cebpf4jnsgd1na2vs0mg"},{"bike_id":"acc7cc00-2a3d-428e-9659-2ed5713100ce","system_id":"levelo_inurba_marseille","lat":43.25561,"lon":5.38246,"is_reserved":false,"is_disabled":false,"rental_uris":{"android":"levelo://app?vid=acc7cc00-2a3d-428e-9659-2ed5713100ce","ios":"levelo://app?vid=acc7cc00-2a3d-428e-9659-2ed5713100ce"},"vehicle_type_id":"4","last_reported":1758560942,"current_range_meters":15200,"station_id":"ce4bhih2rcd13ifvqfs0","pricing_plan_id":"cebpf4jnsgd1na2vs0mg"},{"bike_id":"ff797461-ad6b-4afa-9d3d-736d26b41d68","system_id":"levelo_inurba_marseille","lat":43.3025,"lon":5.4008,"is_reserved":false,"is_disabled":false,"rental_uris":{"android":"levelo://app?vid=ff797461-ad6b-4afa-9d3d-736d26b41d68","ios":"levelo://app?vid=ff797461-ad6b-4afa-9d3d-736d26b41d68"},"vehicle_type_id":"4","last_reported":1758560942,"current_range_meters":15200,"station_id":"ce4bgvh2rcd13ifvqcs0","pricing_plan_id":"cebpf4jnsgd1na2vs0mg"},{"bike_id":"35f15d30-4240-405f-915f-8176404f1ed6","system_id":"levelo_inurba_marseille","lat":43.30148,"lon":5.37414,"is_reserved":false,"is_disabled":true,"rental_uris":{"android":"levelo://app?vid=35f15d30-4240-405f-915f-8176404f1ed6","ios":"levelo://app?vid=35f15d30-4240-405f-915f-8176404f1ed6"},"vehicle_type_id":"4","last_reported":1758560942,"current_range_meters":15200,"station_id":"ce4bgs92rcd13ifvqcc0","pricing_plan_id":"cebpf4jnsgd1na2vs0mg"},{"bike_id":"eba01587-aeed-4123-b2ce-9abc98879f91","system_id":"levelo_inurba_marseille","lat":43.2705,"lon":5.42266,"is_reserved":false,"is_disabled":true,"rental_uris":{"android":"levelo://app?vid=eba01587-aeed-4123-b2ce-9abc98879f91","ios":"levelo://app?vid=eba01587-aeed-4123-b2ce-9abc98879f91"},"vehicle_type_id":"4","last_reported":1758560942,"current_range_meters":16000,"station_id":"","pricing_plan_id":"cebpf4jnsgd1na2vs0mg"},{"bike_id":"e0494a4d-daf5-437a-bd88-81f8a6a4c51d","system_id":"levelo_inurba_marseille","lat":43.25129,"lon":5.403366,"is_reserved":false,"is_disabled":false,"rental_uris":{"android":"levelo://app?vid=e0494a4d-daf5-437a-bd88-81f8a6a4c51d","ios":"levelo://app?vid=e0494a4d-daf5-437a-bd88-81f8a6a4c51d"},"vehicle_type_id":"4","last_reported":1758560942,"current_range_meters":16000,"station_id":"ce4bhlh2rcd13ifvqgig","pricing_plan_id":"cebpf4jnsgd1na2vs0mg"},{"bike_id":"4519ded0-f3b9-42bd-af35-e69456d100e8","system_id":"levelo_inurba_marseille","lat":43.29275,"lon":5.38377,"is_reserved":false,"is_disabled":false,"rental_uris":{"android":"levelo://app?vid=4519ded0-f3b9-42bd-af35-e69456d100e8","ios":"levelo://app?vid=4519ded0-f3b9-42bd-af35-e69456d100e8"},"vehicle_type_id":"4","last_reported":1758560942,"current_range_meters":16000,"station_id":"ce4bh692rcd13ifvqea0","pricing_plan_id":"cebpf4jnsgd1na2vs0mg"},{"bike_id":"240149d8-6810-4afa-b3cd-a6c19e7f6a55","system_id":"levelo_inurba_marseille","lat":43.25105,"lon":5.40323,"is_reserved":false,"is_disabled":false,"rental_uris":{"android":"levelo://app?vid=240149d8-6810-4afa-b3cd-a6c19e7f6a55","ios":"levelo://app?vid=240149d8-6810-4afa-b3cd-a6c19e7f6a55"},"vehicle_type_id":"4","last_reported":1758560942,"current_range_meters":16400,"station_id":"ce4bhlh2rcd13ifvqgig","pricing_plan_id":"cebpf4jnsgd1na2vs0mg"},{"bike_id":"c4349acd-8478-4731-95c3-84be594f529f","system_id":"levelo_inurba_marseille","lat":43.309235,"lon":5.40144,"is_reserved":false,"is_disabled":false,"rental_uris":{"android":"levelo://app?vid=c4349acd-8478-4731-95c3-84be594f529f","ios":"levelo://app?vid=c4349acd-8478-4731-95c3-84be594f529f"},"vehicle_type_id":"4","last_reported":1758560942,"current_range_meters":16400,"station_id":"ce4bgvp2rcd13ifvqct0","pricing_plan_id":"cebpf4jnsgd1na2vs0mg"},{"bike_id":"b39d4814-e9e4-4c28-8c50-525791cc33f5","system_id":"levelo_inurba_marseille","lat":43.2998,"lon":5.38512,"is_reserved":false,"is_disabled":true,"rental_uris":{"android":"levelo://app?vid=b39d4814-e9e4-4c28-8c50-525791cc33f5","ios":"levelo://app?vid=b39d4814-e9e4-4c28-8c50-525791cc33f5"},"vehicle_type_id":"4","last_reported":1758560942,"current_range_meters":16400,"station_id":"ce4bgj92rcd13ifvqbd0","pricing_plan_id":"cebpf4jnsgd1na2vs0mg"},{"bike_id":"2f87bf76-c191-455a-b3d8-ad02a7af4cba","system_id":"levelo_inurba_marseille","lat":43.25868,"lon":5.399,"is_reserved":false,"is_disabled":false,"rental_uris":{"android":"levelo://app?vid=2f87bf76-c191-455a-b3d8-ad02a7af4cba","ios":"levelo://app?vid=2f87bf76-c191-455a-b3d8-ad02a7af4cba"},"vehicle_type_id":"4","last_reported":1758560942,"current_range_meters":16400,"station_id":"ce4bhl92rcd13ifvqghg","pricing_plan_id":"cebpf4jnsgd1na2vs0mg"},{"bike_id":"b83401bc-9ab9-4e9e-8caf-6662af6576b2","system_id":"levelo_inurba_marseille","lat":43.2979,"lon":5.38101,"is_reserved":false,"is_disabled":false,"rental_uris":{"android":"levelo://app?vid=b83401bc-9ab9-4e9e-8caf-6662af6576b2","ios":"levelo://app?vid=b83401bc-9ab9-4e9e-8caf-6662af6576b2"},"vehicle_type_id":"4","last_reported":1758560942,"current_range_meters":16400,"station_id":"ce4bgip2rcd13ifvqbb0","pricing_plan_id":"cebpf4jnsgd1na2vs0mg"},{"bike_id":"37306240-1f8b-4d9d-950f-5144697742a5","system_id":"levelo_inurba_marseille","lat":43.28634,"lon":5.40033,"is_reserved":false,"is_disabled":true,"rental_uris":{"android":"levelo://app?vid=37306240-1f8b-4d9d-950f-5144697742a5","ios":"levelo://app?vid=37306240-1f8b-4d9d-950f-5144697742a5"},"vehicle_type_id":"4","last_reported":1758560942,"current_range_meters":16400,"station_id":"ce4bho92rcd13ifvqh3g","pricing_plan_id":"cebpf4jnsgd1na2vs0mg"},{"bike_id":"5337dcdc-c6f5-44ae-a466-a1ebe14dfbb3","system_id":"levelo_inurba_marseille","lat":43.24173,"lon":5.36398,"is_reserved":false,"is_disabled":false,"rental_uris":{"android":"levelo://app?vid=5337dcdc-c6f5-44ae-a466-a1ebe14dfbb3","ios":"levelo://app?vid=5337dcdc-c6f5-44ae-a466-a1ebe14dfbb3"},"vehicle_type_id":"4","last_reported":1758560942,"current_range_meters":16400,"station_id":"cpo36qri1sfpv3e86is0","pricing_plan_id":"cebpf4jnsgd1na2vs0mg"},{"bike_id":"d91a3af6-00b4-485b-82fb-dc2351991725","system_id":"levelo_inurba_marseille","lat":43.258653,"lon":5.398988,"is_reserved":false,"is_disabled":false,"rental_uris":{"android":"levelo://app?vid=d91a3af6-00b4-485b-82fb-dc2351991725","ios":"levelo://app?vid=d91a3af6-00b4-485b-82fb-dc2351991725"},"vehicle_type_id":"4","last_reported":1758560942,"current_range_meters":16400,"station_id":"ce4bhl92rcd13ifvqghg","pricing_plan_id":"cebpf4jnsgd1na2vs0mg"},{"bike_id":"d2fdaaf6-1cbd-4491-8525-f3014d9a7f1a","system_id":"levelo_inurba_marseille","lat":43.23059,"lon":5.35504,"is_reserved":false,"is_disabled":true,"rental_uris":{"android":"levelo://app?vid=d2fdaaf6-1cbd-4491-8525-f3014d9a7f1a","ios":"levelo://app?vid=d2fdaaf6-1cbd-4491-8525-f3014d9a7f1a"},"vehicle_type_id":"4","last_reported":1758560942,"current_range_meters":16400,"station_id":"cpo3342slgdg3j2ifvpg","pricing_plan_id":"cebpf4jnsgd1na2vs0mg"},{"bike_id":"d2cf6f92-2c51-4763-901b-e34725e14961","system_id":"levelo_inurba_marseille","lat":43.26489,"lon":5.3955,"is_reserved":false,"is_disabled":false,"rental_uris":{"android":"levelo://app?vid=d2cf6f92-2c51-4763-901b-e34725e14961","ios":"levelo://app?vid=d2cf6f92-2c51-4763-901b-e34725e14961"},"vehicle_type_id":"4","last_reported":1758560942,"current_range_meters":16000,"station_id":"ce4bhi12rcd13ifvqfq0","pricing_plan_id":"cebpf4jnsgd1na2vs0mg"},{"bike_id":"475e91cb-6ece-4ac4-ab0f-1c7613c83a40","system_id":"levelo_inurba_marseille","lat":43.29314,"lon":5.37179,"is_reserved":false,"is_disabled":false,"rental_uris":{"android":"levelo://app?vid=475e91cb-6ece-4ac4-ab0f-1c7613c83a40","ios":"levelo://app?vid=475e91cb-6ece-4ac4-ab0f-1c7613c83a40"},"vehicle_type_id":"4","last_reported":1758560942,"current_range_meters":16400,"station_id":"ce4bgh92rcd13ifvqb40","pricing_plan_id":"cebpf4jnsgd1na2vs0mg"},{"bike_id":"6f5c4e57-84b8-4660-87cf-18a7778d9b69","system_id":"levelo_inurba_marseille","lat":43.30426,"lon":5.388566,"is_reserved":false,"is_disabled":false,"rental_uris":{"android":"levelo://app?vid=6f5c4e57-84b8-4660-87cf-18a7778d9b69","ios":"levelo://app?vid=6f5c4e57-84b8-4660-87cf-18a7778d9b69"},"vehicle_type_id":"4","last_reported":1758560942,"current_range_meters":16400,"station_id":"ce4bgk12rcd13ifvqbi0","pricing_plan_id":"cebpf4jnsgd1na2vs0mg"},{"bike_id":"901689f5-c56d-453e-97be-9305f3e7ceef","system_id":"levelo_inurba_marseille","lat":43.269375,"lon":5.402506,"is_reserved":false,"is_disabled":false,"rental_uris":{"android":"levelo://app?vid=901689f5-c56d-453e-97be-9305f3e7ceef","ios":"levelo://app?vid=901689f5-c56d-453e-97be-9305f3e7ceef"},"vehicle_type_id":"4","last_reported":1758560942,"current_range_meters":16800,"station_id":"cjm6bp8fraef2m0cb0m0","pricing_plan_id":"cebpf4jnsgd1na2vs0mg"},{"bike_id":"da64a509-72ad-45f0-a9bf-3cc012993de2","system_id":"levelo_inurba_marseille","lat":43.2971,"lon":5.3661,"is_reserved":false,"is_disabled":true,"rental_uris":{"android":"levelo://app?vid=da64a509-72ad-45f0-a9bf-3cc012993de2","ios":"levelo://app?vid=da64a509-72ad-45f0-a9bf-3cc012993de2"},"vehicle_type_id":"4","last_reported":1758560942,"current_range_meters":16800,"station_id":"ce4bgn12rcd13ifvqbt0","pricing_plan_id":"cebpf4jnsgd1na2vs0mg"},{"bike_id":"9407057f-d4ec-48ac-968e-de40edab63a3","system_id":"levelo_inurba_marseille","lat":43.302395,"lon":5.400543,"is_reserved":false,"is_disabled":false,"rental_uris":{"android":"levelo://app?vid=9407057f-d4ec-48ac-968e-de40edab63a3","ios":"levelo://app?vid=9407057f-d4ec-48ac-968e-de40edab63a3"},"vehicle_type_id":"4","last_reported":1758560942,"current_range_meters":16800,"station_id":"ce4bgvh2rcd13ifvqcs0","pricing_plan_id":"cebpf4jnsgd1na2vs0mg"},{"bike_id":"1bd01214-af50-4174-b74f-551e60bb7767","system_id":"levelo_inurba_marseille","lat":43.27807,"lon":5.40731,"is_reserved":false,"is_disabled":false,"rental_uris":{"android":"levelo://app?vid=1bd01214-af50-4174-b74f-551e60bb7767","ios":"levelo://app?vid=1bd01214-af50-4174-b74f-551e60bb7767"},"vehicle_type_id":"4","last_reported":1758560942,"current_range_meters":16800,"station_id":"ce4bhnh2rcd13ifvqgtg","pricing_plan_id":"cebpf4jnsgd1na2vs0mg"},{"bike_id":"84020e1a-7a52-4351-bf78-403b4b28b163","system_id":"levelo_inurba_marseille","lat":43.28856,"lon":5.35857,"is_reserved":false,"is_disabled":false,"rental_uris":{"android":"levelo://app?vid=84020e1a-7a52-4351-bf78-403b4b28b163","ios":"levelo://app?vid=84020e1a-7a52-4351-bf78-403b4b28b163"},"vehicle_type_id":"4","last_reported":1758560942,"current_range_meters":17200,"station_id":"ce4bhb12rcd13ifvqem0","pricing_plan_id":"cebpf4jnsgd1na2vs0mg"},{"bike_id":"bcac19a6-1dab-4a4a-964d-0710c5132b0a","system_id":"levelo_inurba_marseille","lat":43.26576,"lon":5.39017,"is_reserved":false,"is_disabled":false,"rental_uris":{"android":"levelo://app?vid=bcac19a6-1dab-4a4a-964d-0710c5132b0a","ios":"levelo://app?vid=bcac19a6-1dab-4a4a-964d-0710c5132b0a"},"vehicle_type_id":"4","last_reported":1758560942,"current_range_meters":17200,"station_id":"ce4bhe12rcd13ifvqf30","pricing_plan_id":"cebpf4jnsgd1na2vs0mg"},{"bike_id":"9bcc70c2-568c-4d79-b3f8-567beef56cf1","system_id":"levelo_inurba_marseille","lat":43.279755,"lon":5.387407,"is_reserved":false,"is_disabled":false,"rental_uris":{"android":"levelo://app?vid=9bcc70c2-568c-4d79-b3f8-567beef56cf1","ios":"levelo://app?vid=9bcc70c2-568c-4d79-b3f8-567beef56cf1"},"vehicle_type_id":"4","last_reported":1758560942,"current_range_meters":17200,"station_id":"ce4bhg12rcd13ifvqf80","pricing_plan_id":"cebpf4jnsgd1na2vs0mg"},{"bike_id":"439183e5-925d-4ce7-bab3-0b6954747e49","system_id":"levelo_inurba_marseille","lat":43.25089,"lon":5.39526,"is_reserved":false,"is_disabled":false,"rental_uris":{"android":"levelo://app?vid=439183e5-925d-4ce7-bab3-0b6954747e49","ios":"levelo://app?vid=439183e5-925d-4ce7-bab3-0b6954747e49"},"vehicle_type_id":"4","last_reported":1758560942,"current_range_meters":17200,"station_id":"ce4bhm12rcd13ifvqgkg","pricing_plan_id":"cebpf4jnsgd1na2vs0mg"},{"bike_id":"757a91d0-9a89-4ff0-8670-afbd4edac45a","system_id":"levelo_inurba_marseille","lat":43.26059,"lon":5.39398,"is_reserved":false,"is_disabled":false,"rental_uris":{"android":"levelo://app?vid=757a91d0-9a89-4ff0-8670-afbd4edac45a","ios":"levelo://app?vid=757a91d0-9a89-4ff0-8670-afbd4edac45a"},"vehicle_type_id":"4","last_reported":1758560942,"current_range_meters":17200,"station_id":"ce4bhh92rcd13ifvqfj0","pricing_plan_id":"cebpf4jnsgd1na2vs0mg"},{"bike_id":"2ec2a842-c4ad-4890-a153-b1f48228a106","system_id":"levelo_inurba_marseille","lat":43.29523,"lon":5.39054,"is_reserved":false,"is_disabled":false,"rental_uris":{"android":"levelo://app?vid=2ec2a842-c4ad-4890-a153-b1f48228a106","ios":"levelo://app?vid=2ec2a842-c4ad-4890-a153-b1f48228a106"},"vehicle_type_id":"4","last_reported":1758560942,"current_range_meters":17200,"station_id":"ce4bh3p2rcd13ifvqdp0","pricing_plan_id":"cebpf4jnsgd1na2vs0mg"},{"bike_id":"5348e16a-888b-4e06-afa2-a760e2ebedda","system_id":"levelo_inurba_marseille","lat":43.25931,"lon":5.40912,"is_reserved":false,"is_disabled":false,"rental_uris":{"android":"levelo://app?vid=5348e16a-888b-4e06-afa2-a760e2ebedda","ios":"levelo://app?vid=5348e16a-888b-4e06-afa2-a760e2ebedda"},"vehicle_type_id":"4","last_reported":1758560942,"current_range_meters":17200,"station_id":"ce4bhm92rcd13ifvqglg","pricing_plan_id":"cebpf4jnsgd1na2vs0mg"},{"bike_id":"3a2f0200-19f6-4563-8356-bbb5c698396a","system_id":"levelo_inurba_marseille","lat":43.21757,"lon":5.34602,"is_reserved":false,"is_disabled":false,"rental_uris":{"android":"levelo://app?vid=3a2f0200-19f6-4563-8356-bbb5c698396a","ios":"levelo://app?vid=3a2f0200-19f6-4563-8356-bbb5c698396a"},"vehicle_type_id":"4","last_reported":1758560942,"current_range_meters":17200,"station_id":"st_cvj6r9ubvosntc0bgbag","pricing_plan_id":"cebpf4jnsgd1na2vs0mg"},{"bike_id":"fa89ec25-1cb9-4626-84e9-16b41ba8450a","system_id":"levelo_inurba_marseille","lat":43.28412,"lon":5.3498,"is_reserved":false,"is_disabled":false,"rental_uris":{"android":"levelo://app?vid=fa89ec25-1cb9-4626-84e9-16b41ba8450a","ios":"levelo://app?vid=fa89ec25-1cb9-4626-84e9-16b41ba8450a"},"vehicle_type_id":"4","last_reported":1758560942,"current_range_meters":17200,"station_id":"ce4bhbh2rcd13ifvqepg","pricing_plan_id":"cebpf4jnsgd1na2vs0mg"},{"bike_id":"bf878ec6-d729-4443-a3b4-9fa5cc136616","system_id":"levelo_inurba_marseille","lat":43.276,"lon":5.42639,"is_reserved":false,"is_disabled":false,"rental_uris":{"android":"levelo://app?vid=bf878ec6-d729-4443-a3b4-9fa5cc136616","ios":"levelo://app?vid=bf878ec6-d729-4443-a3b4-9fa5cc136616"},"vehicle_type_id":"4","last_reported":1758560942,"current_range_meters":17600,"station_id":"","pricing_plan_id":"cebpf4jnsgd1na2vs0mg"},{"bike_id":"4289f147-3fa1-47c9-be23-03ad2de17af0","system_id":"levelo_inurba_marseille","lat":43.30922,"lon":5.40158,"is_reserved":false,"is_disabled":false,"rental_uris":{"android":"levelo://app?vid=4289f147-3fa1-47c9-be23-03ad2de17af0","ios":"levelo://app?vid=4289f147-3fa1-47c9-be23-03ad2de17af0"},"vehicle_type_id":"4","last_reported":1758560942,"current_range_meters":17600,"station_id":"ce4bgvp2rcd13ifvqct0","pricing_plan_id":"cebpf4jnsgd1na2vs0mg"},{"bike_id":"ffded793-8586-4a80-b96b-49ec4d430bd0","system_id":"levelo_inurba_marseille","lat":43.30566,"lon":5.39855,"is_reserved":false,"is_disabled":false,"rental_uris":{"android":"levelo://app?vid=ffded793-8586-4a80-b96b-49ec4d430bd0","ios":"levelo://app?vid=ffded793-8586-4a80-b96b-49ec4d430bd0"},"vehicle_type_id":"4","last_reported":1758560942,"current_range_meters":17600,"station_id":"","pricing_plan_id":"cebpf4jnsgd1na2vs0mg"},{"bike_id":"0d93d80f-23fc-4b4f-918d-28fde704208b","system_id":"levelo_inurba_marseille","lat":43.24163,"lon":5.36416,"is_reserved":false,"is_disabled":false,"rental_uris":{"android":"levelo://app?vid=0d93d80f-23fc-4b4f-918d-28fde704208b","ios":"levelo://app?vid=0d93d80f-23fc-4b4f-918d-28fde704208b"},"vehicle_type_id":"4","last_reported":1758560942,"current_range_meters":17600,"station_id":"cpo36qri1sfpv3e86is0","pricing_plan_id":"cebpf4jnsgd1na2vs0mg"},{"bike_id":"727ffc33-0187-4575-8230-6f66ffd7a460","system_id":"levelo_inurba_marseille","lat":43.2501,"lon":5.38925,"is_reserved":false,"is_disabled":false,"rental_uris":{"android":"levelo://app?vid=727ffc33-0187-4575-8230-6f66ffd7a460","ios":"levelo://app?vid=727ffc33-0187-4575-8230-6f66ffd7a460"},"vehicle_type_id":"4","last_reported":1758560942,"current_range_meters":17600,"station_id":"ce4bhgp2rcd13ifvqfd0","pricing_plan_id":"cebpf4jnsgd1na2vs0mg"},{"bike_id":"caa2b1b6-4ec2-47c8-9d70-c8d399dd12a3","system_id":"levelo_inurba_marseille","lat":43.30144,"lon":5.38784,"is_reserved":false,"is_disabled":false,"rental_uris":{"android":"levelo://app?vid=caa2b1b6-4ec2-47c8-9d70-c8d399dd12a3","ios":"levelo://app?vid=caa2b1b6-4ec2-47c8-9d70-c8d399dd12a3"},"vehicle_type_id":"4","last_reported":1758560942,"current_range_meters":17200,"station_id":"ce4bghh2rcd13ifvqb60","pricing_plan_id":"cebpf4jnsgd1na2vs0mg"},{"bike_id":"2a2f1ce0-5eb2-4ab6-a692-64d9649dcb94","system_id":"levelo_inurba_marseille","lat":43.22566,"lon":5.41634,"is_reserved":false,"is_disabled":false,"rental_uris":{"android":"levelo://app?vid=2a2f1ce0-5eb2-4ab6-a692-64d9649dcb94","ios":"levelo://app?vid=2a2f1ce0-5eb2-4ab6-a692-64d9649dcb94"},"vehicle_type_id":"4","last_reported":1758560942,"current_range_meters":17600,"station_id":"st_d2o4gvlbi1j2169b742g","pricing_plan_id":"cebpf4jnsgd1na2vs0mg"},