{"last_updated":1748412965,"ttl":60,"version":"2.2","data":{"bikes":[{"bike_id":"3f1e173e-5538-4798-8bce-4d559b01ef1e","system_id":"levelo_inurba_marseille","lat":43.25942,"lon":5.40899,"is_reserved":false,"is_disabled":false,"rental_uris":{"android":"levelo://app?vid=3f1e173e-5538-4798-8bce-4d559b01ef1e","ios":"levelo://app?vid=3f1e173e-5538-4798-8bce-4d559b01ef1e"},"vehicle_type_id":"4","last_reported":1748412965,"current_range_meters":2800,"station_id":"ce4bhm92rcd13ifvqglg","pricing_plan_id":"cebpf4jnsgd1na2vs0mg"},{"bike_id":"069da931-ad7a-46e7-83f2-3e021650a079","system_id":"levelo_inurba_marseille","lat":43.28725,"lon":5.39977,"is_reserved":false,"is_disabled":true,"rental_uris":{"android":"levelo://app?vid=069da931-ad7a-46e7-83f2-3e021650a079","ios":"levelo://app?vid=069da931-ad7a-46e7-83f2-3e021650a079"},"vehicle_type_id":"4","last_reported":1748412965,"current_range_meters":2800,"station_id":"ce4bho92rcd13ifvqh3g","pricing_plan_id":"cebpf4jnsgd1na2vs0mg"},{"bike_id":"983700a8-c778-46b9-a829-515c2bcafd37","system_id":"levelo_inurba_marseille","lat":43.30141,"lon":5.38778,"is_reserved":false,"is_disabled":false,"rental_uris":{"android":"levelo://app?vid=983700a8-c778-46b9-a829-515c2bcafd37","ios":"levelo://app?vid=983700a8-c778-46b9-a829-515c2bcafd37"},"vehicle_type_id":"4","last_reported":1748412965,"current_range_meters":2800,"station_id":"ce4bghh2rcd13ifvqb60","pricing_plan_id":"cebpf4jnsgd1na2vs0mg"},{"bike_id":"adba12e7-5206-46f0-b5ae-d736cc8dba7d","system_id":"levelo_inurba_marseille","lat":43.276614,"lon":5.388795,"is_reserved":false,"is_disabled":false,"rental_uris":{"android":"levelo://app?vid=adba12e7-5206-46f0-b5ae-d736cc8dba7d","ios":"levelo://app?vid=adba12e7-5206-46f0-b5ae-d736cc8dba7d"},"vehicle_type_id":"4","last_reported":1748412965,"current_range_meters":2800,"station_id":"ce4bhgp2rcd13ifvqfe0","pricing_plan_id":"cebpf4jnsgd1na2vs0mg"},{"bike_id":"833f0d0d-e45a-4686-a875-9229b6c42870","system_id":"levelo_inurba_marseille","lat":43.27679,"lon":5.38889,"is_reserved":false,"is_disabled":false,"rental_uris":{"android":"levelo://app?vid=833f0d0d-e45a-4686-a875-9229b6c42870","ios":"levelo://app?vid=833f0d0d-e45a-4686-a875-9229b6c42870"},"vehicle_type_id":"4","last_reported":1748412965,"current_range_meters":2800,"station_id":"ce4bhi12rcd13ifvqfo0","pricing_plan_id":"cebpf4jnsgd1na2vs0mg"},{"bike_id":"20873b09-4adc-469f-8fac-e711c53b3009","system_id":"levelo_inurba_marseille","lat":43.30241,"lon":5.40047,"is_reserved":false,"is_disabled":false,"rental_uris":{"android":"levelo://app?vid=20873b09-4adc-469f-8fac-e711c53b3009","ios":"levelo://app?vid=20873b09-4adc-469f-8fac-e711c53b3009"},"vehicle_type_id":"4","last_reported":1748412965,"current_range_meters":2800,"station_id":"ce4bgvh2rcd13ifvqcs0","pricing_plan_id":"cebpf4jnsgd1na2vs0mg"},{"bike_id":"fd908bdf-5d81-4122-b313-442572d15912","system_id":"levelo_inurba_marseille","lat":43.29516,"lon":5.39423,"is_reserved":false,"is_disabled":true,"rental_uris":{"android":"levelo://app?vid=fd908bdf-5d81-4122-b313-442572d15912","ios":"levelo://app?vid=fd908bdf-5d81-4122-b313-442572d15912"},"vehicle_type_id":"4","last_reported":1748412965,"current_range_meters":3200,"station_id":"ce4bh292rcd13ifvqdf0","pricing_plan_id":"cebpf4jnsgd1na2vs0mg"},{"bike_id":"303da861-323f-4945-8957-9c68cfe70127","system_id":"levelo_inurba_marseille","lat":43.28448,"lon":5.39212,"is_reserved":false,"is_disabled":false,"rental_uris":{"android":"levelo://app?vid=303da861-323f-4945-8957-9c68cfe70127","ios":"levelo://app?vid=303da861-323f-4945-8957-9c68cfe70127"},"vehicle_type_id":"4","last_reported":1748412965,"current_range_meters":3200,"station_id":"ce4bhoh2rcd13ifvqh5g","pricing_plan_id":"cebpf4jnsgd1na2vs0mg"},{"bike_id":"2f50dc5b-dd1a-4fd7-b3a4-bca2ea8883de","system_id":"levelo_inurba_marseille","lat":43.31985,"lon":5.38167,"is_reserved":false,"is_disabled":false,"rental_uris":{"android":"levelo://app?vid=2f50dc5b-dd1a-4fd7-b3a4-bca2ea8883de","ios":"levelo://app?vid=2f50dc5b-dd1a-4fd7-b3a4-bca2ea8883de"},"vehicle_type_id":"4","last_reported":1748412965,"current_range_meters":3200,"station_id":"ce4bhr12rcd13ifvqhpg","pricing_plan_id":"cebpf4jnsgd1na2vs0mg"},{"bike_id":"8e1e3d14-39e1-40c6-a572-79984978bd7d","system_id":"levelo_inurba_marseille","lat":43.22516,"lon":5.34776,"is_reserved":false,"is_disabled":false,"rental_uris":{"android":"levelo://app?vid=8e1e3d14-39e1-40c6-a572-79984978bd7d","ios":"levelo://app?vid=8e1e3d14-39e1-40c6-a572-79984978bd7d"},"vehicle_type_id":"4","last_reported":1748412965,"current_range_meters":3600,"station_id":"","pricing_plan_id":"cebpf4jnsgd1na2vs0mg"},{"bike_id":"eb684bf4-a04e-4969-85a7-6bc9df0d61b0","system_id":"levelo_inurba_marseille","lat":43.3127,"lon":5.36765,"is_reserved":false,"is_disabled":false,"rental_uris":{"android":"levelo://app?vid=eb684bf4-a04e-4969-85a7-6bc9df0d61b0","ios":"levelo://app?vid=eb684bf4-a04e-4969-85a7-6bc9df0d61b0"},"vehicle_type_id":"4","last_reported":1748412965,"current_range_meters":3600,"station_id":"","pricing_plan_id":"cebpf4jnsgd1na2vs0mg"},{"bike_id":"f2c30cbd-ae7b-4568-a297-6260345aa9ba","system_id":"levelo_inurba_marseille","lat":43.31259,"lon":5.36866,"is_reserved":false,"is_disabled":false,"rental_uris":{"android":"levelo://app?vid=f2c30cbd-ae7b-4568-a297-6260345aa9ba","ios":"levelo://app?vid=f2c30cbd-ae7b-4568-a297-6260345aa9ba"},"vehicle_type_id":"4","last_reported":1748412965,"current_range_meters":3600,"station_id":"ce4bgl92rcd13ifvqbq0","pricing_plan_id":"cebpf4jnsgd1na2vs0mg"},{"bike_id":"9183218f-b010-4c4a-bedd-4fb90ead6421","system_id":"levelo_inurba_marseille","lat":43.269318,"lon":5.389137,"is_reserved":false,"is_disabled":false,"rental_uris":{"android":"levelo://app?vid=9183218f-b010-4c4a-bedd-4fb90ead6421","ios":"levelo://app?vid=9183218f-b010-4c4a-bedd-4fb90ead6421"},"vehicle_type_id":"4","last_reported":1748412965,"current_range_meters":4000,"station_id":"ce4bhhh2rcd13ifvqfl0","pricing_plan_id":"cebpf4jnsgd1na2vs0mg"},{"bike_id":"85d1e926-bbfb-4ea4-8add-c3b75abcf11e","system_id":"levelo_inurba_marseille","lat":43.31347,"lon":5.36746,"is_reserved":false,"is_disabled":false,"rental_uris":{"android":"levelo://app?vid=85d1e926-bbfb-4ea4-8add-c3b75abcf11e","ios":"levelo://app?vid=85d1e926-bbfb-4ea4-8add-c3b75abcf11e"},"vehicle_type_id":"4","last_reported":1748412965,"current_range_meters":4000,"station_id":"ce4bgr92rcd13ifvqc6g","pricing_plan_id":"cebpf4jnsgd1na2vs0mg"},{"bike_id":"67956942-4f9b-45f7-abbf-905f99f4b95d","system_id":"levelo_inurba_marseille","lat":43.30149,"lon":5.38066,"is_reserved":false,"is_disabled":false,"rental_uris":{"android":"levelo://app?vid=67956942-4f9b-45f7-abbf-905f99f4b95d","ios":"levelo://app?vid=67956942-4f9b-45f7-abbf-905f99f4b95d"},"vehicle_type_id":"4","last_reported":1748412965,"current_range_meters":4000,"station_id":"ce4bgjp2rcd13ifvqbh0","pricing_plan_id":"cebpf4jnsgd1na2vs0mg"},{"bike_id":"e1efd77c-bfb3-4bca-8467-efd12a2a48a7","system_id":"levelo_inurba_marseille","lat":43.30135,"lon":5.38771,"is_reserved":false,"is_disabled":false,"rental_uris":{"android":"levelo://app?vid=e1efd77c-bfb3-4bca-8467-efd12a2a48a7","ios":"levelo://app?vid=e1efd77c-bfb3-4bca-8467-efd12a2a48a7"},"vehicle_type_id":"4","last_reported":1748412965,"current_range_meters":4000,"station_id":"ce4bghh2rcd13ifvqb60","pricing_plan_id":"cebpf4jnsgd1na2vs0mg"},{"bike_id":"fc7f33a2-554e-4a93-8cc2-f11d270e1ce3","system_id":"levelo_inurba_marseille","lat":43.31895,"lon":5.40713,"is_reserved":false,"is_disabled":false,"rental_uris":{"android":"levelo://app?vid=fc7f33a2-554e-4a93-8cc2-f11d270e1ce3","ios":"levelo://app?vid=fc7f33a2-554e-4a93-8cc2-f11d270e1ce3"},"vehicle_type_id":"4","last_reported":1748412965,"current_range_meters":3600,"station_id":"ce4bhq12rcd13ifvqhig","pricing_plan_id":"cebpf4jnsgd1na2vs0mg"},{"bike_id":"f2f2c857-6ce7-4f18-9462-4e16197878f1","system_id":"levelo_inurba_marseille","lat":43.31673,"lon":5.37781,"is_reserved":false,"is_disabled":false,"rental_uris":{"android":"levelo://app?vid=f2f2c857-6ce7-4f18-9462-4e16197878f1","ios":"levelo://app?vid=f2f2c857-6ce7-4f18-9462-4e16197878f1"},"vehicle_type_id":"4","last_reported":1748412965,"current_range_meters":4400,"station_id":"","pricing_plan_id":"cebpf4jnsgd1na2vs0mg"},{"bike_id":"3ba2ca09-dde2-4bf3-9b5b-043def38bdb8","system_id":"levelo_inurba_marseille","lat":43.33605,"lon":5.40955,"is_reserved":false,"is_disabled":false,"rental_uris":{"android":"levelo://app?vid=3ba2ca09-dde2-4bf3-9b5b-043def38bdb8","ios":"levelo://app?vid=3ba2ca09-dde2-4bf3-9b5b-043def38bdb8"},"vehicle_type_id":"4","last_reported":1748412965,"current_range_meters":4400,"station_id":"ce4bhqh2rcd13ifvqhmg","pricing_plan_id":"cebpf4jnsgd1na2vs0mg"},{"bike_id":"db2ac856-f79c-426b-96e3-52526435259b","system_id":"levelo_inurba_marseille","lat":43.2594,"lon":5.40903,"is_reserved":false,"is_disabled":false,"rental_uris":{"android":"levelo://app?vid=db2ac856-f79c-426b-96e3-52526435259b","ios":"levelo://app?vid=db2ac856-f79c-426b-96e3-52526435259b"},"vehicle_type_id":"4","last_reported":1748412965,"current_range_meters":4400,"station_id":"ce4bhm92rcd13ifvqglg","pricing_plan_id":"cebpf4jnsgd1na2vs0mg"},{"bike_id":"b05069f0-a957-490f-bfc1-ca35a9f9192e","system_id":"levelo_inurba_marseille","lat":43.2657,"lon":5.38999,"is_reserved":false,"is_disabled":false,"rental_uris":{"android":"levelo://app?vid=b05069f0-a957-490f-bfc1-ca35a9f9192e","ios":"levelo://app?vid=b05069f0-a957-490f-bfc1-ca35a9f9192e"},"vehicle_type_id":"4","last_reported":1748412965,"current_range_meters":4800,"station_id":"ce4bhe12rcd13ifvqf30","pricing_plan_id":"cebpf4jnsgd1na2vs0mg"},{"bike_id":"c2b0a191-bf31-4e89-8dc5-11d646e535b1","system_id":"levelo_inurba_marseille","lat":43.254969,"lon":5.37649,"is_reserved":false,"is_disabled":false,"rental_uris":{"android":"levelo://app?vid=c2b0a191-bf31-4e89-8dc5-11d646e535b1","ios":"levelo://app?vid=c2b0a191-bf31-4e89-8dc5-11d646e535b1"},"vehicle_type_id":"4","last_reported":1748412965,"current_range_meters":4800,"station_id":"","pricing_plan_id":"cebpf4jnsgd1na2vs0mg"},{"bike_id":"ca39f4ef-0212-44c3-b77e-5ab03fae5e5a","system_id":"levelo_inurba_marseille","lat":43.302376,"lon":5.400495,"is_reserved":false,"is_disabled":false,"rental_uris":{"android":"levelo://app?vid=ca39f4ef-0212-44c3-b77e-5ab03fae5e5a","ios":"levelo://app?vid=ca39f4ef-0212-44c3-b77e-5ab03fae5e5a"},"vehicle_type_id":"4","last_reported":1748412965,"current_range_meters":4800,"station_id":"ce4bgvh2rcd13ifvqcs0","pricing_plan_id":"cebpf4jnsgd1na2vs0mg"},{"bike_id":"1a0998e5-8bb9-474f-a827-53cad24c9e8f","system_id":"levelo_inurba_marseille","lat":43.32037,"lon":5.44958,"is_reserved":false,"is_disabled":false,"rental_uris":{"android":"levelo://app?vid=1a0998e5-8bb9-474f-a827-53cad24c9e8f","ios":"levelo://app?vid=1a0998e5-8bb9-474f-a827-53cad24c9e8f"},"vehicle_type_id":"4","last_reported":1748412965,"current_range_meters":5600,"station_id":"","pricing_plan_id":"cebpf4jnsgd1na2vs0mg"},{"bike_id":"e9822bf6-601d-4e3b-a97c-5d51f2fe51a3","system_id":"levelo_inurba_marseille","lat":43.263463,"lon":5.37825,"is_reserved":false,"is_disabled":false,"rental_uris":{"android":"levelo://app?vid=e9822bf6-601d-4e3b-a97c-5d51f2fe51a3","ios":"levelo://app?vid=e9822bf6-601d-4e3b-a97c-5d51f2fe51a3"},"vehicle_type_id":"4","last_reported":1748412965,"current_range_meters":5600,"station_id":"","pricing_plan_id":"cebpf4jnsgd1na2vs0mg"},{"bike_id":"f0a3c6d4-20e2-47a1-882e-7a3d7d4faefc","system_id":"levelo_inurba_marseille","lat":43.254963,"lon":5.376508,"is_reserved":false,"is_disabled":true,"rental_uris":{"android":"levelo://app?vid=f0a3c6d4-20e2-47a1-882e-7a3d7d4faefc","ios":"levelo://app?vid=f0a3c6d4-20e2-47a1-882e-7a3d7d4faefc"},"vehicle_type_id":"4","last_reported":1748412965,"current_range_meters":5600,"station_id":"","pricing_plan_id":"cebpf4jnsgd1na2vs0mg"},{"bike_id":"d370a17a-5e02-4f4c-89ca-54ca775fc4f8","system_id":"levelo_inurba_marseille","lat":43.27193,"lon":5.391768,"is_reserved":false,"is_disabled":false,"rental_uris":{"android":"levelo://app?vid=d370a17a-5e02-4f4c-89ca-54ca775fc4f8","ios":"levelo://app?vid=d370a17a-5e02-4f4c-89ca-54ca775fc4f8"},"vehicle_type_id":"4","last_reported":1748412965,"current_range_meters":5600,"station_id":"ce4bhhp2rcd13ifvqfm0","pricing_plan_id":"cebpf4jnsgd1na2vs0mg"},{"bike_id":"edd24a8b-1f86-4560-bdc1-4aa6eeadda5f","system_id":"levelo_inurba_marseille","lat":43.30474,"lon":5.37904,"is_reserved":false,"is_disabled":false,"rental_uris":{"android":"levelo://app?vid=edd24a8b-1f86-4560-bdc1-4aa6eeadda5f","ios":"levelo://app?vid=edd24a8b-1f86-4560-bdc1-4aa6eeadda5f"},"vehicle_type_id":"4","last_reported":1748412965,"current_range_meters":5600,"station_id":"ce4bgup2rcd13ifvqcn0","pricing_plan_id":"cebpf4jnsgd1na2vs0mg"},{"bike_id":"d229def9-8acf-4760-9dec-a32573e8aff7","system_id":"levelo_inurba_marseille","lat":43.30459,"lon":5.37896,"is_reserved":false,"is_disabled":false,"rental_uris":{"android":"levelo://app?vid=d229def9-8acf-4760-9dec-a32573e8aff7","ios":"levelo://app?vid=d229def9-8acf-4760-9dec-a32573e8aff7"},"vehicle_type_id":"4","last_reported":1748412965,"current_range_meters":6000,"station_id":"ce4bgup2rcd13ifvqcn0","pricing_plan_id":"cebpf4jnsgd1na2vs0mg"},{"bike_id":"507e72b9-2648-4d53-a3bc-aa45c2198a2e","system_id":"levelo_inurba_marseille","lat":43.306626,"lon":5.401007,"is_reserved":false,"is_disabled":true,"rental_uris":{"android":"levelo://app?vid=507e72b9-2648-4d53-a3bc-aa45c2198a2e","ios":"levelo://app?vid=507e72b9-2648-4d53-a3bc-aa45c2198a2e"},"vehicle_type_id":"4","last_reported":1748412965,"current_range_meters":6000,"station_id":"ce4bh112rcd13ifvqda0","pricing_plan_id":"cebpf4jnsgd1na2vs0mg"},{"bike_id":"ad490542-dd76-40dd-83b6-1cd1c481688b","system_id":"levelo_inurba_marseille","lat":43.29774,"lon":5.39382,"is_reserved":false,"is_disabled":false,"rental_uris":{"android":"levelo://app?vid=ad490542-dd76-40dd-83b6-1cd1c481688b","ios":"levelo://app?vid=ad490542-dd76-40dd-83b6-1cd1c481688b"},"vehicle_type_id":"4","last_reported":1748412965,"current_range_meters":6000,"station_id":"chh1huq6cuj3fo74tm60","pricing_plan_id":"cebpf4jnsgd1na2vs0mg"},{"bike_id":"ae6e6868-2635-4f49-b7c1-b03759c58ec7","system_id":"levelo_inurba_marseille","lat":43.272946,"lon":5.416113,"is_reserved":false,"is_disabled":false,"rental_uris":{"android":"levelo://app?vid=ae6e6868-2635-4f49-b7c1-b03759c58ec7","ios":"levelo://app?vid=ae6e6868-2635-4f49-b7c1-b03759c58ec7"},"vehicle_type_id":"4","last_reported":1748412965,"current_range_meters":6000,"station_id":"","pricing_plan_id":"cebpf4jnsgd1na2vs0mg"},{"bike_id":"ee617531-7300-4958-baa3-db4f90ad5721","system_id":"levelo_inurba_marseille","lat":43.25815,"lon":5.39422,"is_reserved":false,"is_disabled":false,"rental_uris":{"android":"levelo://app?vid=ee617531-7300-4958-baa3-db4f90ad5721","ios":"levelo://app?vid=ee617531-7300-4958-baa3-db4f90ad5721"},"vehicle_type_id":"4","last_reported":1748412965,"current_range_meters":6000,"station_id":"ce4bhip2rcd13ifvqft0","pricing_plan_id":"cebpf4jnsgd1na2vs0mg"},{"bike_id":"28e9f28e-af18-4499-a13b-648fd8188c04","system_id":"levelo_inurba_marseille","lat":43.30157,"lon":5.38075,"is_reserved":false,"is_disabled":false,"rental_uris":{"android":"levelo://app?vid=28e9f28e-af18-4499-a13b-648fd8188c04","ios":"levelo://app?vid=28e9f28e-af18-4499-a13b-648fd8188c04"},"vehicle_type_id":"4","last_reported":1748412965,"current_range_meters":6000,"station_id":"ce4bgjp2rcd13ifvqbh0","pricing_plan_id":"cebpf4jnsgd1na2vs0mg"},{"bike_id":"e2ed9602-3a86-4d32-860a-8ca43c35a203","system_id":"levelo_inurba_marseille","lat":43.31759,"lon":5.39014,"is_reserved":false,"is_disabled":false,"rental_uris":{"android":"levelo://app?vid=e2ed9602-3a86-4d32-860a-8ca43c35a203","ios":"levelo://app?vid=e2ed9602-3a86-4d32-860a-8ca43c35a203"},"vehicle_type_id":"4","last_reported":1748412965,"current_range_meters":6000,"station_id":"ce4bhqp2rcd13ifvqhng","pricing_plan_id":"cebpf4jnsgd1na2vs0mg"},{"bike_id":"96c7438f-01e1-41e8-a9a4-c50c54a22ee3","system_id":"levelo_inurba_marseille","lat":43.25942,"lon":5.40902,"is_reserved":false,"is_disabled":false,"rental_uris":{"android":"levelo://app?vid=96c7438f-01e1-41e8-a9a4-c50c54a22ee3","ios":"levelo://app?vid=96c7438f-01e1-41e8-a9a4-c50c54a22ee3"},"vehicle_type_id":"4","last_reported":1748412965,"current_range_meters":6400,"station_id":"ce4bhm92rcd13ifvqglg","pricing_plan_id":"cebpf4jnsgd1na2vs0mg"},{"bike_id":"361b0a76-0807-4bc7-963e-b408fcbe6ee9","system_id":"levelo_inurba_marseille","lat":43.231501,"lon":5.437258,"is_reserved":false,"is_disabled":true,"rental_uris":{"android":"levelo://app?vid=361b0a76-0807-4bc7-963e-b408fcbe6ee9","ios":"levelo://app?vid=361b0a76-0807-4bc7-963e-b408fcbe6ee9"},"vehicle_type_id":"4","last_reported":1748412965,"current_range_meters":6400,"station_id":"ce4bhmp2rcd13ifvqgog","pricing_plan_id":"cebpf4jnsgd1na2vs0mg"},{"bike_id":"77074dbb-e7da-4546-9c54-d412352205d5","system_id":"levelo_inurba_marseille","lat":43.304973,"lon":5.37916,"is_reserved":false,"is_disabled":false,"rental_uris":{"android":"levelo://app?vid=77074dbb-e7da-4546-9c54-d412352205d5","ios":"levelo://app?vid=77074dbb-e7da-4546-9c54-d412352205d5"},"vehicle_type_id":"4","last_reported":1748412965,"current_range_meters":6400,"station_id":"ce4bgup2rcd13ifvqcn0","pricing_plan_id":"cebpf4jnsgd1na2vs0mg"},{"bike_id":"8ac2acc6-b767-4c1c-bcde-982458034c88","system_id":"levelo_inurba_marseille","lat":43.311932,"lon":5.416271,"is_reserved":false,"is_disabled":false,"rental_uris":{"android":"levelo://app?vid=8ac2acc6-b767-4c1c-bcde-982458034c88","ios":"levelo://app?vid=8ac2acc6-b767-4c1c-bcde-982458034c88"},"vehicle_type_id":"4","last_reported":1748412965,"current_range_meters":6400,"station_id":"","pricing_plan_id":"cebpf4jnsgd1na2vs0mg"},{"bike_id":"6b3afdd1-9f54-43f5-b3c6-754aa0d3ba01","system_id":"levelo_inurba_marseille","lat":43.30142,"lon":5.38087,"is_reserved":false,"is_disabled":false,"rental_uris":{"android":"levelo://app?vid=6b3afdd1-9f54-43f5-b3c6-754aa0d3ba01","ios":"levelo://app?vid=6b3afdd1-9f54-43f5-b3c6-754aa0d3ba01"},"vehicle_type_id":"4","last_reported":1748412965,"current_range_meters":6400,"station_id":"ce4bgjp2rcd13ifvqbh0","pricing_plan_id":"cebpf4jnsgd1na2vs0mg"},{"bike_id":"9ccbac86-38e4-4ddf-a8ae-e8e6aad748d0","system_id":"levelo_inurba_marseille","lat":43.3043,"lon":5.41264,"is_reserved":false,"is_disabled":true,"rental_uris":{"android":"levelo://app?vid=9ccbac86-38e4-4ddf-a8ae-e8e6aad748d0","ios":"levelo://app?vid=9ccbac86-38e4-4ddf-a8ae-e8e6aad748d0"},"vehicle_type_id":"4","last_reported":1748412965,"current_range_meters":6400,"station_id":"ce4bhop2rcd13ifvqh8g","pricing_plan_id":"cebpf4jnsgd1na2vs0mg"},{"bike_id":"41f3a81a-1f9a-499b-95e6-feb508389a33","system_id":"levelo_inurba_marseille","lat":43.30602,"lon":5.39359,"is_reserved":false,"is_disabled":false,"rental_uris":{"android":"levelo://app?vid=41f3a81a-1f9a-499b-95e6-feb508389a33","ios":"levelo://app?vid=41f3a81a-1f9a-499b-95e6-feb508389a33"},"vehicle_type_id":"4","last_reported":1748412965,"current_range_meters":6400,"station_id":"ce4bh0p2rcd13ifvqd80","pricing_plan_id":"cebpf4jnsgd1na2vs0mg"},{"bike_id":"a29a2708-797f-4e9a-9f1a-17352bf6f3db","system_id":"levelo_inurba_marseille","lat":43.273217,"lon":5.390818,"is_reserved":false,"is_disabled":true,"rental_uris":{"android":"levelo://app?vid=a29a2708-797f-4e9a-9f1a-17352bf6f3db","ios":"levelo://app?vid=a29a2708-797f-4e9a-9f1a-17352bf6f3db"},"vehicle_type_id":"4","last_reported":1748412965,"current_range_meters":6400,"station_id":"ce4bhgp2rcd13ifvqfe0","pricing_plan_id":"cebpf4jnsgd1na2vs0mg"},{"bike_id":"ceb81090-b40e-47dd-bc35-8598d269ef58","system_id":"levelo_inurba_marseille","lat":43.26658,"lon":5.38446,"is_reserved":false,"is_disabled":false,"rental_uris":{"android":"levelo://app?vid=ceb81090-b40e-47dd-bc35-8598d269ef58","ios":"levelo://app?vid=ceb81090-b40e-47dd-bc35-8598d269ef58"},"vehicle_type_id":"4","last_reported":1748412965,"current_range_meters":6800,"station_id":"","pricing_plan_id":"cebpf4jnsgd1na2vs0mg"},{"bike_id":"025226b6-a6c8-456c-acb5-2494f335f577","system_id":"levelo_inurba_marseille","lat":43.326509,"lon":5.409713,"is_reserved":false,"is_disabled":false,"rental_uris":{"android":"levelo://app?vid=025226b6-a6c8-456c-acb5-2494f335f577","ios":"levelo://app?vid=025226b6-a6c8-456c-acb5-2494f335f577"},"vehicle_type_id":"4","last_reported":1748412965,"current_range_meters":6800,"station_id":"ce4bhpp2rcd13ifvqhgg","pricing_plan_id":"cebpf4jnsgd1na2vs0mg"},{"bike_id":"5aec351d-a489-4e2b-b20c-346796b6a0d8","system_id":"levelo_inurba_marseille","lat":43.32109,"lon":5.36773,"is_reserved":false,"is_disabled":false,"rental_uris":{"android":"levelo://app?vid=5aec351d-a489-4e2b-b20c-346796b6a0d8","ios":"levelo://app?vid=5aec351d-a489-4e2b-b20c-346796b6a0d8"},"vehicle_type_id":"4","last_reported":1748412965,"current_range_meters":6800,"station_id":"ce4bhrh2rcd13ifvqhug","pricing_plan_id":"cebpf4jnsgd1na2vs0mg"},{"bike_id":"4366209f-542f-4ffd-8ff1-3fdbaaffc9ae","system_id":"levelo_inurba_marseille","lat":43.31065,"lon":5.38375,"is_reserved":false,"is_disabled":false,"rental_uris":{"android":"levelo://app?vid=4366209f-542f-4ffd-8ff1-3fdbaaffc9ae","ios":"levelo://app?vid=4366209f-542f-4ffd-8ff1-3fdbaaffc9ae"},"vehicle_type_id":"4","last_reported":1748412965,"current_range_meters":6800,"station_id":"ce4bgv92rcd13ifvqcr0","pricing_plan_id":"cebpf4jnsgd1na2vs0mg"},{"bike_id":"760bcd8b-a4e0-4b4e-bedb-6462d7843576","system_id":"levelo_inurba_marseille","lat":43.292569,"lon":5.368511,"is_reserved":false,"is_disabled":true,"rental_uris":{"android":"levelo://app?vid=760bcd8b-a4e0-4b4e-bedb-6462d7843576","ios":"levelo://app?vid=760bcd8b-a4e0-4b4e-bedb-6462d7843576"},"vehicle_type_id":"4","last_reported":1748412965,"current_range_meters":6800,"station_id":"ce4bhbp2rcd13ifvqesg","pricing_plan_id":"cebpf4jnsgd1na2vs0mg"},{"bike_id":"9946121a-e441-4db9-b342-d50b7a06f604","system_id":"levelo_inurba_marseille","lat":43.31684,"lon":5.37714,"is_reserved":false,"is_disabled":false,"rental_uris":{"android":"levelo://app?vid=9946121a-e441-4db9-b342-d50b7a06f604","ios":"levelo://app?vid=9946121a-e441-4db9-b342-d50b7a06f604"},"vehicle_type_id":"4","last_reported":1748412965,"current_range_meters":6800,"station_id":"ce4bgth2rcd13ifvqch0","pricing_plan_id":"cebpf4jnsgd1na2vs0mg"},{"bike_id":"4116ddfb-cd12-4f93-9fa1-a2229a5a74ab","system_id":"levelo_inurba_marseille","lat":43.30159,"lon":5.37423,"is_reserved":false,"is_disabled":false,"rental_uris":{"android":"levelo://app?vid=4116ddfb-cd12-4f93-9fa1-a2229a5a74ab","ios":"levelo://app?vid=4116ddfb-cd12-4f93-9fa1-a2229a5a74ab"},"vehicle_type_id":"4","last_reported":1748412965,"current_range_meters":6800,"station_id":"ce4bgs92rcd13ifvqcc0","pricing_plan_id":"cebpf4jnsgd1na2vs0mg"},{"bike_id":"c2f75e22-6fed-4646-a5c2-8cb463b122f4","system_id":"levelo_inurba_marseille","lat":43.32271,"lon":5.3764,"is_reserved":false,"is_disabled":false,"rental_uris":{"android":"levelo://app?vid=c2f75e22-6fed-4646-a5c2-8cb463b122f4","ios":"levelo://app?vid=c2f75e22-6fed-4646-a5c2-8cb463b122f4"},"vehicle_type_id":"4","last_reported":1748412965,"current_range_meters":6800,"station_id":"","pricing_plan_id":"cebpf4jnsgd1na2vs0mg"},{"bike_id":"1e554509-568d-4da0-be2c-33eb861263ab","system_id":"levelo_inurba_marseille","lat":43.29978,"lon":5.41316,"is_reserved":false,"is_disabled":false,"rental_uris":{"android":"levelo://app?vid=1e554509-568d-4da0-be2c-33eb861263ab","ios":"levelo://app?vid=1e554509-568d-4da0-be2c-33eb861263ab"},"vehicle_type_id":"4","last_reported":1748412965,"current_range_meters":7200,"station_id":"ce4bhp12rcd13ifvqh9g","pricing_plan_id":"cebpf4jnsgd1na2vs0mg"},{"bike_id":"c0e8dbd5-9ec0-46b4-9176-6ba6be298f0d","system_id":"levelo_inurba_marseille","lat":43.270787,"lon":5.422831,"is_reserved":false,"is_disabled":false,"rental_uris":{"android":"levelo://app?vid=c0e8dbd5-9ec0-46b4-9176-6ba6be298f0d","ios":"levelo://app?vid=c0e8dbd5-9ec0-46b4-9176-6ba6be298f0d"},"vehicle_type_id":"4","last_reported":1748412965,"current_range_meters":7200,"station_id":"ce4bhk92rcd13ifvqgb0","pricing_plan_id":"cebpf4jnsgd1na2vs0mg"},{"bike_id":"f4dd589b-5b58-470a-a2c9-9de3a4398e71","system_id":"levelo_inurba_marseille","lat":43.22919,"lon":5.35392,"is_reserved":false,"is_disabled":false,"rental_uris":{"android":"levelo://app?vid=f4dd589b-5b58-470a-a2c9-9de3a4398e71","ios":"levelo://app?vid=f4dd589b-5b58-470a-a2c9-9de3a4398e71"},"vehicle_type_id":"4","last_reported":1748412965,"current_range_meters":7200,"station_id":"cpo3532slgdg3j2ikp40","pricing_plan_id":"cebpf4jnsgd1na2vs0mg"},{"bike_id":"2deb837f-60f5-41e9-9613-f643799ee2cc","system_id":"levelo_inurba_marseille","lat":43.24547,"lon":5.39528,"is_reserved":false,"is_disabled":false,"rental_uris":{"android":"levelo://app?vid=2deb837f-60f5-41e9-9613-f643799ee2cc","ios":"levelo://app?vid=2deb837f-60f5-41e9-9613-f643799ee2cc"},"vehicle_type_id":"4","last_reported":1748412965,"current_range_meters":7200,"station_id":"ce4bhlp2rcd13ifvqgjg","pricing_plan_id":"cebpf4jnsgd1na2vs0mg"},{"bike_id":"0a3ef987-84c3-4749-8364-35366df6e26b","system_id":"levelo_inurba_marseille","lat":43.285592,"lon":5.395071,"is_reserved":false,"is_disabled":false,"rental_uris":{"android":"levelo://app?vid=0a3ef987-84c3-4749-8364-35366df6e26b","ios":"levelo://app?vid=0a3ef987-84c3-4749-8364-35366df6e26b"},"vehicle_type_id":"4","last_reported":1748412965,"current_range_meters":7200,"station_id":"ce4bh292rcd13ifvqdg0","pricing_plan_id":"cebpf4jnsgd1na2vs0mg"},{"bike_id":"13ac7f36-dd8e-4c80-a21e-5d485985af1b","system_id":"levelo_inurba_marseille","lat":43.28564,"lon":5.4008,"is_reserved":false,"is_disabled":false,"rental_uris":{"android":"levelo://app?vid=13ac7f36-dd8e-4c80-a21e-5d485985af1b","ios":"levelo://app?vid=13ac7f36-dd8e-4c80-a21e-5d485985af1b"},"vehicle_type_id":"4","last_reported":1748412965,"current_range_meters":7200,"station_id":"","pricing_plan_id":"cebpf4jnsgd1na2vs0mg"},{"bike_id":"8a8da44b-f0bc-49bf-a97a-1dee19c6a572","system_id":"levelo_inurba_marseille","lat":43.231956,"lon":5.355584,"is_reserved":false,"is_disabled":false,"rental_uris":{"android":"levelo://app?vid=8a8da44b-f0bc-49bf-a97a-1dee19c6a572","ios":"levelo://app?vid=8a8da44b-f0bc-49bf-a97a-1dee19c6a572"},"vehicle_type_id":"4","last_reported":1748412965,"current_range_meters":7200,"station_id":"ce4bhu92rcd13ifvqi70","pricing_plan_id":"cebpf4jnsgd1na2vs0mg"},{"bike_id":"ecec0dbe-0ccb-470d-bc6b-7e71f374730a","system_id":"levelo_inurba_marseille","lat":43.239677,"lon":5.366213,"is_reserved":false,"is_disabled":false,"rental_uris":{"android":"levelo://app?vid=ecec0dbe-0ccb-470d-bc6b-7e71f374730a","ios":"levelo://app?vid=ecec0dbe-0ccb-470d-bc6b-7e71f374730a"},"vehicle_type_id":"4","last_reported":1748412965,"current_range_meters":7200,"station_id":"ce4bhi12rcd13ifvqfp0","pricing_plan_id":"cebpf4jnsgd1na2vs0mg"},{"bike_id":"7e823e3b-1b92-4735-8533-dc1341b80eaf","system_id":"levelo_inurba_marseille","lat":43.23066,"lon":5.35493,"is_reserved":false,"is_disabled":false,"rental_uris":{"android":"levelo://app?vid=7e823e3b-1b92-4735-8533-dc1341b80eaf","ios":"levelo://app?vid=7e823e3b-1b92-4735-8533-dc1341b80eaf"},"vehicle_type_id":"4","last_reported":1748412965,"current_range_meters":7200,"station_id":"cpo3342slgdg3j2ifvpg","pricing_plan_id":"cebpf4jnsgd1na2vs0mg"},{"bike_id":"6bf42dce-b82b-408d-83f9-1617834f1903","system_id":"levelo_inurba_marseille","lat":43.30491,"lon":5.37867,"is_reserved":false,"is_disabled":false,"rental_uris":{"android":"levelo://app?vid=6bf42dce-b82b-408d-83f9-1617834f1903","ios":"levelo://app?vid=6bf42dce-b82b-408d-83f9-1617834f1903"},"vehicle_type_id":"4","last_reported":1748412965,"current_range_meters":7200,"station_id":"ce4bgup2rcd13ifvqcn0","pricing_plan_id":"cebpf4jnsgd1na2vs0mg"},{"bike_id":"0f606be2-f029-415a-82ed-4cb4eff755f6","system_id":"levelo_inurba_marseille","lat":43.30815,"lon":5.38156,"is_reserved":false,"is_disabled":false,"rental_uris":{"android":"levelo://app?vid=0f606be2-f029-415a-82ed-4cb4eff755f6","ios":"levelo://app?vid=0f606be2-f029-415a-82ed-4cb4eff755f6"},"vehicle_type_id":"4","last_reported":1748412965,"current_range_meters":8000,"station_id":"ce4bgt12rcd13ifvqce0","pricing_plan_id":"cebpf4jnsgd1na2vs0mg"},{"bike_id":"1c4d626c-93ab-41b9-815e-96048904b577","system_id":"levelo_inurba_marseille","lat":43.24066,"lon":5.37766,"is_reserved":false,"is_disabled":false,"rental_uris":{"android":"levelo://app?vid=1c4d626c-93ab-41b9-815e-96048904b577","ios":"levelo://app?vid=1c4d626c-93ab-41b9-815e-96048904b577"},"vehicle_type_id":"4","last_reported":1748412965,"current_range_meters":8000,"station_id":"ce4bhnp2rcd13ifvqgvg","pricing_plan_id":"cebpf4jnsgd1na2vs0mg"},{"bike_id":"c19f4746-a3bf-4cf9-8c31-62dd0e7752ba","system_id":"levelo_inurba_marseille","lat":43.27497,"lon":5.424753,"is_reserved":false,"is_disabled":false,"rental_uris":{"android":"levelo://app?vid=c19f4746-a3bf-4cf9-8c31-62dd0e7752ba","ios":"levelo://app?vid=c19f4746-a3bf-4cf9-8c31-62dd0e7752ba"},"vehicle_type_id":"4","last_reported":1748412965,"current_range_meters":8000,"station_id":"ce4bhn92rcd13ifvqgrg","pricing_plan_id":"cebpf4jnsgd1na2vs0mg"},{"bike_id":"ede9773a-3bb5-49a2-af67-a49560b3e7e3","system_id":"levelo_inurba_marseille","lat":43.30663,"lon":5.40068,"is_reserved":false,"is_disabled":false,"rental_uris":{"android":"levelo://app?vid=ede9773a-3bb5-49a2-af67-a49560b3e7e3","ios":"levelo://app?vid=ede9773a-3bb5-49a2-af67-a49560b3e7e3"},"vehicle_type_id":"4","last_reported":1748412965,"current_range_meters":8000,"station_id":"ce4bh112rcd13ifvqda0","pricing_plan_id":"cebpf4jnsgd1na2vs0mg"},{"bike_id":"9f2478cf-d670-4daa-a336-b6c146dbcd95","system_id":"levelo_inurba_marseille","lat":43.29805,"lon":5.38104,"is_reserved":false,"is_disabled":false,"rental_uris":{"android":"levelo://app?vid=9f2478cf-d670-4daa-a336-b6c146dbcd95","ios":"levelo://app?vid=9f2478cf-d670-4daa-a336-b6c146dbcd95"},"vehicle_type_id":"4","last_reported":1748412965,"current_range_meters":8000,"station_id":"ce4bgip2rcd13ifvqbb0","pricing_plan_id":"cebpf4jnsgd1na2vs0mg"},{"bike_id":"543be11a-7fbe-4912-a6c0-a92b89d4636a","system_id":"levelo_inurba_marseille","lat":43.30663,"lon":5.40077,"is_reserved":false,"is_disabled":false,"rental_uris":{"android":"levelo://app?vid=543be11a-7fbe-4912-a6c0-a92b89d4636a","ios":"levelo://app?vid=543be11a-7fbe-4912-a6c0-a92b89d4636a"},"vehicle_type_id":"4","last_reported":1748412965,"current_range_meters":8400,"station_id":"ce4bh112rcd13ifvqda0","pricing_plan_id":"cebpf4jnsgd1na2vs0mg"},{"bike_id":"6ef27e84-462a-46f9-afe5-e09b209cc7f0","system_id":"levelo_inurba_marseille","lat":43.331133,"lon":5.362085,"is_reserved":false,"is_disabled":false,"rental_uris":{"android":"levelo://app?vid=6ef27e84-462a-46f9-afe5-e09b209cc7f0","ios":"levelo://app?vid=6ef27e84-462a-46f9-afe5-e09b209cc7f0"},"vehicle_type_id":"4","last_reported":1748412965,"current_range_meters":8400,"station_id":"","pricing_plan_id":"cebpf4jnsgd1na2vs0mg"},{"bike_id":"31eb1c1c-c5a5-4f60-aaa0-7dd8c371696a","system_id":"levelo_inurba_marseille","lat":43.2794,"lon":5.41062,"is_reserved":false,"is_disabled":true,"rental_uris":{"android":"levelo://app?vid=31eb1c1c-c5a5-4f60-aaa0-7dd8c371696a","ios":"levelo://app?vid=31eb1c1c-c5a5-4f60-aaa0-7dd8c371696a"},"vehicle_type_id":"4","last_reported":1748412965,"current_range_meters":8400,"station_id":"ce4bhnp2rcd13ifvqh0g","pricing_plan_id":"cebpf4jnsgd1na2vs0mg"},{"bike_id":"226e8884-45e8-4155-9023-6b9c578286c2","system_id":"levelo_inurba_marseille","lat":43.306113,"lon":5.372273,"is_reserved":false,"is_disabled":true,"rental_uris":{"android":"levelo://app?vid=226e8884-45e8-4155-9023-6b9c578286c2","ios":"levelo://app?vid=226e8884-45e8-4155-9023-6b9c578286c2"},"vehicle_type_id":"4","last_reported":1748412965,"current_range_meters":8400,"station_id":"ce4bgqh2rcd13ifvqc4g","pricing_plan_id":"cebpf4jnsgd1na2vs0mg"},{"bike_id":"3a257052-2ee4-4d33-9e33-3926dfd10810","system_id":"levelo_inurba_marseille","lat":43.31084,"lon":5.3836,"is_reserved":false,"is_disabled":false,"rental_uris":{"android":"levelo://app?vid=3a257052-2ee4-4d33-9e33-3926dfd10810","ios":"levelo://app?vid=3a257052-2ee4-4d33-9e33-3926dfd10810"},"vehicle_type_id":"4","last_reported":1748412965,"current_range_meters":8400,"station_id":"ce4bgv92rcd13ifvqcr0","pricing_plan_id":"cebpf4jnsgd1na2vs0mg"},{"bike_id":"630e3090-df9f-4e61-a2d8-b2bbefd032a0","system_id":"levelo_inurba_marseille","lat":43.246093,"lon":5.392934,"is_reserved":false,"is_disabled":false,"rental_uris":{"android":"levelo://app?vid=630e3090-df9f-4e61-a2d8-b2bbefd032a0","ios":"levelo://app?vid=630e3090-df9f-4e61-a2d8-b2bbefd032a0"},"vehicle_type_id":"4","last_reported":1748412965,"current_range_meters":8400,"station_id":"","pricing_plan_id":"cebpf4jnsgd1na2vs0mg"},{"bike_id":"7e2d13cd-01ed-48be-a1b4-1756640f6409","system_id":"levelo_inurba_marseille","lat":43.30967,"lon":5.39052,"is_reserved":false,"is_disabled":true,"rental_uris":{"android":"levelo://app?vid=7e2d13cd-01ed-48be-a1b4-1756640f6409","ios":"levelo://app?vid=7e2d13cd-01ed-48be-a1b4-1756640f6409"},"vehicle_type_id":"4","last_reported":1748412965,"current_range_meters":8400,"station_id":"ce4bgup2rcd13ifvqco0","pricing_plan_id":"cebpf4jnsgd1na2vs0mg"},{"bike_id":"34763314-403b-4c55-abdc-859ee08cb61a","system_id":"levelo_inurba_marseille","lat":43.30472,"lon":5.37899,"is_reserved":false,"is_disabled":false,"rental_uris":{"android":"levelo://app?vid=34763314-403b-4c55-abdc-859ee08cb61a","ios":"levelo://app?vid=34763314-403b-4c55-abdc-859ee08cb61a"},"vehicle_type_id":"4","last_reported":1748412965,"current_range_meters":8400,"station_id":"ce4bgup2rcd13ifvqcn0","pricing_plan_id":"cebpf4jnsgd1na2vs0mg"},{"bike_id":"f689d449-d0ec-464c-9319-de295e0a037a","system_id":"levelo_inurba_marseille","lat":43.23958,"lon":5.36633,"is_reserved":false,"is_disabled":true,"rental_uris":{"android":"levelo://app?vid=f689d449-d0ec-464c-9319-de295e0a037a","ios":"levelo://app?vid=f689d449-d0ec-464c-9319-de295e0a037a"},"vehicle_type_id":"4","last_reported":1748412965,"current_range_meters":8400,"station_id":"ce4bhi12rcd13ifvqfp0","pricing_plan_id":"cebpf4jnsgd1na2vs0mg"},{"bike_id":"ce243f79-97e1-4d08-8264-3b8fc271bfb9","system_id":"levelo_inurba_marseille","lat":43.31385,"lon":5.36703,"is_reserved":false,"is_disabled":false,"rental_uris":{"android":"levelo://app?vid=ce243f79-97e1-4d08-8264-3b8fc271bfb9","ios":"levelo://app?vid=ce243f79-97e1-4d08-8264-3b8fc271bfb9"},"vehicle_type_id":"4","last_reported":1748412965,"current_range_meters":8400,"station_id":"","pricing_plan_id":"cebpf4jnsgd1na2vs0mg"},{"bike_id":"a3ac0e4d-492d-457a-8b5d-3ba549ed986d","system_id":"levelo_inurba_marseille","lat":43.29421,"lon":5.39746,"is_reserved":false,"is_disabled":true,"rental_uris":{"android":"levelo://app?vid=a3ac0e4d-492d-457a-8b5d-3ba549ed986d","ios":"levelo://app?vid=a3ac0e4d-492d-457a-8b5d-3ba549ed986d"},"vehicle_type_id":"4","last_reported":1748412965,"current_range_meters":8800,"station_id":"ce4bh3h2rcd13ifvqdo0","pricing_plan_id":"cebpf4jnsgd1na2vs0mg"},{"bike_id":"7a65e3be-209f-451a-8d0f-734d6f59b819","system_id":"levelo_inurba_marseille","lat":43.29563,"lon":5.39453,"is_reserved":false,"is_disabled":false,"rental_uris":{"android":"levelo://app?vid=7a65e3be-209f-451a-8d0f-734d6f59b819","ios":"levelo://app?vid=7a65e3be-209f-451a-8d0f-734d6f59b819"},"vehicle_type_id":"4","last_reported":1748412965,"current_range_meters":8800,"station_id":"","pricing_plan_id":"cebpf4jnsgd1na2vs0mg"},{"bike_id":"f0d83b53-4594-4033-afb0-0d9b1a402851","system_id":"levelo_inurba_marseille","lat":43.31103,"lon":5.37784,"is_reserved":false,"is_disabled":false,"rental_uris":{"android":"levelo://app?vid=f0d83b53-4594-4033-afb0-0d9b1a402851","ios":"levelo://app?vid=f0d83b53-4594-4033-afb0-0d9b1a402851"},"vehicle_type_id":"4","last_reported":1748412965,"current_range_meters":8800,"station_id":"ce4bgt92rcd13ifvqcg0","pricing_plan_id":"cebpf4jnsgd1na2vs0mg"},{"bike_id":"436d70fa-07c2-41b1-9b01-3bed2b522ce2","system_id":"levelo_inurba_marseille","lat":43.303781,"lon":5.424876,"is_reserved":false,"is_disabled":false,"rental_uris":{"android":"levelo://app?vid=436d70fa-07c2-41b1-9b01-3bed2b522ce2","ios":"levelo://app?vid=436d70fa-07c2-41b1-9b01-3bed2b522ce2"},"vehicle_type_id":"4","last_reported":1748412965,"current_range_meters":8800,"station_id":"ce4bhoh2rcd13ifvqh6g","pricing_plan_id":"cebpf4jnsgd1na2vs0mg"},{"bike_id":"5c29a350-f368-474d-9c37-db39342a3756","system_id":"levelo_inurba_marseille","lat":43.316942,"lon":5.377952,"is_reserved":false,"is_disabled":false,"rental_uris":{"android":"levelo://app?vid=5c29a350-f368-474d-9c37-db39342a3756","ios":"levelo://app?vid=5c29a350-f368-474d-9c37-db39342a3756"},"vehicle_type_id":"4","last_reported":1748412965,"current_range_meters":8800,"station_id":"ce4bgth2rcd13ifvqch0","pricing_plan_id":"cebpf4jnsgd1na2vs0mg"},{"bike_id":"81fd252e-9aec-4d99-91d4-42e1c514a805","system_id":"levelo_inurba_marseille","lat":43.27496,"lon":5.42455,"is_reserved":false,"is_disabled":false,"rental_uris":{"android":"levelo://app?vid=81fd252e-9aec-4d99-91d4-42e1c514a805","ios":"levelo://app?vid=81fd252e-9aec-4d99-91d4-42e1c514a805"},"vehicle_type_id":"4","last_reported":1748412965,"current_range_meters":8800,"station_id":"ce4bhn92rcd13ifvqgrg","pricing_plan_id":"cebpf4jnsgd1na2vs0mg"},{"bike_id":"b739c376-f33a-42b8-8eff-1fe4940cc855","system_id":"levelo_inurba_marseille","lat":43.292503,"lon":5.384352,"is_reserved":false,"is_disabled":true,"rental_uris":{"android":"levelo://app?vid=b739c376-f33a-42b8-8eff-1fe4940cc855","ios":"levelo://app?vid=b739c376-f33a-42b8-8eff-1fe4940cc855"},"vehicle_type_id":"4","last_reported":1748412965,"current_range_meters":8800,"station_id":"ce4bh692rcd13ifvqea0","pricing_plan_id":"cebpf4jnsgd1na2vs0mg"},{"bike_id":"2a046dee-b3af-48c9-9659-b7d30ba20af5","system_id":"levelo_inurba_marseille","lat":43.24345,"lon":5.37987,"is_reserved":false,"is_disabled":false,"rental_uris":{"android":"levelo://app?vid=2a046dee-b3af-48c9-9659-b7d30ba20af5","ios":"levelo://app?vid=2a046dee-b3af-48c9-9659-b7d30ba20af5"},"vehicle_type_id":"4","last_reported":1748412965,"current_range_meters":8800,"station_id":"","pricing_plan_id":"cebpf4jnsgd1na2vs0mg"},{"bike_id":"05df85d0-db73-419c-ae37-3810f0cddc7c","system_id":"levelo_inurba_marseille","lat":43.33058,"lon":5.39049,"is_reserved":false,"is_disabled":false,"rental_uris":{"android":"levelo://app?vid=05df85d0-db73-419c-ae37-3810f0cddc7c","ios":"levelo://app?vid=05df85d0-db73-419c-ae37-3810f0cddc7c"},"vehicle_type_id":"4","last_reported":1748412965,"current_range_meters":8800,"station_id":"ce4bhr92rcd13ifvqhrg","pricing_plan_id":"cebpf4jnsgd1na2vs0mg"},{"bike_id":"e00dfda0-368f-45d7-9c55-0565d001cd35","system_id":"levelo_inurba_marseille","lat":43.30593,"lon":5.39351,"is_reserved":false,"is_disabled":false,"rental_uris":{"android":"levelo://app?vid=e00dfda0-368f-45d7-9c55-0565d001cd35","ios":"levelo://app?vid=e00dfda0-368f-45d7-9c55-0565d001cd35"},"vehicle_type_id":"4","last_reported":1748412965,"current_range_meters":9200,"station_id":"ce4bh0p2rcd13ifvqd80","pricing_plan_id":"cebpf4jnsgd1na2vs0mg"},{"bike_id":"a3a1e2f8-c082-4657-9cf8-ceb282e14a71","system_id":"levelo_inurba_marseille","lat":43.231878,"lon":5.399944,"is_reserved":false,"is_disabled":false,"rental_uris":{"android":"levelo://app?vid=a3a1e2f8-c082-4657-9cf8-ceb282e14a71","ios":"levelo://app?vid=a3a1e2f8-c082-4657-9cf8-ceb282e14a71"},"vehicle_type_id":"4","last_reported":1748412965,"current_range_meters":9200,"station_id":"ce4bhn12rcd13ifvqgqg","pricing_plan_id":"cebpf4jnsgd1na2vs0mg"},{"bike_id":"f785b9f1-d49c-4c68-aebd-35bb02ec172e","system_id":"levelo_inurba_marseille","lat":43.30809,"lon":5.3817,"is_reserved":false,"is_disabled":false,"rental_uris":{"android":"levelo://app?vid=f785b9f1-d49c-4c68-aebd-35bb02ec172e","ios":"levelo://app?vid=f785b9f1-d49c-4c68-aebd-35bb02ec172e"},"vehicle_type_id":"4","last_reported":1748412965,"current_range_meters":9200,"station_id":"ce4bgt12rcd13ifvqce0","pricing_plan_id":"cebpf4jnsgd1na2vs0mg"},{"bike_id":"4e1f1a17-61f4-48a7-b791-68709041f155","system_id":"levelo_inurba_marseille","lat":43.3023,"lon":5.39478,"is_reserved":false,"is_disabled":false,"rental_uris":{"android":"levelo://app?vid=4e1f1a17-61f4-48a7-b791-68709041f155","ios":"levelo://app?vid=4e1f1a17-61f4-48a7-b791-68709041f155"},"vehicle_type_id":"4","last_reported":1748412965,"current_range_meters":9600,"station_id":"ce4bh0p2rcd13ifvqd70","pricing_plan_id":"cebpf4jnsgd1na2vs0mg"},{"bike_id":"66820df4-371b-4d35-9f0d-799f7eb9bbb4","system_id":"levelo_inurba_marseille","lat":43.24076,"lon":5.37757,"is_reserved":false,"is_disabled":false,"rental_uris":{"android":"levelo://app?vid=66820df4-371b-4d35-9f0d-799f7eb9bbb4","ios":"levelo://app?vid=66820df4-371b-4d35-9f0d-799f7eb9bbb4"},"vehicle_type_id":"4","last_reported":1748412965,"current_range_meters":9600,"station_id":"ce4bhnp2rcd13ifvqgvg","pricing_plan_id":"cebpf4jnsgd1na2vs0mg"},{"bike_id":"12a09175-03bd-4689-9626-a2bf629ae6b2","system_id":"levelo_inurba_marseille","lat":43.25862,"lon":5.39909,"is_reserved":false,"is_disabled":false,"rental_uris":{"android":"levelo://app?vid=12a09175-03bd-4689-9626-a2bf629ae6b2","ios":"levelo://app?vid=12a09175-03bd-4689-9626-a2bf629ae6b2"},"vehicle_type_id":"4","last_reported":1748412965,"current_range_meters":9600,"station_id":"ce4bhl92rcd13ifvqghg","pricing_plan_id":"cebpf4jnsgd1na2vs0mg"},{"bike_id":"229a58fb-4369-4827-907e-ebfb35f67865","system_id":"levelo_inurba_marseille","lat":43.28565,"lon":5.39499,"is_reserved":false,"is_disabled":false,"rental_uris":{"android":"levelo://app?vid=229a58fb-4369-4827-907e-ebfb35f67865","ios":"levelo://app?vid=229a58fb-4369-4827-907e-ebfb35f67865"},"vehicle_type_id":"4","last_reported":1748412965,"current_range_meters":9600,"station_id":"ce4bh292rcd13ifvqdg0","pricing_plan_id":"cebpf4jnsgd1na2vs0mg"},{"bike_id":"bfa7523e-b65c-4c6d-82c8-e0266e0c4515","system_id":"levelo_inurba_marseille","lat":43.308899,"lon":5.396592,"is_reserved":false,"is_disabled":false,"rental_uris":{"android":"levelo://app?vid=bfa7523e-b65c-4c6d-82c8-e0266e0c4515","ios":"levelo://app?vid=bfa7523e-b65c-4c6d-82c8-e0266e0c4515"},"vehicle_type_id":"4","last_reported":1748412965,"current_range_meters":9600,"station_id":"ce4bh012rcd13ifvqcv0","pricing_plan_id":"cebpf4jnsgd1na2vs0mg"},{"bike_id":"58c565ec-4152-4033-9b18-66babf3bc18f","system_id":"levelo_inurba_marseille","lat":43.30603,"lon":5.37203,"is_reserved":false,"is_disabled":false,"rental_uris":{"android":"levelo://app?vid=58c565ec-4152-4033-9b18-66babf3bc18f","ios":"levelo://app?vid=58c565ec-4152-4033-9b18-66babf3bc18f"},"vehicle_type_id":"4","last_reported":1748412965,"current_range_meters":9600,"station_id":"ce4bgqh2rcd13ifvqc4g","pricing_plan_id":"cebpf4jnsgd1na2vs0mg"},{"bike_id":"5131347d-fceb-4639-a8db-04cd7a7e4172","system_id":"levelo_inurba_marseille","lat":43.28444,"lon":5.39205,"is_reserved":false,"is_disabled":false,"rental_uris":{"android":"levelo://app?vid=5131347d-fceb-4639-a8db-04cd7a7e4172","ios":"levelo://app?vid=5131347d-fceb-4639-a8db-04cd7a7e4172"},"vehicle_type_id":"4","last_reported":1748412965,"current_range_meters":9600,"station_id":"ce4bhoh2rcd13ifvqh5g","pricing_plan_id":"cebpf4jnsgd1na2vs0mg"},{"bike_id":"52a0e6b1-d5bd-4874-9d0f-7612e60a21a4","system_id":"levelo_inurba_marseille","lat":43.30462,"lon":5.37903,"is_reserved":false,"is_disabled":false,"rental_uris":{"android":"levelo://app?vid=52a0e6b1-d5bd-4874-9d0f-7612e60a21a4","ios":"levelo://app?vid=52a0e6b1-d5bd-4874-9d0f-7612e60a21a4"},"vehicle_type_id":"4","last_reported":1748412965,"current_range_meters":9600,"station_id":"ce4bgup2rcd13ifvqcn0","pricing_plan_id":"cebpf4jnsgd1na2vs0mg"},{"bike_id":"f757d16f-10d1-46fd-97c8-e7926b6602c0","system_id":"levelo_inurba_marseille","lat":43.30881,"lon":5.39553,"is_reserved":false,"is_disabled":false,"rental_uris":{"android":"levelo://app?vid=f757d16f-10d1-46fd-97c8-e7926b6602c0","ios":"levelo://app?vid=f757d16f-10d1-46fd-97c8-e7926b6602c0"},"vehicle_type_id":"4","last_reported":1748412965,"current_range_meters":10000,"station_id":"","pricing_plan_id":"cebpf4jnsgd1na2vs0mg"},{"bike_id":"054314d5-9d7c-4873-9494-4f42b2677fed","system_id":"levelo_inurba_marseille","lat":43.31698,"lon":5.40468,"is_reserved":false,"is_disabled":false,"rental_uris":{"android":"levelo://app?vid=054314d5-9d7c-4873-9494-4f42b2677fed","ios":"levelo://app?vid=054314d5-9d7c-4873-9494-4f42b2677fed"},"vehicle_type_id":"4","last_reported":1748412965,"current_range_meters":10000,"station_id":"ce4bh012rcd13ifvqd00","pricing_plan_id":"cebpf4jnsgd1na2vs0mg"},{"bike_id":"5ad0faef-897d-4c19-b2e4-979327720bd4","system_id":"levelo_inurba_marseille","lat":43.25081,"lon":5.39511,"is_reserved":false,"is_disabled":false,"rental_uris":{"android":"levelo://app?vid=5ad0faef-897d-4c19-b2e4-979327720bd4","ios":"levelo://app?vid=5ad0faef-897d-4c19-b2e4-979327720bd4"},"vehicle_type_id":"4","last_reported":1748412965,"current_range_meters":10000,"station_id":"ce4bhm12rcd13ifvqgkg","pricing_plan_id":"cebpf4jnsgd1na2vs0mg"},{"bike_id":"0ddb57b1-a4f6-46af-8e35-2539703f0b70","system_id":"levelo_inurba_marseille","lat":43.30598,"lon":5.39355,"is_reserved":false,"is_disabled":false,"rental_uris":{"android":"levelo://app?vid=0ddb57b1-a4f6-46af-8e35-2539703f0b70","ios":"levelo://app?vid=0ddb57b1-a4f6-46af-8e35-2539703f0b70"},"vehicle_type_id":"4","last_reported":1748412965,"current_range_meters":10000,"station_id":"ce4bh0p2rcd13ifvqd80","pricing_plan_id":"cebpf4jnsgd1na2vs0mg"},{"bike_id":"1e9cfdb7-6b8a-4441-9f46-98e85a4be5d9","system_id":"levelo_inurba_marseille","lat":43.23156,"lon":5.43714,"is_reserved":false,"is_disabled":false,"rental_uris":{"android":"levelo://app?vid=1e9cfdb7-6b8a-4441-9f46-98e85a4be5d9","ios":"levelo://app?vid=1e9cfdb7-6b8a-4441-9f46-98e85a4be5d9"},"vehicle_type_id":"4","last_reported":1748412965,"current_range_meters":10000,"station_id":"ce4bhmp2rcd13ifvqgog","pricing_plan_id":"cebpf4jnsgd1na2vs0mg"},{"bike_id":"b22310cf-e533-4fa9-8f4f-61171f82f011","system_id":"levelo_inurba_marseille","lat":43.30428,"lon":5.39744,"is_reserved":false,"is_disabled":false,"rental_uris":{"android":"levelo://app?vid=b22310cf-e533-4fa9-8f4f-61171f82f011","ios":"levelo://app?vid=b22310cf-e533-4fa9-8f4f-61171f82f011"},"vehicle_type_id":"4","last_reported":1748412965,"current_range_meters":10000,"station_id":"ce4bh092rcd13ifvqd20","pricing_plan_id":"cebpf4jnsgd1na2vs0mg"},{"bike_id":"e4b79f39-484a-4dcb-b4ab-680b2677347c","system_id":"levelo_inurba_marseille","lat":43.30204,"lon":5.36612,"is_reserved":false,"is_disabled":false,"rental_uris":{"android":"levelo://app?vid=e4b79f39-484a-4dcb-b4ab-680b2677347c","ios":"levelo://app?vid=e4b79f39-484a-4dcb-b4ab-680b2677347c"},"vehicle_type_id":"4","last_reported":1748412965,"current_range_meters":10000,"station_id":"ce4bgrh2rcd13ifvqc8g","pricing_plan_id":"cebpf4jnsgd1na2vs0mg"},{"bike_id":"6a2eb3d1-8421-4db2-9c25-13e15f56bb41","system_id":"levelo_inurba_marseille","lat":43.30941,"lon":5.40136,"is_reserved":false,"is_disabled":false,"rental_uris":{"android":"levelo://app?vid=6a2eb3d1-8421-4db2-9c25-13e15f56bb41","ios":"levelo://app?vid=6a2eb3d1-8421-4db2-9c25-13e15f56bb41"},"vehicle_type_id":"4","last_reported":1748412965,"current_range_meters":10000,"station_id":"ce4bgvp2rcd13ifvqct0","pricing_plan_id":"cebpf4jnsgd1na2vs0mg"},{"bike_id":"f0ecbad3-5c56-4efa-84f0-9f2a84b7774d","system_id":"levelo_inurba_marseille","lat":43.322219,"lon":5.384384,"is_reserved":false,"is_disabled":false,"rental_uris":{"android":"levelo://app?vid=f0ecbad3-5c56-4efa-84f0-9f2a84b7774d","ios":"levelo://app?vid=f0ecbad3-5c56-4efa-84f0-9f2a84b7774d"},"vehicle_type_id":"4","last_reported":1748412965,"current_range_meters":10000,"station_id":"","pricing_plan_id":"cebpf4jnsgd1na2vs0mg"},{"bike_id":"d210ed15-0cab-4985-be76-61173c3a81e4","system_id":"levelo_inurba_marseille","lat":43.28742,"lon":5.36079,"is_reserved":false,"is_disabled":true,"rental_uris":{"android":"levelo://app?vid=d210ed15-0cab-4985-be76-61173c3a81e4","ios":"levelo://app?vid=d210ed15-0cab-4985-be76-61173c3a81e4"},"vehicle_type_id":"4","last_reported":1748412965,"current_range_meters":10000,"station_id":"cki0cbj6b192h4jlfktg","pricing_plan_id":"cebpf4jnsgd1na2vs0mg"},{"bike_id":"83229224-589e-4c50-a778-c0c522497500","system_id":"levelo_inurba_marseille","lat":43.24177,"lon":5.39707,"is_reserved":false,"is_disabled":false,"rental_uris":{"android":"levelo://app?vid=83229224-589e-4c50-a778-c0c522497500","ios":"levelo://app?vid=83229224-589e-4c50-a778-c0c522497500"},"vehicle_type_id":"4","last_reported":1748412965,"current_range_meters":10000,"station_id":"ce4bhn12rcd13ifvqgpg","pricing_plan_id":"cebpf4jnsgd1na2vs0mg"},{"bike_id":"bc21eb6e-8700-42e4-b2d6-274ccd1bac81","system_id":"levelo_inurba_marseille","lat":43.289665,"lon":5.378345,"is_reserved":false,"is_disabled":true,"rental_uris":{"android":"levelo://app?vid=bc21eb6e-8700-42e4-b2d6-274ccd1bac81","ios":"levelo://app?vid=bc21eb6e-8700-42e4-b2d6-274ccd1bac81"},"vehicle_type_id":"4","last_reported":1748412965,"current_range_meters":10000,"station_id":"ce4bh9p2rcd13ifvqed0","pricing_plan_id":"cebpf4jnsgd1na2vs0mg"},{"bike_id":"a97e5715-e42e-4d5c-a048-b021cffe3aea","system_id":"levelo_inurba_marseille","lat":43.3096,"lon":5.39049,"is_reserved":false,"is_disabled":true,"rental_uris":{"android":"levelo://app?vid=a97e5715-e42e-4d5c-a048-b021cffe3aea","ios":"levelo://app?vid=a97e5715-e42e-4d5c-a048-b021cffe3aea"},"vehicle_type_id":"4","last_reported":1748412965,"current_range_meters":10000,"station_id":"ce4bgup2rcd13ifvqco0","pricing_plan_id":"cebpf4jnsgd1na2vs0mg"},{"bike_id":"6530cb0d-cf31-4e4a-ab23-cc7b4720c169","system_id":"levelo_inurba_marseille","lat":43.31113,"lon":5.37762,"is_reserved":false,"is_disabled":false,"rental_uris":{"android":"levelo://app?vid=6530cb0d-cf31-4e4a-ab23-cc7b4720c169","ios":"levelo://app?vid=6530cb0d-cf31-4e4a-ab23-cc7b4720c169"},"vehicle_type_id":"4","last_reported":1748412965,"current_range_meters":10800,"station_id":"ce4bgt92rcd13ifvqcg0","pricing_plan_id":"cebpf4jnsgd1na2vs0mg"},{"bike_id":"8b8f4ddc-5f2d-41ad-9613-91a528fd4361","system_id":"levelo_inurba_marseille","lat":43.22934,"lon":5.35374,"is_reserved":false,"is_disabled":false,"rental_uris":{"android":"levelo://app?vid=8b8f4ddc-5f2d-41ad-9613-91a528fd4361","ios":"levelo://app?vid=8b8f4ddc-5f2d-41ad-9613-91a528fd4361"},"vehicle_type_id":"4","last_reported":1748412965,"current_range_meters":10800,"station_id":"cpo3532slgdg3j2ikp40","pricing_plan_id":"cebpf4jnsgd1na2vs0mg"},{"bike_id":"64f46cad-ba87-40c6-bdb4-4d2099e01c57","system_id":"levelo_inurba_marseille","lat":43.24651,"lon":5.38889,"is_reserved":false,"is_disabled":false,"rental_uris":{"android":"levelo://app?vid=64f46cad-ba87-40c6-bdb4-4d2099e01c57","ios":"levelo://app?vid=64f46cad-ba87-40c6-bdb4-4d2099e01c57"},"vehicle_type_id":"4","last_reported":1748412965,"current_range_meters":10800,"station_id":"ce4bhg12rcd13ifvqf60","pricing_plan_id":"cebpf4jnsgd1na2vs0mg"},{"bike_id":"9ed94f34-a328-46fc-b201-bade39dda6d1","system_id":"levelo_inurba_marseille","lat":43.25001,"lon":5.38918,"is_reserved":false,"is_disabled":false,"rental_uris":{"android":"levelo://app?vid=9ed94f34-a328-46fc-b201-bade39dda6d1","ios":"levelo://app?vid=9ed94f34-a328-46fc-b201-bade39dda6d1"},"vehicle_type_id":"4","last_reported":1748412965,"current_range_meters":11200,"station_id":"ce4bhgp2rcd13ifvqfd0","pricing_plan_id":"cebpf4jnsgd1na2vs0mg"},{"bike_id":"fd3b8926-9732-4665-beec-b59272be973b","system_id":"levelo_inurba_marseille","lat":43.31177,"lon":5.402006,"is_reserved":false,"is_disabled":false,"rental_uris":{"android":"levelo://app?vid=fd3b8926-9732-4665-beec-b59272be973b","ios":"levelo://app?vid=fd3b8926-9732-4665-beec-b59272be973b"},"vehicle_type_id":"4","last_reported":1748412965,"current_range_meters":11200,"station_id":"","pricing_plan_id":"cebpf4jnsgd1na2vs0mg"},{"bike_id":"c49b70de-4adb-4cfc-8307-bdc53758104f","system_id":"levelo_inurba_marseille","lat":43.23208,"lon":5.35548,"is_reserved":false,"is_disabled":false,"rental_uris":{"android":"levelo://app?vid=c49b70de-4adb-4cfc-8307-bdc53758104f","ios":"levelo://app?vid=c49b70de-4adb-4cfc-8307-bdc53758104f"},"vehicle_type_id":"4","last_reported":1748412965,"current_range_meters":11200,"station_id":"ce4bhu92rcd13ifvqi70","pricing_plan_id":"cebpf4jnsgd1na2vs0mg"},{"bike_id":"f0f976ea-0a5e-4412-852f-b15746da6d43","system_id":"levelo_inurba_marseille","lat":43.303,"lon":5.36894,"is_reserved":false,"is_disabled":false,"rental_uris":{"android":"levelo://app?vid=f0f976ea-0a5e-4412-852f-b15746da6d43","ios":"levelo://app?vid=f0f976ea-0a5e-4412-852f-b15746da6d43"},"vehicle_type_id":"4","last_reported":1748412965,"current_range_meters":11200,"station_id":"ce4bgqh2rcd13ifvqc5g","pricing_plan_id":"cebpf4jnsgd1na2vs0mg"},{"bike_id":"41b68268-8357-4aa4-959d-53c0b7113280","system_id":"levelo_inurba_marseille","lat":43.30269,"lon":5.40066,"is_reserved":false,"is_disabled":false,"rental_uris":{"android":"levelo://app?vid=41b68268-8357-4aa4-959d-53c0b7113280","ios":"levelo://app?vid=41b68268-8357-4aa4-959d-53c0b7113280"},"vehicle_type_id":"4","last_reported":1748412965,"current_range_meters":11600,"station_id":"ce4bgvh2rcd13ifvqcs0","pricing_plan_id":"cebpf4jnsgd1na2vs0mg"},{"bike_id":"46f1e1a2-421d-4288-9b19-22918bc7cc7f","system_id":"levelo_inurba_marseille","lat":43.232023,"lon":5.355515,"is_reserved":false,"is_disabled":false,"rental_uris":{"android":"levelo://app?vid=46f1e1a2-421d-4288-9b19-22918bc7cc7f","ios":"levelo://app?vid=46f1e1a2-421d-4288-9b19-22918bc7cc7f"},"vehicle_type_id":"4","last_reported":1748412965,"current_range_meters":11600,"station_id":"ce4bhu92rcd13ifvqi70","pricing_plan_id":"cebpf4jnsgd1na2vs0mg"},{"bike_id":"b0f046e0-0dff-4c40-a8e9-b04e6d16cb46","system_id":"levelo_inurba_marseille","lat":43.30423,"lon":5.39748,"is_reserved":false,"is_disabled":false,"rental_uris":{"android":"levelo://app?vid=b0f046e0-0dff-4c40-a8e9-b04e6d16cb46","ios":"levelo://app?vid=b0f046e0-0dff-4c40-a8e9-b04e6d16cb46"},"vehicle_type_id":"4","last_reported":1748412965,"current_range_meters":11600,"station_id":"ce4bh092rcd13ifvqd20","pricing_plan_id":"cebpf4jnsgd1na2vs0mg"},{"bike_id":"fb5aa547-4b35-49cc-b2fe-63a4f17f7ac6","system_id":"levelo_inurba_marseille","lat":43.257265,"lon":5.411115,"is_reserved":false,"is_disabled":false,"rental_uris":{"android":"levelo://app?vid=fb5aa547-4b35-49cc-b2fe-63a4f17f7ac6","ios":"levelo://app?vid=fb5aa547-4b35-49cc-b2fe-63a4f17f7ac6"},"vehicle_type_id":"4","last_reported":1748412965,"current_range_meters":11600,"station_id":"ce4bhg12rcd13ifvqf80","pricing_plan_id":"cebpf4jnsgd1na2vs0mg"},{"bike_id":"34c6f0fc-a825-460a-874b-f9afa9305de8","system_id":"levelo_inurba_marseille","lat":43.30621,"lon":5.37209,"is_reserved":false,"is_disabled":false,"rental_uris":{"android":"levelo://app?vid=34c6f0fc-a825-460a-874b-f9afa9305de8","ios":"levelo://app?vid=34c6f0fc-a825-460a-874b-f9afa9305de8"},"vehicle_type_id":"4","last_reported":1748412965,"current_range_meters":12000,"station_id":"ce4bgqh2rcd13ifvqc4g","pricing_plan_id":"cebpf4jnsgd1na2vs0mg"},{"bike_id":"04d43363-ff81-403c-bbca-b94708fa9e7f","system_id":"levelo_inurba_marseille","lat":43.25939,"lon":5.40904,"is_reserved":false,"is_disabled":false,"rental_uris":{"android":"levelo://app?vid=04d43363-ff81-403c-bbca-b94708fa9e7f","ios":"levelo://app?vid=04d43363-ff81-403c-bbca-b94708fa9e7f"},"vehicle_type_id":"4","last_reported":1748412965,"current_range_meters":12000,"station_id":"ce4bhm92rcd13ifvqglg","pricing_plan_id":"cebpf4jnsgd1na2vs0mg"},{"bike_id":"ea54801a-03d6-4cd4-96ec-8b9fcb1628ad","system_id":"levelo_inurba_marseille","lat":43.30543,"lon":5.36547,"is_reserved":false,"is_disabled":false,"rental_uris":{"android":"levelo://app?vid=ea54801a-03d6-4cd4-96ec-8b9fcb1628ad","ios":"levelo://app?vid=ea54801a-03d6-4cd4-96ec-8b9fcb1628ad"},"vehicle_type_id":"4","last_reported":1748412965,"current_range_meters":12000,"station_id":"ce4bgs12rcd13ifvqcag","pricing_plan_id":"cebpf4jnsgd1na2vs0mg"},{"bike_id":"1d9aa0a3-8d94-496c-8645-8bc9aba995f5","system_id":"levelo_inurba_marseille","lat":43.29289,"lon":5.40148,"is_reserved":false,"is_disabled":false,"rental_uris":{"android":"levelo://app?vid=1d9aa0a3-8d94-496c-8645-8bc9aba995f5","ios":"levelo://app?vid=1d9aa0a3-8d94-496c-8645-8bc9aba995f5"},"vehicle_type_id":"4","last_reported":1748412965,"current_range_meters":12000,"station_id":"ce4bh312rcd13ifvqdk0","pricing_plan_id":"cebpf4jnsgd1na2vs0mg"},{"bike_id":"2ee3c059-c14d-41e1-8070-f754017e275e","system_id":"levelo_inurba_marseille","lat":43.30862,"lon":5.39664,"is_reserved":false,"is_disabled":false,"rental_uris":{"android":"levelo://app?vid=2ee3c059-c14d-41e1-8070-f754017e275e","ios":"levelo://app?vid=2ee3c059-c14d-41e1-8070-f754017e275e"},"vehicle_type_id":"4","last_reported":1748412965,"current_range_meters":12000,"station_id":"ce4bh012rcd13ifvqcv0","pricing_plan_id":"cebpf4jnsgd1na2vs0mg"},{"bike_id":"47583335-9e10-4931-b076-003bea66dc0e","system_id":"levelo_inurba_marseille","lat":43.282055,"lon":5.390621,"is_reserved":false,"is_disabled":false,"rental_uris":{"android":"levelo://app?vid=47583335-9e10-4931-b076-003bea66dc0e","ios":"levelo://app?vid=47583335-9e10-4931-b076-003bea66dc0e"},"vehicle_type_id":"4","last_reported":1748412965,"current_range_meters":12000,"station_id":"","pricing_plan_id":"cebpf4jnsgd1na2vs0mg"},{"bike_id":"71c3c26b-dbd0-45d0-80eb-41fe0433ad32","system_id":"levelo_inurba_marseille","lat":43.310661,"lon":5.383645,"is_reserved":false,"is_disabled":false,"rental_uris":{"android":"levelo://app?vid=71c3c26b-dbd0-45d0-80eb-41fe0433ad32","ios":"levelo://app?vid=71c3c26b-dbd0-45d0-80eb-41fe0433ad32"},"vehicle_type_id":"4","last_reported":1748412965,"current_range_meters":12400,"station_id":"ce4bgv92rcd13ifvqcr0","pricing_plan_id":"cebpf4jnsgd1na2vs0mg"},{"bike_id":"c3aabf74-7776-48fb-8df4-53de7bc597a2","system_id":"levelo_inurba_marseille","lat":43.27497,"lon":5.42449,"is_reserved":false,"is_disabled":false,"rental_uris":{"android":"levelo://app?vid=c3aabf74-7776-48fb-8df4-53de7bc597a2","ios":"levelo://app?vid=c3aabf74-7776-48fb-8df4-53de7bc597a2"},"vehicle_type_id":"4","last_reported":1748412965,"current_range_meters":12400,"station_id":"ce4bhn92rcd13ifvqgrg","pricing_plan_id":"cebpf4jnsgd1na2vs0mg"},{"bike_id":"79bb3a18-49fe-47f2-8cbc-6fc21d3edcfb","system_id":"levelo_inurba_marseille","lat":43.29556,"lon":5.42297,"is_reserved":false,"is_disabled":false,"rental_uris":{"android":"levelo://app?vid=79bb3a18-49fe-47f2-8cbc-6fc21d3edcfb","ios":"levelo://app?vid=79bb3a18-49fe-47f2-8cbc-6fc21d3edcfb"},"vehicle_type_id":"4","last_reported":1748412965,"current_range_meters":12400,"station_id":"ce4bhph2rcd13ifvqhdg","pricing_plan_id":"cebpf4jnsgd1na2vs0mg"},{"bike_id":"46e39243-d6bd-41e1-b191-13d51b68be81","system_id":"levelo_inurba_marseille","lat":43.29789,"lon":5.39354,"is_reserved":false,"is_disabled":false,"rental_uris":{"android":"levelo://app?vid=46e39243-d6bd-41e1-b191-13d51b68be81","ios":"levelo://app?vid=46e39243-d6bd-41e1-b191-13d51b68be81"},"vehicle_type_id":"4","last_reported":1748412965,"current_range_meters":12400,"station_id":"chh1huq6cuj3fo74tm60","pricing_plan_id":"cebpf4jnsgd1na2vs0mg"},{"bike_id":"78e5ac9a-0fa3-4a25-ad3c-b090edac3051","system_id":"levelo_inurba_marseille","lat":43.24082,"lon":5.3776,"is_reserved":false,"is_disabled":false,"rental_uris":{"android":"levelo://app?vid=78e5ac9a-0fa3-4a25-ad3c-b090edac3051","ios":"levelo://app?vid=78e5ac9a-0fa3-4a25-ad3c-b090edac3051"},"vehicle_type_id":"4","last_reported":1748412965,"current_range_meters":12400,"station_id":"ce4bhnp2rcd13ifvqgvg","pricing_plan_id":"cebpf4jnsgd1na2vs0mg"},{"bike_id":"f60fe965-3d4b-4583-bf69-4087ccd60ef3","system_id":"levelo_inurba_marseille","lat":43.25932,"lon":5.40903,"is_reserved":false,"is_disabled":false,"rental_uris":{"android":"levelo://app?vid=f60fe965-3d4b-4583-bf69-4087ccd60ef3","ios":"levelo://app?vid=f60fe965-3d4b-4583-bf69-4087ccd60ef3"},"vehicle_type_id":"4","last_reported":1748412965,"current_range_meters":12400,"station_id":"ce4bhm92rcd13ifvqglg","pricing_plan_id":"cebpf4jnsgd1na2vs0mg"},{"bike_id":"bc7e556b-5270-4da4-b345-eef5c20dc266","system_id":"levelo_inurba_marseille","lat":43.30471,"lon":5.37905,"is_reserved":false,"is_disabled":false,"rental_uris":{"android":"levelo://app?vid=bc7e556b-5270-4da4-b345-eef5c20dc266","ios":"levelo://app?vid=bc7e556b-5270-4da4-b345-eef5c20dc266"},"vehicle_type_id":"4","last_reported":1748412965,"current_range_meters":12400,"station_id":"ce4bgup2rcd13ifvqcn0","pricing_plan_id":"cebpf4jnsgd1na2vs0mg"},{"bike_id":"66ce27fa-93cf-4af2-b68b-f853af9cec83","system_id":"levelo_inurba_marseille","lat":43.295066,"lon":5.374448,"is_reserved":false,"is_disabled":false,"rental_uris":{"android":"levelo://app?vid=66ce27fa-93cf-4af2-b68b-f853af9cec83","ios":"levelo://app?vid=66ce27fa-93cf-4af2-b68b-f853af9cec83"},"vehicle_type_id":"4","last_reported":1748412965,"current_range_meters":12800,"station_id":"ce4bgh92rcd13ifvqb50","pricing_plan_id":"cebpf4jnsgd1na2vs0mg"},{"bike_id":"d9952686-da7d-43a9-97c3-636d088bad52","system_id":"levelo_inurba_marseille","lat":43.29608,"lon":5.38106,"is_reserved":false,"is_disabled":false,"rental_uris":{"android":"levelo://app?vid=d9952686-da7d-43a9-97c3-636d088bad52","ios":"levelo://app?vid=d9952686-da7d-43a9-97c3-636d088bad52"},"vehicle_type_id":"4","last_reported":1748412965,"current_range_meters":12800,"station_id":"ce4bgl12rcd13ifvqbo0","pricing_plan_id":"cebpf4jnsgd1na2vs0mg"},{"bike_id":"25fe1924-4408-4709-a1de-804f3412a784","system_id":"levelo_inurba_marseille","lat":43.313761,"lon":5.36704,"is_reserved":false,"is_disabled":false,"rental_uris":{"android":"levelo://app?vid=25fe1924-4408-4709-a1de-804f3412a784","ios":"levelo://app?vid=25fe1924-4408-4709-a1de-804f3412a784"},"vehicle_type_id":"4","last_reported":1748412965,"current_range_meters":12800,"station_id":"ce4bgr92rcd13ifvqc6g","pricing_plan_id":"cebpf4jnsgd1na2vs0mg"},{"bike_id":"45b9d172-e6f6-4d55-9940-10facafe02aa","system_id":"levelo_inurba_marseille","lat":43.304325,"lon":5.397445,"is_reserved":false,"is_disabled":false,"rental_uris":{"android":"levelo://app?vid=45b9d172-e6f6-4d55-9940-10facafe02aa","ios":"levelo://app?vid=45b9d172-e6f6-4d55-9940-10facafe02aa"},"vehicle_type_id":"4","last_reported":1748412965,"current_range_meters":12800,"station_id":"ce4bh092rcd13ifvqd20","pricing_plan_id":"cebpf4jnsgd1na2vs0mg"},{"bike_id":"57d294e0-c68e-4452-9436-632d16191ca4","system_id":"levelo_inurba_marseille","lat":43.24075,"lon":5.37754,"is_reserved":false,"is_disabled":false,"rental_uris":{"android":"levelo://app?vid=57d294e0-c68e-4452-9436-632d16191ca4","ios":"levelo://app?vid=57d294e0-c68e-4452-9436-632d16191ca4"},"vehicle_type_id":"4","last_reported":1748412965,"current_range_meters":12400,"station_id":"ce4bhnp2rcd13ifvqgvg","pricing_plan_id":"cebpf4jnsgd1na2vs0mg"},{"bike_id":"134c70cc-46f1-414c-ba60-b99ba2b4a992","system_id":"levelo_inurba_marseille","lat":43.348153,"lon":5.351138,"is_reserved":false,"is_disabled":false,"rental_uris":{"android":"levelo://app?vid=134c70cc-46f1-414c-ba60-b99ba2b4a992","ios":"levelo://app?vid=134c70cc-46f1-414c-ba60-b99ba2b4a992"},"vehicle_type_id":"4","last_reported":1748412965,"current_range_meters":12800,"station_id":"","pricing_plan_id":"cebpf4jnsgd1na2vs0mg"},{"bike_id":"d50297a4-bcf4-4101-9d78-853097a84405","system_id":"levelo_inurba_marseille","lat":43.29801,"lon":5.38109,"is_reserved":false,"is_disabled":false,"rental_uris":{"android":"levelo://app?vid=d50297a4-bcf4-4101-9d78-853097a84405","ios":"levelo://app?vid=d50297a4-bcf4-4101-9d78-853097a84405"},"vehicle_type_id":"4","last_reported":1748412965,"current_range_meters":13600,"station_id":"ce4bgip2rcd13ifvqbb0","pricing_plan_id":"cebpf4jnsgd1na2vs0mg"},{"bike_id":"7977b255-2eb6-4ef4-9ec6-060328d6748c","system_id":"levelo_inurba_marseille","lat":43.32545,"lon":5.41431,"is_reserved":false,"is_disabled":true,"rental_uris":{"android":"levelo://app?vid=7977b255-2eb6-4ef4-9ec6-060328d6748c","ios":"levelo://app?vid=7977b255-2eb6-4ef4-9ec6-060328d6748c"},"vehicle_type_id":"4","last_reported":1748412965,"current_range_meters":13600,"station_id":"ce4bhq12rcd13ifvqhhg","pricing_plan_id":"cebpf4jnsgd1na2vs0mg"},{"bike_id":"4716df50-10e7-42a0-b5a9-3c2ffd551513","system_id":"levelo_inurba_marseille","lat":43.24554,"lon":5.39523,"is_reserved":false,"is_disabled":false,"rental_uris":{"android":"levelo://app?vid=4716df50-10e7-42a0-b5a9-3c2ffd551513","ios":"levelo://app?vid=4716df50-10e7-42a0-b5a9-3c2ffd551513"},"vehicle_type_id":"4","last_reported":1748412965,"current_range_meters":13600,"station_id":"ce4bhlp2rcd13ifvqgjg","pricing_plan_id":"cebpf4jnsgd1na2vs0mg"},{"bike_id":"6e106d77-e7af-4e14-ba15-73fb27843855","system_id":"levelo_inurba_marseille","lat":43.26494,"lon":5.39539,"is_reserved":false,"is_disabled":false,"rental_uris":{"android":"levelo://app?vid=6e106d77-e7af-4e14-ba15-73fb27843855","ios":"levelo://app?vid=6e106d77-e7af-4e14-ba15-73fb27843855"},"vehicle_type_id":"4","last_reported":1748412965,"current_range_meters":12800,"station_id":"ce4bhi12rcd13ifvqfq0","pricing_plan_id":"cebpf4jnsgd1na2vs0mg"},{"bike_id":"c2c25dd5-dc71-4aa2-a4d5-1ae79422659b","system_id":"levelo_inurba_marseille","lat":43.28202,"lon":5.39075,"is_reserved":false,"is_disabled":false,"rental_uris":{"android":"levelo://app?vid=c2c25dd5-dc71-4aa2-a4d5-1ae79422659b","ios":"levelo://app?vid=c2c25dd5-dc71-4aa2-a4d5-1ae79422659b"},"vehicle_type_id":"4","last_reported":1748412965,"current_range_meters":13600,"station_id":"","pricing_plan_id":"cebpf4jnsgd1na2vs0mg"},{"bike_id":"2a529e4a-98c3-4022-8fed-d80a6b40c232","system_id":"levelo_inurba_marseille","lat":43.24547,"lon":5.39517,"is_reserved":false,"is_disabled":false,"rental_uris":{"android":"levelo://app?vid=2a529e4a-98c3-4022-8fed-d80a6b40c232","ios":"levelo://app?vid=2a529e4a-98c3-4022-8fed-d80a6b40c232"},"vehicle_type_id":"4","last_reported":1748412965,"current_range_meters":13600,"station_id":"ce4bhlp2rcd13ifvqgjg","pricing_plan_id":"cebpf4jnsgd1na2vs0mg"},{"bike_id":"4920cc9b-3024-4aaf-80ec-6e71f192aff9","system_id":"levelo_inurba_marseille","lat":43.30514,"lon":5.367139,"is_reserved":false,"is_disabled":false,"rental_uris":{"android":"levelo://app?vid=4920cc9b-3024-4aaf-80ec-6e71f192aff9","ios":"levelo://app?vid=4920cc9b-3024-4aaf-80ec-6e71f192aff9"},"vehicle_type_id":"4","last_reported":1748412965,"current_range_meters":13600,"station_id":"ce4bgrp2rcd13ifvqc9g","pricing_plan_id":"cebpf4jnsgd1na2vs0mg"},{"bike_id":"46ea35f2-33ac-4c5f-9a27-c944e9b6fb6a","system_id":"levelo_inurba_marseille","lat":43.3058,"lon":5.39341,"is_reserved":false,"is_disabled":false,"rental_uris":{"android":"levelo://app?vid=46ea35f2-33ac-4c5f-9a27-c944e9b6fb6a","ios":"levelo://app?vid=46ea35f2-33ac-4c5f-9a27-c944e9b6fb6a"},"vehicle_type_id":"4","last_reported":1748412965,"current_range_meters":14000,"station_id":"ce4bh0p2rcd13ifvqd80","pricing_plan_id":"cebpf4jnsgd1na2vs0mg"},{"bike_id":"f17b5f1b-722c-492d-a6a6-635d0fc8540a","system_id":"levelo_inurba_marseille","lat":43.30436,"lon":5.39718,"is_reserved":false,"is_disabled":false,"rental_uris":{"android":"levelo://app?vid=f17b5f1b-722c-492d-a6a6-635d0fc8540a","ios":"levelo://app?vid=f17b5f1b-722c-492d-a6a6-635d0fc8540a"},"vehicle_type_id":"4","last_reported":1748412965,"current_range_meters":14000,"station_id":"ce4bh092rcd13ifvqd20","pricing_plan_id":"cebpf4jnsgd1na2vs0mg"},{"bike_id":"c05d129d-02ec-475b-8cd0-1a45a4e9edbd","system_id":"levelo_inurba_marseille","lat":43.31347,"lon":5.36737,"is_reserved":false,"is_disabled":false,"rental_uris":{"android":"levelo://app?vid=c05d129d-02ec-475b-8cd0-1a45a4e9edbd","ios":"levelo://app?vid=c05d129d-02ec-475b-8cd0-1a45a4e9edbd"},"vehicle_type_id":"4","last_reported":1748412965,"current_range_meters":14000,"station_id":"ce4bgr92rcd13ifvqc6g","pricing_plan_id":"cebpf4jnsgd1na2vs0mg"},{"bike_id":"e47f4823-89dc-4bf5-819b-feccec981d20","system_id":"levelo_inurba_marseille","lat":43.27494,"lon":5.42451,"is_reserved":false,"is_disabled":false,"rental_uris":{"android":"levelo://app?vid=e47f4823-89dc-4bf5-819b-feccec981d20","ios":"levelo://app?vid=e47f4823-89dc-4bf5-819b-feccec981d20"},"vehicle_type_id":"4","last_reported":1748412965,"current_range_meters":14000,"station_id":"ce4bhn92rcd13ifvqgrg","pricing_plan_id":"cebpf4jnsgd1na2vs0mg"},{"bike_id":"b6d1b68c-1545-4a60-9a29-1c8bd8e99b66","system_id":"levelo_inurba_marseille","lat":43.290365,"lon":5.399695,"is_reserved":false,"is_disabled":false,"rental_uris":{"android":"levelo://app?vid=b6d1b68c-1545-4a60-9a29-1c8bd8e99b66","ios":"levelo://app?vid=b6d1b68c-1545-4a60-9a29-1c8bd8e99b66"},"vehicle_type_id":"4","last_reported":1748412965,"current_range_meters":14000,"station_id":"ce4bh392rcd13ifvqdm0","pricing_plan_id":"cebpf4jnsgd1na2vs0mg"},{"bike_id":"e736686f-625a-4d9a-a7d4-f55f37278fdb","system_id":"levelo_inurba_marseille","lat":43.29427,"lon":5.38597,"is_reserved":false,"is_disabled":true,"rental_uris":{"android":"levelo://app?vid=e736686f-625a-4d9a-a7d4-f55f37278fdb","ios":"levelo://app?vid=e736686f-625a-4d9a-a7d4-f55f37278fdb"},"vehicle_type_id":"4","last_reported":1748412965,"current_range_meters":14000,"station_id":"ce4bh2h2rcd13ifvqdh0","pricing_plan_id":"cebpf4jnsgd1na2vs0mg"},{"bike_id":"5b71d762-ff7f-46b3-a906-4507d388dbfe","system_id":"levelo_inurba_marseille","lat":43.298883,"lon":5.397381,"is_reserved":false,"is_disabled":true,"rental_uris":{"android":"levelo://app?vid=5b71d762-ff7f-46b3-a906-4507d388dbfe","ios":"levelo://app?vid=5b71d762-ff7f-46b3-a906-4507d388dbfe"},"vehicle_type_id":"4","last_reported":1748412965,"current_range_meters":14400,"station_id":"ce4bh0h2rcd13ifvqd50","pricing_plan_id":"cebpf4jnsgd1na2vs0mg"},{"bike_id":"1fed5cf7-13b7-4dc4-814e-e55c1b74556e","system_id":"levelo_inurba_marseille","lat":43.292643,"lon":5.401246,"is_reserved":false,"is_disabled":true,"rental_uris":{"android":"levelo://app?vid=1fed5cf7-13b7-4dc4-814e-e55c1b74556e","ios":"levelo://app?vid=1fed5cf7-13b7-4dc4-814e-e55c1b74556e"},"vehicle_type_id":"4","last_reported":1748412965,"current_range_meters":14400,"station_id":"ce4bh312rcd13ifvqdk0","pricing_plan_id":"cebpf4jnsgd1na2vs0mg"},{"bike_id":"964e93a9-8735-4d6e-9095-3e84919651d8","system_id":"levelo_inurba_marseille","lat":43.299684,"lon":5.41317,"is_reserved":false,"is_disabled":false,"rental_uris":{"android":"levelo://app?vid=964e93a9-8735-4d6e-9095-3e84919651d8","ios":"levelo://app?vid=964e93a9-8735-4d6e-9095-3e84919651d8"},"vehicle_type_id":"4","last_reported":1748412965,"current_range_meters":14400,"station_id":"ce4bhp12rcd13ifvqh9g","pricing_plan_id":"cebpf4jnsgd1na2vs0mg"},{"bike_id":"beeca1d2-d65c-44fe-8ce6-7afce205f53e","system_id":"levelo_inurba_marseille","lat":43.308787,"lon":5.396356,"is_reserved":false,"is_disabled":false,"rental_uris":{"android":"levelo://app?vid=beeca1d2-d65c-44fe-8ce6-7afce205f53e","ios":"levelo://app?vid=beeca1d2-d65c-44fe-8ce6-7afce205f53e"},"vehicle_type_id":"4","last_reported":1748412965,"current_range_meters":14400,"station_id":"ce4bh012rcd13ifvqcv0","pricing_plan_id":"cebpf4jnsgd1na2vs0mg"},{"bike_id":"8cb48e60-19aa-4fb9-8708-4e4a56b04ded","system_id":"levelo_inurba_marseille","lat":43.25495,"lon":5.37649,"is_reserved":false,"is_disabled":false,"rental_uris":{"android":"levelo://app?vid=8cb48e60-19aa-4fb9-8708-4e4a56b04ded","ios":"levelo://app?vid=8cb48e60-19aa-4fb9-8708-4e4a56b04ded"},"vehicle_type_id":"4","last_reported":1748412965,"current_range_meters":14400,"station_id":"ce4bhh12rcd13ifvqff0","pricing_plan_id":"cebpf4jnsgd1na2vs0mg"},{"bike_id":"e654cf01-26ce-4496-9798-088ceb96ffb5","system_id":"levelo_inurba_marseille","lat":43.24077,"lon":5.37763,"is_reserved":false,"is_disabled":false,"rental_uris":{"android":"levelo://app?vid=e654cf01-26ce-4496-9798-088ceb96ffb5","ios":"levelo://app?vid=e654cf01-26ce-4496-9798-088ceb96ffb5"},"vehicle_type_id":"4","last_reported":1748412965,"current_range_meters":14400,"station_id":"ce4bhnp2rcd13ifvqgvg","pricing_plan_id":"cebpf4jnsgd1na2vs0mg"},{"bike_id":"0b4bc563-672f-4a0f-ae95-feb99e2b12d6","system_id":"levelo_inurba_marseille","lat":43.32482,"lon":5.36562,"is_reserved":false,"is_disabled":false,"rental_uris":{"android":"levelo://app?vid=0b4bc563-672f-4a0f-ae95-feb99e2b12d6","ios":"levelo://app?vid=0b4bc563-672f-4a0f-ae95-feb99e2b12d6"},"vehicle_type_id":"4","last_reported":1748412965,"current_range_meters":14400,"station_id":"ce4bhs12rcd13ifvqhvg","pricing_plan_id":"cebpf4jnsgd1na2vs0mg"},{"bike_id":"d0831d4a-f41d-412a-a392-dd1538e6f977","system_id":"levelo_inurba_marseille","lat":43.30587,"lon":5.39352,"is_reserved":false,"is_disabled":false,"rental_uris":{"android":"levelo://app?vid=d0831d4a-f41d-412a-a392-dd1538e6f977","ios":"levelo://app?vid=d0831d4a-f41d-412a-a392-dd1538e6f977"},"vehicle_type_id":"4","last_reported":1748412965,"current_range_meters":14800,"station_id":"ce4bh0p2rcd13ifvqd80","pricing_plan_id":"cebpf4jnsgd1na2vs0mg"},{"bike_id":"2864957e-52e0-4111-86f1-71ce1d9dffda","system_id":"levelo_inurba_marseille","lat":43.2956,"lon":5.42292,"is_reserved":false,"is_disabled":false,"rental_uris":{"android":"levelo://app?vid=2864957e-52e0-4111-86f1-71ce1d9dffda","ios":"levelo://app?vid=2864957e-52e0-4111-86f1-71ce1d9dffda"},"vehicle_type_id":"4","last_reported":1748412965,"current_range_meters":14800,"station_id":"ce4bhph2rcd13ifvqhdg","pricing_plan_id":"cebpf4jnsgd1na2vs0mg"},{"bike_id":"bedbbb34-82aa-4a56-8ecf-72e3100f83ac","system_id":"levelo_inurba_marseille","lat":43.30269,"lon":5.38888,"is_reserved":false,"is_disabled":false,"rental_uris":{"android":"levelo://app?vid=bedbbb34-82aa-4a56-8ecf-72e3100f83ac","ios":"levelo://app?vid=bedbbb34-82aa-4a56-8ecf-72e3100f83ac"},"vehicle_type_id":"4","last_reported":1748412965,"current_range_meters":14800,"station_id":"","pricing_plan_id":"cebpf4jnsgd1na2vs0mg"},{"bike_id":"819405ec-b148-477d-9ace-ac76e33ab2d1","system_id":"levelo_inurba_marseille","lat":43.30551,"lon":5.36554,"is_reserved":false,"is_disabled":false,"rental_uris":{"android":"levelo://app?vid=819405ec-b148-477d-9ace-ac76e33ab2d1","ios":"levelo://app?vid=819405ec-b148-477d-9ace-ac76e33ab2d1"},"vehicle_type_id":"4","last_reported":1748412965,"current_range_meters":14800,"station_id":"ce4bgs12rcd13ifvqcag","pricing_plan_id":"cebpf4jnsgd1na2vs0mg"},{"bike_id":"45c941a7-9562-4778-ae0c-86ddbaf5a628","system_id":"levelo_inurba_marseille","lat":43.245401,"lon":5.395226,"is_reserved":false,"is_disabled":false,"rental_uris":{"android":"levelo://app?vid=45c941a7-9562-4778-ae0c-86ddbaf5a628","ios":"levelo://app?vid=45c941a7-9562-4778-ae0c-86ddbaf5a628"},"vehicle_type_id":"4","last_reported":1748412965,"current_range_meters":14800,"station_id":"ce4bhlp2rcd13ifvqgjg","pricing_plan_id":"cebpf4jnsgd1na2vs0mg"},{"bike_id":"83673cd7-aea7-4797-9490-4fc48d40c03c","system_id":"levelo_inurba_marseille","lat":43.32476,"lon":5.36564,"is_reserved":false,"is_disabled":false,"rental_uris":{"android":"levelo://app?vid=83673cd7-aea7-4797-9490-4fc48d40c03c","ios":"levelo://app?vid=83673cd7-aea7-4797-9490-4fc48d40c03c"},"vehicle_type_id":"4","last_reported":1748412965,"current_range_meters":14800,"station_id":"ce4bhs12rcd13ifvqhvg","pricing_plan_id":"cebpf4jnsgd1na2vs0mg"},{"bike_id":"ed3ce463-8108-462a-b16b-760e2671d87c","system_id":"levelo_inurba_marseille","lat":43.25088,"lon":5.39514,"is_reserved":false,"is_disabled":false,"rental_uris":{"android":"levelo://app?vid=ed3ce463-8108-462a-b16b-760e2671d87c","ios":"levelo://app?vid=ed3ce463-8108-462a-b16b-760e2671d87c"},"vehicle_type_id":"4","last_reported":1748412965,"current_range_meters":14800,"station_id":"ce4bhm12rcd13ifvqgkg","pricing_plan_id":"cebpf4jnsgd1na2vs0mg"},{"bike_id":"7747b843-d8bb-4e22-aad8-abfae33c4aae","system_id":"levelo_inurba_marseille","lat":43.31538,"lon":5.38652,"is_reserved":false,"is_disabled":false,"rental_uris":{"android":"levelo://app?vid=7747b843-d8bb-4e22-aad8-abfae33c4aae","ios":"levelo://app?vid=7747b843-d8bb-4e22-aad8-abfae33c4aae"},"vehicle_type_id":"4","last_reported":1748412965,"current_range_meters":14800,"station_id":"","pricing_plan_id":"cebpf4jnsgd1na2vs0mg"},{"bike_id":"2482037b-00d9-4113-90a4-3a14dd9d4855","system_id":"levelo_inurba_marseille","lat":43.26241,"lon":5.38777,"is_reserved":false,"is_disabled":false,"rental_uris":{"android":"levelo://app?vid=2482037b-00d9-4113-90a4-3a14dd9d4855","ios":"levelo://app?vid=2482037b-00d9-4113-90a4-3a14dd9d4855"},"vehicle_type_id":"4","last_reported":1748412965,"current_range_meters":15200,"station_id":"","pricing_plan_id":"cebpf4jnsgd1na2vs0mg"},{"bike_id":"df7b6d8f-a7cc-471d-ac05-6ab9a5d1327f","system_id":"levelo_inurba_marseille","lat":43.29709,"lon":5.37677,"is_reserved":false,"is_disabled":false,"rental_uris":{"android":"levelo://app?vid=df7b6d8f-a7cc-471d-ac05-6ab9a5d1327f","ios":"levelo://app?vid=df7b6d8f-a7cc-471d-ac05-6ab9a5d1327f"},"vehicle_type_id":"4","last_reported":1748412965,"current_range_meters":15200,"station_id":"ce4bgkh2rcd13ifvqbl0","pricing_plan_id":"cebpf4jnsgd1na2vs0mg"},{"bike_id":"54635bce-faa1-4993-90e6-78c7ecd6050a","system_id":"levelo_inurba_marseille","lat":43.30181,"lon":5.36607,"is_reserved":false,"is_disabled":false,"rental_uris":{"android":"levelo://app?vid=54635bce-faa1-4993-90e6-78c7ecd6050a","ios":"levelo://app?vid=54635bce-faa1-4993-90e6-78c7ecd6050a"},"vehicle_type_id":"4","last_reported":1748412965,"current_range_meters":15200,"station_id":"ce4bgrh2rcd13ifvqc8g","pricing_plan_id":"cebpf4jnsgd1na2vs0mg"},{"bike_id":"6ebb6dd7-e028-471a-a254-2363923c0cd9","system_id":"levelo_inurba_marseille","lat":43.321174,"lon":5.367884,"is_reserved":false,"is_disabled":false,"rental_uris":{"android":"levelo://app?vid=6ebb6dd7-e028-471a-a254-2363923c0cd9","ios":"levelo://app?vid=6ebb6dd7-e028-471a-a254-2363923c0cd9"},"vehicle_type_id":"4","last_reported":1748412965,"current_range_meters":15200,"station_id":"ce4bhrh2rcd13ifvqhug","pricing_plan_id":"cebpf4jnsgd1na2vs0mg"},{"bike_id":"6f7c0bae-7ce5-4ef4-b12b-bbe98930f5ed","system_id":"levelo_inurba_marseille","lat":43.28704,"lon":5.39985,"is_reserved":false,"is_disabled":false,"rental_uris":{"android":"levelo://app?vid=6f7c0bae-7ce5-4ef4-b12b-bbe98930f5ed","ios":"levelo://app?vid=6f7c0bae-7ce5-4ef4-b12b-bbe98930f5ed"},"vehicle_type_id":"4","last_reported":1748412965,"current_range_meters":15200,"station_id":"ce4bho92rcd13ifvqh3g","pricing_plan_id":"cebpf4jnsgd1na2vs0mg"},{"bike_id":"470ba622-7ae4-432c-a78f-79862cc0ca5e","system_id":"levelo_inurba_marseille","lat":43.24079,"lon":5.37753,"is_reserved":false,"is_disabled":false,"rental_uris":{"android":"levelo://app?vid=470ba622-7ae4-432c-a78f-79862cc0ca5e","ios":"levelo://app?vid=470ba622-7ae4-432c-a78f-79862cc0ca5e"},"vehicle_type_id":"4","last_reported":1748412965,"current_range_meters":14800,"station_id":"ce4bhnp2rcd13ifvqgvg","pricing_plan_id":"cebpf4jnsgd1na2vs0mg"},{"bike_id":"f40fc6c4-562a-4f33-837d-c1ec2703007b","system_id":"levelo_inurba_marseille","lat":43.23182,"lon":5.39993,"is_reserved":false,"is_disabled":true,"rental_uris":{"android":"levelo://app?vid=f40fc6c4-562a-4f33-837d-c1ec2703007b","ios":"levelo://app?vid=f40fc6c4-562a-4f33-837d-c1ec2703007b"},"vehicle_type_id":"4","last_reported":1748412965,"current_range_meters":15200,"station_id":"ce4bhn12rcd13ifvqgqg","pricing_plan_id":"cebpf4jnsgd1na2vs0mg"},{"bike_id":"6c40f433-166f-4242-9b0e-e74b82e41af3","system_id":"levelo_inurba_marseille","lat":43.31102,"lon":5.377607,"is_reserved":false,"is_disabled":true,"rental_uris":{"android":"levelo://app?vid=6c40f433-166f-4242-9b0e-e74b82e41af3","ios":"levelo://app?vid=6c40f433-166f-4242-9b0e-e74b82e41af3"},"vehicle_type_id":"4","last_reported":1748412965,"current_range_meters":15200,"station_id":"ce4bgih2rcd13ifvqba0","pricing_plan_id":"cebpf4jnsgd1na2vs0mg"},{"bike_id":"d6103ee5-1f61-4130-8d00-99029ed3e63a","system_id":"levelo_inurba_marseille","lat":43.31884,"lon":5.40728,"is_reserved":false,"is_disabled":false,"rental_uris":{"android":"levelo://app?vid=d6103ee5-1f61-4130-8d00-99029ed3e63a","ios":"levelo://app?vid=d6103ee5-1f61-4130-8d00-99029ed3e63a"},"vehicle_type_id":"4","last_reported":1748412965,"current_range_meters":14800,"station_id":"ce4bhq12rcd13ifvqhig","pricing_plan_id":"cebpf4jnsgd1na2vs0mg"},{"bike_id":"798b4dd9-09fd-4939-a396-5d8278d045a8","system_id":"levelo_inurba_marseille","lat":43.282015,"lon":5.390544,"is_reserved":false,"is_disabled":false,"rental_uris":{"android":"levelo://app?vid=798b4dd9-09fd-4939-a396-5d8278d045a8","ios":"levelo://app?vid=798b4dd9-09fd-4939-a396-5d8278d045a8"},"vehicle_type_id":"4","last_reported":1748412965,"current_range_meters":16000,"station_id":"","pricing_plan_id":"cebpf4jnsgd1na2vs0mg"},{"bike_id":"88f0b25b-9fcb-4934-ae2a-80fd3f534b8a","system_id":"levelo_inurba_marseille","lat":43.30205,"lon":5.36598,"is_reserved":false,"is_disabled":true,"rental_uris":{"android":"levelo://app?vid=88f0b25b-9fcb-4934-ae2a-80fd3f534b8a","ios":"levelo://app?vid=88f0b25b-9fcb-4934-ae2a-80fd3f534b8a"},"vehicle_type_id":"4","last_reported":1748412965,"current_range_meters":16000,"station_id":"ce4bgrh2rcd13ifvqc8g","pricing_plan_id":"cebpf4jnsgd1na2vs0mg"},{"bike_id":"349e7297-179d-46aa-af73-d0772f15795a","system_id":"levelo_inurba_marseille","lat":43.299891,"lon":5.383821,"is_reserved":false,"is_disabled":false,"rental_uris":{"android":"levelo://app?vid=349e7297-179d-46aa-af73-d0772f15795a","ios":"levelo://app?vid=349e7297-179d-46aa-af73-d0772f15795a"},"vehicle_type_id":"4","last_reported":1748412965,"current_range_meters":16000,"station_id":"","pricing_plan_id":"cebpf4jnsgd1na2vs0mg"},{"bike_id":"355c05bc-611e-4d08-80e7-59db83f6bcd8","system_id":"levelo_inurba_marseille","lat":43.30148,"lon":5.38075,"is_reserved":false,"is_disabled":false,"rental_uris":{"android":"levelo://app?vid=355c05bc-611e-4d08-80e7-59db83f6bcd8","ios":"levelo://app?vid=355c05bc-611e-4d08-80e7-59db83f6bcd8"},"vehicle_type_id":"4","last_reported":1748412965,"current_range_meters":16000,"station_id":"ce4bgjp2rcd13ifvqbh0","pricing_plan_id":"cebpf4jnsgd1na2vs0mg"},{"bike_id":"3b07f020-3d8e-47eb-b723-de46e817e2a3","system_id":"levelo_inurba_marseille","lat":43.29766,"lon":5.38362,"is_reserved":false,"is_disabled":false,"rental_uris":{"android":"levelo://app?vid=3b07f020-3d8e-47eb-b723-de46e817e2a3","ios":"levelo://app?vid=3b07f020-3d8e-47eb-b723-de46e817e2a3"},"vehicle_type_id":"4","last_reported":1748412965,"current_range_meters":16000,"station_id":"","pricing_plan_id":"cebpf4jnsgd1na2vs0mg"},{"bike_id":"3865b0a2-6909-4ea2-b648-0ed5dd91b7a2","system_id":"levelo_inurba_marseille","lat":43.22531,"lon":5.34773,"is_reserved":false,"is_disabled":false,"rental_uris":{"android":"levelo://app?vid=3865b0a2-6909-4ea2-b648-0ed5dd91b7a2","ios":"levelo://app?vid=3865b0a2-6909-4ea2-b648-0ed5dd91b7a2"},"vehicle_type_id":"4","last_reported":1748412965,"current_range_meters":16000,"station_id":"","pricing_plan_id":"cebpf4jnsgd1na2vs0mg"},{"bike_id":"7adbd369-f684-4c09-90a5-6bbf2f150346","system_id":"levelo_inurba_marseille","lat":43.32113,"lon":5.36782,"is_reserved":false,"is_disabled":false,"rental_uris":{"android":"levelo://app?vid=7adbd369-f684-4c09-90a5-6bbf2f150346","ios":"levelo://app?vid=7adbd369-f684-4c09-90a5-6bbf2f150346"},"vehicle_type_id":"4","last_reported":1748412965,"current_range_meters":16000,"station_id":"ce4bhrh2rcd13ifvqhug","pricing_plan_id":"cebpf4jnsgd1na2vs0mg"},{"bike_id":"7907d746-b302-43bb-9f17-838fe24ab47b","system_id":"levelo_inurba_marseille","lat":43.23189,"lon":5.39982,"is_reserved":false,"is_disabled":false,"rental_uris":{"android":"levelo://app?vid=7907d746-b302-43bb-9f17-838fe24ab47b","ios":"levelo://app?vid=7907d746-b302-43bb-9f17-838fe24ab47b"},"vehicle_type_id":"4","last_reported":1748412965,"current_range_meters":16400,"station_id":"ce4bhn12rcd13ifvqgqg","pricing_plan_id":"cebpf4jnsgd1na2vs0mg"},{"bike_id":"052bd2f1-6848-4fc6-9829-fd88b39d5681","system_id":"levelo_inurba_marseille","lat":43.29451,"lon":5.39761,"is_reserved":false,"is_disabled":true,"rental_uris":{"android":"levelo://app?vid=052bd2f1-6848-4fc6-9829-fd88b39d5681","ios":"levelo://app?vid=052bd2f1-6848-4fc6-9829-fd88b39d5681"},"vehicle_type_id":"4","last_reported":1748412965,"current_range_meters":16400,"station_id":"ce4bh3h2rcd13ifvqdo0","pricing_plan_id":"cebpf4jnsgd1na2vs0mg"},{"bike_id":"ef77543b-22de-44af-930a-38e7dfe2d4e6","system_id":"levelo_inurba_marseille","lat":43.23174,"lon":5.40002,"is_reserved":false,"is_disabled":false,"rental_uris":{"android":"levelo://app?vid=ef77543b-22de-44af-930a-38e7dfe2d4e6","ios":"levelo://app?vid=ef77543b-22de-44af-930a-38e7dfe2d4e6"},"vehicle_type_id":"4","last_reported":1748412965,"current_range_meters":16400,"station_id":"ce4bhn12rcd13ifvqgqg","pricing_plan_id":"cebpf4jnsgd1na2vs0mg"},{"bike_id":"b897f6d2-34f6-4c51-8f4c-10b27befa20e","system_id":"levelo_inurba_marseille","lat":43.28734,"lon":5.36095,"is_reserved":false,"is_disabled":false,"rental_uris":{"android":"levelo://app?vid=b897f6d2-34f6-4c51-8f4c-10b27befa20e","ios":"levelo://app?vid=b897f6d2-34f6-4c51-8f4c-10b27befa20e"},"vehicle_type_id":"4","last_reported":1748412965,"current_range_meters":16400,"station_id":"cki0cbj6b192h4jlfktg","pricing_plan_id":"cebpf4jnsgd1na2vs0mg"},{"bike_id":"68189fd1-9866-4843-94ef-6d114f110fbd","system_id":"levelo_inurba_marseille","lat":43.282035,"lon":5.390621,"is_reserved":false,"is_disabled":false,"rental_uris":{"android":"levelo://app?vid=68189fd1-9866-4843-94ef-6d114f110fbd","ios":"levelo://app?vid=68189fd1-9866-4843-94ef-6d114f110fbd"},"vehicle_type_id":"4","last_reported":1748412965,"current_range_meters":16400,"station_id":"","pricing_plan_id":"cebpf4jnsgd1na2vs0mg"},{"bike_id":"feb728f6-ff7e-49c3-867c-23f9d42cae4f","system_id":"levelo_inurba_marseille","lat":43.29545,"lon":5.40032,"is_reserved":false,"is_disabled":false,"rental_uris":{"android":"levelo://app?vid=feb728f6-ff7e-49c3-867c-23f9d42cae4f","ios":"levelo://app?vid=feb728f6-ff7e-49c3-867c-23f9d42cae4f"},"vehicle_type_id":"4","last_reported":1748412965,"current_range_meters":16400,"station_id":"","pricing_plan_id":"cebpf4jnsgd1na2vs0mg"},{"bike_id":"8d43a499-90c2-4c59-a4b4-a02a46725fe4","system_id":"levelo_inurba_marseille","lat":43.34138,"lon":5.40899,"is_reserved":false,"is_disabled":false,"rental_uris":{"android":"levelo://app?vid=8d43a499-90c2-4c59-a4b4-a02a46725fe4","ios":"levelo://app?vid=8d43a499-90c2-4c59-a4b4-a02a46725fe4"},"vehicle_type_id":"4","last_reported":1748412965,"current_range_meters":16400,"station_id":"ce4bhqh2rcd13ifvqhlg","pricing_plan_id":"cebpf4jnsgd1na2vs0mg"},{"bike_id":"eec255ab-7881-41de-a248-bdcd941fadb7","system_id":"levelo_inurba_marseille","lat":43.24519,"lon":5.39519,"is_reserved":false,"is_disabled":false,"rental_uris":{"android":"levelo://app?vid=eec255ab-7881-41de-a248-bdcd941fadb7","ios":"levelo://app?vid=eec255ab-7881-41de-a248-bdcd941fadb7"},"vehicle_type_id":"4","last_reported":1748412965,"current_range_meters":16400,"station_id":"ce4bhlp2rcd13ifvqgjg","pricing_plan_id":"cebpf4jnsgd1na2vs0mg"},{"bike_id":"03eed578-bb19-48fc-b5c7-10358efea5d8","system_id":"levelo_inurba_marseille","lat":43.304219,"lon":5.397546,"is_reserved":false,"is_disabled":false,"rental_uris":{"android":"levelo://app?vid=03eed578-bb19-48fc-b5c7-10358efea5d8","ios":"levelo://app?vid=03eed578-bb19-48fc-b5c7-10358efea5d8"},"vehicle_type_id":"4","last_reported":1748412965,"current_range_meters":16800,"station_id":"ce4bh092rcd13ifvqd20","pricing_plan_id":"cebpf4jnsgd1na2vs0mg"},{"bike_id":"f11c8c21-8746-4ccc-b8b9-45ae12e44444","system_id":"levelo_inurba_marseille","lat":43.287058,"lon":5.374008,"is_reserved":false,"is_disabled":true,"rental_uris":{"android":"levelo://app?vid=f11c8c21-8746-4ccc-b8b9-45ae12e44444","ios":"levelo://app?vid=f11c8c21-8746-4ccc-b8b9-45ae12e44444"},"vehicle_type_id":"4","last_reported":1748412965,"current_range_meters":16800,"station_id":"ce4bh3p2rcd13ifvqdq0","pricing_plan_id":"cebpf4jnsgd1na2vs0mg"},{"bike_id":"57316597-9a7e-4ecc-9b19-7bc22bad6c89","system_id":"levelo_inurba_marseille","lat":43.245452,"lon":5.395383,"is_reserved":false,"is_disabled":false,"rental_uris":{"android":"levelo://app?vid=57316597-9a7e-4ecc-9b19-7bc22bad6c89","ios":"levelo://app?vid=57316597-9a7e-4ecc-9b19-7bc22bad6c89"},"vehicle_type_id":"4","last_reported":1748412965,"current_range_meters":16800,"station_id":"ce4bhlp2rcd13ifvqgjg","pricing_plan_id":"cebpf4jnsgd1na2vs0mg"},{"bike_id":"a75488c8-d532-4e3d-b0ec-8fe9fa4659f5","system_id":"levelo_inurba_marseille","lat":43.28606,"lon":5.37073,"is_reserved":false,"is_disabled":false,"rental_uris":{"android":"levelo://app?vid=a75488c8-d532-4e3d-b0ec-8fe9fa4659f5","ios":"levelo://app?vid=a75488c8-d532-4e3d-b0ec-8fe9fa4659f5"},"vehicle_type_id":"4","last_reported":1748412965,"current_range_meters":16800,"station_id":"ce4bht12rcd13ifvqi60","pricing_plan_id":"cebpf4jnsgd1na2vs0mg"},{"bike_id":"3f0c6b54-40aa-48e5-833c-0829e4db0197","system_id":"levelo_inurba_marseille","lat":43.24396,"lon":5.37051,"is_reserved":false,"is_disabled":false,"rental_uris":{"android":"levelo://app?vid=3f0c6b54-40aa-48e5-833c-0829e4db0197","ios":"levelo://app?vid=3f0c6b54-40aa-48e5-833c-0829e4db0197"},"vehicle_type_id":"4","last_reported":1748412965,"current_range_meters":16800,"station_id":"ce4bhhh2rcd13ifvqfk0","pricing_plan_id":"cebpf4jnsgd1na2vs0mg"},{"bike_id":"346d0b92-6a88-406e-aa8a-ad17740d3370","system_id":"levelo_inurba_marseille","lat":43.30614,"lon":5.38005,"is_reserved":false,"is_disabled":false,"rental_uris":{"android":"levelo://app?vid=346d0b92-6a88-406e-aa8a-ad17740d3370","ios":"levelo://app?vid=346d0b92-6a88-406e-aa8a-ad17740d3370"},"vehicle_type_id":"4","last_reported":1748412965,"current_range_meters":16800,"station_id":"","pricing_plan_id":"cebpf4jnsgd1na2vs0mg"},{"bike_id":"f29e2a7a-3423-468d-aeec-2dc75e3a9186","system_id":"levelo_inurba_marseille","lat":43.28227,"lon":5.39048,"is_reserved":false,"is_disabled":false,"rental_uris":{"android":"levelo://app?vid=f29e2a7a-3423-468d-aeec-2dc75e3a9186","ios":"levelo://app?vid=f29e2a7a-3423-468d-aeec-2dc75e3a9186"},"vehicle_type_id":"4","last_reported":1748412965,"current_range_meters":17200,"station_id":"","pricing_plan_id":"cebpf4jnsgd1na2vs0mg"},{"bike_id":"b2e483d1-8417-49fc-b5d5-da2183f79552","system_id":"levelo_inurba_marseille","lat":43.21745,"lon":5.34613,"is_reserved":false,"is_disabled":false,"rental_uris":{"android":"levelo://app?vid=b2e483d1-8417-49fc-b5d5-da2183f79552","ios":"levelo://app?vid=b2e483d1-8417-49fc-b5d5-da2183f79552"},"vehicle_type_id":"4","last_reported":1748412965,"current_range_meters":17200,"station_id":"st_cvj6r9ubvosntc0bgbag","pricing_plan_id":"cebpf4jnsgd1na2vs0mg"},{"bike_id":"9f96c977-918e-4d59-937c-78e2d60493ee","system_id":"levelo_inurba_marseille","lat":43.27283,"lon":5.41055,"is_reserved":false,"is_disabled":false,"rental_uris":{"android":"levelo://app?vid=9f96c977-918e-4d59-937c-78e2d60493ee","ios":"levelo://app?vid=9f96c977-918e-4d59-937c-78e2d60493ee"},"vehicle_type_id":"4","last_reported":1748412965,"current_range_meters":17200,"station_id":"","pricing_plan_id":"cebpf4jnsgd1na2vs0mg"},{"bike_id":"db0c8ab0-b70e-4a0e-a90b-773b708de0de","system_id":"levelo_inurba_marseille","lat":43.29524,"lon":5.374967,"is_reserved":false,"is_disabled":true,"rental_uris":{"android":"levelo://app?vid=db0c8ab0-b70e-4a0e-a90b-773b708de0de","ios":"levelo://app?vid=db0c8ab0-b70e-4a0e-a90b-773b708de0de"},"vehicle_type_id":"4","last_reported":1748412965,"current_range_meters":17200,"station_id":"ce4bgkp2rcd13ifvqbmg","pricing_plan_id":"cebpf4jnsgd1na2vs0mg"},{"bike_id":"58e50726-299d-4923-905f-f7f097694996","system_id":"levelo_inurba_marseille","lat":43.25075,"lon":5.39514,"is_reserved":false,"is_disabled":false,"rental_uris":{"android":"levelo://app?vid=58e50726-299d-4923-905f-f7f097694996","ios":"levelo://app?vid=58e50726-299d-4923-905f-f7f097694996"},"vehicle_type_id":"4","last_reported":1748412965,"current_range_meters":17200,"station_id":"ce4bhm12rcd13ifvqgkg","pricing_plan_id":"cebpf4jnsgd1na2vs0mg"},{"bike_id":"f44edfce-7f89-4ad7-a7ff-c30b290bcdf4","system_id":"levelo_inurba_marseille","lat":43.29972,"lon":5.38526,"is_reserved":false,"is_disabled":false,"rental_uris":{"android":"levelo://app?vid=f44edfce-7f89-4ad7-a7ff-c30b290bcdf4","ios":"levelo://app?vid=f44edfce-7f89-4ad7-a7ff-c30b290bcdf4"},"vehicle_type_id":"4","last_reported":1748412965,"current_range_meters":17200,"station_id":"ce4bgj92rcd13ifvqbd0","pricing_plan_id":"cebpf4jnsgd1na2vs0mg"},{"bike_id":"3657a276-039a-449b-96aa-6774a7dfb604","system_id":"levelo_inurba_marseille","lat":43.304573,"lon":5.378852,"is_reserved":false,"is_disabled":false,"rental_uris":{"android":"levelo://app?vid=3657a276-039a-449b-96aa-6774a7dfb604","ios":"levelo://app?vid=3657a276-039a-449b-96aa-6774a7dfb604"},"vehicle_type_id":"4","last_reported":1748412965,"current_range_meters":17200,"station_id":"ce4bgup2rcd13ifvqcn0","pricing_plan_id":"cebpf4jnsgd1na2vs0mg"},{"bike_id":"dc6971fa-d35f-4d71-8e25-6579263133c8","system_id":"levelo_inurba_marseille","lat":43.3106,"lon":5.38352,"is_reserved":false,"is_disabled":false,"rental_uris":{"android":"levelo://app?vid=dc6971fa-d35f-4d71-8e25-6579263133c8","ios":"levelo://app?vid=dc6971fa-d35f-4d71-8e25-6579263133c8"},"vehicle_type_id":"4","last_reported":1748412965,"current_range_meters":17200,"station_id":"ce4bgv92rcd13ifvqcr0","pricing_plan_id":"cebpf4jnsgd1na2vs0mg"},{"bike_id":"c06fca89-0053-4526-bf0e-39603aea1bf2","system_id":"levelo_inurba_marseille","lat":43.33018,"lon":5.39043,"is_reserved":false,"is_disabled":false,"rental_uris":{"android":"levelo://app?vid=c06fca89-0053-4526-bf0e-39603aea1bf2","ios":"levelo://app?vid=c06fca89-0053-4526-bf0e-39603aea1bf2"},"vehicle_type_id":"4","last_reported":1748412965,"current_range_meters":17600,"station_id":"ce4bhr92rcd13ifvqhrg","pricing_plan_id":"cebpf4jnsgd1na2vs0mg"},{"bike_id":"39a043e6-fc15-4a52-9fda-ec07dffbe013","system_id":"levelo_inurba_marseille","lat":43.3432,"lon":5.34803,"is_reserved":false,"is_disabled":false,"rental_uris":{"android":"levelo://app?vid=39a043e6-fc15-4a52-9fda-ec07dffbe013","ios":"levelo://app?vid=39a043e6-fc15-4a52-9fda-ec07dffbe013"},"vehicle_type_id":"4","last_reported":1748412965,"current_range_meters":17600,"station_id":"","pricing_plan_id":"cebpf4jnsgd1na2vs0mg"},{"bike_id":"5575dfde-2c45-4a53-b989-21c54cc4aae5","system_id":"levelo_inurba_marseille","lat":43.25931,"lon":5.40908,"is_reserved":false,"is_disabled":false,"rental_uris":{"android":"levelo://app?vid=5575dfde-2c45-4a53-b989-21c54cc4aae5","ios":"levelo://app?vid=5575dfde-2c45-4a53-b989-21c54cc4aae5"},"vehicle_type_id":"4","last_reported":1748412965,"current_range_meters":17600,"station_id":"ce4bhm92rcd13ifvqglg","pricing_plan_id":"cebpf4jnsgd1na2vs0mg"},{"bike_id":"adf8d08c-1d43-4f68-86f5-b38ccdc9a3d7","system_id":"levelo_inurba_marseille","lat":43.27493,"lon":5.42459,"is_reserved":false,"is_disabled":false,"rental_uris":{"android":"levelo://app?vid=adf8d08c-1d43-4f68-86f5-b38ccdc9a3d7","ios":"levelo://app?vid=adf8d08c-1d43-4f68-86f5-b38ccdc9a3d7"},"vehicle_type_id":"4","last_reported":1748412965,"current_range_meters":17600,"station_id":"ce4bhn92rcd13ifvqgrg","pricing_plan_id":"cebpf4jnsgd1na2vs0mg"},{"bike_id":"8a4345de-616e-48d5-aec8-e76de4677610","system_id":"levelo_inurba_marseille","lat":43.29289,"lon":5.4014,"is_reserved":false,"is_disabled":false,"rental_uris":{"android":"levelo://app?vid=8a4345de-616e-48d5-aec8-e76de4677610","ios":"levelo://app?vid=8a4345de-616e-48d5-aec8-e76de4677610"},"vehicle_type_id":"4","last_reported":1748412965,"current_range_meters":17600,"station_id":"ce4bh312rcd13ifvqdk0","pricing_plan_id":"cebpf4jnsgd1na2vs0mg"},{"bike_id":"729bf32d-a297-4a8a-8ed9-08e94bf819b6","system_id":"levelo_inurba_marseille","lat":43.30741,"lon":5.42433,"is_reserved":false,"is_disabled":false,"rental_uris":{"android":"levelo://app?vid=729bf32d-a297-4a8a-8ed9-08e94bf819b6","ios":"levelo://app?vid=729bf32d-a297-4a8a-8ed9-08e94bf819b6"},"vehicle_type_id":"4","last_reported":1748412965,"current_range_meters":17600,"station_id":"st_cvj6ca6bvosntc0bfgr0","pricing_plan_id":"cebpf4jnsgd1na2vs0mg"},{"bike_id":"fdabacba-03d4-4143-8295-cf115e9b0c02","system_id":"levelo_inurba_marseille","lat":43.31679,"lon":5.38929,"is_reserved":false,"is_disabled":false,"rental_uris":{"android":"levelo://app?vid=fdabacba-03d4-4143-8295-cf115e9b0c02","ios":"levelo://app?vid=fdabacba-03d4-4143-8295-cf115e9b0c02"},"vehicle_type_id":"4","last_reported":1748412965,"current_range_meters":17600,"station_id":"","pricing_plan_id":"cebpf4jnsgd1na2vs0mg"},{"bike_id":"7c446326-f0fc-4f7e-8acf-bacf39509c17","system_id":"levelo_inurba_marseille","lat":43.2926,"lon":5.37624,"is_reserved":false,"is_disabled":false,"rental_uris":{"android":"levelo://app?vid=7c446326-f0fc-4f7e-8acf-bacf39509c17","ios":"levelo://app?vid=7c446326-f0fc-4f7e-8acf-bacf39509c17"},"vehicle_type_id":"4","last_reported":1748412965,"current_range_meters":17600,"station_id":"ce4bgi12rcd13ifvqb80","pricing_plan_id":"cebpf4jnsgd1na2vs0mg"},{"bike_id":"7c419608-bcc8-431f-b2a5-1ee1d6ac3be4","system_id":"levelo_inurba_marseille","lat":43.2511,"lon":5.40324,"is_reserved":false,"is_disabled":false,"rental_uris":{"android":"levelo://app?vid=7c419608-bcc8-431f-b2a5-1ee1d6ac3be4","ios":"levelo://app?vid=7c419608-bcc8-431f-b2a5-1ee1d6ac3be4"},"vehicle_type_id":"4","last_reported":1748412965,"current_range_meters":17600,"station_id":"ce4bhlh2rcd13ifvqgig","pricing_plan_id":"cebpf4jnsgd1na2vs0mg"},{"bike_id":"ff8f28bc-f6fd-4682-9705-5ce355ece96b","system_id":"levelo_inurba_marseille","lat":43.30262,"lon":5.40065,"is_reserved":false,"is_disabled":false,"rental_uris":{"android":"levelo://app?vid=ff8f28bc-f6fd-4682-9705-5ce355ece96b","ios":"levelo://app?vid=ff8f28bc-f6fd-4682-9705-5ce355ece96b"},"vehicle_type_id":"4","last_reported":1748412965,"current_range_meters":17600,"station_id":"ce4bgvh2rcd13ifvqcs0","pricing_plan_id":"cebpf4jnsgd1na2vs0mg"},{"bike_id":"ca260ded-c7c2-47f8-8e09-8a74dcde0f9c","system_id":"levelo_inurba_marseille","lat":43.323214,"lon":5.38295,"is_reserved":false,"is_disabled":false,"rental_uris":{"android":"levelo://app?vid=ca260ded-c7c2-47f8-8e09-8a74dcde0f9c","ios":"levelo://app?vid=ca260ded-c7c2-47f8-8e09-8a74dcde0f9c"},"vehicle_type_id":"4","last_reported":1748412965,"current_range_meters":17600,"station_id":"ce4bhr12rcd13ifvqhqg","pricing_plan_id":"cebpf4jnsgd1na2vs0mg"},{"bike_id":"79b90bfd-967a-4279-a02a-691b84307985","system_id":"levelo_inurba_marseille","lat":43.302987,"lon":5.368877,"is_reserved":false,"is_disabled":false,"rental_uris":{"android":"levelo://app?vid=79b90bfd-967a-4279-a02a-691b84307985","ios":"levelo://app?vid=79b90bfd-967a-4279-a02a-691b84307985"},"vehicle_type_id":"4","last_reported":1748412965,"current_range_meters":18000,"station_id":"ce4bgqh2rcd13ifvqc5g","pricing_plan_id":"cebpf4jnsgd1na2vs0mg"},{"bike_id":"ed444645-571b-49e7-b08c-c00807d341e2","system_id":"levelo_inurba_marseille","lat":43.28489,"lon":5.38561,"is_reserved":false,"is_disabled":false,"rental_uris":{"android":"levelo://app?vid=ed444645-571b-49e7-b08c-c00807d341e2","ios":"levelo://app?vid=ed444645-571b-49e7-b08c-c00807d341e2"},"vehicle_type_id":"4","last_reported":1748412965,"current_range_meters":18000,"station_id":"ce4bh8p2rcd13ifvqeb0","pricing_plan_id":"cebpf4jnsgd1na2vs0mg"},{"bike_id":"9ae8cfd0-969f-4b0e-860c-ce7b2bc9c96b","system_id":"levelo_inurba_marseille","lat":43.29835,"lon":5.36269,"is_reserved":false,"is_disabled":false,"rental_uris":{"android":"levelo://app?vid=9ae8cfd0-969f-4b0e-860c-ce7b2bc9c96b","ios":"levelo://app?vid=9ae8cfd0-969f-4b0e-860c-ce7b2bc9c96b"},"vehicle_type_id":"4","last_reported":1748412965,"current_range_meters":18000,"station_id":"ce4bgpp2rcd13ifvqc3g","pricing_plan_id":"cebpf4jnsgd1na2vs0mg"},{"bike_id":"61590f09-834e-4eb6-9ba3-616fa85c9926","system_id":"levelo_inurba_marseille","lat":43.305955,"lon":5.39342,"is_reserved":false,"is_disabled":false,"rental_uris":{"android":"levelo://app?vid=61590f09-834e-4eb6-9ba3-616fa85c9926","ios":"levelo://app?vid=61590f09-834e-4eb6-9ba3-616fa85c9926"},"vehicle_type_id":"4","last_reported":1748412965,"current_range_meters":18000,"station_id":"ce4bh0p2rcd13ifvqd80","pricing_plan_id":"cebpf4jnsgd1na2vs0mg"},