{"last_updated":1726765695,"ttl":30,"version":"2.2","data":{"bikes":[{"bike_id":"56cb1988-42ff-487b-82e2-58bf4b235dc0","system_id":"levelo_inurba_marseille","lat":43.28271,"lon":5.35076,"is_reserved":false,"is_disabled":false,"rental_uris":{"android":"levelo://app?vid=56cb1988-42ff-487b-82e2-58bf4b235dc0","ios":"levelo://app?vid=56cb1988-42ff-487b-82e2-58bf4b235dc0"},"vehicle_type_id":"4","last_reported":1726765695,"current_range_meters":39200,"station_id":"ce4bhbp2rcd13ifvqerg","pricing_plan_id":"cebpf4jnsgd1na2vs0mg"},{"bike_id":"eff80caa-ad27-410f-ae1b-bd64887d6ba2","system_id":"levelo_inurba_marseille","lat":43.27176,"lon":5.40995,"is_reserved":false,"is_disabled":false,"rental_uris":{"android":"levelo://app?vid=eff80caa-ad27-410f-ae1b-bd64887d6ba2","ios":"levelo://app?vid=eff80caa-ad27-410f-ae1b-bd64887d6ba2"},"vehicle_type_id":"4","last_reported":1726765695,"current_range_meters":12400,"station_id":"ce4bhl12rcd13ifvqgf0","pricing_plan_id":"cebpf4jnsgd1na2vs0mg"},{"bike_id":"051a64c7-9af5-4a0c-aa5b-cf724df48b00","system_id":"levelo_inurba_marseille","lat":43.28461,"lon":5.35887,"is_reserved":false,"is_disabled":false,"rental_uris":{"android":"levelo://app?vid=051a64c7-9af5-4a0c-aa5b-cf724df48b00","ios":"levelo://app?vid=051a64c7-9af5-4a0c-aa5b-cf724df48b00"},"vehicle_type_id":"4","last_reported":1726765695,"current_range_meters":11200,"station_id":"ce4bhah2rcd13ifvqei0","pricing_plan_id":"cebpf4jnsgd1na2vs0mg"},{"bike_id":"b80b7257-8c3b-4fde-8b40-122ad24c219d","system_id":"levelo_inurba_marseille","lat":43.29869,"lon":5.39732,"is_reserved":false,"is_disabled":false,"rental_uris":{"android":"levelo://app?vid=b80b7257-8c3b-4fde-8b40-122ad24c219d","ios":"levelo://app?vid=b80b7257-8c3b-4fde-8b40-122ad24c219d"},"vehicle_type_id":"4","last_reported":1726765695,"current_range_meters":39200,"station_id":"ce4bh0h2rcd13ifvqd50","pricing_plan_id":"cebpf4jnsgd1na2vs0mg"},{"bike_id":"52feebfb-c901-4ce2-a23a-acb1749260b1","system_id":"levelo_inurba_marseille","lat":43.26686,"lon":5.38272,"is_reserved":false,"is_disabled":false,"rental_uris":{"android":"levelo://app?vid=52feebfb-c901-4ce2-a23a-acb1749260b1","ios":"levelo://app?vid=52feebfb-c901-4ce2-a23a-acb1749260b1"},"vehicle_type_id":"4","last_reported":1726765695,"current_range_meters":11200,"station_id":"ce4bhg92rcd13ifvqf90","pricing_plan_id":"cebpf4jnsgd1na2vs0mg"},{"bike_id":"ff630689-2c2f-4c7b-98b2-c2f72df33da6","system_id":"levelo_inurba_marseille","lat":43.31467,"lon":5.39218,"is_reserved":false,"is_disabled":false,"rental_uris":{"android":"levelo://app?vid=ff630689-2c2f-4c7b-98b2-c2f72df33da6","ios":"levelo://app?vid=ff630689-2c2f-4c7b-98b2-c2f72df33da6"},"vehicle_type_id":"4","last_reported":1726765695,"current_range_meters":9600,"station_id":"","pricing_plan_id":"cebpf4jnsgd1na2vs0mg"},{"bike_id":"e532fd53-ad12-4848-82ea-70ac934c1c37","system_id":"levelo_inurba_marseille","lat":43.3375,"lon":5.37446,"is_reserved":false,"is_disabled":false,"rental_uris":{"android":"levelo://app?vid=e532fd53-ad12-4848-82ea-70ac934c1c37","ios":"levelo://app?vid=e532fd53-ad12-4848-82ea-70ac934c1c37"},"vehicle_type_id":"4","last_reported":1726765695,"current_range_meters":36800,"station_id":"","pricing_plan_id":"cebpf4jnsgd1na2vs0mg"},{"bike_id":"de2068b0-3fd2-49e4-b4e2-6c914c4321bb","system_id":"levelo_inurba_marseille","lat":43.30208,"lon":5.39472,"is_reserved":false,"is_disabled":false,"rental_uris":{"android":"levelo://app?vid=de2068b0-3fd2-49e4-b4e2-6c914c4321bb","ios":"levelo://app?vid=de2068b0-3fd2-49e4-b4e2-6c914c4321bb"},"vehicle_type_id":"4","last_reported":1726765695,"current_range_meters":8800,"station_id":"ce4bh0p2rcd13ifvqd70","pricing_plan_id":"cebpf4jnsgd1na2vs0mg"},{"bike_id":"8ceaecc8-718f-4488-8932-de6cb7c7ec9e","system_id":"levelo_inurba_marseille","lat":43.26808,"lon":5.40277,"is_reserved":false,"is_disabled":false,"rental_uris":{"android":"levelo://app?vid=8ceaecc8-718f-4488-8932-de6cb7c7ec9e","ios":"levelo://app?vid=8ceaecc8-718f-4488-8932-de6cb7c7ec9e"},"vehicle_type_id":"4","last_reported":1726765695,"current_range_meters":31200,"station_id":"ce501612rcd8frsf0b60","pricing_plan_id":"cebpf4jnsgd1na2vs0mg"},{"bike_id":"4c234c08-0b65-41a3-a53d-ebecf586d96b","system_id":"levelo_inurba_marseille","lat":43.29004,"lon":5.35602,"is_reserved":false,"is_disabled":false,"rental_uris":{"android":"levelo://app?vid=4c234c08-0b65-41a3-a53d-ebecf586d96b","ios":"levelo://app?vid=4c234c08-0b65-41a3-a53d-ebecf586d96b"},"vehicle_type_id":"4","last_reported":1726765695,"current_range_meters":32000,"station_id":"ce4bhb92rcd13ifvqen0","pricing_plan_id":"cebpf4jnsgd1na2vs0mg"},{"bike_id":"108573da-c24a-438a-b2f7-17657d029314","system_id":"levelo_inurba_marseille","lat":43.29957,"lon":5.41315,"is_reserved":false,"is_disabled":false,"rental_uris":{"android":"levelo://app?vid=108573da-c24a-438a-b2f7-17657d029314","ios":"levelo://app?vid=108573da-c24a-438a-b2f7-17657d029314"},"vehicle_type_id":"4","last_reported":1726765695,"current_range_meters":21600,"station_id":"ce4bhp12rcd13ifvqh9g","pricing_plan_id":"cebpf4jnsgd1na2vs0mg"},{"bike_id":"5380c786-885c-4c39-9970-2cbce93122ea","system_id":"levelo_inurba_marseille","lat":43.27619,"lon":5.36107,"is_reserved":false,"is_disabled":false,"rental_uris":{"android":"levelo://app?vid=5380c786-885c-4c39-9970-2cbce93122ea","ios":"levelo://app?vid=5380c786-885c-4c39-9970-2cbce93122ea"},"vehicle_type_id":"4","last_reported":1726765695,"current_range_meters":12400,"station_id":"ce4bgj92rcd13ifvqbe0","pricing_plan_id":"cebpf4jnsgd1na2vs0mg"},{"bike_id":"152e4758-d0ed-4bc0-a395-992e9770d302","system_id":"levelo_inurba_marseille","lat":43.29634,"lon":5.40584,"is_reserved":false,"is_disabled":false,"rental_uris":{"android":"levelo://app?vid=152e4758-d0ed-4bc0-a395-992e9770d302","ios":"levelo://app?vid=152e4758-d0ed-4bc0-a395-992e9770d302"},"vehicle_type_id":"4","last_reported":1726765695,"current_range_meters":37600,"station_id":"ce4bh0h2rcd13ifvqd60","pricing_plan_id":"cebpf4jnsgd1na2vs0mg"},{"bike_id":"998833f8-1694-4a45-a617-634099067338","system_id":"levelo_inurba_marseille","lat":43.2848,"lon":5.38423,"is_reserved":false,"is_disabled":false,"rental_uris":{"android":"levelo://app?vid=998833f8-1694-4a45-a617-634099067338","ios":"levelo://app?vid=998833f8-1694-4a45-a617-634099067338"},"vehicle_type_id":"4","last_reported":1726765695,"current_range_meters":16000,"station_id":"ce4bh512rcd13ifvqe3g","pricing_plan_id":"cebpf4jnsgd1na2vs0mg"},{"bike_id":"0ee2e5c9-a1b3-445f-add6-54ec10496815","system_id":"levelo_inurba_marseille","lat":43.284411,"lon":5.392015,"is_reserved":false,"is_disabled":false,"rental_uris":{"android":"levelo://app?vid=0ee2e5c9-a1b3-445f-add6-54ec10496815","ios":"levelo://app?vid=0ee2e5c9-a1b3-445f-add6-54ec10496815"},"vehicle_type_id":"4","last_reported":1726765695,"current_range_meters":27200,"station_id":"ce4bhoh2rcd13ifvqh5g","pricing_plan_id":"cebpf4jnsgd1na2vs0mg"},{"bike_id":"06eef320-c2b1-42ca-bda3-e896022e4f06","system_id":"levelo_inurba_marseille","lat":43.30821,"lon":5.42454,"is_reserved":false,"is_disabled":false,"rental_uris":{"android":"levelo://app?vid=06eef320-c2b1-42ca-bda3-e896022e4f06","ios":"levelo://app?vid=06eef320-c2b1-42ca-bda3-e896022e4f06"},"vehicle_type_id":"4","last_reported":1726765695,"current_range_meters":18800,"station_id":"ce4bhk92rcd13ifvqgb0","pricing_plan_id":"cebpf4jnsgd1na2vs0mg"},{"bike_id":"ab9d7689-d4dd-481b-b461-e57fcd3356e0","system_id":"levelo_inurba_marseille","lat":43.28348,"lon":5.38101,"is_reserved":false,"is_disabled":false,"rental_uris":{"android":"levelo://app?vid=ab9d7689-d4dd-481b-b461-e57fcd3356e0","ios":"levelo://app?vid=ab9d7689-d4dd-481b-b461-e57fcd3356e0"},"vehicle_type_id":"4","last_reported":1726765695,"current_range_meters":17600,"station_id":"ce4bh412rcd13ifvqdr0","pricing_plan_id":"cebpf4jnsgd1na2vs0mg"},{"bike_id":"1d56163c-7e11-4210-9347-2b639a2d94db","system_id":"levelo_inurba_marseille","lat":43.25006,"lon":5.38927,"is_reserved":false,"is_disabled":false,"rental_uris":{"android":"levelo://app?vid=1d56163c-7e11-4210-9347-2b639a2d94db","ios":"levelo://app?vid=1d56163c-7e11-4210-9347-2b639a2d94db"},"vehicle_type_id":"4","last_reported":1726765695,"current_range_meters":39200,"station_id":"ce4bhgp2rcd13ifvqfd0","pricing_plan_id":"cebpf4jnsgd1na2vs0mg"},{"bike_id":"ec6bf858-7d7f-4d9d-958e-d0099ab74ec9","system_id":"levelo_inurba_marseille","lat":43.29912,"lon":5.37477,"is_reserved":false,"is_disabled":false,"rental_uris":{"android":"levelo://app?vid=ec6bf858-7d7f-4d9d-958e-d0099ab74ec9","ios":"levelo://app?vid=ec6bf858-7d7f-4d9d-958e-d0099ab74ec9"},"vehicle_type_id":"4","last_reported":1726765695,"current_range_meters":33600,"station_id":"ce4bgjh2rcd13ifvqbg0","pricing_plan_id":"cebpf4jnsgd1na2vs0mg"},{"bike_id":"99225314-09be-4ea5-95db-8cf185f956c8","system_id":"levelo_inurba_marseille","lat":43.33718,"lon":5.39183,"is_reserved":false,"is_disabled":false,"rental_uris":{"android":"levelo://app?vid=99225314-09be-4ea5-95db-8cf185f956c8","ios":"levelo://app?vid=99225314-09be-4ea5-95db-8cf185f956c8"},"vehicle_type_id":"4","last_reported":1726765695,"current_range_meters":17600,"station_id":"ce4bhr92rcd13ifvqhsg","pricing_plan_id":"cebpf4jnsgd1na2vs0mg"},{"bike_id":"97355ced-7241-49ac-b111-fd906a41997c","system_id":"levelo_inurba_marseille","lat":43.30197,"lon":5.36886,"is_reserved":false,"is_disabled":false,"rental_uris":{"android":"levelo://app?vid=97355ced-7241-49ac-b111-fd906a41997c","ios":"levelo://app?vid=97355ced-7241-49ac-b111-fd906a41997c"},"vehicle_type_id":"4","last_reported":1726765695,"current_range_meters":6400,"station_id":"","pricing_plan_id":"cebpf4jnsgd1na2vs0mg"},{"bike_id":"3ddc290e-5a67-453f-a356-251b8cb031fe","system_id":"levelo_inurba_marseille","lat":43.3248,"lon":5.36569,"is_reserved":false,"is_disabled":false,"rental_uris":{"android":"levelo://app?vid=3ddc290e-5a67-453f-a356-251b8cb031fe","ios":"levelo://app?vid=3ddc290e-5a67-453f-a356-251b8cb031fe"},"vehicle_type_id":"4","last_reported":1726765695,"current_range_meters":4400,"station_id":"ce4bhs12rcd13ifvqhvg","pricing_plan_id":"cebpf4jnsgd1na2vs0mg"},{"bike_id":"1bcdb92b-8824-41cd-b6cf-d0ee92f5a1da","system_id":"levelo_inurba_marseille","lat":43.28035,"lon":5.3695,"is_reserved":false,"is_disabled":false,"rental_uris":{"android":"levelo://app?vid=1bcdb92b-8824-41cd-b6cf-d0ee92f5a1da","ios":"levelo://app?vid=1bcdb92b-8824-41cd-b6cf-d0ee92f5a1da"},"vehicle_type_id":"4","last_reported":1726765695,"current_range_meters":19200,"station_id":"ce4bha12rcd13ifvqef0","pricing_plan_id":"cebpf4jnsgd1na2vs0mg"},{"bike_id":"04394a73-34a5-4d88-bac1-80c0695aafe5","system_id":"levelo_inurba_marseille","lat":43.337444,"lon":5.374475,"is_reserved":false,"is_disabled":false,"rental_uris":{"android":"levelo://app?vid=04394a73-34a5-4d88-bac1-80c0695aafe5","ios":"levelo://app?vid=04394a73-34a5-4d88-bac1-80c0695aafe5"},"vehicle_type_id":"4","last_reported":1726765695,"current_range_meters":23200,"station_id":"","pricing_plan_id":"cebpf4jnsgd1na2vs0mg"},{"bike_id":"a3130f55-10b5-4350-bc94-55c37c1c2f4c","system_id":"levelo_inurba_marseille","lat":43.23061,"lon":5.35494,"is_reserved":false,"is_disabled":false,"rental_uris":{"android":"levelo://app?vid=a3130f55-10b5-4350-bc94-55c37c1c2f4c","ios":"levelo://app?vid=a3130f55-10b5-4350-bc94-55c37c1c2f4c"},"vehicle_type_id":"4","last_reported":1726765695,"current_range_meters":16000,"station_id":"cpo3342slgdg3j2ifvpg","pricing_plan_id":"cebpf4jnsgd1na2vs0mg"},{"bike_id":"036ab25f-0c34-4c45-8e88-1fc9200da6fd","system_id":"levelo_inurba_marseille","lat":43.27183,"lon":5.42696,"is_reserved":false,"is_disabled":false,"rental_uris":{"android":"levelo://app?vid=036ab25f-0c34-4c45-8e88-1fc9200da6fd","ios":"levelo://app?vid=036ab25f-0c34-4c45-8e88-1fc9200da6fd"},"vehicle_type_id":"4","last_reported":1726765695,"current_range_meters":29600,"station_id":"","pricing_plan_id":"cebpf4jnsgd1na2vs0mg"},{"bike_id":"298ac1dc-024a-45f9-bee5-67e6e0d001f8","system_id":"levelo_inurba_marseille","lat":43.32289,"lon":5.3827,"is_reserved":false,"is_disabled":false,"rental_uris":{"android":"levelo://app?vid=298ac1dc-024a-45f9-bee5-67e6e0d001f8","ios":"levelo://app?vid=298ac1dc-024a-45f9-bee5-67e6e0d001f8"},"vehicle_type_id":"4","last_reported":1726765695,"current_range_meters":32000,"station_id":"ce4bhr12rcd13ifvqhqg","pricing_plan_id":"cebpf4jnsgd1na2vs0mg"},{"bike_id":"a838de12-e108-45b5-ba92-bb02096cb293","system_id":"levelo_inurba_marseille","lat":43.248133,"lon":5.3746,"is_reserved":false,"is_disabled":false,"rental_uris":{"android":"levelo://app?vid=a838de12-e108-45b5-ba92-bb02096cb293","ios":"levelo://app?vid=a838de12-e108-45b5-ba92-bb02096cb293"},"vehicle_type_id":"4","last_reported":1726765695,"current_range_meters":31200,"station_id":"ce4bgph2rcd13ifvqc2g","pricing_plan_id":"cebpf4jnsgd1na2vs0mg"},{"bike_id":"9c3e0259-8511-49f2-badc-b682a8b9d9e8","system_id":"levelo_inurba_marseille","lat":43.29203,"lon":5.393307,"is_reserved":false,"is_disabled":false,"rental_uris":{"android":"levelo://app?vid=9c3e0259-8511-49f2-badc-b682a8b9d9e8","ios":"levelo://app?vid=9c3e0259-8511-49f2-badc-b682a8b9d9e8"},"vehicle_type_id":"4","last_reported":1726765695,"current_range_meters":32800,"station_id":"ce4bh192rcd13ifvqdd0","pricing_plan_id":"cebpf4jnsgd1na2vs0mg"},{"bike_id":"8622a32f-0047-4d93-b442-6cffd5a7ab58","system_id":"levelo_inurba_marseille","lat":43.27795,"lon":5.36249,"is_reserved":false,"is_disabled":false,"rental_uris":{"android":"levelo://app?vid=8622a32f-0047-4d93-b442-6cffd5a7ab58","ios":"levelo://app?vid=8622a32f-0047-4d93-b442-6cffd5a7ab58"},"vehicle_type_id":"4","last_reported":1726765695,"current_range_meters":8800,"station_id":"ce4bgj92rcd13ifvqbe0","pricing_plan_id":"cebpf4jnsgd1na2vs0mg"},{"bike_id":"5a661f66-5133-4896-9127-0ed04e2e95ec","system_id":"levelo_inurba_marseille","lat":43.28271,"lon":5.35078,"is_reserved":false,"is_disabled":false,"rental_uris":{"android":"levelo://app?vid=5a661f66-5133-4896-9127-0ed04e2e95ec","ios":"levelo://app?vid=5a661f66-5133-4896-9127-0ed04e2e95ec"},"vehicle_type_id":"4","last_reported":1726765695,"current_range_meters":39200,"station_id":"ce4bhbp2rcd13ifvqerg","pricing_plan_id":"cebpf4jnsgd1na2vs0mg"},{"bike_id":"e3edff7b-245a-4677-b07c-d84ccac0f9d7","system_id":"levelo_inurba_marseille","lat":43.29626,"lon":5.4059,"is_reserved":false,"is_disabled":false,"rental_uris":{"android":"levelo://app?vid=e3edff7b-245a-4677-b07c-d84ccac0f9d7","ios":"levelo://app?vid=e3edff7b-245a-4677-b07c-d84ccac0f9d7"},"vehicle_type_id":"4","last_reported":1726765695,"current_range_meters":16400,"station_id":"ce4bh0h2rcd13ifvqd60","pricing_plan_id":"cebpf4jnsgd1na2vs0mg"},{"bike_id":"53bae7c5-1b34-45d2-b215-b1b48b8d9579","system_id":"levelo_inurba_marseille","lat":43.29265,"lon":5.38452,"is_reserved":false,"is_disabled":false,"rental_uris":{"android":"levelo://app?vid=53bae7c5-1b34-45d2-b215-b1b48b8d9579","ios":"levelo://app?vid=53bae7c5-1b34-45d2-b215-b1b48b8d9579"},"vehicle_type_id":"4","last_reported":1726765695,"current_range_meters":30400,"station_id":"ce4bh692rcd13ifvqea0","pricing_plan_id":"cebpf4jnsgd1na2vs0mg"},{"bike_id":"9e156983-d432-429a-9bb7-a90939de2084","system_id":"levelo_inurba_marseille","lat":43.28267,"lon":5.35061,"is_reserved":false,"is_disabled":false,"rental_uris":{"android":"levelo://app?vid=9e156983-d432-429a-9bb7-a90939de2084","ios":"levelo://app?vid=9e156983-d432-429a-9bb7-a90939de2084"},"vehicle_type_id":"4","last_reported":1726765695,"current_range_meters":25600,"station_id":"ce4bhbp2rcd13ifvqerg","pricing_plan_id":"cebpf4jnsgd1na2vs0mg"},{"bike_id":"19198040-ee52-4dcc-a2c3-912177f3cd92","system_id":"levelo_inurba_marseille","lat":43.29554,"lon":5.42295,"is_reserved":false,"is_disabled":false,"rental_uris":{"android":"levelo://app?vid=19198040-ee52-4dcc-a2c3-912177f3cd92","ios":"levelo://app?vid=19198040-ee52-4dcc-a2c3-912177f3cd92"},"vehicle_type_id":"4","last_reported":1726765695,"current_range_meters":38800,"station_id":"ce4bhph2rcd13ifvqhdg","pricing_plan_id":"cebpf4jnsgd1na2vs0mg"},{"bike_id":"c79075d4-2ee0-4eae-89b7-3a23f09d4267","system_id":"levelo_inurba_marseille","lat":43.297974,"lon":5.435772,"is_reserved":false,"is_disabled":false,"rental_uris":{"android":"levelo://app?vid=c79075d4-2ee0-4eae-89b7-3a23f09d4267","ios":"levelo://app?vid=c79075d4-2ee0-4eae-89b7-3a23f09d4267"},"vehicle_type_id":"4","last_reported":1726765695,"current_range_meters":28800,"station_id":"","pricing_plan_id":"cebpf4jnsgd1na2vs0mg"},{"bike_id":"ee67f55b-1ea2-417a-87a8-b26a4ad3a04b","system_id":"levelo_inurba_marseille","lat":43.28869,"lon":5.35863,"is_reserved":false,"is_disabled":false,"rental_uris":{"android":"levelo://app?vid=ee67f55b-1ea2-417a-87a8-b26a4ad3a04b","ios":"levelo://app?vid=ee67f55b-1ea2-417a-87a8-b26a4ad3a04b"},"vehicle_type_id":"4","last_reported":1726765695,"current_range_meters":35200,"station_id":"ce4bhb12rcd13ifvqem0","pricing_plan_id":"cebpf4jnsgd1na2vs0mg"},{"bike_id":"729761aa-4b28-4e24-a501-c274f93a847c","system_id":"levelo_inurba_marseille","lat":43.296234,"lon":5.373931,"is_reserved":false,"is_disabled":false,"rental_uris":{"android":"levelo://app?vid=729761aa-4b28-4e24-a501-c274f93a847c","ios":"levelo://app?vid=729761aa-4b28-4e24-a501-c274f93a847c"},"vehicle_type_id":"4","last_reported":1726765695,"current_range_meters":28000,"station_id":"","pricing_plan_id":"cebpf4jnsgd1na2vs0mg"},{"bike_id":"9bbb5844-8686-42cc-a24c-d26e1d544346","system_id":"levelo_inurba_marseille","lat":43.296017,"lon":5.405985,"is_reserved":false,"is_disabled":false,"rental_uris":{"android":"levelo://app?vid=9bbb5844-8686-42cc-a24c-d26e1d544346","ios":"levelo://app?vid=9bbb5844-8686-42cc-a24c-d26e1d544346"},"vehicle_type_id":"4","last_reported":1726765695,"current_range_meters":16400,"station_id":"ce4bh0h2rcd13ifvqd60","pricing_plan_id":"cebpf4jnsgd1na2vs0mg"},{"bike_id":"1d4dce81-26c9-4e90-9512-73a77179f3d4","system_id":"levelo_inurba_marseille","lat":43.2318,"lon":5.39987,"is_reserved":false,"is_disabled":false,"rental_uris":{"android":"levelo://app?vid=1d4dce81-26c9-4e90-9512-73a77179f3d4","ios":"levelo://app?vid=1d4dce81-26c9-4e90-9512-73a77179f3d4"},"vehicle_type_id":"4","last_reported":1726765695,"current_range_meters":17200,"station_id":"ce4bhn12rcd13ifvqgqg","pricing_plan_id":"cebpf4jnsgd1na2vs0mg"},{"bike_id":"43356356-1ebf-41d4-a9de-4fa2973940ef","system_id":"levelo_inurba_marseille","lat":43.29963,"lon":5.41329,"is_reserved":false,"is_disabled":false,"rental_uris":{"android":"levelo://app?vid=43356356-1ebf-41d4-a9de-4fa2973940ef","ios":"levelo://app?vid=43356356-1ebf-41d4-a9de-4fa2973940ef"},"vehicle_type_id":"4","last_reported":1726765695,"current_range_meters":36400,"station_id":"ce4bhp12rcd13ifvqh9g","pricing_plan_id":"cebpf4jnsgd1na2vs0mg"},{"bike_id":"212c8449-4653-4195-845a-0046d27cc6c8","system_id":"levelo_inurba_marseille","lat":43.24663,"lon":5.38165,"is_reserved":false,"is_disabled":false,"rental_uris":{"android":"levelo://app?vid=212c8449-4653-4195-845a-0046d27cc6c8","ios":"levelo://app?vid=212c8449-4653-4195-845a-0046d27cc6c8"},"vehicle_type_id":"4","last_reported":1726765695,"current_range_meters":13600,"station_id":"ce4bhih2rcd13ifvqfr0","pricing_plan_id":"cebpf4jnsgd1na2vs0mg"},{"bike_id":"011768db-7d39-4c24-ae89-e04b072d8e2a","system_id":"levelo_inurba_marseille","lat":43.30347,"lon":5.41879,"is_reserved":false,"is_disabled":false,"rental_uris":{"android":"levelo://app?vid=011768db-7d39-4c24-ae89-e04b072d8e2a","ios":"levelo://app?vid=011768db-7d39-4c24-ae89-e04b072d8e2a"},"vehicle_type_id":"4","last_reported":1726765695,"current_range_meters":24400,"station_id":"ce4bhop2rcd13ifvqh7g","pricing_plan_id":"cebpf4jnsgd1na2vs0mg"},{"bike_id":"7fe5f4ca-1f04-498f-9764-42f10637899f","system_id":"levelo_inurba_marseille","lat":43.25588,"lon":5.3824,"is_reserved":false,"is_disabled":false,"rental_uris":{"android":"levelo://app?vid=7fe5f4ca-1f04-498f-9764-42f10637899f","ios":"levelo://app?vid=7fe5f4ca-1f04-498f-9764-42f10637899f"},"vehicle_type_id":"4","last_reported":1726765695,"current_range_meters":28400,"station_id":"ce4bhih2rcd13ifvqfs0","pricing_plan_id":"cebpf4jnsgd1na2vs0mg"},{"bike_id":"f91d86b2-456a-48aa-bac9-b4717c616eb8","system_id":"levelo_inurba_marseille","lat":43.25724,"lon":5.4111,"is_reserved":false,"is_disabled":false,"rental_uris":{"android":"levelo://app?vid=f91d86b2-456a-48aa-bac9-b4717c616eb8","ios":"levelo://app?vid=f91d86b2-456a-48aa-bac9-b4717c616eb8"},"vehicle_type_id":"4","last_reported":1726765695,"current_range_meters":9200,"station_id":"ce4bhkp2rcd13ifvqgd0","pricing_plan_id":"cebpf4jnsgd1na2vs0mg"},{"bike_id":"4c9dad28-bab3-4c54-867f-101b77a30cda","system_id":"levelo_inurba_marseille","lat":43.28467,"lon":5.35892,"is_reserved":false,"is_disabled":false,"rental_uris":{"android":"levelo://app?vid=4c9dad28-bab3-4c54-867f-101b77a30cda","ios":"levelo://app?vid=4c9dad28-bab3-4c54-867f-101b77a30cda"},"vehicle_type_id":"4","last_reported":1726765695,"current_range_meters":20800,"station_id":"ce4bhah2rcd13ifvqei0","pricing_plan_id":"cebpf4jnsgd1na2vs0mg"},{"bike_id":"749f60f1-c8bd-410e-94c7-9abac8511176","system_id":"levelo_inurba_marseille","lat":43.31526,"lon":5.38039,"is_reserved":false,"is_disabled":false,"rental_uris":{"android":"levelo://app?vid=749f60f1-c8bd-410e-94c7-9abac8511176","ios":"levelo://app?vid=749f60f1-c8bd-410e-94c7-9abac8511176"},"vehicle_type_id":"4","last_reported":1726765695,"current_range_meters":20000,"station_id":"ce4bhsp2rcd13ifvqi50","pricing_plan_id":"cebpf4jnsgd1na2vs0mg"},{"bike_id":"8dd9e066-4cb3-414b-9f1b-fc4a16c13e96","system_id":"levelo_inurba_marseille","lat":43.27625,"lon":5.36109,"is_reserved":false,"is_disabled":false,"rental_uris":{"android":"levelo://app?vid=8dd9e066-4cb3-414b-9f1b-fc4a16c13e96","ios":"levelo://app?vid=8dd9e066-4cb3-414b-9f1b-fc4a16c13e96"},"vehicle_type_id":"4","last_reported":1726765695,"current_range_meters":20000,"station_id":"ce4bgj92rcd13ifvqbe0","pricing_plan_id":"cebpf4jnsgd1na2vs0mg"},{"bike_id":"f4f1f7c9-c634-43c6-b0c5-f56bbd4df0fb","system_id":"levelo_inurba_marseille","lat":43.28658,"lon":5.36349,"is_reserved":false,"is_disabled":false,"rental_uris":{"android":"levelo://app?vid=f4f1f7c9-c634-43c6-b0c5-f56bbd4df0fb","ios":"levelo://app?vid=f4f1f7c9-c634-43c6-b0c5-f56bbd4df0fb"},"vehicle_type_id":"4","last_reported":1726765695,"current_range_meters":34800,"station_id":"ce4bh0p2rcd13ifvqd70","pricing_plan_id":"cebpf4jnsgd1na2vs0mg"},{"bike_id":"1ffc2204-ed6c-4444-afda-2ce1ff7c434d","system_id":"levelo_inurba_marseille","lat":43.301178,"lon":5.398631,"is_reserved":false,"is_disabled":false,"rental_uris":{"android":"levelo://app?vid=1ffc2204-ed6c-4444-afda-2ce1ff7c434d","ios":"levelo://app?vid=1ffc2204-ed6c-4444-afda-2ce1ff7c434d"},"vehicle_type_id":"4","last_reported":1726765695,"current_range_meters":2800,"station_id":"ce4bh0h2rcd13ifvqd40","pricing_plan_id":"cebpf4jnsgd1na2vs0mg"},{"bike_id":"e52eaf95-041c-4c55-b211-50cac18087c7","system_id":"levelo_inurba_marseille","lat":43.298854,"lon":5.371805,"is_reserved":false,"is_disabled":false,"rental_uris":{"android":"levelo://app?vid=e52eaf95-041c-4c55-b211-50cac18087c7","ios":"levelo://app?vid=e52eaf95-041c-4c55-b211-50cac18087c7"},"vehicle_type_id":"4","last_reported":1726765695,"current_range_meters":19200,"station_id":"","pricing_plan_id":"cebpf4jnsgd1na2vs0mg"},{"bike_id":"4f23ea5c-bd76-4988-9a76-c54a70b280a4","system_id":"levelo_inurba_marseille","lat":43.28274,"lon":5.35075,"is_reserved":false,"is_disabled":false,"rental_uris":{"android":"levelo://app?vid=4f23ea5c-bd76-4988-9a76-c54a70b280a4","ios":"levelo://app?vid=4f23ea5c-bd76-4988-9a76-c54a70b280a4"},"vehicle_type_id":"4","last_reported":1726765695,"current_range_meters":22400,"station_id":"ce4bhbp2rcd13ifvqerg","pricing_plan_id":"cebpf4jnsgd1na2vs0mg"},{"bike_id":"a01a4a21-dbb1-4a02-b900-30af3a75c27a","system_id":"levelo_inurba_marseille","lat":43.24655,"lon":5.38897,"is_reserved":false,"is_disabled":false,"rental_uris":{"android":"levelo://app?vid=a01a4a21-dbb1-4a02-b900-30af3a75c27a","ios":"levelo://app?vid=a01a4a21-dbb1-4a02-b900-30af3a75c27a"},"vehicle_type_id":"4","last_reported":1726765695,"current_range_meters":12400,"station_id":"ce4bhg12rcd13ifvqf60","pricing_plan_id":"cebpf4jnsgd1na2vs0mg"},{"bike_id":"911920b1-b140-4426-8bcb-49def8b6a13f","system_id":"levelo_inurba_marseille","lat":43.31071,"lon":5.38362,"is_reserved":false,"is_disabled":false,"rental_uris":{"android":"levelo://app?vid=911920b1-b140-4426-8bcb-49def8b6a13f","ios":"levelo://app?vid=911920b1-b140-4426-8bcb-49def8b6a13f"},"vehicle_type_id":"4","last_reported":1726765695,"current_range_meters":26000,"station_id":"ce4bgv92rcd13ifvqcr0","pricing_plan_id":"cebpf4jnsgd1na2vs0mg"},{"bike_id":"78189870-b114-4146-b75a-b46bf65a6561","system_id":"levelo_inurba_marseille","lat":43.27372,"lon":5.36258,"is_reserved":false,"is_disabled":false,"rental_uris":{"android":"levelo://app?vid=78189870-b114-4146-b75a-b46bf65a6561","ios":"levelo://app?vid=78189870-b114-4146-b75a-b46bf65a6561"},"vehicle_type_id":"4","last_reported":1726765695,"current_range_meters":26000,"station_id":"ce4bhbh2rcd13ifvqeo0","pricing_plan_id":"cebpf4jnsgd1na2vs0mg"},{"bike_id":"9b7d7b05-88ba-4bde-8f20-7c644c17d4c4","system_id":"levelo_inurba_marseille","lat":43.29881,"lon":5.39734,"is_reserved":false,"is_disabled":false,"rental_uris":{"android":"levelo://app?vid=9b7d7b05-88ba-4bde-8f20-7c644c17d4c4","ios":"levelo://app?vid=9b7d7b05-88ba-4bde-8f20-7c644c17d4c4"},"vehicle_type_id":"4","last_reported":1726765695,"current_range_meters":39200,"station_id":"ce4bh0h2rcd13ifvqd50","pricing_plan_id":"cebpf4jnsgd1na2vs0mg"},{"bike_id":"e018e9b9-9b47-46fc-8d42-a513424b1bfe","system_id":"levelo_inurba_marseille","lat":43.32367,"lon":5.38886,"is_reserved":false,"is_disabled":false,"rental_uris":{"android":"levelo://app?vid=e018e9b9-9b47-46fc-8d42-a513424b1bfe","ios":"levelo://app?vid=e018e9b9-9b47-46fc-8d42-a513424b1bfe"},"vehicle_type_id":"4","last_reported":1726765695,"current_range_meters":18000,"station_id":"ce4bhqp2rcd13ifvqhog","pricing_plan_id":"cebpf4jnsgd1na2vs0mg"},{"bike_id":"38dadd8c-d3a2-4d23-ab13-29b99dc8b37a","system_id":"levelo_inurba_marseille","lat":43.33025,"lon":5.39043,"is_reserved":false,"is_disabled":false,"rental_uris":{"android":"levelo://app?vid=38dadd8c-d3a2-4d23-ab13-29b99dc8b37a","ios":"levelo://app?vid=38dadd8c-d3a2-4d23-ab13-29b99dc8b37a"},"vehicle_type_id":"4","last_reported":1726765695,"current_range_meters":17600,"station_id":"ce4bhr92rcd13ifvqhrg","pricing_plan_id":"cebpf4jnsgd1na2vs0mg"},{"bike_id":"d67a041c-c2af-4ab4-a1ae-bb4e0a663237","system_id":"levelo_inurba_marseille","lat":43.2767,"lon":5.38872,"is_reserved":false,"is_disabled":false,"rental_uris":{"android":"levelo://app?vid=d67a041c-c2af-4ab4-a1ae-bb4e0a663237","ios":"levelo://app?vid=d67a041c-c2af-4ab4-a1ae-bb4e0a663237"},"vehicle_type_id":"4","last_reported":1726765695,"current_range_meters":38800,"station_id":"ce4bhi12rcd13ifvqfo0","pricing_plan_id":"cebpf4jnsgd1na2vs0mg"},{"bike_id":"fb24808e-3cb1-4168-bff7-af5400702ebb","system_id":"levelo_inurba_marseille","lat":43.27612,"lon":5.36133,"is_reserved":false,"is_disabled":false,"rental_uris":{"android":"levelo://app?vid=fb24808e-3cb1-4168-bff7-af5400702ebb","ios":"levelo://app?vid=fb24808e-3cb1-4168-bff7-af5400702ebb"},"vehicle_type_id":"4","last_reported":1726765695,"current_range_meters":38400,"station_id":"ce4bgj92rcd13ifvqbe0","pricing_plan_id":"cebpf4jnsgd1na2vs0mg"},{"bike_id":"9f9efb62-1873-424a-a1e4-02f7c9c4dd56","system_id":"levelo_inurba_marseille","lat":43.29026,"lon":5.38644,"is_reserved":false,"is_disabled":false,"rental_uris":{"android":"levelo://app?vid=9f9efb62-1873-424a-a1e4-02f7c9c4dd56","ios":"levelo://app?vid=9f9efb62-1873-424a-a1e4-02f7c9c4dd56"},"vehicle_type_id":"4","last_reported":1726765695,"current_range_meters":30400,"station_id":"ce4bh4p2rcd13ifvqe0g","pricing_plan_id":"cebpf4jnsgd1na2vs0mg"},{"bike_id":"94f8bc8c-4d1c-4a28-a767-f2094ac308b3","system_id":"levelo_inurba_marseille","lat":43.32289,"lon":5.38275,"is_reserved":false,"is_disabled":false,"rental_uris":{"android":"levelo://app?vid=94f8bc8c-4d1c-4a28-a767-f2094ac308b3","ios":"levelo://app?vid=94f8bc8c-4d1c-4a28-a767-f2094ac308b3"},"vehicle_type_id":"4","last_reported":1726765695,"current_range_meters":12400,"station_id":"ce4bhr12rcd13ifvqhqg","pricing_plan_id":"cebpf4jnsgd1na2vs0mg"},{"bike_id":"498149d4-acab-4fc8-b3b3-bda0da3e2eab","system_id":"levelo_inurba_marseille","lat":43.31758,"lon":5.39022,"is_reserved":false,"is_disabled":false,"rental_uris":{"android":"levelo://app?vid=498149d4-acab-4fc8-b3b3-bda0da3e2eab","ios":"levelo://app?vid=498149d4-acab-4fc8-b3b3-bda0da3e2eab"},"vehicle_type_id":"4","last_reported":1726765695,"current_range_meters":8000,"station_id":"ce4bhqp2rcd13ifvqhng","pricing_plan_id":"cebpf4jnsgd1na2vs0mg"},{"bike_id":"48a2b1fe-4cea-43ac-8901-0d07e4d9e645","system_id":"levelo_inurba_marseille","lat":43.2953,"lon":5.38534,"is_reserved":false,"is_disabled":false,"rental_uris":{"android":"levelo://app?vid=48a2b1fe-4cea-43ac-8901-0d07e4d9e645","ios":"levelo://app?vid=48a2b1fe-4cea-43ac-8901-0d07e4d9e645"},"vehicle_type_id":"4","last_reported":1726765695,"current_range_meters":25200,"station_id":"ce4bgih2rcd13ifvqba0","pricing_plan_id":"cebpf4jnsgd1na2vs0mg"},{"bike_id":"6ca09fa1-3a02-419f-bc79-a170b14925aa","system_id":"levelo_inurba_marseille","lat":43.28079,"lon":5.39663,"is_reserved":false,"is_disabled":false,"rental_uris":{"android":"levelo://app?vid=6ca09fa1-3a02-419f-bc79-a170b14925aa","ios":"levelo://app?vid=6ca09fa1-3a02-419f-bc79-a170b14925aa"},"vehicle_type_id":"4","last_reported":1726765695,"current_range_meters":3600,"station_id":"ce4bho12rcd13ifvqh2g","pricing_plan_id":"cebpf4jnsgd1na2vs0mg"},{"bike_id":"f0aadfe5-273e-407b-a141-6a79a97a0ef8","system_id":"levelo_inurba_marseille","lat":43.243866,"lon":5.370511,"is_reserved":false,"is_disabled":false,"rental_uris":{"android":"levelo://app?vid=f0aadfe5-273e-407b-a141-6a79a97a0ef8","ios":"levelo://app?vid=f0aadfe5-273e-407b-a141-6a79a97a0ef8"},"vehicle_type_id":"4","last_reported":1726765695,"current_range_meters":19200,"station_id":"ce4bhhh2rcd13ifvqfk0","pricing_plan_id":"cebpf4jnsgd1na2vs0mg"},{"bike_id":"0f99561d-c3b7-4d71-8f6c-402f09bcbad6","system_id":"levelo_inurba_marseille","lat":43.26776,"lon":5.39419,"is_reserved":false,"is_disabled":false,"rental_uris":{"android":"levelo://app?vid=0f99561d-c3b7-4d71-8f6c-402f09bcbad6","ios":"levelo://app?vid=0f99561d-c3b7-4d71-8f6c-402f09bcbad6"},"vehicle_type_id":"4","last_reported":1726765695,"current_range_meters":20400,"station_id":"ce4bhl92rcd13ifvqghg","pricing_plan_id":"cebpf4jnsgd1na2vs0mg"},{"bike_id":"2c96f4ad-2c2e-44b8-8e08-a57b6c1eb2e5","system_id":"levelo_inurba_marseille","lat":43.33024,"lon":5.3904,"is_reserved":false,"is_disabled":false,"rental_uris":{"android":"levelo://app?vid=2c96f4ad-2c2e-44b8-8e08-a57b6c1eb2e5","ios":"levelo://app?vid=2c96f4ad-2c2e-44b8-8e08-a57b6c1eb2e5"},"vehicle_type_id":"4","last_reported":1726765695,"current_range_meters":28800,"station_id":"ce4bhr92rcd13ifvqhrg","pricing_plan_id":"cebpf4jnsgd1na2vs0mg"},{"bike_id":"7a2f60ca-a819-4240-9cad-63dacc8733c7","system_id":"levelo_inurba_marseille","lat":43.28271,"lon":5.35059,"is_reserved":false,"is_disabled":false,"rental_uris":{"android":"levelo://app?vid=7a2f60ca-a819-4240-9cad-63dacc8733c7","ios":"levelo://app?vid=7a2f60ca-a819-4240-9cad-63dacc8733c7"},"vehicle_type_id":"4","last_reported":1726765695,"current_range_meters":25200,"station_id":"ce4bhbp2rcd13ifvqerg","pricing_plan_id":"cebpf4jnsgd1na2vs0mg"},{"bike_id":"c8ba53a1-5a04-4d3e-9f71-5437de946379","system_id":"levelo_inurba_marseille","lat":43.26926,"lon":5.3892,"is_reserved":false,"is_disabled":false,"rental_uris":{"android":"levelo://app?vid=c8ba53a1-5a04-4d3e-9f71-5437de946379","ios":"levelo://app?vid=c8ba53a1-5a04-4d3e-9f71-5437de946379"},"vehicle_type_id":"4","last_reported":1726765695,"current_range_meters":6800,"station_id":"ce4bhhh2rcd13ifvqfl0","pricing_plan_id":"cebpf4jnsgd1na2vs0mg"},{"bike_id":"b522e1cc-29cd-4476-94d8-fc656f55af86","system_id":"levelo_inurba_marseille","lat":43.27808,"lon":5.4071,"is_reserved":false,"is_disabled":false,"rental_uris":{"android":"levelo://app?vid=b522e1cc-29cd-4476-94d8-fc656f55af86","ios":"levelo://app?vid=b522e1cc-29cd-4476-94d8-fc656f55af86"},"vehicle_type_id":"4","last_reported":1726765695,"current_range_meters":10000,"station_id":"ce4bhnh2rcd13ifvqgtg","pricing_plan_id":"cebpf4jnsgd1na2vs0mg"},{"bike_id":"bbabc812-5d4f-4dde-ac4b-6c59e8a40a27","system_id":"levelo_inurba_marseille","lat":43.27497,"lon":5.42448,"is_reserved":false,"is_disabled":false,"rental_uris":{"android":"levelo://app?vid=bbabc812-5d4f-4dde-ac4b-6c59e8a40a27","ios":"levelo://app?vid=bbabc812-5d4f-4dde-ac4b-6c59e8a40a27"},"vehicle_type_id":"4","last_reported":1726765695,"current_range_meters":19600,"station_id":"ce4bhn92rcd13ifvqgrg","pricing_plan_id":"cebpf4jnsgd1na2vs0mg"},{"bike_id":"91093416-4c3a-41ce-873a-808a45e8d932","system_id":"levelo_inurba_marseille","lat":43.308807,"lon":5.396634,"is_reserved":false,"is_disabled":false,"rental_uris":{"android":"levelo://app?vid=91093416-4c3a-41ce-873a-808a45e8d932","ios":"levelo://app?vid=91093416-4c3a-41ce-873a-808a45e8d932"},"vehicle_type_id":"4","last_reported":1726765695,"current_range_meters":22000,"station_id":"ce4bh012rcd13ifvqcv0","pricing_plan_id":"cebpf4jnsgd1na2vs0mg"},{"bike_id":"03924c63-b9c5-47eb-ba2b-81fa6d71eacb","system_id":"levelo_inurba_marseille","lat":43.302142,"lon":5.394729,"is_reserved":false,"is_disabled":false,"rental_uris":{"android":"levelo://app?vid=03924c63-b9c5-47eb-ba2b-81fa6d71eacb","ios":"levelo://app?vid=03924c63-b9c5-47eb-ba2b-81fa6d71eacb"},"vehicle_type_id":"4","last_reported":1726765695,"current_range_meters":24400,"station_id":"ce4bgi12rcd13ifvqb70","pricing_plan_id":"cebpf4jnsgd1na2vs0mg"},{"bike_id":"da4bba1f-0573-4fe7-a6a4-36d1308d2875","system_id":"levelo_inurba_marseille","lat":43.2558,"lon":5.38241,"is_reserved":false,"is_disabled":false,"rental_uris":{"android":"levelo://app?vid=da4bba1f-0573-4fe7-a6a4-36d1308d2875","ios":"levelo://app?vid=da4bba1f-0573-4fe7-a6a4-36d1308d2875"},"vehicle_type_id":"4","last_reported":1726765695,"current_range_meters":2800,"station_id":"ce4bhih2rcd13ifvqfs0","pricing_plan_id":"cebpf4jnsgd1na2vs0mg"},{"bike_id":"46bbc135-afd3-470d-adf1-ae1ad3b8da64","system_id":"levelo_inurba_marseille","lat":43.2693,"lon":5.38926,"is_reserved":false,"is_disabled":false,"rental_uris":{"android":"levelo://app?vid=46bbc135-afd3-470d-adf1-ae1ad3b8da64","ios":"levelo://app?vid=46bbc135-afd3-470d-adf1-ae1ad3b8da64"},"vehicle_type_id":"4","last_reported":1726765695,"current_range_meters":6000,"station_id":"ce4bhhh2rcd13ifvqfl0","pricing_plan_id":"cebpf4jnsgd1na2vs0mg"},{"bike_id":"f9d5810b-868d-4aab-8af3-784705514d00","system_id":"levelo_inurba_marseille","lat":43.30133,"lon":5.39876,"is_reserved":false,"is_disabled":false,"rental_uris":{"android":"levelo://app?vid=f9d5810b-868d-4aab-8af3-784705514d00","ios":"levelo://app?vid=f9d5810b-868d-4aab-8af3-784705514d00"},"vehicle_type_id":"4","last_reported":1726765695,"current_range_meters":25600,"station_id":"ce4bh0h2rcd13ifvqd40","pricing_plan_id":"cebpf4jnsgd1na2vs0mg"},{"bike_id":"4fa0ca0d-342c-4cd6-990b-f5e4ae40db2b","system_id":"levelo_inurba_marseille","lat":43.29966,"lon":5.41332,"is_reserved":false,"is_disabled":false,"rental_uris":{"android":"levelo://app?vid=4fa0ca0d-342c-4cd6-990b-f5e4ae40db2b","ios":"levelo://app?vid=4fa0ca0d-342c-4cd6-990b-f5e4ae40db2b"},"vehicle_type_id":"4","last_reported":1726765695,"current_range_meters":38800,"station_id":"ce4bhp12rcd13ifvqh9g","pricing_plan_id":"cebpf4jnsgd1na2vs0mg"},{"bike_id":"1b297945-7c8a-4e0e-b2c4-bc43a6c00be3","system_id":"levelo_inurba_marseille","lat":43.24649,"lon":5.388916,"is_reserved":false,"is_disabled":false,"rental_uris":{"android":"levelo://app?vid=1b297945-7c8a-4e0e-b2c4-bc43a6c00be3","ios":"levelo://app?vid=1b297945-7c8a-4e0e-b2c4-bc43a6c00be3"},"vehicle_type_id":"4","last_reported":1726765695,"current_range_meters":12800,"station_id":"ce4bhg12rcd13ifvqf60","pricing_plan_id":"cebpf4jnsgd1na2vs0mg"},{"bike_id":"e61366d2-519e-4d22-a460-7a0e99cc1051","system_id":"levelo_inurba_marseille","lat":43.26567,"lon":5.39001,"is_reserved":false,"is_disabled":false,"rental_uris":{"android":"levelo://app?vid=e61366d2-519e-4d22-a460-7a0e99cc1051","ios":"levelo://app?vid=e61366d2-519e-4d22-a460-7a0e99cc1051"},"vehicle_type_id":"4","last_reported":1726765695,"current_range_meters":33200,"station_id":"ce4bhe12rcd13ifvqf30","pricing_plan_id":"cebpf4jnsgd1na2vs0mg"},{"bike_id":"42a53ba1-3670-4516-addc-ffe001720501","system_id":"levelo_inurba_marseille","lat":43.26648,"lon":5.39479,"is_reserved":false,"is_disabled":false,"rental_uris":{"android":"levelo://app?vid=42a53ba1-3670-4516-addc-ffe001720501","ios":"levelo://app?vid=42a53ba1-3670-4516-addc-ffe001720501"},"vehicle_type_id":"4","last_reported":1726765695,"current_range_meters":23200,"station_id":"","pricing_plan_id":"cebpf4jnsgd1na2vs0mg"},{"bike_id":"8cec0694-5753-4a2d-b633-441d0154d25f","system_id":"levelo_inurba_marseille","lat":43.29274,"lon":5.38442,"is_reserved":false,"is_disabled":false,"rental_uris":{"android":"levelo://app?vid=8cec0694-5753-4a2d-b633-441d0154d25f","ios":"levelo://app?vid=8cec0694-5753-4a2d-b633-441d0154d25f"},"vehicle_type_id":"4","last_reported":1726765695,"current_range_meters":38800,"station_id":"ce4bh692rcd13ifvqea0","pricing_plan_id":"cebpf4jnsgd1na2vs0mg"},{"bike_id":"5705acbc-d503-4f36-a9f5-13b5f18aa34d","system_id":"levelo_inurba_marseille","lat":43.23948,"lon":5.3664,"is_reserved":false,"is_disabled":false,"rental_uris":{"android":"levelo://app?vid=5705acbc-d503-4f36-a9f5-13b5f18aa34d","ios":"levelo://app?vid=5705acbc-d503-4f36-a9f5-13b5f18aa34d"},"vehicle_type_id":"4","last_reported":1726765695,"current_range_meters":38000,"station_id":"ce4bhi12rcd13ifvqfp0","pricing_plan_id":"cebpf4jnsgd1na2vs0mg"},{"bike_id":"3450e49a-3810-4469-8f17-4407126f60e1","system_id":"levelo_inurba_marseille","lat":43.27536,"lon":5.42621,"is_reserved":false,"is_disabled":false,"rental_uris":{"android":"levelo://app?vid=3450e49a-3810-4469-8f17-4407126f60e1","ios":"levelo://app?vid=3450e49a-3810-4469-8f17-4407126f60e1"},"vehicle_type_id":"4","last_reported":1726765695,"current_range_meters":2800,"station_id":"","pricing_plan_id":"cebpf4jnsgd1na2vs0mg"},{"bike_id":"7b9dd459-340b-4978-bfb0-6c163a5263e8","system_id":"levelo_inurba_marseille","lat":43.23211,"lon":5.35553,"is_reserved":false,"is_disabled":false,"rental_uris":{"android":"levelo://app?vid=7b9dd459-340b-4978-bfb0-6c163a5263e8","ios":"levelo://app?vid=7b9dd459-340b-4978-bfb0-6c163a5263e8"},"vehicle_type_id":"4","last_reported":1726765695,"current_range_meters":39200,"station_id":"ce4bhu92rcd13ifvqi70","pricing_plan_id":"cebpf4jnsgd1na2vs0mg"},{"bike_id":"e3d2cb34-c757-45ad-beac-0be6b9457278","system_id":"levelo_inurba_marseille","lat":43.30809,"lon":5.43525,"is_reserved":false,"is_disabled":false,"rental_uris":{"android":"levelo://app?vid=e3d2cb34-c757-45ad-beac-0be6b9457278","ios":"levelo://app?vid=e3d2cb34-c757-45ad-beac-0be6b9457278"},"vehicle_type_id":"4","last_reported":1726765695,"current_range_meters":18800,"station_id":"ce4bhph2rcd13ifvqheg","pricing_plan_id":"cebpf4jnsgd1na2vs0mg"},{"bike_id":"87440cd1-4d99-421b-9f62-83acc0dd5fa9","system_id":"levelo_inurba_marseille","lat":43.32365,"lon":5.38881,"is_reserved":false,"is_disabled":false,"rental_uris":{"android":"levelo://app?vid=87440cd1-4d99-421b-9f62-83acc0dd5fa9","ios":"levelo://app?vid=87440cd1-4d99-421b-9f62-83acc0dd5fa9"},"vehicle_type_id":"4","last_reported":1726765695,"current_range_meters":3600,"station_id":"ce4bhqp2rcd13ifvqhog","pricing_plan_id":"cebpf4jnsgd1na2vs0mg"},{"bike_id":"c1c4e1e2-3f8d-42d0-a204-abf11becae93","system_id":"levelo_inurba_marseille","lat":43.31172,"lon":5.38715,"is_reserved":false,"is_disabled":false,"rental_uris":{"android":"levelo://app?vid=c1c4e1e2-3f8d-42d0-a204-abf11becae93","ios":"levelo://app?vid=c1c4e1e2-3f8d-42d0-a204-abf11becae93"},"vehicle_type_id":"4","last_reported":1726765695,"current_range_meters":6000,"station_id":"ce4bgv12rcd13ifvqcp0","pricing_plan_id":"cebpf4jnsgd1na2vs0mg"},{"bike_id":"ce143dd8-0cd9-4934-ac0b-6fe09fae5359","system_id":"levelo_inurba_marseille","lat":43.25583,"lon":5.38241,"is_reserved":false,"is_disabled":false,"rental_uris":{"android":"levelo://app?vid=ce143dd8-0cd9-4934-ac0b-6fe09fae5359","ios":"levelo://app?vid=ce143dd8-0cd9-4934-ac0b-6fe09fae5359"},"vehicle_type_id":"4","last_reported":1726765695,"current_range_meters":28000,"station_id":"ce4bhih2rcd13ifvqfs0","pricing_plan_id":"cebpf4jnsgd1na2vs0mg"},{"bike_id":"d28b7451-e74e-455d-898d-10e272314f3a","system_id":"levelo_inurba_marseille","lat":43.2926,"lon":5.38447,"is_reserved":false,"is_disabled":false,"rental_uris":{"android":"levelo://app?vid=d28b7451-e74e-455d-898d-10e272314f3a","ios":"levelo://app?vid=d28b7451-e74e-455d-898d-10e272314f3a"},"vehicle_type_id":"4","last_reported":1726765695,"current_range_meters":39200,"station_id":"ce4bh692rcd13ifvqea0","pricing_plan_id":"cebpf4jnsgd1na2vs0mg"},{"bike_id":"646a625f-c395-4aad-9eda-08c1682e7b45","system_id":"levelo_inurba_marseille","lat":43.28349,"lon":5.38111,"is_reserved":false,"is_disabled":false,"rental_uris":{"android":"levelo://app?vid=646a625f-c395-4aad-9eda-08c1682e7b45","ios":"levelo://app?vid=646a625f-c395-4aad-9eda-08c1682e7b45"},"vehicle_type_id":"4","last_reported":1726765695,"current_range_meters":38000,"station_id":"ce4bh412rcd13ifvqdr0","pricing_plan_id":"cebpf4jnsgd1na2vs0mg"},{"bike_id":"b6d36420-b26c-42b4-a16a-ada2d6d760b7","system_id":"levelo_inurba_marseille","lat":43.23063,"lon":5.3549,"is_reserved":false,"is_disabled":false,"rental_uris":{"android":"levelo://app?vid=b6d36420-b26c-42b4-a16a-ada2d6d760b7","ios":"levelo://app?vid=b6d36420-b26c-42b4-a16a-ada2d6d760b7"},"vehicle_type_id":"4","last_reported":1726765695,"current_range_meters":37600,"station_id":"cpo3342slgdg3j2ifvpg","pricing_plan_id":"cebpf4jnsgd1na2vs0mg"},{"bike_id":"984abb64-5fe6-49cd-bc77-cc278fa51bce","system_id":"levelo_inurba_marseille","lat":43.2815,"lon":5.42643,"is_reserved":false,"is_disabled":false,"rental_uris":{"android":"levelo://app?vid=984abb64-5fe6-49cd-bc77-cc278fa51bce","ios":"levelo://app?vid=984abb64-5fe6-49cd-bc77-cc278fa51bce"},"vehicle_type_id":"4","last_reported":1726765695,"current_range_meters":3600,"station_id":"ce4bhnh2rcd13ifvqgug","pricing_plan_id":"cebpf4jnsgd1na2vs0mg"},{"bike_id":"269e2d8f-56f1-4552-a5af-8650762cd747","system_id":"levelo_inurba_marseille","lat":43.27999,"lon":5.4001,"is_reserved":false,"is_disabled":false,"rental_uris":{"android":"levelo://app?vid=269e2d8f-56f1-4552-a5af-8650762cd747","ios":"levelo://app?vid=269e2d8f-56f1-4552-a5af-8650762cd747"},"vehicle_type_id":"4","last_reported":1726765695,"current_range_meters":25200,"station_id":"ce4bho92rcd13ifvqh4g","pricing_plan_id":"cebpf4jnsgd1na2vs0mg"},{"bike_id":"e42fe282-691b-43f8-8539-030e8df6df6a","system_id":"levelo_inurba_marseille","lat":43.30302,"lon":5.36899,"is_reserved":false,"is_disabled":false,"rental_uris":{"android":"levelo://app?vid=e42fe282-691b-43f8-8539-030e8df6df6a","ios":"levelo://app?vid=e42fe282-691b-43f8-8539-030e8df6df6a"},"vehicle_type_id":"4","last_reported":1726765695,"current_range_meters":39200,"station_id":"ce4bgqh2rcd13ifvqc5g","pricing_plan_id":"cebpf4jnsgd1na2vs0mg"},{"bike_id":"7744c72a-5cbc-4eef-aaeb-cb681464e68e","system_id":"levelo_inurba_marseille","lat":43.30812,"lon":5.38152,"is_reserved":false,"is_disabled":false,"rental_uris":{"android":"levelo://app?vid=7744c72a-5cbc-4eef-aaeb-cb681464e68e","ios":"levelo://app?vid=7744c72a-5cbc-4eef-aaeb-cb681464e68e"},"vehicle_type_id":"4","last_reported":1726765695,"current_range_meters":0,"station_id":"ce4bgt12rcd13ifvqce0","pricing_plan_id":"cebpf4jnsgd1na2vs0mg"},{"bike_id":"c4bf916c-2d6e-4324-8583-6b586ae80a11","system_id":"levelo_inurba_marseille","lat":43.279114,"lon":5.380292,"is_reserved":false,"is_disabled":false,"rental_uris":{"android":"levelo://app?vid=c4bf916c-2d6e-4324-8583-6b586ae80a11","ios":"levelo://app?vid=c4bf916c-2d6e-4324-8583-6b586ae80a11"},"vehicle_type_id":"4","last_reported":1726765695,"current_range_meters":3600,"station_id":"ce4bhf92rcd13ifvqf50","pricing_plan_id":"cebpf4jnsgd1na2vs0mg"},{"bike_id":"2ef243db-930a-4c46-8097-00f18adfb63a","system_id":"levelo_inurba_marseille","lat":43.29254,"lon":5.38438,"is_reserved":false,"is_disabled":false,"rental_uris":{"android":"levelo://app?vid=2ef243db-930a-4c46-8097-00f18adfb63a","ios":"levelo://app?vid=2ef243db-930a-4c46-8097-00f18adfb63a"},"vehicle_type_id":"4","last_reported":1726765695,"current_range_meters":28000,"station_id":"ce4bh692rcd13ifvqea0","pricing_plan_id":"cebpf4jnsgd1na2vs0mg"},{"bike_id":"902190e7-1fe9-4270-9546-498dac581307","system_id":"levelo_inurba_marseille","lat":43.28008,"lon":5.40598,"is_reserved":false,"is_disabled":false,"rental_uris":{"android":"levelo://app?vid=902190e7-1fe9-4270-9546-498dac581307","ios":"levelo://app?vid=902190e7-1fe9-4270-9546-498dac581307"},"vehicle_type_id":"4","last_reported":1726765695,"current_range_meters":35200,"station_id":"","pricing_plan_id":"cebpf4jnsgd1na2vs0mg"},{"bike_id":"804b3646-259f-4a84-a03f-2f262500c2a5","system_id":"levelo_inurba_marseille","lat":43.31756,"lon":5.39014,"is_reserved":false,"is_disabled":false,"rental_uris":{"android":"levelo://app?vid=804b3646-259f-4a84-a03f-2f262500c2a5","ios":"levelo://app?vid=804b3646-259f-4a84-a03f-2f262500c2a5"},"vehicle_type_id":"4","last_reported":1726765695,"current_range_meters":39200,"station_id":"ce4bhqp2rcd13ifvqhng","pricing_plan_id":"cebpf4jnsgd1na2vs0mg"},{"bike_id":"5d2a1523-9c7a-415c-88cb-dab20c3db52c","system_id":"levelo_inurba_marseille","lat":43.31326,"lon":5.39692,"is_reserved":false,"is_disabled":false,"rental_uris":{"android":"levelo://app?vid=5d2a1523-9c7a-415c-88cb-dab20c3db52c","ios":"levelo://app?vid=5d2a1523-9c7a-415c-88cb-dab20c3db52c"},"vehicle_type_id":"4","last_reported":1726765695,"current_range_meters":33600,"station_id":"ce4bgvp2rcd13ifvqcu0","pricing_plan_id":"cebpf4jnsgd1na2vs0mg"},{"bike_id":"02ba1ef6-d305-4a15-ad1a-6db138f9d809","system_id":"levelo_inurba_marseille","lat":43.291992,"lon":5.357827,"is_reserved":false,"is_disabled":false,"rental_uris":{"android":"levelo://app?vid=02ba1ef6-d305-4a15-ad1a-6db138f9d809","ios":"levelo://app?vid=02ba1ef6-d305-4a15-ad1a-6db138f9d809"},"vehicle_type_id":"4","last_reported":1726765695,"current_range_meters":12000,"station_id":"ce4bhb12rcd13ifvqel0","pricing_plan_id":"cebpf4jnsgd1na2vs0mg"},{"bike_id":"b81ef138-ae3f-474a-b3d9-8d17ad7f9f75","system_id":"levelo_inurba_marseille","lat":43.24388,"lon":5.37059,"is_reserved":false,"is_disabled":false,"rental_uris":{"android":"levelo://app?vid=b81ef138-ae3f-474a-b3d9-8d17ad7f9f75","ios":"levelo://app?vid=b81ef138-ae3f-474a-b3d9-8d17ad7f9f75"},"vehicle_type_id":"4","last_reported":1726765695,"current_range_meters":18800,"station_id":"ce4bhhh2rcd13ifvqfk0","pricing_plan_id":"cebpf4jnsgd1na2vs0mg"},{"bike_id":"0c41eefc-03f4-48c9-96cf-57b9448860f1","system_id":"levelo_inurba_marseille","lat":43.292023,"lon":5.393289,"is_reserved":false,"is_disabled":false,"rental_uris":{"android":"levelo://app?vid=0c41eefc-03f4-48c9-96cf-57b9448860f1","ios":"levelo://app?vid=0c41eefc-03f4-48c9-96cf-57b9448860f1"},"vehicle_type_id":"4","last_reported":1726765695,"current_range_meters":32800,"station_id":"ce4bh192rcd13ifvqdd0","pricing_plan_id":"cebpf4jnsgd1na2vs0mg"},{"bike_id":"a3cf7644-ecb6-4fb6-a42b-30659bf19f6d","system_id":"levelo_inurba_marseille","lat":43.297951,"lon":5.403893,"is_reserved":false,"is_disabled":false,"rental_uris":{"android":"levelo://app?vid=a3cf7644-ecb6-4fb6-a42b-30659bf19f6d","ios":"levelo://app?vid=a3cf7644-ecb6-4fb6-a42b-30659bf19f6d"},"vehicle_type_id":"4","last_reported":1726765695,"current_range_meters":6800,"station_id":"ce4bh112rcd13ifvqd90","pricing_plan_id":"cebpf4jnsgd1na2vs0mg"},{"bike_id":"db5bed51-afb9-4548-98e9-7b7ae226c501","system_id":"levelo_inurba_marseille","lat":43.33756,"lon":5.37453,"is_reserved":false,"is_disabled":false,"rental_uris":{"android":"levelo://app?vid=db5bed51-afb9-4548-98e9-7b7ae226c501","ios":"levelo://app?vid=db5bed51-afb9-4548-98e9-7b7ae226c501"},"vehicle_type_id":"4","last_reported":1726765695,"current_range_meters":20800,"station_id":"","pricing_plan_id":"cebpf4jnsgd1na2vs0mg"},{"bike_id":"7a34d43a-466e-43a0-bb66-c07047a3e85e","system_id":"levelo_inurba_marseille","lat":43.29255,"lon":5.40913,"is_reserved":false,"is_disabled":false,"rental_uris":{"android":"levelo://app?vid=7a34d43a-466e-43a0-bb66-c07047a3e85e","ios":"levelo://app?vid=7a34d43a-466e-43a0-bb66-c07047a3e85e"},"vehicle_type_id":"4","last_reported":1726765695,"current_range_meters":35200,"station_id":"ce4bh192rcd13ifvqdc0","pricing_plan_id":"cebpf4jnsgd1na2vs0mg"},{"bike_id":"6c57e27c-501d-4137-b80a-73bfd56739ab","system_id":"levelo_inurba_marseille","lat":43.2827,"lon":5.3507,"is_reserved":false,"is_disabled":false,"rental_uris":{"android":"levelo://app?vid=6c57e27c-501d-4137-b80a-73bfd56739ab","ios":"levelo://app?vid=6c57e27c-501d-4137-b80a-73bfd56739ab"},"vehicle_type_id":"4","last_reported":1726765695,"current_range_meters":4000,"station_id":"ce4bhbp2rcd13ifvqerg","pricing_plan_id":"cebpf4jnsgd1na2vs0mg"},{"bike_id":"69399783-5eae-4af9-ae4b-1495b2d249b1","system_id":"levelo_inurba_marseille","lat":43.24167,"lon":5.36391,"is_reserved":false,"is_disabled":false,"rental_uris":{"android":"levelo://app?vid=69399783-5eae-4af9-ae4b-1495b2d249b1","ios":"levelo://app?vid=69399783-5eae-4af9-ae4b-1495b2d249b1"},"vehicle_type_id":"4","last_reported":1726765695,"current_range_meters":32000,"station_id":"cpo36qri1sfpv3e86is0","pricing_plan_id":"cebpf4jnsgd1na2vs0mg"},{"bike_id":"b85ac5b9-791d-4bad-b526-804301797e4d","system_id":"levelo_inurba_marseille","lat":43.28332,"lon":5.38098,"is_reserved":false,"is_disabled":false,"rental_uris":{"android":"levelo://app?vid=b85ac5b9-791d-4bad-b526-804301797e4d","ios":"levelo://app?vid=b85ac5b9-791d-4bad-b526-804301797e4d"},"vehicle_type_id":"4","last_reported":1726765695,"current_range_meters":5600,"station_id":"ce4bh412rcd13ifvqdr0","pricing_plan_id":"cebpf4jnsgd1na2vs0mg"},{"bike_id":"a7c1437e-beaf-4771-8414-70a710cf7491","system_id":"levelo_inurba_marseille","lat":43.285431,"lon":5.374469,"is_reserved":false,"is_disabled":false,"rental_uris":{"android":"levelo://app?vid=a7c1437e-beaf-4771-8414-70a710cf7491","ios":"levelo://app?vid=a7c1437e-beaf-4771-8414-70a710cf7491"},"vehicle_type_id":"4","last_reported":1726765695,"current_range_meters":17600,"station_id":"ce4bhg92rcd13ifvqf90","pricing_plan_id":"cebpf4jnsgd1na2vs0mg"},{"bike_id":"08a8b678-9d3b-4bce-b3ef-753efc8e7eaf","system_id":"levelo_inurba_marseille","lat":43.26564,"lon":5.39008,"is_reserved":false,"is_disabled":false,"rental_uris":{"android":"levelo://app?vid=08a8b678-9d3b-4bce-b3ef-753efc8e7eaf","ios":"levelo://app?vid=08a8b678-9d3b-4bce-b3ef-753efc8e7eaf"},"vehicle_type_id":"4","last_reported":1726765695,"current_range_meters":24000,"station_id":"ce4bhe12rcd13ifvqf30","pricing_plan_id":"cebpf4jnsgd1na2vs0mg"},{"bike_id":"39756832-427c-4504-8d9f-acf85337f0af","system_id":"levelo_inurba_marseille","lat":43.296295,"lon":5.377147,"is_reserved":false,"is_disabled":false,"rental_uris":{"android":"levelo://app?vid=39756832-427c-4504-8d9f-acf85337f0af","ios":"levelo://app?vid=39756832-427c-4504-8d9f-acf85337f0af"},"vehicle_type_id":"4","last_reported":1726765695,"current_range_meters":4400,"station_id":"ce4bgi92rcd13ifvqb90","pricing_plan_id":"cebpf4jnsgd1na2vs0mg"},{"bike_id":"d8f0b5ed-65b7-42da-8474-b44b658a7fac","system_id":"levelo_inurba_marseille","lat":43.29266,"lon":5.38441,"is_reserved":false,"is_disabled":false,"rental_uris":{"android":"levelo://app?vid=d8f0b5ed-65b7-42da-8474-b44b658a7fac","ios":"levelo://app?vid=d8f0b5ed-65b7-42da-8474-b44b658a7fac"},"vehicle_type_id":"4","last_reported":1726765695,"current_range_meters":24000,"station_id":"ce4bh692rcd13ifvqea0","pricing_plan_id":"cebpf4jnsgd1na2vs0mg"},{"bike_id":"9f45bbe4-3bbc-4c42-9cd3-85b0bb0a3982","system_id":"levelo_inurba_marseille","lat":43.29078,"lon":5.37169,"is_reserved":false,"is_disabled":false,"rental_uris":{"android":"levelo://app?vid=9f45bbe4-3bbc-4c42-9cd3-85b0bb0a3982","ios":"levelo://app?vid=9f45bbe4-3bbc-4c42-9cd3-85b0bb0a3982"},"vehicle_type_id":"4","last_reported":1726765695,"current_range_meters":9600,"station_id":"ce4bh5p2rcd13ifvqe4g","pricing_plan_id":"cebpf4jnsgd1na2vs0mg"},{"bike_id":"a8284d48-a892-46e8-8c2c-888e7dac6f25","system_id":"levelo_inurba_marseille","lat":43.25941,"lon":5.40903,"is_reserved":false,"is_disabled":false,"rental_uris":{"android":"levelo://app?vid=a8284d48-a892-46e8-8c2c-888e7dac6f25","ios":"levelo://app?vid=a8284d48-a892-46e8-8c2c-888e7dac6f25"},"vehicle_type_id":"4","last_reported":1726765695,"current_range_meters":30400,"station_id":"ce4bhm92rcd13ifvqglg","pricing_plan_id":"cebpf4jnsgd1na2vs0mg"},{"bike_id":"58014cc6-4f39-4119-a8a0-cdc0e2507820","system_id":"levelo_inurba_marseille","lat":43.32289,"lon":5.3827,"is_reserved":false,"is_disabled":false,"rental_uris":{"android":"levelo://app?vid=58014cc6-4f39-4119-a8a0-cdc0e2507820","ios":"levelo://app?vid=58014cc6-4f39-4119-a8a0-cdc0e2507820"},"vehicle_type_id":"4","last_reported":1726765695,"current_range_meters":39200,"station_id":"ce4bhr12rcd13ifvqhqg","pricing_plan_id":"cebpf4jnsgd1na2vs0mg"},{"bike_id":"77adac3b-c500-4162-8c4b-26e3b065e332","system_id":"levelo_inurba_marseille","lat":43.292767,"lon":5.36848,"is_reserved":false,"is_disabled":false,"rental_uris":{"android":"levelo://app?vid=77adac3b-c500-4162-8c4b-26e3b065e332","ios":"levelo://app?vid=77adac3b-c500-4162-8c4b-26e3b065e332"},"vehicle_type_id":"4","last_reported":1726765695,"current_range_meters":36400,"station_id":"ce4bhbp2rcd13ifvqesg","pricing_plan_id":"cebpf4jnsgd1na2vs0mg"},{"bike_id":"822b99da-62a2-4558-b11e-b2bd9fc65cfe","system_id":"levelo_inurba_marseille","lat":43.29012,"lon":5.35625,"is_reserved":false,"is_disabled":false,"rental_uris":{"android":"levelo://app?vid=822b99da-62a2-4558-b11e-b2bd9fc65cfe","ios":"levelo://app?vid=822b99da-62a2-4558-b11e-b2bd9fc65cfe"},"vehicle_type_id":"4","last_reported":1726765695,"current_range_meters":7200,"station_id":"ce4bhb92rcd13ifvqen0","pricing_plan_id":"cebpf4jnsgd1na2vs0mg"},{"bike_id":"ed9b6bc0-e296-40a0-8c36-55507c753986","system_id":"levelo_inurba_marseille","lat":43.30809,"lon":5.43524,"is_reserved":false,"is_disabled":false,"rental_uris":{"android":"levelo://app?vid=ed9b6bc0-e296-40a0-8c36-55507c753986","ios":"levelo://app?vid=ed9b6bc0-e296-40a0-8c36-55507c753986"},"vehicle_type_id":"4","last_reported":1726765695,"current_range_meters":32400,"station_id":"ce4bhph2rcd13ifvqheg","pricing_plan_id":"cebpf4jnsgd1na2vs0mg"},{"bike_id":"82038243-8850-4b9c-9af4-f1602fb6c3fd","system_id":"levelo_inurba_marseille","lat":43.284088,"lon":5.375113,"is_reserved":false,"is_disabled":false,"rental_uris":{"android":"levelo://app?vid=82038243-8850-4b9c-9af4-f1602fb6c3fd","ios":"levelo://app?vid=82038243-8850-4b9c-9af4-f1602fb6c3fd"},"vehicle_type_id":"4","last_reported":1726765695,"current_range_meters":18000,"station_id":"ce4bhah2rcd13ifvqei0","pricing_plan_id":"cebpf4jnsgd1na2vs0mg"},{"bike_id":"fcc85902-d8ff-44bb-a03d-fafa1f53c36a","system_id":"levelo_inurba_marseille","lat":43.27073,"lon":5.42278,"is_reserved":false,"is_disabled":false,"rental_uris":{"android":"levelo://app?vid=fcc85902-d8ff-44bb-a03d-fafa1f53c36a","ios":"levelo://app?vid=fcc85902-d8ff-44bb-a03d-fafa1f53c36a"},"vehicle_type_id":"4","last_reported":1726765695,"current_range_meters":18000,"station_id":"ce4bhk92rcd13ifvqgb0","pricing_plan_id":"cebpf4jnsgd1na2vs0mg"},{"bike_id":"c5b2d6cf-b9eb-4b54-b275-b19b4750c504","system_id":"levelo_inurba_marseille","lat":43.292847,"lon":5.401091,"is_reserved":false,"is_disabled":false,"rental_uris":{"android":"levelo://app?vid=c5b2d6cf-b9eb-4b54-b275-b19b4750c504","ios":"levelo://app?vid=c5b2d6cf-b9eb-4b54-b275-b19b4750c504"},"vehicle_type_id":"4","last_reported":1726765695,"current_range_meters":26000,"station_id":"ce4bh312rcd13ifvqdk0","pricing_plan_id":"cebpf4jnsgd1na2vs0mg"},{"bike_id":"323b0779-2adb-4ad0-90c3-79b661e7fde5","system_id":"levelo_inurba_marseille","lat":43.32475,"lon":5.36554,"is_reserved":false,"is_disabled":false,"rental_uris":{"android":"levelo://app?vid=323b0779-2adb-4ad0-90c3-79b661e7fde5","ios":"levelo://app?vid=323b0779-2adb-4ad0-90c3-79b661e7fde5"},"vehicle_type_id":"4","last_reported":1726765695,"current_range_meters":12400,"station_id":"ce4bhs12rcd13ifvqhvg","pricing_plan_id":"cebpf4jnsgd1na2vs0mg"},{"bike_id":"bce83964-771d-421d-a795-c2b376c5b9dc","system_id":"levelo_inurba_marseille","lat":43.2319,"lon":5.35546,"is_reserved":false,"is_disabled":false,"rental_uris":{"android":"levelo://app?vid=bce83964-771d-421d-a795-c2b376c5b9dc","ios":"levelo://app?vid=bce83964-771d-421d-a795-c2b376c5b9dc"},"vehicle_type_id":"4","last_reported":1726765695,"current_range_meters":19600,"station_id":"ce4bhu92rcd13ifvqi70","pricing_plan_id":"cebpf4jnsgd1na2vs0mg"},{"bike_id":"1606be97-d4ab-4aad-b9ab-05cc48b0a72e","system_id":"levelo_inurba_marseille","lat":43.29871,"lon":5.39734,"is_reserved":false,"is_disabled":false,"rental_uris":{"android":"levelo://app?vid=1606be97-d4ab-4aad-b9ab-05cc48b0a72e","ios":"levelo://app?vid=1606be97-d4ab-4aad-b9ab-05cc48b0a72e"},"vehicle_type_id":"4","last_reported":1726765695,"current_range_meters":38400,"station_id":"ce4bh0h2rcd13ifvqd50","pricing_plan_id":"cebpf4jnsgd1na2vs0mg"},{"bike_id":"2c519510-5c1e-47d2-9b53-a213435b6cf0","system_id":"levelo_inurba_marseille","lat":43.28426,"lon":5.34977,"is_reserved":false,"is_disabled":false,"rental_uris":{"android":"levelo://app?vid=2c519510-5c1e-47d2-9b53-a213435b6cf0","ios":"levelo://app?vid=2c519510-5c1e-47d2-9b53-a213435b6cf0"},"vehicle_type_id":"4","last_reported":1726765695,"current_range_meters":38800,"station_id":"ce4bhbh2rcd13ifvqepg","pricing_plan_id":"cebpf4jnsgd1na2vs0mg"},{"bike_id":"aff3f781-0b85-4632-b931-41379274a64a","system_id":"levelo_inurba_marseille","lat":43.28844,"lon":5.35855,"is_reserved":false,"is_disabled":false,"rental_uris":{"android":"levelo://app?vid=aff3f781-0b85-4632-b931-41379274a64a","ios":"levelo://app?vid=aff3f781-0b85-4632-b931-41379274a64a"},"vehicle_type_id":"4","last_reported":1726765695,"current_range_meters":38400,"station_id":"ce4bhb12rcd13ifvqem0","pricing_plan_id":"cebpf4jnsgd1na2vs0mg"},{"bike_id":"5c643d73-df91-4773-be66-12c4b540fa63","system_id":"levelo_inurba_marseille","lat":43.32363,"lon":5.38884,"is_reserved":false,"is_disabled":false,"rental_uris":{"android":"levelo://app?vid=5c643d73-df91-4773-be66-12c4b540fa63","ios":"levelo://app?vid=5c643d73-df91-4773-be66-12c4b540fa63"},"vehicle_type_id":"4","last_reported":1726765695,"current_range_meters":33200,"station_id":"ce4bhqp2rcd13ifvqhog","pricing_plan_id":"cebpf4jnsgd1na2vs0mg"},{"bike_id":"b1ab4565-119f-404e-ac17-99dfc9fc3b01","system_id":"levelo_inurba_marseille","lat":43.3388,"lon":5.39164,"is_reserved":false,"is_disabled":false,"rental_uris":{"android":"levelo://app?vid=b1ab4565-119f-404e-ac17-99dfc9fc3b01","ios":"levelo://app?vid=b1ab4565-119f-404e-ac17-99dfc9fc3b01"},"vehicle_type_id":"4","last_reported":1726765695,"current_range_meters":3200,"station_id":"","pricing_plan_id":"cebpf4jnsgd1na2vs0mg"},{"bike_id":"dbc73900-1214-455b-a70c-e7e77f409cde","system_id":"levelo_inurba_marseille","lat":43.32337,"lon":5.40624,"is_reserved":false,"is_disabled":false,"rental_uris":{"android":"levelo://app?vid=dbc73900-1214-455b-a70c-e7e77f409cde","ios":"levelo://app?vid=dbc73900-1214-455b-a70c-e7e77f409cde"},"vehicle_type_id":"4","last_reported":1726765695,"current_range_meters":36800,"station_id":"ce4bhq92rcd13ifvqhjg","pricing_plan_id":"cebpf4jnsgd1na2vs0mg"},{"bike_id":"63039587-8353-4dce-ad64-0dab60366a59","system_id":"levelo_inurba_marseille","lat":43.28424,"lon":5.35004,"is_reserved":false,"is_disabled":false,"rental_uris":{"android":"levelo://app?vid=63039587-8353-4dce-ad64-0dab60366a59","ios":"levelo://app?vid=63039587-8353-4dce-ad64-0dab60366a59"},"vehicle_type_id":"4","last_reported":1726765695,"current_range_meters":6000,"station_id":"ce4bhbh2rcd13ifvqepg","pricing_plan_id":"cebpf4jnsgd1na2vs0mg"},{"bike_id":"f8a0c16b-4645-4078-984c-36817f7c2ebb","system_id":"levelo_inurba_marseille","lat":43.32107,"lon":5.36804,"is_reserved":false,"is_disabled":false,"rental_uris":{"android":"levelo://app?vid=f8a0c16b-4645-4078-984c-36817f7c2ebb","ios":"levelo://app?vid=f8a0c16b-4645-4078-984c-36817f7c2ebb"},"vehicle_type_id":"4","last_reported":1726765695,"current_range_meters":22000,"station_id":"","pricing_plan_id":"cebpf4jnsgd1na2vs0mg"},{"bike_id":"96b0f04b-84c7-447d-a951-9d3f6e0a0a28","system_id":"levelo_inurba_marseille","lat":43.29193,"lon":5.35806,"is_reserved":false,"is_disabled":false,"rental_uris":{"android":"levelo://app?vid=96b0f04b-84c7-447d-a951-9d3f6e0a0a28","ios":"levelo://app?vid=96b0f04b-84c7-447d-a951-9d3f6e0a0a28"},"vehicle_type_id":"4","last_reported":1726765695,"current_range_meters":26800,"station_id":"ce4bhb12rcd13ifvqel0","pricing_plan_id":"cebpf4jnsgd1na2vs0mg"},{"bike_id":"adb187e9-c98d-4260-bbee-9b68acc504cb","system_id":"levelo_inurba_marseille","lat":43.30596,"lon":5.39937,"is_reserved":false,"is_disabled":false,"rental_uris":{"android":"levelo://app?vid=adb187e9-c98d-4260-bbee-9b68acc504cb","ios":"levelo://app?vid=adb187e9-c98d-4260-bbee-9b68acc504cb"},"vehicle_type_id":"4","last_reported":1726765695,"current_range_meters":12800,"station_id":"ce4bhb12rcd13ifvqem0","pricing_plan_id":"cebpf4jnsgd1na2vs0mg"},{"bike_id":"fa2e946d-01fe-4bb4-a2b0-55af60a0bcec","system_id":"levelo_inurba_marseille","lat":43.33723,"lon":5.39184,"is_reserved":false,"is_disabled":false,"rental_uris":{"android":"levelo://app?vid=fa2e946d-01fe-4bb4-a2b0-55af60a0bcec","ios":"levelo://app?vid=fa2e946d-01fe-4bb4-a2b0-55af60a0bcec"},"vehicle_type_id":"4","last_reported":1726765695,"current_range_meters":37600,"station_id":"ce4bhr92rcd13ifvqhsg","pricing_plan_id":"cebpf4jnsgd1na2vs0mg"},{"bike_id":"132dc555-3f2f-4a90-8c3b-7e320397f84d","system_id":"levelo_inurba_marseille","lat":43.25089,"lon":5.39516,"is_reserved":false,"is_disabled":false,"rental_uris":{"android":"levelo://app?vid=132dc555-3f2f-4a90-8c3b-7e320397f84d","ios":"levelo://app?vid=132dc555-3f2f-4a90-8c3b-7e320397f84d"},"vehicle_type_id":"4","last_reported":1726765695,"current_range_meters":28800,"station_id":"ce4bhm12rcd13ifvqgkg","pricing_plan_id":"cebpf4jnsgd1na2vs0mg"},{"bike_id":"fb3aa10b-4230-4401-8895-b417f6bc6380","system_id":"levelo_inurba_marseille","lat":43.2465,"lon":5.38892,"is_reserved":false,"is_disabled":false,"rental_uris":{"android":"levelo://app?vid=fb3aa10b-4230-4401-8895-b417f6bc6380","ios":"levelo://app?vid=fb3aa10b-4230-4401-8895-b417f6bc6380"},"vehicle_type_id":"4","last_reported":1726765695,"current_range_meters":39200,"station_id":"ce4bhg12rcd13ifvqf60","pricing_plan_id":"cebpf4jnsgd1na2vs0mg"},{"bike_id":"328d45f9-980e-4811-97c0-47d761861509","system_id":"levelo_inurba_marseille","lat":43.29847,"lon":5.37836,"is_reserved":false,"is_disabled":false,"rental_uris":{"android":"levelo://app?vid=328d45f9-980e-4811-97c0-47d761861509","ios":"levelo://app?vid=328d45f9-980e-4811-97c0-47d761861509"},"vehicle_type_id":"4","last_reported":1726765695,"current_range_meters":5600,"station_id":"","pricing_plan_id":"cebpf4jnsgd1na2vs0mg"},{"bike_id":"9d8702ea-e562-47af-98a2-074f22253e13","system_id":"levelo_inurba_marseille","lat":43.29267,"lon":5.38449,"is_reserved":false,"is_disabled":false,"rental_uris":{"android":"levelo://app?vid=9d8702ea-e562-47af-98a2-074f22253e13","ios":"levelo://app?vid=9d8702ea-e562-47af-98a2-074f22253e13"},"vehicle_type_id":"4","last_reported":1726765695,"current_range_meters":38000,"station_id":"ce4bh692rcd13ifvqea0","pricing_plan_id":"cebpf4jnsgd1na2vs0mg"},{"bike_id":"5f586833-6175-4e7e-8332-6046bf96d96d","system_id":"levelo_inurba_marseille","lat":43.29532,"lon":5.38549,"is_reserved":false,"is_disabled":false,"rental_uris":{"android":"levelo://app?vid=5f586833-6175-4e7e-8332-6046bf96d96d","ios":"levelo://app?vid=5f586833-6175-4e7e-8332-6046bf96d96d"},"vehicle_type_id":"4","last_reported":1726765695,"current_range_meters":38800,"station_id":"ce4bgih2rcd13ifvqba0","pricing_plan_id":"cebpf4jnsgd1na2vs0mg"},{"bike_id":"e0960760-eae3-4925-93d4-1b478dc4be56","system_id":"levelo_inurba_marseille","lat":43.32369,"lon":5.38885,"is_reserved":false,"is_disabled":false,"rental_uris":{"android":"levelo://app?vid=e0960760-eae3-4925-93d4-1b478dc4be56","ios":"levelo://app?vid=e0960760-eae3-4925-93d4-1b478dc4be56"},"vehicle_type_id":"4","last_reported":1726765695,"current_range_meters":38800,"station_id":"ce4bhqp2rcd13ifvqhog","pricing_plan_id":"cebpf4jnsgd1na2vs0mg"},{"bike_id":"c7b0f30f-be69-40ee-b1ef-eb0dea808317","system_id":"levelo_inurba_marseille","lat":43.28345,"lon":5.38102,"is_reserved":false,"is_disabled":false,"rental_uris":{"android":"levelo://app?vid=c7b0f30f-be69-40ee-b1ef-eb0dea808317","ios":"levelo://app?vid=c7b0f30f-be69-40ee-b1ef-eb0dea808317"},"vehicle_type_id":"4","last_reported":1726765695,"current_range_meters":10000,"station_id":"ce4bh412rcd13ifvqdr0","pricing_plan_id":"cebpf4jnsgd1na2vs0mg"},{"bike_id":"e797119f-06bf-4019-b6ac-6a70fb67011b","system_id":"levelo_inurba_marseille","lat":43.250905,"lon":5.395013,"is_reserved":false,"is_disabled":false,"rental_uris":{"android":"levelo://app?vid=e797119f-06bf-4019-b6ac-6a70fb67011b","ios":"levelo://app?vid=e797119f-06bf-4019-b6ac-6a70fb67011b"},"vehicle_type_id":"4","last_reported":1726765695,"current_range_meters":16000,"station_id":"ce4bhm12rcd13ifvqgkg","pricing_plan_id":"cebpf4jnsgd1na2vs0mg"},{"bike_id":"fa690805-233a-4a70-a9f3-33f1b67cdb1f","system_id":"levelo_inurba_marseille","lat":43.32279,"lon":5.38273,"is_reserved":false,"is_disabled":false,"rental_uris":{"android":"levelo://app?vid=fa690805-233a-4a70-a9f3-33f1b67cdb1f","ios":"levelo://app?vid=fa690805-233a-4a70-a9f3-33f1b67cdb1f"},"vehicle_type_id":"4","last_reported":1726765695,"current_range_meters":23200,"station_id":"ce4bhr12rcd13ifvqhqg","pricing_plan_id":"cebpf4jnsgd1na2vs0mg"},{"bike_id":"6b78d7ee-236d-4b0e-a5aa-3b9305633033","system_id":"levelo_inurba_marseille","lat":43.28464,"lon":5.35879,"is_reserved":false,"is_disabled":false,"rental_uris":{"android":"levelo://app?vid=6b78d7ee-236d-4b0e-a5aa-3b9305633033","ios":"levelo://app?vid=6b78d7ee-236d-4b0e-a5aa-3b9305633033"},"vehicle_type_id":"4","last_reported":1726765695,"current_range_meters":28000,"station_id":"ce4bhah2rcd13ifvqei0","pricing_plan_id":"cebpf4jnsgd1na2vs0mg"},{"bike_id":"b2763354-ec6c-4733-8de6-6c4493759ae9","system_id":"levelo_inurba_marseille","lat":43.29083,"lon":5.40169,"is_reserved":false,"is_disabled":false,"rental_uris":{"android":"levelo://app?vid=b2763354-ec6c-4733-8de6-6c4493759ae9","ios":"levelo://app?vid=b2763354-ec6c-4733-8de6-6c4493759ae9"},"vehicle_type_id":"4","last_reported":1726765695,"current_range_meters":25200,"station_id":"","pricing_plan_id":"cebpf4jnsgd1na2vs0mg"},{"bike_id":"82ec63f5-bf19-4566-b097-0b2bdb0f8fba","system_id":"levelo_inurba_marseille","lat":43.26563,"lon":5.39008,"is_reserved":false,"is_disabled":false,"rental_uris":{"android":"levelo://app?vid=82ec63f5-bf19-4566-b097-0b2bdb0f8fba","ios":"levelo://app?vid=82ec63f5-bf19-4566-b097-0b2bdb0f8fba"},"vehicle_type_id":"4","last_reported":1726765695,"current_range_meters":7200,"station_id":"ce4bhe12rcd13ifvqf30","pricing_plan_id":"cebpf4jnsgd1na2vs0mg"},{"bike_id":"e091b79d-b4dd-4495-8b69-b79765ab19a2","system_id":"levelo_inurba_marseille","lat":43.28458,"lon":5.35885,"is_reserved":false,"is_disabled":false,"rental_uris":{"android":"levelo://app?vid=e091b79d-b4dd-4495-8b69-b79765ab19a2","ios":"levelo://app?vid=e091b79d-b4dd-4495-8b69-b79765ab19a2"},"vehicle_type_id":"4","last_reported":1726765695,"current_range_meters":10800,"station_id":"ce4bhah2rcd13ifvqei0","pricing_plan_id":"cebpf4jnsgd1na2vs0mg"},{"bike_id":"f5c61e8d-b5f7-4363-ba5c-c73a1db61c7b","system_id":"levelo_inurba_marseille","lat":43.28272,"lon":5.35074,"is_reserved":false,"is_disabled":false,"rental_uris":{"android":"levelo://app?vid=f5c61e8d-b5f7-4363-ba5c-c73a1db61c7b","ios":"levelo://app?vid=f5c61e8d-b5f7-4363-ba5c-c73a1db61c7b"},"vehicle_type_id":"4","last_reported":1726765695,"current_range_meters":12000,"station_id":"ce4bhbp2rcd13ifvqerg","pricing_plan_id":"cebpf4jnsgd1na2vs0mg"},{"bike_id":"b7d44e0e-6a3e-441c-9491-54776bb39f50","system_id":"levelo_inurba_marseille","lat":43.268036,"lon":5.402718,"is_reserved":false,"is_disabled":false,"rental_uris":{"android":"levelo://app?vid=b7d44e0e-6a3e-441c-9491-54776bb39f50","ios":"levelo://app?vid=b7d44e0e-6a3e-441c-9491-54776bb39f50"},"vehicle_type_id":"4","last_reported":1726765695,"current_range_meters":22400,"station_id":"ce501612rcd8frsf0b60","pricing_plan_id":"cebpf4jnsgd1na2vs0mg"},{"bike_id":"fe780c9c-7e13-4b38-81ce-ea43f071d76c","system_id":"levelo_inurba_marseille","lat":43.231068,"lon":5.354686,"is_reserved":false,"is_disabled":false,"rental_uris":{"android":"levelo://app?vid=fe780c9c-7e13-4b38-81ce-ea43f071d76c","ios":"levelo://app?vid=fe780c9c-7e13-4b38-81ce-ea43f071d76c"},"vehicle_type_id":"4","last_reported":1726765695,"current_range_meters":36000,"station_id":"","pricing_plan_id":"cebpf4jnsgd1na2vs0mg"},{"bike_id":"c18c2a06-f2aa-42c8-b64f-08dadd1f4665","system_id":"levelo_inurba_marseille","lat":43.28726,"lon":5.36083,"is_reserved":false,"is_disabled":false,"rental_uris":{"android":"levelo://app?vid=c18c2a06-f2aa-42c8-b64f-08dadd1f4665","ios":"levelo://app?vid=c18c2a06-f2aa-42c8-b64f-08dadd1f4665"},"vehicle_type_id":"4","last_reported":1726765695,"current_range_meters":33600,"station_id":"cki0cbj6b192h4jlfktg","pricing_plan_id":"cebpf4jnsgd1na2vs0mg"},{"bike_id":"c1bcbf9f-90be-4cf5-a7d2-4edc635d330d","system_id":"levelo_inurba_marseille","lat":43.2808,"lon":5.39631,"is_reserved":false,"is_disabled":false,"rental_uris":{"android":"levelo://app?vid=c1bcbf9f-90be-4cf5-a7d2-4edc635d330d","ios":"levelo://app?vid=c1bcbf9f-90be-4cf5-a7d2-4edc635d330d"},"vehicle_type_id":"4","last_reported":1726765695,"current_range_meters":10000,"station_id":"ce4bho12rcd13ifvqh2g","pricing_plan_id":"cebpf4jnsgd1na2vs0mg"},{"bike_id":"ac1ab480-eb92-426b-ba9d-b2e950b769ae","system_id":"levelo_inurba_marseille","lat":43.308,"lon":5.43517,"is_reserved":false,"is_disabled":false,"rental_uris":{"android":"levelo://app?vid=ac1ab480-eb92-426b-ba9d-b2e950b769ae","ios":"levelo://app?vid=ac1ab480-eb92-426b-ba9d-b2e950b769ae"},"vehicle_type_id":"4","last_reported":1726765695,"current_range_meters":11200,"station_id":"ce4bhph2rcd13ifvqheg","pricing_plan_id":"cebpf4jnsgd1na2vs0mg"},{"bike_id":"a9acd6bf-527a-4cbe-a539-3607cfea1624","system_id":"levelo_inurba_marseille","lat":43.27619,"lon":5.36114,"is_reserved":false,"is_disabled":false,"rental_uris":{"android":"levelo://app?vid=a9acd6bf-527a-4cbe-a539-3607cfea1624","ios":"levelo://app?vid=a9acd6bf-527a-4cbe-a539-3607cfea1624"},"vehicle_type_id":"4","last_reported":1726765695,"current_range_meters":28000,"station_id":"ce4bgj92rcd13ifvqbe0","pricing_plan_id":"cebpf4jnsgd1na2vs0mg"},{"bike_id":"3b5c402c-27d5-4010-ae48-42592c44e1cb","system_id":"levelo_inurba_marseille","lat":43.29203,"lon":5.38266,"is_reserved":false,"is_disabled":false,"rental_uris":{"android":"levelo://app?vid=3b5c402c-27d5-4010-ae48-42592c44e1cb","ios":"levelo://app?vid=3b5c402c-27d5-4010-ae48-42592c44e1cb"},"vehicle_type_id":"4","last_reported":1726765695,"current_range_meters":30800,"station_id":"","pricing_plan_id":"cebpf4jnsgd1na2vs0mg"},{"bike_id":"b7ffa2b3-81e7-4fcc-a7e0-75ed6891aad8","system_id":"levelo_inurba_marseille","lat":43.27375,"lon":5.36252,"is_reserved":false,"is_disabled":false,"rental_uris":{"android":"levelo://app?vid=b7ffa2b3-81e7-4fcc-a7e0-75ed6891aad8","ios":"levelo://app?vid=b7ffa2b3-81e7-4fcc-a7e0-75ed6891aad8"},"vehicle_type_id":"4","last_reported":1726765695,"current_range_meters":17600,"station_id":"ce4bhbh2rcd13ifvqeo0","pricing_plan_id":"cebpf4jnsgd1na2vs0mg"},{"bike_id":"c2c9a555-6ec8-4b92-b33e-073571605c93","system_id":"levelo_inurba_marseille","lat":43.23193,"lon":5.35545,"is_reserved":false,"is_disabled":false,"rental_uris":{"android":"levelo://app?vid=c2c9a555-6ec8-4b92-b33e-073571605c93","ios":"levelo://app?vid=c2c9a555-6ec8-4b92-b33e-073571605c93"},"vehicle_type_id":"4","last_reported":1726765695,"current_range_meters":31200,"station_id":"ce4bhu92rcd13ifvqi70","pricing_plan_id":"cebpf4jnsgd1na2vs0mg"},{"bike_id":"62997862-0566-49dc-92c6-a8477c05ade8","system_id":"levelo_inurba_marseille","lat":43.27071,"lon":5.42284,"is_reserved":false,"is_disabled":false,"rental_uris":{"android":"levelo://app?vid=62997862-0566-49dc-92c6-a8477c05ade8","ios":"levelo://app?vid=62997862-0566-49dc-92c6-a8477c05ade8"},"vehicle_type_id":"4","last_reported":1726765695,"current_range_meters":30800,"station_id":"ce4bhk92rcd13ifvqgb0","pricing_plan_id":"cebpf4jnsgd1na2vs0mg"},{"bike_id":"074c1cf9-41d3-47d1-84e9-c61d17ae716c","system_id":"levelo_inurba_marseille","lat":43.31166,"lon":5.38731,"is_reserved":false,"is_disabled":false,"rental_uris":{"android":"levelo://app?vid=074c1cf9-41d3-47d1-84e9-c61d17ae716c","ios":"levelo://app?vid=074c1cf9-41d3-47d1-84e9-c61d17ae716c"},"vehicle_type_id":"4","last_reported":1726765695,"current_range_meters":10800,"station_id":"ce4bgv12rcd13ifvqcp0","pricing_plan_id":"cebpf4jnsgd1na2vs0mg"},{"bike_id":"f491eeb4-db07-4dcb-999f-3ad488f7063f","system_id":"levelo_inurba_marseille","lat":43.27178,"lon":5.40989,"is_reserved":false,"is_disabled":false,"rental_uris":{"android":"levelo://app?vid=f491eeb4-db07-4dcb-999f-3ad488f7063f","ios":"levelo://app?vid=f491eeb4-db07-4dcb-999f-3ad488f7063f"},"vehicle_type_id":"4","last_reported":1726765695,"current_range_meters":36800,"station_id":"ce4bhl12rcd13ifvqgf0","pricing_plan_id":"cebpf4jnsgd1na2vs0mg"},{"bike_id":"3ea8f54f-9145-4e7d-b8dd-375864b1fadc","system_id":"levelo_inurba_marseille","lat":43.31991,"lon":5.37198,"is_reserved":false,"is_disabled":false,"rental_uris":{"android":"levelo://app?vid=3ea8f54f-9145-4e7d-b8dd-375864b1fadc","ios":"levelo://app?vid=3ea8f54f-9145-4e7d-b8dd-375864b1fadc"},"vehicle_type_id":"4","last_reported":1726765695,"current_range_meters":18000,"station_id":"","pricing_plan_id":"cebpf4jnsgd1na2vs0mg"},{"bike_id":"05c187eb-a8cf-4bba-8131-d87d6257d1be","system_id":"levelo_inurba_marseille","lat":43.2669,"lon":5.38271,"is_reserved":false,"is_disabled":false,"rental_uris":{"android":"levelo://app?vid=05c187eb-a8cf-4bba-8131-d87d6257d1be","ios":"levelo://app?vid=05c187eb-a8cf-4bba-8131-d87d6257d1be"},"vehicle_type_id":"4","last_reported":1726765695,"current_range_meters":22400,"station_id":"ce4bhg92rcd13ifvqf90","pricing_plan_id":"cebpf4jnsgd1na2vs0mg"},{"bike_id":"bf4ad6b3-f7f0-4577-89ed-f60e565eae1b","system_id":"levelo_inurba_marseille","lat":43.28616,"lon":5.35103,"is_reserved":false,"is_disabled":false,"rental_uris":{"android":"levelo://app?vid=bf4ad6b3-f7f0-4577-89ed-f60e565eae1b","ios":"levelo://app?vid=bf4ad6b3-f7f0-4577-89ed-f60e565eae1b"},"vehicle_type_id":"4","last_reported":1726765695,"current_range_meters":24400,"station_id":"ce4bhch2rcd13ifvqeug","pricing_plan_id":"cebpf4jnsgd1na2vs0mg"},{"bike_id":"768f7580-7c1f-4c4a-b9a5-c5bbe0d1c230","system_id":"levelo_inurba_marseille","lat":43.270698,"lon":5.422835,"is_reserved":false,"is_disabled":false,"rental_uris":{"android":"levelo://app?vid=768f7580-7c1f-4c4a-b9a5-c5bbe0d1c230","ios":"levelo://app?vid=768f7580-7c1f-4c4a-b9a5-c5bbe0d1c230"},"vehicle_type_id":"4","last_reported":1726765695,"current_range_meters":34000,"station_id":"ce4bhk92rcd13ifvqgb0","pricing_plan_id":"cebpf4jnsgd1na2vs0mg"},{"bike_id":"1120a87e-f56f-4309-a214-8069889a3cc3","system_id":"levelo_inurba_marseille","lat":43.26191,"lon":5.3745,"is_reserved":false,"is_disabled":false,"rental_uris":{"android":"levelo://app?vid=1120a87e-f56f-4309-a214-8069889a3cc3","ios":"levelo://app?vid=1120a87e-f56f-4309-a214-8069889a3cc3"},"vehicle_type_id":"4","last_reported":1726765695,"current_range_meters":38800,"station_id":"ce4bhgp2rcd13ifvqfc0","pricing_plan_id":"cebpf4jnsgd1na2vs0mg"},{"bike_id":"1cf399ea-88d2-49a4-96ef-449a794231c5","system_id":"levelo_inurba_marseille","lat":43.29259,"lon":5.38447,"is_reserved":false,"is_disabled":false,"rental_uris":{"android":"levelo://app?vid=1cf399ea-88d2-49a4-96ef-449a794231c5","ios":"levelo://app?vid=1cf399ea-88d2-49a4-96ef-449a794231c5"},"vehicle_type_id":"4","last_reported":1726765695,"current_range_meters":11600,"station_id":"ce4bh692rcd13ifvqea0","pricing_plan_id":"cebpf4jnsgd1na2vs0mg"},{"bike_id":"9b82d1e7-98c6-4f41-b3ce-7b4b71956ae0","system_id":"levelo_inurba_marseille","lat":43.3012,"lon":5.39857,"is_reserved":false,"is_disabled":false,"rental_uris":{"android":"levelo://app?vid=9b82d1e7-98c6-4f41-b3ce-7b4b71956ae0","ios":"levelo://app?vid=9b82d1e7-98c6-4f41-b3ce-7b4b71956ae0"},"vehicle_type_id":"4","last_reported":1726765695,"current_range_meters":2800,"station_id":"ce4bh0h2rcd13ifvqd40","pricing_plan_id":"cebpf4jnsgd1na2vs0mg"},{"bike_id":"88068615-8377-4919-a422-c6e9bcaa3ab4","system_id":"levelo_inurba_marseille","lat":43.32288,"lon":5.38269,"is_reserved":false,"is_disabled":false,"rental_uris":{"android":"levelo://app?vid=88068615-8377-4919-a422-c6e9bcaa3ab4","ios":"levelo://app?vid=88068615-8377-4919-a422-c6e9bcaa3ab4"},"vehicle_type_id":"4","last_reported":1726765695,"current_range_meters":39200,"station_id":"ce4bhr12rcd13ifvqhqg","pricing_plan_id":"cebpf4jnsgd1na2vs0mg"},{"bike_id":"0c20ab6c-334d-49f2-88b1-a7741e392094","system_id":"levelo_inurba_marseille","lat":43.24544,"lon":5.39517,"is_reserved":false,"is_disabled":false,"rental_uris":{"android":"levelo://app?vid=0c20ab6c-334d-49f2-88b1-a7741e392094","ios":"levelo://app?vid=0c20ab6c-334d-49f2-88b1-a7741e392094"},"vehicle_type_id":"4","last_reported":1726765695,"current_range_meters":34000,"station_id":"ce4bhlp2rcd13ifvqgjg","pricing_plan_id":"cebpf4jnsgd1na2vs0mg"},{"bike_id":"4722ba9d-e474-4ce6-acc7-586090fe99fe","system_id":"levelo_inurba_marseille","lat":43.337444,"lon":5.374475,"is_reserved":false,"is_disabled":false,"rental_uris":{"android":"levelo://app?vid=4722ba9d-e474-4ce6-acc7-586090fe99fe","ios":"levelo://app?vid=4722ba9d-e474-4ce6-acc7-586090fe99fe"},"vehicle_type_id":"4","last_reported":1726765695,"current_range_meters":15200,"station_id":"","pricing_plan_id":"cebpf4jnsgd1na2vs0mg"},{"bike_id":"719a55de-51e5-4df3-ae7c-9a5d63ec5417","system_id":"levelo_inurba_marseille","lat":43.28402,"lon":5.37517,"is_reserved":false,"is_disabled":false,"rental_uris":{"android":"levelo://app?vid=719a55de-51e5-4df3-ae7c-9a5d63ec5417","ios":"levelo://app?vid=719a55de-51e5-4df3-ae7c-9a5d63ec5417"},"vehicle_type_id":"4","last_reported":1726765695,"current_range_meters":22800,"station_id":"ce4bh412rcd13ifvqds0","pricing_plan_id":"cebpf4jnsgd1na2vs0mg"},{"bike_id":"68159eba-e301-4077-943e-46befe1273f0","system_id":"levelo_inurba_marseille","lat":43.23191,"lon":5.35549,"is_reserved":false,"is_disabled":false,"rental_uris":{"android":"levelo://app?vid=68159eba-e301-4077-943e-46befe1273f0","ios":"levelo://app?vid=68159eba-e301-4077-943e-46befe1273f0"},"vehicle_type_id":"4","last_reported":1726765695,"current_range_meters":38000,"station_id":"ce4bhu92rcd13ifvqi70","pricing_plan_id":"cebpf4jnsgd1na2vs0mg"},{"bike_id":"efbcdec5-3939-453b-a590-768e24ca56c4","system_id":"levelo_inurba_marseille","lat":43.28339,"lon":5.38095,"is_reserved":false,"is_disabled":false,"rental_uris":{"android":"levelo://app?vid=efbcdec5-3939-453b-a590-768e24ca56c4","ios":"levelo://app?vid=efbcdec5-3939-453b-a590-768e24ca56c4"},"vehicle_type_id":"4","last_reported":1726765695,"current_range_meters":6800,"station_id":"ce4bh412rcd13ifvqdr0","pricing_plan_id":"cebpf4jnsgd1na2vs0mg"},{"bike_id":"686a7ca1-b460-40b5-9c68-158c7e315083","system_id":"levelo_inurba_marseille","lat":43.28611,"lon":5.35101,"is_reserved":false,"is_disabled":false,"rental_uris":{"android":"levelo://app?vid=686a7ca1-b460-40b5-9c68-158c7e315083","ios":"levelo://app?vid=686a7ca1-b460-40b5-9c68-158c7e315083"},"vehicle_type_id":"4","last_reported":1726765695,"current_range_meters":19600,"station_id":"ce4bhch2rcd13ifvqeug","pricing_plan_id":"cebpf4jnsgd1na2vs0mg"},{"bike_id":"add3f2ab-59fd-4854-921d-40171b6d509a","system_id":"levelo_inurba_marseille","lat":43.31166,"lon":5.38722,"is_reserved":false,"is_disabled":false,"rental_uris":{"android":"levelo://app?vid=add3f2ab-59fd-4854-921d-40171b6d509a","ios":"levelo://app?vid=add3f2ab-59fd-4854-921d-40171b6d509a"},"vehicle_type_id":"4","last_reported":1726765695,"current_range_meters":17200,"station_id":"ce4bgv12rcd13ifvqcp0","pricing_plan_id":"cebpf4jnsgd1na2vs0mg"},{"bike_id":"f754ec22-922c-4fb1-9779-d8eca64263a2","system_id":"levelo_inurba_marseille","lat":43.303131,"lon":5.366441,"is_reserved":false,"is_disabled":false,"rental_uris":{"android":"levelo://app?vid=f754ec22-922c-4fb1-9779-d8eca64263a2","ios":"levelo://app?vid=f754ec22-922c-4fb1-9779-d8eca64263a2"},"vehicle_type_id":"4","last_reported":1726765695,"current_range_meters":24800,"station_id":"ce4bgrh2rcd13ifvqc8g","pricing_plan_id":"cebpf4jnsgd1na2vs0mg"},{"bike_id":"3018c9b4-87c8-4c4b-85a7-2b2ed3115b39","system_id":"levelo_inurba_marseille","lat":43.28148,"lon":5.42643,"is_reserved":false,"is_disabled":false,"rental_uris":{"android":"levelo://app?vid=3018c9b4-87c8-4c4b-85a7-2b2ed3115b39","ios":"levelo://app?vid=3018c9b4-87c8-4c4b-85a7-2b2ed3115b39"},"vehicle_type_id":"4","last_reported":1726765695,"current_range_meters":30800,"station_id":"ce4bhnh2rcd13ifvqgug","pricing_plan_id":"cebpf4jnsgd1na2vs0mg"},{"bike_id":"0f9e353b-34be-4131-bc94-f528c8afe4b7","system_id":"levelo_inurba_marseille","lat":43.32484,"lon":5.36559,"is_reserved":false,"is_disabled":false,"rental_uris":{"android":"levelo://app?vid=0f9e353b-34be-4131-bc94-f528c8afe4b7","ios":"levelo://app?vid=0f9e353b-34be-4131-bc94-f528c8afe4b7"},"vehicle_type_id":"4","last_reported":1726765695,"current_range_meters":22800,"station_id":"ce4bhs12rcd13ifvqhvg","pricing_plan_id":"cebpf4jnsgd1na2vs0mg"},{"bike_id":"48be60e1-28fc-45b0-96a8-e60f6d4fbef5","system_id":"levelo_inurba_marseille","lat":43.31224,"lon":5.36856,"is_reserved":false,"is_disabled":false,"rental_uris":{"android":"levelo://app?vid=48be60e1-28fc-45b0-96a8-e60f6d4fbef5","ios":"levelo://app?vid=48be60e1-28fc-45b0-96a8-e60f6d4fbef5"},"vehicle_type_id":"4","last_reported":1726765695,"current_range_meters":18000,"station_id":"ce4bgl92rcd13ifvqbq0","pricing_plan_id":"cebpf4jnsgd1na2vs0mg"},{"bike_id":"af86e87c-c079-4e75-bbda-ea50e910e3ff","system_id":"levelo_inurba_marseille","lat":43.26482,"lon":5.39554,"is_reserved":false,"is_disabled":false,"rental_uris":{"android":"levelo://app?vid=af86e87c-c079-4e75-bbda-ea50e910e3ff","ios":"levelo://app?vid=af86e87c-c079-4e75-bbda-ea50e910e3ff"},"vehicle_type_id":"4","last_reported":1726765695,"current_range_meters":8800,"station_id":"ce4bhi12rcd13ifvqfq0","pricing_plan_id":"cebpf4jnsgd1na2vs0mg"},{"bike_id":"3807c0e3-c462-4c31-973f-e63efd2dc437","system_id":"levelo_inurba_marseille","lat":43.29899,"lon":5.4367,"is_reserved":false,"is_disabled":false,"rental_uris":{"android":"levelo://app?vid=3807c0e3-c462-4c31-973f-e63efd2dc437","ios":"levelo://app?vid=3807c0e3-c462-4c31-973f-e63efd2dc437"},"vehicle_type_id":"4","last_reported":1726765695,"current_range_meters":24800,"station_id":"ce4bhpp2rcd13ifvqhfg","pricing_plan_id":"cebpf4jnsgd1na2vs0mg"},{"bike_id":"bbfc4c8e-4f27-4dfa-9f37-7adb6c5b9d5f","system_id":"levelo_inurba_marseille","lat":43.31121,"lon":5.37778,"is_reserved":false,"is_disabled":false,"rental_uris":{"android":"levelo://app?vid=bbfc4c8e-4f27-4dfa-9f37-7adb6c5b9d5f","ios":"levelo://app?vid=bbfc4c8e-4f27-4dfa-9f37-7adb6c5b9d5f"},"vehicle_type_id":"4","last_reported":1726765695,"current_range_meters":36800,"station_id":"ce4bgt92rcd13ifvqcg0","pricing_plan_id":"cebpf4jnsgd1na2vs0mg"},{"bike_id":"32c7a4e7-be42-4fc9-b7ae-1aa2a552dcf1","system_id":"levelo_inurba_marseille","lat":43.286652,"lon":5.386663,"is_reserved":false,"is_disabled":false,"rental_uris":{"android":"levelo://app?vid=32c7a4e7-be42-4fc9-b7ae-1aa2a552dcf1","ios":"levelo://app?vid=32c7a4e7-be42-4fc9-b7ae-1aa2a552dcf1"},"vehicle_type_id":"4","last_reported":1726765695,"current_range_meters":3200,"station_id":"ce4bhgh2rcd13ifvqfb0","pricing_plan_id":"cebpf4jnsgd1na2vs0mg"},{"bike_id":"cbd44466-5b83-400d-ba9e-b1ff70a69d37","system_id":"levelo_inurba_marseille","lat":43.28944,"lon":5.36635,"is_reserved":false,"is_disabled":false,"rental_uris":{"android":"levelo://app?vid=cbd44466-5b83-400d-ba9e-b1ff70a69d37","ios":"levelo://app?vid=cbd44466-5b83-400d-ba9e-b1ff70a69d37"},"vehicle_type_id":"4","last_reported":1726765695,"current_range_meters":16000,"station_id":"ce4bhap2rcd13ifvqek0","pricing_plan_id":"cebpf4jnsgd1na2vs0mg"},{"bike_id":"acf44b62-d8c8-47a7-a8d1-9161d6244362","system_id":"levelo_inurba_marseille","lat":43.23195,"lon":5.35554,"is_reserved":false,"is_disabled":false,"rental_uris":{"android":"levelo://app?vid=acf44b62-d8c8-47a7-a8d1-9161d6244362","ios":"levelo://app?vid=acf44b62-d8c8-47a7-a8d1-9161d6244362"},"vehicle_type_id":"4","last_reported":1726765695,"current_range_meters":12000,"station_id":"ce4bhu92rcd13ifvqi70","pricing_plan_id":"cebpf4jnsgd1na2vs0mg"},{"bike_id":"f3b4d6f9-40fb-48ea-9adb-7605b63a0e31","system_id":"levelo_inurba_marseille","lat":43.30799,"lon":5.43521,"is_reserved":false,"is_disabled":false,"rental_uris":{"android":"levelo://app?vid=f3b4d6f9-40fb-48ea-9adb-7605b63a0e31","ios":"levelo://app?vid=f3b4d6f9-40fb-48ea-9adb-7605b63a0e31"},"vehicle_type_id":"4","last_reported":1726765695,"current_range_meters":26800,"station_id":"ce4bhph2rcd13ifvqheg","pricing_plan_id":"cebpf4jnsgd1na2vs0mg"},{"bike_id":"7330beb1-7a33-411c-87b2-92394184a12f","system_id":"levelo_inurba_marseille","lat":43.26215,"lon":5.37443,"is_reserved":false,"is_disabled":false,"rental_uris":{"android":"levelo://app?vid=7330beb1-7a33-411c-87b2-92394184a12f","ios":"levelo://app?vid=7330beb1-7a33-411c-87b2-92394184a12f"},"vehicle_type_id":"4","last_reported":1726765695,"current_range_meters":27600,"station_id":"ce4bhgp2rcd13ifvqfc0","pricing_plan_id":"cebpf4jnsgd1na2vs0mg"},{"bike_id":"87b7b45c-cd04-4830-8ee1-c5211668d49e","system_id":"levelo_inurba_marseille","lat":43.301332,"lon":5.374269,"is_reserved":false,"is_disabled":false,"rental_uris":{"android":"levelo://app?vid=87b7b45c-cd04-4830-8ee1-c5211668d49e","ios":"levelo://app?vid=87b7b45c-cd04-4830-8ee1-c5211668d49e"},"vehicle_type_id":"4","last_reported":1726765695,"current_range_meters":37600,"station_id":"ce4bgs92rcd13ifvqcc0","pricing_plan_id":"cebpf4jnsgd1na2vs0mg"},{"bike_id":"e2b38383-16c2-4b47-bc2f-0bcdac78c28e","system_id":"levelo_inurba_marseille","lat":43.2578,"lon":5.41061,"is_reserved":false,"is_disabled":false,"rental_uris":{"android":"levelo://app?vid=e2b38383-16c2-4b47-bc2f-0bcdac78c28e","ios":"levelo://app?vid=e2b38383-16c2-4b47-bc2f-0bcdac78c28e"},"vehicle_type_id":"4","last_reported":1726765695,"current_range_meters":23200,"station_id":"","pricing_plan_id":"cebpf4jnsgd1na2vs0mg"},{"bike_id":"d2940fab-b6cb-453e-bdff-e0b94f3daa40","system_id":"levelo_inurba_marseille","lat":43.27175,"lon":5.40994,"is_reserved":false,"is_disabled":false,"rental_uris":{"android":"levelo://app?vid=d2940fab-b6cb-453e-bdff-e0b94f3daa40","ios":"levelo://app?vid=d2940fab-b6cb-453e-bdff-e0b94f3daa40"},"vehicle_type_id":"4","last_reported":1726765695,"current_range_meters":38000,"station_id":"ce4bhl12rcd13ifvqgf0","pricing_plan_id":"cebpf4jnsgd1na2vs0mg"},{"bike_id":"3265e5d2-6cf8-4420-839a-2be11da4f96f","system_id":"levelo_inurba_marseille","lat":43.30118,"lon":5.39859,"is_reserved":false,"is_disabled":false,"rental_uris":{"android":"levelo://app?vid=3265e5d2-6cf8-4420-839a-2be11da4f96f","ios":"levelo://app?vid=3265e5d2-6cf8-4420-839a-2be11da4f96f"},"vehicle_type_id":"4","last_reported":1726765695,"current_range_meters":39200,"station_id":"ce4bh0h2rcd13ifvqd40","pricing_plan_id":"cebpf4jnsgd1na2vs0mg"},{"bike_id":"7c081fe9-fdc0-46dc-a8e9-7bac664026d7","system_id":"levelo_inurba_marseille","lat":43.2737,"lon":5.36261,"is_reserved":false,"is_disabled":false,"rental_uris":{"android":"levelo://app?vid=7c081fe9-fdc0-46dc-a8e9-7bac664026d7","ios":"levelo://app?vid=7c081fe9-fdc0-46dc-a8e9-7bac664026d7"},"vehicle_type_id":"4","last_reported":1726765695,"current_range_meters":6400,"station_id":"ce4bhbh2rcd13ifvqeo0","pricing_plan_id":"cebpf4jnsgd1na2vs0mg"},{"bike_id":"18fbdd1b-fb72-4731-b638-452632eb86f1","system_id":"levelo_inurba_marseille","lat":43.2407,"lon":5.37766,"is_reserved":false,"is_disabled":false,"rental_uris":{"android":"levelo://app?vid=18fbdd1b-fb72-4731-b638-452632eb86f1","ios":"levelo://app?vid=18fbdd1b-fb72-4731-b638-452632eb86f1"},"vehicle_type_id":"4","last_reported":1726765695,"current_range_meters":8000,"station_id":"ce4bhnp2rcd13ifvqgvg","pricing_plan_id":"cebpf4jnsgd1na2vs0mg"},{"bike_id":"90c79945-ea56-420d-9f2d-ecec9aadbb4d","system_id":"levelo_inurba_marseille","lat":43.28616,"lon":5.35106,"is_reserved":false,"is_disabled":false,"rental_uris":{"android":"levelo://app?vid=90c79945-ea56-420d-9f2d-ecec9aadbb4d","ios":"levelo://app?vid=90c79945-ea56-420d-9f2d-ecec9aadbb4d"},"vehicle_type_id":"4","last_reported":1726765695,"current_range_meters":26800,"station_id":"ce4bhch2rcd13ifvqeug","pricing_plan_id":"cebpf4jnsgd1na2vs0mg"},{"bike_id":"fc7b8651-4c9c-46a0-ac42-d24ac74f8ba0","system_id":"levelo_inurba_marseille","lat":43.24661,"lon":5.38165,"is_reserved":false,"is_disabled":false,"rental_uris":{"android":"levelo://app?vid=fc7b8651-4c9c-46a0-ac42-d24ac74f8ba0","ios":"levelo://app?vid=fc7b8651-4c9c-46a0-ac42-d24ac74f8ba0"},"vehicle_type_id":"4","last_reported":1726765695,"current_range_meters":35200,"station_id":"ce4bhih2rcd13ifvqfr0","pricing_plan_id":"cebpf4jnsgd1na2vs0mg"},{"bike_id":"7df9edf0-e664-4b15-afac-2fe4496c6e22","system_id":"levelo_inurba_marseille","lat":43.29557,"lon":5.42292,"is_reserved":false,"is_disabled":false,"rental_uris":{"android":"levelo://app?vid=7df9edf0-e664-4b15-afac-2fe4496c6e22","ios":"levelo://app?vid=7df9edf0-e664-4b15-afac-2fe4496c6e22"},"vehicle_type_id":"4","last_reported":1726765695,"current_range_meters":0,"station_id":"ce4bhph2rcd13ifvqhdg","pricing_plan_id":"cebpf4jnsgd1na2vs0mg"},{"bike_id":"19e113d2-14df-48a8-81d8-0596a20ecc50","system_id":"levelo_inurba_marseille","lat":43.28718,"lon":5.39999,"is_reserved":false,"is_disabled":false,"rental_uris":{"android":"levelo://app?vid=19e113d2-14df-48a8-81d8-0596a20ecc50","ios":"levelo://app?vid=19e113d2-14df-48a8-81d8-0596a20ecc50"},"vehicle_type_id":"4","last_reported":1726765695,"current_range_meters":28800,"station_id":"ce4bho92rcd13ifvqh3g","pricing_plan_id":"cebpf4jnsgd1na2vs0mg"},{"bike_id":"ecf5d7ce-58a9-409d-b0e2-5688f3553361","system_id":"levelo_inurba_marseille","lat":43.32291,"lon":5.38265,"is_reserved":false,"is_disabled":false,"rental_uris":{"android":"levelo://app?vid=ecf5d7ce-58a9-409d-b0e2-5688f3553361","ios":"levelo://app?vid=ecf5d7ce-58a9-409d-b0e2-5688f3553361"},"vehicle_type_id":"4","last_reported":1726765695,"current_range_meters":16400,"station_id":"ce4bhr12rcd13ifvqhqg","pricing_plan_id":"cebpf4jnsgd1na2vs0mg"},{"bike_id":"f0980dc9-6f83-4296-96b4-7150bb8f624f","system_id":"levelo_inurba_marseille","lat":43.30329,"lon":5.40443,"is_reserved":false,"is_disabled":false,"rental_uris":{"android":"levelo://app?vid=f0980dc9-6f83-4296-96b4-7150bb8f624f","ios":"levelo://app?vid=f0980dc9-6f83-4296-96b4-7150bb8f624f"},"vehicle_type_id":"4","last_reported":1726765695,"current_range_meters":38800,"station_id":"ce4bh012rcd13ifvqd10","pricing_plan_id":"cebpf4jnsgd1na2vs0mg"},{"bike_id":"ab0b1402-f739-41a1-8767-80bad80cff24","system_id":"levelo_inurba_marseille","lat":43.28019,"lon":5.3591,"is_reserved":false,"is_disabled":false,"rental_uris":{"android":"levelo://app?vid=ab0b1402-f739-41a1-8767-80bad80cff24","ios":"levelo://app?vid=ab0b1402-f739-41a1-8767-80bad80cff24"},"vehicle_type_id":"4","last_reported":1726765695,"current_range_meters":11600,"station_id":"","pricing_plan_id":"cebpf4jnsgd1na2vs0mg"},{"bike_id":"2f62274b-8b58-4e8c-8f07-558f6585e08f","system_id":"levelo_inurba_marseille","lat":43.31166,"lon":5.38719,"is_reserved":false,"is_disabled":false,"rental_uris":{"android":"levelo://app?vid=2f62274b-8b58-4e8c-8f07-558f6585e08f","ios":"levelo://app?vid=2f62274b-8b58-4e8c-8f07-558f6585e08f"},"vehicle_type_id":"4","last_reported":1726765695,"current_range_meters":33200,"station_id":"ce4bgv12rcd13ifvqcp0","pricing_plan_id":"cebpf4jnsgd1na2vs0mg"},{"bike_id":"7a3c83eb-d3d7-4549-94c7-3a6cdebd70a8","system_id":"levelo_inurba_marseille","lat":43.28945,"lon":5.36637,"is_reserved":false,"is_disabled":false,"rental_uris":{"android":"levelo://app?vid=7a3c83eb-d3d7-4549-94c7-3a6cdebd70a8","ios":"levelo://app?vid=7a3c83eb-d3d7-4549-94c7-3a6cdebd70a8"},"vehicle_type_id":"4","last_reported":1726765695,"current_range_meters":22800,"station_id":"ce4bhap2rcd13ifvqek0","pricing_plan_id":"cebpf4jnsgd1na2vs0mg"},{"bike_id":"8c5eff0b-5087-4980-9b53-849cbae9be61","system_id":"levelo_inurba_marseille","lat":43.29034,"lon":5.37564,"is_reserved":false,"is_disabled":false,"rental_uris":{"android":"levelo://app?vid=8c5eff0b-5087-4980-9b53-849cbae9be61","ios":"levelo://app?vid=8c5eff0b-5087-4980-9b53-849cbae9be61"},"vehicle_type_id":"4","last_reported":1726765695,"current_range_meters":20000,"station_id":"ce4bh692rcd13ifvqe90","pricing_plan_id":"cebpf4jnsgd1na2vs0mg"},{"bike_id":"2a8eb97b-ae35-4c15-b40c-4fc3db6c70e6","system_id":"levelo_inurba_marseille","lat":43.31122,"lon":5.3778,"is_reserved":false,"is_disabled":false,"rental_uris":{"android":"levelo://app?vid=2a8eb97b-ae35-4c15-b40c-4fc3db6c70e6","ios":"levelo://app?vid=2a8eb97b-ae35-4c15-b40c-4fc3db6c70e6"},"vehicle_type_id":"4","last_reported":1726765695,"current_range_meters":6000,"station_id":"ce4bgt92rcd13ifvqcg0","pricing_plan_id":"cebpf4jnsgd1na2vs0mg"},{"bike_id":"5a05406d-ea7f-406a-a244-592bf11c3b7b","system_id":"levelo_inurba_marseille","lat":43.294,"lon":5.41248,"is_reserved":false,"is_disabled":false,"rental_uris":{"android":"levelo://app?vid=5a05406d-ea7f-406a-a244-592bf11c3b7b","ios":"levelo://app?vid=5a05406d-ea7f-406a-a244-592bf11c3b7b"},"vehicle_type_id":"4","last_reported":1726765695,"current_range_meters":12800,"station_id":"","pricing_plan_id":"cebpf4jnsgd1na2vs0mg"},{"bike_id":"27f1682f-21fc-4359-8b4f-3a026a6cde39","system_id":"levelo_inurba_marseille","lat":43.27072,"lon":5.42277,"is_reserved":false,"is_disabled":false,"rental_uris":{"android":"levelo://app?vid=27f1682f-21fc-4359-8b4f-3a026a6cde39","ios":"levelo://app?vid=27f1682f-21fc-4359-8b4f-3a026a6cde39"},"vehicle_type_id":"4","last_reported":1726765695,"current_range_meters":38000,"station_id":"ce4bhk92rcd13ifvqgb0","pricing_plan_id":"cebpf4jnsgd1na2vs0mg"},{"bike_id":"40292cc5-72ba-45c9-9a71-c24e052af1ac","system_id":"levelo_inurba_marseille","lat":43.29163,"lon":5.37164,"is_reserved":false,"is_disabled":false,"rental_uris":{"android":"levelo://app?vid=40292cc5-72ba-45c9-9a71-c24e052af1ac","ios":"levelo://app?vid=40292cc5-72ba-45c9-9a71-c24e052af1ac"},"vehicle_type_id":"4","last_reported":1726765695,"current_range_meters":25200,"station_id":"ce4bha92rcd13ifvqeh0","pricing_plan_id":"cebpf4jnsgd1na2vs0mg"},{"bike_id":"20d786e0-4717-48a5-b2d5-92e3ac442cb6","system_id":"levelo_inurba_marseille","lat":43.29009,"lon":5.35614,"is_reserved":false,"is_disabled":false,"rental_uris":{"android":"levelo://app?vid=20d786e0-4717-48a5-b2d5-92e3ac442cb6","ios":"levelo://app?vid=20d786e0-4717-48a5-b2d5-92e3ac442cb6"},"vehicle_type_id":"4","last_reported":1726765695,"current_range_meters":30400,"station_id":"ce4bhb92rcd13ifvqen0","pricing_plan_id":"cebpf4jnsgd1na2vs0mg"},{"bike_id":"f4b773d9-303a-4c6e-9592-f239e09ff34f","system_id":"levelo_inurba_marseille","lat":43.29259,"lon":5.38443,"is_reserved":false,"is_disabled":false,"rental_uris":{"android":"levelo://app?vid=f4b773d9-303a-4c6e-9592-f239e09ff34f","ios":"levelo://app?vid=f4b773d9-303a-4c6e-9592-f239e09ff34f"},"vehicle_type_id":"4","last_reported":1726765695,"current_range_meters":11600,"station_id":"ce4bh692rcd13ifvqea0","pricing_plan_id":"cebpf4jnsgd1na2vs0mg"},{"bike_id":"df888382-c16d-4333-9bb9-cc0a519ff8f3","system_id":"levelo_inurba_marseille","lat":43.29267,"lon":5.3845,"is_reserved":false,"is_disabled":false,"rental_uris":{"android":"levelo://app?vid=df888382-c16d-4333-9bb9-cc0a519ff8f3","ios":"levelo://app?vid=df888382-c16d-4333-9bb9-cc0a519ff8f3"},"vehicle_type_id":"4","last_reported":1726765695,"current_range_meters":17200,"station_id":"ce4bh692rcd13ifvqea0","pricing_plan_id":"cebpf4jnsgd1na2vs0mg"},{"bike_id":"56b80431-a745-464d-bbd7-64860ebcfe69","system_id":"levelo_inurba_marseille","lat":43.296129,"lon":5.377447,"is_reserved":false,"is_disabled":false,"rental_uris":{"android":"levelo://app?vid=56b80431-a745-464d-bbd7-64860ebcfe69","ios":"levelo://app?vid=56b80431-a745-464d-bbd7-64860ebcfe69"},"vehicle_type_id":"4","last_reported":1726765695,"current_range_meters":22400,"station_id":"ce4bgi92rcd13ifvqb90","pricing_plan_id":"cebpf4jnsgd1na2vs0mg"},{"bike_id":"23c8ba17-73e8-44be-b0b8-1c1279c8733c","system_id":"levelo_inurba_marseille","lat":43.29036,"lon":5.37561,"is_reserved":false,"is_disabled":false,"rental_uris":{"android":"levelo://app?vid=23c8ba17-73e8-44be-b0b8-1c1279c8733c","ios":"levelo://app?vid=23c8ba17-73e8-44be-b0b8-1c1279c8733c"},"vehicle_type_id":"4","last_reported":1726765695,"current_range_meters":37600,"station_id":"ce4bh692rcd13ifvqe90","pricing_plan_id":"cebpf4jnsgd1na2vs0mg"},{"bike_id":"b2379f42-0aa3-4133-827c-cbe4829cda87","system_id":"levelo_inurba_marseille","lat":43.296021,"lon":5.38111,"is_reserved":false,"is_disabled":false,"rental_uris":{"android":"levelo://app?vid=b2379f42-0aa3-4133-827c-cbe4829cda87","ios":"levelo://app?vid=b2379f42-0aa3-4133-827c-cbe4829cda87"},"vehicle_type_id":"4","last_reported":1726765695,"current_range_meters":30400,"station_id":"ce4bgl12rcd13ifvqbo0","pricing_plan_id":"cebpf4jnsgd1na2vs0mg"},{"bike_id":"4292d97f-34f9-42ad-8bff-aa6aa3dff89e","system_id":"levelo_inurba_marseille","lat":43.29282,"lon":5.40116,"is_reserved":false,"is_disabled":false,"rental_uris":{"android":"levelo://app?vid=4292d97f-34f9-42ad-8bff-aa6aa3dff89e","ios":"levelo://app?vid=4292d97f-34f9-42ad-8bff-aa6aa3dff89e"},"vehicle_type_id":"4","last_reported":1726765695,"current_range_meters":24800,"station_id":"ce4bh312rcd13ifvqdk0","pricing_plan_id":"cebpf4jnsgd1na2vs0mg"},{"bike_id":"c9a6bb9c-3b18-4c4f-90a7-fc4f20ab5e61","system_id":"levelo_inurba_marseille","lat":43.29557,"lon":5.42294,"is_reserved":false,"is_disabled":false,"rental_uris":{"android":"levelo://app?vid=c9a6bb9c-3b18-4c4f-90a7-fc4f20ab5e61","ios":"levelo://app?vid=c9a6bb9c-3b18-4c4f-90a7-fc4f20ab5e61"},"vehicle_type_id":"4","last_reported":1726765695,"current_range_meters":38800,"station_id":"ce4bhph2rcd13ifvqhdg","pricing_plan_id":"cebpf4jnsgd1na2vs0mg"},{"bike_id":"399944b4-5b79-4d6d-85a8-9bf86439f7d8","system_id":"levelo_inurba_marseille","lat":43.29173,"lon":5.37164,"is_reserved":false,"is_disabled":false,"rental_uris":{"android":"levelo://app?vid=399944b4-5b79-4d6d-85a8-9bf86439f7d8","ios":"levelo://app?vid=399944b4-5b79-4d6d-85a8-9bf86439f7d8"},"vehicle_type_id":"4","last_reported":1726765695,"current_range_meters":11600,"station_id":"ce4bha92rcd13ifvqeh0","pricing_plan_id":"cebpf4jnsgd1na2vs0mg"},{"bike_id":"f7ab3940-83b6-4741-82ec-5424137a67e2","system_id":"levelo_inurba_marseille","lat":43.29198,"lon":5.35805,"is_reserved":false,"is_disabled":false,"rental_uris":{"android":"levelo://app?vid=f7ab3940-83b6-4741-82ec-5424137a67e2","ios":"levelo://app?vid=f7ab3940-83b6-4741-82ec-5424137a67e2"},"vehicle_type_id":"4","last_reported":1726765695,"current_range_meters":36800,"station_id":"ce4bhb12rcd13ifvqel0","pricing_plan_id":"cebpf4jnsgd1na2vs0mg"},{"bike_id":"641dba10-8c57-49f9-90a6-55cc634e0470","system_id":"levelo_inurba_marseille","lat":43.28722,"lon":5.3609,"is_reserved":false,"is_disabled":false,"rental_uris":{"android":"levelo://app?vid=641dba10-8c57-49f9-90a6-55cc634e0470","ios":"levelo://app?vid=641dba10-8c57-49f9-90a6-55cc634e0470"},