{"last_updated":1727295017,"ttl":60,"version":"2.2","data":{"bikes":[{"bike_id":"c40a7e0f-50bd-4f47-a219-04bc05185302","system_id":"levelo_inurba_marseille","lat":43.28702,"lon":5.37385,"is_reserved":false,"is_disabled":false,"rental_uris":{"android":"levelo://app?vid=c40a7e0f-50bd-4f47-a219-04bc05185302","ios":"levelo://app?vid=c40a7e0f-50bd-4f47-a219-04bc05185302"},"vehicle_type_id":"4","last_reported":1727295017,"current_range_meters":2000,"station_id":"ce4bh3p2rcd13ifvqdq0","pricing_plan_id":"cebpf4jnsgd1na2vs0mg"},{"bike_id":"00016f13-b63c-43ff-ab5f-39da0fc9f78a","system_id":"levelo_inurba_marseille","lat":43.284621,"lon":5.35887,"is_reserved":false,"is_disabled":false,"rental_uris":{"android":"levelo://app?vid=00016f13-b63c-43ff-ab5f-39da0fc9f78a","ios":"levelo://app?vid=00016f13-b63c-43ff-ab5f-39da0fc9f78a"},"vehicle_type_id":"4","last_reported":1727295017,"current_range_meters":32800,"station_id":"ce4bhah2rcd13ifvqei0","pricing_plan_id":"cebpf4jnsgd1na2vs0mg"},{"bike_id":"b5ad459e-a8d9-49df-bf82-6d5149b0d806","system_id":"levelo_inurba_marseille","lat":43.30438,"lon":5.38897,"is_reserved":false,"is_disabled":false,"rental_uris":{"android":"levelo://app?vid=b5ad459e-a8d9-49df-bf82-6d5149b0d806","ios":"levelo://app?vid=b5ad459e-a8d9-49df-bf82-6d5149b0d806"},"vehicle_type_id":"4","last_reported":1727295017,"current_range_meters":34000,"station_id":"ce4bgk12rcd13ifvqbi0","pricing_plan_id":"cebpf4jnsgd1na2vs0mg"},{"bike_id":"bd46753b-4c9a-4376-83bc-9b183a6fcfcc","system_id":"levelo_inurba_marseille","lat":43.26207,"lon":5.37928,"is_reserved":false,"is_disabled":false,"rental_uris":{"android":"levelo://app?vid=bd46753b-4c9a-4376-83bc-9b183a6fcfcc","ios":"levelo://app?vid=bd46753b-4c9a-4376-83bc-9b183a6fcfcc"},"vehicle_type_id":"4","last_reported":1727295017,"current_range_meters":38800,"station_id":"ce4bhjp2rcd13ifvqg90","pricing_plan_id":"cebpf4jnsgd1na2vs0mg"},{"bike_id":"311c0952-3a11-42d5-9cb0-6f3ee043b4f3","system_id":"levelo_inurba_marseille","lat":43.28078,"lon":5.39664,"is_reserved":false,"is_disabled":false,"rental_uris":{"android":"levelo://app?vid=311c0952-3a11-42d5-9cb0-6f3ee043b4f3","ios":"levelo://app?vid=311c0952-3a11-42d5-9cb0-6f3ee043b4f3"},"vehicle_type_id":"4","last_reported":1727295017,"current_range_meters":23200,"station_id":"ce4bho12rcd13ifvqh2g","pricing_plan_id":"cebpf4jnsgd1na2vs0mg"},{"bike_id":"d3ce0e04-dccf-4e83-9200-edab7a080f39","system_id":"levelo_inurba_marseille","lat":43.31335,"lon":5.39718,"is_reserved":false,"is_disabled":false,"rental_uris":{"android":"levelo://app?vid=d3ce0e04-dccf-4e83-9200-edab7a080f39","ios":"levelo://app?vid=d3ce0e04-dccf-4e83-9200-edab7a080f39"},"vehicle_type_id":"4","last_reported":1727295017,"current_range_meters":17200,"station_id":"ce4bgvp2rcd13ifvqcu0","pricing_plan_id":"cebpf4jnsgd1na2vs0mg"},{"bike_id":"45eba069-19b2-45c4-a67b-478acc0442e0","system_id":"levelo_inurba_marseille","lat":43.32666,"lon":5.40994,"is_reserved":false,"is_disabled":false,"rental_uris":{"android":"levelo://app?vid=45eba069-19b2-45c4-a67b-478acc0442e0","ios":"levelo://app?vid=45eba069-19b2-45c4-a67b-478acc0442e0"},"vehicle_type_id":"4","last_reported":1727295017,"current_range_meters":38800,"station_id":"ce4bhpp2rcd13ifvqhgg","pricing_plan_id":"cebpf4jnsgd1na2vs0mg"},{"bike_id":"4e970e14-412f-46b5-83dd-1847cb8a1288","system_id":"levelo_inurba_marseille","lat":43.29258,"lon":5.40912,"is_reserved":false,"is_disabled":false,"rental_uris":{"android":"levelo://app?vid=4e970e14-412f-46b5-83dd-1847cb8a1288","ios":"levelo://app?vid=4e970e14-412f-46b5-83dd-1847cb8a1288"},"vehicle_type_id":"4","last_reported":1727295017,"current_range_meters":16800,"station_id":"ce4bh192rcd13ifvqdc0","pricing_plan_id":"cebpf4jnsgd1na2vs0mg"},{"bike_id":"42a38fb8-549c-4925-bfd5-059df21d4756","system_id":"levelo_inurba_marseille","lat":43.33025,"lon":5.39036,"is_reserved":false,"is_disabled":false,"rental_uris":{"android":"levelo://app?vid=42a38fb8-549c-4925-bfd5-059df21d4756","ios":"levelo://app?vid=42a38fb8-549c-4925-bfd5-059df21d4756"},"vehicle_type_id":"4","last_reported":1727295017,"current_range_meters":8400,"station_id":"ce4bhr92rcd13ifvqhrg","pricing_plan_id":"cebpf4jnsgd1na2vs0mg"},{"bike_id":"06d9a378-c2d5-4771-aa53-aebd3f2a3768","system_id":"levelo_inurba_marseille","lat":43.29269,"lon":5.38436,"is_reserved":false,"is_disabled":false,"rental_uris":{"android":"levelo://app?vid=06d9a378-c2d5-4771-aa53-aebd3f2a3768","ios":"levelo://app?vid=06d9a378-c2d5-4771-aa53-aebd3f2a3768"},"vehicle_type_id":"4","last_reported":1727295017,"current_range_meters":39200,"station_id":"ce4bh692rcd13ifvqea0","pricing_plan_id":"cebpf4jnsgd1na2vs0mg"},{"bike_id":"9fa4f99d-a411-4ef4-b6c8-d9fd7e40a915","system_id":"levelo_inurba_marseille","lat":43.23181,"lon":5.35541,"is_reserved":false,"is_disabled":false,"rental_uris":{"android":"levelo://app?vid=9fa4f99d-a411-4ef4-b6c8-d9fd7e40a915","ios":"levelo://app?vid=9fa4f99d-a411-4ef4-b6c8-d9fd7e40a915"},"vehicle_type_id":"4","last_reported":1727295017,"current_range_meters":30000,"station_id":"ce4bhu92rcd13ifvqi70","pricing_plan_id":"cebpf4jnsgd1na2vs0mg"},{"bike_id":"4d632d27-eae4-4c2c-9d04-d10857383d57","system_id":"levelo_inurba_marseille","lat":43.29537,"lon":5.38547,"is_reserved":false,"is_disabled":false,"rental_uris":{"android":"levelo://app?vid=4d632d27-eae4-4c2c-9d04-d10857383d57","ios":"levelo://app?vid=4d632d27-eae4-4c2c-9d04-d10857383d57"},"vehicle_type_id":"4","last_reported":1727295017,"current_range_meters":39200,"station_id":"ce4bgih2rcd13ifvqba0","pricing_plan_id":"cebpf4jnsgd1na2vs0mg"},{"bike_id":"bdf247ae-bc02-4762-979a-3a1ad75c6085","system_id":"levelo_inurba_marseille","lat":43.30801,"lon":5.43526,"is_reserved":false,"is_disabled":false,"rental_uris":{"android":"levelo://app?vid=bdf247ae-bc02-4762-979a-3a1ad75c6085","ios":"levelo://app?vid=bdf247ae-bc02-4762-979a-3a1ad75c6085"},"vehicle_type_id":"4","last_reported":1727295017,"current_range_meters":8400,"station_id":"ce4bhph2rcd13ifvqheg","pricing_plan_id":"cebpf4jnsgd1na2vs0mg"},{"bike_id":"6168aa1b-5d90-4c02-948e-82ffeafc5ed3","system_id":"levelo_inurba_marseille","lat":43.28976,"lon":5.37836,"is_reserved":false,"is_disabled":false,"rental_uris":{"android":"levelo://app?vid=6168aa1b-5d90-4c02-948e-82ffeafc5ed3","ios":"levelo://app?vid=6168aa1b-5d90-4c02-948e-82ffeafc5ed3"},"vehicle_type_id":"4","last_reported":1727295017,"current_range_meters":30000,"station_id":"ce4bh9p2rcd13ifvqed0","pricing_plan_id":"cebpf4jnsgd1na2vs0mg"},{"bike_id":"3fa6b996-85c3-4fb6-898b-e56a0b115858","system_id":"levelo_inurba_marseille","lat":43.3089,"lon":5.39657,"is_reserved":false,"is_disabled":false,"rental_uris":{"android":"levelo://app?vid=3fa6b996-85c3-4fb6-898b-e56a0b115858","ios":"levelo://app?vid=3fa6b996-85c3-4fb6-898b-e56a0b115858"},"vehicle_type_id":"4","last_reported":1727295017,"current_range_meters":36000,"station_id":"ce4bh012rcd13ifvqcv0","pricing_plan_id":"cebpf4jnsgd1na2vs0mg"},{"bike_id":"d9e6ff63-bc8e-4a6d-ac47-44aa034108c6","system_id":"levelo_inurba_marseille","lat":43.28571,"lon":5.39493,"is_reserved":false,"is_disabled":false,"rental_uris":{"android":"levelo://app?vid=d9e6ff63-bc8e-4a6d-ac47-44aa034108c6","ios":"levelo://app?vid=d9e6ff63-bc8e-4a6d-ac47-44aa034108c6"},"vehicle_type_id":"4","last_reported":1727295017,"current_range_meters":24800,"station_id":"ce4bh292rcd13ifvqdg0","pricing_plan_id":"cebpf4jnsgd1na2vs0mg"},{"bike_id":"cf90c1c6-7296-4f21-ba68-eb1cd7295b1e","system_id":"levelo_inurba_marseille","lat":43.28076,"lon":5.39658,"is_reserved":false,"is_disabled":false,"rental_uris":{"android":"levelo://app?vid=cf90c1c6-7296-4f21-ba68-eb1cd7295b1e","ios":"levelo://app?vid=cf90c1c6-7296-4f21-ba68-eb1cd7295b1e"},"vehicle_type_id":"4","last_reported":1727295017,"current_range_meters":10800,"station_id":"ce4bho12rcd13ifvqh2g","pricing_plan_id":"cebpf4jnsgd1na2vs0mg"},{"bike_id":"4baae9bf-68cd-4ae6-a5ca-25a585681fe2","system_id":"levelo_inurba_marseille","lat":43.324829,"lon":5.36582,"is_reserved":false,"is_disabled":false,"rental_uris":{"android":"levelo://app?vid=4baae9bf-68cd-4ae6-a5ca-25a585681fe2","ios":"levelo://app?vid=4baae9bf-68cd-4ae6-a5ca-25a585681fe2"},"vehicle_type_id":"4","last_reported":1727295017,"current_range_meters":22800,"station_id":"ce4bhs12rcd13ifvqhvg","pricing_plan_id":"cebpf4jnsgd1na2vs0mg"},{"bike_id":"5154c08f-04c1-4098-82ac-8b356f7f45b4","system_id":"levelo_inurba_marseille","lat":43.2836,"lon":5.38115,"is_reserved":false,"is_disabled":false,"rental_uris":{"android":"levelo://app?vid=5154c08f-04c1-4098-82ac-8b356f7f45b4","ios":"levelo://app?vid=5154c08f-04c1-4098-82ac-8b356f7f45b4"},"vehicle_type_id":"4","last_reported":1727295017,"current_range_meters":38800,"station_id":"ce4bh412rcd13ifvqdr0","pricing_plan_id":"cebpf4jnsgd1na2vs0mg"},{"bike_id":"7737b815-6daf-41f0-8354-4b28ba75917f","system_id":"levelo_inurba_marseille","lat":43.30185,"lon":5.39828,"is_reserved":false,"is_disabled":false,"rental_uris":{"android":"levelo://app?vid=7737b815-6daf-41f0-8354-4b28ba75917f","ios":"levelo://app?vid=7737b815-6daf-41f0-8354-4b28ba75917f"},"vehicle_type_id":"4","last_reported":1727295017,"current_range_meters":16000,"station_id":"ce4bgvp2rcd13ifvqct0","pricing_plan_id":"cebpf4jnsgd1na2vs0mg"},{"bike_id":"99e4e039-f68c-454c-9c47-2a829ce60237","system_id":"levelo_inurba_marseille","lat":43.29934,"lon":5.36557,"is_reserved":false,"is_disabled":false,"rental_uris":{"android":"levelo://app?vid=99e4e039-f68c-454c-9c47-2a829ce60237","ios":"levelo://app?vid=99e4e039-f68c-454c-9c47-2a829ce60237"},"vehicle_type_id":"4","last_reported":1727295017,"current_range_meters":17200,"station_id":"ce4bgm92rcd13ifvqbr0","pricing_plan_id":"cebpf4jnsgd1na2vs0mg"},{"bike_id":"98d4bd89-bfec-4ea1-8a10-3c61def8a794","system_id":"levelo_inurba_marseille","lat":43.30428,"lon":5.38892,"is_reserved":false,"is_disabled":false,"rental_uris":{"android":"levelo://app?vid=98d4bd89-bfec-4ea1-8a10-3c61def8a794","ios":"levelo://app?vid=98d4bd89-bfec-4ea1-8a10-3c61def8a794"},"vehicle_type_id":"4","last_reported":1727295017,"current_range_meters":38800,"station_id":"ce4bgk12rcd13ifvqbi0","pricing_plan_id":"cebpf4jnsgd1na2vs0mg"},{"bike_id":"9696a113-5e69-42c4-8dbf-f711b314d863","system_id":"levelo_inurba_marseille","lat":43.31501,"lon":5.37309,"is_reserved":false,"is_disabled":false,"rental_uris":{"android":"levelo://app?vid=9696a113-5e69-42c4-8dbf-f711b314d863","ios":"levelo://app?vid=9696a113-5e69-42c4-8dbf-f711b314d863"},"vehicle_type_id":"4","last_reported":1727295017,"current_range_meters":24000,"station_id":"ce4bgt12rcd13ifvqcd0","pricing_plan_id":"cebpf4jnsgd1na2vs0mg"},{"bike_id":"406ddfc1-f9f9-4c26-8d67-83a1069de32b","system_id":"levelo_inurba_marseille","lat":43.2603,"lon":5.37549,"is_reserved":false,"is_disabled":false,"rental_uris":{"android":"levelo://app?vid=406ddfc1-f9f9-4c26-8d67-83a1069de32b","ios":"levelo://app?vid=406ddfc1-f9f9-4c26-8d67-83a1069de32b"},"vehicle_type_id":"4","last_reported":1727295017,"current_range_meters":37600,"station_id":"ce4bhgh2rcd13ifvqfa0","pricing_plan_id":"cebpf4jnsgd1na2vs0mg"},{"bike_id":"a6ceaa53-b040-4bed-a5a4-04e99e38d93e","system_id":"levelo_inurba_marseille","lat":43.25719,"lon":5.41117,"is_reserved":false,"is_disabled":false,"rental_uris":{"android":"levelo://app?vid=a6ceaa53-b040-4bed-a5a4-04e99e38d93e","ios":"levelo://app?vid=a6ceaa53-b040-4bed-a5a4-04e99e38d93e"},"vehicle_type_id":"4","last_reported":1727295017,"current_range_meters":14800,"station_id":"ce4bhkp2rcd13ifvqgd0","pricing_plan_id":"cebpf4jnsgd1na2vs0mg"},{"bike_id":"867765e9-a89f-46a5-bfc9-6d3089251db5","system_id":"levelo_inurba_marseille","lat":43.28929,"lon":5.38392,"is_reserved":false,"is_disabled":false,"rental_uris":{"android":"levelo://app?vid=867765e9-a89f-46a5-bfc9-6d3089251db5","ios":"levelo://app?vid=867765e9-a89f-46a5-bfc9-6d3089251db5"},"vehicle_type_id":"4","last_reported":1727295017,"current_range_meters":38000,"station_id":"ce4bh612rcd13ifvqe6g","pricing_plan_id":"cebpf4jnsgd1na2vs0mg"},{"bike_id":"67ea5e6a-7b71-4b5f-a92b-e6708a512df0","system_id":"levelo_inurba_marseille","lat":43.33025,"lon":5.39043,"is_reserved":false,"is_disabled":false,"rental_uris":{"android":"levelo://app?vid=67ea5e6a-7b71-4b5f-a92b-e6708a512df0","ios":"levelo://app?vid=67ea5e6a-7b71-4b5f-a92b-e6708a512df0"},"vehicle_type_id":"4","last_reported":1727295017,"current_range_meters":34000,"station_id":"ce4bhr92rcd13ifvqhrg","pricing_plan_id":"cebpf4jnsgd1na2vs0mg"},{"bike_id":"dab37bf3-4a86-4251-b6a1-c4d272e4ea4d","system_id":"levelo_inurba_marseille","lat":43.33603,"lon":5.41037,"is_reserved":false,"is_disabled":false,"rental_uris":{"android":"levelo://app?vid=dab37bf3-4a86-4251-b6a1-c4d272e4ea4d","ios":"levelo://app?vid=dab37bf3-4a86-4251-b6a1-c4d272e4ea4d"},"vehicle_type_id":"4","last_reported":1727295017,"current_range_meters":4800,"station_id":"ce4bhqh2rcd13ifvqhmg","pricing_plan_id":"cebpf4jnsgd1na2vs0mg"},{"bike_id":"62c456f4-6a38-4279-92c1-2ca853cb18a8","system_id":"levelo_inurba_marseille","lat":43.306508,"lon":5.40083,"is_reserved":false,"is_disabled":false,"rental_uris":{"android":"levelo://app?vid=62c456f4-6a38-4279-92c1-2ca853cb18a8","ios":"levelo://app?vid=62c456f4-6a38-4279-92c1-2ca853cb18a8"},"vehicle_type_id":"4","last_reported":1727295017,"current_range_meters":3200,"station_id":"ce4bh112rcd13ifvqda0","pricing_plan_id":"cebpf4jnsgd1na2vs0mg"},{"bike_id":"f2054fb1-1e8c-42c6-be9f-bbfe0f85dcc6","system_id":"levelo_inurba_marseille","lat":43.29559,"lon":5.42285,"is_reserved":false,"is_disabled":false,"rental_uris":{"android":"levelo://app?vid=f2054fb1-1e8c-42c6-be9f-bbfe0f85dcc6","ios":"levelo://app?vid=f2054fb1-1e8c-42c6-be9f-bbfe0f85dcc6"},"vehicle_type_id":"4","last_reported":1727295017,"current_range_meters":16400,"station_id":"ce4bhph2rcd13ifvqhdg","pricing_plan_id":"cebpf4jnsgd1na2vs0mg"},{"bike_id":"7a8458d5-44ac-4f2e-abef-3f01eb31f7ca","system_id":"levelo_inurba_marseille","lat":43.337444,"lon":5.374475,"is_reserved":false,"is_disabled":false,"rental_uris":{"android":"levelo://app?vid=7a8458d5-44ac-4f2e-abef-3f01eb31f7ca","ios":"levelo://app?vid=7a8458d5-44ac-4f2e-abef-3f01eb31f7ca"},"vehicle_type_id":"4","last_reported":1727295017,"current_range_meters":24400,"station_id":"","pricing_plan_id":"cebpf4jnsgd1na2vs0mg"},{"bike_id":"41b9a237-ad2d-4e20-9ddd-a0e26c3d5a88","system_id":"levelo_inurba_marseille","lat":43.31172,"lon":5.38722,"is_reserved":false,"is_disabled":false,"rental_uris":{"android":"levelo://app?vid=41b9a237-ad2d-4e20-9ddd-a0e26c3d5a88","ios":"levelo://app?vid=41b9a237-ad2d-4e20-9ddd-a0e26c3d5a88"},"vehicle_type_id":"4","last_reported":1727295017,"current_range_meters":25200,"station_id":"ce4bgv12rcd13ifvqcp0","pricing_plan_id":"cebpf4jnsgd1na2vs0mg"},{"bike_id":"99507d99-5ad1-4d67-8c5f-6605f6ca322f","system_id":"levelo_inurba_marseille","lat":43.289734,"lon":5.378441,"is_reserved":false,"is_disabled":false,"rental_uris":{"android":"levelo://app?vid=99507d99-5ad1-4d67-8c5f-6605f6ca322f","ios":"levelo://app?vid=99507d99-5ad1-4d67-8c5f-6605f6ca322f"},"vehicle_type_id":"4","last_reported":1727295017,"current_range_meters":12400,"station_id":"ce4bh9p2rcd13ifvqed0","pricing_plan_id":"cebpf4jnsgd1na2vs0mg"},{"bike_id":"24ac4479-013e-489e-a41f-831b6781a344","system_id":"levelo_inurba_marseille","lat":43.296732,"lon":5.372888,"is_reserved":false,"is_disabled":false,"rental_uris":{"android":"levelo://app?vid=24ac4479-013e-489e-a41f-831b6781a344","ios":"levelo://app?vid=24ac4479-013e-489e-a41f-831b6781a344"},"vehicle_type_id":"4","last_reported":1727295017,"current_range_meters":36800,"station_id":"ce4bgk12rcd13ifvqbj0","pricing_plan_id":"cebpf4jnsgd1na2vs0mg"},{"bike_id":"59233330-600d-4e2b-84c8-7ab9dfe26a1f","system_id":"levelo_inurba_marseille","lat":43.24653,"lon":5.38893,"is_reserved":false,"is_disabled":false,"rental_uris":{"android":"levelo://app?vid=59233330-600d-4e2b-84c8-7ab9dfe26a1f","ios":"levelo://app?vid=59233330-600d-4e2b-84c8-7ab9dfe26a1f"},"vehicle_type_id":"4","last_reported":1727295017,"current_range_meters":18000,"station_id":"ce4bhg12rcd13ifvqf60","pricing_plan_id":"cebpf4jnsgd1na2vs0mg"},{"bike_id":"9d128452-2447-4cd4-acb6-7a266eb4c875","system_id":"levelo_inurba_marseille","lat":43.27378,"lon":5.36253,"is_reserved":false,"is_disabled":false,"rental_uris":{"android":"levelo://app?vid=9d128452-2447-4cd4-acb6-7a266eb4c875","ios":"levelo://app?vid=9d128452-2447-4cd4-acb6-7a266eb4c875"},"vehicle_type_id":"4","last_reported":1727295017,"current_range_meters":38800,"station_id":"ce4bhbh2rcd13ifvqeo0","pricing_plan_id":"cebpf4jnsgd1na2vs0mg"},{"bike_id":"7e88f0d3-56a1-427f-83c7-1a73ca8b9647","system_id":"levelo_inurba_marseille","lat":43.3126,"lon":5.40175,"is_reserved":false,"is_disabled":false,"rental_uris":{"android":"levelo://app?vid=7e88f0d3-56a1-427f-83c7-1a73ca8b9647","ios":"levelo://app?vid=7e88f0d3-56a1-427f-83c7-1a73ca8b9647"},"vehicle_type_id":"4","last_reported":1727295017,"current_range_meters":14000,"station_id":"ce4bh092rcd13ifvqd30","pricing_plan_id":"cebpf4jnsgd1na2vs0mg"},{"bike_id":"ed9d69a6-a921-4251-b073-fdfe53c8cdc2","system_id":"levelo_inurba_marseille","lat":43.24079,"lon":5.37761,"is_reserved":false,"is_disabled":false,"rental_uris":{"android":"levelo://app?vid=ed9d69a6-a921-4251-b073-fdfe53c8cdc2","ios":"levelo://app?vid=ed9d69a6-a921-4251-b073-fdfe53c8cdc2"},"vehicle_type_id":"4","last_reported":1727295017,"current_range_meters":38800,"station_id":"ce4bhnp2rcd13ifvqgvg","pricing_plan_id":"cebpf4jnsgd1na2vs0mg"},{"bike_id":"64923289-9af6-43c3-b827-82741e0af2f5","system_id":"levelo_inurba_marseille","lat":43.28471,"lon":5.35893,"is_reserved":false,"is_disabled":false,"rental_uris":{"android":"levelo://app?vid=64923289-9af6-43c3-b827-82741e0af2f5","ios":"levelo://app?vid=64923289-9af6-43c3-b827-82741e0af2f5"},"vehicle_type_id":"4","last_reported":1727295017,"current_range_meters":16400,"station_id":"ce4bhah2rcd13ifvqei0","pricing_plan_id":"cebpf4jnsgd1na2vs0mg"},{"bike_id":"e9b04576-3395-4f16-9220-a235411d79e8","system_id":"levelo_inurba_marseille","lat":43.27837,"lon":5.39206,"is_reserved":false,"is_disabled":false,"rental_uris":{"android":"levelo://app?vid=e9b04576-3395-4f16-9220-a235411d79e8","ios":"levelo://app?vid=e9b04576-3395-4f16-9220-a235411d79e8"},"vehicle_type_id":"4","last_reported":1727295017,"current_range_meters":13600,"station_id":"ce4bhjp2rcd13ifvqga0","pricing_plan_id":"cebpf4jnsgd1na2vs0mg"},{"bike_id":"5e4d5fc4-6c61-4069-94e5-0569e2355311","system_id":"levelo_inurba_marseille","lat":43.26791,"lon":5.3942,"is_reserved":false,"is_disabled":false,"rental_uris":{"android":"levelo://app?vid=5e4d5fc4-6c61-4069-94e5-0569e2355311","ios":"levelo://app?vid=5e4d5fc4-6c61-4069-94e5-0569e2355311"},"vehicle_type_id":"4","last_reported":1727295017,"current_range_meters":2000,"station_id":"ce4bhh12rcd13ifvqfg0","pricing_plan_id":"cebpf4jnsgd1na2vs0mg"},{"bike_id":"7de5ca1e-fa2c-427e-813a-699af6c1acc2","system_id":"levelo_inurba_marseille","lat":43.31083,"lon":5.42433,"is_reserved":false,"is_disabled":false,"rental_uris":{"android":"levelo://app?vid=7de5ca1e-fa2c-427e-813a-699af6c1acc2","ios":"levelo://app?vid=7de5ca1e-fa2c-427e-813a-699af6c1acc2"},"vehicle_type_id":"4","last_reported":1727295017,"current_range_meters":30000,"station_id":"ce4bhp92rcd13ifvqhag","pricing_plan_id":"cebpf4jnsgd1na2vs0mg"},{"bike_id":"e0321300-37ad-4bce-a17c-4bf73cb9114f","system_id":"levelo_inurba_marseille","lat":43.29898,"lon":5.4367,"is_reserved":false,"is_disabled":false,"rental_uris":{"android":"levelo://app?vid=e0321300-37ad-4bce-a17c-4bf73cb9114f","ios":"levelo://app?vid=e0321300-37ad-4bce-a17c-4bf73cb9114f"},"vehicle_type_id":"4","last_reported":1727295017,"current_range_meters":38800,"station_id":"ce4bhpp2rcd13ifvqhfg","pricing_plan_id":"cebpf4jnsgd1na2vs0mg"},{"bike_id":"ca75d4bb-3ae0-47f5-b353-c625b0312dd2","system_id":"levelo_inurba_marseille","lat":43.2926,"lon":5.38449,"is_reserved":false,"is_disabled":false,"rental_uris":{"android":"levelo://app?vid=ca75d4bb-3ae0-47f5-b353-c625b0312dd2","ios":"levelo://app?vid=ca75d4bb-3ae0-47f5-b353-c625b0312dd2"},"vehicle_type_id":"4","last_reported":1727295017,"current_range_meters":34800,"station_id":"ce4bh692rcd13ifvqea0","pricing_plan_id":"cebpf4jnsgd1na2vs0mg"},{"bike_id":"79a05bb1-ccec-47f0-8ebd-1f95854549f8","system_id":"levelo_inurba_marseille","lat":43.31285,"lon":5.38042,"is_reserved":false,"is_disabled":false,"rental_uris":{"android":"levelo://app?vid=79a05bb1-ccec-47f0-8ebd-1f95854549f8","ios":"levelo://app?vid=79a05bb1-ccec-47f0-8ebd-1f95854549f8"},"vehicle_type_id":"4","last_reported":1727295017,"current_range_meters":9600,"station_id":"","pricing_plan_id":"cebpf4jnsgd1na2vs0mg"},{"bike_id":"03d78123-f4df-424b-ad49-3854c9ebad3b","system_id":"levelo_inurba_marseille","lat":43.30326,"lon":5.40441,"is_reserved":false,"is_disabled":false,"rental_uris":{"android":"levelo://app?vid=03d78123-f4df-424b-ad49-3854c9ebad3b","ios":"levelo://app?vid=03d78123-f4df-424b-ad49-3854c9ebad3b"},"vehicle_type_id":"4","last_reported":1727295017,"current_range_meters":9200,"station_id":"ce4bh012rcd13ifvqd10","pricing_plan_id":"cebpf4jnsgd1na2vs0mg"},{"bike_id":"79bcd95b-c98a-4a88-8c23-cb2457601db8","system_id":"levelo_inurba_marseille","lat":43.30954,"lon":5.39031,"is_reserved":false,"is_disabled":false,"rental_uris":{"android":"levelo://app?vid=79bcd95b-c98a-4a88-8c23-cb2457601db8","ios":"levelo://app?vid=79bcd95b-c98a-4a88-8c23-cb2457601db8"},"vehicle_type_id":"4","last_reported":1727295017,"current_range_meters":38800,"station_id":"ce4bgup2rcd13ifvqco0","pricing_plan_id":"cebpf4jnsgd1na2vs0mg"},{"bike_id":"19585351-59f9-48a2-845f-8c9e520def01","system_id":"levelo_inurba_marseille","lat":43.29259,"lon":5.38442,"is_reserved":false,"is_disabled":false,"rental_uris":{"android":"levelo://app?vid=19585351-59f9-48a2-845f-8c9e520def01","ios":"levelo://app?vid=19585351-59f9-48a2-845f-8c9e520def01"},"vehicle_type_id":"4","last_reported":1727295017,"current_range_meters":26800,"station_id":"ce4bh692rcd13ifvqea0","pricing_plan_id":"cebpf4jnsgd1na2vs0mg"},{"bike_id":"be5a7ff4-feb7-4e1b-b351-1f994e8ccce1","system_id":"levelo_inurba_marseille","lat":43.29267,"lon":5.38438,"is_reserved":false,"is_disabled":false,"rental_uris":{"android":"levelo://app?vid=be5a7ff4-feb7-4e1b-b351-1f994e8ccce1","ios":"levelo://app?vid=be5a7ff4-feb7-4e1b-b351-1f994e8ccce1"},"vehicle_type_id":"4","last_reported":1727295017,"current_range_meters":17200,"station_id":"ce4bh692rcd13ifvqea0","pricing_plan_id":"cebpf4jnsgd1na2vs0mg"},{"bike_id":"b78779d8-d7ae-40f8-84c8-3a886baa9e1b","system_id":"levelo_inurba_marseille","lat":43.30954,"lon":5.39037,"is_reserved":false,"is_disabled":false,"rental_uris":{"android":"levelo://app?vid=b78779d8-d7ae-40f8-84c8-3a886baa9e1b","ios":"levelo://app?vid=b78779d8-d7ae-40f8-84c8-3a886baa9e1b"},"vehicle_type_id":"4","last_reported":1727295017,"current_range_meters":17200,"station_id":"ce4bgup2rcd13ifvqco0","pricing_plan_id":"cebpf4jnsgd1na2vs0mg"},{"bike_id":"354f8abe-267f-42f5-aa34-fe96777adbaa","system_id":"levelo_inurba_marseille","lat":43.28926,"lon":5.36398,"is_reserved":false,"is_disabled":false,"rental_uris":{"android":"levelo://app?vid=354f8abe-267f-42f5-aa34-fe96777adbaa","ios":"levelo://app?vid=354f8abe-267f-42f5-aa34-fe96777adbaa"},"vehicle_type_id":"4","last_reported":1727295017,"current_range_meters":13600,"station_id":"ce4bhc92rcd13ifvqetg","pricing_plan_id":"cebpf4jnsgd1na2vs0mg"},{"bike_id":"345c3e4a-d01f-4510-adef-8a6faae5f77e","system_id":"levelo_inurba_marseille","lat":43.290405,"lon":5.376851,"is_reserved":false,"is_disabled":false,"rental_uris":{"android":"levelo://app?vid=345c3e4a-d01f-4510-adef-8a6faae5f77e","ios":"levelo://app?vid=345c3e4a-d01f-4510-adef-8a6faae5f77e"},"vehicle_type_id":"4","last_reported":1727295017,"current_range_meters":33200,"station_id":"ce4bh692rcd13ifvqe90","pricing_plan_id":"cebpf4jnsgd1na2vs0mg"},{"bike_id":"89857b51-1df9-40be-b4a5-eeb678f8a681","system_id":"levelo_inurba_marseille","lat":43.2396,"lon":5.3664,"is_reserved":false,"is_disabled":false,"rental_uris":{"android":"levelo://app?vid=89857b51-1df9-40be-b4a5-eeb678f8a681","ios":"levelo://app?vid=89857b51-1df9-40be-b4a5-eeb678f8a681"},"vehicle_type_id":"4","last_reported":1727295017,"current_range_meters":12800,"station_id":"ce4bhi12rcd13ifvqfp0","pricing_plan_id":"cebpf4jnsgd1na2vs0mg"},{"bike_id":"8f5130c0-b468-42e5-9eaa-eba14b292a2c","system_id":"levelo_inurba_marseille","lat":43.30239,"lon":5.40012,"is_reserved":false,"is_disabled":false,"rental_uris":{"android":"levelo://app?vid=8f5130c0-b468-42e5-9eaa-eba14b292a2c","ios":"levelo://app?vid=8f5130c0-b468-42e5-9eaa-eba14b292a2c"},"vehicle_type_id":"4","last_reported":1727295017,"current_range_meters":38800,"station_id":"ce4bgvh2rcd13ifvqcs0","pricing_plan_id":"cebpf4jnsgd1na2vs0mg"},{"bike_id":"47a86e3b-22e3-4788-a830-93afc1d30015","system_id":"levelo_inurba_marseille","lat":43.26794,"lon":5.39413,"is_reserved":false,"is_disabled":false,"rental_uris":{"android":"levelo://app?vid=47a86e3b-22e3-4788-a830-93afc1d30015","ios":"levelo://app?vid=47a86e3b-22e3-4788-a830-93afc1d30015"},"vehicle_type_id":"4","last_reported":1727295017,"current_range_meters":16000,"station_id":"ce4bhh12rcd13ifvqfg0","pricing_plan_id":"cebpf4jnsgd1na2vs0mg"},{"bike_id":"abb1da47-bf56-425f-bddd-b875994c1112","system_id":"levelo_inurba_marseille","lat":43.31761,"lon":5.39012,"is_reserved":false,"is_disabled":false,"rental_uris":{"android":"levelo://app?vid=abb1da47-bf56-425f-bddd-b875994c1112","ios":"levelo://app?vid=abb1da47-bf56-425f-bddd-b875994c1112"},"vehicle_type_id":"4","last_reported":1727295017,"current_range_meters":36000,"station_id":"ce4bhqp2rcd13ifvqhng","pricing_plan_id":"cebpf4jnsgd1na2vs0mg"},{"bike_id":"63744131-e298-4c0b-81e7-987738355832","system_id":"levelo_inurba_marseille","lat":43.27919,"lon":5.39583,"is_reserved":false,"is_disabled":false,"rental_uris":{"android":"levelo://app?vid=63744131-e298-4c0b-81e7-987738355832","ios":"levelo://app?vid=63744131-e298-4c0b-81e7-987738355832"},"vehicle_type_id":"4","last_reported":1727295017,"current_range_meters":16000,"station_id":"ce4bhf92rcd13ifvqf40","pricing_plan_id":"cebpf4jnsgd1na2vs0mg"},{"bike_id":"65063097-6998-460f-ac17-9ddd6188ee3b","system_id":"levelo_inurba_marseille","lat":43.3107,"lon":5.38346,"is_reserved":false,"is_disabled":false,"rental_uris":{"android":"levelo://app?vid=65063097-6998-460f-ac17-9ddd6188ee3b","ios":"levelo://app?vid=65063097-6998-460f-ac17-9ddd6188ee3b"},"vehicle_type_id":"4","last_reported":1727295017,"current_range_meters":38800,"station_id":"ce4bgv92rcd13ifvqcr0","pricing_plan_id":"cebpf4jnsgd1na2vs0mg"},{"bike_id":"99f8ad48-51db-4466-be29-2d7cf85a553b","system_id":"levelo_inurba_marseille","lat":43.31362,"lon":5.38495,"is_reserved":false,"is_disabled":false,"rental_uris":{"android":"levelo://app?vid=99f8ad48-51db-4466-be29-2d7cf85a553b","ios":"levelo://app?vid=99f8ad48-51db-4466-be29-2d7cf85a553b"},"vehicle_type_id":"4","last_reported":1727295017,"current_range_meters":38800,"station_id":"ce4bgt92rcd13ifvqcf0","pricing_plan_id":"cebpf4jnsgd1na2vs0mg"},{"bike_id":"97bcd627-3f6f-426d-aa0e-9462a321b97f","system_id":"levelo_inurba_marseille","lat":43.29784,"lon":5.39351,"is_reserved":false,"is_disabled":false,"rental_uris":{"android":"levelo://app?vid=97bcd627-3f6f-426d-aa0e-9462a321b97f","ios":"levelo://app?vid=97bcd627-3f6f-426d-aa0e-9462a321b97f"},"vehicle_type_id":"4","last_reported":1727295017,"current_range_meters":26000,"station_id":"chh1huq6cuj3fo74tm60","pricing_plan_id":"cebpf4jnsgd1na2vs0mg"},{"bike_id":"9f36aae4-4775-4759-9502-522498768d9b","system_id":"levelo_inurba_marseille","lat":43.30207,"lon":5.39476,"is_reserved":false,"is_disabled":false,"rental_uris":{"android":"levelo://app?vid=9f36aae4-4775-4759-9502-522498768d9b","ios":"levelo://app?vid=9f36aae4-4775-4759-9502-522498768d9b"},"vehicle_type_id":"4","last_reported":1727295017,"current_range_meters":12000,"station_id":"ce4bh0p2rcd13ifvqd70","pricing_plan_id":"cebpf4jnsgd1na2vs0mg"},{"bike_id":"59110eaf-d528-474b-9446-365ef418fedb","system_id":"levelo_inurba_marseille","lat":43.29286,"lon":5.40115,"is_reserved":false,"is_disabled":false,"rental_uris":{"android":"levelo://app?vid=59110eaf-d528-474b-9446-365ef418fedb","ios":"levelo://app?vid=59110eaf-d528-474b-9446-365ef418fedb"},"vehicle_type_id":"4","last_reported":1727295017,"current_range_meters":38800,"station_id":"ce4bh312rcd13ifvqdk0","pricing_plan_id":"cebpf4jnsgd1na2vs0mg"},{"bike_id":"76bb2cad-5b1b-41d8-b1de-31b4ebd68310","system_id":"levelo_inurba_marseille","lat":43.30899,"lon":5.391419,"is_reserved":false,"is_disabled":false,"rental_uris":{"android":"levelo://app?vid=76bb2cad-5b1b-41d8-b1de-31b4ebd68310","ios":"levelo://app?vid=76bb2cad-5b1b-41d8-b1de-31b4ebd68310"},"vehicle_type_id":"4","last_reported":1727295017,"current_range_meters":30000,"station_id":"ce4bgup2rcd13ifvqco0","pricing_plan_id":"cebpf4jnsgd1na2vs0mg"},{"bike_id":"38674e62-e768-405d-9590-89d89d7b7b0f","system_id":"levelo_inurba_marseille","lat":43.26065,"lon":5.394,"is_reserved":false,"is_disabled":false,"rental_uris":{"android":"levelo://app?vid=38674e62-e768-405d-9590-89d89d7b7b0f","ios":"levelo://app?vid=38674e62-e768-405d-9590-89d89d7b7b0f"},"vehicle_type_id":"4","last_reported":1727295017,"current_range_meters":38000,"station_id":"ce4bhh92rcd13ifvqfj0","pricing_plan_id":"cebpf4jnsgd1na2vs0mg"},{"bike_id":"6aeee1aa-489a-4cb7-9bbf-57c495c2e7ff","system_id":"levelo_inurba_marseille","lat":43.32365,"lon":5.38886,"is_reserved":false,"is_disabled":false,"rental_uris":{"android":"levelo://app?vid=6aeee1aa-489a-4cb7-9bbf-57c495c2e7ff","ios":"levelo://app?vid=6aeee1aa-489a-4cb7-9bbf-57c495c2e7ff"},"vehicle_type_id":"4","last_reported":1727295017,"current_range_meters":32000,"station_id":"ce4bhqp2rcd13ifvqhog","pricing_plan_id":"cebpf4jnsgd1na2vs0mg"},{"bike_id":"9df2bede-fbe1-4c5f-85da-3d7007b4d93f","system_id":"levelo_inurba_marseille","lat":43.30887,"lon":5.39656,"is_reserved":false,"is_disabled":false,"rental_uris":{"android":"levelo://app?vid=9df2bede-fbe1-4c5f-85da-3d7007b4d93f","ios":"levelo://app?vid=9df2bede-fbe1-4c5f-85da-3d7007b4d93f"},"vehicle_type_id":"4","last_reported":1727295017,"current_range_meters":28400,"station_id":"ce4bh012rcd13ifvqcv0","pricing_plan_id":"cebpf4jnsgd1na2vs0mg"},{"bike_id":"6ff2343d-b29d-484d-b89d-073d663c29ac","system_id":"levelo_inurba_marseille","lat":43.31372,"lon":5.38499,"is_reserved":false,"is_disabled":false,"rental_uris":{"android":"levelo://app?vid=6ff2343d-b29d-484d-b89d-073d663c29ac","ios":"levelo://app?vid=6ff2343d-b29d-484d-b89d-073d663c29ac"},"vehicle_type_id":"4","last_reported":1727295017,"current_range_meters":38800,"station_id":"ce4bgt92rcd13ifvqcf0","pricing_plan_id":"cebpf4jnsgd1na2vs0mg"},{"bike_id":"a3f7c797-2788-4cea-aa51-2735e90fcd90","system_id":"levelo_inurba_marseille","lat":43.30795,"lon":5.4353,"is_reserved":false,"is_disabled":false,"rental_uris":{"android":"levelo://app?vid=a3f7c797-2788-4cea-aa51-2735e90fcd90","ios":"levelo://app?vid=a3f7c797-2788-4cea-aa51-2735e90fcd90"},"vehicle_type_id":"4","last_reported":1727295017,"current_range_meters":24400,"station_id":"ce4bhph2rcd13ifvqheg","pricing_plan_id":"cebpf4jnsgd1na2vs0mg"},{"bike_id":"b7a11cb0-f275-47b8-8c85-6afe965f3eb3","system_id":"levelo_inurba_marseille","lat":43.25088,"lon":5.39515,"is_reserved":false,"is_disabled":false,"rental_uris":{"android":"levelo://app?vid=b7a11cb0-f275-47b8-8c85-6afe965f3eb3","ios":"levelo://app?vid=b7a11cb0-f275-47b8-8c85-6afe965f3eb3"},"vehicle_type_id":"4","last_reported":1727295017,"current_range_meters":8000,"station_id":"ce4bhm12rcd13ifvqgkg","pricing_plan_id":"cebpf4jnsgd1na2vs0mg"},{"bike_id":"8346a52b-15fb-4f6e-90e4-9ddb62356ec5","system_id":"levelo_inurba_marseille","lat":43.29911,"lon":5.37472,"is_reserved":false,"is_disabled":false,"rental_uris":{"android":"levelo://app?vid=8346a52b-15fb-4f6e-90e4-9ddb62356ec5","ios":"levelo://app?vid=8346a52b-15fb-4f6e-90e4-9ddb62356ec5"},"vehicle_type_id":"4","last_reported":1727295017,"current_range_meters":36000,"station_id":"ce4bgjh2rcd13ifvqbg0","pricing_plan_id":"cebpf4jnsgd1na2vs0mg"},{"bike_id":"4211dc02-4006-4d7c-b9ad-3a2c8d84797f","system_id":"levelo_inurba_marseille","lat":43.23967,"lon":5.36635,"is_reserved":false,"is_disabled":false,"rental_uris":{"android":"levelo://app?vid=4211dc02-4006-4d7c-b9ad-3a2c8d84797f","ios":"levelo://app?vid=4211dc02-4006-4d7c-b9ad-3a2c8d84797f"},"vehicle_type_id":"4","last_reported":1727295017,"current_range_meters":25600,"station_id":"ce4bhi12rcd13ifvqfp0","pricing_plan_id":"cebpf4jnsgd1na2vs0mg"},{"bike_id":"5c93b95c-0549-41f0-a4a9-6211e260d1dc","system_id":"levelo_inurba_marseille","lat":43.31888,"lon":5.40743,"is_reserved":false,"is_disabled":false,"rental_uris":{"android":"levelo://app?vid=5c93b95c-0549-41f0-a4a9-6211e260d1dc","ios":"levelo://app?vid=5c93b95c-0549-41f0-a4a9-6211e260d1dc"},"vehicle_type_id":"4","last_reported":1727295017,"current_range_meters":6400,"station_id":"ce4bhq12rcd13ifvqhig","pricing_plan_id":"cebpf4jnsgd1na2vs0mg"},{"bike_id":"9d61428e-1fba-4ad5-b70d-8ecb24a31296","system_id":"levelo_inurba_marseille","lat":43.29934,"lon":5.36563,"is_reserved":false,"is_disabled":false,"rental_uris":{"android":"levelo://app?vid=9d61428e-1fba-4ad5-b70d-8ecb24a31296","ios":"levelo://app?vid=9d61428e-1fba-4ad5-b70d-8ecb24a31296"},"vehicle_type_id":"4","last_reported":1727295017,"current_range_meters":14000,"station_id":"ce4bgm92rcd13ifvqbr0","pricing_plan_id":"cebpf4jnsgd1na2vs0mg"},{"bike_id":"920b7059-efc6-4750-96fa-124c71e8a324","system_id":"levelo_inurba_marseille","lat":43.28701,"lon":5.37392,"is_reserved":false,"is_disabled":false,"rental_uris":{"android":"levelo://app?vid=920b7059-efc6-4750-96fa-124c71e8a324","ios":"levelo://app?vid=920b7059-efc6-4750-96fa-124c71e8a324"},"vehicle_type_id":"4","last_reported":1727295017,"current_range_meters":38800,"station_id":"ce4bh3p2rcd13ifvqdq0","pricing_plan_id":"cebpf4jnsgd1na2vs0mg"},{"bike_id":"19309ef8-ba58-45a5-8f62-d42eb4958490","system_id":"levelo_inurba_marseille","lat":43.30925,"lon":5.4014,"is_reserved":false,"is_disabled":false,"rental_uris":{"android":"levelo://app?vid=19309ef8-ba58-45a5-8f62-d42eb4958490","ios":"levelo://app?vid=19309ef8-ba58-45a5-8f62-d42eb4958490"},"vehicle_type_id":"4","last_reported":1727295017,"current_range_meters":17200,"station_id":"ce4bgvp2rcd13ifvqct0","pricing_plan_id":"cebpf4jnsgd1na2vs0mg"},{"bike_id":"f10bcb1e-52b2-499e-8f66-4ffc1b8efb37","system_id":"levelo_inurba_marseille","lat":43.3089,"lon":5.37188,"is_reserved":false,"is_disabled":false,"rental_uris":{"android":"levelo://app?vid=f10bcb1e-52b2-499e-8f66-4ffc1b8efb37","ios":"levelo://app?vid=f10bcb1e-52b2-499e-8f66-4ffc1b8efb37"},"vehicle_type_id":"4","last_reported":1727295017,"current_range_meters":25200,"station_id":"ce4bguh2rcd13ifvqckg","pricing_plan_id":"cebpf4jnsgd1na2vs0mg"},{"bike_id":"6954fd7e-728c-4dac-9e64-3fa4e20ee438","system_id":"levelo_inurba_marseille","lat":43.3372,"lon":5.39187,"is_reserved":false,"is_disabled":false,"rental_uris":{"android":"levelo://app?vid=6954fd7e-728c-4dac-9e64-3fa4e20ee438","ios":"levelo://app?vid=6954fd7e-728c-4dac-9e64-3fa4e20ee438"},"vehicle_type_id":"4","last_reported":1727295017,"current_range_meters":37600,"station_id":"ce4bhr92rcd13ifvqhsg","pricing_plan_id":"cebpf4jnsgd1na2vs0mg"},{"bike_id":"a7b23240-9940-4566-8667-311818b8ba93","system_id":"levelo_inurba_marseille","lat":43.30409,"lon":5.39759,"is_reserved":false,"is_disabled":false,"rental_uris":{"android":"levelo://app?vid=a7b23240-9940-4566-8667-311818b8ba93","ios":"levelo://app?vid=a7b23240-9940-4566-8667-311818b8ba93"},"vehicle_type_id":"4","last_reported":1727295017,"current_range_meters":38800,"station_id":"ce4bh092rcd13ifvqd20","pricing_plan_id":"cebpf4jnsgd1na2vs0mg"},{"bike_id":"eab5a9e2-402e-41da-921c-d31391bad40e","system_id":"levelo_inurba_marseille","lat":43.24663,"lon":5.38168,"is_reserved":false,"is_disabled":false,"rental_uris":{"android":"levelo://app?vid=eab5a9e2-402e-41da-921c-d31391bad40e","ios":"levelo://app?vid=eab5a9e2-402e-41da-921c-d31391bad40e"},"vehicle_type_id":"4","last_reported":1727295017,"current_range_meters":28000,"station_id":"ce4bhih2rcd13ifvqfr0","pricing_plan_id":"cebpf4jnsgd1na2vs0mg"},{"bike_id":"32b85054-cd03-423e-b776-3d0bd795fbde","system_id":"levelo_inurba_marseille","lat":43.276863,"lon":5.383669,"is_reserved":false,"is_disabled":false,"rental_uris":{"android":"levelo://app?vid=32b85054-cd03-423e-b776-3d0bd795fbde","ios":"levelo://app?vid=32b85054-cd03-423e-b776-3d0bd795fbde"},"vehicle_type_id":"4","last_reported":1727295017,"current_range_meters":38000,"station_id":"ce4bhip2rcd13ifvqft0","pricing_plan_id":"cebpf4jnsgd1na2vs0mg"},{"bike_id":"d0d07880-62b3-4c52-b862-412a7e5558bd","system_id":"levelo_inurba_marseille","lat":43.27976,"lon":5.4164,"is_reserved":false,"is_disabled":false,"rental_uris":{"android":"levelo://app?vid=d0d07880-62b3-4c52-b862-412a7e5558bd","ios":"levelo://app?vid=d0d07880-62b3-4c52-b862-412a7e5558bd"},"vehicle_type_id":"4","last_reported":1727295017,"current_range_meters":19600,"station_id":"ce4bho12rcd13ifvqh1g","pricing_plan_id":"cebpf4jnsgd1na2vs0mg"},{"bike_id":"cba95091-7984-4b96-9b49-853952a62f5f","system_id":"levelo_inurba_marseille","lat":43.28464,"lon":5.35891,"is_reserved":false,"is_disabled":false,"rental_uris":{"android":"levelo://app?vid=cba95091-7984-4b96-9b49-853952a62f5f","ios":"levelo://app?vid=cba95091-7984-4b96-9b49-853952a62f5f"},"vehicle_type_id":"4","last_reported":1727295017,"current_range_meters":16400,"station_id":"ce4bhah2rcd13ifvqei0","pricing_plan_id":"cebpf4jnsgd1na2vs0mg"},{"bike_id":"920936a9-2bd7-4506-9543-c06109854d8e","system_id":"levelo_inurba_marseille","lat":43.28659,"lon":5.36351,"is_reserved":false,"is_disabled":false,"rental_uris":{"android":"levelo://app?vid=920936a9-2bd7-4506-9543-c06109854d8e","ios":"levelo://app?vid=920936a9-2bd7-4506-9543-c06109854d8e"},"vehicle_type_id":"4","last_reported":1727295017,"current_range_meters":17200,"station_id":"ce4bhah2rcd13ifvqej0","pricing_plan_id":"cebpf4jnsgd1na2vs0mg"},{"bike_id":"89685f51-8676-45f9-b167-709e27038cfa","system_id":"levelo_inurba_marseille","lat":43.27829,"lon":5.39208,"is_reserved":false,"is_disabled":false,"rental_uris":{"android":"levelo://app?vid=89685f51-8676-45f9-b167-709e27038cfa","ios":"levelo://app?vid=89685f51-8676-45f9-b167-709e27038cfa"},"vehicle_type_id":"4","last_reported":1727295017,"current_range_meters":30400,"station_id":"ce4bhjp2rcd13ifvqga0","pricing_plan_id":"cebpf4jnsgd1na2vs0mg"},{"bike_id":"cf36a53a-3509-423f-8075-777dbf5a32a1","system_id":"levelo_inurba_marseille","lat":43.22941,"lon":5.35381,"is_reserved":false,"is_disabled":false,"rental_uris":{"android":"levelo://app?vid=cf36a53a-3509-423f-8075-777dbf5a32a1","ios":"levelo://app?vid=cf36a53a-3509-423f-8075-777dbf5a32a1"},"vehicle_type_id":"4","last_reported":1727295017,"current_range_meters":28400,"station_id":"cpo3532slgdg3j2ikp40","pricing_plan_id":"cebpf4jnsgd1na2vs0mg"},{"bike_id":"a75d11e4-5000-41f8-9ff2-fbd2a76366d5","system_id":"levelo_inurba_marseille","lat":43.3395,"lon":5.42082,"is_reserved":false,"is_disabled":false,"rental_uris":{"android":"levelo://app?vid=a75d11e4-5000-41f8-9ff2-fbd2a76366d5","ios":"levelo://app?vid=a75d11e4-5000-41f8-9ff2-fbd2a76366d5"},"vehicle_type_id":"4","last_reported":1727295017,"current_range_meters":18800,"station_id":"","pricing_plan_id":"cebpf4jnsgd1na2vs0mg"},{"bike_id":"07ca6f31-746d-4038-8781-eb10f64a4c98","system_id":"levelo_inurba_marseille","lat":43.30597,"lon":5.37223,"is_reserved":false,"is_disabled":false,"rental_uris":{"android":"levelo://app?vid=07ca6f31-746d-4038-8781-eb10f64a4c98","ios":"levelo://app?vid=07ca6f31-746d-4038-8781-eb10f64a4c98"},"vehicle_type_id":"4","last_reported":1727295017,"current_range_meters":37600,"station_id":"ce4bgqh2rcd13ifvqc4g","pricing_plan_id":"cebpf4jnsgd1na2vs0mg"},{"bike_id":"eb4295bd-b8a8-4ac2-9163-2e0e81566b52","system_id":"levelo_inurba_marseille","lat":43.27383,"lon":5.36271,"is_reserved":false,"is_disabled":false,"rental_uris":{"android":"levelo://app?vid=eb4295bd-b8a8-4ac2-9163-2e0e81566b52","ios":"levelo://app?vid=eb4295bd-b8a8-4ac2-9163-2e0e81566b52"},"vehicle_type_id":"4","last_reported":1727295017,"current_range_meters":39200,"station_id":"ce4bhbh2rcd13ifvqeo0","pricing_plan_id":"cebpf4jnsgd1na2vs0mg"},{"bike_id":"3bf971af-f75a-40aa-b9ed-b9e2b97918c6","system_id":"levelo_inurba_marseille","lat":43.30656,"lon":5.40088,"is_reserved":false,"is_disabled":false,"rental_uris":{"android":"levelo://app?vid=3bf971af-f75a-40aa-b9ed-b9e2b97918c6","ios":"levelo://app?vid=3bf971af-f75a-40aa-b9ed-b9e2b97918c6"},"vehicle_type_id":"4","last_reported":1727295017,"current_range_meters":36800,"station_id":"ce4bh112rcd13ifvqda0","pricing_plan_id":"cebpf4jnsgd1na2vs0mg"},{"bike_id":"ea49d9e8-8e06-4151-b49f-455334378a83","system_id":"levelo_inurba_marseille","lat":43.25725,"lon":5.41108,"is_reserved":false,"is_disabled":false,"rental_uris":{"android":"levelo://app?vid=ea49d9e8-8e06-4151-b49f-455334378a83","ios":"levelo://app?vid=ea49d9e8-8e06-4151-b49f-455334378a83"},"vehicle_type_id":"4","last_reported":1727295017,"current_range_meters":6400,"station_id":"ce4bhkp2rcd13ifvqgd0","pricing_plan_id":"cebpf4jnsgd1na2vs0mg"},{"bike_id":"250d46aa-db71-4d0b-abb5-20be23cf08df","system_id":"levelo_inurba_marseille","lat":43.29095,"lon":5.38132,"is_reserved":false,"is_disabled":false,"rental_uris":{"android":"levelo://app?vid=250d46aa-db71-4d0b-abb5-20be23cf08df","ios":"levelo://app?vid=250d46aa-db71-4d0b-abb5-20be23cf08df"},"vehicle_type_id":"4","last_reported":1727295017,"current_range_meters":33200,"station_id":"ce4bh512rcd13ifvqe2g","pricing_plan_id":"cebpf4jnsgd1na2vs0mg"},{"bike_id":"2f2c48a7-330b-44c3-b52f-a01c344118c9","system_id":"levelo_inurba_marseille","lat":43.32286,"lon":5.38275,"is_reserved":false,"is_disabled":false,"rental_uris":{"android":"levelo://app?vid=2f2c48a7-330b-44c3-b52f-a01c344118c9","ios":"levelo://app?vid=2f2c48a7-330b-44c3-b52f-a01c344118c9"},"vehicle_type_id":"4","last_reported":1727295017,"current_range_meters":20000,"station_id":"ce4bhr12rcd13ifvqhqg","pricing_plan_id":"cebpf4jnsgd1na2vs0mg"},{"bike_id":"294a6ead-038b-4ebf-ab17-837ba9adb23a","system_id":"levelo_inurba_marseille","lat":43.28285,"lon":5.35084,"is_reserved":false,"is_disabled":false,"rental_uris":{"android":"levelo://app?vid=294a6ead-038b-4ebf-ab17-837ba9adb23a","ios":"levelo://app?vid=294a6ead-038b-4ebf-ab17-837ba9adb23a"},"vehicle_type_id":"4","last_reported":1727295017,"current_range_meters":38800,"station_id":"ce4bhbp2rcd13ifvqerg","pricing_plan_id":"cebpf4jnsgd1na2vs0mg"},{"bike_id":"858ca720-3eaf-4793-8994-cd32470e7cc9","system_id":"levelo_inurba_marseille","lat":43.287,"lon":5.37397,"is_reserved":false,"is_disabled":false,"rental_uris":{"android":"levelo://app?vid=858ca720-3eaf-4793-8994-cd32470e7cc9","ios":"levelo://app?vid=858ca720-3eaf-4793-8994-cd32470e7cc9"},"vehicle_type_id":"4","last_reported":1727295017,"current_range_meters":38000,"station_id":"ce4bh3p2rcd13ifvqdq0","pricing_plan_id":"cebpf4jnsgd1na2vs0mg"},{"bike_id":"f0880602-7d55-49ff-af45-6f6364f0bd31","system_id":"levelo_inurba_marseille","lat":43.27678,"lon":5.38878,"is_reserved":false,"is_disabled":false,"rental_uris":{"android":"levelo://app?vid=f0880602-7d55-49ff-af45-6f6364f0bd31","ios":"levelo://app?vid=f0880602-7d55-49ff-af45-6f6364f0bd31"},"vehicle_type_id":"4","last_reported":1727295017,"current_range_meters":6800,"station_id":"ce4bhi12rcd13ifvqfo0","pricing_plan_id":"cebpf4jnsgd1na2vs0mg"},{"bike_id":"362d6825-6219-416f-b86d-6c9c61d5f4f6","system_id":"levelo_inurba_marseille","lat":43.284027,"lon":5.375182,"is_reserved":false,"is_disabled":false,"rental_uris":{"android":"levelo://app?vid=362d6825-6219-416f-b86d-6c9c61d5f4f6","ios":"levelo://app?vid=362d6825-6219-416f-b86d-6c9c61d5f4f6"},"vehicle_type_id":"4","last_reported":1727295017,"current_range_meters":36400,"station_id":"ce4bh412rcd13ifvqds0","pricing_plan_id":"cebpf4jnsgd1na2vs0mg"},{"bike_id":"e5bd0fa9-5f87-41bf-b1c3-9068bc1e13e2","system_id":"levelo_inurba_marseille","lat":43.32361,"lon":5.38887,"is_reserved":false,"is_disabled":false,"rental_uris":{"android":"levelo://app?vid=e5bd0fa9-5f87-41bf-b1c3-9068bc1e13e2","ios":"levelo://app?vid=e5bd0fa9-5f87-41bf-b1c3-9068bc1e13e2"},"vehicle_type_id":"4","last_reported":1727295017,"current_range_meters":20400,"station_id":"ce4bhqp2rcd13ifvqhog","pricing_plan_id":"cebpf4jnsgd1na2vs0mg"},{"bike_id":"66f14769-8a4d-4a8c-a7e9-150393aaaf7d","system_id":"levelo_inurba_marseille","lat":43.29098,"lon":5.38143,"is_reserved":false,"is_disabled":false,"rental_uris":{"android":"levelo://app?vid=66f14769-8a4d-4a8c-a7e9-150393aaaf7d","ios":"levelo://app?vid=66f14769-8a4d-4a8c-a7e9-150393aaaf7d"},"vehicle_type_id":"4","last_reported":1727295017,"current_range_meters":11600,"station_id":"ce4bh512rcd13ifvqe2g","pricing_plan_id":"cebpf4jnsgd1na2vs0mg"},{"bike_id":"a45e9f79-9d87-4ae1-bb1b-a1720214dd8e","system_id":"levelo_inurba_marseille","lat":43.31329,"lon":5.397004,"is_reserved":false,"is_disabled":false,"rental_uris":{"android":"levelo://app?vid=a45e9f79-9d87-4ae1-bb1b-a1720214dd8e","ios":"levelo://app?vid=a45e9f79-9d87-4ae1-bb1b-a1720214dd8e"},"vehicle_type_id":"4","last_reported":1727295017,"current_range_meters":38800,"station_id":"ce4bgvp2rcd13ifvqcu0","pricing_plan_id":"cebpf4jnsgd1na2vs0mg"},{"bike_id":"c0719311-0832-424d-8543-84a11710a77e","system_id":"levelo_inurba_marseille","lat":43.29268,"lon":5.38448,"is_reserved":false,"is_disabled":false,"rental_uris":{"android":"levelo://app?vid=c0719311-0832-424d-8543-84a11710a77e","ios":"levelo://app?vid=c0719311-0832-424d-8543-84a11710a77e"},"vehicle_type_id":"4","last_reported":1727295017,"current_range_meters":12800,"station_id":"ce4bh692rcd13ifvqea0","pricing_plan_id":"cebpf4jnsgd1na2vs0mg"},{"bike_id":"fc9c5792-d459-492d-9e15-eeb2e88813b3","system_id":"levelo_inurba_marseille","lat":43.30099,"lon":5.39084,"is_reserved":false,"is_disabled":false,"rental_uris":{"android":"levelo://app?vid=fc9c5792-d459-492d-9e15-eeb2e88813b3","ios":"levelo://app?vid=fc9c5792-d459-492d-9e15-eeb2e88813b3"},"vehicle_type_id":"4","last_reported":1727295017,"current_range_meters":38400,"station_id":"ce4bh192rcd13ifvqdb0","pricing_plan_id":"cebpf4jnsgd1na2vs0mg"},{"bike_id":"579ca450-e0c2-45fa-b5c3-22c592624e30","system_id":"levelo_inurba_marseille","lat":43.33018,"lon":5.39042,"is_reserved":false,"is_disabled":false,"rental_uris":{"android":"levelo://app?vid=579ca450-e0c2-45fa-b5c3-22c592624e30","ios":"levelo://app?vid=579ca450-e0c2-45fa-b5c3-22c592624e30"},"vehicle_type_id":"4","last_reported":1727295017,"current_range_meters":10800,"station_id":"ce4bhr92rcd13ifvqhrg","pricing_plan_id":"cebpf4jnsgd1na2vs0mg"},{"bike_id":"b860d883-c194-47c2-a427-633aacf2d83d","system_id":"levelo_inurba_marseille","lat":43.336029,"lon":5.410329,"is_reserved":false,"is_disabled":false,"rental_uris":{"android":"levelo://app?vid=b860d883-c194-47c2-a427-633aacf2d83d","ios":"levelo://app?vid=b860d883-c194-47c2-a427-633aacf2d83d"},"vehicle_type_id":"4","last_reported":1727295017,"current_range_meters":25600,"station_id":"ce4bhqh2rcd13ifvqhmg","pricing_plan_id":"cebpf4jnsgd1na2vs0mg"},{"bike_id":"d172a079-3fef-4b37-82d2-800ee4eb017d","system_id":"levelo_inurba_marseille","lat":43.29789,"lon":5.39349,"is_reserved":false,"is_disabled":false,"rental_uris":{"android":"levelo://app?vid=d172a079-3fef-4b37-82d2-800ee4eb017d","ios":"levelo://app?vid=d172a079-3fef-4b37-82d2-800ee4eb017d"},"vehicle_type_id":"4","last_reported":1727295017,"current_range_meters":33600,"station_id":"chh1huq6cuj3fo74tm60","pricing_plan_id":"cebpf4jnsgd1na2vs0mg"},{"bike_id":"f2ef5102-6b9b-41a6-9e50-e7b3a0230a29","system_id":"levelo_inurba_marseille","lat":43.28455,"lon":5.35892,"is_reserved":false,"is_disabled":false,"rental_uris":{"android":"levelo://app?vid=f2ef5102-6b9b-41a6-9e50-e7b3a0230a29","ios":"levelo://app?vid=f2ef5102-6b9b-41a6-9e50-e7b3a0230a29"},"vehicle_type_id":"4","last_reported":1727295017,"current_range_meters":4800,"station_id":"ce4bhah2rcd13ifvqei0","pricing_plan_id":"cebpf4jnsgd1na2vs0mg"},{"bike_id":"c2bdf32c-f616-4cec-8d5e-330373c3c441","system_id":"levelo_inurba_marseille","lat":43.2439,"lon":5.37054,"is_reserved":false,"is_disabled":false,"rental_uris":{"android":"levelo://app?vid=c2bdf32c-f616-4cec-8d5e-330373c3c441","ios":"levelo://app?vid=c2bdf32c-f616-4cec-8d5e-330373c3c441"},"vehicle_type_id":"4","last_reported":1727295017,"current_range_meters":38800,"station_id":"ce4bhhh2rcd13ifvqfk0","pricing_plan_id":"cebpf4jnsgd1na2vs0mg"},{"bike_id":"d20b87a8-1ff0-4fbb-9a79-5be841e624b8","system_id":"levelo_inurba_marseille","lat":43.28,"lon":5.41663,"is_reserved":false,"is_disabled":false,"rental_uris":{"android":"levelo://app?vid=d20b87a8-1ff0-4fbb-9a79-5be841e624b8","ios":"levelo://app?vid=d20b87a8-1ff0-4fbb-9a79-5be841e624b8"},"vehicle_type_id":"4","last_reported":1727295017,"current_range_meters":4800,"station_id":"ce4bho12rcd13ifvqh1g","pricing_plan_id":"cebpf4jnsgd1na2vs0mg"},{"bike_id":"8d3ecac4-8e0f-45f1-b81a-9b3dacb760a4","system_id":"levelo_inurba_marseille","lat":43.303035,"lon":5.392146,"is_reserved":false,"is_disabled":false,"rental_uris":{"android":"levelo://app?vid=8d3ecac4-8e0f-45f1-b81a-9b3dacb760a4","ios":"levelo://app?vid=8d3ecac4-8e0f-45f1-b81a-9b3dacb760a4"},"vehicle_type_id":"4","last_reported":1727295017,"current_range_meters":31200,"station_id":"ce4bgv12rcd13ifvqcp0","pricing_plan_id":"cebpf4jnsgd1na2vs0mg"},{"bike_id":"42340395-5fcf-41c3-bc60-6fd170d32af9","system_id":"levelo_inurba_marseille","lat":43.27812,"lon":5.40712,"is_reserved":false,"is_disabled":false,"rental_uris":{"android":"levelo://app?vid=42340395-5fcf-41c3-bc60-6fd170d32af9","ios":"levelo://app?vid=42340395-5fcf-41c3-bc60-6fd170d32af9"},"vehicle_type_id":"4","last_reported":1727295017,"current_range_meters":36800,"station_id":"ce4bhnh2rcd13ifvqgtg","pricing_plan_id":"cebpf4jnsgd1na2vs0mg"},{"bike_id":"553ffebd-ccf7-4a7c-86b4-9395eafe055b","system_id":"levelo_inurba_marseille","lat":43.31332,"lon":5.39694,"is_reserved":false,"is_disabled":false,"rental_uris":{"android":"levelo://app?vid=553ffebd-ccf7-4a7c-86b4-9395eafe055b","ios":"levelo://app?vid=553ffebd-ccf7-4a7c-86b4-9395eafe055b"},"vehicle_type_id":"4","last_reported":1727295017,"current_range_meters":38000,"station_id":"ce4bgvp2rcd13ifvqcu0","pricing_plan_id":"cebpf4jnsgd1na2vs0mg"},{"bike_id":"36a99c3f-0274-4c94-8180-d57585ba70bc","system_id":"levelo_inurba_marseille","lat":43.28926,"lon":5.36393,"is_reserved":false,"is_disabled":false,"rental_uris":{"android":"levelo://app?vid=36a99c3f-0274-4c94-8180-d57585ba70bc","ios":"levelo://app?vid=36a99c3f-0274-4c94-8180-d57585ba70bc"},"vehicle_type_id":"4","last_reported":1727295017,"current_range_meters":11200,"station_id":"ce4bhc92rcd13ifvqetg","pricing_plan_id":"cebpf4jnsgd1na2vs0mg"},{"bike_id":"7ac6f0b4-aae3-49bc-8bc4-b9e8a8c7e59e","system_id":"levelo_inurba_marseille","lat":43.31694,"lon":5.40474,"is_reserved":false,"is_disabled":false,"rental_uris":{"android":"levelo://app?vid=7ac6f0b4-aae3-49bc-8bc4-b9e8a8c7e59e","ios":"levelo://app?vid=7ac6f0b4-aae3-49bc-8bc4-b9e8a8c7e59e"},"vehicle_type_id":"4","last_reported":1727295017,"current_range_meters":2000,"station_id":"ce4bh012rcd13ifvqd00","pricing_plan_id":"cebpf4jnsgd1na2vs0mg"},{"bike_id":"9d6da82d-c178-42a9-8398-55555317c0bd","system_id":"levelo_inurba_marseille","lat":43.2511,"lon":5.40329,"is_reserved":false,"is_disabled":false,"rental_uris":{"android":"levelo://app?vid=9d6da82d-c178-42a9-8398-55555317c0bd","ios":"levelo://app?vid=9d6da82d-c178-42a9-8398-55555317c0bd"},"vehicle_type_id":"4","last_reported":1727295017,"current_range_meters":6800,"station_id":"ce4bhlh2rcd13ifvqgig","pricing_plan_id":"cebpf4jnsgd1na2vs0mg"},{"bike_id":"44e904a3-5e29-4f9c-bcc1-ade86b44dbc6","system_id":"levelo_inurba_marseille","lat":43.27373,"lon":5.36263,"is_reserved":false,"is_disabled":false,"rental_uris":{"android":"levelo://app?vid=44e904a3-5e29-4f9c-bcc1-ade86b44dbc6","ios":"levelo://app?vid=44e904a3-5e29-4f9c-bcc1-ade86b44dbc6"},"vehicle_type_id":"4","last_reported":1727295017,"current_range_meters":38800,"station_id":"ce4bhbh2rcd13ifvqeo0","pricing_plan_id":"cebpf4jnsgd1na2vs0mg"},{"bike_id":"155fa6c7-f63a-4c37-aacb-29cacc447d39","system_id":"levelo_inurba_marseille","lat":43.29263,"lon":5.38438,"is_reserved":false,"is_disabled":false,"rental_uris":{"android":"levelo://app?vid=155fa6c7-f63a-4c37-aacb-29cacc447d39","ios":"levelo://app?vid=155fa6c7-f63a-4c37-aacb-29cacc447d39"},"vehicle_type_id":"4","last_reported":1727295017,"current_range_meters":8400,"station_id":"ce4bh692rcd13ifvqea0","pricing_plan_id":"cebpf4jnsgd1na2vs0mg"},{"bike_id":"1c49a05f-67c8-4c00-8e75-d9e27089a285","system_id":"levelo_inurba_marseille","lat":43.32481,"lon":5.36567,"is_reserved":false,"is_disabled":false,"rental_uris":{"android":"levelo://app?vid=1c49a05f-67c8-4c00-8e75-d9e27089a285","ios":"levelo://app?vid=1c49a05f-67c8-4c00-8e75-d9e27089a285"},"vehicle_type_id":"4","last_reported":1727295017,"current_range_meters":15200,"station_id":"ce4bhs12rcd13ifvqhvg","pricing_plan_id":"cebpf4jnsgd1na2vs0mg"},{"bike_id":"ed9cc89e-6a30-4ce0-83e9-055109171415","system_id":"levelo_inurba_marseille","lat":43.29261,"lon":5.38445,"is_reserved":false,"is_disabled":false,"rental_uris":{"android":"levelo://app?vid=ed9cc89e-6a30-4ce0-83e9-055109171415","ios":"levelo://app?vid=ed9cc89e-6a30-4ce0-83e9-055109171415"},"vehicle_type_id":"4","last_reported":1727295017,"current_range_meters":4800,"station_id":"ce4bh692rcd13ifvqea0","pricing_plan_id":"cebpf4jnsgd1na2vs0mg"},{"bike_id":"845dbad2-c076-45d3-b7ea-74508177f32b","system_id":"levelo_inurba_marseille","lat":43.28357,"lon":5.381,"is_reserved":false,"is_disabled":false,"rental_uris":{"android":"levelo://app?vid=845dbad2-c076-45d3-b7ea-74508177f32b","ios":"levelo://app?vid=845dbad2-c076-45d3-b7ea-74508177f32b"},"vehicle_type_id":"4","last_reported":1727295017,"current_range_meters":25200,"station_id":"ce4bh412rcd13ifvqdr0","pricing_plan_id":"cebpf4jnsgd1na2vs0mg"},{"bike_id":"d14d52e5-75cc-4a1f-90ea-cce4ddff11b1","system_id":"levelo_inurba_marseille","lat":43.31195,"lon":5.38708,"is_reserved":false,"is_disabled":false,"rental_uris":{"android":"levelo://app?vid=d14d52e5-75cc-4a1f-90ea-cce4ddff11b1","ios":"levelo://app?vid=d14d52e5-75cc-4a1f-90ea-cce4ddff11b1"},"vehicle_type_id":"4","last_reported":1727295017,"current_range_meters":38800,"station_id":"ce4bgv12rcd13ifvqcp0","pricing_plan_id":"cebpf4jnsgd1na2vs0mg"},{"bike_id":"6c335da8-07df-43e1-a668-04092bf6675e","system_id":"levelo_inurba_marseille","lat":43.29261,"lon":5.40906,"is_reserved":false,"is_disabled":false,"rental_uris":{"android":"levelo://app?vid=6c335da8-07df-43e1-a668-04092bf6675e","ios":"levelo://app?vid=6c335da8-07df-43e1-a668-04092bf6675e"},"vehicle_type_id":"4","last_reported":1727295017,"current_range_meters":9200,"station_id":"ce4bh192rcd13ifvqdc0","pricing_plan_id":"cebpf4jnsgd1na2vs0mg"},{"bike_id":"47ba0401-8be6-4c89-8eef-6bff009d65b5","system_id":"levelo_inurba_marseille","lat":43.3229,"lon":5.3826,"is_reserved":false,"is_disabled":false,"rental_uris":{"android":"levelo://app?vid=47ba0401-8be6-4c89-8eef-6bff009d65b5","ios":"levelo://app?vid=47ba0401-8be6-4c89-8eef-6bff009d65b5"},"vehicle_type_id":"4","last_reported":1727295017,"current_range_meters":14400,"station_id":"ce4bhr12rcd13ifvqhqg","pricing_plan_id":"cebpf4jnsgd1na2vs0mg"},{"bike_id":"64079a02-a1d2-47ff-8b56-8ab97cb55a6f","system_id":"levelo_inurba_marseille","lat":43.29869,"lon":5.39737,"is_reserved":false,"is_disabled":false,"rental_uris":{"android":"levelo://app?vid=64079a02-a1d2-47ff-8b56-8ab97cb55a6f","ios":"levelo://app?vid=64079a02-a1d2-47ff-8b56-8ab97cb55a6f"},"vehicle_type_id":"4","last_reported":1727295017,"current_range_meters":16800,"station_id":"ce4bh0h2rcd13ifvqd50","pricing_plan_id":"cebpf4jnsgd1na2vs0mg"},{"bike_id":"64a56750-bb84-4478-9eb0-b6ec75f8dbb6","system_id":"levelo_inurba_marseille","lat":43.28437,"lon":5.39186,"is_reserved":false,"is_disabled":false,"rental_uris":{"android":"levelo://app?vid=64a56750-bb84-4478-9eb0-b6ec75f8dbb6","ios":"levelo://app?vid=64a56750-bb84-4478-9eb0-b6ec75f8dbb6"},"vehicle_type_id":"4","last_reported":1727295017,"current_range_meters":8800,"station_id":"ce4bhoh2rcd13ifvqh5g","pricing_plan_id":"cebpf4jnsgd1na2vs0mg"},{"bike_id":"e7c15af7-e3a1-4de5-91b4-8a99b247bb3c","system_id":"levelo_inurba_marseille","lat":43.26571,"lon":5.39018,"is_reserved":false,"is_disabled":false,"rental_uris":{"android":"levelo://app?vid=e7c15af7-e3a1-4de5-91b4-8a99b247bb3c","ios":"levelo://app?vid=e7c15af7-e3a1-4de5-91b4-8a99b247bb3c"},"vehicle_type_id":"4","last_reported":1727295017,"current_range_meters":21600,"station_id":"ce4bhe12rcd13ifvqf30","pricing_plan_id":"cebpf4jnsgd1na2vs0mg"},{"bike_id":"5f6c79fc-4a32-4034-b731-a210b1c8c48d","system_id":"levelo_inurba_marseille","lat":43.3047,"lon":5.36608,"is_reserved":false,"is_disabled":false,"rental_uris":{"android":"levelo://app?vid=5f6c79fc-4a32-4034-b731-a210b1c8c48d","ios":"levelo://app?vid=5f6c79fc-4a32-4034-b731-a210b1c8c48d"},"vehicle_type_id":"4","last_reported":1727295017,"current_range_meters":10000,"station_id":"ce4bgrp2rcd13ifvqc9g","pricing_plan_id":"cebpf4jnsgd1na2vs0mg"},{"bike_id":"f9cb7584-63c2-4fdf-8dc4-cedac79188e6","system_id":"levelo_inurba_marseille","lat":43.29446,"lon":5.3974,"is_reserved":false,"is_disabled":false,"rental_uris":{"android":"levelo://app?vid=f9cb7584-63c2-4fdf-8dc4-cedac79188e6","ios":"levelo://app?vid=f9cb7584-63c2-4fdf-8dc4-cedac79188e6"},"vehicle_type_id":"4","last_reported":1727295017,"current_range_meters":12000,"station_id":"ce4bh3h2rcd13ifvqdo0","pricing_plan_id":"cebpf4jnsgd1na2vs0mg"},{"bike_id":"1a49d8b9-e802-456d-917f-5dfe7e271cf8","system_id":"levelo_inurba_marseille","lat":43.29264,"lon":5.38441,"is_reserved":false,"is_disabled":false,"rental_uris":{"android":"levelo://app?vid=1a49d8b9-e802-456d-917f-5dfe7e271cf8","ios":"levelo://app?vid=1a49d8b9-e802-456d-917f-5dfe7e271cf8"},"vehicle_type_id":"4","last_reported":1727295017,"current_range_meters":36000,"station_id":"ce4bh692rcd13ifvqea0","pricing_plan_id":"cebpf4jnsgd1na2vs0mg"},{"bike_id":"31e98edc-b00e-4069-b9ac-5896b686e221","system_id":"levelo_inurba_marseille","lat":43.28613,"lon":5.35107,"is_reserved":false,"is_disabled":false,"rental_uris":{"android":"levelo://app?vid=31e98edc-b00e-4069-b9ac-5896b686e221","ios":"levelo://app?vid=31e98edc-b00e-4069-b9ac-5896b686e221"},"vehicle_type_id":"4","last_reported":1727295017,"current_range_meters":26800,"station_id":"ce4bhch2rcd13ifvqeug","pricing_plan_id":"cebpf4jnsgd1na2vs0mg"},{"bike_id":"bdb8f298-923c-497d-ad70-d80578103877","system_id":"levelo_inurba_marseille","lat":43.279716,"lon":5.387272,"is_reserved":false,"is_disabled":false,"rental_uris":{"android":"levelo://app?vid=bdb8f298-923c-497d-ad70-d80578103877","ios":"levelo://app?vid=bdb8f298-923c-497d-ad70-d80578103877"},"vehicle_type_id":"4","last_reported":1727295017,"current_range_meters":38000,"station_id":"ce4bhg12rcd13ifvqf80","pricing_plan_id":"cebpf4jnsgd1na2vs0mg"},{"bike_id":"3dbd4749-a24c-43cd-9def-67297f866862","system_id":"levelo_inurba_marseille","lat":43.32366,"lon":5.38878,"is_reserved":false,"is_disabled":false,"rental_uris":{"android":"levelo://app?vid=3dbd4749-a24c-43cd-9def-67297f866862","ios":"levelo://app?vid=3dbd4749-a24c-43cd-9def-67297f866862"},"vehicle_type_id":"4","last_reported":1727295017,"current_range_meters":14000,"station_id":"ce4bhqp2rcd13ifvqhog","pricing_plan_id":"cebpf4jnsgd1na2vs0mg"},{"bike_id":"18a052cd-2557-4072-ba19-24c6149d8795","system_id":"levelo_inurba_marseille","lat":43.32481,"lon":5.36561,"is_reserved":false,"is_disabled":false,"rental_uris":{"android":"levelo://app?vid=18a052cd-2557-4072-ba19-24c6149d8795","ios":"levelo://app?vid=18a052cd-2557-4072-ba19-24c6149d8795"},"vehicle_type_id":"4","last_reported":1727295017,"current_range_meters":32800,"station_id":"ce4bhs12rcd13ifvqhvg","pricing_plan_id":"cebpf4jnsgd1na2vs0mg"},{"bike_id":"b89f3c75-62ef-439a-891a-3e5717a4b61a","system_id":"levelo_inurba_marseille","lat":43.27944,"lon":5.37952,"is_reserved":false,"is_disabled":false,"rental_uris":{"android":"levelo://app?vid=b89f3c75-62ef-439a-891a-3e5717a4b61a","ios":"levelo://app?vid=b89f3c75-62ef-439a-891a-3e5717a4b61a"},"vehicle_type_id":"4","last_reported":1727295017,"current_range_meters":26000,"station_id":"","pricing_plan_id":"cebpf4jnsgd1na2vs0mg"},{"bike_id":"7823eef2-38a6-4e33-823d-6328e877baad","system_id":"levelo_inurba_marseille","lat":43.30326,"lon":5.40439,"is_reserved":false,"is_disabled":false,"rental_uris":{"android":"levelo://app?vid=7823eef2-38a6-4e33-823d-6328e877baad","ios":"levelo://app?vid=7823eef2-38a6-4e33-823d-6328e877baad"},"vehicle_type_id":"4","last_reported":1727295017,"current_range_meters":8400,"station_id":"ce4bh012rcd13ifvqd10","pricing_plan_id":"cebpf4jnsgd1na2vs0mg"},{"bike_id":"e298d003-1456-4a5e-823d-55caf6e3f2a5","system_id":"levelo_inurba_marseille","lat":43.28661,"lon":5.36351,"is_reserved":false,"is_disabled":false,"rental_uris":{"android":"levelo://app?vid=e298d003-1456-4a5e-823d-55caf6e3f2a5","ios":"levelo://app?vid=e298d003-1456-4a5e-823d-55caf6e3f2a5"},"vehicle_type_id":"4","last_reported":1727295017,"current_range_meters":38000,"station_id":"ce4bhah2rcd13ifvqej0","pricing_plan_id":"cebpf4jnsgd1na2vs0mg"},{"bike_id":"fafd56ad-9f23-4d7b-a83d-bf9f04416663","system_id":"levelo_inurba_marseille","lat":43.30542,"lon":5.366956,"is_reserved":false,"is_disabled":false,"rental_uris":{"android":"levelo://app?vid=fafd56ad-9f23-4d7b-a83d-bf9f04416663","ios":"levelo://app?vid=fafd56ad-9f23-4d7b-a83d-bf9f04416663"},"vehicle_type_id":"4","last_reported":1727295017,"current_range_meters":36800,"station_id":"ce4bgrp2rcd13ifvqc9g","pricing_plan_id":"cebpf4jnsgd1na2vs0mg"},{"bike_id":"d40ffa9b-2514-4599-8a22-bc964e379f2e","system_id":"levelo_inurba_marseille","lat":43.29929,"lon":5.36552,"is_reserved":false,"is_disabled":false,"rental_uris":{"android":"levelo://app?vid=d40ffa9b-2514-4599-8a22-bc964e379f2e","ios":"levelo://app?vid=d40ffa9b-2514-4599-8a22-bc964e379f2e"},"vehicle_type_id":"4","last_reported":1727295017,"current_range_meters":2000,"station_id":"ce4bgm92rcd13ifvqbr0","pricing_plan_id":"cebpf4jnsgd1na2vs0mg"},{"bike_id":"e7538fd8-10d9-40e4-aff9-8eb2f36b73c6","system_id":"levelo_inurba_marseille","lat":43.3248,"lon":5.36568,"is_reserved":false,"is_disabled":false,"rental_uris":{"android":"levelo://app?vid=e7538fd8-10d9-40e4-aff9-8eb2f36b73c6","ios":"levelo://app?vid=e7538fd8-10d9-40e4-aff9-8eb2f36b73c6"},"vehicle_type_id":"4","last_reported":1727295017,"current_range_meters":31200,"station_id":"ce4bhs12rcd13ifvqhvg","pricing_plan_id":"cebpf4jnsgd1na2vs0mg"},{"bike_id":"73a3ce1a-4081-46c0-bd05-2394f4c5b5d9","system_id":"levelo_inurba_marseille","lat":43.30879,"lon":5.39646,"is_reserved":false,"is_disabled":false,"rental_uris":{"android":"levelo://app?vid=73a3ce1a-4081-46c0-bd05-2394f4c5b5d9","ios":"levelo://app?vid=73a3ce1a-4081-46c0-bd05-2394f4c5b5d9"},"vehicle_type_id":"4","last_reported":1727295017,"current_range_meters":38400,"station_id":"ce4bh012rcd13ifvqcv0","pricing_plan_id":"cebpf4jnsgd1na2vs0mg"},{"bike_id":"ff2f4b55-b80f-45bb-8f2a-174dcea7dc1d","system_id":"levelo_inurba_marseille","lat":43.23959,"lon":5.36629,"is_reserved":false,"is_disabled":false,"rental_uris":{"android":"levelo://app?vid=ff2f4b55-b80f-45bb-8f2a-174dcea7dc1d","ios":"levelo://app?vid=ff2f4b55-b80f-45bb-8f2a-174dcea7dc1d"},"vehicle_type_id":"4","last_reported":1727295017,"current_range_meters":38800,"station_id":"ce4bhi12rcd13ifvqfp0","pricing_plan_id":"cebpf4jnsgd1na2vs0mg"},{"bike_id":"57970dc6-2fc2-4a4a-ad6f-bca0af7bf8ec","system_id":"levelo_inurba_marseille","lat":43.24674,"lon":5.38165,"is_reserved":false,"is_disabled":false,"rental_uris":{"android":"levelo://app?vid=57970dc6-2fc2-4a4a-ad6f-bca0af7bf8ec","ios":"levelo://app?vid=57970dc6-2fc2-4a4a-ad6f-bca0af7bf8ec"},"vehicle_type_id":"4","last_reported":1727295017,"current_range_meters":9200,"station_id":"ce4bhih2rcd13ifvqfr0","pricing_plan_id":"cebpf4jnsgd1na2vs0mg"},{"bike_id":"6dd7a628-1809-4a0a-8970-b097202fbafd","system_id":"levelo_inurba_marseille","lat":43.30642,"lon":5.4009,"is_reserved":false,"is_disabled":false,"rental_uris":{"android":"levelo://app?vid=6dd7a628-1809-4a0a-8970-b097202fbafd","ios":"levelo://app?vid=6dd7a628-1809-4a0a-8970-b097202fbafd"},"vehicle_type_id":"4","last_reported":1727295017,"current_range_meters":28000,"station_id":"ce4bh112rcd13ifvqda0","pricing_plan_id":"cebpf4jnsgd1na2vs0mg"},{"bike_id":"543a6333-963b-4fe5-a6b7-5b8405ccdc19","system_id":"levelo_inurba_marseille","lat":43.29272,"lon":5.36843,"is_reserved":false,"is_disabled":false,"rental_uris":{"android":"levelo://app?vid=543a6333-963b-4fe5-a6b7-5b8405ccdc19","ios":"levelo://app?vid=543a6333-963b-4fe5-a6b7-5b8405ccdc19"},"vehicle_type_id":"4","last_reported":1727295017,"current_range_meters":28800,"station_id":"ce4bhbp2rcd13ifvqesg","pricing_plan_id":"cebpf4jnsgd1na2vs0mg"},{"bike_id":"88a5c6eb-3c78-499b-b132-594fb6a10d64","system_id":"levelo_inurba_marseille","lat":43.24388,"lon":5.37056,"is_reserved":false,"is_disabled":false,"rental_uris":{"android":"levelo://app?vid=88a5c6eb-3c78-499b-b132-594fb6a10d64","ios":"levelo://app?vid=88a5c6eb-3c78-499b-b132-594fb6a10d64"},"vehicle_type_id":"4","last_reported":1727295017,"current_range_meters":38800,"station_id":"ce4bhhh2rcd13ifvqfk0","pricing_plan_id":"cebpf4jnsgd1na2vs0mg"},{"bike_id":"8f7337c9-a5b8-40bb-bd09-46f955380f7f","system_id":"levelo_inurba_marseille","lat":43.30799,"lon":5.43524,"is_reserved":false,"is_disabled":false,"rental_uris":{"android":"levelo://app?vid=8f7337c9-a5b8-40bb-bd09-46f955380f7f","ios":"levelo://app?vid=8f7337c9-a5b8-40bb-bd09-46f955380f7f"},"vehicle_type_id":"4","last_reported":1727295017,"current_range_meters":38800,"station_id":"ce4bhph2rcd13ifvqheg","pricing_plan_id":"cebpf4jnsgd1na2vs0mg"},{"bike_id":"c3be56fd-94af-4761-9c42-4ce060421866","system_id":"levelo_inurba_marseille","lat":43.27843,"lon":5.3921,"is_reserved":false,"is_disabled":false,"rental_uris":{"android":"levelo://app?vid=c3be56fd-94af-4761-9c42-4ce060421866","ios":"levelo://app?vid=c3be56fd-94af-4761-9c42-4ce060421866"},"vehicle_type_id":"4","last_reported":1727295017,"current_range_meters":12000,"station_id":"ce4bhjp2rcd13ifvqga0","pricing_plan_id":"cebpf4jnsgd1na2vs0mg"},{"bike_id":"0bfb858d-fafa-4c90-90c8-f301c779e9f2","system_id":"levelo_inurba_marseille","lat":43.28711,"lon":5.37946,"is_reserved":false,"is_disabled":false,"rental_uris":{"android":"levelo://app?vid=0bfb858d-fafa-4c90-90c8-f301c779e9f2","ios":"levelo://app?vid=0bfb858d-fafa-4c90-90c8-f301c779e9f2"},"vehicle_type_id":"4","last_reported":1727295017,"current_range_meters":19600,"station_id":"ce4bh9p2rcd13ifvqec0","pricing_plan_id":"cebpf4jnsgd1na2vs0mg"},{"bike_id":"164c5150-fd82-49d7-aff9-b769aa561f0f","system_id":"levelo_inurba_marseille","lat":43.31993,"lon":5.3815,"is_reserved":false,"is_disabled":false,"rental_uris":{"android":"levelo://app?vid=164c5150-fd82-49d7-aff9-b769aa561f0f","ios":"levelo://app?vid=164c5150-fd82-49d7-aff9-b769aa561f0f"},"vehicle_type_id":"4","last_reported":1727295017,"current_range_meters":29600,"station_id":"ce4bhr12rcd13ifvqhpg","pricing_plan_id":"cebpf4jnsgd1na2vs0mg"},{"bike_id":"666cfbb3-1b46-4df5-a347-94d4c62ca70f","system_id":"levelo_inurba_marseille","lat":43.24073,"lon":5.37756,"is_reserved":false,"is_disabled":false,"rental_uris":{"android":"levelo://app?vid=666cfbb3-1b46-4df5-a347-94d4c62ca70f","ios":"levelo://app?vid=666cfbb3-1b46-4df5-a347-94d4c62ca70f"},"vehicle_type_id":"4","last_reported":1727295017,"current_range_meters":9200,"station_id":"ce4bhnp2rcd13ifvqgvg","pricing_plan_id":"cebpf4jnsgd1na2vs0mg"},{"bike_id":"60a18540-ec4a-4730-8a79-f8b6f53ea115","system_id":"levelo_inurba_marseille","lat":43.31195,"lon":5.36836,"is_reserved":false,"is_disabled":false,"rental_uris":{"android":"levelo://app?vid=60a18540-ec4a-4730-8a79-f8b6f53ea115","ios":"levelo://app?vid=60a18540-ec4a-4730-8a79-f8b6f53ea115"},"vehicle_type_id":"4","last_reported":1727295017,"current_range_meters":38800,"station_id":"ce4bgl92rcd13ifvqbq0","pricing_plan_id":"cebpf4jnsgd1na2vs0mg"},{"bike_id":"8514ae4b-4d3f-4daa-a0b1-f5b56568621f","system_id":"levelo_inurba_marseille","lat":43.27369,"lon":5.3626,"is_reserved":false,"is_disabled":false,"rental_uris":{"android":"levelo://app?vid=8514ae4b-4d3f-4daa-a0b1-f5b56568621f","ios":"levelo://app?vid=8514ae4b-4d3f-4daa-a0b1-f5b56568621f"},"vehicle_type_id":"4","last_reported":1727295017,"current_range_meters":8800,"station_id":"ce4bhbh2rcd13ifvqeo0","pricing_plan_id":"cebpf4jnsgd1na2vs0mg"},{"bike_id":"5ece6534-697d-4101-8fbb-94c5df553a2d","system_id":"levelo_inurba_marseille","lat":43.24079,"lon":5.37758,"is_reserved":false,"is_disabled":false,"rental_uris":{"android":"levelo://app?vid=5ece6534-697d-4101-8fbb-94c5df553a2d","ios":"levelo://app?vid=5ece6534-697d-4101-8fbb-94c5df553a2d"},"vehicle_type_id":"4","last_reported":1727295017,"current_range_meters":36800,"station_id":"ce4bhnp2rcd13ifvqgvg","pricing_plan_id":"cebpf4jnsgd1na2vs0mg"},{"bike_id":"eced786f-34cd-4487-bfef-355bf03f14a6","system_id":"levelo_inurba_marseille","lat":43.29261,"lon":5.3845,"is_reserved":false,"is_disabled":false,"rental_uris":{"android":"levelo://app?vid=eced786f-34cd-4487-bfef-355bf03f14a6","ios":"levelo://app?vid=eced786f-34cd-4487-bfef-355bf03f14a6"},"vehicle_type_id":"4","last_reported":1727295017,"current_range_meters":38000,"station_id":"ce4bh692rcd13ifvqea0","pricing_plan_id":"cebpf4jnsgd1na2vs0mg"},{"bike_id":"a7bca3df-0344-4204-86d7-b742d4769839","system_id":"levelo_inurba_marseille","lat":43.30863,"lon":5.3685,"is_reserved":false,"is_disabled":false,"rental_uris":{"android":"levelo://app?vid=a7bca3df-0344-4204-86d7-b742d4769839","ios":"levelo://app?vid=a7bca3df-0344-4204-86d7-b742d4769839"},"vehicle_type_id":"4","last_reported":1727295017,"current_range_meters":27200,"station_id":"ce4bgn92rcd13ifvqbvg","pricing_plan_id":"cebpf4jnsgd1na2vs0mg"},{"bike_id":"95ac2f31-14c0-4d4a-9ad7-33c2aa1a759f","system_id":"levelo_inurba_marseille","lat":43.31167,"lon":5.38709,"is_reserved":false,"is_disabled":false,"rental_uris":{"android":"levelo://app?vid=95ac2f31-14c0-4d4a-9ad7-33c2aa1a759f","ios":"levelo://app?vid=95ac2f31-14c0-4d4a-9ad7-33c2aa1a759f"},"vehicle_type_id":"4","last_reported":1727295017,"current_range_meters":32400,"station_id":"ce4bgv12rcd13ifvqcp0","pricing_plan_id":"cebpf4jnsgd1na2vs0mg"},{"bike_id":"3394fef9-fad8-4da2-93e1-4a1dd14c1cf5","system_id":"levelo_inurba_marseille","lat":43.2396,"lon":5.36637,"is_reserved":false,"is_disabled":false,"rental_uris":{"android":"levelo://app?vid=3394fef9-fad8-4da2-93e1-4a1dd14c1cf5","ios":"levelo://app?vid=3394fef9-fad8-4da2-93e1-4a1dd14c1cf5"},"vehicle_type_id":"4","last_reported":1727295017,"current_range_meters":26800,"station_id":"ce4bhi12rcd13ifvqfp0","pricing_plan_id":"cebpf4jnsgd1na2vs0mg"},{"bike_id":"0ba19d1e-f9de-4bd6-8315-89e620ffead5","system_id":"levelo_inurba_marseille","lat":43.29792,"lon":5.39348,"is_reserved":false,"is_disabled":false,"rental_uris":{"android":"levelo://app?vid=0ba19d1e-f9de-4bd6-8315-89e620ffead5","ios":"levelo://app?vid=0ba19d1e-f9de-4bd6-8315-89e620ffead5"},"vehicle_type_id":"4","last_reported":1727295017,"current_range_meters":28400,"station_id":"chh1huq6cuj3fo74tm60","pricing_plan_id":"cebpf4jnsgd1na2vs0mg"},{"bike_id":"56ca75c2-5c0f-4acc-b3e2-06166fc0ab3c","system_id":"levelo_inurba_marseille","lat":43.29285,"lon":5.36844,"is_reserved":false,"is_disabled":false,"rental_uris":{"android":"levelo://app?vid=56ca75c2-5c0f-4acc-b3e2-06166fc0ab3c","ios":"levelo://app?vid=56ca75c2-5c0f-4acc-b3e2-06166fc0ab3c"},"vehicle_type_id":"4","last_reported":1727295017,"current_range_meters":22000,"station_id":"ce4bhbp2rcd13ifvqesg","pricing_plan_id":"cebpf4jnsgd1na2vs0mg"},{"bike_id":"7827170f-fe53-4f76-acc5-1f9d10e67145","system_id":"levelo_inurba_marseille","lat":43.2293,"lon":5.35375,"is_reserved":false,"is_disabled":false,"rental_uris":{"android":"levelo://app?vid=7827170f-fe53-4f76-acc5-1f9d10e67145","ios":"levelo://app?vid=7827170f-fe53-4f76-acc5-1f9d10e67145"},"vehicle_type_id":"4","last_reported":1727295017,"current_range_meters":36800,"station_id":"cpo3532slgdg3j2ikp40","pricing_plan_id":"cebpf4jnsgd1na2vs0mg"},{"bike_id":"2dfddc36-7904-464e-872c-8f7ba9c1db5c","system_id":"levelo_inurba_marseille","lat":43.29421,"lon":5.38631,"is_reserved":false,"is_disabled":false,"rental_uris":{"android":"levelo://app?vid=2dfddc36-7904-464e-872c-8f7ba9c1db5c","ios":"levelo://app?vid=2dfddc36-7904-464e-872c-8f7ba9c1db5c"},"vehicle_type_id":"4","last_reported":1727295017,"current_range_meters":38800,"station_id":"ce4bh2h2rcd13ifvqdh0","pricing_plan_id":"cebpf4jnsgd1na2vs0mg"},{"bike_id":"62ba8c3c-d347-4a23-a0fd-9a372ba1145f","system_id":"levelo_inurba_marseille","lat":43.28349,"lon":5.3811,"is_reserved":false,"is_disabled":false,"rental_uris":{"android":"levelo://app?vid=62ba8c3c-d347-4a23-a0fd-9a372ba1145f","ios":"levelo://app?vid=62ba8c3c-d347-4a23-a0fd-9a372ba1145f"},"vehicle_type_id":"4","last_reported":1727295017,"current_range_meters":21600,"station_id":"ce4bh412rcd13ifvqdr0","pricing_plan_id":"cebpf4jnsgd1na2vs0mg"},{"bike_id":"9c6ab1ea-fc1c-43c3-a178-21b31104fc9e","system_id":"levelo_inurba_marseille","lat":43.29267,"lon":5.38442,"is_reserved":false,"is_disabled":false,"rental_uris":{"android":"levelo://app?vid=9c6ab1ea-fc1c-43c3-a178-21b31104fc9e","ios":"levelo://app?vid=9c6ab1ea-fc1c-43c3-a178-21b31104fc9e"},"vehicle_type_id":"4","last_reported":1727295017,"current_range_meters":21600,"station_id":"ce4bh692rcd13ifvqea0","pricing_plan_id":"cebpf4jnsgd1na2vs0mg"},{"bike_id":"419bb6d9-bb03-454a-b123-d730bb1a392c","system_id":"levelo_inurba_marseille","lat":43.29519,"lon":5.39406,"is_reserved":false,"is_disabled":false,"rental_uris":{"android":"levelo://app?vid=419bb6d9-bb03-454a-b123-d730bb1a392c","ios":"levelo://app?vid=419bb6d9-bb03-454a-b123-d730bb1a392c"},"vehicle_type_id":"4","last_reported":1727295017,"current_range_meters":14000,"station_id":"ce4bh292rcd13ifvqdf0","pricing_plan_id":"cebpf4jnsgd1na2vs0mg"},{"bike_id":"4a4bfd88-bdfc-4802-b3a8-e798e4274727","system_id":"levelo_inurba_marseille","lat":43.32294,"lon":5.38272,"is_reserved":false,"is_disabled":false,"rental_uris":{"android":"levelo://app?vid=4a4bfd88-bdfc-4802-b3a8-e798e4274727","ios":"levelo://app?vid=4a4bfd88-bdfc-4802-b3a8-e798e4274727"},"vehicle_type_id":"4","last_reported":1727295017,"current_range_meters":27200,"station_id":"ce4bhr12rcd13ifvqhqg","pricing_plan_id":"cebpf4jnsgd1na2vs0mg"},{"bike_id":"bd55e6da-73a1-41e6-a835-af1f9ba87efd","system_id":"levelo_inurba_marseille","lat":43.301,"lon":5.39081,"is_reserved":false,"is_disabled":false,"rental_uris":{"android":"levelo://app?vid=bd55e6da-73a1-41e6-a835-af1f9ba87efd","ios":"levelo://app?vid=bd55e6da-73a1-41e6-a835-af1f9ba87efd"},"vehicle_type_id":"4","last_reported":1727295017,"current_range_meters":38400,"station_id":"ce4bh192rcd13ifvqdb0","pricing_plan_id":"cebpf4jnsgd1na2vs0mg"},{"bike_id":"8d40d6ca-39f4-4055-affb-f0768ae2852f","system_id":"levelo_inurba_marseille","lat":43.268158,"lon":5.393666,"is_reserved":false,"is_disabled":false,"rental_uris":{"android":"levelo://app?vid=8d40d6ca-39f4-4055-affb-f0768ae2852f","ios":"levelo://app?vid=8d40d6ca-39f4-4055-affb-f0768ae2852f"},"vehicle_type_id":"4","last_reported":1727295017,"current_range_meters":30400,"station_id":"ce4bhh12rcd13ifvqfg0","pricing_plan_id":"cebpf4jnsgd1na2vs0mg"},{"bike_id":"de8ff9a9-709a-4424-83ed-039925aabde2","system_id":"levelo_inurba_marseille","lat":43.24071,"lon":5.37763,"is_reserved":false,"is_disabled":false,"rental_uris":{"android":"levelo://app?vid=de8ff9a9-709a-4424-83ed-039925aabde2","ios":"levelo://app?vid=de8ff9a9-709a-4424-83ed-039925aabde2"},"vehicle_type_id":"4","last_reported":1727295017,"current_range_meters":16400,"station_id":"ce4bhnp2rcd13ifvqgvg","pricing_plan_id":"cebpf4jnsgd1na2vs0mg"},{"bike_id":"4660de8f-6b1d-4ec7-86e9-b37d4a58ce76","system_id":"levelo_inurba_marseille","lat":43.32293,"lon":5.38269,"is_reserved":false,"is_disabled":false,"rental_uris":{"android":"levelo://app?vid=4660de8f-6b1d-4ec7-86e9-b37d4a58ce76","ios":"levelo://app?vid=4660de8f-6b1d-4ec7-86e9-b37d4a58ce76"},"vehicle_type_id":"4","last_reported":1727295017,"current_range_meters":36400,"station_id":"ce4bhr12rcd13ifvqhqg","pricing_plan_id":"cebpf4jnsgd1na2vs0mg"},{"bike_id":"883c07b5-0a75-489d-906d-16f5b0d514a5","system_id":"levelo_inurba_marseille","lat":43.28078,"lon":5.39662,"is_reserved":false,"is_disabled":false,"rental_uris":{"android":"levelo://app?vid=883c07b5-0a75-489d-906d-16f5b0d514a5","ios":"levelo://app?vid=883c07b5-0a75-489d-906d-16f5b0d514a5"},"vehicle_type_id":"4","last_reported":1727295017,"current_range_meters":18000,"station_id":"ce4bho12rcd13ifvqh2g","pricing_plan_id":"cebpf4jnsgd1na2vs0mg"},{"bike_id":"0eabb683-9d75-4b0a-bd74-7995084ee68f","system_id":"levelo_inurba_marseille","lat":43.31492,"lon":5.37305,"is_reserved":false,"is_disabled":false,"rental_uris":{"android":"levelo://app?vid=0eabb683-9d75-4b0a-bd74-7995084ee68f","ios":"levelo://app?vid=0eabb683-9d75-4b0a-bd74-7995084ee68f"},"vehicle_type_id":"4","last_reported":1727295017,"current_range_meters":11600,"station_id":"ce4bgt12rcd13ifvqcd0","pricing_plan_id":"cebpf4jnsgd1na2vs0mg"},{"bike_id":"c840a2b5-bd20-4075-825c-f410a7996208","system_id":"levelo_inurba_marseille","lat":43.28994,"lon":5.37828,"is_reserved":false,"is_disabled":false,"rental_uris":{"android":"levelo://app?vid=c840a2b5-bd20-4075-825c-f410a7996208","ios":"levelo://app?vid=c840a2b5-bd20-4075-825c-f410a7996208"},"vehicle_type_id":"4","last_reported":1727295017,"current_range_meters":20000,"station_id":"ce4bh9p2rcd13ifvqed0","pricing_plan_id":"cebpf4jnsgd1na2vs0mg"},{"bike_id":"4fc0ef81-a692-4f7c-9d38-77b16cc04b2c","system_id":"levelo_inurba_marseille","lat":43.3176,"lon":5.3901,"is_reserved":false,"is_disabled":false,"rental_uris":{"android":"levelo://app?vid=4fc0ef81-a692-4f7c-9d38-77b16cc04b2c","ios":"levelo://app?vid=4fc0ef81-a692-4f7c-9d38-77b16cc04b2c"},"vehicle_type_id":"4","last_reported":1727295017,"current_range_meters":36000,"station_id":"ce4bhqp2rcd13ifvqhng","pricing_plan_id":"cebpf4jnsgd1na2vs0mg"},{"bike_id":"6d32ef58-74d1-400f-80b3-2e537483836d","system_id":"levelo_inurba_marseille","lat":43.29573,"lon":5.39977,"is_reserved":false,"is_disabled":false,"rental_uris":{"android":"levelo://app?vid=6d32ef58-74d1-400f-80b3-2e537483836d","ios":"levelo://app?vid=6d32ef58-74d1-400f-80b3-2e537483836d"},"vehicle_type_id":"4","last_reported":1727295017,"current_range_meters":7200,"station_id":"ce4bh312rcd13ifvqdj0","pricing_plan_id":"cebpf4jnsgd1na2vs0mg"},{"bike_id":"98e022d5-04ba-4478-afd9-31e626239962","system_id":"levelo_inurba_marseille","lat":43.31119,"lon":5.3776,"is_reserved":false,"is_disabled":false,"rental_uris":{"android":"levelo://app?vid=98e022d5-04ba-4478-afd9-31e626239962","ios":"levelo://app?vid=98e022d5-04ba-4478-afd9-31e626239962"},"vehicle_type_id":"4","last_reported":1727295017,"current_range_meters":18000,"station_id":"ce4bgt92rcd13ifvqcg0","pricing_plan_id":"cebpf4jnsgd1na2vs0mg"},{"bike_id":"eda8bcde-5e1d-4538-802b-7a2e14d9f52d","system_id":"levelo_inurba_marseille","lat":43.22928,"lon":5.35374,"is_reserved":false,"is_disabled":false,"rental_uris":{"android":"levelo://app?vid=eda8bcde-5e1d-4538-802b-7a2e14d9f52d","ios":"levelo://app?vid=eda8bcde-5e1d-4538-802b-7a2e14d9f52d"},"vehicle_type_id":"4","last_reported":1727295017,"current_range_meters":25200,"station_id":"cpo3532slgdg3j2ikp40","pricing_plan_id":"cebpf4jnsgd1na2vs0mg"},{"bike_id":"51f4d75c-79c5-47e9-8fcd-05825786ca23","system_id":"levelo_inurba_marseille","lat":43.23182,"lon":5.39984,"is_reserved":false,"is_disabled":false,"rental_uris":{"android":"levelo://app?vid=51f4d75c-79c5-47e9-8fcd-05825786ca23","ios":"levelo://app?vid=51f4d75c-79c5-47e9-8fcd-05825786ca23"},"vehicle_type_id":"4","last_reported":1727295017,"current_range_meters":39200,"station_id":"ce4bhn12rcd13ifvqgqg","pricing_plan_id":"cebpf4jnsgd1na2vs0mg"},{"bike_id":"0701c551-2423-46e6-bb36-1fbd2e19330c","system_id":"levelo_inurba_marseille","lat":43.29105,"lon":5.38154,"is_reserved":false,"is_disabled":false,"rental_uris":{"android":"levelo://app?vid=0701c551-2423-46e6-bb36-1fbd2e19330c","ios":"levelo://app?vid=0701c551-2423-46e6-bb36-1fbd2e19330c"},"vehicle_type_id":"4","last_reported":1727295017,"current_range_meters":34800,"station_id":"ce4bh512rcd13ifvqe2g","pricing_plan_id":"cebpf4jnsgd1na2vs0mg"},{"bike_id":"07f7ebdc-2f7f-4baf-b240-b59bbbaa4305","system_id":"levelo_inurba_marseille","lat":43.28037,"lon":5.36957,"is_reserved":false,"is_disabled":false,"rental_uris":{"android":"levelo://app?vid=07f7ebdc-2f7f-4baf-b240-b59bbbaa4305","ios":"levelo://app?vid=07f7ebdc-2f7f-4baf-b240-b59bbbaa4305"},"vehicle_type_id":"4","last_reported":1727295017,"current_range_meters":38800,"station_id":"ce4bha12rcd13ifvqef0","pricing_plan_id":"cebpf4jnsgd1na2vs0mg"},{"bike_id":"66565cfb-9752-4bf3-a99a-a88dda6e7efc","system_id":"levelo_inurba_marseille","lat":43.305176,"lon":5.391225,"is_reserved":false,"is_disabled":false,"rental_uris":{"android":"levelo://app?vid=66565cfb-9752-4bf3-a99a-a88dda6e7efc","ios":"levelo://app?vid=66565cfb-9752-4bf3-a99a-a88dda6e7efc"},"vehicle_type_id":"4","last_reported":1727295017,"current_range_meters":36800,"station_id":"ce4bh0h2rcd13ifvqd60","pricing_plan_id":"cebpf4jnsgd1na2vs0mg"},{"bike_id":"78792c13-6c92-4734-9766-e58c148f9e63","system_id":"levelo_inurba_marseille","lat":43.23966,"lon":5.36632,"is_reserved":false,"is_disabled":false,"rental_uris":{"android":"levelo://app?vid=78792c13-6c92-4734-9766-e58c148f9e63","ios":"levelo://app?vid=78792c13-6c92-4734-9766-e58c148f9e63"},"vehicle_type_id":"4","last_reported":1727295017,"current_range_meters":16400,"station_id":"ce4bhi12rcd13ifvqfp0","pricing_plan_id":"cebpf4jnsgd1na2vs0mg"},{"bike_id":"5e3bfa38-a5e1-486d-84a3-9aff49239e01","system_id":"levelo_inurba_marseille","lat":43.29419,"lon":5.38636,"is_reserved":false,"is_disabled":false,"rental_uris":{"android":"levelo://app?vid=5e3bfa38-a5e1-486d-84a3-9aff49239e01","ios":"levelo://app?vid=5e3bfa38-a5e1-486d-84a3-9aff49239e01"},"vehicle_type_id":"4","last_reported":1727295017,"current_range_meters":24000,"station_id":"ce4bh2h2rcd13ifvqdh0","pricing_plan_id":"cebpf4jnsgd1na2vs0mg"},{"bike_id":"b209fc30-2641-4f07-a24b-acc123f185bb","system_id":"levelo_inurba_marseille","lat":43.29708,"lon":5.36616,"is_reserved":false,"is_disabled":false,"rental_uris":{"android":"levelo://app?vid=b209fc30-2641-4f07-a24b-acc123f185bb","ios":"levelo://app?vid=b209fc30-2641-4f07-a24b-acc123f185bb"},"vehicle_type_id":"4","last_reported":1727295017,"current_range_meters":6400,"station_id":"ce4bgn12rcd13ifvqbt0","pricing_plan_id":"cebpf4jnsgd1na2vs0mg"},{"bike_id":"6131bda5-89c8-43cf-b08a-318f01c7cfc3","system_id":"levelo_inurba_marseille","lat":43.28931,"lon":5.384,"is_reserved":false,"is_disabled":false,"rental_uris":{"android":"levelo://app?vid=6131bda5-89c8-43cf-b08a-318f01c7cfc3","ios":"levelo://app?vid=6131bda5-89c8-43cf-b08a-318f01c7cfc3"},"vehicle_type_id":"4","last_reported":1727295017,"current_range_meters":8800,"station_id":"ce4bh612rcd13ifvqe6g","pricing_plan_id":"cebpf4jnsgd1na2vs0mg"},{"bike_id":"544a8d06-079f-4845-a140-952e96616f81","system_id":"levelo_inurba_marseille","lat":43.308055,"lon":5.38154,"is_reserved":false,"is_disabled":false,"rental_uris":{"android":"levelo://app?vid=544a8d06-079f-4845-a140-952e96616f81","ios":"levelo://app?vid=544a8d06-079f-4845-a140-952e96616f81"},"vehicle_type_id":"4","last_reported":1727295017,"current_range_meters":6800,"station_id":"ce4bgt12rcd13ifvqce0","pricing_plan_id":"cebpf4jnsgd1na2vs0mg"},{"bike_id":"6de022fc-6851-467a-8c07-3c458eaca8e2","system_id":"levelo_inurba_marseille","lat":43.23188,"lon":5.39989,"is_reserved":false,"is_disabled":false,"rental_uris":{"android":"levelo://app?vid=6de022fc-6851-467a-8c07-3c458eaca8e2","ios":"levelo://app?vid=6de022fc-6851-467a-8c07-3c458eaca8e2"},"vehicle_type_id":"4","last_reported":1727295017,"current_range_meters":9200,"station_id":"ce4bhn12rcd13ifvqgqg","pricing_plan_id":"cebpf4jnsgd1na2vs0mg"},{"bike_id":"1cafb7e2-bb2d-4cdd-850c-a35197648656","system_id":"levelo_inurba_marseille","lat":43.32286,"lon":5.38288,"is_reserved":false,"is_disabled":false,"rental_uris":{"android":"levelo://app?vid=1cafb7e2-bb2d-4cdd-850c-a35197648656","ios":"levelo://app?vid=1cafb7e2-bb2d-4cdd-850c-a35197648656"},"vehicle_type_id":"4","last_reported":1727295017,"current_range_meters":37600,"station_id":"ce4bhr12rcd13ifvqhqg","pricing_plan_id":"cebpf4jnsgd1na2vs0mg"},{"bike_id":"067a124e-6998-46ad-91fa-c2d33bec2ab3","system_id":"levelo_inurba_marseille","lat":43.30307,"lon":5.3922,"is_reserved":false,"is_disabled":false,"rental_uris":{"android":"levelo://app?vid=067a124e-6998-46ad-91fa-c2d33bec2ab3","ios":"levelo://app?vid=067a124e-6998-46ad-91fa-c2d33bec2ab3"},"vehicle_type_id":"4","last_reported":1727295017,"current_range_meters":38000,"station_id":"ce4bgkh2rcd13ifvqbk0","pricing_plan_id":"cebpf4jnsgd1na2vs0mg"},{"bike_id":"9253eedd-a897-4f58-84a8-00cfaa1021d4","system_id":"levelo_inurba_marseille","lat":43.28974,"lon":5.37839,"is_reserved":false,"is_disabled":false,"rental_uris":{"android":"levelo://app?vid=9253eedd-a897-4f58-84a8-00cfaa1021d4","ios":"levelo://app?vid=9253eedd-a897-4f58-84a8-00cfaa1021d4"},"vehicle_type_id":"4","last_reported":1727295017,"current_range_meters":12000,"station_id":"ce4bh9p2rcd13ifvqed0","pricing_plan_id":"cebpf4jnsgd1na2vs0mg"},{"bike_id":"ba69ec74-ad31-4a9b-a83d-624d446023e1","system_id":"levelo_inurba_marseille","lat":43.291632,"lon":5.371578,"is_reserved":false,"is_disabled":false,"rental_uris":{"android":"levelo://app?vid=ba69ec74-ad31-4a9b-a83d-624d446023e1","ios":"levelo://app?vid=ba69ec74-ad31-4a9b-a83d-624d446023e1"},"vehicle_type_id":"4","last_reported":1727295017,"current_range_meters":38000,"station_id":"ce4bha92rcd13ifvqeh0","pricing_plan_id":"cebpf4jnsgd1na2vs0mg"},{"bike_id":"c9bc9cb1-e9f4-418a-8cbe-ef8499ab2b4a","system_id":"levelo_inurba_marseille","lat":43.31992,"lon":5.38169,"is_reserved":false,"is_disabled":false,"rental_uris":{"android":"levelo://app?vid=c9bc9cb1-e9f4-418a-8cbe-ef8499ab2b4a","ios":"levelo://app?vid=c9bc9cb1-e9f4-418a-8cbe-ef8499ab2b4a"},"vehicle_type_id":"4","last_reported":1727295017,"current_range_meters":16400,"station_id":"ce4bhr12rcd13ifvqhpg","pricing_plan_id":"cebpf4jnsgd1na2vs0mg"},{"bike_id":"fc09ae45-1afc-4cd0-a841-ed2588645d04","system_id":"levelo_inurba_marseille","lat":43.27623,"lon":5.39472,"is_reserved":false,"is_disabled":false,"rental_uris":{"android":"levelo://app?vid=fc09ae45-1afc-4cd0-a841-ed2588645d04","ios":"levelo://app?vid=fc09ae45-1afc-4cd0-a841-ed2588645d04"},"vehicle_type_id":"4","last_reported":1727295017,"current_range_meters":29600,"station_id":"ce4bha92rcd13ifvqeg0","pricing_plan_id":"cebpf4jnsgd1na2vs0mg"},{"bike_id":"38bf0490-7118-4a85-b014-989b96e221e1","system_id":"levelo_inurba_marseille","lat":43.24069,"lon":5.37763,"is_reserved":false,"is_disabled":false,"rental_uris":{"android":"levelo://app?vid=38bf0490-7118-4a85-b014-989b96e221e1","ios":"levelo://app?vid=38bf0490-7118-4a85-b014-989b96e221e1"},"vehicle_type_id":"4","last_reported":1727295017,"current_range_meters":3200,"station_id":"ce4bhnp2rcd13ifvqgvg","pricing_plan_id":"cebpf4jnsgd1na2vs0mg"},{"bike_id":"df99573f-fc55-4e76-b178-5d7109f51b6b","system_id":"levelo_inurba_marseille","lat":43.25119,"lon":5.40317,"is_reserved":false,"is_disabled":false,"rental_uris":{"android":"levelo://app?vid=df99573f-fc55-4e76-b178-5d7109f51b6b","ios":"levelo://app?vid=df99573f-fc55-4e76-b178-5d7109f51b6b"},"vehicle_type_id":"4","last_reported":1727295017,"current_range_meters":22800,"station_id":"ce4bhlh2rcd13ifvqgig","pricing_plan_id":"cebpf4jnsgd1na2vs0mg"},{"bike_id":"d869325f-5cce-47d9-bab8-fc5ec923f94f","system_id":"levelo_inurba_marseille","lat":43.28674,"lon":5.38666,"is_reserved":false,"is_disabled":false,"rental_uris":{"android":"levelo://app?vid=d869325f-5cce-47d9-bab8-fc5ec923f94f","ios":"levelo://app?vid=d869325f-5cce-47d9-bab8-fc5ec923f94f"},"vehicle_type_id":"4","last_reported":1727295017,"current_range_meters":36800,"station_id":"ce4bh492rcd13ifvqdug","pricing_plan_id":"cebpf4jnsgd1na2vs0mg"},{"bike_id":"98324ce1-3333-424e-a6ca-f873c3f4f064","system_id":"levelo_inurba_marseille","lat":43.28656,"lon":5.3635,"is_reserved":false,"is_disabled":false,"rental_uris":{"android":"levelo://app?vid=98324ce1-3333-424e-a6ca-f873c3f4f064","ios":"levelo://app?vid=98324ce1-3333-424e-a6ca-f873c3f4f064"},"vehicle_type_id":"4","last_reported":1727295017,"current_range_meters":10800,"station_id":"ce4bhah2rcd13ifvqej0","pricing_plan_id":"cebpf4jnsgd1na2vs0mg"},{"bike_id":"5233b258-d8cc-4598-91f4-da1dcac32f51","system_id":"levelo_inurba_marseille","lat":43.30325,"lon":5.40442,"is_reserved":false,"is_disabled":false,"rental_uris":{"android":"levelo://app?vid=5233b258-d8cc-4598-91f4-da1dcac32f51","ios":"levelo://app?vid=5233b258-d8cc-4598-91f4-da1dcac32f51"},"vehicle_type_id":"4","last_reported":1727295017,"current_range_meters":20800,"station_id":"ce4bh012rcd13ifvqd10","pricing_plan_id":"cebpf4jnsgd1na2vs0mg"},{"bike_id":"99b1c289-f483-4167-87cc-04058221794b","system_id":"levelo_inurba_marseille","lat":43.27378,"lon":5.36256,"is_reserved":false,"is_disabled":false,"rental_uris":{"android":"levelo://app?vid=99b1c289-f483-4167-87cc-04058221794b","ios":"levelo://app?vid=99b1c289-f483-4167-87cc-04058221794b"},"vehicle_type_id":"4","last_reported":1727295017,"current_range_meters":38800,"station_id":"ce4bhbh2rcd13ifvqeo0","pricing_plan_id":"cebpf4jnsgd1na2vs0mg"},{"bike_id":"b0053d03-0b48-4f82-afb9-81e9e95a6ffc","system_id":"levelo_inurba_marseille","lat":43.324746,"lon":5.3658,"is_reserved":false,"is_disabled":false,"rental_uris":{"android":"levelo://app?vid=b0053d03-0b48-4f82-afb9-81e9e95a6ffc","ios":"levelo://app?vid=b0053d03-0b48-4f82-afb9-81e9e95a6ffc"},"vehicle_type_id":"4","last_reported":1727295017,"current_range_meters":38800,"station_id":"ce4bhs12rcd13ifvqhvg","pricing_plan_id":"cebpf4jnsgd1na2vs0mg"},{"bike_id":"3ab75d53-6a7e-4b6a-85bc-da7cb0348b8e","system_id":"levelo_inurba_marseille","lat":43.25124,"lon":5.4032,"is_reserved":false,"is_disabled":false,"rental_uris":{"android":"levelo://app?vid=3ab75d53-6a7e-4b6a-85bc-da7cb0348b8e","ios":"levelo://app?vid=3ab75d53-6a7e-4b6a-85bc-da7cb0348b8e"},"vehicle_type_id":"4","last_reported":1727295017,"current_range_meters":16400,"station_id":"ce4bhlh2rcd13ifvqgig","pricing_plan_id":"cebpf4jnsgd1na2vs0mg"},{"bike_id":"bfefb91a-3f4d-4b87-ab75-925a26fa2bac","system_id":"levelo_inurba_marseille","lat":43.29439,"lon":5.38638,"is_reserved":false,"is_disabled":false,"rental_uris":{"android":"levelo://app?vid=bfefb91a-3f4d-4b87-ab75-925a26fa2bac","ios":"levelo://app?vid=bfefb91a-3f4d-4b87-ab75-925a26fa2bac"},"vehicle_type_id":"4","last_reported":1727295017,"current_range_meters":25600,"station_id":"ce4bh2h2rcd13ifvqdh0","pricing_plan_id":"cebpf4jnsgd1na2vs0mg"},{"bike_id":"d6855356-e979-4a89-ac1d-2d77da8747fc","system_id":"levelo_inurba_marseille","lat":43.25822,"lon":5.39438,"is_reserved":false,"is_disabled":false,"rental_uris":{"android":"levelo://app?vid=d6855356-e979-4a89-ac1d-2d77da8747fc","ios":"levelo://app?vid=d6855356-e979-4a89-ac1d-2d77da8747fc"},"vehicle_type_id":"4","last_reported":1727295017,"current_range_meters":6400,"station_id":"ce4bhip2rcd13ifvqft0","pricing_plan_id":"cebpf4jnsgd1na2vs0mg"},{"bike_id":"d3a61b6a-71e8-4c6c-8c6c-30262b2b9bc2","system_id":"levelo_inurba_marseille","lat":43.337444,"lon":5.374475,"is_reserved":false,"is_disabled":false,"rental_uris":{"android":"levelo://app?vid=d3a61b6a-71e8-4c6c-8c6c-30262b2b9bc2","ios":"levelo://app?vid=d3a61b6a-71e8-4c6c-8c6c-30262b2b9bc2"},"vehicle_type_id":"4","last_reported":1727295017,"current_range_meters":34800,"station_id":"","pricing_plan_id":"cebpf4jnsgd1na2vs0mg"},{"bike_id":"a36a07ac-2d7d-4905-be4a-0f24203a2b1c","system_id":"levelo_inurba_marseille","lat":43.31889,"lon":5.40732,"is_reserved":false,"is_disabled":false,"rental_uris":{"android":"levelo://app?vid=a36a07ac-2d7d-4905-be4a-0f24203a2b1c","ios":"levelo://app?vid=a36a07ac-2d7d-4905-be4a-0f24203a2b1c"},"vehicle_type_id":"4","last_reported":1727295017,"current_range_meters":11200,"station_id":"ce4bhq12rcd13ifvqhig","pricing_plan_id":"cebpf4jnsgd1na2vs0mg"},{"bike_id":"b2fdafd7-66ba-415e-868d-2ba27bc18be5","system_id":"levelo_inurba_marseille","lat":43.31725,"lon":5.42402,"is_reserved":false,"is_disabled":false,"rental_uris":{"android":"levelo://app?vid=b2fdafd7-66ba-415e-868d-2ba27bc18be5","ios":"levelo://app?vid=b2fdafd7-66ba-415e-868d-2ba27bc18be5"},"vehicle_type_id":"4","last_reported":1727295017,"current_range_meters":38800,"station_id":"ce4bhp92rcd13ifvqhbg","pricing_plan_id":"cebpf4jnsgd1na2vs0mg"},{"bike_id":"0af01501-f8ee-4920-b4ab-5aee2dde7e05","system_id":"levelo_inurba_marseille","lat":43.29417,"lon":5.38628,"is_reserved":false,"is_disabled":false,"rental_uris":{"android":"levelo://app?vid=0af01501-f8ee-4920-b4ab-5aee2dde7e05","ios":"levelo://app?vid=0af01501-f8ee-4920-b4ab-5aee2dde7e05"},"vehicle_type_id":"4","last_reported":1727295017,"current_range_meters":38800,"station_id":"ce4bh2h2rcd13ifvqdh0","pricing_plan_id":"cebpf4jnsgd1na2vs0mg"},{"bike_id":"e35da3a0-9196-48b6-bd8b-52ad625750a1","system_id":"levelo_inurba_marseille","lat":43.31755,"lon":5.39016,"is_reserved":false,"is_disabled":false,"rental_uris":{"android":"levelo://app?vid=e35da3a0-9196-48b6-bd8b-52ad625750a1","ios":"levelo://app?vid=e35da3a0-9196-48b6-bd8b-52ad625750a1"},"vehicle_type_id":"4","last_reported":1727295017,"current_range_meters":18800,"station_id":"ce4bhqp2rcd13ifvqhng","pricing_plan_id":"cebpf4jnsgd1na2vs0mg"},{"bike_id":"7fd43d4b-47b2-4eab-98db-296da55874bb","system_id":"levelo_inurba_marseille","lat":43.31529,"lon":5.38031,"is_reserved":false,"is_disabled":false,"rental_uris":{"android":"levelo://app?vid=7fd43d4b-47b2-4eab-98db-296da55874bb","ios":"levelo://app?vid=7fd43d4b-47b2-4eab-98db-296da55874bb"},"vehicle_type_id":"4","last_reported":1727295017,"current_range_meters":19600,"station_id":"ce4bhsp2rcd13ifvqi50","pricing_plan_id":"cebpf4jnsgd1na2vs0mg"},{"bike_id":"b224673f-f8f3-4952-89e8-419684f5555e","system_id":"levelo_inurba_marseille","lat":43.30418,"lon":5.39751,"is_reserved":false,"is_disabled":false,"rental_uris":{"android":"levelo://app?vid=b224673f-f8f3-4952-89e8-419684f5555e","ios":"levelo://app?vid=b224673f-f8f3-4952-89e8-419684f5555e"},"vehicle_type_id":"4","last_reported":1727295017,"current_range_meters":38800,"station_id":"ce4bh092rcd13ifvqd20","pricing_plan_id":"cebpf4jnsgd1na2vs0mg"},{"bike_id":"3a2fb078-3ab4-4427-95ee-ff0c42a7a4d5","system_id":"levelo_inurba_marseille","lat":43.23179,"lon":5.39994,"is_reserved":false,"is_disabled":false,"rental_uris":{"android":"levelo://app?vid=3a2fb078-3ab4-4427-95ee-ff0c42a7a4d5","ios":"levelo://app?vid=3a2fb078-3ab4-4427-95ee-ff0c42a7a4d5"},"vehicle_type_id":"4","last_reported":1727295017,"current_range_meters":25200,"station_id":"ce4bhn12rcd13ifvqgqg","pricing_plan_id":"cebpf4jnsgd1na2vs0mg"},{"bike_id":"0cbdd9ee-1790-4ad9-890e-3ba825733dfc","system_id":"levelo_inurba_marseille","lat":43.23187,"lon":5.39986,"is_reserved":false,"is_disabled":false,"rental_uris":{"android":"levelo://app?vid=0cbdd9ee-1790-4ad9-890e-3ba825733dfc","ios":"levelo://app?vid=0cbdd9ee-1790-4ad9-890e-3ba825733dfc"},"vehicle_type_id":"4","last_reported":1727295017,"current_range_meters":30000,"station_id":"ce4bhn12rcd13ifvqgqg","pricing_plan_id":"cebpf4jnsgd1na2vs0mg"},{"bike_id":"05cdef6e-3358-4c0e-bca2-5c6d1e893be6","system_id":"levelo_inurba_marseille","lat":43.3244,"lon":5.40441,"is_reserved":false,"is_disabled":false,"rental_uris":{"android":"levelo://app?vid=05cdef6e-3358-4c0e-bca2-5c6d1e893be6","ios":"levelo://app?vid=05cdef6e-3358-4c0e-bca2-5c6d1e893be6"},"vehicle_type_id":"4","last_reported":1727295017,"current_range_meters":26000,"station_id":"","pricing_plan_id":"cebpf4jnsgd1na2vs0mg"},{"bike_id":"52d92dc4-471d-4fdd-9de2-cb1ec55aaa75","system_id":"levelo_inurba_marseille","lat":43.29879,"lon":5.39732,"is_reserved":false,"is_disabled":false,"rental_uris":{"android":"levelo://app?vid=52d92dc4-471d-4fdd-9de2-cb1ec55aaa75","ios":"levelo://app?vid=52d92dc4-471d-4fdd-9de2-cb1ec55aaa75"},"vehicle_type_id":"4","last_reported":1727295017,"current_range_meters":33200,"station_id":"ce4bh0h2rcd13ifvqd50","pricing_plan_id":"cebpf4jnsgd1na2vs0mg"},{"bike_id":"b4ebb3b8-fa5f-4b31-99d7-9fdec65b9132","system_id":"levelo_inurba_marseille","lat":43.24389,"lon":5.37062,"is_reserved":false,"is_disabled":false,"rental_uris":{"android":"levelo://app?vid=b4ebb3b8-fa5f-4b31-99d7-9fdec65b9132","ios":"levelo://app?vid=b4ebb3b8-fa5f-4b31-99d7-9fdec65b9132"},"vehicle_type_id":"4","last_reported":1727295017,"current_range_meters":38800,"station_id":"ce4bhhh2rcd13ifvqfk0","pricing_plan_id":"cebpf4jnsgd1na2vs0mg"},{"bike_id":"f8fa4adc-0a96-4fd0-ab97-065c6bfcda3d","system_id":"levelo_inurba_marseille","lat":43.29885,"lon":5.38904,"is_reserved":false,"is_disabled":false,"rental_uris":{"android":"levelo://app?vid=f8fa4adc-0a96-4fd0-ab97-065c6bfcda3d","ios":"levelo://app?vid=f8fa4adc-0a96-4fd0-ab97-065c6bfcda3d"},"vehicle_type_id":"4","last_reported":1727295017,"current_range_meters":20400,"station_id":"ce4bh392rcd13ifvqdl0","pricing_plan_id":"cebpf4jnsgd1na2vs0mg"},{"bike_id":"a91e55d8-5e22-404a-9d48-a069cfbf453d","system_id":"levelo_inurba_marseille","lat":43.2926,"lon":5.38448,"is_reserved":false,"is_disabled":false,"rental_uris":{"android":"levelo://app?vid=a91e55d8-5e22-404a-9d48-a069cfbf453d","ios":"levelo://app?vid=a91e55d8-5e22-404a-9d48-a069cfbf453d"},"vehicle_type_id":"4","last_reported":1727295017,"current_range_meters":9600,"station_id":"ce4bh692rcd13ifvqea0","pricing_plan_id":"cebpf4jnsgd1na2vs0mg"},{"bike_id":"6cd67961-0e49-4001-8c10-59fe93aefdf9","system_id":"levelo_inurba_marseille","lat":43.32291,"lon":5.38268,"is_reserved":false,"is_disabled":false,"rental_uris":{"android":"levelo://app?vid=6cd67961-0e49-4001-8c10-59fe93aefdf9","ios":"levelo://app?vid=6cd67961-0e49-4001-8c10-59fe93aefdf9"},"vehicle_type_id":"4","last_reported":1727295017,"current_range_meters":32400,"station_id":"ce4bhr12rcd13ifvqhqg","pricing_plan_id":"cebpf4jnsgd1na2vs0mg"},{"bike_id":"f57f07a5-8385-45d9-97fa-432815e7edb4","system_id":"levelo_inurba_marseille","lat":43.28463,"lon":5.35889,"is_reserved":false,"is_disabled":false,"rental_uris":{"android":"levelo://app?vid=f57f07a5-8385-45d9-97fa-432815e7edb4","ios":"levelo://app?vid=f57f07a5-8385-45d9-97fa-432815e7edb4"},"vehicle_type_id":"4","last_reported":1727295017,"current_range_meters":18000,"station_id":"ce4bhah2rcd13ifvqei0","pricing_plan_id":"cebpf4jnsgd1na2vs0mg"},{"bike_id":"b758bb5f-adae-4881-83e7-0e917c4e39a1","system_id":"levelo_inurba_marseille","lat":43.31994,"lon":5.38153,"is_reserved":false,"is_disabled":false,"rental_uris":{"android":"levelo://app?vid=b758bb5f-adae-4881-83e7-0e917c4e39a1","ios":"levelo://app?vid=b758bb5f-adae-4881-83e7-0e917c4e39a1"},"vehicle_type_id":"4","last_reported":1727295017,"current_range_meters":4400,"station_id":"ce4bhr12rcd13ifvqhpg","pricing_plan_id":"cebpf4jnsgd1na2vs0mg"},{"bike_id":"b904624d-b316-4785-8fc1-095351132133","system_id":"levelo_inurba_marseille","lat":43.27376,"lon":5.36259,"is_reserved":false,"is_disabled":false,"rental_uris":{"android":"levelo://app?vid=b904624d-b316-4785-8fc1-095351132133","ios":"levelo://app?vid=b904624d-b316-4785-8fc1-095351132133"},"vehicle_type_id":"4","last_reported":1727295017,"current_range_meters":38000,"station_id":"ce4bhbh2rcd13ifvqeo0","pricing_plan_id":"cebpf4jnsgd1na2vs0mg"},{"bike_id":"edaef6af-4daa-48ce-ab2f-498b09abccd3","system_id":"levelo_inurba_marseille","lat":43.30889,"lon":5.39645,"is_reserved":false,"is_disabled":false,"rental_uris":{"android":"levelo://app?vid=edaef6af-4daa-48ce-ab2f-498b09abccd3","ios":"levelo://app?vid=edaef6af-4daa-48ce-ab2f-498b09abccd3"},"vehicle_type_id":"4","last_reported":1727295017,"current_range_meters":38800,"station_id":"ce4bh012rcd13ifvqcv0","pricing_plan_id":"cebpf4jnsgd1na2vs0mg"},