{"last_updated":1734948612,"ttl":60,"version":"2.2","data":{"bikes":[{"bike_id":"92670bf9-a385-4cee-b547-3e900fbde130","system_id":"levelo_inurba_marseille","lat":43.28482,"lon":5.38399,"is_reserved":false,"is_disabled":false,"rental_uris":{"android":"levelo://app?vid=92670bf9-a385-4cee-b547-3e900fbde130","ios":"levelo://app?vid=92670bf9-a385-4cee-b547-3e900fbde130"},"vehicle_type_id":"4","last_reported":1734948613,"current_range_meters":38000,"station_id":"ce4bh512rcd13ifvqe3g","pricing_plan_id":"cebpf4jnsgd1na2vs0mg"},{"bike_id":"b5251cd0-66bc-4e10-9cd1-311b5de694fa","system_id":"levelo_inurba_marseille","lat":43.2762,"lon":5.36103,"is_reserved":false,"is_disabled":false,"rental_uris":{"android":"levelo://app?vid=b5251cd0-66bc-4e10-9cd1-311b5de694fa","ios":"levelo://app?vid=b5251cd0-66bc-4e10-9cd1-311b5de694fa"},"vehicle_type_id":"4","last_reported":1734948613,"current_range_meters":12000,"station_id":"ce4bgj92rcd13ifvqbe0","pricing_plan_id":"cebpf4jnsgd1na2vs0mg"},{"bike_id":"f7bb8206-7fb4-4c1b-9a15-dea460dfe0f5","system_id":"levelo_inurba_marseille","lat":43.24168,"lon":5.39722,"is_reserved":false,"is_disabled":false,"rental_uris":{"android":"levelo://app?vid=f7bb8206-7fb4-4c1b-9a15-dea460dfe0f5","ios":"levelo://app?vid=f7bb8206-7fb4-4c1b-9a15-dea460dfe0f5"},"vehicle_type_id":"4","last_reported":1734948613,"current_range_meters":28400,"station_id":"ce4bhn12rcd13ifvqgpg","pricing_plan_id":"cebpf4jnsgd1na2vs0mg"},{"bike_id":"67034a8e-5efd-4774-9ebc-c28a00434396","system_id":"levelo_inurba_marseille","lat":43.27813,"lon":5.40706,"is_reserved":false,"is_disabled":false,"rental_uris":{"android":"levelo://app?vid=67034a8e-5efd-4774-9ebc-c28a00434396","ios":"levelo://app?vid=67034a8e-5efd-4774-9ebc-c28a00434396"},"vehicle_type_id":"4","last_reported":1734948613,"current_range_meters":38800,"station_id":"ce4bhnh2rcd13ifvqgtg","pricing_plan_id":"cebpf4jnsgd1na2vs0mg"},{"bike_id":"5d6b7842-4068-493b-b261-daeeebe1a520","system_id":"levelo_inurba_marseille","lat":43.31325,"lon":5.39685,"is_reserved":false,"is_disabled":false,"rental_uris":{"android":"levelo://app?vid=5d6b7842-4068-493b-b261-daeeebe1a520","ios":"levelo://app?vid=5d6b7842-4068-493b-b261-daeeebe1a520"},"vehicle_type_id":"4","last_reported":1734948613,"current_range_meters":38800,"station_id":"ce4bgvp2rcd13ifvqcu0","pricing_plan_id":"cebpf4jnsgd1na2vs0mg"},{"bike_id":"31389d71-7dbf-49f1-b789-8b313b9821e9","system_id":"levelo_inurba_marseille","lat":43.27568,"lon":5.38413,"is_reserved":false,"is_disabled":false,"rental_uris":{"android":"levelo://app?vid=31389d71-7dbf-49f1-b789-8b313b9821e9","ios":"levelo://app?vid=31389d71-7dbf-49f1-b789-8b313b9821e9"},"vehicle_type_id":"4","last_reported":1734948613,"current_range_meters":38800,"station_id":"ce4bhh92rcd13ifvqfi0","pricing_plan_id":"cebpf4jnsgd1na2vs0mg"},{"bike_id":"96f67906-c94f-4a78-ae6e-fdff28a17019","system_id":"levelo_inurba_marseille","lat":43.337614,"lon":5.374551,"is_reserved":false,"is_disabled":false,"rental_uris":{"android":"levelo://app?vid=96f67906-c94f-4a78-ae6e-fdff28a17019","ios":"levelo://app?vid=96f67906-c94f-4a78-ae6e-fdff28a17019"},"vehicle_type_id":"4","last_reported":1734948613,"current_range_meters":30000,"station_id":"","pricing_plan_id":"cebpf4jnsgd1na2vs0mg"},{"bike_id":"4ae04926-163e-4ffb-be62-88da4a5836ca","system_id":"levelo_inurba_marseille","lat":43.292284,"lon":5.360644,"is_reserved":false,"is_disabled":false,"rental_uris":{"android":"levelo://app?vid=4ae04926-163e-4ffb-be62-88da4a5836ca","ios":"levelo://app?vid=4ae04926-163e-4ffb-be62-88da4a5836ca"},"vehicle_type_id":"4","last_reported":1734948613,"current_range_meters":14000,"station_id":"ce4bhbh2rcd13ifvqeqg","pricing_plan_id":"cebpf4jnsgd1na2vs0mg"},{"bike_id":"454a2917-bbfc-4010-a3c2-3e352c41d99d","system_id":"levelo_inurba_marseille","lat":43.29264,"lon":5.40912,"is_reserved":false,"is_disabled":false,"rental_uris":{"android":"levelo://app?vid=454a2917-bbfc-4010-a3c2-3e352c41d99d","ios":"levelo://app?vid=454a2917-bbfc-4010-a3c2-3e352c41d99d"},"vehicle_type_id":"4","last_reported":1734948613,"current_range_meters":38400,"station_id":"ce4bh192rcd13ifvqdc0","pricing_plan_id":"cebpf4jnsgd1na2vs0mg"},{"bike_id":"c0720470-6f2e-460e-b1fb-1e96d51ac0ce","system_id":"levelo_inurba_marseille","lat":43.29291,"lon":5.407,"is_reserved":false,"is_disabled":false,"rental_uris":{"android":"levelo://app?vid=c0720470-6f2e-460e-b1fb-1e96d51ac0ce","ios":"levelo://app?vid=c0720470-6f2e-460e-b1fb-1e96d51ac0ce"},"vehicle_type_id":"4","last_reported":1734948613,"current_range_meters":36000,"station_id":"ce4bgjh2rcd13ifvqbf0","pricing_plan_id":"cebpf4jnsgd1na2vs0mg"},{"bike_id":"90539d1b-0427-428e-a657-e73ecb954d2b","system_id":"levelo_inurba_marseille","lat":43.29263,"lon":5.40139,"is_reserved":false,"is_disabled":false,"rental_uris":{"android":"levelo://app?vid=90539d1b-0427-428e-a657-e73ecb954d2b","ios":"levelo://app?vid=90539d1b-0427-428e-a657-e73ecb954d2b"},"vehicle_type_id":"4","last_reported":1734948613,"current_range_meters":17200,"station_id":"ce4bh312rcd13ifvqdk0","pricing_plan_id":"cebpf4jnsgd1na2vs0mg"},{"bike_id":"d7148982-187c-4b15-9fd7-d4a1e5266c9e","system_id":"levelo_inurba_marseille","lat":43.26199,"lon":5.37925,"is_reserved":false,"is_disabled":false,"rental_uris":{"android":"levelo://app?vid=d7148982-187c-4b15-9fd7-d4a1e5266c9e","ios":"levelo://app?vid=d7148982-187c-4b15-9fd7-d4a1e5266c9e"},"vehicle_type_id":"4","last_reported":1734948613,"current_range_meters":25200,"station_id":"ce4bhjp2rcd13ifvqg90","pricing_plan_id":"cebpf4jnsgd1na2vs0mg"},{"bike_id":"12077225-0151-4b61-a64e-e4fc908916e8","system_id":"levelo_inurba_marseille","lat":43.30187,"lon":5.36593,"is_reserved":false,"is_disabled":false,"rental_uris":{"android":"levelo://app?vid=12077225-0151-4b61-a64e-e4fc908916e8","ios":"levelo://app?vid=12077225-0151-4b61-a64e-e4fc908916e8"},"vehicle_type_id":"4","last_reported":1734948613,"current_range_meters":38000,"station_id":"ce4bgrh2rcd13ifvqc8g","pricing_plan_id":"cebpf4jnsgd1na2vs0mg"},{"bike_id":"f8d67374-979b-4d79-bc93-011ad219eb26","system_id":"levelo_inurba_marseille","lat":43.2721,"lon":5.39204,"is_reserved":false,"is_disabled":false,"rental_uris":{"android":"levelo://app?vid=f8d67374-979b-4d79-bc93-011ad219eb26","ios":"levelo://app?vid=f8d67374-979b-4d79-bc93-011ad219eb26"},"vehicle_type_id":"4","last_reported":1734948613,"current_range_meters":11200,"station_id":"ce4bhhp2rcd13ifvqfm0","pricing_plan_id":"cebpf4jnsgd1na2vs0mg"},{"bike_id":"483c1a88-3d76-4ce2-b8a0-18ab3d6306de","system_id":"levelo_inurba_marseille","lat":43.29933,"lon":5.36541,"is_reserved":false,"is_disabled":false,"rental_uris":{"android":"levelo://app?vid=483c1a88-3d76-4ce2-b8a0-18ab3d6306de","ios":"levelo://app?vid=483c1a88-3d76-4ce2-b8a0-18ab3d6306de"},"vehicle_type_id":"4","last_reported":1734948613,"current_range_meters":11200,"station_id":"ce4bgm92rcd13ifvqbr0","pricing_plan_id":"cebpf4jnsgd1na2vs0mg"},{"bike_id":"14cd210b-7c9c-4b1d-82b0-ae8167a057e2","system_id":"levelo_inurba_marseille","lat":43.25576,"lon":5.38256,"is_reserved":false,"is_disabled":false,"rental_uris":{"android":"levelo://app?vid=14cd210b-7c9c-4b1d-82b0-ae8167a057e2","ios":"levelo://app?vid=14cd210b-7c9c-4b1d-82b0-ae8167a057e2"},"vehicle_type_id":"4","last_reported":1734948613,"current_range_meters":17600,"station_id":"ce4bhih2rcd13ifvqfs0","pricing_plan_id":"cebpf4jnsgd1na2vs0mg"},{"bike_id":"4313af5e-c311-4211-bceb-2388da0e642a","system_id":"levelo_inurba_marseille","lat":43.29003,"lon":5.35616,"is_reserved":false,"is_disabled":false,"rental_uris":{"android":"levelo://app?vid=4313af5e-c311-4211-bceb-2388da0e642a","ios":"levelo://app?vid=4313af5e-c311-4211-bceb-2388da0e642a"},"vehicle_type_id":"4","last_reported":1734948613,"current_range_meters":32000,"station_id":"ce4bhb92rcd13ifvqen0","pricing_plan_id":"cebpf4jnsgd1na2vs0mg"},{"bike_id":"e8c02ea7-3dba-4664-9c0e-f2a81f261752","system_id":"levelo_inurba_marseille","lat":43.25087,"lon":5.39527,"is_reserved":false,"is_disabled":false,"rental_uris":{"android":"levelo://app?vid=e8c02ea7-3dba-4664-9c0e-f2a81f261752","ios":"levelo://app?vid=e8c02ea7-3dba-4664-9c0e-f2a81f261752"},"vehicle_type_id":"4","last_reported":1734948613,"current_range_meters":20800,"station_id":"ce4bhm12rcd13ifvqgkg","pricing_plan_id":"cebpf4jnsgd1na2vs0mg"},{"bike_id":"d1dc16e5-85c2-43d5-b8fa-3eebc423a7ee","system_id":"levelo_inurba_marseille","lat":43.26785,"lon":5.39408,"is_reserved":false,"is_disabled":false,"rental_uris":{"android":"levelo://app?vid=d1dc16e5-85c2-43d5-b8fa-3eebc423a7ee","ios":"levelo://app?vid=d1dc16e5-85c2-43d5-b8fa-3eebc423a7ee"},"vehicle_type_id":"4","last_reported":1734948613,"current_range_meters":20800,"station_id":"ce4bhh12rcd13ifvqfg0","pricing_plan_id":"cebpf4jnsgd1na2vs0mg"},{"bike_id":"4e2e6240-5440-4ed7-ace9-4c9e6bd778e5","system_id":"levelo_inurba_marseille","lat":43.24064,"lon":5.37762,"is_reserved":false,"is_disabled":false,"rental_uris":{"android":"levelo://app?vid=4e2e6240-5440-4ed7-ace9-4c9e6bd778e5","ios":"levelo://app?vid=4e2e6240-5440-4ed7-ace9-4c9e6bd778e5"},"vehicle_type_id":"4","last_reported":1734948613,"current_range_meters":28400,"station_id":"ce4bhnp2rcd13ifvqgvg","pricing_plan_id":"cebpf4jnsgd1na2vs0mg"},{"bike_id":"df357b14-4c6a-4905-8927-9863400f5dca","system_id":"levelo_inurba_marseille","lat":43.25874,"lon":5.39917,"is_reserved":false,"is_disabled":false,"rental_uris":{"android":"levelo://app?vid=df357b14-4c6a-4905-8927-9863400f5dca","ios":"levelo://app?vid=df357b14-4c6a-4905-8927-9863400f5dca"},"vehicle_type_id":"4","last_reported":1734948613,"current_range_meters":28800,"station_id":"ce4bhl92rcd13ifvqghg","pricing_plan_id":"cebpf4jnsgd1na2vs0mg"},{"bike_id":"b76cea7e-5025-4e14-a8c7-eebf31292c4c","system_id":"levelo_inurba_marseille","lat":43.26066,"lon":5.39385,"is_reserved":false,"is_disabled":true,"rental_uris":{"android":"levelo://app?vid=b76cea7e-5025-4e14-a8c7-eebf31292c4c","ios":"levelo://app?vid=b76cea7e-5025-4e14-a8c7-eebf31292c4c"},"vehicle_type_id":"4","last_reported":1734948613,"current_range_meters":29600,"station_id":"ce4bhh92rcd13ifvqfj0","pricing_plan_id":"cebpf4jnsgd1na2vs0mg"},{"bike_id":"61d31d0f-b8a0-41e9-a988-1a5e04ea1bd5","system_id":"levelo_inurba_marseille","lat":43.31233,"lon":5.36853,"is_reserved":false,"is_disabled":false,"rental_uris":{"android":"levelo://app?vid=61d31d0f-b8a0-41e9-a988-1a5e04ea1bd5","ios":"levelo://app?vid=61d31d0f-b8a0-41e9-a988-1a5e04ea1bd5"},"vehicle_type_id":"4","last_reported":1734948613,"current_range_meters":28000,"station_id":"ce4bgl92rcd13ifvqbq0","pricing_plan_id":"cebpf4jnsgd1na2vs0mg"},{"bike_id":"b385a3ef-d6ae-472e-981a-32c07a4ffc9c","system_id":"levelo_inurba_marseille","lat":43.27053,"lon":5.40264,"is_reserved":false,"is_disabled":false,"rental_uris":{"android":"levelo://app?vid=b385a3ef-d6ae-472e-981a-32c07a4ffc9c","ios":"levelo://app?vid=b385a3ef-d6ae-472e-981a-32c07a4ffc9c"},"vehicle_type_id":"4","last_reported":1734948613,"current_range_meters":37600,"station_id":"ce4bhk92rcd13ifvqgc0","pricing_plan_id":"cebpf4jnsgd1na2vs0mg"},{"bike_id":"24fa1a3b-278d-4dd9-a42d-ad0d1b0a7b28","system_id":"levelo_inurba_marseille","lat":43.28413,"lon":5.37522,"is_reserved":false,"is_disabled":false,"rental_uris":{"android":"levelo://app?vid=24fa1a3b-278d-4dd9-a42d-ad0d1b0a7b28","ios":"levelo://app?vid=24fa1a3b-278d-4dd9-a42d-ad0d1b0a7b28"},"vehicle_type_id":"4","last_reported":1734948613,"current_range_meters":36800,"station_id":"ce4bh412rcd13ifvqds0","pricing_plan_id":"cebpf4jnsgd1na2vs0mg"},{"bike_id":"f64237d5-46cf-42d8-870d-cc1e4d25f3e7","system_id":"levelo_inurba_marseille","lat":43.267,"lon":5.38261,"is_reserved":false,"is_disabled":false,"rental_uris":{"android":"levelo://app?vid=f64237d5-46cf-42d8-870d-cc1e4d25f3e7","ios":"levelo://app?vid=f64237d5-46cf-42d8-870d-cc1e4d25f3e7"},"vehicle_type_id":"4","last_reported":1734948613,"current_range_meters":34800,"station_id":"ce4bhg92rcd13ifvqf90","pricing_plan_id":"cebpf4jnsgd1na2vs0mg"},{"bike_id":"651844bd-4f3d-4f9f-9e62-99695174b835","system_id":"levelo_inurba_marseille","lat":43.30546,"lon":5.36544,"is_reserved":false,"is_disabled":true,"rental_uris":{"android":"levelo://app?vid=651844bd-4f3d-4f9f-9e62-99695174b835","ios":"levelo://app?vid=651844bd-4f3d-4f9f-9e62-99695174b835"},"vehicle_type_id":"4","last_reported":1734948613,"current_range_meters":27200,"station_id":"ce4bgs12rcd13ifvqcag","pricing_plan_id":"cebpf4jnsgd1na2vs0mg"},{"bike_id":"5d29fc56-dbb2-4006-96bc-27e181f8d4f5","system_id":"levelo_inurba_marseille","lat":43.29848,"lon":5.36285,"is_reserved":false,"is_disabled":false,"rental_uris":{"android":"levelo://app?vid=5d29fc56-dbb2-4006-96bc-27e181f8d4f5","ios":"levelo://app?vid=5d29fc56-dbb2-4006-96bc-27e181f8d4f5"},"vehicle_type_id":"4","last_reported":1734948613,"current_range_meters":38800,"station_id":"ce4bgpp2rcd13ifvqc3g","pricing_plan_id":"cebpf4jnsgd1na2vs0mg"},{"bike_id":"941d367c-813c-485d-b13f-2111907cb525","system_id":"levelo_inurba_marseille","lat":43.29794,"lon":5.38089,"is_reserved":false,"is_disabled":false,"rental_uris":{"android":"levelo://app?vid=941d367c-813c-485d-b13f-2111907cb525","ios":"levelo://app?vid=941d367c-813c-485d-b13f-2111907cb525"},"vehicle_type_id":"4","last_reported":1734948613,"current_range_meters":29600,"station_id":"ce4bgip2rcd13ifvqbb0","pricing_plan_id":"cebpf4jnsgd1na2vs0mg"},{"bike_id":"a97a8068-2316-4851-907b-6e7d7f5091ff","system_id":"levelo_inurba_marseille","lat":43.29378,"lon":5.37849,"is_reserved":false,"is_disabled":false,"rental_uris":{"android":"levelo://app?vid=a97a8068-2316-4851-907b-6e7d7f5091ff","ios":"levelo://app?vid=a97a8068-2316-4851-907b-6e7d7f5091ff"},"vehicle_type_id":"4","last_reported":1734948613,"current_range_meters":39200,"station_id":"ce4bgjh2rcd13ifvqbf0","pricing_plan_id":"cebpf4jnsgd1na2vs0mg"},{"bike_id":"e1a1fefb-6ade-46e6-98d6-844f07ab9872","system_id":"levelo_inurba_marseille","lat":43.29264,"lon":5.36854,"is_reserved":false,"is_disabled":false,"rental_uris":{"android":"levelo://app?vid=e1a1fefb-6ade-46e6-98d6-844f07ab9872","ios":"levelo://app?vid=e1a1fefb-6ade-46e6-98d6-844f07ab9872"},"vehicle_type_id":"4","last_reported":1734948613,"current_range_meters":20800,"station_id":"ce4bhbp2rcd13ifvqesg","pricing_plan_id":"cebpf4jnsgd1na2vs0mg"},{"bike_id":"1bafc42a-64da-44ff-90b0-888912d65257","system_id":"levelo_inurba_marseille","lat":43.27814,"lon":5.4072,"is_reserved":false,"is_disabled":false,"rental_uris":{"android":"levelo://app?vid=1bafc42a-64da-44ff-90b0-888912d65257","ios":"levelo://app?vid=1bafc42a-64da-44ff-90b0-888912d65257"},"vehicle_type_id":"4","last_reported":1734948613,"current_range_meters":26000,"station_id":"ce4bhnh2rcd13ifvqgtg","pricing_plan_id":"cebpf4jnsgd1na2vs0mg"},{"bike_id":"384703fa-0bca-4cdd-8569-5eaec8e257c7","system_id":"levelo_inurba_marseille","lat":43.29618,"lon":5.37723,"is_reserved":false,"is_disabled":false,"rental_uris":{"android":"levelo://app?vid=384703fa-0bca-4cdd-8569-5eaec8e257c7","ios":"levelo://app?vid=384703fa-0bca-4cdd-8569-5eaec8e257c7"},"vehicle_type_id":"4","last_reported":1734948613,"current_range_meters":36400,"station_id":"ce4bgi92rcd13ifvqb90","pricing_plan_id":"cebpf4jnsgd1na2vs0mg"},{"bike_id":"95afefa6-3f6d-4cd0-8f10-336016d20214","system_id":"levelo_inurba_marseille","lat":43.30548,"lon":5.36559,"is_reserved":false,"is_disabled":false,"rental_uris":{"android":"levelo://app?vid=95afefa6-3f6d-4cd0-8f10-336016d20214","ios":"levelo://app?vid=95afefa6-3f6d-4cd0-8f10-336016d20214"},"vehicle_type_id":"4","last_reported":1734948613,"current_range_meters":29600,"station_id":"ce4bgs12rcd13ifvqcag","pricing_plan_id":"cebpf4jnsgd1na2vs0mg"},{"bike_id":"41d0d9f5-bb31-41f6-8358-898df39bf21c","system_id":"levelo_inurba_marseille","lat":43.25868,"lon":5.39913,"is_reserved":false,"is_disabled":false,"rental_uris":{"android":"levelo://app?vid=41d0d9f5-bb31-41f6-8358-898df39bf21c","ios":"levelo://app?vid=41d0d9f5-bb31-41f6-8358-898df39bf21c"},"vehicle_type_id":"4","last_reported":1734948613,"current_range_meters":38800,"station_id":"ce4bhl92rcd13ifvqghg","pricing_plan_id":"cebpf4jnsgd1na2vs0mg"},{"bike_id":"7e211114-fd49-4399-8a81-09d040af8d46","system_id":"levelo_inurba_marseille","lat":43.24796,"lon":5.37468,"is_reserved":false,"is_disabled":false,"rental_uris":{"android":"levelo://app?vid=7e211114-fd49-4399-8a81-09d040af8d46","ios":"levelo://app?vid=7e211114-fd49-4399-8a81-09d040af8d46"},"vehicle_type_id":"4","last_reported":1734948613,"current_range_meters":12000,"station_id":"ce4bhgh2rcd13ifvqfb0","pricing_plan_id":"cebpf4jnsgd1na2vs0mg"},{"bike_id":"8fd4ed25-e7b3-49be-b1e0-521234d05b10","system_id":"levelo_inurba_marseille","lat":43.32481,"lon":5.36555,"is_reserved":false,"is_disabled":false,"rental_uris":{"android":"levelo://app?vid=8fd4ed25-e7b3-49be-b1e0-521234d05b10","ios":"levelo://app?vid=8fd4ed25-e7b3-49be-b1e0-521234d05b10"},"vehicle_type_id":"4","last_reported":1734948613,"current_range_meters":28000,"station_id":"ce4bhs12rcd13ifvqhvg","pricing_plan_id":"cebpf4jnsgd1na2vs0mg"},{"bike_id":"5ff87d7d-6d67-4a58-94ff-bd03f7c1887d","system_id":"levelo_inurba_marseille","lat":43.28934,"lon":5.38397,"is_reserved":false,"is_disabled":false,"rental_uris":{"android":"levelo://app?vid=5ff87d7d-6d67-4a58-94ff-bd03f7c1887d","ios":"levelo://app?vid=5ff87d7d-6d67-4a58-94ff-bd03f7c1887d"},"vehicle_type_id":"4","last_reported":1734948613,"current_range_meters":28000,"station_id":"ce4bh612rcd13ifvqe6g","pricing_plan_id":"cebpf4jnsgd1na2vs0mg"},{"bike_id":"4dbbc0d1-d179-4f72-b107-5338a9061bd3","system_id":"levelo_inurba_marseille","lat":43.3095,"lon":5.39039,"is_reserved":false,"is_disabled":false,"rental_uris":{"android":"levelo://app?vid=4dbbc0d1-d179-4f72-b107-5338a9061bd3","ios":"levelo://app?vid=4dbbc0d1-d179-4f72-b107-5338a9061bd3"},"vehicle_type_id":"4","last_reported":1734948613,"current_range_meters":36800,"station_id":"ce4bgup2rcd13ifvqco0","pricing_plan_id":"cebpf4jnsgd1na2vs0mg"},{"bike_id":"e724f4e5-0922-4e36-91f4-8a4c9d514ff5","system_id":"levelo_inurba_marseille","lat":43.29845,"lon":5.36258,"is_reserved":false,"is_disabled":false,"rental_uris":{"android":"levelo://app?vid=e724f4e5-0922-4e36-91f4-8a4c9d514ff5","ios":"levelo://app?vid=e724f4e5-0922-4e36-91f4-8a4c9d514ff5"},"vehicle_type_id":"4","last_reported":1734948613,"current_range_meters":38000,"station_id":"ce4bgpp2rcd13ifvqc3g","pricing_plan_id":"cebpf4jnsgd1na2vs0mg"},{"bike_id":"e758d540-a49b-4c63-beac-9556d1c03d6f","system_id":"levelo_inurba_marseille","lat":43.31714,"lon":5.42398,"is_reserved":false,"is_disabled":false,"rental_uris":{"android":"levelo://app?vid=e758d540-a49b-4c63-beac-9556d1c03d6f","ios":"levelo://app?vid=e758d540-a49b-4c63-beac-9556d1c03d6f"},"vehicle_type_id":"4","last_reported":1734948613,"current_range_meters":37600,"station_id":"ce4bhp92rcd13ifvqhbg","pricing_plan_id":"cebpf4jnsgd1na2vs0mg"},{"bike_id":"b567452d-1653-4b1e-8f57-3d9ff57e59c9","system_id":"levelo_inurba_marseille","lat":43.29585,"lon":5.375,"is_reserved":false,"is_disabled":false,"rental_uris":{"android":"levelo://app?vid=b567452d-1653-4b1e-8f57-3d9ff57e59c9","ios":"levelo://app?vid=b567452d-1653-4b1e-8f57-3d9ff57e59c9"},"vehicle_type_id":"4","last_reported":1734948613,"current_range_meters":17600,"station_id":"ce4bgh92rcd13ifvqb50","pricing_plan_id":"cebpf4jnsgd1na2vs0mg"},{"bike_id":"d98f0b8a-1ef4-43b4-85a1-12b00b5f4de1","system_id":"levelo_inurba_marseille","lat":43.28423,"lon":5.34998,"is_reserved":false,"is_disabled":false,"rental_uris":{"android":"levelo://app?vid=d98f0b8a-1ef4-43b4-85a1-12b00b5f4de1","ios":"levelo://app?vid=d98f0b8a-1ef4-43b4-85a1-12b00b5f4de1"},"vehicle_type_id":"4","last_reported":1734948613,"current_range_meters":32000,"station_id":"ce4bhbh2rcd13ifvqepg","pricing_plan_id":"cebpf4jnsgd1na2vs0mg"},{"bike_id":"dd3dbacf-347a-4a33-90ce-76bd61257750","system_id":"levelo_inurba_marseille","lat":43.32053,"lon":5.41568,"is_reserved":false,"is_disabled":true,"rental_uris":{"android":"levelo://app?vid=dd3dbacf-347a-4a33-90ce-76bd61257750","ios":"levelo://app?vid=dd3dbacf-347a-4a33-90ce-76bd61257750"},"vehicle_type_id":"4","last_reported":1734948613,"current_range_meters":38400,"station_id":"ce4bhq92rcd13ifvqhkg","pricing_plan_id":"cebpf4jnsgd1na2vs0mg"},{"bike_id":"71bbaaf0-30fa-412b-9088-f880a672af88","system_id":"levelo_inurba_marseille","lat":43.26025,"lon":5.37555,"is_reserved":false,"is_disabled":false,"rental_uris":{"android":"levelo://app?vid=71bbaaf0-30fa-412b-9088-f880a672af88","ios":"levelo://app?vid=71bbaaf0-30fa-412b-9088-f880a672af88"},"vehicle_type_id":"4","last_reported":1734948613,"current_range_meters":32800,"station_id":"ce4bhgh2rcd13ifvqfa0","pricing_plan_id":"cebpf4jnsgd1na2vs0mg"},{"bike_id":"fef48f2c-5999-4098-96c0-e529a7816b37","system_id":"levelo_inurba_marseille","lat":43.29293,"lon":5.37483,"is_reserved":false,"is_disabled":false,"rental_uris":{"android":"levelo://app?vid=fef48f2c-5999-4098-96c0-e529a7816b37","ios":"levelo://app?vid=fef48f2c-5999-4098-96c0-e529a7816b37"},"vehicle_type_id":"4","last_reported":1734948613,"current_range_meters":34800,"station_id":"ce4bgi12rcd13ifvqb70","pricing_plan_id":"cebpf4jnsgd1na2vs0mg"},{"bike_id":"5e52647f-0e50-4f6f-9497-0268a4c651dc","system_id":"levelo_inurba_marseille","lat":43.28707,"lon":5.3738,"is_reserved":false,"is_disabled":false,"rental_uris":{"android":"levelo://app?vid=5e52647f-0e50-4f6f-9497-0268a4c651dc","ios":"levelo://app?vid=5e52647f-0e50-4f6f-9497-0268a4c651dc"},"vehicle_type_id":"4","last_reported":1734948613,"current_range_meters":25200,"station_id":"ce4bh3p2rcd13ifvqdq0","pricing_plan_id":"cebpf4jnsgd1na2vs0mg"},{"bike_id":"d1aed847-98af-41ac-a611-c35d33b973ea","system_id":"levelo_inurba_marseille","lat":43.279205,"lon":5.395713,"is_reserved":false,"is_disabled":true,"rental_uris":{"android":"levelo://app?vid=d1aed847-98af-41ac-a611-c35d33b973ea","ios":"levelo://app?vid=d1aed847-98af-41ac-a611-c35d33b973ea"},"vehicle_type_id":"4","last_reported":1734948613,"current_range_meters":38400,"station_id":"ce4bhf92rcd13ifvqf40","pricing_plan_id":"cebpf4jnsgd1na2vs0mg"},{"bike_id":"a45d7bd1-4293-495f-bfde-11f55f0dec91","system_id":"levelo_inurba_marseille","lat":43.27915,"lon":5.38722,"is_reserved":false,"is_disabled":false,"rental_uris":{"android":"levelo://app?vid=a45d7bd1-4293-495f-bfde-11f55f0dec91","ios":"levelo://app?vid=a45d7bd1-4293-495f-bfde-11f55f0dec91"},"vehicle_type_id":"4","last_reported":1734948613,"current_range_meters":32400,"station_id":"ce4bhg12rcd13ifvqf80","pricing_plan_id":"cebpf4jnsgd1na2vs0mg"},{"bike_id":"735be5a0-4ae4-454a-8ed3-886f96d24ed3","system_id":"levelo_inurba_marseille","lat":43.28111,"lon":5.37872,"is_reserved":false,"is_disabled":false,"rental_uris":{"android":"levelo://app?vid=735be5a0-4ae4-454a-8ed3-886f96d24ed3","ios":"levelo://app?vid=735be5a0-4ae4-454a-8ed3-886f96d24ed3"},"vehicle_type_id":"4","last_reported":1734948613,"current_range_meters":22400,"station_id":"ce4bha12rcd13ifvqee0","pricing_plan_id":"cebpf4jnsgd1na2vs0mg"},{"bike_id":"3ae25c76-d5e1-4010-8d1a-4eb0e439c69d","system_id":"levelo_inurba_marseille","lat":43.29302,"lon":5.37453,"is_reserved":false,"is_disabled":false,"rental_uris":{"android":"levelo://app?vid=3ae25c76-d5e1-4010-8d1a-4eb0e439c69d","ios":"levelo://app?vid=3ae25c76-d5e1-4010-8d1a-4eb0e439c69d"},"vehicle_type_id":"4","last_reported":1734948613,"current_range_meters":38800,"station_id":"ce4bgi12rcd13ifvqb70","pricing_plan_id":"cebpf4jnsgd1na2vs0mg"},{"bike_id":"eda9a8f7-6066-4f25-9e19-1a99ec6e49b4","system_id":"levelo_inurba_marseille","lat":43.2979,"lon":5.39345,"is_reserved":false,"is_disabled":false,"rental_uris":{"android":"levelo://app?vid=eda9a8f7-6066-4f25-9e19-1a99ec6e49b4","ios":"levelo://app?vid=eda9a8f7-6066-4f25-9e19-1a99ec6e49b4"},"vehicle_type_id":"4","last_reported":1734948613,"current_range_meters":37600,"station_id":"chh1huq6cuj3fo74tm60","pricing_plan_id":"cebpf4jnsgd1na2vs0mg"},{"bike_id":"f6ebbeb4-7ecb-4ea4-8ad2-96631a725e85","system_id":"levelo_inurba_marseille","lat":43.25579,"lon":5.38223,"is_reserved":false,"is_disabled":false,"rental_uris":{"android":"levelo://app?vid=f6ebbeb4-7ecb-4ea4-8ad2-96631a725e85","ios":"levelo://app?vid=f6ebbeb4-7ecb-4ea4-8ad2-96631a725e85"},"vehicle_type_id":"4","last_reported":1734948613,"current_range_meters":30800,"station_id":"ce4bhih2rcd13ifvqfs0","pricing_plan_id":"cebpf4jnsgd1na2vs0mg"},{"bike_id":"370a5638-7ba2-4fb7-a94d-eb38ce88ddf9","system_id":"levelo_inurba_marseille","lat":43.31349,"lon":5.36731,"is_reserved":false,"is_disabled":false,"rental_uris":{"android":"levelo://app?vid=370a5638-7ba2-4fb7-a94d-eb38ce88ddf9","ios":"levelo://app?vid=370a5638-7ba2-4fb7-a94d-eb38ce88ddf9"},"vehicle_type_id":"4","last_reported":1734948613,"current_range_meters":38800,"station_id":"ce4bgr92rcd13ifvqc6g","pricing_plan_id":"cebpf4jnsgd1na2vs0mg"},{"bike_id":"1bff88cc-7e80-4f66-93cd-eccfe100465b","system_id":"levelo_inurba_marseille","lat":43.30512,"lon":5.36537,"is_reserved":false,"is_disabled":false,"rental_uris":{"android":"levelo://app?vid=1bff88cc-7e80-4f66-93cd-eccfe100465b","ios":"levelo://app?vid=1bff88cc-7e80-4f66-93cd-eccfe100465b"},"vehicle_type_id":"4","last_reported":1734948613,"current_range_meters":36800,"station_id":"ce4bgs12rcd13ifvqcag","pricing_plan_id":"cebpf4jnsgd1na2vs0mg"},{"bike_id":"afd88562-6d4f-4033-b9d3-3fd8fb966437","system_id":"levelo_inurba_marseille","lat":43.311126,"lon":5.377723,"is_reserved":false,"is_disabled":true,"rental_uris":{"android":"levelo://app?vid=afd88562-6d4f-4033-b9d3-3fd8fb966437","ios":"levelo://app?vid=afd88562-6d4f-4033-b9d3-3fd8fb966437"},"vehicle_type_id":"4","last_reported":1734948613,"current_range_meters":12000,"station_id":"ce4bgt92rcd13ifvqcg0","pricing_plan_id":"cebpf4jnsgd1na2vs0mg"},{"bike_id":"fa27ee24-baf1-4edf-912c-c35c66d5d9f9","system_id":"levelo_inurba_marseille","lat":43.3053,"lon":5.36527,"is_reserved":false,"is_disabled":false,"rental_uris":{"android":"levelo://app?vid=fa27ee24-baf1-4edf-912c-c35c66d5d9f9","ios":"levelo://app?vid=fa27ee24-baf1-4edf-912c-c35c66d5d9f9"},"vehicle_type_id":"4","last_reported":1734948613,"current_range_meters":38800,"station_id":"ce4bgs12rcd13ifvqcag","pricing_plan_id":"cebpf4jnsgd1na2vs0mg"},{"bike_id":"6c43cd76-1806-4286-a6e9-ddc4428ed433","system_id":"levelo_inurba_marseille","lat":43.29537,"lon":5.3749,"is_reserved":false,"is_disabled":false,"rental_uris":{"android":"levelo://app?vid=6c43cd76-1806-4286-a6e9-ddc4428ed433","ios":"levelo://app?vid=6c43cd76-1806-4286-a6e9-ddc4428ed433"},"vehicle_type_id":"4","last_reported":1734948613,"current_range_meters":37600,"station_id":"ce4bgkp2rcd13ifvqbmg","pricing_plan_id":"cebpf4jnsgd1na2vs0mg"},{"bike_id":"90a73335-dcbe-4037-be07-976cb1c8a574","system_id":"levelo_inurba_marseille","lat":43.30606,"lon":5.37236,"is_reserved":false,"is_disabled":false,"rental_uris":{"android":"levelo://app?vid=90a73335-dcbe-4037-be07-976cb1c8a574","ios":"levelo://app?vid=90a73335-dcbe-4037-be07-976cb1c8a574"},"vehicle_type_id":"4","last_reported":1734948613,"current_range_meters":37600,"station_id":"ce4bgqh2rcd13ifvqc4g","pricing_plan_id":"cebpf4jnsgd1na2vs0mg"},{"bike_id":"a1e07c40-bd4f-4cb3-b419-277f9bb6cc2f","system_id":"levelo_inurba_marseille","lat":43.27675,"lon":5.38908,"is_reserved":false,"is_disabled":false,"rental_uris":{"android":"levelo://app?vid=a1e07c40-bd4f-4cb3-b419-277f9bb6cc2f","ios":"levelo://app?vid=a1e07c40-bd4f-4cb3-b419-277f9bb6cc2f"},"vehicle_type_id":"4","last_reported":1734948613,"current_range_meters":38800,"station_id":"ce4bhi12rcd13ifvqfo0","pricing_plan_id":"cebpf4jnsgd1na2vs0mg"},{"bike_id":"a3f20b06-fbbc-488d-ab74-510676955d57","system_id":"levelo_inurba_marseille","lat":43.31892,"lon":5.40748,"is_reserved":false,"is_disabled":false,"rental_uris":{"android":"levelo://app?vid=a3f20b06-fbbc-488d-ab74-510676955d57","ios":"levelo://app?vid=a3f20b06-fbbc-488d-ab74-510676955d57"},"vehicle_type_id":"4","last_reported":1734948613,"current_range_meters":31200,"station_id":"ce4bhq12rcd13ifvqhig","pricing_plan_id":"cebpf4jnsgd1na2vs0mg"},{"bike_id":"2633e9ba-ac8f-41eb-8615-a08e37b3083a","system_id":"levelo_inurba_marseille","lat":43.27198,"lon":5.41011,"is_reserved":false,"is_disabled":false,"rental_uris":{"android":"levelo://app?vid=2633e9ba-ac8f-41eb-8615-a08e37b3083a","ios":"levelo://app?vid=2633e9ba-ac8f-41eb-8615-a08e37b3083a"},"vehicle_type_id":"4","last_reported":1734948613,"current_range_meters":33200,"station_id":"ce4bhl12rcd13ifvqgf0","pricing_plan_id":"cebpf4jnsgd1na2vs0mg"},{"bike_id":"42504198-7683-425c-bc1a-4188fde13f5b","system_id":"levelo_inurba_marseille","lat":43.29673,"lon":5.37736,"is_reserved":false,"is_disabled":false,"rental_uris":{"android":"levelo://app?vid=42504198-7683-425c-bc1a-4188fde13f5b","ios":"levelo://app?vid=42504198-7683-425c-bc1a-4188fde13f5b"},"vehicle_type_id":"4","last_reported":1734948613,"current_range_meters":36800,"station_id":"","pricing_plan_id":"cebpf4jnsgd1na2vs0mg"},{"bike_id":"4602f08c-ccf5-4982-92bf-c4dd40d6772d","system_id":"levelo_inurba_marseille","lat":43.292,"lon":5.358,"is_reserved":false,"is_disabled":false,"rental_uris":{"android":"levelo://app?vid=4602f08c-ccf5-4982-92bf-c4dd40d6772d","ios":"levelo://app?vid=4602f08c-ccf5-4982-92bf-c4dd40d6772d"},"vehicle_type_id":"4","last_reported":1734948613,"current_range_meters":38800,"station_id":"ce4bhb12rcd13ifvqel0","pricing_plan_id":"cebpf4jnsgd1na2vs0mg"},{"bike_id":"e73e6057-e6e9-407b-a17e-f4e119a96aba","system_id":"levelo_inurba_marseille","lat":43.32107,"lon":5.36771,"is_reserved":false,"is_disabled":false,"rental_uris":{"android":"levelo://app?vid=e73e6057-e6e9-407b-a17e-f4e119a96aba","ios":"levelo://app?vid=e73e6057-e6e9-407b-a17e-f4e119a96aba"},"vehicle_type_id":"4","last_reported":1734948613,"current_range_meters":8000,"station_id":"ce4bhrh2rcd13ifvqhug","pricing_plan_id":"cebpf4jnsgd1na2vs0mg"},{"bike_id":"8c23ca40-0769-4ca8-b1f0-68e8fb86c54b","system_id":"levelo_inurba_marseille","lat":43.24999,"lon":5.38923,"is_reserved":false,"is_disabled":false,"rental_uris":{"android":"levelo://app?vid=8c23ca40-0769-4ca8-b1f0-68e8fb86c54b","ios":"levelo://app?vid=8c23ca40-0769-4ca8-b1f0-68e8fb86c54b"},"vehicle_type_id":"4","last_reported":1734948613,"current_range_meters":9600,"station_id":"ce4bhgp2rcd13ifvqfd0","pricing_plan_id":"cebpf4jnsgd1na2vs0mg"},{"bike_id":"ff19ce84-10b6-4ffc-b9fc-1625914b166c","system_id":"levelo_inurba_marseille","lat":43.29716,"lon":5.36618,"is_reserved":false,"is_disabled":false,"rental_uris":{"android":"levelo://app?vid=ff19ce84-10b6-4ffc-b9fc-1625914b166c","ios":"levelo://app?vid=ff19ce84-10b6-4ffc-b9fc-1625914b166c"},"vehicle_type_id":"4","last_reported":1734948613,"current_range_meters":29600,"station_id":"ce4bgn12rcd13ifvqbt0","pricing_plan_id":"cebpf4jnsgd1na2vs0mg"},{"bike_id":"1727fd52-b784-483c-a0cc-d70db2540d06","system_id":"levelo_inurba_marseille","lat":43.30552,"lon":5.36534,"is_reserved":false,"is_disabled":false,"rental_uris":{"android":"levelo://app?vid=1727fd52-b784-483c-a0cc-d70db2540d06","ios":"levelo://app?vid=1727fd52-b784-483c-a0cc-d70db2540d06"},"vehicle_type_id":"4","last_reported":1734948613,"current_range_meters":30800,"station_id":"ce4bgs12rcd13ifvqcag","pricing_plan_id":"cebpf4jnsgd1na2vs0mg"},{"bike_id":"c99ba480-bd0d-4379-ae34-4ed49b478ae0","system_id":"levelo_inurba_marseille","lat":43.26208,"lon":5.37441,"is_reserved":false,"is_disabled":false,"rental_uris":{"android":"levelo://app?vid=c99ba480-bd0d-4379-ae34-4ed49b478ae0","ios":"levelo://app?vid=c99ba480-bd0d-4379-ae34-4ed49b478ae0"},"vehicle_type_id":"4","last_reported":1734948613,"current_range_meters":22000,"station_id":"ce4bhgp2rcd13ifvqfc0","pricing_plan_id":"cebpf4jnsgd1na2vs0mg"},{"bike_id":"2ecd7a5c-6b03-4906-a193-c1bc16b7668c","system_id":"levelo_inurba_marseille","lat":43.302427,"lon":5.40078,"is_reserved":false,"is_disabled":true,"rental_uris":{"android":"levelo://app?vid=2ecd7a5c-6b03-4906-a193-c1bc16b7668c","ios":"levelo://app?vid=2ecd7a5c-6b03-4906-a193-c1bc16b7668c"},"vehicle_type_id":"4","last_reported":1734948613,"current_range_meters":33600,"station_id":"ce4bgvh2rcd13ifvqcs0","pricing_plan_id":"cebpf4jnsgd1na2vs0mg"},{"bike_id":"4bcb37c0-9249-499d-890c-0bbf93d29f8b","system_id":"levelo_inurba_marseille","lat":43.23188,"lon":5.35554,"is_reserved":false,"is_disabled":true,"rental_uris":{"android":"levelo://app?vid=4bcb37c0-9249-499d-890c-0bbf93d29f8b","ios":"levelo://app?vid=4bcb37c0-9249-499d-890c-0bbf93d29f8b"},"vehicle_type_id":"4","last_reported":1734948613,"current_range_meters":23200,"station_id":"ce4bhu92rcd13ifvqi70","pricing_plan_id":"cebpf4jnsgd1na2vs0mg"},{"bike_id":"57263b19-bd39-4f7b-b29d-fb59d05995ff","system_id":"levelo_inurba_marseille","lat":43.24657,"lon":5.37706,"is_reserved":false,"is_disabled":false,"rental_uris":{"android":"levelo://app?vid=57263b19-bd39-4f7b-b29d-fb59d05995ff","ios":"levelo://app?vid=57263b19-bd39-4f7b-b29d-fb59d05995ff"},"vehicle_type_id":"4","last_reported":1734948613,"current_range_meters":9600,"station_id":"","pricing_plan_id":"cebpf4jnsgd1na2vs0mg"},{"bike_id":"5b22937c-462e-4f52-b2bb-868d31258da1","system_id":"levelo_inurba_marseille","lat":43.31365,"lon":5.38501,"is_reserved":false,"is_disabled":true,"rental_uris":{"android":"levelo://app?vid=5b22937c-462e-4f52-b2bb-868d31258da1","ios":"levelo://app?vid=5b22937c-462e-4f52-b2bb-868d31258da1"},"vehicle_type_id":"4","last_reported":1734948613,"current_range_meters":0,"station_id":"ce4bgt92rcd13ifvqcf0","pricing_plan_id":"cebpf4jnsgd1na2vs0mg"},{"bike_id":"8b9d5d43-e1e5-4987-a650-78e7d5f537cc","system_id":"levelo_inurba_marseille","lat":43.29717,"lon":5.36609,"is_reserved":false,"is_disabled":false,"rental_uris":{"android":"levelo://app?vid=8b9d5d43-e1e5-4987-a650-78e7d5f537cc","ios":"levelo://app?vid=8b9d5d43-e1e5-4987-a650-78e7d5f537cc"},"vehicle_type_id":"4","last_reported":1734948613,"current_range_meters":38800,"station_id":"ce4bgn12rcd13ifvqbt0","pricing_plan_id":"cebpf4jnsgd1na2vs0mg"},{"bike_id":"277e0065-39b5-481d-a1c9-f89d0a6ad1d1","system_id":"levelo_inurba_marseille","lat":43.29975,"lon":5.38487,"is_reserved":false,"is_disabled":false,"rental_uris":{"android":"levelo://app?vid=277e0065-39b5-481d-a1c9-f89d0a6ad1d1","ios":"levelo://app?vid=277e0065-39b5-481d-a1c9-f89d0a6ad1d1"},"vehicle_type_id":"4","last_reported":1734948613,"current_range_meters":36000,"station_id":"ce4bgj92rcd13ifvqbd0","pricing_plan_id":"cebpf4jnsgd1na2vs0mg"},{"bike_id":"a4f2a1ba-4c33-4d0d-8c83-eb221d73f773","system_id":"levelo_inurba_marseille","lat":43.29605,"lon":5.37731,"is_reserved":false,"is_disabled":false,"rental_uris":{"android":"levelo://app?vid=a4f2a1ba-4c33-4d0d-8c83-eb221d73f773","ios":"levelo://app?vid=a4f2a1ba-4c33-4d0d-8c83-eb221d73f773"},"vehicle_type_id":"4","last_reported":1734948613,"current_range_meters":26800,"station_id":"ce4bgi92rcd13ifvqb90","pricing_plan_id":"cebpf4jnsgd1na2vs0mg"},{"bike_id":"343bc065-3555-49ac-90b9-9f9335d87211","system_id":"levelo_inurba_marseille","lat":43.2582,"lon":5.39441,"is_reserved":false,"is_disabled":false,"rental_uris":{"android":"levelo://app?vid=343bc065-3555-49ac-90b9-9f9335d87211","ios":"levelo://app?vid=343bc065-3555-49ac-90b9-9f9335d87211"},"vehicle_type_id":"4","last_reported":1734948613,"current_range_meters":34000,"station_id":"ce4bhip2rcd13ifvqft0","pricing_plan_id":"cebpf4jnsgd1na2vs0mg"},{"bike_id":"ddbfce67-cbf8-4481-9917-3eaa981e7b2e","system_id":"levelo_inurba_marseille","lat":43.22928,"lon":5.35384,"is_reserved":false,"is_disabled":false,"rental_uris":{"android":"levelo://app?vid=ddbfce67-cbf8-4481-9917-3eaa981e7b2e","ios":"levelo://app?vid=ddbfce67-cbf8-4481-9917-3eaa981e7b2e"},"vehicle_type_id":"4","last_reported":1734948613,"current_range_meters":28400,"station_id":"cpo3532slgdg3j2ikp40","pricing_plan_id":"cebpf4jnsgd1na2vs0mg"},{"bike_id":"f05c7e32-ee1f-4822-9688-1d8bdc5b4813","system_id":"levelo_inurba_marseille","lat":43.2668,"lon":5.38267,"is_reserved":false,"is_disabled":false,"rental_uris":{"android":"levelo://app?vid=f05c7e32-ee1f-4822-9688-1d8bdc5b4813","ios":"levelo://app?vid=f05c7e32-ee1f-4822-9688-1d8bdc5b4813"},"vehicle_type_id":"4","last_reported":1734948613,"current_range_meters":38800,"station_id":"ce4bhg92rcd13ifvqf90","pricing_plan_id":"cebpf4jnsgd1na2vs0mg"},{"bike_id":"0a349881-46d8-4ec0-9688-78a828092ccc","system_id":"levelo_inurba_marseille","lat":43.27564,"lon":5.38418,"is_reserved":false,"is_disabled":false,"rental_uris":{"android":"levelo://app?vid=0a349881-46d8-4ec0-9688-78a828092ccc","ios":"levelo://app?vid=0a349881-46d8-4ec0-9688-78a828092ccc"},"vehicle_type_id":"4","last_reported":1734948613,"current_range_meters":38800,"station_id":"ce4bhh92rcd13ifvqfi0","pricing_plan_id":"cebpf4jnsgd1na2vs0mg"},{"bike_id":"dad6db58-f5bc-4da2-b0b4-3d5d1002166b","system_id":"levelo_inurba_marseille","lat":43.32111,"lon":5.36775,"is_reserved":false,"is_disabled":false,"rental_uris":{"android":"levelo://app?vid=dad6db58-f5bc-4da2-b0b4-3d5d1002166b","ios":"levelo://app?vid=dad6db58-f5bc-4da2-b0b4-3d5d1002166b"},"vehicle_type_id":"4","last_reported":1734948613,"current_range_meters":36800,"station_id":"ce4bhrh2rcd13ifvqhug","pricing_plan_id":"cebpf4jnsgd1na2vs0mg"},{"bike_id":"60770c9f-5288-402e-a2f3-9eefe1cc354e","system_id":"levelo_inurba_marseille","lat":43.29568,"lon":5.37496,"is_reserved":false,"is_disabled":false,"rental_uris":{"android":"levelo://app?vid=60770c9f-5288-402e-a2f3-9eefe1cc354e","ios":"levelo://app?vid=60770c9f-5288-402e-a2f3-9eefe1cc354e"},"vehicle_type_id":"4","last_reported":1734948613,"current_range_meters":19600,"station_id":"ce4bgh92rcd13ifvqb50","pricing_plan_id":"cebpf4jnsgd1na2vs0mg"},{"bike_id":"c62ea572-95ea-4fcd-b6c4-2659a1188d61","system_id":"levelo_inurba_marseille","lat":43.31168,"lon":5.38717,"is_reserved":false,"is_disabled":false,"rental_uris":{"android":"levelo://app?vid=c62ea572-95ea-4fcd-b6c4-2659a1188d61","ios":"levelo://app?vid=c62ea572-95ea-4fcd-b6c4-2659a1188d61"},"vehicle_type_id":"4","last_reported":1734948613,"current_range_meters":39200,"station_id":"ce4bgv12rcd13ifvqcp0","pricing_plan_id":"cebpf4jnsgd1na2vs0mg"},{"bike_id":"6507bce1-e9b4-4aad-bbab-13ef4b5297a4","system_id":"levelo_inurba_marseille","lat":43.31724,"lon":5.42401,"is_reserved":false,"is_disabled":false,"rental_uris":{"android":"levelo://app?vid=6507bce1-e9b4-4aad-bbab-13ef4b5297a4","ios":"levelo://app?vid=6507bce1-e9b4-4aad-bbab-13ef4b5297a4"},"vehicle_type_id":"4","last_reported":1734948613,"current_range_meters":39200,"station_id":"ce4bhp92rcd13ifvqhbg","pricing_plan_id":"cebpf4jnsgd1na2vs0mg"},{"bike_id":"eae506a3-9f78-4227-a9ba-e37197863c70","system_id":"levelo_inurba_marseille","lat":43.30914,"lon":5.36857,"is_reserved":false,"is_disabled":false,"rental_uris":{"android":"levelo://app?vid=eae506a3-9f78-4227-a9ba-e37197863c70","ios":"levelo://app?vid=eae506a3-9f78-4227-a9ba-e37197863c70"},"vehicle_type_id":"4","last_reported":1734948613,"current_range_meters":38800,"station_id":"ce4bgn92rcd13ifvqbvg","pricing_plan_id":"cebpf4jnsgd1na2vs0mg"},{"bike_id":"1eef5757-2a74-4727-868d-9821df78eaa2","system_id":"levelo_inurba_marseille","lat":43.2587,"lon":5.39905,"is_reserved":false,"is_disabled":false,"rental_uris":{"android":"levelo://app?vid=1eef5757-2a74-4727-868d-9821df78eaa2","ios":"levelo://app?vid=1eef5757-2a74-4727-868d-9821df78eaa2"},"vehicle_type_id":"4","last_reported":1734948613,"current_range_meters":39200,"station_id":"ce4bhl92rcd13ifvqghg","pricing_plan_id":"cebpf4jnsgd1na2vs0mg"},{"bike_id":"ab786567-8bd4-45bd-b8e6-badf38aee9ee","system_id":"levelo_inurba_marseille","lat":43.31345,"lon":5.36697,"is_reserved":false,"is_disabled":true,"rental_uris":{"android":"levelo://app?vid=ab786567-8bd4-45bd-b8e6-badf38aee9ee","ios":"levelo://app?vid=ab786567-8bd4-45bd-b8e6-badf38aee9ee"},"vehicle_type_id":"4","last_reported":1734948613,"current_range_meters":38800,"station_id":"ce4bgr92rcd13ifvqc6g","pricing_plan_id":"cebpf4jnsgd1na2vs0mg"},{"bike_id":"fc89cbac-5c72-48df-b1dd-d331761b39da","system_id":"levelo_inurba_marseille","lat":43.32473,"lon":5.36564,"is_reserved":false,"is_disabled":false,"rental_uris":{"android":"levelo://app?vid=fc89cbac-5c72-48df-b1dd-d331761b39da","ios":"levelo://app?vid=fc89cbac-5c72-48df-b1dd-d331761b39da"},"vehicle_type_id":"4","last_reported":1734948613,"current_range_meters":13600,"station_id":"ce4bhs12rcd13ifvqhvg","pricing_plan_id":"cebpf4jnsgd1na2vs0mg"},{"bike_id":"7d51f556-7ada-4233-9b93-03f8f492aa76","system_id":"levelo_inurba_marseille","lat":43.24542,"lon":5.39516,"is_reserved":false,"is_disabled":true,"rental_uris":{"android":"levelo://app?vid=7d51f556-7ada-4233-9b93-03f8f492aa76","ios":"levelo://app?vid=7d51f556-7ada-4233-9b93-03f8f492aa76"},"vehicle_type_id":"4","last_reported":1734948613,"current_range_meters":12800,"station_id":"ce4bhlp2rcd13ifvqgjg","pricing_plan_id":"cebpf4jnsgd1na2vs0mg"},{"bike_id":"3bdd61d6-e4c3-4336-a2b3-6f388d794652","system_id":"levelo_inurba_marseille","lat":43.27067,"lon":5.42277,"is_reserved":false,"is_disabled":false,"rental_uris":{"android":"levelo://app?vid=3bdd61d6-e4c3-4336-a2b3-6f388d794652","ios":"levelo://app?vid=3bdd61d6-e4c3-4336-a2b3-6f388d794652"},"vehicle_type_id":"4","last_reported":1734948613,"current_range_meters":36800,"station_id":"ce4bhk92rcd13ifvqgb0","pricing_plan_id":"cebpf4jnsgd1na2vs0mg"},{"bike_id":"50ed8d09-e307-4804-8048-b331687ea0e6","system_id":"levelo_inurba_marseille","lat":43.24665,"lon":5.38166,"is_reserved":false,"is_disabled":false,"rental_uris":{"android":"levelo://app?vid=50ed8d09-e307-4804-8048-b331687ea0e6","ios":"levelo://app?vid=50ed8d09-e307-4804-8048-b331687ea0e6"},"vehicle_type_id":"4","last_reported":1734948613,"current_range_meters":24800,"station_id":"ce4bhih2rcd13ifvqfr0","pricing_plan_id":"cebpf4jnsgd1na2vs0mg"},{"bike_id":"2ca5a92b-43a3-4bdb-885c-14b63b262c52","system_id":"levelo_inurba_marseille","lat":43.28567,"lon":5.39496,"is_reserved":false,"is_disabled":false,"rental_uris":{"android":"levelo://app?vid=2ca5a92b-43a3-4bdb-885c-14b63b262c52","ios":"levelo://app?vid=2ca5a92b-43a3-4bdb-885c-14b63b262c52"},"vehicle_type_id":"4","last_reported":1734948613,"current_range_meters":38800,"station_id":"ce4bh292rcd13ifvqdg0","pricing_plan_id":"cebpf4jnsgd1na2vs0mg"},{"bike_id":"71365203-264c-4804-af64-6a13e7e9827b","system_id":"levelo_inurba_marseille","lat":43.30313,"lon":5.36896,"is_reserved":false,"is_disabled":false,"rental_uris":{"android":"levelo://app?vid=71365203-264c-4804-af64-6a13e7e9827b","ios":"levelo://app?vid=71365203-264c-4804-af64-6a13e7e9827b"},"vehicle_type_id":"4","last_reported":1734948613,"current_range_meters":28000,"station_id":"ce4bgqh2rcd13ifvqc5g","pricing_plan_id":"cebpf4jnsgd1na2vs0mg"},{"bike_id":"a59b4cb8-90c9-45c9-b1be-98d2502dd8e7","system_id":"levelo_inurba_marseille","lat":43.24663,"lon":5.38154,"is_reserved":false,"is_disabled":false,"rental_uris":{"android":"levelo://app?vid=a59b4cb8-90c9-45c9-b1be-98d2502dd8e7","ios":"levelo://app?vid=a59b4cb8-90c9-45c9-b1be-98d2502dd8e7"},"vehicle_type_id":"4","last_reported":1734948613,"current_range_meters":27200,"station_id":"ce4bhih2rcd13ifvqfr0","pricing_plan_id":"cebpf4jnsgd1na2vs0mg"},{"bike_id":"4c4857d7-70f5-4e5f-9880-b0ffae53456c","system_id":"levelo_inurba_marseille","lat":43.31203,"lon":5.36831,"is_reserved":false,"is_disabled":false,"rental_uris":{"android":"levelo://app?vid=4c4857d7-70f5-4e5f-9880-b0ffae53456c","ios":"levelo://app?vid=4c4857d7-70f5-4e5f-9880-b0ffae53456c"},"vehicle_type_id":"4","last_reported":1734948613,"current_range_meters":30400,"station_id":"ce4bgl92rcd13ifvqbq0","pricing_plan_id":"cebpf4jnsgd1na2vs0mg"},{"bike_id":"5454f0d7-ef31-4315-9d53-d90419166723","system_id":"levelo_inurba_marseille","lat":43.24991,"lon":5.38937,"is_reserved":false,"is_disabled":false,"rental_uris":{"android":"levelo://app?vid=5454f0d7-ef31-4315-9d53-d90419166723","ios":"levelo://app?vid=5454f0d7-ef31-4315-9d53-d90419166723"},"vehicle_type_id":"4","last_reported":1734948613,"current_range_meters":20000,"station_id":"ce4bhgp2rcd13ifvqfd0","pricing_plan_id":"cebpf4jnsgd1na2vs0mg"},{"bike_id":"aca644f7-1dca-4969-8fda-f7acf7913db7","system_id":"levelo_inurba_marseille","lat":43.28454,"lon":5.38563,"is_reserved":false,"is_disabled":false,"rental_uris":{"android":"levelo://app?vid=aca644f7-1dca-4969-8fda-f7acf7913db7","ios":"levelo://app?vid=aca644f7-1dca-4969-8fda-f7acf7913db7"},"vehicle_type_id":"4","last_reported":1734948613,"current_range_meters":38000,"station_id":"ce4bh8p2rcd13ifvqeb0","pricing_plan_id":"cebpf4jnsgd1na2vs0mg"},{"bike_id":"e49c0908-b584-44dc-a33b-91192daad42a","system_id":"levelo_inurba_marseille","lat":43.29589,"lon":5.36766,"is_reserved":false,"is_disabled":true,"rental_uris":{"android":"levelo://app?vid=e49c0908-b584-44dc-a33b-91192daad42a","ios":"levelo://app?vid=e49c0908-b584-44dc-a33b-91192daad42a"},"vehicle_type_id":"4","last_reported":1734948613,"current_range_meters":28800,"station_id":"","pricing_plan_id":"cebpf4jnsgd1na2vs0mg"},{"bike_id":"84e09380-e07c-4182-a487-97ea66008fd0","system_id":"levelo_inurba_marseille","lat":43.297864,"lon":5.381058,"is_reserved":false,"is_disabled":true,"rental_uris":{"android":"levelo://app?vid=84e09380-e07c-4182-a487-97ea66008fd0","ios":"levelo://app?vid=84e09380-e07c-4182-a487-97ea66008fd0"},"vehicle_type_id":"4","last_reported":1734948613,"current_range_meters":21600,"station_id":"ce4bgip2rcd13ifvqbb0","pricing_plan_id":"cebpf4jnsgd1na2vs0mg"},{"bike_id":"9c7eeb5b-f97e-4fc2-ab19-aaf7531bd9e2","system_id":"levelo_inurba_marseille","lat":43.30148,"lon":5.38094,"is_reserved":false,"is_disabled":false,"rental_uris":{"android":"levelo://app?vid=9c7eeb5b-f97e-4fc2-ab19-aaf7531bd9e2","ios":"levelo://app?vid=9c7eeb5b-f97e-4fc2-ab19-aaf7531bd9e2"},"vehicle_type_id":"4","last_reported":1734948613,"current_range_meters":30800,"station_id":"ce4bgjp2rcd13ifvqbh0","pricing_plan_id":"cebpf4jnsgd1na2vs0mg"},{"bike_id":"a39bdc39-5733-4feb-9497-618e66a553aa","system_id":"levelo_inurba_marseille","lat":43.31326,"lon":5.39688,"is_reserved":false,"is_disabled":false,"rental_uris":{"android":"levelo://app?vid=a39bdc39-5733-4feb-9497-618e66a553aa","ios":"levelo://app?vid=a39bdc39-5733-4feb-9497-618e66a553aa"},"vehicle_type_id":"4","last_reported":1734948613,"current_range_meters":38800,"station_id":"ce4bgvp2rcd13ifvqcu0","pricing_plan_id":"cebpf4jnsgd1na2vs0mg"},{"bike_id":"85d62086-a3d1-49e3-9f87-bf67844518de","system_id":"levelo_inurba_marseille","lat":43.29014,"lon":5.35612,"is_reserved":false,"is_disabled":false,"rental_uris":{"android":"levelo://app?vid=85d62086-a3d1-49e3-9f87-bf67844518de","ios":"levelo://app?vid=85d62086-a3d1-49e3-9f87-bf67844518de"},"vehicle_type_id":"4","last_reported":1734948613,"current_range_meters":38800,"station_id":"ce4bhb92rcd13ifvqen0","pricing_plan_id":"cebpf4jnsgd1na2vs0mg"},{"bike_id":"ee331041-93c8-4661-8147-0a95f1e11bec","system_id":"levelo_inurba_marseille","lat":43.31359,"lon":5.3673,"is_reserved":false,"is_disabled":false,"rental_uris":{"android":"levelo://app?vid=ee331041-93c8-4661-8147-0a95f1e11bec","ios":"levelo://app?vid=ee331041-93c8-4661-8147-0a95f1e11bec"},"vehicle_type_id":"4","last_reported":1734948613,"current_range_meters":25200,"station_id":"ce4bgr92rcd13ifvqc6g","pricing_plan_id":"cebpf4jnsgd1na2vs0mg"},{"bike_id":"f8416cf3-28eb-4197-9702-1f7d128bf330","system_id":"levelo_inurba_marseille","lat":43.2957,"lon":5.37512,"is_reserved":false,"is_disabled":false,"rental_uris":{"android":"levelo://app?vid=f8416cf3-28eb-4197-9702-1f7d128bf330","ios":"levelo://app?vid=f8416cf3-28eb-4197-9702-1f7d128bf330"},"vehicle_type_id":"4","last_reported":1734948613,"current_range_meters":28400,"station_id":"ce4bgh92rcd13ifvqb50","pricing_plan_id":"cebpf4jnsgd1na2vs0mg"},{"bike_id":"ded90c74-f6b9-417a-a609-2eb91947766e","system_id":"levelo_inurba_marseille","lat":43.23182,"lon":5.39984,"is_reserved":false,"is_disabled":false,"rental_uris":{"android":"levelo://app?vid=ded90c74-f6b9-417a-a609-2eb91947766e","ios":"levelo://app?vid=ded90c74-f6b9-417a-a609-2eb91947766e"},"vehicle_type_id":"4","last_reported":1734948613,"current_range_meters":28800,"station_id":"ce4bhn12rcd13ifvqgqg","pricing_plan_id":"cebpf4jnsgd1na2vs0mg"},{"bike_id":"b90b88ca-29ac-4ef1-b1c2-b462caae62b3","system_id":"levelo_inurba_marseille","lat":43.28015,"lon":5.36928,"is_reserved":false,"is_disabled":false,"rental_uris":{"android":"levelo://app?vid=b90b88ca-29ac-4ef1-b1c2-b462caae62b3","ios":"levelo://app?vid=b90b88ca-29ac-4ef1-b1c2-b462caae62b3"},"vehicle_type_id":"4","last_reported":1734948613,"current_range_meters":38800,"station_id":"ce4bha12rcd13ifvqef0","pricing_plan_id":"cebpf4jnsgd1na2vs0mg"},{"bike_id":"0be171d5-0e06-4390-96e9-9631764e7dbe","system_id":"levelo_inurba_marseille","lat":43.28476,"lon":5.39239,"is_reserved":false,"is_disabled":false,"rental_uris":{"android":"levelo://app?vid=0be171d5-0e06-4390-96e9-9631764e7dbe","ios":"levelo://app?vid=0be171d5-0e06-4390-96e9-9631764e7dbe"},"vehicle_type_id":"4","last_reported":1734948613,"current_range_meters":33200,"station_id":"ce4bhoh2rcd13ifvqh5g","pricing_plan_id":"cebpf4jnsgd1na2vs0mg"},{"bike_id":"64eb4fe8-ad6f-4a97-94a1-b6abf55cf5ba","system_id":"levelo_inurba_marseille","lat":43.2694,"lon":5.40265,"is_reserved":false,"is_disabled":false,"rental_uris":{"android":"levelo://app?vid=64eb4fe8-ad6f-4a97-94a1-b6abf55cf5ba","ios":"levelo://app?vid=64eb4fe8-ad6f-4a97-94a1-b6abf55cf5ba"},"vehicle_type_id":"4","last_reported":1734948613,"current_range_meters":31200,"station_id":"cjm6bp8fraef2m0cb0m0","pricing_plan_id":"cebpf4jnsgd1na2vs0mg"},{"bike_id":"54c315b6-ce30-4d23-99a7-a112ef2b7153","system_id":"levelo_inurba_marseille","lat":43.2668,"lon":5.38272,"is_reserved":false,"is_disabled":false,"rental_uris":{"android":"levelo://app?vid=54c315b6-ce30-4d23-99a7-a112ef2b7153","ios":"levelo://app?vid=54c315b6-ce30-4d23-99a7-a112ef2b7153"},"vehicle_type_id":"4","last_reported":1734948613,"current_range_meters":38800,"station_id":"ce4bhg92rcd13ifvqf90","pricing_plan_id":"cebpf4jnsgd1na2vs0mg"},{"bike_id":"4723ef55-16c9-41eb-8289-ad28982c8a6d","system_id":"levelo_inurba_marseille","lat":43.26936,"lon":5.40251,"is_reserved":false,"is_disabled":false,"rental_uris":{"android":"levelo://app?vid=4723ef55-16c9-41eb-8289-ad28982c8a6d","ios":"levelo://app?vid=4723ef55-16c9-41eb-8289-ad28982c8a6d"},"vehicle_type_id":"4","last_reported":1734948613,"current_range_meters":12400,"station_id":"cjm6bp8fraef2m0cb0m0","pricing_plan_id":"cebpf4jnsgd1na2vs0mg"},{"bike_id":"fa46f150-8345-4c47-89dc-dd714e8f2794","system_id":"levelo_inurba_marseille","lat":43.29736,"lon":5.36618,"is_reserved":false,"is_disabled":false,"rental_uris":{"android":"levelo://app?vid=fa46f150-8345-4c47-89dc-dd714e8f2794","ios":"levelo://app?vid=fa46f150-8345-4c47-89dc-dd714e8f2794"},"vehicle_type_id":"4","last_reported":1734948613,"current_range_meters":38000,"station_id":"ce4bgn12rcd13ifvqbt0","pricing_plan_id":"cebpf4jnsgd1na2vs0mg"},{"bike_id":"3f135262-7716-4bc6-a226-159be503a304","system_id":"levelo_inurba_marseille","lat":43.29436,"lon":5.39753,"is_reserved":false,"is_disabled":false,"rental_uris":{"android":"levelo://app?vid=3f135262-7716-4bc6-a226-159be503a304","ios":"levelo://app?vid=3f135262-7716-4bc6-a226-159be503a304"},"vehicle_type_id":"4","last_reported":1734948613,"current_range_meters":17200,"station_id":"ce4bh3h2rcd13ifvqdo0","pricing_plan_id":"cebpf4jnsgd1na2vs0mg"},{"bike_id":"003aae39-aa69-461e-a6ef-27f392d68f80","system_id":"levelo_inurba_marseille","lat":43.307733,"lon":5.3817,"is_reserved":false,"is_disabled":false,"rental_uris":{"android":"levelo://app?vid=003aae39-aa69-461e-a6ef-27f392d68f80","ios":"levelo://app?vid=003aae39-aa69-461e-a6ef-27f392d68f80"},"vehicle_type_id":"4","last_reported":1734948613,"current_range_meters":24800,"station_id":"ce4bh092rcd13ifvqd30","pricing_plan_id":"cebpf4jnsgd1na2vs0mg"},{"bike_id":"3174c70f-58ab-444d-925c-f2800db09601","system_id":"levelo_inurba_marseille","lat":43.29533,"lon":5.37501,"is_reserved":false,"is_disabled":false,"rental_uris":{"android":"levelo://app?vid=3174c70f-58ab-444d-925c-f2800db09601","ios":"levelo://app?vid=3174c70f-58ab-444d-925c-f2800db09601"},"vehicle_type_id":"4","last_reported":1734948613,"current_range_meters":33600,"station_id":"ce4bgkp2rcd13ifvqbmg","pricing_plan_id":"cebpf4jnsgd1na2vs0mg"},{"bike_id":"f25eaf0b-1452-4e92-be63-c0d5987b6cbc","system_id":"levelo_inurba_marseille","lat":43.27981,"lon":5.38756,"is_reserved":false,"is_disabled":false,"rental_uris":{"android":"levelo://app?vid=f25eaf0b-1452-4e92-be63-c0d5987b6cbc","ios":"levelo://app?vid=f25eaf0b-1452-4e92-be63-c0d5987b6cbc"},"vehicle_type_id":"4","last_reported":1734948613,"current_range_meters":38000,"station_id":"ce4bhg12rcd13ifvqf80","pricing_plan_id":"cebpf4jnsgd1na2vs0mg"},{"bike_id":"ff56034c-dd12-401a-8a88-7523c2f1a1ed","system_id":"levelo_inurba_marseille","lat":43.26063,"lon":5.39373,"is_reserved":false,"is_disabled":false,"rental_uris":{"android":"levelo://app?vid=ff56034c-dd12-401a-8a88-7523c2f1a1ed","ios":"levelo://app?vid=ff56034c-dd12-401a-8a88-7523c2f1a1ed"},"vehicle_type_id":"4","last_reported":1734948613,"current_range_meters":39200,"station_id":"ce4bhh92rcd13ifvqfj0","pricing_plan_id":"cebpf4jnsgd1na2vs0mg"},{"bike_id":"fb84cb07-349c-4dd6-9ee1-71d110a804a7","system_id":"levelo_inurba_marseille","lat":43.29544,"lon":5.42244,"is_reserved":false,"is_disabled":false,"rental_uris":{"android":"levelo://app?vid=fb84cb07-349c-4dd6-9ee1-71d110a804a7","ios":"levelo://app?vid=fb84cb07-349c-4dd6-9ee1-71d110a804a7"},"vehicle_type_id":"4","last_reported":1734948613,"current_range_meters":38800,"station_id":"ce4bhph2rcd13ifvqhdg","pricing_plan_id":"cebpf4jnsgd1na2vs0mg"},{"bike_id":"33ae1ba2-17d4-483e-b4b1-e8e27e931226","system_id":"levelo_inurba_marseille","lat":43.33725,"lon":5.3918,"is_reserved":false,"is_disabled":false,"rental_uris":{"android":"levelo://app?vid=33ae1ba2-17d4-483e-b4b1-e8e27e931226","ios":"levelo://app?vid=33ae1ba2-17d4-483e-b4b1-e8e27e931226"},"vehicle_type_id":"4","last_reported":1734948613,"current_range_meters":38800,"station_id":"ce4bhr92rcd13ifvqhsg","pricing_plan_id":"cebpf4jnsgd1na2vs0mg"},{"bike_id":"591e56d3-570f-4000-8104-235340497ab2","system_id":"levelo_inurba_marseille","lat":43.280306,"lon":5.369376,"is_reserved":false,"is_disabled":false,"rental_uris":{"android":"levelo://app?vid=591e56d3-570f-4000-8104-235340497ab2","ios":"levelo://app?vid=591e56d3-570f-4000-8104-235340497ab2"},"vehicle_type_id":"4","last_reported":1734948613,"current_range_meters":38800,"station_id":"ce4bha12rcd13ifvqef0","pricing_plan_id":"cebpf4jnsgd1na2vs0mg"},{"bike_id":"9b351026-5d22-44c1-a746-79021e24c791","system_id":"levelo_inurba_marseille","lat":43.26199,"lon":5.37929,"is_reserved":false,"is_disabled":false,"rental_uris":{"android":"levelo://app?vid=9b351026-5d22-44c1-a746-79021e24c791","ios":"levelo://app?vid=9b351026-5d22-44c1-a746-79021e24c791"},"vehicle_type_id":"4","last_reported":1734948613,"current_range_meters":16800,"station_id":"ce4bhjp2rcd13ifvqg90","pricing_plan_id":"cebpf4jnsgd1na2vs0mg"},{"bike_id":"17c8ca44-2370-40ed-a2ff-3881fd21ee02","system_id":"levelo_inurba_marseille","lat":43.23181,"lon":5.39986,"is_reserved":false,"is_disabled":false,"rental_uris":{"android":"levelo://app?vid=17c8ca44-2370-40ed-a2ff-3881fd21ee02","ios":"levelo://app?vid=17c8ca44-2370-40ed-a2ff-3881fd21ee02"},"vehicle_type_id":"4","last_reported":1734948613,"current_range_meters":38800,"station_id":"ce4bhn12rcd13ifvqgqg","pricing_plan_id":"cebpf4jnsgd1na2vs0mg"},{"bike_id":"5d7991d9-db62-4a4f-b314-15232bcbcf80","system_id":"levelo_inurba_marseille","lat":43.25582,"lon":5.38224,"is_reserved":false,"is_disabled":false,"rental_uris":{"android":"levelo://app?vid=5d7991d9-db62-4a4f-b314-15232bcbcf80","ios":"levelo://app?vid=5d7991d9-db62-4a4f-b314-15232bcbcf80"},"vehicle_type_id":"4","last_reported":1734948613,"current_range_meters":26000,"station_id":"ce4bhih2rcd13ifvqfs0","pricing_plan_id":"cebpf4jnsgd1na2vs0mg"},{"bike_id":"9dc0f52d-7c1a-4f46-9801-22ade11442f0","system_id":"levelo_inurba_marseille","lat":43.29023,"lon":5.38137,"is_reserved":false,"is_disabled":false,"rental_uris":{"android":"levelo://app?vid=9dc0f52d-7c1a-4f46-9801-22ade11442f0","ios":"levelo://app?vid=9dc0f52d-7c1a-4f46-9801-22ade11442f0"},"vehicle_type_id":"4","last_reported":1734948613,"current_range_meters":6000,"station_id":"ce4bh4p2rcd13ifvqe1g","pricing_plan_id":"cebpf4jnsgd1na2vs0mg"},{"bike_id":"cab7afd9-714c-4536-880e-35df8fe42304","system_id":"levelo_inurba_marseille","lat":43.30437,"lon":5.39744,"is_reserved":false,"is_disabled":false,"rental_uris":{"android":"levelo://app?vid=cab7afd9-714c-4536-880e-35df8fe42304","ios":"levelo://app?vid=cab7afd9-714c-4536-880e-35df8fe42304"},"vehicle_type_id":"4","last_reported":1734948613,"current_range_meters":39200,"station_id":"ce4bh092rcd13ifvqd20","pricing_plan_id":"cebpf4jnsgd1na2vs0mg"},{"bike_id":"46611bb0-2fc9-4dc9-9dfe-ebe29c8484c7","system_id":"levelo_inurba_marseille","lat":43.32657,"lon":5.40998,"is_reserved":false,"is_disabled":false,"rental_uris":{"android":"levelo://app?vid=46611bb0-2fc9-4dc9-9dfe-ebe29c8484c7","ios":"levelo://app?vid=46611bb0-2fc9-4dc9-9dfe-ebe29c8484c7"},"vehicle_type_id":"4","last_reported":1734948613,"current_range_meters":38800,"station_id":"ce4bhpp2rcd13ifvqhgg","pricing_plan_id":"cebpf4jnsgd1na2vs0mg"},{"bike_id":"1bfb59b3-5d70-4c84-8077-a6771e996a2b","system_id":"levelo_inurba_marseille","lat":43.29914,"lon":5.36526,"is_reserved":false,"is_disabled":false,"rental_uris":{"android":"levelo://app?vid=1bfb59b3-5d70-4c84-8077-a6771e996a2b","ios":"levelo://app?vid=1bfb59b3-5d70-4c84-8077-a6771e996a2b"},"vehicle_type_id":"4","last_reported":1734948613,"current_range_meters":38800,"station_id":"ce4bgm92rcd13ifvqbr0","pricing_plan_id":"cebpf4jnsgd1na2vs0mg"},{"bike_id":"2cb7810c-9796-4447-8a5b-b7024db57825","system_id":"levelo_inurba_marseille","lat":43.2972,"lon":5.37703,"is_reserved":false,"is_disabled":false,"rental_uris":{"android":"levelo://app?vid=2cb7810c-9796-4447-8a5b-b7024db57825","ios":"levelo://app?vid=2cb7810c-9796-4447-8a5b-b7024db57825"},"vehicle_type_id":"4","last_reported":1734948613,"current_range_meters":23200,"station_id":"ce4bgkh2rcd13ifvqbl0","pricing_plan_id":"cebpf4jnsgd1na2vs0mg"},{"bike_id":"68db534e-0067-497a-971b-c0ac21bdd722","system_id":"levelo_inurba_marseille","lat":43.2619,"lon":5.37927,"is_reserved":false,"is_disabled":false,"rental_uris":{"android":"levelo://app?vid=68db534e-0067-497a-971b-c0ac21bdd722","ios":"levelo://app?vid=68db534e-0067-497a-971b-c0ac21bdd722"},"vehicle_type_id":"4","last_reported":1734948613,"current_range_meters":38000,"station_id":"ce4bhjp2rcd13ifvqg90","pricing_plan_id":"cebpf4jnsgd1na2vs0mg"},{"bike_id":"1e73c81f-7d8d-42c9-8216-05e0c8d2e4e9","system_id":"levelo_inurba_marseille","lat":43.29608,"lon":5.37728,"is_reserved":false,"is_disabled":false,"rental_uris":{"android":"levelo://app?vid=1e73c81f-7d8d-42c9-8216-05e0c8d2e4e9","ios":"levelo://app?vid=1e73c81f-7d8d-42c9-8216-05e0c8d2e4e9"},"vehicle_type_id":"4","last_reported":1734948613,"current_range_meters":39200,"station_id":"ce4bgi92rcd13ifvqb90","pricing_plan_id":"cebpf4jnsgd1na2vs0mg"},{"bike_id":"af30a030-7bba-44d5-989f-f377db8c7017","system_id":"levelo_inurba_marseille","lat":43.295613,"lon":5.375056,"is_reserved":false,"is_disabled":false,"rental_uris":{"android":"levelo://app?vid=af30a030-7bba-44d5-989f-f377db8c7017","ios":"levelo://app?vid=af30a030-7bba-44d5-989f-f377db8c7017"},"vehicle_type_id":"4","last_reported":1734948613,"current_range_meters":36400,"station_id":"ce4bgh92rcd13ifvqb50","pricing_plan_id":"cebpf4jnsgd1na2vs0mg"},{"bike_id":"18bc712f-05f8-4bfe-a81a-9b0f3911a5b1","system_id":"levelo_inurba_marseille","lat":43.27568,"lon":5.38419,"is_reserved":false,"is_disabled":false,"rental_uris":{"android":"levelo://app?vid=18bc712f-05f8-4bfe-a81a-9b0f3911a5b1","ios":"levelo://app?vid=18bc712f-05f8-4bfe-a81a-9b0f3911a5b1"},"vehicle_type_id":"4","last_reported":1734948613,"current_range_meters":38800,"station_id":"ce4bhh92rcd13ifvqfi0","pricing_plan_id":"cebpf4jnsgd1na2vs0mg"},{"bike_id":"36c91eff-7429-4d7e-bd2d-f14d3c549de8","system_id":"levelo_inurba_marseille","lat":43.26557,"lon":5.3729,"is_reserved":false,"is_disabled":false,"rental_uris":{"android":"levelo://app?vid=36c91eff-7429-4d7e-bd2d-f14d3c549de8","ios":"levelo://app?vid=36c91eff-7429-4d7e-bd2d-f14d3c549de8"},"vehicle_type_id":"4","last_reported":1734948613,"current_range_meters":18800,"station_id":"ce4bhg12rcd13ifvqf70","pricing_plan_id":"cebpf4jnsgd1na2vs0mg"},{"bike_id":"2d995820-d040-480b-a897-bf9d5f03891e","system_id":"levelo_inurba_marseille","lat":43.29376,"lon":5.37867,"is_reserved":false,"is_disabled":true,"rental_uris":{"android":"levelo://app?vid=2d995820-d040-480b-a897-bf9d5f03891e","ios":"levelo://app?vid=2d995820-d040-480b-a897-bf9d5f03891e"},"vehicle_type_id":"4","last_reported":1734948613,"current_range_meters":30800,"station_id":"ce4bgjh2rcd13ifvqbf0","pricing_plan_id":"cebpf4jnsgd1na2vs0mg"},{"bike_id":"343bdba5-56cf-4dfd-9495-0464c409cdad","system_id":"levelo_inurba_marseille","lat":43.24069,"lon":5.37762,"is_reserved":false,"is_disabled":false,"rental_uris":{"android":"levelo://app?vid=343bdba5-56cf-4dfd-9495-0464c409cdad","ios":"levelo://app?vid=343bdba5-56cf-4dfd-9495-0464c409cdad"},"vehicle_type_id":"4","last_reported":1734948613,"current_range_meters":29600,"station_id":"ce4bhnp2rcd13ifvqgvg","pricing_plan_id":"cebpf4jnsgd1na2vs0mg"},{"bike_id":"13b86537-f90d-4e73-8d81-e42239efbc6c","system_id":"levelo_inurba_marseille","lat":43.29733,"lon":5.37689,"is_reserved":false,"is_disabled":false,"rental_uris":{"android":"levelo://app?vid=13b86537-f90d-4e73-8d81-e42239efbc6c","ios":"levelo://app?vid=13b86537-f90d-4e73-8d81-e42239efbc6c"},"vehicle_type_id":"4","last_reported":1734948613,"current_range_meters":14800,"station_id":"ce4bgkh2rcd13ifvqbl0","pricing_plan_id":"cebpf4jnsgd1na2vs0mg"},{"bike_id":"8aa29a25-71b0-47b4-8794-3774a275bf08","system_id":"levelo_inurba_marseille","lat":43.27171,"lon":5.40987,"is_reserved":false,"is_disabled":false,"rental_uris":{"android":"levelo://app?vid=8aa29a25-71b0-47b4-8794-3774a275bf08","ios":"levelo://app?vid=8aa29a25-71b0-47b4-8794-3774a275bf08"},"vehicle_type_id":"4","last_reported":1734948613,"current_range_meters":21600,"station_id":"ce4bhl12rcd13ifvqgf0","pricing_plan_id":"cebpf4jnsgd1na2vs0mg"},{"bike_id":"50771762-6294-492b-bae5-db8bd88e73ed","system_id":"levelo_inurba_marseille","lat":43.27433,"lon":5.39409,"is_reserved":false,"is_disabled":false,"rental_uris":{"android":"levelo://app?vid=50771762-6294-492b-bae5-db8bd88e73ed","ios":"levelo://app?vid=50771762-6294-492b-bae5-db8bd88e73ed"},"vehicle_type_id":"4","last_reported":1734948613,"current_range_meters":30000,"station_id":"ce4bhdp2rcd13ifvqf20","pricing_plan_id":"cebpf4jnsgd1na2vs0mg"},{"bike_id":"a32643ba-7afa-4689-a15c-154e2bfcd54f","system_id":"levelo_inurba_marseille","lat":43.29097,"lon":5.38146,"is_reserved":false,"is_disabled":false,"rental_uris":{"android":"levelo://app?vid=a32643ba-7afa-4689-a15c-154e2bfcd54f","ios":"levelo://app?vid=a32643ba-7afa-4689-a15c-154e2bfcd54f"},"vehicle_type_id":"4","last_reported":1734948613,"current_range_meters":38800,"station_id":"ce4bh512rcd13ifvqe2g","pricing_plan_id":"cebpf4jnsgd1na2vs0mg"},{"bike_id":"0b1dbe83-06bc-4dd0-a526-062173db1059","system_id":"levelo_inurba_marseille","lat":43.29251,"lon":5.40884,"is_reserved":false,"is_disabled":false,"rental_uris":{"android":"levelo://app?vid=0b1dbe83-06bc-4dd0-a526-062173db1059","ios":"levelo://app?vid=0b1dbe83-06bc-4dd0-a526-062173db1059"},"vehicle_type_id":"4","last_reported":1734948613,"current_range_meters":28000,"station_id":"ce4bh192rcd13ifvqdc0","pricing_plan_id":"cebpf4jnsgd1na2vs0mg"},{"bike_id":"b75a7d7c-8504-4a7f-a82d-a67d28a5f6ac","system_id":"levelo_inurba_marseille","lat":43.26933,"lon":5.38922,"is_reserved":false,"is_disabled":false,"rental_uris":{"android":"levelo://app?vid=b75a7d7c-8504-4a7f-a82d-a67d28a5f6ac","ios":"levelo://app?vid=b75a7d7c-8504-4a7f-a82d-a67d28a5f6ac"},"vehicle_type_id":"4","last_reported":1734948613,"current_range_meters":26800,"station_id":"ce4bhhh2rcd13ifvqfl0","pricing_plan_id":"cebpf4jnsgd1na2vs0mg"},{"bike_id":"d7efaae7-c3bf-455b-9bb3-b3749e76c4cd","system_id":"levelo_inurba_marseille","lat":43.31276,"lon":5.36825,"is_reserved":false,"is_disabled":false,"rental_uris":{"android":"levelo://app?vid=d7efaae7-c3bf-455b-9bb3-b3749e76c4cd","ios":"levelo://app?vid=d7efaae7-c3bf-455b-9bb3-b3749e76c4cd"},"vehicle_type_id":"4","last_reported":1734948613,"current_range_meters":27600,"station_id":"ce4bgl92rcd13ifvqbq0","pricing_plan_id":"cebpf4jnsgd1na2vs0mg"},{"bike_id":"9a93a604-158f-437c-847a-f9b2772a28db","system_id":"levelo_inurba_marseille","lat":43.290708,"lon":5.371638,"is_reserved":false,"is_disabled":false,"rental_uris":{"android":"levelo://app?vid=9a93a604-158f-437c-847a-f9b2772a28db","ios":"levelo://app?vid=9a93a604-158f-437c-847a-f9b2772a28db"},"vehicle_type_id":"4","last_reported":1734948613,"current_range_meters":37600,"station_id":"ce4bh5p2rcd13ifvqe4g","pricing_plan_id":"cebpf4jnsgd1na2vs0mg"},{"bike_id":"fb66cd6e-c5a0-474c-9088-97f132f59360","system_id":"levelo_inurba_marseille","lat":43.29535,"lon":5.37498,"is_reserved":false,"is_disabled":false,"rental_uris":{"android":"levelo://app?vid=fb66cd6e-c5a0-474c-9088-97f132f59360","ios":"levelo://app?vid=fb66cd6e-c5a0-474c-9088-97f132f59360"},"vehicle_type_id":"4","last_reported":1734948613,"current_range_meters":35200,"station_id":"ce4bgkp2rcd13ifvqbmg","pricing_plan_id":"cebpf4jnsgd1na2vs0mg"},{"bike_id":"49580bca-7fdd-4980-ba9d-b58e16ff3054","system_id":"levelo_inurba_marseille","lat":43.29847,"lon":5.36273,"is_reserved":false,"is_disabled":false,"rental_uris":{"android":"levelo://app?vid=49580bca-7fdd-4980-ba9d-b58e16ff3054","ios":"levelo://app?vid=49580bca-7fdd-4980-ba9d-b58e16ff3054"},"vehicle_type_id":"4","last_reported":1734948613,"current_range_meters":28400,"station_id":"ce4bgpp2rcd13ifvqc3g","pricing_plan_id":"cebpf4jnsgd1na2vs0mg"},{"bike_id":"84667d0e-d7d2-4cdc-b1eb-66df56a85d09","system_id":"levelo_inurba_marseille","lat":43.29961,"lon":5.4132,"is_reserved":false,"is_disabled":false,"rental_uris":{"android":"levelo://app?vid=84667d0e-d7d2-4cdc-b1eb-66df56a85d09","ios":"levelo://app?vid=84667d0e-d7d2-4cdc-b1eb-66df56a85d09"},"vehicle_type_id":"4","last_reported":1734948613,"current_range_meters":39200,"station_id":"ce4bhp12rcd13ifvqh9g","pricing_plan_id":"cebpf4jnsgd1na2vs0mg"},{"bike_id":"24a28824-23fe-4a40-97b0-c8ce73315934","system_id":"levelo_inurba_marseille","lat":43.25821,"lon":5.39436,"is_reserved":false,"is_disabled":false,"rental_uris":{"android":"levelo://app?vid=24a28824-23fe-4a40-97b0-c8ce73315934","ios":"levelo://app?vid=24a28824-23fe-4a40-97b0-c8ce73315934"},"vehicle_type_id":"4","last_reported":1734948613,"current_range_meters":25200,"station_id":"ce4bhip2rcd13ifvqft0","pricing_plan_id":"cebpf4jnsgd1na2vs0mg"},{"bike_id":"a8241d4a-6511-4c13-8389-e037a362bfcf","system_id":"levelo_inurba_marseille","lat":43.28468,"lon":5.35884,"is_reserved":false,"is_disabled":true,"rental_uris":{"android":"levelo://app?vid=a8241d4a-6511-4c13-8389-e037a362bfcf","ios":"levelo://app?vid=a8241d4a-6511-4c13-8389-e037a362bfcf"},"vehicle_type_id":"4","last_reported":1734948613,"current_range_meters":34000,"station_id":"ce4bhah2rcd13ifvqei0","pricing_plan_id":"cebpf4jnsgd1na2vs0mg"},{"bike_id":"b333908e-96c8-4368-98b6-3a126929e4aa","system_id":"levelo_inurba_marseille","lat":43.28464,"lon":5.38418,"is_reserved":false,"is_disabled":false,"rental_uris":{"android":"levelo://app?vid=b333908e-96c8-4368-98b6-3a126929e4aa","ios":"levelo://app?vid=b333908e-96c8-4368-98b6-3a126929e4aa"},"vehicle_type_id":"4","last_reported":1734948613,"current_range_meters":39200,"station_id":"ce4bh512rcd13ifvqe3g","pricing_plan_id":"cebpf4jnsgd1na2vs0mg"},{"bike_id":"537ef1bf-3a78-45af-b334-3a2c52a599a8","system_id":"levelo_inurba_marseille","lat":43.341409,"lon":5.409005,"is_reserved":false,"is_disabled":false,"rental_uris":{"android":"levelo://app?vid=537ef1bf-3a78-45af-b334-3a2c52a599a8","ios":"levelo://app?vid=537ef1bf-3a78-45af-b334-3a2c52a599a8"},"vehicle_type_id":"4","last_reported":1734948613,"current_range_meters":36800,"station_id":"ce4bhqh2rcd13ifvqhlg","pricing_plan_id":"cebpf4jnsgd1na2vs0mg"},{"bike_id":"7cfa7914-a6fa-49c8-b1ec-dbe48b7366ea","system_id":"levelo_inurba_marseille","lat":43.24391,"lon":5.37059,"is_reserved":false,"is_disabled":false,"rental_uris":{"android":"levelo://app?vid=7cfa7914-a6fa-49c8-b1ec-dbe48b7366ea","ios":"levelo://app?vid=7cfa7914-a6fa-49c8-b1ec-dbe48b7366ea"},"vehicle_type_id":"4","last_reported":1734948613,"current_range_meters":38800,"station_id":"ce4bhhh2rcd13ifvqfk0","pricing_plan_id":"cebpf4jnsgd1na2vs0mg"},{"bike_id":"90f19238-5c8a-460b-96a7-7fc5e8fe2240","system_id":"levelo_inurba_marseille","lat":43.29293,"lon":5.37442,"is_reserved":false,"is_disabled":false,"rental_uris":{"android":"levelo://app?vid=90f19238-5c8a-460b-96a7-7fc5e8fe2240","ios":"levelo://app?vid=90f19238-5c8a-460b-96a7-7fc5e8fe2240"},"vehicle_type_id":"4","last_reported":1734948613,"current_range_meters":38800,"station_id":"ce4bgi12rcd13ifvqb70","pricing_plan_id":"cebpf4jnsgd1na2vs0mg"},{"bike_id":"b07e0204-2c57-49d1-a1f7-320de8610e25","system_id":"levelo_inurba_marseille","lat":43.29402,"lon":5.37344,"is_reserved":false,"is_disabled":true,"rental_uris":{"android":"levelo://app?vid=b07e0204-2c57-49d1-a1f7-320de8610e25","ios":"levelo://app?vid=b07e0204-2c57-49d1-a1f7-320de8610e25"},"vehicle_type_id":"4","last_reported":1734948613,"current_range_meters":24800,"station_id":"","pricing_plan_id":"cebpf4jnsgd1na2vs0mg"},{"bike_id":"ea004471-b609-40bf-876b-0bd08916cde3","system_id":"levelo_inurba_marseille","lat":43.32654,"lon":5.40991,"is_reserved":false,"is_disabled":false,"rental_uris":{"android":"levelo://app?vid=ea004471-b609-40bf-876b-0bd08916cde3","ios":"levelo://app?vid=ea004471-b609-40bf-876b-0bd08916cde3"},"vehicle_type_id":"4","last_reported":1734948613,"current_range_meters":34000,"station_id":"ce4bhpp2rcd13ifvqhgg","pricing_plan_id":"cebpf4jnsgd1na2vs0mg"},{"bike_id":"f97162d8-ac35-4106-9dab-07f272349842","system_id":"levelo_inurba_marseille","lat":43.2582,"lon":5.39433,"is_reserved":false,"is_disabled":false,"rental_uris":{"android":"levelo://app?vid=f97162d8-ac35-4106-9dab-07f272349842","ios":"levelo://app?vid=f97162d8-ac35-4106-9dab-07f272349842"},"vehicle_type_id":"4","last_reported":1734948613,"current_range_meters":11200,"station_id":"ce4bhip2rcd13ifvqft0","pricing_plan_id":"cebpf4jnsgd1na2vs0mg"},{"bike_id":"a22c6c33-be0d-40b1-b535-b083076c3b73","system_id":"levelo_inurba_marseille","lat":43.29727,"lon":5.37693,"is_reserved":false,"is_disabled":false,"rental_uris":{"android":"levelo://app?vid=a22c6c33-be0d-40b1-b535-b083076c3b73","ios":"levelo://app?vid=a22c6c33-be0d-40b1-b535-b083076c3b73"},"vehicle_type_id":"4","last_reported":1734948613,"current_range_meters":21600,"station_id":"ce4bgkh2rcd13ifvqbl0","pricing_plan_id":"cebpf4jnsgd1na2vs0mg"},{"bike_id":"7befd885-7fc8-4dc1-b970-da31c9e46ce6","system_id":"levelo_inurba_marseille","lat":43.26021,"lon":5.37565,"is_reserved":false,"is_disabled":false,"rental_uris":{"android":"levelo://app?vid=7befd885-7fc8-4dc1-b970-da31c9e46ce6","ios":"levelo://app?vid=7befd885-7fc8-4dc1-b970-da31c9e46ce6"},"vehicle_type_id":"4","last_reported":1734948613,"current_range_meters":32800,"station_id":"ce4bhgh2rcd13ifvqfa0","pricing_plan_id":"cebpf4jnsgd1na2vs0mg"},{"bike_id":"0ba6d847-b04d-4662-8e74-a4fd8409ab96","system_id":"levelo_inurba_marseille","lat":43.267805,"lon":5.394243,"is_reserved":false,"is_disabled":true,"rental_uris":{"android":"levelo://app?vid=0ba6d847-b04d-4662-8e74-a4fd8409ab96","ios":"levelo://app?vid=0ba6d847-b04d-4662-8e74-a4fd8409ab96"},"vehicle_type_id":"4","last_reported":1734948613,"current_range_meters":16000,"station_id":"ce4bhh12rcd13ifvqfg0","pricing_plan_id":"cebpf4jnsgd1na2vs0mg"},{"bike_id":"f3fe0314-8e40-4845-abe1-4c14c28f0999","system_id":"levelo_inurba_marseille","lat":43.29258,"lon":5.40904,"is_reserved":false,"is_disabled":false,"rental_uris":{"android":"levelo://app?vid=f3fe0314-8e40-4845-abe1-4c14c28f0999","ios":"levelo://app?vid=f3fe0314-8e40-4845-abe1-4c14c28f0999"},"vehicle_type_id":"4","last_reported":1734948613,"current_range_meters":39200,"station_id":"ce4bh192rcd13ifvqdc0","pricing_plan_id":"cebpf4jnsgd1na2vs0mg"},{"bike_id":"f0bcbb45-555d-4c5b-8534-084b0fafc4e9","system_id":"levelo_inurba_marseille","lat":43.29167,"lon":5.3715,"is_reserved":false,"is_disabled":true,"rental_uris":{"android":"levelo://app?vid=f0bcbb45-555d-4c5b-8534-084b0fafc4e9","ios":"levelo://app?vid=f0bcbb45-555d-4c5b-8534-084b0fafc4e9"},"vehicle_type_id":"4","last_reported":1734948613,"current_range_meters":30800,"station_id":"ce4bha92rcd13ifvqeh0","pricing_plan_id":"cebpf4jnsgd1na2vs0mg"},{"bike_id":"a6cdc187-c8a8-46bd-94fc-c241052810e0","system_id":"levelo_inurba_marseille","lat":43.27932,"lon":5.38735,"is_reserved":false,"is_disabled":false,"rental_uris":{"android":"levelo://app?vid=a6cdc187-c8a8-46bd-94fc-c241052810e0","ios":"levelo://app?vid=a6cdc187-c8a8-46bd-94fc-c241052810e0"},"vehicle_type_id":"4","last_reported":1734948613,"current_range_meters":27200,"station_id":"ce4bhg12rcd13ifvqf80","pricing_plan_id":"cebpf4jnsgd1na2vs0mg"},{"bike_id":"7b4d282c-a7d9-4676-b525-fa109a59185c","system_id":"levelo_inurba_marseille","lat":43.26947,"lon":5.38635,"is_reserved":false,"is_disabled":false,"rental_uris":{"android":"levelo://app?vid=7b4d282c-a7d9-4676-b525-fa109a59185c","ios":"levelo://app?vid=7b4d282c-a7d9-4676-b525-fa109a59185c"},"vehicle_type_id":"4","last_reported":1734948613,"current_range_meters":38800,"station_id":"ce4bhh92rcd13ifvqfh0","pricing_plan_id":"cebpf4jnsgd1na2vs0mg"},{"bike_id":"d8e19718-03bc-417c-998d-d1b1d907c453","system_id":"levelo_inurba_marseille","lat":43.26686,"lon":5.38271,"is_reserved":false,"is_disabled":false,"rental_uris":{"android":"levelo://app?vid=d8e19718-03bc-417c-998d-d1b1d907c453","ios":"levelo://app?vid=d8e19718-03bc-417c-998d-d1b1d907c453"},"vehicle_type_id":"4","last_reported":1734948613,"current_range_meters":19200,"station_id":"ce4bhg92rcd13ifvqf90","pricing_plan_id":"cebpf4jnsgd1na2vs0mg"},{"bike_id":"648b7dc0-d7ad-4d9a-93c6-7afc86a56b14","system_id":"levelo_inurba_marseille","lat":43.29626,"lon":5.37734,"is_reserved":false,"is_disabled":false,"rental_uris":{"android":"levelo://app?vid=648b7dc0-d7ad-4d9a-93c6-7afc86a56b14","ios":"levelo://app?vid=648b7dc0-d7ad-4d9a-93c6-7afc86a56b14"},"vehicle_type_id":"4","last_reported":1734948613,"current_range_meters":14400,"station_id":"ce4bgi92rcd13ifvqb90","pricing_plan_id":"cebpf4jnsgd1na2vs0mg"},{"bike_id":"725f2ba4-42ee-480b-a31f-097189b1c2cf","system_id":"levelo_inurba_marseille","lat":43.29192,"lon":5.35807,"is_reserved":false,"is_disabled":true,"rental_uris":{"android":"levelo://app?vid=725f2ba4-42ee-480b-a31f-097189b1c2cf","ios":"levelo://app?vid=725f2ba4-42ee-480b-a31f-097189b1c2cf"},"vehicle_type_id":"4","last_reported":1734948613,"current_range_meters":35600,"station_id":"ce4bhb12rcd13ifvqel0","pricing_plan_id":"cebpf4jnsgd1na2vs0mg"},{"bike_id":"2324cda8-0ee0-461f-a0c7-aec209b05915","system_id":"levelo_inurba_marseille","lat":43.29978,"lon":5.38498,"is_reserved":false,"is_disabled":false,"rental_uris":{"android":"levelo://app?vid=2324cda8-0ee0-461f-a0c7-aec209b05915","ios":"levelo://app?vid=2324cda8-0ee0-461f-a0c7-aec209b05915"},"vehicle_type_id":"4","last_reported":1734948613,"current_range_meters":37600,"station_id":"ce4bgj92rcd13ifvqbd0","pricing_plan_id":"cebpf4jnsgd1na2vs0mg"},{"bike_id":"611af7a6-bc77-4393-bb36-1871203bf0bb","system_id":"levelo_inurba_marseille","lat":43.28471,"lon":5.35881,"is_reserved":false,"is_disabled":false,"rental_uris":{"android":"levelo://app?vid=611af7a6-bc77-4393-bb36-1871203bf0bb","ios":"levelo://app?vid=611af7a6-bc77-4393-bb36-1871203bf0bb"},"vehicle_type_id":"4","last_reported":1734948613,"current_range_meters":27600,"station_id":"ce4bhah2rcd13ifvqei0","pricing_plan_id":"cebpf4jnsgd1na2vs0mg"},{"bike_id":"d0d918a4-8ae9-4abd-b34c-444575b56e5b","system_id":"levelo_inurba_marseille","lat":43.29274,"lon":5.368512,"is_reserved":false,"is_disabled":false,"rental_uris":{"android":"levelo://app?vid=d0d918a4-8ae9-4abd-b34c-444575b56e5b","ios":"levelo://app?vid=d0d918a4-8ae9-4abd-b34c-444575b56e5b"},"vehicle_type_id":"4","last_reported":1734948613,"current_range_meters":13600,"station_id":"ce4bhbp2rcd13ifvqesg","pricing_plan_id":"cebpf4jnsgd1na2vs0mg"},{"bike_id":"4094ac40-fe97-4483-91f4-bc4b6a97b4f3","system_id":"levelo_inurba_marseille","lat":43.25833,"lon":5.39433,"is_reserved":false,"is_disabled":true,"rental_uris":{"android":"levelo://app?vid=4094ac40-fe97-4483-91f4-bc4b6a97b4f3","ios":"levelo://app?vid=4094ac40-fe97-4483-91f4-bc4b6a97b4f3"},"vehicle_type_id":"4","last_reported":1734948613,"current_range_meters":0,"station_id":"ce4bhip2rcd13ifvqft0","pricing_plan_id":"cebpf4jnsgd1na2vs0mg"},{"bike_id":"ed495aba-f9b6-4311-b39c-649f2202b23f","system_id":"levelo_inurba_marseille","lat":43.27567,"lon":5.38433,"is_reserved":false,"is_disabled":false,"rental_uris":{"android":"levelo://app?vid=ed495aba-f9b6-4311-b39c-649f2202b23f","ios":"levelo://app?vid=ed495aba-f9b6-4311-b39c-649f2202b23f"},"vehicle_type_id":"4","last_reported":1734948613,"current_range_meters":38800,"station_id":"ce4bhh92rcd13ifvqfi0","pricing_plan_id":"cebpf4jnsgd1na2vs0mg"},{"bike_id":"e05bf4ea-d74d-49ed-a7dc-94fa3a3cc350","system_id":"levelo_inurba_marseille","lat":43.32359,"lon":5.36756,"is_reserved":false,"is_disabled":false,"rental_uris":{"android":"levelo://app?vid=e05bf4ea-d74d-49ed-a7dc-94fa3a3cc350","ios":"levelo://app?vid=e05bf4ea-d74d-49ed-a7dc-94fa3a3cc350"},"vehicle_type_id":"4","last_reported":1734948613,"current_range_meters":14800,"station_id":"ce4bhsh2rcd13ifvqi2g","pricing_plan_id":"cebpf4jnsgd1na2vs0mg"},{"bike_id":"6b186745-2091-424b-a646-ec954a3aff8a","system_id":"levelo_inurba_marseille","lat":43.24676,"lon":5.38153,"is_reserved":false,"is_disabled":false,"rental_uris":{"android":"levelo://app?vid=6b186745-2091-424b-a646-ec954a3aff8a","ios":"levelo://app?vid=6b186745-2091-424b-a646-ec954a3aff8a"},"vehicle_type_id":"4","last_reported":1734948613,"current_range_meters":17600,"station_id":"ce4bhih2rcd13ifvqfr0","pricing_plan_id":"cebpf4jnsgd1na2vs0mg"},{"bike_id":"b73b3cc8-26fa-4032-8e99-f74b6ff40c2a","system_id":"levelo_inurba_marseille","lat":43.27055,"lon":5.40267,"is_reserved":false,"is_disabled":false,"rental_uris":{"android":"levelo://app?vid=b73b3cc8-26fa-4032-8e99-f74b6ff40c2a","ios":"levelo://app?vid=b73b3cc8-26fa-4032-8e99-f74b6ff40c2a"},"vehicle_type_id":"4","last_reported":1734948613,"current_range_meters":8400,"station_id":"ce4bhk92rcd13ifvqgc0","pricing_plan_id":"cebpf4jnsgd1na2vs0mg"},{"bike_id":"0fa4fd6a-c920-470e-9628-342bc95af557","system_id":"levelo_inurba_marseille","lat":43.24673,"lon":5.38257,"is_reserved":false,"is_disabled":false,"rental_uris":{"android":"levelo://app?vid=0fa4fd6a-c920-470e-9628-342bc95af557","ios":"levelo://app?vid=0fa4fd6a-c920-470e-9628-342bc95af557"},"vehicle_type_id":"4","last_reported":1734948613,"current_range_meters":30000,"station_id":"ce4bhih2rcd13ifvqfr0","pricing_plan_id":"cebpf4jnsgd1na2vs0mg"},{"bike_id":"32ebf098-e002-4aa6-88f7-5b365ee05e11","system_id":"levelo_inurba_marseille","lat":43.24088,"lon":5.37739,"is_reserved":false,"is_disabled":true,"rental_uris":{"android":"levelo://app?vid=32ebf098-e002-4aa6-88f7-5b365ee05e11","ios":"levelo://app?vid=32ebf098-e002-4aa6-88f7-5b365ee05e11"},"vehicle_type_id":"4","last_reported":1734948613,"current_range_meters":0,"station_id":"ce4bhnp2rcd13ifvqgvg","pricing_plan_id":"cebpf4jnsgd1na2vs0mg"},{"bike_id":"51092a0b-c258-4d4f-8fbf-b61d8d751561","system_id":"levelo_inurba_marseille","lat":43.28427,"lon":5.34992,"is_reserved":false,"is_disabled":false,"rental_uris":{"android":"levelo://app?vid=51092a0b-c258-4d4f-8fbf-b61d8d751561","ios":"levelo://app?vid=51092a0b-c258-4d4f-8fbf-b61d8d751561"},"vehicle_type_id":"4","last_reported":1734948613,"current_range_meters":16400,"station_id":"ce4bhbh2rcd13ifvqepg","pricing_plan_id":"cebpf4jnsgd1na2vs0mg"},{"bike_id":"3f821dae-136e-4817-8d16-0800fb38ab20","system_id":"levelo_inurba_marseille","lat":43.30152,"lon":5.38073,"is_reserved":false,"is_disabled":false,"rental_uris":{"android":"levelo://app?vid=3f821dae-136e-4817-8d16-0800fb38ab20","ios":"levelo://app?vid=3f821dae-136e-4817-8d16-0800fb38ab20"},"vehicle_type_id":"4","last_reported":1734948613,"current_range_meters":24400,"station_id":"ce4bgjp2rcd13ifvqbh0","pricing_plan_id":"cebpf4jnsgd1na2vs0mg"},{"bike_id":"fddf485f-5c0f-4980-b5da-d9ed46e2b851","system_id":"levelo_inurba_marseille","lat":43.30543,"lon":5.36528,"is_reserved":false,"is_disabled":false,"rental_uris":{"android":"levelo://app?vid=fddf485f-5c0f-4980-b5da-d9ed46e2b851","ios":"levelo://app?vid=fddf485f-5c0f-4980-b5da-d9ed46e2b851"},"vehicle_type_id":"4","last_reported":1734948613,"current_range_meters":18800,"station_id":"ce4bgs12rcd13ifvqcag","pricing_plan_id":"cebpf4jnsgd1na2vs0mg"},{"bike_id":"91f01120-be8b-4783-bf69-48ae2321a0e4","system_id":"levelo_inurba_marseille","lat":43.29608,"lon":5.38107,"is_reserved":false,"is_disabled":false,"rental_uris":{"android":"levelo://app?vid=91f01120-be8b-4783-bf69-48ae2321a0e4","ios":"levelo://app?vid=91f01120-be8b-4783-bf69-48ae2321a0e4"},"vehicle_type_id":"4","last_reported":1734948613,"current_range_meters":38000,"station_id":"ce4bgl12rcd13ifvqbo0","pricing_plan_id":"cebpf4jnsgd1na2vs0mg"},{"bike_id":"18e2a1c9-1052-4bfa-af19-a6dbfa68f78a","system_id":"levelo_inurba_marseille","lat":43.3021,"lon":5.39474,"is_reserved":false,"is_disabled":false,"rental_uris":{"android":"levelo://app?vid=18e2a1c9-1052-4bfa-af19-a6dbfa68f78a","ios":"levelo://app?vid=18e2a1c9-1052-4bfa-af19-a6dbfa68f78a"},"vehicle_type_id":"4","last_reported":1734948613,"current_range_meters":38000,"station_id":"ce4bh0p2rcd13ifvqd70","pricing_plan_id":"cebpf4jnsgd1na2vs0mg"},{"bike_id":"ba623d7f-de4d-43e6-9a39-be19938e75fb","system_id":"levelo_inurba_marseille","lat":43.29369,"lon":5.37856,"is_reserved":false,"is_disabled":true,"rental_uris":{"android":"levelo://app?vid=ba623d7f-de4d-43e6-9a39-be19938e75fb","ios":"levelo://app?vid=ba623d7f-de4d-43e6-9a39-be19938e75fb"},"vehicle_type_id":"4","last_reported":1734948613,"current_range_meters":33200,"station_id":"","pricing_plan_id":"cebpf4jnsgd1na2vs0mg"},{"bike_id":"f5c3066f-e226-4517-a90e-b453d0a6feae","system_id":"levelo_inurba_marseille","lat":43.24664,"lon":5.38172,"is_reserved":false,"is_disabled":false,"rental_uris":{"android":"levelo://app?vid=f5c3066f-e226-4517-a90e-b453d0a6feae","ios":"levelo://app?vid=f5c3066f-e226-4517-a90e-b453d0a6feae"},"vehicle_type_id":"4","last_reported":1734948613,"current_range_meters":20400,"station_id":"ce4bhih2rcd13ifvqfr0","pricing_plan_id":"cebpf4jnsgd1na2vs0mg"},{"bike_id":"70eb34fb-5666-4263-8aec-527ecf42064d","system_id":"levelo_inurba_marseille","lat":43.31994,"lon":5.38166,"is_reserved":false,"is_disabled":false,"rental_uris":{"android":"levelo://app?vid=70eb34fb-5666-4263-8aec-527ecf42064d","ios":"levelo://app?vid=70eb34fb-5666-4263-8aec-527ecf42064d"},"vehicle_type_id":"4","last_reported":1734948613,"current_range_meters":38800,"station_id":"ce4bhr12rcd13ifvqhpg","pricing_plan_id":"cebpf4jnsgd1na2vs0mg"},{"bike_id":"5e1ef48a-8f1f-4cfa-b2b3-a4053e96881b","system_id":"levelo_inurba_marseille","lat":43.27988,"lon":5.40009,"is_reserved":false,"is_disabled":false,"rental_uris":{"android":"levelo://app?vid=5e1ef48a-8f1f-4cfa-b2b3-a4053e96881b","ios":"levelo://app?vid=5e1ef48a-8f1f-4cfa-b2b3-a4053e96881b"},"vehicle_type_id":"4","last_reported":1734948613,"current_range_meters":15200,"station_id":"ce4bho92rcd13ifvqh4g","pricing_plan_id":"cebpf4jnsgd1na2vs0mg"},{"bike_id":"f6c5d7d8-070f-43c6-8fe7-a91620c2d235","system_id":"levelo_inurba_marseille","lat":43.29585,"lon":5.36743,"is_reserved":false,"is_disabled":true,"rental_uris":{"android":"levelo://app?vid=f6c5d7d8-070f-43c6-8fe7-a91620c2d235","ios":"levelo://app?vid=f6c5d7d8-070f-43c6-8fe7-a91620c2d235"},"vehicle_type_id":"4","last_reported":1734948613,"current_range_meters":28800,"station_id":"ce4bgph2rcd13ifvqc2g","pricing_plan_id":"cebpf4jnsgd1na2vs0mg"},{"bike_id":"10d16ca8-28c0-405d-8543-1a0f299451c6","system_id":"levelo_inurba_marseille","lat":43.27807,"lon":5.4071,"is_reserved":false,"is_disabled":false,"rental_uris":{"android":"levelo://app?vid=10d16ca8-28c0-405d-8543-1a0f299451c6","ios":"levelo://app?vid=10d16ca8-28c0-405d-8543-1a0f299451c6"},"vehicle_type_id":"4","last_reported":1734948613,"current_range_meters":38000,"station_id":"ce4bhnh2rcd13ifvqgtg","pricing_plan_id":"cebpf4jnsgd1na2vs0mg"},{"bike_id":"ad36916f-91be-4ff7-82a8-937366d9875c","system_id":"levelo_inurba_marseille","lat":43.30098,"lon":5.39079,"is_reserved":false,"is_disabled":false,"rental_uris":{"android":"levelo://app?vid=ad36916f-91be-4ff7-82a8-937366d9875c","ios":"levelo://app?vid=ad36916f-91be-4ff7-82a8-937366d9875c"},"vehicle_type_id":"4","last_reported":1734948613,"current_range_meters":10800,"station_id":"ce4bh192rcd13ifvqdb0","pricing_plan_id":"cebpf4jnsgd1na2vs0mg"},{"bike_id":"d9c86bcc-c827-4886-997e-cdf07d1b7ee2","system_id":"levelo_inurba_marseille","lat":43.31327,"lon":5.39687,"is_reserved":false,"is_disabled":false,"rental_uris":{"android":"levelo://app?vid=d9c86bcc-c827-4886-997e-cdf07d1b7ee2","ios":"levelo://app?vid=d9c86bcc-c827-4886-997e-cdf07d1b7ee2"},"vehicle_type_id":"4","last_reported":1734948613,"current_range_meters":38800,"station_id":"ce4bgvp2rcd13ifvqcu0","pricing_plan_id":"cebpf4jnsgd1na2vs0mg"},{"bike_id":"dd6791d1-0b0f-4358-9622-bf64a92669a8","system_id":"levelo_inurba_marseille","lat":43.27203,"lon":5.39184,"is_reserved":false,"is_disabled":false,"rental_uris":{"android":"levelo://app?vid=dd6791d1-0b0f-4358-9622-bf64a92669a8","ios":"levelo://app?vid=dd6791d1-0b0f-4358-9622-bf64a92669a8"},"vehicle_type_id":"4","last_reported":1734948613,"current_range_meters":38400,"station_id":"ce4bhhp2rcd13ifvqfm0","pricing_plan_id":"cebpf4jnsgd1na2vs0mg"},{"bike_id":"f8448348-5574-4b47-abf3-6a6fdc140e6b","system_id":"levelo_inurba_marseille","lat":43.26027,"lon":5.37551,"is_reserved":false,"is_disabled":false,"rental_uris":{"android":"levelo://app?vid=f8448348-5574-4b47-abf3-6a6fdc140e6b","ios":"levelo://app?vid=f8448348-5574-4b47-abf3-6a6fdc140e6b"},"vehicle_type_id":"4","last_reported":1734948613,"current_range_meters":38000,"station_id":"ce4bhgh2rcd13ifvqfa0","pricing_plan_id":"cebpf4jnsgd1na2vs0mg"},{"bike_id":"864c8c07-623f-46e0-a84e-8c24a90096f0","system_id":"levelo_inurba_marseille","lat":43.30539,"lon":5.36534,"is_reserved":false,"is_disabled":false,"rental_uris":{"android":"levelo://app?vid=864c8c07-623f-46e0-a84e-8c24a90096f0","ios":"levelo://app?vid=864c8c07-623f-46e0-a84e-8c24a90096f0"},"vehicle_type_id":"4","last_reported":1734948613,"current_range_meters":29600,"station_id":"ce4bgs12rcd13ifvqcag","pricing_plan_id":"cebpf4jnsgd1na2vs0mg"},{"bike_id":"293fe4ed-6979-4a47-ba4c-99e7719cdfb9","system_id":"levelo_inurba_marseille","lat":43.27911,"lon":5.38024,"is_reserved":false,"is_disabled":false,"rental_uris":{"android":"levelo://app?vid=293fe4ed-6979-4a47-ba4c-99e7719cdfb9","ios":"levelo://app?vid=293fe4ed-6979-4a47-ba4c-99e7719cdfb9"},"vehicle_type_id":"4","last_reported":1734948613,"current_range_meters":38800,"station_id":"ce4bhf92rcd13ifvqf50","pricing_plan_id":"cebpf4jnsgd1na2vs0mg"},{"bike_id":"9a149b2b-b12e-44b8-a774-9c8464bdb92c","system_id":"levelo_inurba_marseille","lat":43.28427,"lon":5.39183,"is_reserved":false,"is_disabled":false,"rental_uris":{"android":"levelo://app?vid=9a149b2b-b12e-44b8-a774-9c8464bdb92c","ios":"levelo://app?vid=9a149b2b-b12e-44b8-a774-9c8464bdb92c"},"vehicle_type_id":"4","last_reported":1734948613,"current_range_meters":38800,"station_id":"ce4bhoh2rcd13ifvqh5g","pricing_plan_id":"cebpf4jnsgd1na2vs0mg"},{"bike_id":"e82b34cf-6ab8-4c24-9733-0bec0f5d6239","system_id":"levelo_inurba_marseille","lat":43.30461,"lon":5.37915,"is_reserved":false,"is_disabled":false,"rental_uris":{"android":"levelo://app?vid=e82b34cf-6ab8-4c24-9733-0bec0f5d6239","ios":"levelo://app?vid=e82b34cf-6ab8-4c24-9733-0bec0f5d6239"},"vehicle_type_id":"4","last_reported":1734948613,"current_range_meters":22400,"station_id":"ce4bgup2rcd13ifvqcn0","pricing_plan_id":"cebpf4jnsgd1na2vs0mg"},{"bike_id":"566f5cf2-e4ef-4698-bcb0-3321455fd423","system_id":"levelo_inurba_marseille","lat":43.30901,"lon":5.37192,"is_reserved":false,"is_disabled":false,"rental_uris":{"android":"levelo://app?vid=566f5cf2-e4ef-4698-bcb0-3321455fd423","ios":"levelo://app?vid=566f5cf2-e4ef-4698-bcb0-3321455fd423"},"vehicle_type_id":"4","last_reported":1734948613,"current_range_meters":29600,"station_id":"ce4bguh2rcd13ifvqckg","pricing_plan_id":"cebpf4jnsgd1na2vs0mg"},{"bike_id":"c13a7413-a260-44fd-85a3-ce8c2ef0f5e8","system_id":"levelo_inurba_marseille","lat":43.33739,"lon":5.39195,"is_reserved":false,"is_disabled":false,"rental_uris":{"android":"levelo://app?vid=c13a7413-a260-44fd-85a3-ce8c2ef0f5e8","ios":"levelo://app?vid=c13a7413-a260-44fd-85a3-ce8c2ef0f5e8"},"vehicle_type_id":"4","last_reported":1734948613,"current_range_meters":37600,"station_id":"ce4bhr92rcd13ifvqhsg","pricing_plan_id":"cebpf4jnsgd1na2vs0mg"},{"bike_id":"2872c726-1477-4b6c-a4e5-25e6c15e37ec","system_id":"levelo_inurba_marseille","lat":43.30432,"lon":5.39751,"is_reserved":false,"is_disabled":false,"rental_uris":{"android":"levelo://app?vid=2872c726-1477-4b6c-a4e5-25e6c15e37ec","ios":"levelo://app?vid=2872c726-1477-4b6c-a4e5-25e6c15e37ec"},"vehicle_type_id":"4","last_reported":1734948613,"current_range_meters":39200,"station_id":"ce4bh092rcd13ifvqd20","pricing_plan_id":"cebpf4jnsgd1na2vs0mg"},{"bike_id":"cd373cda-cec3-416e-8cc5-6e47537ef3e5","system_id":"levelo_inurba_marseille","lat":43.30894,"lon":5.36852,"is_reserved":false,"is_disabled":false,"rental_uris":{"android":"levelo://app?vid=cd373cda-cec3-416e-8cc5-6e47537ef3e5","ios":"levelo://app?vid=cd373cda-cec3-416e-8cc5-6e47537ef3e5"},"vehicle_type_id":"4","last_reported":1734948613,"current_range_meters":38800,"station_id":"ce4bgn92rcd13ifvqbvg","pricing_plan_id":"cebpf4jnsgd1na2vs0mg"},{"bike_id":"1fbc2411-62e1-47f8-ab8b-1b2422cad3cd","system_id":"levelo_inurba_marseille","lat":43.29173,"lon":5.37155,"is_reserved":false,"is_disabled":false,"rental_uris":{"android":"levelo://app?vid=1fbc2411-62e1-47f8-ab8b-1b2422cad3cd","ios":"levelo://app?vid=1fbc2411-62e1-47f8-ab8b-1b2422cad3cd"},"vehicle_type_id":"4","last_reported":1734948613,"current_range_meters":38800,"station_id":"ce4bha92rcd13ifvqeh0","pricing_plan_id":"cebpf4jnsgd1na2vs0mg"},{"bike_id":"5ccf2ec0-267c-42e2-95b9-0f62ea4d8baa","system_id":"levelo_inurba_marseille","lat":43.31763,"lon":5.39001,"is_reserved":false,"is_disabled":false,"rental_uris":{"android":"levelo://app?vid=5ccf2ec0-267c-42e2-95b9-0f62ea4d8baa","ios":"levelo://app?vid=5ccf2ec0-267c-42e2-95b9-0f62ea4d8baa"},"vehicle_type_id":"4","last_reported":1734948613,"current_range_meters":4400,"station_id":"ce4bhqp2rcd13ifvqhng","pricing_plan_id":"cebpf4jnsgd1na2vs0mg"},{"bike_id":"dac94ecf-3203-4c89-acc0-21c14e979588","system_id":"levelo_inurba_marseille","lat":43.26683,"lon":5.38279,"is_reserved":false,"is_disabled":false,"rental_uris":{"android":"levelo://app?vid=dac94ecf-3203-4c89-acc0-21c14e979588","ios":"levelo://app?vid=dac94ecf-3203-4c89-acc0-21c14e979588"},"vehicle_type_id":"4","last_reported":1734948613,"current_range_meters":22800,"station_id":"ce4bhg92rcd13ifvqf90","pricing_plan_id":"cebpf4jnsgd1na2vs0mg"},{"bike_id":"7a90d79c-efb7-473f-8f60-a6e952fac037","system_id":"levelo_inurba_marseille","lat":43.305349,"lon":5.365423,"is_reserved":false,"is_disabled":false,"rental_uris":{"android":"levelo://app?vid=7a90d79c-efb7-473f-8f60-a6e952fac037","ios":"levelo://app?vid=7a90d79c-efb7-473f-8f60-a6e952fac037"},"vehicle_type_id":"4","last_reported":1734948613,"current_range_meters":30000,"station_id":"ce4bgs12rcd13ifvqcag","pricing_plan_id":"cebpf4jnsgd1na2vs0mg"},{"bike_id":"ab6af837-67c9-4989-a0af-09bc0a9acc50","system_id":"levelo_inurba_marseille","lat":43.26784,"lon":5.39415,"is_reserved":false,"is_disabled":false,"rental_uris":{"android":"levelo://app?vid=ab6af837-67c9-4989-a0af-09bc0a9acc50","ios":"levelo://app?vid=ab6af837-67c9-4989-a0af-09bc0a9acc50"},"vehicle_type_id":"4","last_reported":1734948613,"current_range_meters":30000,"station_id":"ce4bhh12rcd13ifvqfg0","pricing_plan_id":"cebpf4jnsgd1na2vs0mg"},{"bike_id":"41b3b17a-a3c9-4e41-9947-0409f1be0905","system_id":"levelo_inurba_marseille","lat":43.33722,"lon":5.39168,"is_reserved":false,"is_disabled":false,"rental_uris":{"android":"levelo://app?vid=41b3b17a-a3c9-4e41-9947-0409f1be0905","ios":"levelo://app?vid=41b3b17a-a3c9-4e41-9947-0409f1be0905"},"vehicle_type_id":"4","last_reported":1734948613,"current_range_meters":38800,"station_id":"ce4bhr92rcd13ifvqhsg","pricing_plan_id":"cebpf4jnsgd1na2vs0mg"},{"bike_id":"fcaa428f-5b81-4cef-aa5d-f496099afa0b","system_id":"levelo_inurba_marseille","lat":43.30537,"lon":5.36515,"is_reserved":false,"is_disabled":false,"rental_uris":{"android":"levelo://app?vid=fcaa428f-5b81-4cef-aa5d-f496099afa0b","ios":"levelo://app?vid=fcaa428f-5b81-4cef-aa5d-f496099afa0b"},"vehicle_type_id":"4","last_reported":1734948613,"current_range_meters":36800,"station_id":"ce4bgs12rcd13ifvqcag","pricing_plan_id":"cebpf4jnsgd1na2vs0mg"},{"bike_id":"77811f17-f82f-4e97-8c7e-18336f4e1458","system_id":"levelo_inurba_marseille","lat":43.28476,"lon":5.3842,"is_reserved":false,"is_disabled":false,"rental_uris":{"android":"levelo://app?vid=77811f17-f82f-4e97-8c7e-18336f4e1458","ios":"levelo://app?vid=77811f17-f82f-4e97-8c7e-18336f4e1458"},"vehicle_type_id":"4","last_reported":1734948613,"current_range_meters":32800,"station_id":"ce4bh512rcd13ifvqe3g","pricing_plan_id":"cebpf4jnsgd1na2vs0mg"},{"bike_id":"0c70c65f-0918-4002-b4f0-9ea267468017","system_id":"levelo_inurba_marseille","lat":43.29708,"lon":5.366,"is_reserved":false,"is_disabled":false,"rental_uris":{"android":"levelo://app?vid=0c70c65f-0918-4002-b4f0-9ea267468017","ios":"levelo://app?vid=0c70c65f-0918-4002-b4f0-9ea267468017"},"vehicle_type_id":"4","last_reported":1734948613,"current_range_meters":30400,"station_id":"ce4bgn12rcd13ifvqbt0","pricing_plan_id":"cebpf4jnsgd1na2vs0mg"},{"bike_id":"d8f92a5a-f9d8-4309-b318-98b27fe02b94","system_id":"levelo_inurba_marseille","lat":43.29101,"lon":5.38141,"is_reserved":false,"is_disabled":false,"rental_uris":{"android":"levelo://app?vid=d8f92a5a-f9d8-4309-b318-98b27fe02b94","ios":"levelo://app?vid=d8f92a5a-f9d8-4309-b318-98b27fe02b94"},"vehicle_type_id":"4","last_reported":1734948613,"current_range_meters":34000,"station_id":"ce4bh512rcd13ifvqe2g","pricing_plan_id":"cebpf4jnsgd1na2vs0mg"},{"bike_id":"aeb21815-fda5-4673-a326-4fbe39a203b0","system_id":"levelo_inurba_marseille","lat":43.32481,"lon":5.36565,"is_reserved":false,"is_disabled":false,"rental_uris":{"android":"levelo://app?vid=aeb21815-fda5-4673-a326-4fbe39a203b0","ios":"levelo://app?vid=aeb21815-fda5-4673-a326-4fbe39a203b0"},"vehicle_type_id":"4","last_reported":1734948613,"current_range_meters":10000,"station_id":"ce4bhs12rcd13ifvqhvg","pricing_plan_id":"cebpf4jnsgd1na2vs0mg"},{"bike_id":"dd7bc593-5dd1-4f32-a997-f04f17fe8722","system_id":"levelo_inurba_marseille","lat":43.32332,"lon":5.40619,"is_reserved":false,"is_disabled":false,"rental_uris":{"android":"levelo://app?vid=dd7bc593-5dd1-4f32-a997-f04f17fe8722","ios":"levelo://app?vid=dd7bc593-5dd1-4f32-a997-f04f17fe8722"},"vehicle_type_id":"4","last_reported":1734948613,"current_range_meters":38800,"station_id":"ce4bhq92rcd13ifvqhjg","pricing_plan_id":"cebpf4jnsgd1na2vs0mg"},{"bike_id":"f6c1aaf0-43f9-4bfc-8eeb-4f4fc3a3e816","system_id":"levelo_inurba_marseille","lat":43.29388,"lon":5.37842,"is_reserved":false,"is_disabled":false,"rental_uris":{"android":"levelo://app?vid=f6c1aaf0-43f9-4bfc-8eeb-4f4fc3a3e816","ios":"levelo://app?vid=f6c1aaf0-43f9-4bfc-8eeb-4f4fc3a3e816"},"vehicle_type_id":"4","last_reported":1734948613,"current_range_meters":38800,"station_id":"ce4bgjh2rcd13ifvqbf0","pricing_plan_id":"cebpf4jnsgd1na2vs0mg"},{"bike_id":"e353d62c-c5ff-4f13-94a9-2d54b9fdbe08","system_id":"levelo_inurba_marseille","lat":43.288463,"lon":5.358413,"is_reserved":false,"is_disabled":true,"rental_uris":{"android":"levelo://app?vid=e353d62c-c5ff-4f13-94a9-2d54b9fdbe08","ios":"levelo://app?vid=e353d62c-c5ff-4f13-94a9-2d54b9fdbe08"},"vehicle_type_id":"4","last_reported":1734948613,"current_range_meters":0,"station_id":"ce4bhb12rcd13ifvqem0","pricing_plan_id":"cebpf4jnsgd1na2vs0mg"},{"bike_id":"88cfebe8-3088-46c4-b250-d1b75923a432","system_id":"levelo_inurba_marseille","lat":43.24674,"lon":5.38144,"is_reserved":false,"is_disabled":false,"rental_uris":{"android":"levelo://app?vid=88cfebe8-3088-46c4-b250-d1b75923a432","ios":"levelo://app?vid=88cfebe8-3088-46c4-b250-d1b75923a432"},"vehicle_type_id":"4","last_reported":1734948613,"current_range_meters":35600,"station_id":"ce4bhih2rcd13ifvqfr0","pricing_plan_id":"cebpf4jnsgd1na2vs0mg"},{"bike_id":"085f67b0-44f2-4732-999e-5d735b9a7008","system_id":"levelo_inurba_marseille","lat":43.27376,"lon":5.36247,"is_reserved":false,"is_disabled":false,"rental_uris":{"android":"levelo://app?vid=085f67b0-44f2-4732-999e-5d735b9a7008","ios":"levelo://app?vid=085f67b0-44f2-4732-999e-5d735b9a7008"},"vehicle_type_id":"4","last_reported":1734948613,"current_range_meters":32800,"station_id":"ce4bhbh2rcd13ifvqeo0","pricing_plan_id":"cebpf4jnsgd1na2vs0mg"},{"bike_id":"826f30f8-361a-44e5-9754-a7633a3dca76","system_id":"levelo_inurba_marseille","lat":43.26261,"lon":5.40157,"is_reserved":false,"is_disabled":true,"rental_uris":{"android":"levelo://app?vid=826f30f8-361a-44e5-9754-a7633a3dca76","ios":"levelo://app?vid=826f30f8-361a-44e5-9754-a7633a3dca76"},"vehicle_type_id":"4","last_reported":1734948613,"current_range_meters":31200,"station_id":"","pricing_plan_id":"cebpf4jnsgd1na2vs0mg"},{"bike_id":"d8516e49-9f1e-434a-acf9-21daae4231b2","system_id":"levelo_inurba_marseille","lat":43.29536,"lon":5.37504,"is_reserved":false,"is_disabled":false,"rental_uris":{"android":"levelo://app?vid=d8516e49-9f1e-434a-acf9-21daae4231b2","ios":"levelo://app?vid=d8516e49-9f1e-434a-acf9-21daae4231b2"},"vehicle_type_id":"4","last_reported":1734948613,"current_range_meters":32000,"station_id":"ce4bgkp2rcd13ifvqbmg","pricing_plan_id":"cebpf4jnsgd1na2vs0mg"},{"bike_id":"776a6173-20af-419e-be93-6a6546f91e60","system_id":"levelo_inurba_marseille","lat":43.317,"lon":5.37757,"is_reserved":false,"is_disabled":true,"rental_uris":{"android":"levelo://app?vid=776a6173-20af-419e-be93-6a6546f91e60","ios":"levelo://app?vid=776a6173-20af-419e-be93-6a6546f91e60"},"vehicle_type_id":"4","last_reported":1734948613,"current_range_meters":38800,"station_id":"ce4bgth2rcd13ifvqch0","pricing_plan_id":"cebpf4jnsgd1na2vs0mg"},{"bike_id":"ed2115b3-8cb3-47ee-b80d-010aa699a164","system_id":"levelo_inurba_marseille","lat":43.25088,"lon":5.39519,"is_reserved":false,"is_disabled":false,"rental_uris":{"android":"levelo://app?vid=ed2115b3-8cb3-47ee-b80d-010aa699a164","ios":"levelo://app?vid=ed2115b3-8cb3-47ee-b80d-010aa699a164"},"vehicle_type_id":"4","last_reported":1734948613,"current_range_meters":38000,"station_id":"ce4bhm12rcd13ifvqgkg","pricing_plan_id":"cebpf4jnsgd1na2vs0mg"},{"bike_id":"a37c10b7-1da8-4cc6-b0f3-2a310cde69cc","system_id":"levelo_inurba_marseille","lat":43.29525,"lon":5.3905,"is_reserved":false,"is_disabled":true,"rental_uris":{"android":"levelo://app?vid=a37c10b7-1da8-4cc6-b0f3-2a310cde69cc","ios":"levelo://app?vid=a37c10b7-1da8-4cc6-b0f3-2a310cde69cc"},"vehicle_type_id":"4","last_reported":1734948613,"current_range_meters":24000,"station_id":"ce4bh3p2rcd13ifvqdp0","pricing_plan_id":"cebpf4jnsgd1na2vs0mg"},{"bike_id":"d1853d76-78cf-466d-9558-f0792250c702","system_id":"levelo_inurba_marseille","lat":43.33815,"lon":5.37432,"is_reserved":false,"is_disabled":false,"rental_uris":{"android":"levelo://app?vid=d1853d76-78cf-466d-9558-f0792250c702","ios":"levelo://app?vid=d1853d76-78cf-466d-9558-f0792250c702"},"vehicle_type_id":"4","last_reported":1734948613,"current_range_meters":20800,"station_id":"","pricing_plan_id":"cebpf4jnsgd1na2vs0mg"},