{"last_updated":1753640062,"ttl":60,"version":"2.2","data":{"bikes":[{"bike_id":"a9e09930-d0d1-44cf-8c78-3ea24c4985fe","system_id":"levelo_inurba_marseille","lat":43.303794,"lon":5.386663,"is_reserved":false,"is_disabled":false,"rental_uris":{"android":"levelo://app?vid=a9e09930-d0d1-44cf-8c78-3ea24c4985fe","ios":"levelo://app?vid=a9e09930-d0d1-44cf-8c78-3ea24c4985fe"},"vehicle_type_id":"4","last_reported":1753640062,"current_range_meters":2800,"station_id":"ce4bgk12rcd13ifvqbi0","pricing_plan_id":"cebpf4jnsgd1na2vs0mg"},{"bike_id":"2aeed8d0-75fc-4f1e-a6ac-7e42aa925de0","system_id":"levelo_inurba_marseille","lat":43.28999,"lon":5.35609,"is_reserved":false,"is_disabled":false,"rental_uris":{"android":"levelo://app?vid=2aeed8d0-75fc-4f1e-a6ac-7e42aa925de0","ios":"levelo://app?vid=2aeed8d0-75fc-4f1e-a6ac-7e42aa925de0"},"vehicle_type_id":"4","last_reported":1753640062,"current_range_meters":2800,"station_id":"ce4bhb92rcd13ifvqen0","pricing_plan_id":"cebpf4jnsgd1na2vs0mg"},{"bike_id":"47e5dae5-1c38-491c-95ab-dc8b743a8517","system_id":"levelo_inurba_marseille","lat":43.28848,"lon":5.35858,"is_reserved":false,"is_disabled":false,"rental_uris":{"android":"levelo://app?vid=47e5dae5-1c38-491c-95ab-dc8b743a8517","ios":"levelo://app?vid=47e5dae5-1c38-491c-95ab-dc8b743a8517"},"vehicle_type_id":"4","last_reported":1753640062,"current_range_meters":2800,"station_id":"ce4bhb12rcd13ifvqem0","pricing_plan_id":"cebpf4jnsgd1na2vs0mg"},{"bike_id":"47c33de0-11a5-43bd-a547-d7717223d612","system_id":"levelo_inurba_marseille","lat":43.28857,"lon":5.39303,"is_reserved":false,"is_disabled":false,"rental_uris":{"android":"levelo://app?vid=47c33de0-11a5-43bd-a547-d7717223d612","ios":"levelo://app?vid=47c33de0-11a5-43bd-a547-d7717223d612"},"vehicle_type_id":"4","last_reported":1753640062,"current_range_meters":3200,"station_id":"ce4bh2p2rcd13ifvqdi0","pricing_plan_id":"cebpf4jnsgd1na2vs0mg"},{"bike_id":"0694c46f-e2b1-4e8a-ab85-b2b45f9f110f","system_id":"levelo_inurba_marseille","lat":43.30432,"lon":5.38886,"is_reserved":false,"is_disabled":false,"rental_uris":{"android":"levelo://app?vid=0694c46f-e2b1-4e8a-ab85-b2b45f9f110f","ios":"levelo://app?vid=0694c46f-e2b1-4e8a-ab85-b2b45f9f110f"},"vehicle_type_id":"4","last_reported":1753640062,"current_range_meters":3200,"station_id":"ce4bgk12rcd13ifvqbi0","pricing_plan_id":"cebpf4jnsgd1na2vs0mg"},{"bike_id":"9e12cb9c-adbc-4d58-a6d7-7f0e7772c228","system_id":"levelo_inurba_marseille","lat":43.29778,"lon":5.371,"is_reserved":false,"is_disabled":false,"rental_uris":{"android":"levelo://app?vid=9e12cb9c-adbc-4d58-a6d7-7f0e7772c228","ios":"levelo://app?vid=9e12cb9c-adbc-4d58-a6d7-7f0e7772c228"},"vehicle_type_id":"4","last_reported":1753640062,"current_range_meters":3200,"station_id":"ce4bgop2rcd13ifvqc1g","pricing_plan_id":"cebpf4jnsgd1na2vs0mg"},{"bike_id":"141b534f-0d2a-49eb-82d4-65f96bc62bed","system_id":"levelo_inurba_marseille","lat":43.30953,"lon":5.39031,"is_reserved":false,"is_disabled":false,"rental_uris":{"android":"levelo://app?vid=141b534f-0d2a-49eb-82d4-65f96bc62bed","ios":"levelo://app?vid=141b534f-0d2a-49eb-82d4-65f96bc62bed"},"vehicle_type_id":"4","last_reported":1753640062,"current_range_meters":3200,"station_id":"ce4bgup2rcd13ifvqco0","pricing_plan_id":"cebpf4jnsgd1na2vs0mg"},{"bike_id":"078febbd-6d49-4abf-8b46-d33f87f8da46","system_id":"levelo_inurba_marseille","lat":43.25452,"lon":5.38007,"is_reserved":false,"is_disabled":true,"rental_uris":{"android":"levelo://app?vid=078febbd-6d49-4abf-8b46-d33f87f8da46","ios":"levelo://app?vid=078febbd-6d49-4abf-8b46-d33f87f8da46"},"vehicle_type_id":"4","last_reported":1753640062,"current_range_meters":3600,"station_id":"","pricing_plan_id":"cebpf4jnsgd1na2vs0mg"},{"bike_id":"ffe67fde-d4ed-4433-b9a1-ae928da1256a","system_id":"levelo_inurba_marseille","lat":43.29016,"lon":5.38144,"is_reserved":false,"is_disabled":false,"rental_uris":{"android":"levelo://app?vid=ffe67fde-d4ed-4433-b9a1-ae928da1256a","ios":"levelo://app?vid=ffe67fde-d4ed-4433-b9a1-ae928da1256a"},"vehicle_type_id":"4","last_reported":1753640062,"current_range_meters":3600,"station_id":"ce4bh4p2rcd13ifvqe1g","pricing_plan_id":"cebpf4jnsgd1na2vs0mg"},{"bike_id":"58fe80d5-4b02-4345-8c9d-1be2e88c4192","system_id":"levelo_inurba_marseille","lat":43.29284,"lon":5.40121,"is_reserved":false,"is_disabled":false,"rental_uris":{"android":"levelo://app?vid=58fe80d5-4b02-4345-8c9d-1be2e88c4192","ios":"levelo://app?vid=58fe80d5-4b02-4345-8c9d-1be2e88c4192"},"vehicle_type_id":"4","last_reported":1753640062,"current_range_meters":3600,"station_id":"ce4bh312rcd13ifvqdk0","pricing_plan_id":"cebpf4jnsgd1na2vs0mg"},{"bike_id":"69f14d4c-59a9-4e94-ba31-91032baff61e","system_id":"levelo_inurba_marseille","lat":43.28853,"lon":5.35847,"is_reserved":false,"is_disabled":false,"rental_uris":{"android":"levelo://app?vid=69f14d4c-59a9-4e94-ba31-91032baff61e","ios":"levelo://app?vid=69f14d4c-59a9-4e94-ba31-91032baff61e"},"vehicle_type_id":"4","last_reported":1753640062,"current_range_meters":3600,"station_id":"ce4bhb12rcd13ifvqem0","pricing_plan_id":"cebpf4jnsgd1na2vs0mg"},{"bike_id":"d90ebfa5-2c47-49b4-b028-76446d957888","system_id":"levelo_inurba_marseille","lat":43.29598,"lon":5.381,"is_reserved":false,"is_disabled":false,"rental_uris":{"android":"levelo://app?vid=d90ebfa5-2c47-49b4-b028-76446d957888","ios":"levelo://app?vid=d90ebfa5-2c47-49b4-b028-76446d957888"},"vehicle_type_id":"4","last_reported":1753640062,"current_range_meters":3600,"station_id":"ce4bgl12rcd13ifvqbo0","pricing_plan_id":"cebpf4jnsgd1na2vs0mg"},{"bike_id":"f123af25-f5e1-4535-bf9a-e453fb7322cc","system_id":"levelo_inurba_marseille","lat":43.27539,"lon":5.40897,"is_reserved":false,"is_disabled":true,"rental_uris":{"android":"levelo://app?vid=f123af25-f5e1-4535-bf9a-e453fb7322cc","ios":"levelo://app?vid=f123af25-f5e1-4535-bf9a-e453fb7322cc"},"vehicle_type_id":"4","last_reported":1753640062,"current_range_meters":4000,"station_id":"","pricing_plan_id":"cebpf4jnsgd1na2vs0mg"},{"bike_id":"acdc15f3-f881-4795-bd43-7b1b297ebaa4","system_id":"levelo_inurba_marseille","lat":43.27081,"lon":5.42253,"is_reserved":false,"is_disabled":true,"rental_uris":{"android":"levelo://app?vid=acdc15f3-f881-4795-bd43-7b1b297ebaa4","ios":"levelo://app?vid=acdc15f3-f881-4795-bd43-7b1b297ebaa4"},"vehicle_type_id":"4","last_reported":1753640062,"current_range_meters":4000,"station_id":"ce4bhk92rcd13ifvqgb0","pricing_plan_id":"cebpf4jnsgd1na2vs0mg"},{"bike_id":"6074dedb-a537-4e8e-9a7f-13f52ed3928c","system_id":"levelo_inurba_marseille","lat":43.29634,"lon":5.40592,"is_reserved":false,"is_disabled":false,"rental_uris":{"android":"levelo://app?vid=6074dedb-a537-4e8e-9a7f-13f52ed3928c","ios":"levelo://app?vid=6074dedb-a537-4e8e-9a7f-13f52ed3928c"},"vehicle_type_id":"4","last_reported":1753640062,"current_range_meters":4000,"station_id":"ce4bh0h2rcd13ifvqd60","pricing_plan_id":"cebpf4jnsgd1na2vs0mg"},{"bike_id":"89afcf5d-13ed-46d3-b4b7-1aae91177b8c","system_id":"levelo_inurba_marseille","lat":43.30914,"lon":5.36849,"is_reserved":false,"is_disabled":false,"rental_uris":{"android":"levelo://app?vid=89afcf5d-13ed-46d3-b4b7-1aae91177b8c","ios":"levelo://app?vid=89afcf5d-13ed-46d3-b4b7-1aae91177b8c"},"vehicle_type_id":"4","last_reported":1753640062,"current_range_meters":4000,"station_id":"ce4bgn92rcd13ifvqbvg","pricing_plan_id":"cebpf4jnsgd1na2vs0mg"},{"bike_id":"b7ed9571-0d35-4df5-9ba8-fcfa0cd8d52b","system_id":"levelo_inurba_marseille","lat":43.32631,"lon":5.37869,"is_reserved":false,"is_disabled":false,"rental_uris":{"android":"levelo://app?vid=b7ed9571-0d35-4df5-9ba8-fcfa0cd8d52b","ios":"levelo://app?vid=b7ed9571-0d35-4df5-9ba8-fcfa0cd8d52b"},"vehicle_type_id":"4","last_reported":1753640062,"current_range_meters":4000,"station_id":"","pricing_plan_id":"cebpf4jnsgd1na2vs0mg"},{"bike_id":"8773bccd-7e82-4ac3-a21b-29c14265880e","system_id":"levelo_inurba_marseille","lat":43.28396,"lon":5.37515,"is_reserved":false,"is_disabled":false,"rental_uris":{"android":"levelo://app?vid=8773bccd-7e82-4ac3-a21b-29c14265880e","ios":"levelo://app?vid=8773bccd-7e82-4ac3-a21b-29c14265880e"},"vehicle_type_id":"4","last_reported":1753640062,"current_range_meters":4000,"station_id":"ce4bh412rcd13ifvqds0","pricing_plan_id":"cebpf4jnsgd1na2vs0mg"},{"bike_id":"8414c65a-e2b6-4cab-b8f8-536a15b6717a","system_id":"levelo_inurba_marseille","lat":43.27599,"lon":5.36134,"is_reserved":false,"is_disabled":true,"rental_uris":{"android":"levelo://app?vid=8414c65a-e2b6-4cab-b8f8-536a15b6717a","ios":"levelo://app?vid=8414c65a-e2b6-4cab-b8f8-536a15b6717a"},"vehicle_type_id":"4","last_reported":1753640062,"current_range_meters":4800,"station_id":"ce4bgj92rcd13ifvqbe0","pricing_plan_id":"cebpf4jnsgd1na2vs0mg"},{"bike_id":"a45512f9-8071-433e-be87-c5f69a06724c","system_id":"levelo_inurba_marseille","lat":43.32,"lon":5.38171,"is_reserved":false,"is_disabled":false,"rental_uris":{"android":"levelo://app?vid=a45512f9-8071-433e-be87-c5f69a06724c","ios":"levelo://app?vid=a45512f9-8071-433e-be87-c5f69a06724c"},"vehicle_type_id":"4","last_reported":1753640062,"current_range_meters":4800,"station_id":"ce4bhr12rcd13ifvqhpg","pricing_plan_id":"cebpf4jnsgd1na2vs0mg"},{"bike_id":"83a67c65-7f9b-4a81-a80c-c007cd448d24","system_id":"levelo_inurba_marseille","lat":43.292531,"lon":5.384314,"is_reserved":false,"is_disabled":false,"rental_uris":{"android":"levelo://app?vid=83a67c65-7f9b-4a81-a80c-c007cd448d24","ios":"levelo://app?vid=83a67c65-7f9b-4a81-a80c-c007cd448d24"},"vehicle_type_id":"4","last_reported":1753640062,"current_range_meters":4800,"station_id":"","pricing_plan_id":"cebpf4jnsgd1na2vs0mg"},{"bike_id":"881c958b-5127-4208-87a4-a452b854deeb","system_id":"levelo_inurba_marseille","lat":43.29604,"lon":5.38092,"is_reserved":false,"is_disabled":false,"rental_uris":{"android":"levelo://app?vid=881c958b-5127-4208-87a4-a452b854deeb","ios":"levelo://app?vid=881c958b-5127-4208-87a4-a452b854deeb"},"vehicle_type_id":"4","last_reported":1753640062,"current_range_meters":4800,"station_id":"ce4bgl12rcd13ifvqbo0","pricing_plan_id":"cebpf4jnsgd1na2vs0mg"},{"bike_id":"01a8e307-f9de-4eb5-a307-55559ca42c36","system_id":"levelo_inurba_marseille","lat":43.22455,"lon":5.34748,"is_reserved":false,"is_disabled":false,"rental_uris":{"android":"levelo://app?vid=01a8e307-f9de-4eb5-a307-55559ca42c36","ios":"levelo://app?vid=01a8e307-f9de-4eb5-a307-55559ca42c36"},"vehicle_type_id":"4","last_reported":1753640062,"current_range_meters":4800,"station_id":"st_cvj5dfep6f1abm77gieg","pricing_plan_id":"cebpf4jnsgd1na2vs0mg"},{"bike_id":"70c9bf3f-732c-45df-818c-74d6105935ae","system_id":"levelo_inurba_marseille","lat":43.22501,"lon":5.3478,"is_reserved":false,"is_disabled":false,"rental_uris":{"android":"levelo://app?vid=70c9bf3f-732c-45df-818c-74d6105935ae","ios":"levelo://app?vid=70c9bf3f-732c-45df-818c-74d6105935ae"},"vehicle_type_id":"4","last_reported":1753640062,"current_range_meters":5600,"station_id":"st_cvj5dfep6f1abm77gieg","pricing_plan_id":"cebpf4jnsgd1na2vs0mg"},{"bike_id":"f792569d-187d-4113-a77c-c2d9c4bf046a","system_id":"levelo_inurba_marseille","lat":43.25498,"lon":5.37646,"is_reserved":false,"is_disabled":false,"rental_uris":{"android":"levelo://app?vid=f792569d-187d-4113-a77c-c2d9c4bf046a","ios":"levelo://app?vid=f792569d-187d-4113-a77c-c2d9c4bf046a"},"vehicle_type_id":"4","last_reported":1753640062,"current_range_meters":5600,"station_id":"ce4bhh12rcd13ifvqff0","pricing_plan_id":"cebpf4jnsgd1na2vs0mg"},{"bike_id":"356964dc-1df6-402c-b592-a2332b78270d","system_id":"levelo_inurba_marseille","lat":43.29783,"lon":5.39341,"is_reserved":false,"is_disabled":false,"rental_uris":{"android":"levelo://app?vid=356964dc-1df6-402c-b592-a2332b78270d","ios":"levelo://app?vid=356964dc-1df6-402c-b592-a2332b78270d"},"vehicle_type_id":"4","last_reported":1753640062,"current_range_meters":5600,"station_id":"chh1huq6cuj3fo74tm60","pricing_plan_id":"cebpf4jnsgd1na2vs0mg"},{"bike_id":"a7cb60c0-5ddf-45c9-a64a-01928726525c","system_id":"levelo_inurba_marseille","lat":43.2927,"lon":5.40116,"is_reserved":false,"is_disabled":false,"rental_uris":{"android":"levelo://app?vid=a7cb60c0-5ddf-45c9-a64a-01928726525c","ios":"levelo://app?vid=a7cb60c0-5ddf-45c9-a64a-01928726525c"},"vehicle_type_id":"4","last_reported":1753640062,"current_range_meters":5600,"station_id":"ce4bh312rcd13ifvqdk0","pricing_plan_id":"cebpf4jnsgd1na2vs0mg"},{"bike_id":"a22825ef-94b7-41b8-8850-510b739203dd","system_id":"levelo_inurba_marseille","lat":43.276,"lon":5.3609,"is_reserved":false,"is_disabled":false,"rental_uris":{"android":"levelo://app?vid=a22825ef-94b7-41b8-8850-510b739203dd","ios":"levelo://app?vid=a22825ef-94b7-41b8-8850-510b739203dd"},"vehicle_type_id":"4","last_reported":1753640062,"current_range_meters":5600,"station_id":"ce4bgj92rcd13ifvqbe0","pricing_plan_id":"cebpf4jnsgd1na2vs0mg"},{"bike_id":"8d023974-4db1-43c9-ad7e-25f5e1f1e735","system_id":"levelo_inurba_marseille","lat":43.29966,"lon":5.38494,"is_reserved":false,"is_disabled":false,"rental_uris":{"android":"levelo://app?vid=8d023974-4db1-43c9-ad7e-25f5e1f1e735","ios":"levelo://app?vid=8d023974-4db1-43c9-ad7e-25f5e1f1e735"},"vehicle_type_id":"4","last_reported":1753640062,"current_range_meters":6000,"station_id":"ce4bgj92rcd13ifvqbd0","pricing_plan_id":"cebpf4jnsgd1na2vs0mg"},{"bike_id":"4d183f5b-2de5-4832-836a-ad19975cd48c","system_id":"levelo_inurba_marseille","lat":43.31995,"lon":5.38166,"is_reserved":false,"is_disabled":false,"rental_uris":{"android":"levelo://app?vid=4d183f5b-2de5-4832-836a-ad19975cd48c","ios":"levelo://app?vid=4d183f5b-2de5-4832-836a-ad19975cd48c"},"vehicle_type_id":"4","last_reported":1753640062,"current_range_meters":6400,"station_id":"ce4bhr12rcd13ifvqhpg","pricing_plan_id":"cebpf4jnsgd1na2vs0mg"},{"bike_id":"22dca147-1260-44d8-822d-d9d1d50cce31","system_id":"levelo_inurba_marseille","lat":43.2747,"lon":5.39605,"is_reserved":false,"is_disabled":true,"rental_uris":{"android":"levelo://app?vid=22dca147-1260-44d8-822d-d9d1d50cce31","ios":"levelo://app?vid=22dca147-1260-44d8-822d-d9d1d50cce31"},"vehicle_type_id":"4","last_reported":1753640062,"current_range_meters":6400,"station_id":"","pricing_plan_id":"cebpf4jnsgd1na2vs0mg"},{"bike_id":"b12dbb31-5c75-4551-bc03-29f3c4082217","system_id":"levelo_inurba_marseille","lat":43.21206,"lon":5.35034,"is_reserved":false,"is_disabled":false,"rental_uris":{"android":"levelo://app?vid=b12dbb31-5c75-4551-bc03-29f3c4082217","ios":"levelo://app?vid=b12dbb31-5c75-4551-bc03-29f3c4082217"},"vehicle_type_id":"4","last_reported":1753640062,"current_range_meters":6400,"station_id":"","pricing_plan_id":"cebpf4jnsgd1na2vs0mg"},{"bike_id":"990eb3e5-15e9-44a1-85d5-1f979e53a5bd","system_id":"levelo_inurba_marseille","lat":43.23957,"lon":5.36637,"is_reserved":false,"is_disabled":true,"rental_uris":{"android":"levelo://app?vid=990eb3e5-15e9-44a1-85d5-1f979e53a5bd","ios":"levelo://app?vid=990eb3e5-15e9-44a1-85d5-1f979e53a5bd"},"vehicle_type_id":"4","last_reported":1753640062,"current_range_meters":6400,"station_id":"ce4bhi12rcd13ifvqfp0","pricing_plan_id":"cebpf4jnsgd1na2vs0mg"},{"bike_id":"bf7358b0-7e89-4b6c-89e8-f39f6a770a59","system_id":"levelo_inurba_marseille","lat":43.28407,"lon":5.37519,"is_reserved":false,"is_disabled":false,"rental_uris":{"android":"levelo://app?vid=bf7358b0-7e89-4b6c-89e8-f39f6a770a59","ios":"levelo://app?vid=bf7358b0-7e89-4b6c-89e8-f39f6a770a59"},"vehicle_type_id":"4","last_reported":1753640062,"current_range_meters":6400,"station_id":"ce4bh412rcd13ifvqds0","pricing_plan_id":"cebpf4jnsgd1na2vs0mg"},{"bike_id":"0b6e37e1-db39-4d64-9941-7e484c9ea038","system_id":"levelo_inurba_marseille","lat":43.30148,"lon":5.38097,"is_reserved":false,"is_disabled":true,"rental_uris":{"android":"levelo://app?vid=0b6e37e1-db39-4d64-9941-7e484c9ea038","ios":"levelo://app?vid=0b6e37e1-db39-4d64-9941-7e484c9ea038"},"vehicle_type_id":"4","last_reported":1753640062,"current_range_meters":6400,"station_id":"","pricing_plan_id":"cebpf4jnsgd1na2vs0mg"},{"bike_id":"a3fe9995-2e3e-423b-9540-429a92fa997e","system_id":"levelo_inurba_marseille","lat":43.301828,"lon":5.371617,"is_reserved":false,"is_disabled":false,"rental_uris":{"android":"levelo://app?vid=a3fe9995-2e3e-423b-9540-429a92fa997e","ios":"levelo://app?vid=a3fe9995-2e3e-423b-9540-429a92fa997e"},"vehicle_type_id":"4","last_reported":1753640062,"current_range_meters":6400,"station_id":"","pricing_plan_id":"cebpf4jnsgd1na2vs0mg"},{"bike_id":"f1fe9433-73d6-4a99-ae46-bb12973c8e1c","system_id":"levelo_inurba_marseille","lat":43.27572,"lon":5.38422,"is_reserved":false,"is_disabled":false,"rental_uris":{"android":"levelo://app?vid=f1fe9433-73d6-4a99-ae46-bb12973c8e1c","ios":"levelo://app?vid=f1fe9433-73d6-4a99-ae46-bb12973c8e1c"},"vehicle_type_id":"4","last_reported":1753640062,"current_range_meters":6400,"station_id":"ce4bhh92rcd13ifvqfi0","pricing_plan_id":"cebpf4jnsgd1na2vs0mg"},{"bike_id":"e7fbd43a-5b5a-4132-bb93-5fd131d54f3d","system_id":"levelo_inurba_marseille","lat":43.28859,"lon":5.39322,"is_reserved":false,"is_disabled":false,"rental_uris":{"android":"levelo://app?vid=e7fbd43a-5b5a-4132-bb93-5fd131d54f3d","ios":"levelo://app?vid=e7fbd43a-5b5a-4132-bb93-5fd131d54f3d"},"vehicle_type_id":"4","last_reported":1753640062,"current_range_meters":6400,"station_id":"ce4bh2p2rcd13ifvqdi0","pricing_plan_id":"cebpf4jnsgd1na2vs0mg"},{"bike_id":"9c418ca3-3e71-47c6-9bcc-d2c00e440b92","system_id":"levelo_inurba_marseille","lat":43.296219,"lon":5.371674,"is_reserved":false,"is_disabled":false,"rental_uris":{"android":"levelo://app?vid=9c418ca3-3e71-47c6-9bcc-d2c00e440b92","ios":"levelo://app?vid=9c418ca3-3e71-47c6-9bcc-d2c00e440b92"},"vehicle_type_id":"4","last_reported":1753640062,"current_range_meters":6400,"station_id":"ce4bgnh2rcd13ifvqc0g","pricing_plan_id":"cebpf4jnsgd1na2vs0mg"},{"bike_id":"de99b14c-9afd-4bdd-bc56-50354c110c3d","system_id":"levelo_inurba_marseille","lat":43.25467,"lon":5.37687,"is_reserved":false,"is_disabled":false,"rental_uris":{"android":"levelo://app?vid=de99b14c-9afd-4bdd-bc56-50354c110c3d","ios":"levelo://app?vid=de99b14c-9afd-4bdd-bc56-50354c110c3d"},"vehicle_type_id":"4","last_reported":1753640062,"current_range_meters":6800,"station_id":"","pricing_plan_id":"cebpf4jnsgd1na2vs0mg"},{"bike_id":"0777bda4-486b-4487-99d1-a23bdd2fafa8","system_id":"levelo_inurba_marseille","lat":43.30805,"lon":5.38167,"is_reserved":false,"is_disabled":false,"rental_uris":{"android":"levelo://app?vid=0777bda4-486b-4487-99d1-a23bdd2fafa8","ios":"levelo://app?vid=0777bda4-486b-4487-99d1-a23bdd2fafa8"},"vehicle_type_id":"4","last_reported":1753640062,"current_range_meters":6800,"station_id":"ce4bgt12rcd13ifvqce0","pricing_plan_id":"cebpf4jnsgd1na2vs0mg"},{"bike_id":"e5d9c29c-874d-4677-9121-2baa559d8567","system_id":"levelo_inurba_marseille","lat":43.2908,"lon":5.40021,"is_reserved":false,"is_disabled":false,"rental_uris":{"android":"levelo://app?vid=e5d9c29c-874d-4677-9121-2baa559d8567","ios":"levelo://app?vid=e5d9c29c-874d-4677-9121-2baa559d8567"},"vehicle_type_id":"4","last_reported":1753640062,"current_range_meters":6800,"station_id":"ce4bh392rcd13ifvqdm0","pricing_plan_id":"cebpf4jnsgd1na2vs0mg"},{"bike_id":"a520741a-dcb6-494d-9d43-0ad113907acb","system_id":"levelo_inurba_marseille","lat":43.29269,"lon":5.39973,"is_reserved":false,"is_disabled":false,"rental_uris":{"android":"levelo://app?vid=a520741a-dcb6-494d-9d43-0ad113907acb","ios":"levelo://app?vid=a520741a-dcb6-494d-9d43-0ad113907acb"},"vehicle_type_id":"4","last_reported":1753640062,"current_range_meters":6800,"station_id":"","pricing_plan_id":"cebpf4jnsgd1na2vs0mg"},{"bike_id":"d910dcb0-c214-431d-95e8-13af2dabb9bf","system_id":"levelo_inurba_marseille","lat":43.25492,"lon":5.37645,"is_reserved":false,"is_disabled":false,"rental_uris":{"android":"levelo://app?vid=d910dcb0-c214-431d-95e8-13af2dabb9bf","ios":"levelo://app?vid=d910dcb0-c214-431d-95e8-13af2dabb9bf"},"vehicle_type_id":"4","last_reported":1753640062,"current_range_meters":4000,"station_id":"ce4bhh12rcd13ifvqff0","pricing_plan_id":"cebpf4jnsgd1na2vs0mg"},{"bike_id":"83b12f2d-0a2e-4338-80b2-cc1ef30a0849","system_id":"levelo_inurba_marseille","lat":43.30951,"lon":5.3902,"is_reserved":false,"is_disabled":false,"rental_uris":{"android":"levelo://app?vid=83b12f2d-0a2e-4338-80b2-cc1ef30a0849","ios":"levelo://app?vid=83b12f2d-0a2e-4338-80b2-cc1ef30a0849"},"vehicle_type_id":"4","last_reported":1753640062,"current_range_meters":6800,"station_id":"ce4bgup2rcd13ifvqco0","pricing_plan_id":"cebpf4jnsgd1na2vs0mg"},{"bike_id":"fb8b8827-446a-4028-aee0-6bb9e853ef84","system_id":"levelo_inurba_marseille","lat":43.31341,"lon":5.36723,"is_reserved":false,"is_disabled":false,"rental_uris":{"android":"levelo://app?vid=fb8b8827-446a-4028-aee0-6bb9e853ef84","ios":"levelo://app?vid=fb8b8827-446a-4028-aee0-6bb9e853ef84"},"vehicle_type_id":"4","last_reported":1753640062,"current_range_meters":6800,"station_id":"ce4bgr92rcd13ifvqc6g","pricing_plan_id":"cebpf4jnsgd1na2vs0mg"},{"bike_id":"57755280-973c-4ff3-9c25-8f15e2c5b510","system_id":"levelo_inurba_marseille","lat":43.31872,"lon":5.37373,"is_reserved":false,"is_disabled":true,"rental_uris":{"android":"levelo://app?vid=57755280-973c-4ff3-9c25-8f15e2c5b510","ios":"levelo://app?vid=57755280-973c-4ff3-9c25-8f15e2c5b510"},"vehicle_type_id":"4","last_reported":1753640062,"current_range_meters":6800,"station_id":"","pricing_plan_id":"cebpf4jnsgd1na2vs0mg"},{"bike_id":"8e878e8f-5d80-490d-b86c-324c23d42717","system_id":"levelo_inurba_marseille","lat":43.2917,"lon":5.40736,"is_reserved":false,"is_disabled":false,"rental_uris":{"android":"levelo://app?vid=8e878e8f-5d80-490d-b86c-324c23d42717","ios":"levelo://app?vid=8e878e8f-5d80-490d-b86c-324c23d42717"},"vehicle_type_id":"4","last_reported":1753640062,"current_range_meters":7200,"station_id":"","pricing_plan_id":"cebpf4jnsgd1na2vs0mg"},{"bike_id":"543b125d-56dd-41ea-9527-b8922a354434","system_id":"levelo_inurba_marseille","lat":43.3206,"lon":5.41541,"is_reserved":false,"is_disabled":false,"rental_uris":{"android":"levelo://app?vid=543b125d-56dd-41ea-9527-b8922a354434","ios":"levelo://app?vid=543b125d-56dd-41ea-9527-b8922a354434"},"vehicle_type_id":"4","last_reported":1753640062,"current_range_meters":7200,"station_id":"ce4bhq92rcd13ifvqhkg","pricing_plan_id":"cebpf4jnsgd1na2vs0mg"},{"bike_id":"279517aa-5882-4cf0-8644-89bcd9eb575e","system_id":"levelo_inurba_marseille","lat":43.28412,"lon":5.37505,"is_reserved":false,"is_disabled":false,"rental_uris":{"android":"levelo://app?vid=279517aa-5882-4cf0-8644-89bcd9eb575e","ios":"levelo://app?vid=279517aa-5882-4cf0-8644-89bcd9eb575e"},"vehicle_type_id":"4","last_reported":1753640062,"current_range_meters":7200,"station_id":"ce4bh412rcd13ifvqds0","pricing_plan_id":"cebpf4jnsgd1na2vs0mg"},{"bike_id":"0ed53f46-29e9-4af6-be43-1bb7fa322a9b","system_id":"levelo_inurba_marseille","lat":43.30933,"lon":5.40139,"is_reserved":false,"is_disabled":true,"rental_uris":{"android":"levelo://app?vid=0ed53f46-29e9-4af6-be43-1bb7fa322a9b","ios":"levelo://app?vid=0ed53f46-29e9-4af6-be43-1bb7fa322a9b"},"vehicle_type_id":"4","last_reported":1753640062,"current_range_meters":7200,"station_id":"ce4bgvp2rcd13ifvqct0","pricing_plan_id":"cebpf4jnsgd1na2vs0mg"},{"bike_id":"3bbee1f5-057f-4259-87a7-37cfbc2447e8","system_id":"levelo_inurba_marseille","lat":43.27811,"lon":5.40721,"is_reserved":false,"is_disabled":false,"rental_uris":{"android":"levelo://app?vid=3bbee1f5-057f-4259-87a7-37cfbc2447e8","ios":"levelo://app?vid=3bbee1f5-057f-4259-87a7-37cfbc2447e8"},"vehicle_type_id":"4","last_reported":1753640062,"current_range_meters":7200,"station_id":"ce4bhnh2rcd13ifvqgtg","pricing_plan_id":"cebpf4jnsgd1na2vs0mg"},{"bike_id":"d620d18f-b5a0-4d29-bbb7-9d0134391b23","system_id":"levelo_inurba_marseille","lat":43.28708,"lon":5.37415,"is_reserved":false,"is_disabled":false,"rental_uris":{"android":"levelo://app?vid=d620d18f-b5a0-4d29-bbb7-9d0134391b23","ios":"levelo://app?vid=d620d18f-b5a0-4d29-bbb7-9d0134391b23"},"vehicle_type_id":"4","last_reported":1753640062,"current_range_meters":7200,"station_id":"ce4bh3p2rcd13ifvqdq0","pricing_plan_id":"cebpf4jnsgd1na2vs0mg"},{"bike_id":"d8adee83-dc1e-4ff1-879f-3a202b2325f9","system_id":"levelo_inurba_marseille","lat":43.29033,"lon":5.38652,"is_reserved":false,"is_disabled":false,"rental_uris":{"android":"levelo://app?vid=d8adee83-dc1e-4ff1-879f-3a202b2325f9","ios":"levelo://app?vid=d8adee83-dc1e-4ff1-879f-3a202b2325f9"},"vehicle_type_id":"4","last_reported":1753640062,"current_range_meters":7200,"station_id":"ce4bh4p2rcd13ifvqe0g","pricing_plan_id":"cebpf4jnsgd1na2vs0mg"},{"bike_id":"1e555c6b-044c-4bd1-a690-5b7bdd1ff5ab","system_id":"levelo_inurba_marseille","lat":43.309463,"lon":5.390166,"is_reserved":false,"is_disabled":true,"rental_uris":{"android":"levelo://app?vid=1e555c6b-044c-4bd1-a690-5b7bdd1ff5ab","ios":"levelo://app?vid=1e555c6b-044c-4bd1-a690-5b7bdd1ff5ab"},"vehicle_type_id":"4","last_reported":1753640062,"current_range_meters":8000,"station_id":"ce4bgup2rcd13ifvqco0","pricing_plan_id":"cebpf4jnsgd1na2vs0mg"},{"bike_id":"13583329-880b-4faa-931e-c1b3fcd57dd1","system_id":"levelo_inurba_marseille","lat":43.30533,"lon":5.36553,"is_reserved":false,"is_disabled":false,"rental_uris":{"android":"levelo://app?vid=13583329-880b-4faa-931e-c1b3fcd57dd1","ios":"levelo://app?vid=13583329-880b-4faa-931e-c1b3fcd57dd1"},"vehicle_type_id":"4","last_reported":1753640062,"current_range_meters":8000,"station_id":"ce4bgs12rcd13ifvqcag","pricing_plan_id":"cebpf4jnsgd1na2vs0mg"},{"bike_id":"76f01cf3-9e8f-4f9e-a604-dff459698a9d","system_id":"levelo_inurba_marseille","lat":43.2885,"lon":5.39313,"is_reserved":false,"is_disabled":false,"rental_uris":{"android":"levelo://app?vid=76f01cf3-9e8f-4f9e-a604-dff459698a9d","ios":"levelo://app?vid=76f01cf3-9e8f-4f9e-a604-dff459698a9d"},"vehicle_type_id":"4","last_reported":1753640062,"current_range_meters":8000,"station_id":"ce4bh2p2rcd13ifvqdi0","pricing_plan_id":"cebpf4jnsgd1na2vs0mg"},{"bike_id":"f2c0d178-a474-46a0-b002-379a7a30c411","system_id":"levelo_inurba_marseille","lat":43.29428,"lon":5.3757,"is_reserved":false,"is_disabled":false,"rental_uris":{"android":"levelo://app?vid=f2c0d178-a474-46a0-b002-379a7a30c411","ios":"levelo://app?vid=f2c0d178-a474-46a0-b002-379a7a30c411"},"vehicle_type_id":"4","last_reported":1753640062,"current_range_meters":8400,"station_id":"","pricing_plan_id":"cebpf4jnsgd1na2vs0mg"},{"bike_id":"30dae34a-0aef-4324-9f46-76558a2c47bf","system_id":"levelo_inurba_marseille","lat":43.29029,"lon":5.38135,"is_reserved":false,"is_disabled":false,"rental_uris":{"android":"levelo://app?vid=30dae34a-0aef-4324-9f46-76558a2c47bf","ios":"levelo://app?vid=30dae34a-0aef-4324-9f46-76558a2c47bf"},"vehicle_type_id":"4","last_reported":1753640062,"current_range_meters":8400,"station_id":"ce4bh4p2rcd13ifvqe1g","pricing_plan_id":"cebpf4jnsgd1na2vs0mg"},{"bike_id":"c0f0e5c3-9cc0-4731-bf9b-cfcb564fc0cc","system_id":"levelo_inurba_marseille","lat":43.29795,"lon":5.38099,"is_reserved":false,"is_disabled":false,"rental_uris":{"android":"levelo://app?vid=c0f0e5c3-9cc0-4731-bf9b-cfcb564fc0cc","ios":"levelo://app?vid=c0f0e5c3-9cc0-4731-bf9b-cfcb564fc0cc"},"vehicle_type_id":"4","last_reported":1753640062,"current_range_meters":8400,"station_id":"ce4bgip2rcd13ifvqbb0","pricing_plan_id":"cebpf4jnsgd1na2vs0mg"},{"bike_id":"8fea26c4-9958-4538-9a48-29687fed76e0","system_id":"levelo_inurba_marseille","lat":43.30107,"lon":5.3879,"is_reserved":false,"is_disabled":false,"rental_uris":{"android":"levelo://app?vid=8fea26c4-9958-4538-9a48-29687fed76e0","ios":"levelo://app?vid=8fea26c4-9958-4538-9a48-29687fed76e0"},"vehicle_type_id":"4","last_reported":1753640062,"current_range_meters":8400,"station_id":"ce4bghh2rcd13ifvqb60","pricing_plan_id":"cebpf4jnsgd1na2vs0mg"},{"bike_id":"9a0ce65a-24b1-498a-8d1e-652ba04f577d","system_id":"levelo_inurba_marseille","lat":43.295258,"lon":5.385436,"is_reserved":false,"is_disabled":false,"rental_uris":{"android":"levelo://app?vid=9a0ce65a-24b1-498a-8d1e-652ba04f577d","ios":"levelo://app?vid=9a0ce65a-24b1-498a-8d1e-652ba04f577d"},"vehicle_type_id":"4","last_reported":1753640062,"current_range_meters":8400,"station_id":"ce4bgih2rcd13ifvqba0","pricing_plan_id":"cebpf4jnsgd1na2vs0mg"},{"bike_id":"8cc2f96f-5aa5-4a6b-a023-a4a1a1a05925","system_id":"levelo_inurba_marseille","lat":43.31888,"lon":5.40723,"is_reserved":false,"is_disabled":false,"rental_uris":{"android":"levelo://app?vid=8cc2f96f-5aa5-4a6b-a023-a4a1a1a05925","ios":"levelo://app?vid=8cc2f96f-5aa5-4a6b-a023-a4a1a1a05925"},"vehicle_type_id":"4","last_reported":1753640062,"current_range_meters":8400,"station_id":"ce4bhq12rcd13ifvqhig","pricing_plan_id":"cebpf4jnsgd1na2vs0mg"},{"bike_id":"dd5b3db2-62f9-4716-992d-435138b6493d","system_id":"levelo_inurba_marseille","lat":43.30813,"lon":5.38156,"is_reserved":false,"is_disabled":true,"rental_uris":{"android":"levelo://app?vid=dd5b3db2-62f9-4716-992d-435138b6493d","ios":"levelo://app?vid=dd5b3db2-62f9-4716-992d-435138b6493d"},"vehicle_type_id":"4","last_reported":1753640062,"current_range_meters":8400,"station_id":"ce4bgt12rcd13ifvqce0","pricing_plan_id":"cebpf4jnsgd1na2vs0mg"},{"bike_id":"2698940b-2307-49a3-9232-a2845e2c80bf","system_id":"levelo_inurba_marseille","lat":43.29945,"lon":5.39738,"is_reserved":false,"is_disabled":false,"rental_uris":{"android":"levelo://app?vid=2698940b-2307-49a3-9232-a2845e2c80bf","ios":"levelo://app?vid=2698940b-2307-49a3-9232-a2845e2c80bf"},"vehicle_type_id":"4","last_reported":1753640062,"current_range_meters":8400,"station_id":"","pricing_plan_id":"cebpf4jnsgd1na2vs0mg"},{"bike_id":"f1b33f2a-3496-4b5a-94a7-1c6b17a0a9f5","system_id":"levelo_inurba_marseille","lat":43.27808,"lon":5.40708,"is_reserved":false,"is_disabled":false,"rental_uris":{"android":"levelo://app?vid=f1b33f2a-3496-4b5a-94a7-1c6b17a0a9f5","ios":"levelo://app?vid=f1b33f2a-3496-4b5a-94a7-1c6b17a0a9f5"},"vehicle_type_id":"4","last_reported":1753640062,"current_range_meters":8400,"station_id":"ce4bhnh2rcd13ifvqgtg","pricing_plan_id":"cebpf4jnsgd1na2vs0mg"},{"bike_id":"8d7c7e2c-5ff6-45d3-9c15-d2336280a53a","system_id":"levelo_inurba_marseille","lat":43.28154,"lon":5.42637,"is_reserved":false,"is_disabled":false,"rental_uris":{"android":"levelo://app?vid=8d7c7e2c-5ff6-45d3-9c15-d2336280a53a","ios":"levelo://app?vid=8d7c7e2c-5ff6-45d3-9c15-d2336280a53a"},"vehicle_type_id":"4","last_reported":1753640062,"current_range_meters":8400,"station_id":"ce4bhnh2rcd13ifvqgug","pricing_plan_id":"cebpf4jnsgd1na2vs0mg"},{"bike_id":"c6f6e595-8555-40f2-b196-b2d3bda69f2a","system_id":"levelo_inurba_marseille","lat":43.30424,"lon":5.3974,"is_reserved":false,"is_disabled":false,"rental_uris":{"android":"levelo://app?vid=c6f6e595-8555-40f2-b196-b2d3bda69f2a","ios":"levelo://app?vid=c6f6e595-8555-40f2-b196-b2d3bda69f2a"},"vehicle_type_id":"4","last_reported":1753640062,"current_range_meters":8400,"station_id":"ce4bh092rcd13ifvqd20","pricing_plan_id":"cebpf4jnsgd1na2vs0mg"},{"bike_id":"383db34f-8d00-452a-947a-46c32196f784","system_id":"levelo_inurba_marseille","lat":43.29031,"lon":5.38137,"is_reserved":false,"is_disabled":false,"rental_uris":{"android":"levelo://app?vid=383db34f-8d00-452a-947a-46c32196f784","ios":"levelo://app?vid=383db34f-8d00-452a-947a-46c32196f784"},"vehicle_type_id":"4","last_reported":1753640062,"current_range_meters":8800,"station_id":"ce4bh4p2rcd13ifvqe1g","pricing_plan_id":"cebpf4jnsgd1na2vs0mg"},{"bike_id":"c3c2652b-f2d7-4ed4-89ec-9559feb01451","system_id":"levelo_inurba_marseille","lat":43.29226,"lon":5.360481,"is_reserved":false,"is_disabled":true,"rental_uris":{"android":"levelo://app?vid=c3c2652b-f2d7-4ed4-89ec-9559feb01451","ios":"levelo://app?vid=c3c2652b-f2d7-4ed4-89ec-9559feb01451"},"vehicle_type_id":"4","last_reported":1753640062,"current_range_meters":8800,"station_id":"ce4bhbh2rcd13ifvqeqg","pricing_plan_id":"cebpf4jnsgd1na2vs0mg"},{"bike_id":"7034d87e-ff4b-473f-9240-13fec7d24f0a","system_id":"levelo_inurba_marseille","lat":43.29247,"lon":5.40901,"is_reserved":false,"is_disabled":false,"rental_uris":{"android":"levelo://app?vid=7034d87e-ff4b-473f-9240-13fec7d24f0a","ios":"levelo://app?vid=7034d87e-ff4b-473f-9240-13fec7d24f0a"},"vehicle_type_id":"4","last_reported":1753640062,"current_range_meters":8800,"station_id":"ce4bh192rcd13ifvqdc0","pricing_plan_id":"cebpf4jnsgd1na2vs0mg"},{"bike_id":"ad676354-5f32-402a-ace7-3af7e2297b05","system_id":"levelo_inurba_marseille","lat":43.32315,"lon":5.36751,"is_reserved":false,"is_disabled":false,"rental_uris":{"android":"levelo://app?vid=ad676354-5f32-402a-ace7-3af7e2297b05","ios":"levelo://app?vid=ad676354-5f32-402a-ace7-3af7e2297b05"},"vehicle_type_id":"4","last_reported":1753640062,"current_range_meters":8800,"station_id":"ce4bhsh2rcd13ifvqi2g","pricing_plan_id":"cebpf4jnsgd1na2vs0mg"},{"bike_id":"02cab979-ccb2-40ce-bd89-cd624415fc04","system_id":"levelo_inurba_marseille","lat":43.277781,"lon":5.399417,"is_reserved":false,"is_disabled":false,"rental_uris":{"android":"levelo://app?vid=02cab979-ccb2-40ce-bd89-cd624415fc04","ios":"levelo://app?vid=02cab979-ccb2-40ce-bd89-cd624415fc04"},"vehicle_type_id":"4","last_reported":1753640062,"current_range_meters":8800,"station_id":"","pricing_plan_id":"cebpf4jnsgd1na2vs0mg"},{"bike_id":"9188366a-c6a3-4354-b558-553177316347","system_id":"levelo_inurba_marseille","lat":43.26234,"lon":5.37445,"is_reserved":false,"is_disabled":true,"rental_uris":{"android":"levelo://app?vid=9188366a-c6a3-4354-b558-553177316347","ios":"levelo://app?vid=9188366a-c6a3-4354-b558-553177316347"},"vehicle_type_id":"4","last_reported":1753640062,"current_range_meters":8800,"station_id":"","pricing_plan_id":"cebpf4jnsgd1na2vs0mg"},{"bike_id":"042a8476-d3c4-476b-9557-f32c03e9d625","system_id":"levelo_inurba_marseille","lat":43.33952,"lon":5.35674,"is_reserved":false,"is_disabled":false,"rental_uris":{"android":"levelo://app?vid=042a8476-d3c4-476b-9557-f32c03e9d625","ios":"levelo://app?vid=042a8476-d3c4-476b-9557-f32c03e9d625"},"vehicle_type_id":"4","last_reported":1753640062,"current_range_meters":8800,"station_id":"","pricing_plan_id":"cebpf4jnsgd1na2vs0mg"},{"bike_id":"cd0d4afa-9de1-4afb-923d-b45a4942c9a1","system_id":"levelo_inurba_marseille","lat":43.22491,"lon":5.34776,"is_reserved":false,"is_disabled":false,"rental_uris":{"android":"levelo://app?vid=cd0d4afa-9de1-4afb-923d-b45a4942c9a1","ios":"levelo://app?vid=cd0d4afa-9de1-4afb-923d-b45a4942c9a1"},"vehicle_type_id":"4","last_reported":1753640062,"current_range_meters":8800,"station_id":"st_cvj5dfep6f1abm77gieg","pricing_plan_id":"cebpf4jnsgd1na2vs0mg"},{"bike_id":"9377d52d-7c04-4205-81e5-05265b3eabff","system_id":"levelo_inurba_marseille","lat":43.287093,"lon":5.379528,"is_reserved":false,"is_disabled":true,"rental_uris":{"android":"levelo://app?vid=9377d52d-7c04-4205-81e5-05265b3eabff","ios":"levelo://app?vid=9377d52d-7c04-4205-81e5-05265b3eabff"},"vehicle_type_id":"4","last_reported":1753640062,"current_range_meters":9200,"station_id":"ce4bh9p2rcd13ifvqec0","pricing_plan_id":"cebpf4jnsgd1na2vs0mg"},{"bike_id":"43cf4049-15dd-4e8c-88a8-61cd8dc10bf5","system_id":"levelo_inurba_marseille","lat":43.33271,"lon":5.38007,"is_reserved":false,"is_disabled":true,"rental_uris":{"android":"levelo://app?vid=43cf4049-15dd-4e8c-88a8-61cd8dc10bf5","ios":"levelo://app?vid=43cf4049-15dd-4e8c-88a8-61cd8dc10bf5"},"vehicle_type_id":"4","last_reported":1753640062,"current_range_meters":9200,"station_id":"","pricing_plan_id":"cebpf4jnsgd1na2vs0mg"},{"bike_id":"22c5c176-59c0-4155-935a-97d5d2aa0f5e","system_id":"levelo_inurba_marseille","lat":43.29036,"lon":5.37576,"is_reserved":false,"is_disabled":false,"rental_uris":{"android":"levelo://app?vid=22c5c176-59c0-4155-935a-97d5d2aa0f5e","ios":"levelo://app?vid=22c5c176-59c0-4155-935a-97d5d2aa0f5e"},"vehicle_type_id":"4","last_reported":1753640062,"current_range_meters":9200,"station_id":"ce4bh692rcd13ifvqe90","pricing_plan_id":"cebpf4jnsgd1na2vs0mg"},{"bike_id":"8b91846b-8701-43fe-97ba-1d53423438d4","system_id":"levelo_inurba_marseille","lat":43.2954,"lon":5.38536,"is_reserved":false,"is_disabled":false,"rental_uris":{"android":"levelo://app?vid=8b91846b-8701-43fe-97ba-1d53423438d4","ios":"levelo://app?vid=8b91846b-8701-43fe-97ba-1d53423438d4"},"vehicle_type_id":"4","last_reported":1753640062,"current_range_meters":9200,"station_id":"ce4bgih2rcd13ifvqba0","pricing_plan_id":"cebpf4jnsgd1na2vs0mg"},{"bike_id":"4675c641-309f-4c25-8594-c8cdedd2fb6c","system_id":"levelo_inurba_marseille","lat":43.25715,"lon":5.4107,"is_reserved":false,"is_disabled":false,"rental_uris":{"android":"levelo://app?vid=4675c641-309f-4c25-8594-c8cdedd2fb6c","ios":"levelo://app?vid=4675c641-309f-4c25-8594-c8cdedd2fb6c"},"vehicle_type_id":"4","last_reported":1753640062,"current_range_meters":9200,"station_id":"ce4bhkp2rcd13ifvqgd0","pricing_plan_id":"cebpf4jnsgd1na2vs0mg"},{"bike_id":"7e65c5ea-0429-45f5-a396-bd32e67f0744","system_id":"levelo_inurba_marseille","lat":43.33468,"lon":5.40041,"is_reserved":false,"is_disabled":false,"rental_uris":{"android":"levelo://app?vid=7e65c5ea-0429-45f5-a396-bd32e67f0744","ios":"levelo://app?vid=7e65c5ea-0429-45f5-a396-bd32e67f0744"},"vehicle_type_id":"4","last_reported":1753640062,"current_range_meters":9200,"station_id":"","pricing_plan_id":"cebpf4jnsgd1na2vs0mg"},{"bike_id":"3ab8c0db-6d91-4e29-9fb7-28e6dc8d1948","system_id":"levelo_inurba_marseille","lat":43.30142,"lon":5.37417,"is_reserved":false,"is_disabled":false,"rental_uris":{"android":"levelo://app?vid=3ab8c0db-6d91-4e29-9fb7-28e6dc8d1948","ios":"levelo://app?vid=3ab8c0db-6d91-4e29-9fb7-28e6dc8d1948"},"vehicle_type_id":"4","last_reported":1753640062,"current_range_meters":9200,"station_id":"ce4bgs92rcd13ifvqcc0","pricing_plan_id":"cebpf4jnsgd1na2vs0mg"},{"bike_id":"d5a63dee-a415-40f6-88a8-f1d25d6ddaa1","system_id":"levelo_inurba_marseille","lat":43.290311,"lon":5.399895,"is_reserved":false,"is_disabled":true,"rental_uris":{"android":"levelo://app?vid=d5a63dee-a415-40f6-88a8-f1d25d6ddaa1","ios":"levelo://app?vid=d5a63dee-a415-40f6-88a8-f1d25d6ddaa1"},"vehicle_type_id":"4","last_reported":1753640062,"current_range_meters":9600,"station_id":"ce4bh392rcd13ifvqdm0","pricing_plan_id":"cebpf4jnsgd1na2vs0mg"},{"bike_id":"0271a971-a1f3-4db7-86cf-99ec793c582a","system_id":"levelo_inurba_marseille","lat":43.29195,"lon":5.39334,"is_reserved":false,"is_disabled":false,"rental_uris":{"android":"levelo://app?vid=0271a971-a1f3-4db7-86cf-99ec793c582a","ios":"levelo://app?vid=0271a971-a1f3-4db7-86cf-99ec793c582a"},"vehicle_type_id":"4","last_reported":1753640062,"current_range_meters":9600,"station_id":"ce4bh192rcd13ifvqdd0","pricing_plan_id":"cebpf4jnsgd1na2vs0mg"},{"bike_id":"74c13756-8dd0-45cf-a8ae-a92696337777","system_id":"levelo_inurba_marseille","lat":43.30596,"lon":5.37214,"is_reserved":false,"is_disabled":false,"rental_uris":{"android":"levelo://app?vid=74c13756-8dd0-45cf-a8ae-a92696337777","ios":"levelo://app?vid=74c13756-8dd0-45cf-a8ae-a92696337777"},"vehicle_type_id":"4","last_reported":1753640062,"current_range_meters":9600,"station_id":"ce4bgqh2rcd13ifvqc4g","pricing_plan_id":"cebpf4jnsgd1na2vs0mg"},{"bike_id":"96e8f9e2-5ed4-4a64-abed-b574666ba88d","system_id":"levelo_inurba_marseille","lat":43.2119,"lon":5.35068,"is_reserved":false,"is_disabled":false,"rental_uris":{"android":"levelo://app?vid=96e8f9e2-5ed4-4a64-abed-b574666ba88d","ios":"levelo://app?vid=96e8f9e2-5ed4-4a64-abed-b574666ba88d"},"vehicle_type_id":"4","last_reported":1753640062,"current_range_meters":9600,"station_id":"st_cvj6sg6p6f1abm77japg","pricing_plan_id":"cebpf4jnsgd1na2vs0mg"},{"bike_id":"29ec279d-3488-4c26-abd3-084a9d61f3f0","system_id":"levelo_inurba_marseille","lat":43.26226,"lon":5.37505,"is_reserved":false,"is_disabled":false,"rental_uris":{"android":"levelo://app?vid=29ec279d-3488-4c26-abd3-084a9d61f3f0","ios":"levelo://app?vid=29ec279d-3488-4c26-abd3-084a9d61f3f0"},"vehicle_type_id":"4","last_reported":1753640062,"current_range_meters":9600,"station_id":"ce4bhgp2rcd13ifvqfc0","pricing_plan_id":"cebpf4jnsgd1na2vs0mg"},{"bike_id":"1724e727-4de7-48fe-bbf9-3168aaff9433","system_id":"levelo_inurba_marseille","lat":43.29513,"lon":5.3749,"is_reserved":false,"is_disabled":false,"rental_uris":{"android":"levelo://app?vid=1724e727-4de7-48fe-bbf9-3168aaff9433","ios":"levelo://app?vid=1724e727-4de7-48fe-bbf9-3168aaff9433"},"vehicle_type_id":"4","last_reported":1753640062,"current_range_meters":9600,"station_id":"ce4bgkp2rcd13ifvqbmg","pricing_plan_id":"cebpf4jnsgd1na2vs0mg"},{"bike_id":"f2876902-0402-4dca-8fa2-0ffba379c9ac","system_id":"levelo_inurba_marseille","lat":43.29058,"lon":5.37567,"is_reserved":false,"is_disabled":false,"rental_uris":{"android":"levelo://app?vid=f2876902-0402-4dca-8fa2-0ffba379c9ac","ios":"levelo://app?vid=f2876902-0402-4dca-8fa2-0ffba379c9ac"},"vehicle_type_id":"4","last_reported":1753640062,"current_range_meters":9600,"station_id":"ce4bh692rcd13ifvqe90","pricing_plan_id":"cebpf4jnsgd1na2vs0mg"},{"bike_id":"760ae2ce-cbf4-46c2-b8f4-53a13d554831","system_id":"levelo_inurba_marseille","lat":43.28448,"lon":5.39196,"is_reserved":false,"is_disabled":false,"rental_uris":{"android":"levelo://app?vid=760ae2ce-cbf4-46c2-b8f4-53a13d554831","ios":"levelo://app?vid=760ae2ce-cbf4-46c2-b8f4-53a13d554831"},"vehicle_type_id":"4","last_reported":1753640062,"current_range_meters":10000,"station_id":"ce4bhoh2rcd13ifvqh5g","pricing_plan_id":"cebpf4jnsgd1na2vs0mg"},{"bike_id":"898d1f8e-e261-4f25-9386-a6825028d102","system_id":"levelo_inurba_marseille","lat":43.29087,"lon":5.47301,"is_reserved":false,"is_disabled":false,"rental_uris":{"android":"levelo://app?vid=898d1f8e-e261-4f25-9386-a6825028d102","ios":"levelo://app?vid=898d1f8e-e261-4f25-9386-a6825028d102"},"vehicle_type_id":"4","last_reported":1753640062,"current_range_meters":10000,"station_id":"","pricing_plan_id":"cebpf4jnsgd1na2vs0mg"},{"bike_id":"9dfdeb8a-ee13-4931-94b4-ad2b5f23aa4b","system_id":"levelo_inurba_marseille","lat":43.231878,"lon":5.399859,"is_reserved":false,"is_disabled":true,"rental_uris":{"android":"levelo://app?vid=9dfdeb8a-ee13-4931-94b4-ad2b5f23aa4b","ios":"levelo://app?vid=9dfdeb8a-ee13-4931-94b4-ad2b5f23aa4b"},"vehicle_type_id":"4","last_reported":1753640062,"current_range_meters":10000,"station_id":"ce4bhn12rcd13ifvqgqg","pricing_plan_id":"cebpf4jnsgd1na2vs0mg"},{"bike_id":"a05343f6-5345-451e-92c9-8d14b4ec04eb","system_id":"levelo_inurba_marseille","lat":43.314919,"lon":5.373082,"is_reserved":false,"is_disabled":false,"rental_uris":{"android":"levelo://app?vid=a05343f6-5345-451e-92c9-8d14b4ec04eb","ios":"levelo://app?vid=a05343f6-5345-451e-92c9-8d14b4ec04eb"},"vehicle_type_id":"4","last_reported":1753640062,"current_range_meters":10000,"station_id":"","pricing_plan_id":"cebpf4jnsgd1na2vs0mg"},{"bike_id":"a1d5115b-997f-44a5-8b4b-21cb29757407","system_id":"levelo_inurba_marseille","lat":43.312088,"lon":5.373087,"is_reserved":false,"is_disabled":false,"rental_uris":{"android":"levelo://app?vid=a1d5115b-997f-44a5-8b4b-21cb29757407","ios":"levelo://app?vid=a1d5115b-997f-44a5-8b4b-21cb29757407"},"vehicle_type_id":"4","last_reported":1753640062,"current_range_meters":10000,"station_id":"","pricing_plan_id":"cebpf4jnsgd1na2vs0mg"},{"bike_id":"af57abbc-92c1-451c-b473-8d9e3f4b3795","system_id":"levelo_inurba_marseille","lat":43.29268,"lon":5.37628,"is_reserved":false,"is_disabled":false,"rental_uris":{"android":"levelo://app?vid=af57abbc-92c1-451c-b473-8d9e3f4b3795","ios":"levelo://app?vid=af57abbc-92c1-451c-b473-8d9e3f4b3795"},"vehicle_type_id":"4","last_reported":1753640062,"current_range_meters":10000,"station_id":"ce4bgi12rcd13ifvqb80","pricing_plan_id":"cebpf4jnsgd1na2vs0mg"},{"bike_id":"e16be63e-9772-4697-933e-55548c2c7ebb","system_id":"levelo_inurba_marseille","lat":43.29511,"lon":5.37499,"is_reserved":false,"is_disabled":false,"rental_uris":{"android":"levelo://app?vid=e16be63e-9772-4697-933e-55548c2c7ebb","ios":"levelo://app?vid=e16be63e-9772-4697-933e-55548c2c7ebb"},"vehicle_type_id":"4","last_reported":1753640062,"current_range_meters":10000,"station_id":"ce4bgkp2rcd13ifvqbmg","pricing_plan_id":"cebpf4jnsgd1na2vs0mg"},{"bike_id":"ff6db71b-a463-4685-b650-05756d79427c","system_id":"levelo_inurba_marseille","lat":43.28624,"lon":5.37043,"is_reserved":false,"is_disabled":false,"rental_uris":{"android":"levelo://app?vid=ff6db71b-a463-4685-b650-05756d79427c","ios":"levelo://app?vid=ff6db71b-a463-4685-b650-05756d79427c"},"vehicle_type_id":"4","last_reported":1753640062,"current_range_meters":10800,"station_id":"ce4bht12rcd13ifvqi60","pricing_plan_id":"cebpf4jnsgd1na2vs0mg"},{"bike_id":"0e9dba5d-535d-440b-9c9f-ceba70e0c7ee","system_id":"levelo_inurba_marseille","lat":43.29192,"lon":5.39346,"is_reserved":false,"is_disabled":false,"rental_uris":{"android":"levelo://app?vid=0e9dba5d-535d-440b-9c9f-ceba70e0c7ee","ios":"levelo://app?vid=0e9dba5d-535d-440b-9c9f-ceba70e0c7ee"},"vehicle_type_id":"4","last_reported":1753640062,"current_range_meters":10000,"station_id":"ce4bh192rcd13ifvqdd0","pricing_plan_id":"cebpf4jnsgd1na2vs0mg"},{"bike_id":"87a4aa4c-d4e8-42ac-afde-f013943457d3","system_id":"levelo_inurba_marseille","lat":43.3095,"lon":5.3902,"is_reserved":false,"is_disabled":false,"rental_uris":{"android":"levelo://app?vid=87a4aa4c-d4e8-42ac-afde-f013943457d3","ios":"levelo://app?vid=87a4aa4c-d4e8-42ac-afde-f013943457d3"},"vehicle_type_id":"4","last_reported":1753640062,"current_range_meters":10800,"station_id":"ce4bgup2rcd13ifvqco0","pricing_plan_id":"cebpf4jnsgd1na2vs0mg"},{"bike_id":"7948d0cb-2301-4649-a622-4a219c98d217","system_id":"levelo_inurba_marseille","lat":43.31365,"lon":5.38501,"is_reserved":false,"is_disabled":false,"rental_uris":{"android":"levelo://app?vid=7948d0cb-2301-4649-a622-4a219c98d217","ios":"levelo://app?vid=7948d0cb-2301-4649-a622-4a219c98d217"},"vehicle_type_id":"4","last_reported":1753640062,"current_range_meters":10800,"station_id":"ce4bgt92rcd13ifvqcf0","pricing_plan_id":"cebpf4jnsgd1na2vs0mg"},{"bike_id":"6a38ad86-92b8-4aed-98d7-3569ef9cc105","system_id":"levelo_inurba_marseille","lat":43.2174,"lon":5.34595,"is_reserved":false,"is_disabled":true,"rental_uris":{"android":"levelo://app?vid=6a38ad86-92b8-4aed-98d7-3569ef9cc105","ios":"levelo://app?vid=6a38ad86-92b8-4aed-98d7-3569ef9cc105"},"vehicle_type_id":"4","last_reported":1753640062,"current_range_meters":11200,"station_id":"st_cvj6r9ubvosntc0bgbag","pricing_plan_id":"cebpf4jnsgd1na2vs0mg"},{"bike_id":"7fe8107c-aa92-49b9-a3d4-b0180595b13e","system_id":"levelo_inurba_marseille","lat":43.298235,"lon":5.376573,"is_reserved":false,"is_disabled":false,"rental_uris":{"android":"levelo://app?vid=7fe8107c-aa92-49b9-a3d4-b0180595b13e","ios":"levelo://app?vid=7fe8107c-aa92-49b9-a3d4-b0180595b13e"},"vehicle_type_id":"4","last_reported":1753640062,"current_range_meters":10800,"station_id":"","pricing_plan_id":"cebpf4jnsgd1na2vs0mg"},{"bike_id":"1e5c96a6-9d0f-4d5f-85ef-5a5f8ac0317a","system_id":"levelo_inurba_marseille","lat":43.3342,"lon":5.3911,"is_reserved":false,"is_disabled":false,"rental_uris":{"android":"levelo://app?vid=1e5c96a6-9d0f-4d5f-85ef-5a5f8ac0317a","ios":"levelo://app?vid=1e5c96a6-9d0f-4d5f-85ef-5a5f8ac0317a"},"vehicle_type_id":"4","last_reported":1753640062,"current_range_meters":10800,"station_id":"","pricing_plan_id":"cebpf4jnsgd1na2vs0mg"},{"bike_id":"43dbc09e-d0e4-4ddb-bafe-4f55874d23a9","system_id":"levelo_inurba_marseille","lat":43.30238,"lon":5.38236,"is_reserved":false,"is_disabled":false,"rental_uris":{"android":"levelo://app?vid=43dbc09e-d0e4-4ddb-bafe-4f55874d23a9","ios":"levelo://app?vid=43dbc09e-d0e4-4ddb-bafe-4f55874d23a9"},"vehicle_type_id":"4","last_reported":1753640062,"current_range_meters":10800,"station_id":"","pricing_plan_id":"cebpf4jnsgd1na2vs0mg"},{"bike_id":"1d2f92cc-5eee-4686-a745-6cb2184d6c85","system_id":"levelo_inurba_marseille","lat":43.31706,"lon":5.37761,"is_reserved":false,"is_disabled":false,"rental_uris":{"android":"levelo://app?vid=1d2f92cc-5eee-4686-a745-6cb2184d6c85","ios":"levelo://app?vid=1d2f92cc-5eee-4686-a745-6cb2184d6c85"},"vehicle_type_id":"4","last_reported":1753640062,"current_range_meters":10800,"station_id":"ce4bgth2rcd13ifvqch0","pricing_plan_id":"cebpf4jnsgd1na2vs0mg"},{"bike_id":"aaa10495-cbe9-4c7b-924a-c5e552ee5443","system_id":"levelo_inurba_marseille","lat":43.30609,"lon":5.37224,"is_reserved":false,"is_disabled":false,"rental_uris":{"android":"levelo://app?vid=aaa10495-cbe9-4c7b-924a-c5e552ee5443","ios":"levelo://app?vid=aaa10495-cbe9-4c7b-924a-c5e552ee5443"},"vehicle_type_id":"4","last_reported":1753640062,"current_range_meters":10800,"station_id":"ce4bgqh2rcd13ifvqc4g","pricing_plan_id":"cebpf4jnsgd1na2vs0mg"},{"bike_id":"24d9a91c-09e7-4c8c-96b5-d9825c2f89aa","system_id":"levelo_inurba_marseille","lat":43.29254,"lon":5.4089,"is_reserved":false,"is_disabled":false,"rental_uris":{"android":"levelo://app?vid=24d9a91c-09e7-4c8c-96b5-d9825c2f89aa","ios":"levelo://app?vid=24d9a91c-09e7-4c8c-96b5-d9825c2f89aa"},"vehicle_type_id":"4","last_reported":1753640062,"current_range_meters":10800,"station_id":"ce4bh192rcd13ifvqdc0","pricing_plan_id":"cebpf4jnsgd1na2vs0mg"},{"bike_id":"adaa6d54-9d85-4f13-ac14-059693fffec3","system_id":"levelo_inurba_marseille","lat":43.29276,"lon":5.40115,"is_reserved":false,"is_disabled":false,"rental_uris":{"android":"levelo://app?vid=adaa6d54-9d85-4f13-ac14-059693fffec3","ios":"levelo://app?vid=adaa6d54-9d85-4f13-ac14-059693fffec3"},"vehicle_type_id":"4","last_reported":1753640062,"current_range_meters":10800,"station_id":"ce4bh312rcd13ifvqdk0","pricing_plan_id":"cebpf4jnsgd1na2vs0mg"},{"bike_id":"883ffbb1-4b6b-40dc-98c4-d6492b809535","system_id":"levelo_inurba_marseille","lat":43.30613,"lon":5.3931,"is_reserved":false,"is_disabled":false,"rental_uris":{"android":"levelo://app?vid=883ffbb1-4b6b-40dc-98c4-d6492b809535","ios":"levelo://app?vid=883ffbb1-4b6b-40dc-98c4-d6492b809535"},"vehicle_type_id":"4","last_reported":1753640062,"current_range_meters":11200,"station_id":"ce4bh0p2rcd13ifvqd80","pricing_plan_id":"cebpf4jnsgd1na2vs0mg"},{"bike_id":"d55488e5-f756-4071-b124-c7dad80db2be","system_id":"levelo_inurba_marseille","lat":43.29527,"lon":5.3855,"is_reserved":false,"is_disabled":false,"rental_uris":{"android":"levelo://app?vid=d55488e5-f756-4071-b124-c7dad80db2be","ios":"levelo://app?vid=d55488e5-f756-4071-b124-c7dad80db2be"},"vehicle_type_id":"4","last_reported":1753640062,"current_range_meters":11200,"station_id":"ce4bgih2rcd13ifvqba0","pricing_plan_id":"cebpf4jnsgd1na2vs0mg"},{"bike_id":"c5670f87-458d-41c8-b981-dbde27272b77","system_id":"levelo_inurba_marseille","lat":43.29536,"lon":5.38539,"is_reserved":false,"is_disabled":false,"rental_uris":{"android":"levelo://app?vid=c5670f87-458d-41c8-b981-dbde27272b77","ios":"levelo://app?vid=c5670f87-458d-41c8-b981-dbde27272b77"},"vehicle_type_id":"4","last_reported":1753640062,"current_range_meters":11200,"station_id":"ce4bgih2rcd13ifvqba0","pricing_plan_id":"cebpf4jnsgd1na2vs0mg"},{"bike_id":"d25570e3-87c9-4356-ba9f-96a9aa944e99","system_id":"levelo_inurba_marseille","lat":43.28349,"lon":5.38114,"is_reserved":false,"is_disabled":false,"rental_uris":{"android":"levelo://app?vid=d25570e3-87c9-4356-ba9f-96a9aa944e99","ios":"levelo://app?vid=d25570e3-87c9-4356-ba9f-96a9aa944e99"},"vehicle_type_id":"4","last_reported":1753640062,"current_range_meters":11200,"station_id":"ce4bh412rcd13ifvqdr0","pricing_plan_id":"cebpf4jnsgd1na2vs0mg"},{"bike_id":"83bbca6d-2534-4f05-bae4-1e3346fe94a2","system_id":"levelo_inurba_marseille","lat":43.31996,"lon":5.38157,"is_reserved":false,"is_disabled":false,"rental_uris":{"android":"levelo://app?vid=83bbca6d-2534-4f05-bae4-1e3346fe94a2","ios":"levelo://app?vid=83bbca6d-2534-4f05-bae4-1e3346fe94a2"},"vehicle_type_id":"4","last_reported":1753640062,"current_range_meters":11200,"station_id":"ce4bhr12rcd13ifvqhpg","pricing_plan_id":"cebpf4jnsgd1na2vs0mg"},{"bike_id":"cb0585d3-2f9b-4644-8abe-1cc056e12bd9","system_id":"levelo_inurba_marseille","lat":43.27623,"lon":5.3609,"is_reserved":false,"is_disabled":false,"rental_uris":{"android":"levelo://app?vid=cb0585d3-2f9b-4644-8abe-1cc056e12bd9","ios":"levelo://app?vid=cb0585d3-2f9b-4644-8abe-1cc056e12bd9"},"vehicle_type_id":"4","last_reported":1753640062,"current_range_meters":11600,"station_id":"ce4bgj92rcd13ifvqbe0","pricing_plan_id":"cebpf4jnsgd1na2vs0mg"},{"bike_id":"4aca4962-8433-4e72-90ef-32939ad1f7d0","system_id":"levelo_inurba_marseille","lat":43.29037,"lon":5.38627,"is_reserved":false,"is_disabled":false,"rental_uris":{"android":"levelo://app?vid=4aca4962-8433-4e72-90ef-32939ad1f7d0","ios":"levelo://app?vid=4aca4962-8433-4e72-90ef-32939ad1f7d0"},"vehicle_type_id":"4","last_reported":1753640062,"current_range_meters":11600,"station_id":"ce4bh4p2rcd13ifvqe0g","pricing_plan_id":"cebpf4jnsgd1na2vs0mg"},{"bike_id":"771b173f-f7f3-4770-b96b-55c7464661a6","system_id":"levelo_inurba_marseille","lat":43.29529,"lon":5.38534,"is_reserved":false,"is_disabled":false,"rental_uris":{"android":"levelo://app?vid=771b173f-f7f3-4770-b96b-55c7464661a6","ios":"levelo://app?vid=771b173f-f7f3-4770-b96b-55c7464661a6"},"vehicle_type_id":"4","last_reported":1753640062,"current_range_meters":11600,"station_id":"ce4bgih2rcd13ifvqba0","pricing_plan_id":"cebpf4jnsgd1na2vs0mg"},{"bike_id":"ca343e5c-cfea-45c9-be68-fb6151352d17","system_id":"levelo_inurba_marseille","lat":43.29252,"lon":5.40893,"is_reserved":false,"is_disabled":false,"rental_uris":{"android":"levelo://app?vid=ca343e5c-cfea-45c9-be68-fb6151352d17","ios":"levelo://app?vid=ca343e5c-cfea-45c9-be68-fb6151352d17"},"vehicle_type_id":"4","last_reported":1753640062,"current_range_meters":11600,"station_id":"ce4bh192rcd13ifvqdc0","pricing_plan_id":"cebpf4jnsgd1na2vs0mg"},{"bike_id":"c89f0a28-c3bb-4df4-84bd-d0e7ceb73609","system_id":"levelo_inurba_marseille","lat":43.24083,"lon":5.37748,"is_reserved":false,"is_disabled":false,"rental_uris":{"android":"levelo://app?vid=c89f0a28-c3bb-4df4-84bd-d0e7ceb73609","ios":"levelo://app?vid=c89f0a28-c3bb-4df4-84bd-d0e7ceb73609"},"vehicle_type_id":"4","last_reported":1753640062,"current_range_meters":11600,"station_id":"ce4bhnp2rcd13ifvqgvg","pricing_plan_id":"cebpf4jnsgd1na2vs0mg"},{"bike_id":"905576ef-66ce-426e-9600-566828c3b671","system_id":"levelo_inurba_marseille","lat":43.2175,"lon":5.346014,"is_reserved":false,"is_disabled":true,"rental_uris":{"android":"levelo://app?vid=905576ef-66ce-426e-9600-566828c3b671","ios":"levelo://app?vid=905576ef-66ce-426e-9600-566828c3b671"},"vehicle_type_id":"4","last_reported":1753640062,"current_range_meters":12000,"station_id":"","pricing_plan_id":"cebpf4jnsgd1na2vs0mg"},{"bike_id":"bf75f038-1205-42f4-86d9-9f3d7bf0ca0d","system_id":"levelo_inurba_marseille","lat":43.29622,"lon":5.37163,"is_reserved":false,"is_disabled":false,"rental_uris":{"android":"levelo://app?vid=bf75f038-1205-42f4-86d9-9f3d7bf0ca0d","ios":"levelo://app?vid=bf75f038-1205-42f4-86d9-9f3d7bf0ca0d"},"vehicle_type_id":"4","last_reported":1753640062,"current_range_meters":11600,"station_id":"ce4bgnh2rcd13ifvqc0g","pricing_plan_id":"cebpf4jnsgd1na2vs0mg"},{"bike_id":"aebdf431-3b97-428a-a9b4-1e35e4b29383","system_id":"levelo_inurba_marseille","lat":43.31702,"lon":5.40463,"is_reserved":false,"is_disabled":false,"rental_uris":{"android":"levelo://app?vid=aebdf431-3b97-428a-a9b4-1e35e4b29383","ios":"levelo://app?vid=aebdf431-3b97-428a-a9b4-1e35e4b29383"},"vehicle_type_id":"4","last_reported":1753640062,"current_range_meters":12000,"station_id":"ce4bh012rcd13ifvqd00","pricing_plan_id":"cebpf4jnsgd1na2vs0mg"},{"bike_id":"f2e73ed9-a948-43ea-ab9d-32368cf8a475","system_id":"levelo_inurba_marseille","lat":43.26193,"lon":5.37452,"is_reserved":false,"is_disabled":true,"rental_uris":{"android":"levelo://app?vid=f2e73ed9-a948-43ea-ab9d-32368cf8a475","ios":"levelo://app?vid=f2e73ed9-a948-43ea-ab9d-32368cf8a475"},"vehicle_type_id":"4","last_reported":1753640062,"current_range_meters":12000,"station_id":"ce4bhgp2rcd13ifvqfc0","pricing_plan_id":"cebpf4jnsgd1na2vs0mg"},{"bike_id":"6e0d469e-c7b7-478d-b94e-daf583879f57","system_id":"levelo_inurba_marseille","lat":43.23167,"lon":5.35581,"is_reserved":false,"is_disabled":false,"rental_uris":{"android":"levelo://app?vid=6e0d469e-c7b7-478d-b94e-daf583879f57","ios":"levelo://app?vid=6e0d469e-c7b7-478d-b94e-daf583879f57"},"vehicle_type_id":"4","last_reported":1753640062,"current_range_meters":12000,"station_id":"ce4bhu92rcd13ifvqi70","pricing_plan_id":"cebpf4jnsgd1na2vs0mg"},{"bike_id":"198a8a48-9082-408a-ac7c-20dca32fbf4e","system_id":"levelo_inurba_marseille","lat":43.32063,"lon":5.40934,"is_reserved":false,"is_disabled":false,"rental_uris":{"android":"levelo://app?vid=198a8a48-9082-408a-ac7c-20dca32fbf4e","ios":"levelo://app?vid=198a8a48-9082-408a-ac7c-20dca32fbf4e"},"vehicle_type_id":"4","last_reported":1753640062,"current_range_meters":12000,"station_id":"","pricing_plan_id":"cebpf4jnsgd1na2vs0mg"},{"bike_id":"da0dea9a-07a2-4249-aa7c-2489e28d40de","system_id":"levelo_inurba_marseille","lat":43.29629,"lon":5.36235,"is_reserved":false,"is_disabled":false,"rental_uris":{"android":"levelo://app?vid=da0dea9a-07a2-4249-aa7c-2489e28d40de","ios":"levelo://app?vid=da0dea9a-07a2-4249-aa7c-2489e28d40de"},"vehicle_type_id":"4","last_reported":1753640062,"current_range_meters":12400,"station_id":"","pricing_plan_id":"cebpf4jnsgd1na2vs0mg"},{"bike_id":"e5f45e86-a25f-4bde-9c89-4e7b0afd2dbd","system_id":"levelo_inurba_marseille","lat":43.28418,"lon":5.37518,"is_reserved":false,"is_disabled":false,"rental_uris":{"android":"levelo://app?vid=e5f45e86-a25f-4bde-9c89-4e7b0afd2dbd","ios":"levelo://app?vid=e5f45e86-a25f-4bde-9c89-4e7b0afd2dbd"},"vehicle_type_id":"4","last_reported":1753640062,"current_range_meters":12400,"station_id":"ce4bh412rcd13ifvqds0","pricing_plan_id":"cebpf4jnsgd1na2vs0mg"},{"bike_id":"d83680a7-19c3-49f8-8880-4db5786b3976","system_id":"levelo_inurba_marseille","lat":43.2797,"lon":5.38731,"is_reserved":false,"is_disabled":false,"rental_uris":{"android":"levelo://app?vid=d83680a7-19c3-49f8-8880-4db5786b3976","ios":"levelo://app?vid=d83680a7-19c3-49f8-8880-4db5786b3976"},"vehicle_type_id":"4","last_reported":1753640062,"current_range_meters":12400,"station_id":"ce4bhg12rcd13ifvqf80","pricing_plan_id":"cebpf4jnsgd1na2vs0mg"},{"bike_id":"463e03fe-b9b0-4212-a764-9bd6d78e3c2e","system_id":"levelo_inurba_marseille","lat":43.31014,"lon":5.38137,"is_reserved":false,"is_disabled":false,"rental_uris":{"android":"levelo://app?vid=463e03fe-b9b0-4212-a764-9bd6d78e3c2e","ios":"levelo://app?vid=463e03fe-b9b0-4212-a764-9bd6d78e3c2e"},"vehicle_type_id":"4","last_reported":1753640062,"current_range_meters":12400,"station_id":"","pricing_plan_id":"cebpf4jnsgd1na2vs0mg"},{"bike_id":"bbd4e861-1398-427f-9916-217ed9782a8f","system_id":"levelo_inurba_marseille","lat":43.29589,"lon":5.36723,"is_reserved":false,"is_disabled":false,"rental_uris":{"android":"levelo://app?vid=bbd4e861-1398-427f-9916-217ed9782a8f","ios":"levelo://app?vid=bbd4e861-1398-427f-9916-217ed9782a8f"},"vehicle_type_id":"4","last_reported":1753640062,"current_range_meters":12400,"station_id":"ce4bgph2rcd13ifvqc2g","pricing_plan_id":"cebpf4jnsgd1na2vs0mg"},{"bike_id":"2a14971f-64ea-4de3-9fa9-9f4618e1f4d4","system_id":"levelo_inurba_marseille","lat":43.292689,"lon":5.384365,"is_reserved":false,"is_disabled":false,"rental_uris":{"android":"levelo://app?vid=2a14971f-64ea-4de3-9fa9-9f4618e1f4d4","ios":"levelo://app?vid=2a14971f-64ea-4de3-9fa9-9f4618e1f4d4"},"vehicle_type_id":"4","last_reported":1753640062,"current_range_meters":12400,"station_id":"ce4bh692rcd13ifvqea0","pricing_plan_id":"cebpf4jnsgd1na2vs0mg"},{"bike_id":"2e189901-60b5-4e7f-9fea-e591db1db61f","system_id":"levelo_inurba_marseille","lat":43.251166,"lon":5.403162,"is_reserved":false,"is_disabled":false,"rental_uris":{"android":"levelo://app?vid=2e189901-60b5-4e7f-9fea-e591db1db61f","ios":"levelo://app?vid=2e189901-60b5-4e7f-9fea-e591db1db61f"},"vehicle_type_id":"4","last_reported":1753640062,"current_range_meters":12400,"station_id":"ce4bhlh2rcd13ifvqgig","pricing_plan_id":"cebpf4jnsgd1na2vs0mg"},{"bike_id":"35fc0aa0-f0f3-4700-8c25-61f01b9b7ccc","system_id":"levelo_inurba_marseille","lat":43.28104,"lon":5.37831,"is_reserved":false,"is_disabled":false,"rental_uris":{"android":"levelo://app?vid=35fc0aa0-f0f3-4700-8c25-61f01b9b7ccc","ios":"levelo://app?vid=35fc0aa0-f0f3-4700-8c25-61f01b9b7ccc"},"vehicle_type_id":"4","last_reported":1753640062,"current_range_meters":12400,"station_id":"ce4bha12rcd13ifvqee0","pricing_plan_id":"cebpf4jnsgd1na2vs0mg"},{"bike_id":"8512b265-75e1-49d7-bb7d-bd988c357d7c","system_id":"levelo_inurba_marseille","lat":43.28737,"lon":5.39974,"is_reserved":false,"is_disabled":true,"rental_uris":{"android":"levelo://app?vid=8512b265-75e1-49d7-bb7d-bd988c357d7c","ios":"levelo://app?vid=8512b265-75e1-49d7-bb7d-bd988c357d7c"},"vehicle_type_id":"4","last_reported":1753640062,"current_range_meters":12400,"station_id":"ce4bho92rcd13ifvqh3g","pricing_plan_id":"cebpf4jnsgd1na2vs0mg"},{"bike_id":"80c7dd9a-176e-492c-b5cc-65f7042a3a8d","system_id":"levelo_inurba_marseille","lat":43.29577,"lon":5.36746,"is_reserved":false,"is_disabled":false,"rental_uris":{"android":"levelo://app?vid=80c7dd9a-176e-492c-b5cc-65f7042a3a8d","ios":"levelo://app?vid=80c7dd9a-176e-492c-b5cc-65f7042a3a8d"},"vehicle_type_id":"4","last_reported":1753640062,"current_range_meters":12400,"station_id":"ce4bgph2rcd13ifvqc2g","pricing_plan_id":"cebpf4jnsgd1na2vs0mg"},{"bike_id":"416acd6b-072a-494f-b869-b2b61f9cc9d7","system_id":"levelo_inurba_marseille","lat":43.22501,"lon":5.34762,"is_reserved":false,"is_disabled":false,"rental_uris":{"android":"levelo://app?vid=416acd6b-072a-494f-b869-b2b61f9cc9d7","ios":"levelo://app?vid=416acd6b-072a-494f-b869-b2b61f9cc9d7"},"vehicle_type_id":"4","last_reported":1753640062,"current_range_meters":12400,"station_id":"st_cvj5dfep6f1abm77gieg","pricing_plan_id":"cebpf4jnsgd1na2vs0mg"},{"bike_id":"8b091c87-00a4-4e64-a058-ca35b401f679","system_id":"levelo_inurba_marseille","lat":43.24823,"lon":5.37398,"is_reserved":false,"is_disabled":true,"rental_uris":{"android":"levelo://app?vid=8b091c87-00a4-4e64-a058-ca35b401f679","ios":"levelo://app?vid=8b091c87-00a4-4e64-a058-ca35b401f679"},"vehicle_type_id":"4","last_reported":1753640062,"current_range_meters":12800,"station_id":"","pricing_plan_id":"cebpf4jnsgd1na2vs0mg"},{"bike_id":"e666153e-0d94-49fc-a285-a6a2347ef6ad","system_id":"levelo_inurba_marseille","lat":43.26965,"lon":5.38603,"is_reserved":false,"is_disabled":true,"rental_uris":{"android":"levelo://app?vid=e666153e-0d94-49fc-a285-a6a2347ef6ad","ios":"levelo://app?vid=e666153e-0d94-49fc-a285-a6a2347ef6ad"},"vehicle_type_id":"4","last_reported":1753640062,"current_range_meters":12800,"station_id":"ce4bhh92rcd13ifvqfh0","pricing_plan_id":"cebpf4jnsgd1na2vs0mg"},{"bike_id":"7d148603-9d75-4ff4-942d-4025d8974564","system_id":"levelo_inurba_marseille","lat":43.257396,"lon":5.410984,"is_reserved":false,"is_disabled":false,"rental_uris":{"android":"levelo://app?vid=7d148603-9d75-4ff4-942d-4025d8974564","ios":"levelo://app?vid=7d148603-9d75-4ff4-942d-4025d8974564"},"vehicle_type_id":"4","last_reported":1753640062,"current_range_meters":12800,"station_id":"ce4bhkp2rcd13ifvqgd0","pricing_plan_id":"cebpf4jnsgd1na2vs0mg"},{"bike_id":"e93689f3-25dc-4193-bbc3-fc3901826c20","system_id":"levelo_inurba_marseille","lat":43.29272,"lon":5.38425,"is_reserved":false,"is_disabled":false,"rental_uris":{"android":"levelo://app?vid=e93689f3-25dc-4193-bbc3-fc3901826c20","ios":"levelo://app?vid=e93689f3-25dc-4193-bbc3-fc3901826c20"},"vehicle_type_id":"4","last_reported":1753640062,"current_range_meters":12800,"station_id":"ce4bh692rcd13ifvqea0","pricing_plan_id":"cebpf4jnsgd1na2vs0mg"},{"bike_id":"e68865ca-05d7-4367-b485-5a1df3b59c5d","system_id":"levelo_inurba_marseille","lat":43.28722,"lon":5.37943,"is_reserved":false,"is_disabled":false,"rental_uris":{"android":"levelo://app?vid=e68865ca-05d7-4367-b485-5a1df3b59c5d","ios":"levelo://app?vid=e68865ca-05d7-4367-b485-5a1df3b59c5d"},"vehicle_type_id":"4","last_reported":1753640062,"current_range_meters":12400,"station_id":"ce4bh9p2rcd13ifvqec0","pricing_plan_id":"cebpf4jnsgd1na2vs0mg"},{"bike_id":"9fb1394d-6b86-488b-888f-4e63d77efd31","system_id":"levelo_inurba_marseille","lat":43.28923,"lon":5.36642,"is_reserved":false,"is_disabled":false,"rental_uris":{"android":"levelo://app?vid=9fb1394d-6b86-488b-888f-4e63d77efd31","ios":"levelo://app?vid=9fb1394d-6b86-488b-888f-4e63d77efd31"},"vehicle_type_id":"4","last_reported":1753640062,"current_range_meters":12400,"station_id":"ce4bhap2rcd13ifvqek0","pricing_plan_id":"cebpf4jnsgd1na2vs0mg"},{"bike_id":"d65f360c-5c9b-4c18-b4d7-04dcb14d65e0","system_id":"levelo_inurba_marseille","lat":43.31483,"lon":5.37305,"is_reserved":false,"is_disabled":false,"rental_uris":{"android":"levelo://app?vid=d65f360c-5c9b-4c18-b4d7-04dcb14d65e0","ios":"levelo://app?vid=d65f360c-5c9b-4c18-b4d7-04dcb14d65e0"},"vehicle_type_id":"4","last_reported":1753640062,"current_range_meters":12800,"station_id":"ce4bgt12rcd13ifvqcd0","pricing_plan_id":"cebpf4jnsgd1na2vs0mg"},{"bike_id":"f0beafc6-4f1d-406d-9b81-bf9ae37556b7","system_id":"levelo_inurba_marseille","lat":43.229252,"lon":5.35372,"is_reserved":false,"is_disabled":false,"rental_uris":{"android":"levelo://app?vid=f0beafc6-4f1d-406d-9b81-bf9ae37556b7","ios":"levelo://app?vid=f0beafc6-4f1d-406d-9b81-bf9ae37556b7"},"vehicle_type_id":"4","last_reported":1753640062,"current_range_meters":13600,"station_id":"cpo3532slgdg3j2ikp40","pricing_plan_id":"cebpf4jnsgd1na2vs0mg"},{"bike_id":"eea20b6a-7255-4863-80aa-598216fe9bfc","system_id":"levelo_inurba_marseille","lat":43.30147,"lon":5.37407,"is_reserved":false,"is_disabled":false,"rental_uris":{"android":"levelo://app?vid=eea20b6a-7255-4863-80aa-598216fe9bfc","ios":"levelo://app?vid=eea20b6a-7255-4863-80aa-598216fe9bfc"},"vehicle_type_id":"4","last_reported":1753640062,"current_range_meters":13600,"station_id":"ce4bgs92rcd13ifvqcc0","pricing_plan_id":"cebpf4jnsgd1na2vs0mg"},{"bike_id":"4d56bced-a7ea-420d-9a0c-5a0e76946a80","system_id":"levelo_inurba_marseille","lat":43.311188,"lon":5.377671,"is_reserved":false,"is_disabled":false,"rental_uris":{"android":"levelo://app?vid=4d56bced-a7ea-420d-9a0c-5a0e76946a80","ios":"levelo://app?vid=4d56bced-a7ea-420d-9a0c-5a0e76946a80"},"vehicle_type_id":"4","last_reported":1753640062,"current_range_meters":13600,"station_id":"ce4bgt92rcd13ifvqcg0","pricing_plan_id":"cebpf4jnsgd1na2vs0mg"},{"bike_id":"8e95600c-1ab4-4ac1-84d3-75724112828c","system_id":"levelo_inurba_marseille","lat":43.23182,"lon":5.39994,"is_reserved":false,"is_disabled":false,"rental_uris":{"android":"levelo://app?vid=8e95600c-1ab4-4ac1-84d3-75724112828c","ios":"levelo://app?vid=8e95600c-1ab4-4ac1-84d3-75724112828c"},"vehicle_type_id":"4","last_reported":1753640062,"current_range_meters":13600,"station_id":"ce4bhn12rcd13ifvqgqg","pricing_plan_id":"cebpf4jnsgd1na2vs0mg"},{"bike_id":"d1ee7493-1c8a-469d-8c3c-eed7b0a6afe5","system_id":"levelo_inurba_marseille","lat":43.299683,"lon":5.386239,"is_reserved":false,"is_disabled":false,"rental_uris":{"android":"levelo://app?vid=d1ee7493-1c8a-469d-8c3c-eed7b0a6afe5","ios":"levelo://app?vid=d1ee7493-1c8a-469d-8c3c-eed7b0a6afe5"},"vehicle_type_id":"4","last_reported":1753640062,"current_range_meters":14000,"station_id":"","pricing_plan_id":"cebpf4jnsgd1na2vs0mg"},{"bike_id":"fc17dd07-1a4a-4aa7-beb0-db0d740f1929","system_id":"levelo_inurba_marseille","lat":43.22937,"lon":5.35342,"is_reserved":false,"is_disabled":false,"rental_uris":{"android":"levelo://app?vid=fc17dd07-1a4a-4aa7-beb0-db0d740f1929","ios":"levelo://app?vid=fc17dd07-1a4a-4aa7-beb0-db0d740f1929"},"vehicle_type_id":"4","last_reported":1753640062,"current_range_meters":14000,"station_id":"cpo3532slgdg3j2ikp40","pricing_plan_id":"cebpf4jnsgd1na2vs0mg"},{"bike_id":"8f785e69-82ae-4e1d-82c1-f85cc3f67788","system_id":"levelo_inurba_marseille","lat":43.29098,"lon":5.38147,"is_reserved":false,"is_disabled":true,"rental_uris":{"android":"levelo://app?vid=8f785e69-82ae-4e1d-82c1-f85cc3f67788","ios":"levelo://app?vid=8f785e69-82ae-4e1d-82c1-f85cc3f67788"},"vehicle_type_id":"4","last_reported":1753640062,"current_range_meters":14000,"station_id":"ce4bh512rcd13ifvqe2g","pricing_plan_id":"cebpf4jnsgd1na2vs0mg"},{"bike_id":"645a7516-9fc5-4343-b86c-621f42cfe850","system_id":"levelo_inurba_marseille","lat":43.29802,"lon":5.38087,"is_reserved":false,"is_disabled":false,"rental_uris":{"android":"levelo://app?vid=645a7516-9fc5-4343-b86c-621f42cfe850","ios":"levelo://app?vid=645a7516-9fc5-4343-b86c-621f42cfe850"},"vehicle_type_id":"4","last_reported":1753640062,"current_range_meters":14000,"station_id":"ce4bgip2rcd13ifvqbb0","pricing_plan_id":"cebpf4jnsgd1na2vs0mg"},{"bike_id":"710e528c-f5e2-4f10-8f2c-efcdc4d27379","system_id":"levelo_inurba_marseille","lat":43.2799,"lon":5.40012,"is_reserved":false,"is_disabled":true,"rental_uris":{"android":"levelo://app?vid=710e528c-f5e2-4f10-8f2c-efcdc4d27379","ios":"levelo://app?vid=710e528c-f5e2-4f10-8f2c-efcdc4d27379"},"vehicle_type_id":"4","last_reported":1753640062,"current_range_meters":14000,"station_id":"ce4bho92rcd13ifvqh4g","pricing_plan_id":"cebpf4jnsgd1na2vs0mg"},{"bike_id":"bf3b53b2-3e96-407b-b4d4-d797204ff8bd","system_id":"levelo_inurba_marseille","lat":43.298795,"lon":5.397399,"is_reserved":false,"is_disabled":true,"rental_uris":{"android":"levelo://app?vid=bf3b53b2-3e96-407b-b4d4-d797204ff8bd","ios":"levelo://app?vid=bf3b53b2-3e96-407b-b4d4-d797204ff8bd"},"vehicle_type_id":"4","last_reported":1753640062,"current_range_meters":14000,"station_id":"ce4bh0h2rcd13ifvqd50","pricing_plan_id":"cebpf4jnsgd1na2vs0mg"},{"bike_id":"903a25fb-6b02-4f64-bcae-08947e87361e","system_id":"levelo_inurba_marseille","lat":43.29534,"lon":5.38515,"is_reserved":false,"is_disabled":false,"rental_uris":{"android":"levelo://app?vid=903a25fb-6b02-4f64-bcae-08947e87361e","ios":"levelo://app?vid=903a25fb-6b02-4f64-bcae-08947e87361e"},"vehicle_type_id":"4","last_reported":1753640062,"current_range_meters":14000,"station_id":"ce4bgih2rcd13ifvqba0","pricing_plan_id":"cebpf4jnsgd1na2vs0mg"},{"bike_id":"2f9e46a5-1e88-4a03-818e-7571f5c2d04b","system_id":"levelo_inurba_marseille","lat":43.29442,"lon":5.39748,"is_reserved":false,"is_disabled":false,"rental_uris":{"android":"levelo://app?vid=2f9e46a5-1e88-4a03-818e-7571f5c2d04b","ios":"levelo://app?vid=2f9e46a5-1e88-4a03-818e-7571f5c2d04b"},"vehicle_type_id":"4","last_reported":1753640062,"current_range_meters":14000,"station_id":"ce4bh3h2rcd13ifvqdo0","pricing_plan_id":"cebpf4jnsgd1na2vs0mg"},{"bike_id":"e22d383e-8c13-4988-bc1f-0e3ce048dfae","system_id":"levelo_inurba_marseille","lat":43.2678,"lon":5.39409,"is_reserved":false,"is_disabled":false,"rental_uris":{"android":"levelo://app?vid=e22d383e-8c13-4988-bc1f-0e3ce048dfae","ios":"levelo://app?vid=e22d383e-8c13-4988-bc1f-0e3ce048dfae"},"vehicle_type_id":"4","last_reported":1753640062,"current_range_meters":14000,"station_id":"ce4bhh12rcd13ifvqfg0","pricing_plan_id":"cebpf4jnsgd1na2vs0mg"},{"bike_id":"c30ef2e1-5154-4502-8abe-eeeb2b7f6ca9","system_id":"levelo_inurba_marseille","lat":43.30428,"lon":5.38888,"is_reserved":false,"is_disabled":false,"rental_uris":{"android":"levelo://app?vid=c30ef2e1-5154-4502-8abe-eeeb2b7f6ca9","ios":"levelo://app?vid=c30ef2e1-5154-4502-8abe-eeeb2b7f6ca9"},"vehicle_type_id":"4","last_reported":1753640062,"current_range_meters":14000,"station_id":"ce4bgk12rcd13ifvqbi0","pricing_plan_id":"cebpf4jnsgd1na2vs0mg"},{"bike_id":"e230f539-5952-479e-8063-be7801d18f56","system_id":"levelo_inurba_marseille","lat":43.31082,"lon":5.42428,"is_reserved":false,"is_disabled":false,"rental_uris":{"android":"levelo://app?vid=e230f539-5952-479e-8063-be7801d18f56","ios":"levelo://app?vid=e230f539-5952-479e-8063-be7801d18f56"},"vehicle_type_id":"4","last_reported":1753640062,"current_range_meters":14400,"station_id":"ce4bhp92rcd13ifvqhag","pricing_plan_id":"cebpf4jnsgd1na2vs0mg"},{"bike_id":"3ea3f346-5119-4e7a-9acb-4f55569d9c60","system_id":"levelo_inurba_marseille","lat":43.30306,"lon":5.36901,"is_reserved":false,"is_disabled":false,"rental_uris":{"android":"levelo://app?vid=3ea3f346-5119-4e7a-9acb-4f55569d9c60","ios":"levelo://app?vid=3ea3f346-5119-4e7a-9acb-4f55569d9c60"},"vehicle_type_id":"4","last_reported":1753640062,"current_range_meters":14400,"station_id":"","pricing_plan_id":"cebpf4jnsgd1na2vs0mg"},{"bike_id":"9a1f6f2d-dbbe-480e-b887-2b47268bf511","system_id":"levelo_inurba_marseille","lat":43.29605,"lon":5.37738,"is_reserved":false,"is_disabled":false,"rental_uris":{"android":"levelo://app?vid=9a1f6f2d-dbbe-480e-b887-2b47268bf511","ios":"levelo://app?vid=9a1f6f2d-dbbe-480e-b887-2b47268bf511"},"vehicle_type_id":"4","last_reported":1753640062,"current_range_meters":14400,"station_id":"ce4bgi92rcd13ifvqb90","pricing_plan_id":"cebpf4jnsgd1na2vs0mg"},{"bike_id":"9306cb98-ff63-47ed-9064-9c9a8b611a79","system_id":"levelo_inurba_marseille","lat":43.29653,"lon":5.37306,"is_reserved":false,"is_disabled":false,"rental_uris":{"android":"levelo://app?vid=9306cb98-ff63-47ed-9064-9c9a8b611a79","ios":"levelo://app?vid=9306cb98-ff63-47ed-9064-9c9a8b611a79"},"vehicle_type_id":"4","last_reported":1753640062,"current_range_meters":14400,"station_id":"ce4bgk12rcd13ifvqbj0","pricing_plan_id":"cebpf4jnsgd1na2vs0mg"},{"bike_id":"388bc238-fad7-406c-9d22-fb5bb71926c0","system_id":"levelo_inurba_marseille","lat":43.28403,"lon":5.37474,"is_reserved":false,"is_disabled":false,"rental_uris":{"android":"levelo://app?vid=388bc238-fad7-406c-9d22-fb5bb71926c0","ios":"levelo://app?vid=388bc238-fad7-406c-9d22-fb5bb71926c0"},"vehicle_type_id":"4","last_reported":1753640062,"current_range_meters":14400,"station_id":"ce4bh412rcd13ifvqds0","pricing_plan_id":"cebpf4jnsgd1na2vs0mg"},{"bike_id":"8d801f83-3686-49fa-a7fd-3701c57be20d","system_id":"levelo_inurba_marseille","lat":43.24085,"lon":5.37709,"is_reserved":false,"is_disabled":false,"rental_uris":{"android":"levelo://app?vid=8d801f83-3686-49fa-a7fd-3701c57be20d","ios":"levelo://app?vid=8d801f83-3686-49fa-a7fd-3701c57be20d"},"vehicle_type_id":"4","last_reported":1753640062,"current_range_meters":14400,"station_id":"ce4bhnp2rcd13ifvqgvg","pricing_plan_id":"cebpf4jnsgd1na2vs0mg"},{"bike_id":"3152576e-d602-4c3f-980e-717f41aed773","system_id":"levelo_inurba_marseille","lat":43.33737,"lon":5.37465,"is_reserved":false,"is_disabled":false,"rental_uris":{"android":"levelo://app?vid=3152576e-d602-4c3f-980e-717f41aed773","ios":"levelo://app?vid=3152576e-d602-4c3f-980e-717f41aed773"},"vehicle_type_id":"4","last_reported":1753640062,"current_range_meters":14400,"station_id":"","pricing_plan_id":"cebpf4jnsgd1na2vs0mg"},{"bike_id":"a41baa72-1391-4d84-a2d6-75498447c2b3","system_id":"levelo_inurba_marseille","lat":43.28152,"lon":5.42636,"is_reserved":false,"is_disabled":false,"rental_uris":{"android":"levelo://app?vid=a41baa72-1391-4d84-a2d6-75498447c2b3","ios":"levelo://app?vid=a41baa72-1391-4d84-a2d6-75498447c2b3"},"vehicle_type_id":"4","last_reported":1753640062,"current_range_meters":14800,"station_id":"ce4bhnh2rcd13ifvqgug","pricing_plan_id":"cebpf4jnsgd1na2vs0mg"},{"bike_id":"1642223a-e8c3-42dc-9663-7f006203cec8","system_id":"levelo_inurba_marseille","lat":43.2931,"lon":5.37176,"is_reserved":false,"is_disabled":false,"rental_uris":{"android":"levelo://app?vid=1642223a-e8c3-42dc-9663-7f006203cec8","ios":"levelo://app?vid=1642223a-e8c3-42dc-9663-7f006203cec8"},"vehicle_type_id":"4","last_reported":1753640062,"current_range_meters":14800,"station_id":"ce4bgh92rcd13ifvqb40","pricing_plan_id":"cebpf4jnsgd1na2vs0mg"},{"bike_id":"5d8459f0-3b95-4023-a4a3-a9713a78a89d","system_id":"levelo_inurba_marseille","lat":43.29525,"lon":5.37493,"is_reserved":false,"is_disabled":false,"rental_uris":{"android":"levelo://app?vid=5d8459f0-3b95-4023-a4a3-a9713a78a89d","ios":"levelo://app?vid=5d8459f0-3b95-4023-a4a3-a9713a78a89d"},"vehicle_type_id":"4","last_reported":1753640062,"current_range_meters":14800,"station_id":"ce4bgkp2rcd13ifvqbmg","pricing_plan_id":"cebpf4jnsgd1na2vs0mg"},{"bike_id":"3dac6e7a-6727-4547-a162-4acf06c4c2f5","system_id":"levelo_inurba_marseille","lat":43.24645,"lon":5.38891,"is_reserved":false,"is_disabled":false,"rental_uris":{"android":"levelo://app?vid=3dac6e7a-6727-4547-a162-4acf06c4c2f5","ios":"levelo://app?vid=3dac6e7a-6727-4547-a162-4acf06c4c2f5"},"vehicle_type_id":"4","last_reported":1753640062,"current_range_meters":14800,"station_id":"ce4bhg12rcd13ifvqf60","pricing_plan_id":"cebpf4jnsgd1na2vs0mg"},{"bike_id":"56ec8761-dee0-49c1-aba7-a69ac65d386f","system_id":"levelo_inurba_marseille","lat":43.2294,"lon":5.35355,"is_reserved":false,"is_disabled":false,"rental_uris":{"android":"levelo://app?vid=56ec8761-dee0-49c1-aba7-a69ac65d386f","ios":"levelo://app?vid=56ec8761-dee0-49c1-aba7-a69ac65d386f"},"vehicle_type_id":"4","last_reported":1753640062,"current_range_meters":14800,"station_id":"cpo3532slgdg3j2ikp40","pricing_plan_id":"cebpf4jnsgd1na2vs0mg"},{"bike_id":"264fbea3-2c7f-4636-bd2b-32e60faed0d5","system_id":"levelo_inurba_marseille","lat":43.22499,"lon":5.34769,"is_reserved":false,"is_disabled":false,"rental_uris":{"android":"levelo://app?vid=264fbea3-2c7f-4636-bd2b-32e60faed0d5","ios":"levelo://app?vid=264fbea3-2c7f-4636-bd2b-32e60faed0d5"},"vehicle_type_id":"4","last_reported":1753640062,"current_range_meters":14800,"station_id":"st_cvj5dfep6f1abm77gieg","pricing_plan_id":"cebpf4jnsgd1na2vs0mg"},{"bike_id":"59bbb578-fd43-4c57-8bf4-cb2b7c154215","system_id":"levelo_inurba_marseille","lat":43.27951,"lon":5.38761,"is_reserved":false,"is_disabled":false,"rental_uris":{"android":"levelo://app?vid=59bbb578-fd43-4c57-8bf4-cb2b7c154215","ios":"levelo://app?vid=59bbb578-fd43-4c57-8bf4-cb2b7c154215"},"vehicle_type_id":"4","last_reported":1753640062,"current_range_meters":14800,"station_id":"ce4bhg12rcd13ifvqf80","pricing_plan_id":"cebpf4jnsgd1na2vs0mg"},{"bike_id":"1e4c7edd-28b3-46bc-acb0-da10442c4c38","system_id":"levelo_inurba_marseille","lat":43.29201,"lon":5.39322,"is_reserved":false,"is_disabled":false,"rental_uris":{"android":"levelo://app?vid=1e4c7edd-28b3-46bc-acb0-da10442c4c38","ios":"levelo://app?vid=1e4c7edd-28b3-46bc-acb0-da10442c4c38"},"vehicle_type_id":"4","last_reported":1753640062,"current_range_meters":15200,"station_id":"ce4bh192rcd13ifvqdd0","pricing_plan_id":"cebpf4jnsgd1na2vs0mg"},{"bike_id":"e6a19742-a30e-4966-8ad6-9e173d90f8fb","system_id":"levelo_inurba_marseille","lat":43.29001,"lon":5.35599,"is_reserved":false,"is_disabled":false,"rental_uris":{"android":"levelo://app?vid=e6a19742-a30e-4966-8ad6-9e173d90f8fb","ios":"levelo://app?vid=e6a19742-a30e-4966-8ad6-9e173d90f8fb"},"vehicle_type_id":"4","last_reported":1753640062,"current_range_meters":12400,"station_id":"ce4bhb92rcd13ifvqen0","pricing_plan_id":"cebpf4jnsgd1na2vs0mg"},{"bike_id":"54a4b6c0-808b-496f-aec7-c0f6f80bb5c8","system_id":"levelo_inurba_marseille","lat":43.23169,"lon":5.43662,"is_reserved":false,"is_disabled":false,"rental_uris":{"android":"levelo://app?vid=54a4b6c0-808b-496f-aec7-c0f6f80bb5c8","ios":"levelo://app?vid=54a4b6c0-808b-496f-aec7-c0f6f80bb5c8"},"vehicle_type_id":"4","last_reported":1753640062,"current_range_meters":15200,"station_id":"ce4bhmp2rcd13ifvqgog","pricing_plan_id":"cebpf4jnsgd1na2vs0mg"},{"bike_id":"87a4d710-c859-4883-a056-db27db09862e","system_id":"levelo_inurba_marseille","lat":43.277585,"lon":5.355971,"is_reserved":false,"is_disabled":false,"rental_uris":{"android":"levelo://app?vid=87a4d710-c859-4883-a056-db27db09862e","ios":"levelo://app?vid=87a4d710-c859-4883-a056-db27db09862e"},"vehicle_type_id":"4","last_reported":1753640062,"current_range_meters":15200,"station_id":"","pricing_plan_id":"cebpf4jnsgd1na2vs0mg"},{"bike_id":"48538135-5d0a-49ee-9320-155fbd091354","system_id":"levelo_inurba_marseille","lat":43.25937,"lon":5.40885,"is_reserved":false,"is_disabled":false,"rental_uris":{"android":"levelo://app?vid=48538135-5d0a-49ee-9320-155fbd091354","ios":"levelo://app?vid=48538135-5d0a-49ee-9320-155fbd091354"},"vehicle_type_id":"4","last_reported":1753640062,"current_range_meters":15200,"station_id":"ce4bhm92rcd13ifvqglg","pricing_plan_id":"cebpf4jnsgd1na2vs0mg"},{"bike_id":"a591545e-2b41-4298-a6a7-8e4c88bde821","system_id":"levelo_inurba_marseille","lat":43.28607,"lon":5.37053,"is_reserved":false,"is_disabled":false,"rental_uris":{"android":"levelo://app?vid=a591545e-2b41-4298-a6a7-8e4c88bde821","ios":"levelo://app?vid=a591545e-2b41-4298-a6a7-8e4c88bde821"},"vehicle_type_id":"4","last_reported":1753640062,"current_range_meters":15200,"station_id":"ce4bht12rcd13ifvqi60","pricing_plan_id":"cebpf4jnsgd1na2vs0mg"},{"bike_id":"d8cd6055-23c8-4622-a5bf-68f9b9ebfe53","system_id":"levelo_inurba_marseille","lat":43.27068,"lon":5.42255,"is_reserved":false,"is_disabled":true,"rental_uris":{"android":"levelo://app?vid=d8cd6055-23c8-4622-a5bf-68f9b9ebfe53","ios":"levelo://app?vid=d8cd6055-23c8-4622-a5bf-68f9b9ebfe53"},"vehicle_type_id":"4","last_reported":1753640062,"current_range_meters":15200,"station_id":"ce4bhk92rcd13ifvqgb0","pricing_plan_id":"cebpf4jnsgd1na2vs0mg"},{"bike_id":"10fa1caf-33e5-4f95-b100-173987d17ae4","system_id":"levelo_inurba_marseille","lat":43.24804,"lon":5.37447,"is_reserved":false,"is_disabled":false,"rental_uris":{"android":"levelo://app?vid=10fa1caf-33e5-4f95-b100-173987d17ae4","ios":"levelo://app?vid=10fa1caf-33e5-4f95-b100-173987d17ae4"},"vehicle_type_id":"4","last_reported":1753640062,"current_range_meters":15200,"station_id":"ce4bhgh2rcd13ifvqfb0","pricing_plan_id":"cebpf4jnsgd1na2vs0mg"},{"bike_id":"f58ea0d9-95a5-48de-975a-943ff660503a","system_id":"levelo_inurba_marseille","lat":43.31066,"lon":5.38351,"is_reserved":false,"is_disabled":false,"rental_uris":{"android":"levelo://app?vid=f58ea0d9-95a5-48de-975a-943ff660503a","ios":"levelo://app?vid=f58ea0d9-95a5-48de-975a-943ff660503a"},"vehicle_type_id":"4","last_reported":1753640062,"current_range_meters":15200,"station_id":"ce4bgv92rcd13ifvqcr0","pricing_plan_id":"cebpf4jnsgd1na2vs0mg"},{"bike_id":"d0b355d5-97f4-485e-9d3b-7852bddd2dd1","system_id":"levelo_inurba_marseille","lat":43.27807,"lon":5.40706,"is_reserved":false,"is_disabled":false,"rental_uris":{"android":"levelo://app?vid=d0b355d5-97f4-485e-9d3b-7852bddd2dd1","ios":"levelo://app?vid=d0b355d5-97f4-485e-9d3b-7852bddd2dd1"},"vehicle_type_id":"4","last_reported":1753640062,"current_range_meters":15200,"station_id":"ce4bhnh2rcd13ifvqgtg","pricing_plan_id":"cebpf4jnsgd1na2vs0mg"},{"bike_id":"fe9a04d5-499b-49b8-a461-f3c21737743c","system_id":"levelo_inurba_marseille","lat":43.29291,"lon":5.37448,"is_reserved":false,"is_disabled":false,"rental_uris":{"android":"levelo://app?vid=fe9a04d5-499b-49b8-a461-f3c21737743c","ios":"levelo://app?vid=fe9a04d5-499b-49b8-a461-f3c21737743c"},"vehicle_type_id":"4","last_reported":1753640062,"current_range_meters":16000,"station_id":"ce4bgi12rcd13ifvqb70","pricing_plan_id":"cebpf4jnsgd1na2vs0mg"},{"bike_id":"2edf8151-cb92-46cc-9321-24e397aeed28","system_id":"levelo_inurba_marseille","lat":43.230514,"lon":5.354822,"is_reserved":false,"is_disabled":false,"rental_uris":{"android":"levelo://app?vid=2edf8151-cb92-46cc-9321-24e397aeed28","ios":"levelo://app?vid=2edf8151-cb92-46cc-9321-24e397aeed28"},"vehicle_type_id":"4","last_reported":1753640062,"current_range_meters":16000,"station_id":"cpo3342slgdg3j2ifvpg","pricing_plan_id":"cebpf4jnsgd1na2vs0mg"},{"bike_id":"f268ccaa-2458-4d18-b114-0f155810fa39","system_id":"levelo_inurba_marseille","lat":43.284385,"lon":5.392094,"is_reserved":false,"is_disabled":false,"rental_uris":{"android":"levelo://app?vid=f268ccaa-2458-4d18-b114-0f155810fa39","ios":"levelo://app?vid=f268ccaa-2458-4d18-b114-0f155810fa39"},"vehicle_type_id":"4","last_reported":1753640062,"current_range_meters":16000,"station_id":"ce4bgih2rcd13ifvqba0","pricing_plan_id":"cebpf4jnsgd1na2vs0mg"},{"bike_id":"78a8a8f6-1cbe-48a7-afd7-d8db96ba8c71","system_id":"levelo_inurba_marseille","lat":43.30192,"lon":5.36592,"is_reserved":false,"is_disabled":true,"rental_uris":{"android":"levelo://app?vid=78a8a8f6-1cbe-48a7-afd7-d8db96ba8c71","ios":"levelo://app?vid=78a8a8f6-1cbe-48a7-afd7-d8db96ba8c71"},"vehicle_type_id":"4","last_reported":1753640062,"current_range_meters":16000,"station_id":"ce4bgrh2rcd13ifvqc8g","pricing_plan_id":"cebpf4jnsgd1na2vs0mg"},{"bike_id":"2675420e-931f-4f28-b71c-8d75405675a7","system_id":"levelo_inurba_marseille","lat":43.3137,"lon":5.38512,"is_reserved":false,"is_disabled":false,"rental_uris":{"android":"levelo://app?vid=2675420e-931f-4f28-b71c-8d75405675a7","ios":"levelo://app?vid=2675420e-931f-4f28-b71c-8d75405675a7"},"vehicle_type_id":"4","last_reported":1753640062,"current_range_meters":16000,"station_id":"ce4bgt92rcd13ifvqcf0","pricing_plan_id":"cebpf4jnsgd1na2vs0mg"},{"bike_id":"fae9ead7-f640-4a77-a120-2c7d923e271c","system_id":"levelo_inurba_marseille","lat":43.29301,"lon":5.37467,"is_reserved":false,"is_disabled":false,"rental_uris":{"android":"levelo://app?vid=fae9ead7-f640-4a77-a120-2c7d923e271c","ios":"levelo://app?vid=fae9ead7-f640-4a77-a120-2c7d923e271c"},"vehicle_type_id":"4","last_reported":1753640062,"current_range_meters":15200,"station_id":"ce4bgi12rcd13ifvqb70","pricing_plan_id":"cebpf4jnsgd1na2vs0mg"},{"bike_id":"b30d2e1a-5293-443b-8819-90074cbc1e40","system_id":"levelo_inurba_marseille","lat":43.32357,"lon":5.36743,"is_reserved":false,"is_disabled":false,"rental_uris":{"android":"levelo://app?vid=b30d2e1a-5293-443b-8819-90074cbc1e40","ios":"levelo://app?vid=b30d2e1a-5293-443b-8819-90074cbc1e40"},"vehicle_type_id":"4","last_reported":1753640062,"current_range_meters":16000,"station_id":"ce4bhsh2rcd13ifvqi2g","pricing_plan_id":"cebpf4jnsgd1na2vs0mg"},{"bike_id":"329681ee-4b7c-4b42-a093-9c4985b10282","system_id":"levelo_inurba_marseille","lat":43.28422,"lon":5.3498,"is_reserved":false,"is_disabled":true,"rental_uris":{"android":"levelo://app?vid=329681ee-4b7c-4b42-a093-9c4985b10282","ios":"levelo://app?vid=329681ee-4b7c-4b42-a093-9c4985b10282"},"vehicle_type_id":"4","last_reported":1753640062,"current_range_meters":16000,"station_id":"ce4bhbh2rcd13ifvqepg","pricing_plan_id":"cebpf4jnsgd1na2vs0mg"},{"bike_id":"feb40379-0815-4a68-aadb-305942f11d04","system_id":"levelo_inurba_marseille","lat":43.24954,"lon":5.38981,"is_reserved":false,"is_disabled":false,"rental_uris":{"android":"levelo://app?vid=feb40379-0815-4a68-aadb-305942f11d04","ios":"levelo://app?vid=feb40379-0815-4a68-aadb-305942f11d04"},"vehicle_type_id":"4","last_reported":1753640062,"current_range_meters":16000,"station_id":"","pricing_plan_id":"cebpf4jnsgd1na2vs0mg"},{"bike_id":"c65c9950-90c6-47fc-95db-716532685e57","system_id":"levelo_inurba_marseille","lat":43.29032,"lon":5.39964,"is_reserved":false,"is_disabled":false,"rental_uris":{"android":"levelo://app?vid=c65c9950-90c6-47fc-95db-716532685e57","ios":"levelo://app?vid=c65c9950-90c6-47fc-95db-716532685e57"},"vehicle_type_id":"4","last_reported":1753640062,"current_range_meters":16000,"station_id":"ce4bh392rcd13ifvqdm0","pricing_plan_id":"cebpf4jnsgd1na2vs0mg"},{"bike_id":"b2e80c2c-cca4-43c9-b626-e46bbf2de62d","system_id":"levelo_inurba_marseille","lat":43.28406,"lon":5.34979,"is_reserved":false,"is_disabled":false,"rental_uris":{"android":"levelo://app?vid=b2e80c2c-cca4-43c9-b626-e46bbf2de62d","ios":"levelo://app?vid=b2e80c2c-cca4-43c9-b626-e46bbf2de62d"},"vehicle_type_id":"4","last_reported":1753640062,"current_range_meters":16000,"station_id":"ce4bhbh2rcd13ifvqepg","pricing_plan_id":"cebpf4jnsgd1na2vs0mg"},{"bike_id":"60aae6cf-ed06-45f7-89da-2213a909ed70","system_id":"levelo_inurba_marseille","lat":43.29282,"lon":5.40119,"is_reserved":false,"is_disabled":false,"rental_uris":{"android":"levelo://app?vid=60aae6cf-ed06-45f7-89da-2213a909ed70","ios":"levelo://app?vid=60aae6cf-ed06-45f7-89da-2213a909ed70"},"vehicle_type_id":"4","last_reported":1753640062,"current_range_meters":16000,"station_id":"ce4bh312rcd13ifvqdk0","pricing_plan_id":"cebpf4jnsgd1na2vs0mg"},{"bike_id":"3e02d1f0-0222-4858-946c-ee2ac9060ae6","system_id":"levelo_inurba_marseille","lat":43.281502,"lon":5.426417,"is_reserved":false,"is_disabled":false,"rental_uris":{"android":"levelo://app?vid=3e02d1f0-0222-4858-946c-ee2ac9060ae6","ios":"levelo://app?vid=3e02d1f0-0222-4858-946c-ee2ac9060ae6"},"vehicle_type_id":"4","last_reported":1753640062,"current_range_meters":16400,"station_id":"ce4bhnh2rcd13ifvqgug","pricing_plan_id":"cebpf4jnsgd1na2vs0mg"},{"bike_id":"61f03b96-eba5-4b16-b393-41a82afa26e7","system_id":"levelo_inurba_marseille","lat":43.29725,"lon":5.37694,"is_reserved":false,"is_disabled":true,"rental_uris":{"android":"levelo://app?vid=61f03b96-eba5-4b16-b393-41a82afa26e7","ios":"levelo://app?vid=61f03b96-eba5-4b16-b393-41a82afa26e7"},"vehicle_type_id":"4","last_reported":1753640062,"current_range_meters":16400,"station_id":"ce4bgkh2rcd13ifvqbl0","pricing_plan_id":"cebpf4jnsgd1na2vs0mg"},{"bike_id":"5f3b4fd1-eae6-41fc-8eb7-bc8b29b63214","system_id":"levelo_inurba_marseille","lat":43.32359,"lon":5.36757,"is_reserved":false,"is_disabled":false,"rental_uris":{"android":"levelo://app?vid=5f3b4fd1-eae6-41fc-8eb7-bc8b29b63214","ios":"levelo://app?vid=5f3b4fd1-eae6-41fc-8eb7-bc8b29b63214"},"vehicle_type_id":"4","last_reported":1753640062,"current_range_meters":16400,"station_id":"ce4bhsh2rcd13ifvqi2g","pricing_plan_id":"cebpf4jnsgd1na2vs0mg"},{"bike_id":"6bc88ade-c43b-474a-b5dc-6811a7cb525c","system_id":"levelo_inurba_marseille","lat":43.29277,"lon":5.40117,"is_reserved":false,"is_disabled":false,"rental_uris":{"android":"levelo://app?vid=6bc88ade-c43b-474a-b5dc-6811a7cb525c","ios":"levelo://app?vid=6bc88ade-c43b-474a-b5dc-6811a7cb525c"},"vehicle_type_id":"4","last_reported":1753640062,"current_range_meters":16400,"station_id":"ce4bh312rcd13ifvqdk0","pricing_plan_id":"cebpf4jnsgd1na2vs0mg"},{"bike_id":"21119b74-9092-450b-a780-dc3f5e5aa101","system_id":"levelo_inurba_marseille","lat":43.24084,"lon":5.37749,"is_reserved":false,"is_disabled":false,"rental_uris":{"android":"levelo://app?vid=21119b74-9092-450b-a780-dc3f5e5aa101","ios":"levelo://app?vid=21119b74-9092-450b-a780-dc3f5e5aa101"},"vehicle_type_id":"4","last_reported":1753640062,"current_range_meters":16400,"station_id":"ce4bhnp2rcd13ifvqgvg","pricing_plan_id":"cebpf4jnsgd1na2vs0mg"},{"bike_id":"098b018e-2607-4af2-bc10-8758893e88ea","system_id":"levelo_inurba_marseille","lat":43.2407,"lon":5.377514,"is_reserved":false,"is_disabled":false,"rental_uris":{"android":"levelo://app?vid=098b018e-2607-4af2-bc10-8758893e88ea","ios":"levelo://app?vid=098b018e-2607-4af2-bc10-8758893e88ea"},"vehicle_type_id":"4","last_reported":1753640062,"current_range_meters":16400,"station_id":"ce4bhnp2rcd13ifvqgvg","pricing_plan_id":"cebpf4jnsgd1na2vs0mg"},{"bike_id":"947cf9dd-0905-42a3-aafb-8e1c05b7ea7a","system_id":"levelo_inurba_marseille","lat":43.31048,"lon":5.38194,"is_reserved":false,"is_disabled":false,"rental_uris":{"android":"levelo://app?vid=947cf9dd-0905-42a3-aafb-8e1c05b7ea7a","ios":"levelo://app?vid=947cf9dd-0905-42a3-aafb-8e1c05b7ea7a"},"vehicle_type_id":"4","last_reported":1753640062,"current_range_meters":16400,"station_id":"","pricing_plan_id":"cebpf4jnsgd1na2vs0mg"},{"bike_id":"973c1e37-1f79-4ab1-8d8f-e1af10663c11","system_id":"levelo_inurba_marseille","lat":43.29798,"lon":5.3809,"is_reserved":false,"is_disabled":false,"rental_uris":{"android":"levelo://app?vid=973c1e37-1f79-4ab1-8d8f-e1af10663c11","ios":"levelo://app?vid=973c1e37-1f79-4ab1-8d8f-e1af10663c11"},"vehicle_type_id":"4","last_reported":1753640062,"current_range_meters":16800,"station_id":"ce4bgip2rcd13ifvqbb0","pricing_plan_id":"cebpf4jnsgd1na2vs0mg"},{"bike_id":"23efa0ca-ba0c-44e5-8493-5975dded3b81","system_id":"levelo_inurba_marseille","lat":43.29265,"lon":5.38426,"is_reserved":false,"is_disabled":false,"rental_uris":{"android":"levelo://app?vid=23efa0ca-ba0c-44e5-8493-5975dded3b81","ios":"levelo://app?vid=23efa0ca-ba0c-44e5-8493-5975dded3b81"},"vehicle_type_id":"4","last_reported":1753640062,"current_range_meters":16800,"station_id":"ce4bh692rcd13ifvqea0","pricing_plan_id":"cebpf4jnsgd1na2vs0mg"},{"bike_id":"c1f925bb-0838-4de0-b1bb-621be6814a3f","system_id":"levelo_inurba_marseille","lat":43.23955,"lon":5.3664,"is_reserved":false,"is_disabled":false,"rental_uris":{"android":"levelo://app?vid=c1f925bb-0838-4de0-b1bb-621be6814a3f","ios":"levelo://app?vid=c1f925bb-0838-4de0-b1bb-621be6814a3f"},"vehicle_type_id":"4","last_reported":1753640062,"current_range_meters":16800,"station_id":"ce4bhi12rcd13ifvqfp0","pricing_plan_id":"cebpf4jnsgd1na2vs0mg"},{"bike_id":"114fe628-df7a-4468-9cc0-14911bee2d76","system_id":"levelo_inurba_marseille","lat":43.28423,"lon":5.34987,"is_reserved":false,"is_disabled":false,"rental_uris":{"android":"levelo://app?vid=114fe628-df7a-4468-9cc0-14911bee2d76","ios":"levelo://app?vid=114fe628-df7a-4468-9cc0-14911bee2d76"},"vehicle_type_id":"4","last_reported":1753640062,"current_range_meters":16800,"station_id":"ce4bhbh2rcd13ifvqepg","pricing_plan_id":"cebpf4jnsgd1na2vs0mg"},{"bike_id":"c7cf243a-7c39-4dde-b215-d7ee8c6b7e48","system_id":"levelo_inurba_marseille","lat":43.31692,"lon":5.40473,"is_reserved":false,"is_disabled":false,"rental_uris":{"android":"levelo://app?vid=c7cf243a-7c39-4dde-b215-d7ee8c6b7e48","ios":"levelo://app?vid=c7cf243a-7c39-4dde-b215-d7ee8c6b7e48"},"vehicle_type_id":"4","last_reported":1753640062,"current_range_meters":16800,"station_id":"ce4bh012rcd13ifvqd00","pricing_plan_id":"cebpf4jnsgd1na2vs0mg"},{"bike_id":"95dd70e4-879c-49e7-b318-a6c71b22a43e","system_id":"levelo_inurba_marseille","lat":43.2703,"lon":5.39295,"is_reserved":false,"is_disabled":false,"rental_uris":{"android":"levelo://app?vid=95dd70e4-879c-49e7-b318-a6c71b22a43e","ios":"levelo://app?vid=95dd70e4-879c-49e7-b318-a6c71b22a43e"},"vehicle_type_id":"4","last_reported":1753640062,"current_range_meters":16800,"station_id":"","pricing_plan_id":"cebpf4jnsgd1na2vs0mg"},{"bike_id":"da447f33-12e2-4142-8918-94e45c24493a","system_id":"levelo_inurba_marseille","lat":43.29709,"lon":5.3661,"is_reserved":false,"is_disabled":false,"rental_uris":{"android":"levelo://app?vid=da447f33-12e2-4142-8918-94e45c24493a","ios":"levelo://app?vid=da447f33-12e2-4142-8918-94e45c24493a"},"vehicle_type_id":"4","last_reported":1753640062,"current_range_meters":16800,"station_id":"ce4bgn12rcd13ifvqbt0","pricing_plan_id":"cebpf4jnsgd1na2vs0mg"},{"bike_id":"baa049fa-c3e2-4c1a-8082-0c6c10cd9a92","system_id":"levelo_inurba_marseille","lat":43.23052,"lon":5.35494,"is_reserved":false,"is_disabled":false,"rental_uris":{"android":"levelo://app?vid=baa049fa-c3e2-4c1a-8082-0c6c10cd9a92","ios":"levelo://app?vid=baa049fa-c3e2-4c1a-8082-0c6c10cd9a92"},"vehicle_type_id":"4","last_reported":1753640062,"current_range_meters":16800,"station_id":"cpo3342slgdg3j2ifvpg","pricing_plan_id":"cebpf4jnsgd1na2vs0mg"},{"bike_id":"363860ed-6d0c-40e8-91e3-2c5053026ca7","system_id":"levelo_inurba_marseille","lat":43.22926,"lon":5.35365,"is_reserved":false,"is_disabled":false,"rental_uris":{"android":"levelo://app?vid=363860ed-6d0c-40e8-91e3-2c5053026ca7","ios":"levelo://app?vid=363860ed-6d0c-40e8-91e3-2c5053026ca7"},"vehicle_type_id":"4","last_reported":1753640062,"current_range_meters":16800,"station_id":"cpo3532slgdg3j2ikp40","pricing_plan_id":"cebpf4jnsgd1na2vs0mg"},{"bike_id":"536dd0a6-7f1b-40ed-af5a-c920c69aac4b","system_id":"levelo_inurba_marseille","lat":43.27609,"lon":5.36113,"is_reserved":false,"is_disabled":false,"rental_uris":{"android":"levelo://app?vid=536dd0a6-7f1b-40ed-af5a-c920c69aac4b","ios":"levelo://app?vid=536dd0a6-7f1b-40ed-af5a-c920c69aac4b"},"vehicle_type_id":"4","last_reported":1753640062,"current_range_meters":16800,"station_id":"ce4bgj92rcd13ifvqbe0","pricing_plan_id":"cebpf4jnsgd1na2vs0mg"},{"bike_id":"b1ce726d-f66e-4a21-9e58-bcc99e079d39","system_id":"levelo_inurba_marseille","lat":43.27627,"lon":5.36062,"is_reserved":false,"is_disabled":false,"rental_uris":{"android":"levelo://app?vid=b1ce726d-f66e-4a21-9e58-bcc99e079d39","ios":"levelo://app?vid=b1ce726d-f66e-4a21-9e58-bcc99e079d39"},"vehicle_type_id":"4","last_reported":1753640062,"current_range_meters":16800,"station_id":"ce4bgj92rcd13ifvqbe0","pricing_plan_id":"cebpf4jnsgd1na2vs0mg"},{"bike_id":"6238abb3-baac-4bb2-91fc-857b53675b1d","system_id":"levelo_inurba_marseille","lat":43.2938,"lon":5.37848,"is_reserved":false,"is_disabled":true,"rental_uris":{"android":"levelo://app?vid=6238abb3-baac-4bb2-91fc-857b53675b1d","ios":"levelo://app?vid=6238abb3-baac-4bb2-91fc-857b53675b1d"},"vehicle_type_id":"4","last_reported":1753640062,"current_range_meters":16800,"station_id":"ce4bgjh2rcd13ifvqbf0","pricing_plan_id":"cebpf4jnsgd1na2vs0mg"},{"bike_id":"43db33db-3d20-45e3-81a8-0eca208dab5f","system_id":"levelo_inurba_marseille","lat":43.29269,"lon":5.38408,"is_reserved":false,"is_disabled":false,"rental_uris":{"android":"levelo://app?vid=43db33db-3d20-45e3-81a8-0eca208dab5f","ios":"levelo://app?vid=43db33db-3d20-45e3-81a8-0eca208dab5f"},"vehicle_type_id":"4","last_reported":1753640062,"current_range_meters":16800,"station_id":"ce4bh692rcd13ifvqea0","pricing_plan_id":"cebpf4jnsgd1na2vs0mg"},{"bike_id":"209c73e6-1f69-4d13-9fed-77cb46eecd05","system_id":"levelo_inurba_marseille","lat":43.34681,"lon":5.38065,"is_reserved":false,"is_disabled":false,"rental_uris":{"android":"levelo://app?vid=209c73e6-1f69-4d13-9fed-77cb46eecd05","ios":"levelo://app?vid=209c73e6-1f69-4d13-9fed-77cb46eecd05"},"vehicle_type_id":"4","last_reported":1753640062,"current_range_meters":16800,"station_id":"","pricing_plan_id":"cebpf4jnsgd1na2vs0mg"},{"bike_id":"7fd8db4f-e9ef-4085-aedb-c0be7d2c962b","system_id":"levelo_inurba_marseille","lat":43.28752,"lon":5.38923,"is_reserved":false,"is_disabled":false,"rental_uris":{"android":"levelo://app?vid=7fd8db4f-e9ef-4085-aedb-c0be7d2c962b","ios":"levelo://app?vid=7fd8db4f-e9ef-4085-aedb-c0be7d2c962b"},"vehicle_type_id":"4","last_reported":1753640062,"current_range_meters":17200,"station_id":"","pricing_plan_id":"cebpf4jnsgd1na2vs0mg"},{"bike_id":"8142408b-84ea-4577-9728-f52c3a5f16f1","system_id":"levelo_inurba_marseille","lat":43.24168,"lon":5.36401,"is_reserved":false,"is_disabled":true,"rental_uris":{"android":"levelo://app?vid=8142408b-84ea-4577-9728-f52c3a5f16f1","ios":"levelo://app?vid=8142408b-84ea-4577-9728-f52c3a5f16f1"},"vehicle_type_id":"4","last_reported":1753640062,"current_range_meters":17200,"station_id":"cpo36qri1sfpv3e86is0","pricing_plan_id":"cebpf4jnsgd1na2vs0mg"},{"bike_id":"ac292fd0-9260-411b-b28d-fa140a5b11ed","system_id":"levelo_inurba_marseille","lat":43.28359,"lon":5.3811,"is_reserved":false,"is_disabled":false,"rental_uris":{"android":"levelo://app?vid=ac292fd0-9260-411b-b28d-fa140a5b11ed","ios":"levelo://app?vid=ac292fd0-9260-411b-b28d-fa140a5b11ed"},"vehicle_type_id":"4","last_reported":1753640062,"current_range_meters":17200,"station_id":"ce4bh412rcd13ifvqdr0","pricing_plan_id":"cebpf4jnsgd1na2vs0mg"},{"bike_id":"df474963-9c12-4b72-b213-cfbb3844b617","system_id":"levelo_inurba_marseille","lat":43.29197,"lon":5.35798,"is_reserved":false,"is_disabled":false,"rental_uris":{"android":"levelo://app?vid=df474963-9c12-4b72-b213-cfbb3844b617","ios":"levelo://app?vid=df474963-9c12-4b72-b213-cfbb3844b617"},"vehicle_type_id":"4","last_reported":1753640062,"current_range_meters":17200,"station_id":"ce4bhb12rcd13ifvqel0","pricing_plan_id":"cebpf4jnsgd1na2vs0mg"},{"bike_id":"2b6cf374-ab08-41b5-a0ab-81c6d4da50a4","system_id":"levelo_inurba_marseille","lat":43.28405,"lon":5.37504,"is_reserved":false,"is_disabled":false,"rental_uris":{"android":"levelo://app?vid=2b6cf374-ab08-41b5-a0ab-81c6d4da50a4","ios":"levelo://app?vid=2b6cf374-ab08-41b5-a0ab-81c6d4da50a4"},"vehicle_type_id":"4","last_reported":1753640062,"current_range_meters":17200,"station_id":"ce4bh412rcd13ifvqds0","pricing_plan_id":"cebpf4jnsgd1na2vs0mg"},{"bike_id":"149fbe11-3bce-47a0-b584-c7c7bd6bb12f","system_id":"levelo_inurba_marseille","lat":43.21619,"lon":5.34443,"is_reserved":false,"is_disabled":false,"rental_uris":{"android":"levelo://app?vid=149fbe11-3bce-47a0-b584-c7c7bd6bb12f","ios":"levelo://app?vid=149fbe11-3bce-47a0-b584-c7c7bd6bb12f"},"vehicle_type_id":"4","last_reported":1753640062,"current_range_meters":17200,"station_id":"","pricing_plan_id":"cebpf4jnsgd1na2vs0mg"},