{"last_updated":1740251245,"ttl":60,"version":"2.2","data":{"bikes":[{"bike_id":"e6c52ad6-b3b8-4654-b51f-844da6bdad6a","system_id":"levelo_inurba_marseille","lat":43.29314,"lon":5.37196,"is_reserved":false,"is_disabled":true,"rental_uris":{"android":"levelo://app?vid=e6c52ad6-b3b8-4654-b51f-844da6bdad6a","ios":"levelo://app?vid=e6c52ad6-b3b8-4654-b51f-844da6bdad6a"},"vehicle_type_id":"4","last_reported":1740251245,"current_range_meters":2800,"station_id":"ce4bgh92rcd13ifvqb40","pricing_plan_id":"cebpf4jnsgd1na2vs0mg"},{"bike_id":"14dd8369-b2d6-4bc2-9c7f-a5ec00571b38","system_id":"levelo_inurba_marseille","lat":43.28867,"lon":5.39322,"is_reserved":false,"is_disabled":false,"rental_uris":{"android":"levelo://app?vid=14dd8369-b2d6-4bc2-9c7f-a5ec00571b38","ios":"levelo://app?vid=14dd8369-b2d6-4bc2-9c7f-a5ec00571b38"},"vehicle_type_id":"4","last_reported":1740251245,"current_range_meters":3200,"station_id":"ce4bh2p2rcd13ifvqdi0","pricing_plan_id":"cebpf4jnsgd1na2vs0mg"},{"bike_id":"d9934196-9321-467d-ac89-0cb8a3e30da9","system_id":"levelo_inurba_marseille","lat":43.317,"lon":5.40465,"is_reserved":false,"is_disabled":false,"rental_uris":{"android":"levelo://app?vid=d9934196-9321-467d-ac89-0cb8a3e30da9","ios":"levelo://app?vid=d9934196-9321-467d-ac89-0cb8a3e30da9"},"vehicle_type_id":"4","last_reported":1740251245,"current_range_meters":2800,"station_id":"ce4bh012rcd13ifvqd00","pricing_plan_id":"cebpf4jnsgd1na2vs0mg"},{"bike_id":"d746de1a-1415-437b-b16d-63444b83bf44","system_id":"levelo_inurba_marseille","lat":43.30603,"lon":5.39364,"is_reserved":false,"is_disabled":false,"rental_uris":{"android":"levelo://app?vid=d746de1a-1415-437b-b16d-63444b83bf44","ios":"levelo://app?vid=d746de1a-1415-437b-b16d-63444b83bf44"},"vehicle_type_id":"4","last_reported":1740251245,"current_range_meters":2800,"station_id":"ce4bh0p2rcd13ifvqd80","pricing_plan_id":"cebpf4jnsgd1na2vs0mg"},{"bike_id":"9ad8c800-f050-44dd-8e04-51505e0fb279","system_id":"levelo_inurba_marseille","lat":43.28701,"lon":5.39995,"is_reserved":false,"is_disabled":false,"rental_uris":{"android":"levelo://app?vid=9ad8c800-f050-44dd-8e04-51505e0fb279","ios":"levelo://app?vid=9ad8c800-f050-44dd-8e04-51505e0fb279"},"vehicle_type_id":"4","last_reported":1740251245,"current_range_meters":4000,"station_id":"ce4bho92rcd13ifvqh3g","pricing_plan_id":"cebpf4jnsgd1na2vs0mg"},{"bike_id":"28cdc100-3ce4-4249-b936-c625d516fc0e","system_id":"levelo_inurba_marseille","lat":43.25494,"lon":5.37632,"is_reserved":false,"is_disabled":false,"rental_uris":{"android":"levelo://app?vid=28cdc100-3ce4-4249-b936-c625d516fc0e","ios":"levelo://app?vid=28cdc100-3ce4-4249-b936-c625d516fc0e"},"vehicle_type_id":"4","last_reported":1740251245,"current_range_meters":3200,"station_id":"ce4bhh12rcd13ifvqff0","pricing_plan_id":"cebpf4jnsgd1na2vs0mg"},{"bike_id":"2d152fca-b42b-4d99-a102-2226446288e1","system_id":"levelo_inurba_marseille","lat":43.28702,"lon":5.39984,"is_reserved":false,"is_disabled":false,"rental_uris":{"android":"levelo://app?vid=2d152fca-b42b-4d99-a102-2226446288e1","ios":"levelo://app?vid=2d152fca-b42b-4d99-a102-2226446288e1"},"vehicle_type_id":"4","last_reported":1740251245,"current_range_meters":5600,"station_id":"ce4bho92rcd13ifvqh3g","pricing_plan_id":"cebpf4jnsgd1na2vs0mg"},{"bike_id":"2c96421c-ad75-44ae-a5b1-688628597e8c","system_id":"levelo_inurba_marseille","lat":43.28697,"lon":5.37916,"is_reserved":false,"is_disabled":false,"rental_uris":{"android":"levelo://app?vid=2c96421c-ad75-44ae-a5b1-688628597e8c","ios":"levelo://app?vid=2c96421c-ad75-44ae-a5b1-688628597e8c"},"vehicle_type_id":"4","last_reported":1740251245,"current_range_meters":3200,"station_id":"ce4bh9p2rcd13ifvqec0","pricing_plan_id":"cebpf4jnsgd1na2vs0mg"},{"bike_id":"326b7353-fe19-439e-9476-299069c402d0","system_id":"levelo_inurba_marseille","lat":43.23963,"lon":5.36638,"is_reserved":false,"is_disabled":false,"rental_uris":{"android":"levelo://app?vid=326b7353-fe19-439e-9476-299069c402d0","ios":"levelo://app?vid=326b7353-fe19-439e-9476-299069c402d0"},"vehicle_type_id":"4","last_reported":1740251245,"current_range_meters":3600,"station_id":"ce4bhi12rcd13ifvqfp0","pricing_plan_id":"cebpf4jnsgd1na2vs0mg"},{"bike_id":"6e4dcce7-6b63-4b05-95b2-d30073c33468","system_id":"levelo_inurba_marseille","lat":43.24182,"lon":5.39728,"is_reserved":false,"is_disabled":false,"rental_uris":{"android":"levelo://app?vid=6e4dcce7-6b63-4b05-95b2-d30073c33468","ios":"levelo://app?vid=6e4dcce7-6b63-4b05-95b2-d30073c33468"},"vehicle_type_id":"4","last_reported":1740251245,"current_range_meters":3600,"station_id":"ce4bhn12rcd13ifvqgpg","pricing_plan_id":"cebpf4jnsgd1na2vs0mg"},{"bike_id":"5dfe3040-143a-422e-bf1a-876e4a228772","system_id":"levelo_inurba_marseille","lat":43.25497,"lon":5.37651,"is_reserved":false,"is_disabled":false,"rental_uris":{"android":"levelo://app?vid=5dfe3040-143a-422e-bf1a-876e4a228772","ios":"levelo://app?vid=5dfe3040-143a-422e-bf1a-876e4a228772"},"vehicle_type_id":"4","last_reported":1740251245,"current_range_meters":3600,"station_id":"ce4bhh12rcd13ifvqff0","pricing_plan_id":"cebpf4jnsgd1na2vs0mg"},{"bike_id":"2da71ca0-841d-4357-9ea6-9d7d8e17fe41","system_id":"levelo_inurba_marseille","lat":43.31252,"lon":5.36871,"is_reserved":false,"is_disabled":false,"rental_uris":{"android":"levelo://app?vid=2da71ca0-841d-4357-9ea6-9d7d8e17fe41","ios":"levelo://app?vid=2da71ca0-841d-4357-9ea6-9d7d8e17fe41"},"vehicle_type_id":"4","last_reported":1740251245,"current_range_meters":3600,"station_id":"ce4bgl92rcd13ifvqbq0","pricing_plan_id":"cebpf4jnsgd1na2vs0mg"},{"bike_id":"f2e5b7dc-4ecb-4a89-afcd-161b852d64a0","system_id":"levelo_inurba_marseille","lat":43.29562,"lon":5.39968,"is_reserved":false,"is_disabled":true,"rental_uris":{"android":"levelo://app?vid=f2e5b7dc-4ecb-4a89-afcd-161b852d64a0","ios":"levelo://app?vid=f2e5b7dc-4ecb-4a89-afcd-161b852d64a0"},"vehicle_type_id":"4","last_reported":1740251245,"current_range_meters":4000,"station_id":"ce4bh312rcd13ifvqdj0","pricing_plan_id":"cebpf4jnsgd1na2vs0mg"},{"bike_id":"7c8f3d05-5401-4545-847e-9fcee9ea83d5","system_id":"levelo_inurba_marseille","lat":43.26568,"lon":5.39874,"is_reserved":false,"is_disabled":false,"rental_uris":{"android":"levelo://app?vid=7c8f3d05-5401-4545-847e-9fcee9ea83d5","ios":"levelo://app?vid=7c8f3d05-5401-4545-847e-9fcee9ea83d5"},"vehicle_type_id":"4","last_reported":1740251245,"current_range_meters":4000,"station_id":"","pricing_plan_id":"cebpf4jnsgd1na2vs0mg"},{"bike_id":"7513a470-27ae-4803-984c-3d01857f3acd","system_id":"levelo_inurba_marseille","lat":43.30816,"lon":5.3735,"is_reserved":false,"is_disabled":false,"rental_uris":{"android":"levelo://app?vid=7513a470-27ae-4803-984c-3d01857f3acd","ios":"levelo://app?vid=7513a470-27ae-4803-984c-3d01857f3acd"},"vehicle_type_id":"4","last_reported":1740251245,"current_range_meters":4400,"station_id":"","pricing_plan_id":"cebpf4jnsgd1na2vs0mg"},{"bike_id":"1ad7484a-74ae-4593-828b-51c07e9a2a2f","system_id":"levelo_inurba_marseille","lat":43.25094,"lon":5.39503,"is_reserved":false,"is_disabled":false,"rental_uris":{"android":"levelo://app?vid=1ad7484a-74ae-4593-828b-51c07e9a2a2f","ios":"levelo://app?vid=1ad7484a-74ae-4593-828b-51c07e9a2a2f"},"vehicle_type_id":"4","last_reported":1740251245,"current_range_meters":4400,"station_id":"ce4bhm12rcd13ifvqgkg","pricing_plan_id":"cebpf4jnsgd1na2vs0mg"},{"bike_id":"c428a377-df4a-4d69-8d27-1884b3e34b58","system_id":"levelo_inurba_marseille","lat":43.23161,"lon":5.43704,"is_reserved":false,"is_disabled":false,"rental_uris":{"android":"levelo://app?vid=c428a377-df4a-4d69-8d27-1884b3e34b58","ios":"levelo://app?vid=c428a377-df4a-4d69-8d27-1884b3e34b58"},"vehicle_type_id":"4","last_reported":1740251245,"current_range_meters":4400,"station_id":"ce4bhmp2rcd13ifvqgog","pricing_plan_id":"cebpf4jnsgd1na2vs0mg"},{"bike_id":"e9618c1d-eff3-4b9a-869a-6b368eb7403b","system_id":"levelo_inurba_marseille","lat":43.29519,"lon":5.42394,"is_reserved":false,"is_disabled":false,"rental_uris":{"android":"levelo://app?vid=e9618c1d-eff3-4b9a-869a-6b368eb7403b","ios":"levelo://app?vid=e9618c1d-eff3-4b9a-869a-6b368eb7403b"},"vehicle_type_id":"4","last_reported":1740251245,"current_range_meters":4400,"station_id":"ce4bhph2rcd13ifvqhdg","pricing_plan_id":"cebpf4jnsgd1na2vs0mg"},{"bike_id":"26bba112-c0b1-44c7-9784-b6afaed98631","system_id":"levelo_inurba_marseille","lat":43.30142,"lon":5.37424,"is_reserved":false,"is_disabled":false,"rental_uris":{"android":"levelo://app?vid=26bba112-c0b1-44c7-9784-b6afaed98631","ios":"levelo://app?vid=26bba112-c0b1-44c7-9784-b6afaed98631"},"vehicle_type_id":"4","last_reported":1740251245,"current_range_meters":4400,"station_id":"ce4bgs92rcd13ifvqcc0","pricing_plan_id":"cebpf4jnsgd1na2vs0mg"},{"bike_id":"e06a5e51-884b-4021-a6aa-38076e5c4adf","system_id":"levelo_inurba_marseille","lat":43.29277,"lon":5.37622,"is_reserved":false,"is_disabled":false,"rental_uris":{"android":"levelo://app?vid=e06a5e51-884b-4021-a6aa-38076e5c4adf","ios":"levelo://app?vid=e06a5e51-884b-4021-a6aa-38076e5c4adf"},"vehicle_type_id":"4","last_reported":1740251245,"current_range_meters":4400,"station_id":"ce4bgi12rcd13ifvqb80","pricing_plan_id":"cebpf4jnsgd1na2vs0mg"},{"bike_id":"36deab70-c4a0-4106-b6aa-b363bf1c6a1b","system_id":"levelo_inurba_marseille","lat":43.24076,"lon":5.37738,"is_reserved":false,"is_disabled":false,"rental_uris":{"android":"levelo://app?vid=36deab70-c4a0-4106-b6aa-b363bf1c6a1b","ios":"levelo://app?vid=36deab70-c4a0-4106-b6aa-b363bf1c6a1b"},"vehicle_type_id":"4","last_reported":1740251245,"current_range_meters":4400,"station_id":"ce4bhnp2rcd13ifvqgvg","pricing_plan_id":"cebpf4jnsgd1na2vs0mg"},{"bike_id":"b3688e12-fe9d-45ae-a348-a1c821eb01e6","system_id":"levelo_inurba_marseille","lat":43.3249,"lon":5.36573,"is_reserved":false,"is_disabled":false,"rental_uris":{"android":"levelo://app?vid=b3688e12-fe9d-45ae-a348-a1c821eb01e6","ios":"levelo://app?vid=b3688e12-fe9d-45ae-a348-a1c821eb01e6"},"vehicle_type_id":"4","last_reported":1740251245,"current_range_meters":4400,"station_id":"ce4bhs12rcd13ifvqhvg","pricing_plan_id":"cebpf4jnsgd1na2vs0mg"},{"bike_id":"091e6b28-842e-4305-882a-1de8008fa431","system_id":"levelo_inurba_marseille","lat":43.250916,"lon":5.403391,"is_reserved":false,"is_disabled":false,"rental_uris":{"android":"levelo://app?vid=091e6b28-842e-4305-882a-1de8008fa431","ios":"levelo://app?vid=091e6b28-842e-4305-882a-1de8008fa431"},"vehicle_type_id":"4","last_reported":1740251245,"current_range_meters":4800,"station_id":"ce4bhlh2rcd13ifvqgig","pricing_plan_id":"cebpf4jnsgd1na2vs0mg"},{"bike_id":"4e69de92-8f15-4ffa-a833-c0151b7d2b47","system_id":"levelo_inurba_marseille","lat":43.24682,"lon":5.38187,"is_reserved":false,"is_disabled":false,"rental_uris":{"android":"levelo://app?vid=4e69de92-8f15-4ffa-a833-c0151b7d2b47","ios":"levelo://app?vid=4e69de92-8f15-4ffa-a833-c0151b7d2b47"},"vehicle_type_id":"4","last_reported":1740251245,"current_range_meters":4800,"station_id":"ce4bhih2rcd13ifvqfr0","pricing_plan_id":"cebpf4jnsgd1na2vs0mg"},{"bike_id":"21292019-0d51-4d84-862c-d316c68c36b4","system_id":"levelo_inurba_marseille","lat":43.29973,"lon":5.37182,"is_reserved":false,"is_disabled":false,"rental_uris":{"android":"levelo://app?vid=21292019-0d51-4d84-862c-d316c68c36b4","ios":"levelo://app?vid=21292019-0d51-4d84-862c-d316c68c36b4"},"vehicle_type_id":"4","last_reported":1740251245,"current_range_meters":5600,"station_id":"ce4bgr92rcd13ifvqc7g","pricing_plan_id":"cebpf4jnsgd1na2vs0mg"},{"bike_id":"9c5fa56d-f286-4ce7-856a-ec5dcf131894","system_id":"levelo_inurba_marseille","lat":43.29534,"lon":5.37497,"is_reserved":false,"is_disabled":false,"rental_uris":{"android":"levelo://app?vid=9c5fa56d-f286-4ce7-856a-ec5dcf131894","ios":"levelo://app?vid=9c5fa56d-f286-4ce7-856a-ec5dcf131894"},"vehicle_type_id":"4","last_reported":1740251245,"current_range_meters":5600,"station_id":"ce4bgkp2rcd13ifvqbmg","pricing_plan_id":"cebpf4jnsgd1na2vs0mg"},{"bike_id":"25c115ca-a7b2-43d6-ba70-4704727cb441","system_id":"levelo_inurba_marseille","lat":43.28967,"lon":5.37828,"is_reserved":false,"is_disabled":false,"rental_uris":{"android":"levelo://app?vid=25c115ca-a7b2-43d6-ba70-4704727cb441","ios":"levelo://app?vid=25c115ca-a7b2-43d6-ba70-4704727cb441"},"vehicle_type_id":"4","last_reported":1740251245,"current_range_meters":5600,"station_id":"ce4bh9p2rcd13ifvqed0","pricing_plan_id":"cebpf4jnsgd1na2vs0mg"},{"bike_id":"827426eb-2639-494d-adb7-443753e7aa53","system_id":"levelo_inurba_marseille","lat":43.28665,"lon":5.36353,"is_reserved":false,"is_disabled":false,"rental_uris":{"android":"levelo://app?vid=827426eb-2639-494d-adb7-443753e7aa53","ios":"levelo://app?vid=827426eb-2639-494d-adb7-443753e7aa53"},"vehicle_type_id":"4","last_reported":1740251245,"current_range_meters":5600,"station_id":"ce4bhah2rcd13ifvqej0","pricing_plan_id":"cebpf4jnsgd1na2vs0mg"},{"bike_id":"189bdd64-b8bd-40f6-8394-28f70714b7c1","system_id":"levelo_inurba_marseille","lat":43.24039,"lon":5.37675,"is_reserved":false,"is_disabled":false,"rental_uris":{"android":"levelo://app?vid=189bdd64-b8bd-40f6-8394-28f70714b7c1","ios":"levelo://app?vid=189bdd64-b8bd-40f6-8394-28f70714b7c1"},"vehicle_type_id":"4","last_reported":1740251245,"current_range_meters":5600,"station_id":"ce4bhnp2rcd13ifvqgvg","pricing_plan_id":"cebpf4jnsgd1na2vs0mg"},{"bike_id":"b7a38f01-f31b-4ac6-9340-d07e8f049a68","system_id":"levelo_inurba_marseille","lat":43.25721,"lon":5.41113,"is_reserved":false,"is_disabled":false,"rental_uris":{"android":"levelo://app?vid=b7a38f01-f31b-4ac6-9340-d07e8f049a68","ios":"levelo://app?vid=b7a38f01-f31b-4ac6-9340-d07e8f049a68"},"vehicle_type_id":"4","last_reported":1740251245,"current_range_meters":5600,"station_id":"ce4bhkp2rcd13ifvqgd0","pricing_plan_id":"cebpf4jnsgd1na2vs0mg"},{"bike_id":"6010de11-54aa-4ddd-8f8a-22de6531518c","system_id":"levelo_inurba_marseille","lat":43.2836,"lon":5.3863,"is_reserved":false,"is_disabled":false,"rental_uris":{"android":"levelo://app?vid=6010de11-54aa-4ddd-8f8a-22de6531518c","ios":"levelo://app?vid=6010de11-54aa-4ddd-8f8a-22de6531518c"},"vehicle_type_id":"4","last_reported":1740251245,"current_range_meters":5600,"station_id":"ce4bh492rcd13ifvqdvg","pricing_plan_id":"cebpf4jnsgd1na2vs0mg"},{"bike_id":"2064b8a2-a8f8-432a-b37c-e145a7989b4e","system_id":"levelo_inurba_marseille","lat":43.27176,"lon":5.40992,"is_reserved":false,"is_disabled":false,"rental_uris":{"android":"levelo://app?vid=2064b8a2-a8f8-432a-b37c-e145a7989b4e","ios":"levelo://app?vid=2064b8a2-a8f8-432a-b37c-e145a7989b4e"},"vehicle_type_id":"4","last_reported":1740251245,"current_range_meters":5600,"station_id":"ce4bhl12rcd13ifvqgf0","pricing_plan_id":"cebpf4jnsgd1na2vs0mg"},{"bike_id":"b54886e8-bb06-4c10-bbea-5912c5563b1a","system_id":"levelo_inurba_marseille","lat":43.31166,"lon":5.38724,"is_reserved":false,"is_disabled":false,"rental_uris":{"android":"levelo://app?vid=b54886e8-bb06-4c10-bbea-5912c5563b1a","ios":"levelo://app?vid=b54886e8-bb06-4c10-bbea-5912c5563b1a"},"vehicle_type_id":"4","last_reported":1740251245,"current_range_meters":5600,"station_id":"ce4bgv12rcd13ifvqcp0","pricing_plan_id":"cebpf4jnsgd1na2vs0mg"},{"bike_id":"a9e4a73c-5f57-4e58-87b3-78f74d6f002a","system_id":"levelo_inurba_marseille","lat":43.29528,"lon":5.38549,"is_reserved":false,"is_disabled":false,"rental_uris":{"android":"levelo://app?vid=a9e4a73c-5f57-4e58-87b3-78f74d6f002a","ios":"levelo://app?vid=a9e4a73c-5f57-4e58-87b3-78f74d6f002a"},"vehicle_type_id":"4","last_reported":1740251245,"current_range_meters":5600,"station_id":"ce4bgih2rcd13ifvqba0","pricing_plan_id":"cebpf4jnsgd1na2vs0mg"},{"bike_id":"8c45cab6-9730-4599-8311-86cc5140c26b","system_id":"levelo_inurba_marseille","lat":43.29965,"lon":5.38502,"is_reserved":false,"is_disabled":false,"rental_uris":{"android":"levelo://app?vid=8c45cab6-9730-4599-8311-86cc5140c26b","ios":"levelo://app?vid=8c45cab6-9730-4599-8311-86cc5140c26b"},"vehicle_type_id":"4","last_reported":1740251245,"current_range_meters":6000,"station_id":"ce4bgj92rcd13ifvqbd0","pricing_plan_id":"cebpf4jnsgd1na2vs0mg"},{"bike_id":"337f0447-3d10-474b-89f2-52ecfdef83dc","system_id":"levelo_inurba_marseille","lat":43.2928,"lon":5.36839,"is_reserved":false,"is_disabled":false,"rental_uris":{"android":"levelo://app?vid=337f0447-3d10-474b-89f2-52ecfdef83dc","ios":"levelo://app?vid=337f0447-3d10-474b-89f2-52ecfdef83dc"},"vehicle_type_id":"4","last_reported":1740251245,"current_range_meters":6000,"station_id":"ce4bhbp2rcd13ifvqesg","pricing_plan_id":"cebpf4jnsgd1na2vs0mg"},{"bike_id":"45572caa-f62e-4c72-ac38-071090a40a00","system_id":"levelo_inurba_marseille","lat":43.25013,"lon":5.38932,"is_reserved":false,"is_disabled":false,"rental_uris":{"android":"levelo://app?vid=45572caa-f62e-4c72-ac38-071090a40a00","ios":"levelo://app?vid=45572caa-f62e-4c72-ac38-071090a40a00"},"vehicle_type_id":"4","last_reported":1740251245,"current_range_meters":6000,"station_id":"ce4bhgp2rcd13ifvqfd0","pricing_plan_id":"cebpf4jnsgd1na2vs0mg"},{"bike_id":"ca4df272-5395-4c1a-ab10-52dae73f2f99","system_id":"levelo_inurba_marseille","lat":43.2705,"lon":5.40272,"is_reserved":false,"is_disabled":false,"rental_uris":{"android":"levelo://app?vid=ca4df272-5395-4c1a-ab10-52dae73f2f99","ios":"levelo://app?vid=ca4df272-5395-4c1a-ab10-52dae73f2f99"},"vehicle_type_id":"4","last_reported":1740251245,"current_range_meters":6000,"station_id":"","pricing_plan_id":"cebpf4jnsgd1na2vs0mg"},{"bike_id":"c8aa8003-3b3a-4363-9c67-822576dbe362","system_id":"levelo_inurba_marseille","lat":43.2781,"lon":5.40708,"is_reserved":false,"is_disabled":false,"rental_uris":{"android":"levelo://app?vid=c8aa8003-3b3a-4363-9c67-822576dbe362","ios":"levelo://app?vid=c8aa8003-3b3a-4363-9c67-822576dbe362"},"vehicle_type_id":"4","last_reported":1740251245,"current_range_meters":6000,"station_id":"ce4bhnh2rcd13ifvqgtg","pricing_plan_id":"cebpf4jnsgd1na2vs0mg"},{"bike_id":"1cb9e1dc-338c-40cd-afe0-5b9665baecbe","system_id":"levelo_inurba_marseille","lat":43.297947,"lon":5.380921,"is_reserved":false,"is_disabled":false,"rental_uris":{"android":"levelo://app?vid=1cb9e1dc-338c-40cd-afe0-5b9665baecbe","ios":"levelo://app?vid=1cb9e1dc-338c-40cd-afe0-5b9665baecbe"},"vehicle_type_id":"4","last_reported":1740251245,"current_range_meters":5600,"station_id":"ce4bgvp2rcd13ifvqcu0","pricing_plan_id":"cebpf4jnsgd1na2vs0mg"},{"bike_id":"62be82be-00c6-4544-849f-67cfe021b0c1","system_id":"levelo_inurba_marseille","lat":43.31226,"lon":5.38138,"is_reserved":false,"is_disabled":false,"rental_uris":{"android":"levelo://app?vid=62be82be-00c6-4544-849f-67cfe021b0c1","ios":"levelo://app?vid=62be82be-00c6-4544-849f-67cfe021b0c1"},"vehicle_type_id":"4","last_reported":1740251245,"current_range_meters":6400,"station_id":"","pricing_plan_id":"cebpf4jnsgd1na2vs0mg"},{"bike_id":"206574be-c1ff-4f7e-bf4d-11e3361667ae","system_id":"levelo_inurba_marseille","lat":43.2997,"lon":5.37168,"is_reserved":false,"is_disabled":false,"rental_uris":{"android":"levelo://app?vid=206574be-c1ff-4f7e-bf4d-11e3361667ae","ios":"levelo://app?vid=206574be-c1ff-4f7e-bf4d-11e3361667ae"},"vehicle_type_id":"4","last_reported":1740251245,"current_range_meters":6800,"station_id":"ce4bgr92rcd13ifvqc7g","pricing_plan_id":"cebpf4jnsgd1na2vs0mg"},{"bike_id":"54392dcf-9098-4ade-a5f9-07d42853ec29","system_id":"levelo_inurba_marseille","lat":43.23971,"lon":5.36636,"is_reserved":false,"is_disabled":false,"rental_uris":{"android":"levelo://app?vid=54392dcf-9098-4ade-a5f9-07d42853ec29","ios":"levelo://app?vid=54392dcf-9098-4ade-a5f9-07d42853ec29"},"vehicle_type_id":"4","last_reported":1740251245,"current_range_meters":6400,"station_id":"ce4bhi12rcd13ifvqfp0","pricing_plan_id":"cebpf4jnsgd1na2vs0mg"},{"bike_id":"ba57c086-7764-4d0f-8bf9-abfe1df73991","system_id":"levelo_inurba_marseille","lat":43.28944,"lon":5.36641,"is_reserved":false,"is_disabled":false,"rental_uris":{"android":"levelo://app?vid=ba57c086-7764-4d0f-8bf9-abfe1df73991","ios":"levelo://app?vid=ba57c086-7764-4d0f-8bf9-abfe1df73991"},"vehicle_type_id":"4","last_reported":1740251245,"current_range_meters":6800,"station_id":"ce4bhap2rcd13ifvqek0","pricing_plan_id":"cebpf4jnsgd1na2vs0mg"},{"bike_id":"551296f6-9c25-41a0-8804-ba4f656ebdc2","system_id":"levelo_inurba_marseille","lat":43.23186,"lon":5.39977,"is_reserved":false,"is_disabled":false,"rental_uris":{"android":"levelo://app?vid=551296f6-9c25-41a0-8804-ba4f656ebdc2","ios":"levelo://app?vid=551296f6-9c25-41a0-8804-ba4f656ebdc2"},"vehicle_type_id":"4","last_reported":1740251245,"current_range_meters":6800,"station_id":"ce4bhn12rcd13ifvqgqg","pricing_plan_id":"cebpf4jnsgd1na2vs0mg"},{"bike_id":"caa3bb11-d9f3-41e0-b6ae-f8b61389c8cd","system_id":"levelo_inurba_marseille","lat":43.28155,"lon":5.42641,"is_reserved":false,"is_disabled":false,"rental_uris":{"android":"levelo://app?vid=caa3bb11-d9f3-41e0-b6ae-f8b61389c8cd","ios":"levelo://app?vid=caa3bb11-d9f3-41e0-b6ae-f8b61389c8cd"},"vehicle_type_id":"4","last_reported":1740251245,"current_range_meters":6800,"station_id":"ce4bhnh2rcd13ifvqgug","pricing_plan_id":"cebpf4jnsgd1na2vs0mg"},{"bike_id":"2c5430a7-3583-4ae1-abd7-31976bb7717c","system_id":"levelo_inurba_marseille","lat":43.30358,"lon":5.41882,"is_reserved":false,"is_disabled":false,"rental_uris":{"android":"levelo://app?vid=2c5430a7-3583-4ae1-abd7-31976bb7717c","ios":"levelo://app?vid=2c5430a7-3583-4ae1-abd7-31976bb7717c"},"vehicle_type_id":"4","last_reported":1740251245,"current_range_meters":6800,"station_id":"ce4bhop2rcd13ifvqh7g","pricing_plan_id":"cebpf4jnsgd1na2vs0mg"},{"bike_id":"a796ac80-1911-4214-a458-24bc9f421151","system_id":"levelo_inurba_marseille","lat":43.31344,"lon":5.37341,"is_reserved":false,"is_disabled":false,"rental_uris":{"android":"levelo://app?vid=a796ac80-1911-4214-a458-24bc9f421151","ios":"levelo://app?vid=a796ac80-1911-4214-a458-24bc9f421151"},"vehicle_type_id":"4","last_reported":1740251245,"current_range_meters":6800,"station_id":"","pricing_plan_id":"cebpf4jnsgd1na2vs0mg"},{"bike_id":"8adaa619-c7a2-4308-abdc-f4ed410f938d","system_id":"levelo_inurba_marseille","lat":43.31071,"lon":5.38355,"is_reserved":false,"is_disabled":false,"rental_uris":{"android":"levelo://app?vid=8adaa619-c7a2-4308-abdc-f4ed410f938d","ios":"levelo://app?vid=8adaa619-c7a2-4308-abdc-f4ed410f938d"},"vehicle_type_id":"4","last_reported":1740251245,"current_range_meters":7200,"station_id":"ce4bgv92rcd13ifvqcr0","pricing_plan_id":"cebpf4jnsgd1na2vs0mg"},{"bike_id":"3540c17b-b09e-48e6-8c96-f9682dbadf1c","system_id":"levelo_inurba_marseille","lat":43.30436,"lon":5.38889,"is_reserved":false,"is_disabled":false,"rental_uris":{"android":"levelo://app?vid=3540c17b-b09e-48e6-8c96-f9682dbadf1c","ios":"levelo://app?vid=3540c17b-b09e-48e6-8c96-f9682dbadf1c"},"vehicle_type_id":"4","last_reported":1740251245,"current_range_meters":7200,"station_id":"ce4bgk12rcd13ifvqbi0","pricing_plan_id":"cebpf4jnsgd1na2vs0mg"},{"bike_id":"c3c30985-02be-4a13-90af-d702f6922290","system_id":"levelo_inurba_marseille","lat":43.23956,"lon":5.36637,"is_reserved":false,"is_disabled":false,"rental_uris":{"android":"levelo://app?vid=c3c30985-02be-4a13-90af-d702f6922290","ios":"levelo://app?vid=c3c30985-02be-4a13-90af-d702f6922290"},"vehicle_type_id":"4","last_reported":1740251245,"current_range_meters":7200,"station_id":"ce4bhi12rcd13ifvqfp0","pricing_plan_id":"cebpf4jnsgd1na2vs0mg"},{"bike_id":"2c822331-9511-45f3-a1fc-c589d86572f3","system_id":"levelo_inurba_marseille","lat":43.25114,"lon":5.40316,"is_reserved":false,"is_disabled":false,"rental_uris":{"android":"levelo://app?vid=2c822331-9511-45f3-a1fc-c589d86572f3","ios":"levelo://app?vid=2c822331-9511-45f3-a1fc-c589d86572f3"},"vehicle_type_id":"4","last_reported":1740251245,"current_range_meters":7200,"station_id":"ce4bhlh2rcd13ifvqgig","pricing_plan_id":"cebpf4jnsgd1na2vs0mg"},{"bike_id":"91cd9c50-a708-4ca7-8c38-9684716b8855","system_id":"levelo_inurba_marseille","lat":43.33785,"lon":5.3743,"is_reserved":false,"is_disabled":false,"rental_uris":{"android":"levelo://app?vid=91cd9c50-a708-4ca7-8c38-9684716b8855","ios":"levelo://app?vid=91cd9c50-a708-4ca7-8c38-9684716b8855"},"vehicle_type_id":"4","last_reported":1740251245,"current_range_meters":7200,"station_id":"","pricing_plan_id":"cebpf4jnsgd1na2vs0mg"},{"bike_id":"5754204d-a976-472a-8a05-79d81eb7930f","system_id":"levelo_inurba_marseille","lat":43.282651,"lon":5.350613,"is_reserved":false,"is_disabled":false,"rental_uris":{"android":"levelo://app?vid=5754204d-a976-472a-8a05-79d81eb7930f","ios":"levelo://app?vid=5754204d-a976-472a-8a05-79d81eb7930f"},"vehicle_type_id":"4","last_reported":1740251245,"current_range_meters":7200,"station_id":"ce4bhbp2rcd13ifvqerg","pricing_plan_id":"cebpf4jnsgd1na2vs0mg"},{"bike_id":"97e60459-cc06-4bc4-9745-231d5e38914b","system_id":"levelo_inurba_marseille","lat":43.279414,"lon":5.410465,"is_reserved":false,"is_disabled":false,"rental_uris":{"android":"levelo://app?vid=97e60459-cc06-4bc4-9745-231d5e38914b","ios":"levelo://app?vid=97e60459-cc06-4bc4-9745-231d5e38914b"},"vehicle_type_id":"4","last_reported":1740251245,"current_range_meters":7200,"station_id":"ce4bhnp2rcd13ifvqh0g","pricing_plan_id":"cebpf4jnsgd1na2vs0mg"},{"bike_id":"a7787bdf-f967-4ec4-a4a5-aaabd53b1877","system_id":"levelo_inurba_marseille","lat":43.26184,"lon":5.42073,"is_reserved":false,"is_disabled":false,"rental_uris":{"android":"levelo://app?vid=a7787bdf-f967-4ec4-a4a5-aaabd53b1877","ios":"levelo://app?vid=a7787bdf-f967-4ec4-a4a5-aaabd53b1877"},"vehicle_type_id":"4","last_reported":1740251245,"current_range_meters":7200,"station_id":"","pricing_plan_id":"cebpf4jnsgd1na2vs0mg"},{"bike_id":"45f39bfd-7cfc-48c5-bbe2-893140a7acaa","system_id":"levelo_inurba_marseille","lat":43.26553,"lon":5.37282,"is_reserved":false,"is_disabled":false,"rental_uris":{"android":"levelo://app?vid=45f39bfd-7cfc-48c5-bbe2-893140a7acaa","ios":"levelo://app?vid=45f39bfd-7cfc-48c5-bbe2-893140a7acaa"},"vehicle_type_id":"4","last_reported":1740251245,"current_range_meters":8000,"station_id":"ce4bhg12rcd13ifvqf70","pricing_plan_id":"cebpf4jnsgd1na2vs0mg"},{"bike_id":"b199caa0-60bd-4845-8ad3-8023b11a0cc0","system_id":"levelo_inurba_marseille","lat":43.283697,"lon":5.386283,"is_reserved":false,"is_disabled":false,"rental_uris":{"android":"levelo://app?vid=b199caa0-60bd-4845-8ad3-8023b11a0cc0","ios":"levelo://app?vid=b199caa0-60bd-4845-8ad3-8023b11a0cc0"},"vehicle_type_id":"4","last_reported":1740251245,"current_range_meters":8000,"station_id":"ce4bh492rcd13ifvqdvg","pricing_plan_id":"cebpf4jnsgd1na2vs0mg"},{"bike_id":"f7e832b5-cd58-445a-bb85-4bb1c9e80b75","system_id":"levelo_inurba_marseille","lat":43.28156,"lon":5.42648,"is_reserved":false,"is_disabled":false,"rental_uris":{"android":"levelo://app?vid=f7e832b5-cd58-445a-bb85-4bb1c9e80b75","ios":"levelo://app?vid=f7e832b5-cd58-445a-bb85-4bb1c9e80b75"},"vehicle_type_id":"4","last_reported":1740251245,"current_range_meters":8000,"station_id":"ce4bhnh2rcd13ifvqgug","pricing_plan_id":"cebpf4jnsgd1na2vs0mg"},{"bike_id":"ab46b189-6bae-4129-a7fd-10b3ccd5a48e","system_id":"levelo_inurba_marseille","lat":43.27214,"lon":5.39997,"is_reserved":false,"is_disabled":false,"rental_uris":{"android":"levelo://app?vid=ab46b189-6bae-4129-a7fd-10b3ccd5a48e","ios":"levelo://app?vid=ab46b189-6bae-4129-a7fd-10b3ccd5a48e"},"vehicle_type_id":"4","last_reported":1740251245,"current_range_meters":8000,"station_id":"","pricing_plan_id":"cebpf4jnsgd1na2vs0mg"},{"bike_id":"91817d94-291a-47c9-91fa-831208abfdc7","system_id":"levelo_inurba_marseille","lat":43.230657,"lon":5.354862,"is_reserved":false,"is_disabled":false,"rental_uris":{"android":"levelo://app?vid=91817d94-291a-47c9-91fa-831208abfdc7","ios":"levelo://app?vid=91817d94-291a-47c9-91fa-831208abfdc7"},"vehicle_type_id":"4","last_reported":1740251245,"current_range_meters":8000,"station_id":"cpo3342slgdg3j2ifvpg","pricing_plan_id":"cebpf4jnsgd1na2vs0mg"},{"bike_id":"fa83beb1-2405-4db0-9826-c091cb751783","system_id":"levelo_inurba_marseille","lat":43.25128,"lon":5.40358,"is_reserved":false,"is_disabled":true,"rental_uris":{"android":"levelo://app?vid=fa83beb1-2405-4db0-9826-c091cb751783","ios":"levelo://app?vid=fa83beb1-2405-4db0-9826-c091cb751783"},"vehicle_type_id":"4","last_reported":1740251245,"current_range_meters":8000,"station_id":"ce4bhlh2rcd13ifvqgig","pricing_plan_id":"cebpf4jnsgd1na2vs0mg"},{"bike_id":"d0386847-89a5-48f6-8c65-4f1d9fc4d37c","system_id":"levelo_inurba_marseille","lat":43.26783,"lon":5.39432,"is_reserved":false,"is_disabled":false,"rental_uris":{"android":"levelo://app?vid=d0386847-89a5-48f6-8c65-4f1d9fc4d37c","ios":"levelo://app?vid=d0386847-89a5-48f6-8c65-4f1d9fc4d37c"},"vehicle_type_id":"4","last_reported":1740251245,"current_range_meters":8000,"station_id":"ce4bhh12rcd13ifvqfg0","pricing_plan_id":"cebpf4jnsgd1na2vs0mg"},{"bike_id":"78b97302-9c59-42d1-a13f-5e8c85841d45","system_id":"levelo_inurba_marseille","lat":43.2656,"lon":5.39028,"is_reserved":false,"is_disabled":false,"rental_uris":{"android":"levelo://app?vid=78b97302-9c59-42d1-a13f-5e8c85841d45","ios":"levelo://app?vid=78b97302-9c59-42d1-a13f-5e8c85841d45"},"vehicle_type_id":"4","last_reported":1740251245,"current_range_meters":8000,"station_id":"ce4bhe12rcd13ifvqf30","pricing_plan_id":"cebpf4jnsgd1na2vs0mg"},{"bike_id":"a404738f-d592-4923-bb7f-8cad6bf8fec4","system_id":"levelo_inurba_marseille","lat":43.27971,"lon":5.38497,"is_reserved":false,"is_disabled":false,"rental_uris":{"android":"levelo://app?vid=a404738f-d592-4923-bb7f-8cad6bf8fec4","ios":"levelo://app?vid=a404738f-d592-4923-bb7f-8cad6bf8fec4"},"vehicle_type_id":"4","last_reported":1740251245,"current_range_meters":8400,"station_id":"","pricing_plan_id":"cebpf4jnsgd1na2vs0mg"},{"bike_id":"6d31838c-53f9-4375-96eb-6ea63dcd4ee2","system_id":"levelo_inurba_marseille","lat":43.26791,"lon":5.39409,"is_reserved":false,"is_disabled":false,"rental_uris":{"android":"levelo://app?vid=6d31838c-53f9-4375-96eb-6ea63dcd4ee2","ios":"levelo://app?vid=6d31838c-53f9-4375-96eb-6ea63dcd4ee2"},"vehicle_type_id":"4","last_reported":1740251245,"current_range_meters":8400,"station_id":"ce4bhh12rcd13ifvqfg0","pricing_plan_id":"cebpf4jnsgd1na2vs0mg"},{"bike_id":"f32fe46d-1120-4c2c-97c5-cdbf2de4ccec","system_id":"levelo_inurba_marseille","lat":43.25938,"lon":5.4091,"is_reserved":false,"is_disabled":false,"rental_uris":{"android":"levelo://app?vid=f32fe46d-1120-4c2c-97c5-cdbf2de4ccec","ios":"levelo://app?vid=f32fe46d-1120-4c2c-97c5-cdbf2de4ccec"},"vehicle_type_id":"4","last_reported":1740251245,"current_range_meters":8800,"station_id":"ce4bhm92rcd13ifvqglg","pricing_plan_id":"cebpf4jnsgd1na2vs0mg"},{"bike_id":"82781c30-f8ed-4197-ac58-5275570b8c2e","system_id":"levelo_inurba_marseille","lat":43.29074,"lon":5.38126,"is_reserved":false,"is_disabled":false,"rental_uris":{"android":"levelo://app?vid=82781c30-f8ed-4197-ac58-5275570b8c2e","ios":"levelo://app?vid=82781c30-f8ed-4197-ac58-5275570b8c2e"},"vehicle_type_id":"4","last_reported":1740251245,"current_range_meters":8800,"station_id":"ce4bh512rcd13ifvqe2g","pricing_plan_id":"cebpf4jnsgd1na2vs0mg"},{"bike_id":"6d48938c-9b80-49b7-89e5-950ba7a6ce63","system_id":"levelo_inurba_marseille","lat":43.25929,"lon":5.409,"is_reserved":false,"is_disabled":false,"rental_uris":{"android":"levelo://app?vid=6d48938c-9b80-49b7-89e5-950ba7a6ce63","ios":"levelo://app?vid=6d48938c-9b80-49b7-89e5-950ba7a6ce63"},"vehicle_type_id":"4","last_reported":1740251245,"current_range_meters":8800,"station_id":"ce4bhm92rcd13ifvqglg","pricing_plan_id":"cebpf4jnsgd1na2vs0mg"},{"bike_id":"f668bdd3-22f1-44a6-959a-688ea59c08bf","system_id":"levelo_inurba_marseille","lat":43.29602,"lon":5.3808,"is_reserved":false,"is_disabled":false,"rental_uris":{"android":"levelo://app?vid=f668bdd3-22f1-44a6-959a-688ea59c08bf","ios":"levelo://app?vid=f668bdd3-22f1-44a6-959a-688ea59c08bf"},"vehicle_type_id":"4","last_reported":1740251245,"current_range_meters":8800,"station_id":"ce4bgl12rcd13ifvqbo0","pricing_plan_id":"cebpf4jnsgd1na2vs0mg"},{"bike_id":"78ccc1b5-e05d-4c30-bc5b-473f9d97e2cd","system_id":"levelo_inurba_marseille","lat":43.30113,"lon":5.37861,"is_reserved":false,"is_disabled":false,"rental_uris":{"android":"levelo://app?vid=78ccc1b5-e05d-4c30-bc5b-473f9d97e2cd","ios":"levelo://app?vid=78ccc1b5-e05d-4c30-bc5b-473f9d97e2cd"},"vehicle_type_id":"4","last_reported":1740251245,"current_range_meters":9200,"station_id":"","pricing_plan_id":"cebpf4jnsgd1na2vs0mg"},{"bike_id":"6e6ae9da-f05c-4bef-b2ad-1525d2c38963","system_id":"levelo_inurba_marseille","lat":43.29966,"lon":5.38497,"is_reserved":false,"is_disabled":false,"rental_uris":{"android":"levelo://app?vid=6e6ae9da-f05c-4bef-b2ad-1525d2c38963","ios":"levelo://app?vid=6e6ae9da-f05c-4bef-b2ad-1525d2c38963"},"vehicle_type_id":"4","last_reported":1740251245,"current_range_meters":9200,"station_id":"ce4bgj92rcd13ifvqbd0","pricing_plan_id":"cebpf4jnsgd1na2vs0mg"},{"bike_id":"7bf9524e-fea9-4ff8-800d-d66c5e1b6889","system_id":"levelo_inurba_marseille","lat":43.23156,"lon":5.43687,"is_reserved":false,"is_disabled":false,"rental_uris":{"android":"levelo://app?vid=7bf9524e-fea9-4ff8-800d-d66c5e1b6889","ios":"levelo://app?vid=7bf9524e-fea9-4ff8-800d-d66c5e1b6889"},"vehicle_type_id":"4","last_reported":1740251245,"current_range_meters":9200,"station_id":"ce4bhmp2rcd13ifvqgog","pricing_plan_id":"cebpf4jnsgd1na2vs0mg"},{"bike_id":"4a2d4025-43d5-412e-8f09-8ffaadd19824","system_id":"levelo_inurba_marseille","lat":43.23194,"lon":5.35556,"is_reserved":false,"is_disabled":false,"rental_uris":{"android":"levelo://app?vid=4a2d4025-43d5-412e-8f09-8ffaadd19824","ios":"levelo://app?vid=4a2d4025-43d5-412e-8f09-8ffaadd19824"},"vehicle_type_id":"4","last_reported":1740251245,"current_range_meters":9200,"station_id":"ce4bhu92rcd13ifvqi70","pricing_plan_id":"cebpf4jnsgd1na2vs0mg"},{"bike_id":"d8597eb2-f9ae-4c09-aca8-f693c03d9b78","system_id":"levelo_inurba_marseille","lat":43.28843,"lon":5.39315,"is_reserved":false,"is_disabled":false,"rental_uris":{"android":"levelo://app?vid=d8597eb2-f9ae-4c09-aca8-f693c03d9b78","ios":"levelo://app?vid=d8597eb2-f9ae-4c09-aca8-f693c03d9b78"},"vehicle_type_id":"4","last_reported":1740251245,"current_range_meters":8800,"station_id":"ce4bh2p2rcd13ifvqdi0","pricing_plan_id":"cebpf4jnsgd1na2vs0mg"},{"bike_id":"9f4e2cc7-8bcd-49c0-a178-abbc69646ce1","system_id":"levelo_inurba_marseille","lat":43.29782,"lon":5.37098,"is_reserved":false,"is_disabled":false,"rental_uris":{"android":"levelo://app?vid=9f4e2cc7-8bcd-49c0-a178-abbc69646ce1","ios":"levelo://app?vid=9f4e2cc7-8bcd-49c0-a178-abbc69646ce1"},"vehicle_type_id":"4","last_reported":1740251245,"current_range_meters":9200,"station_id":"ce4bgop2rcd13ifvqc1g","pricing_plan_id":"cebpf4jnsgd1na2vs0mg"},{"bike_id":"b985ad1f-1942-453b-b5eb-7462cafd1e31","system_id":"levelo_inurba_marseille","lat":43.23184,"lon":5.35562,"is_reserved":false,"is_disabled":false,"rental_uris":{"android":"levelo://app?vid=b985ad1f-1942-453b-b5eb-7462cafd1e31","ios":"levelo://app?vid=b985ad1f-1942-453b-b5eb-7462cafd1e31"},"vehicle_type_id":"4","last_reported":1740251245,"current_range_meters":9200,"station_id":"ce4bhu92rcd13ifvqi70","pricing_plan_id":"cebpf4jnsgd1na2vs0mg"},{"bike_id":"5d2d1a8c-deab-4dc2-9082-406187fb677f","system_id":"levelo_inurba_marseille","lat":43.27882,"lon":5.37986,"is_reserved":false,"is_disabled":false,"rental_uris":{"android":"levelo://app?vid=5d2d1a8c-deab-4dc2-9082-406187fb677f","ios":"levelo://app?vid=5d2d1a8c-deab-4dc2-9082-406187fb677f"},"vehicle_type_id":"4","last_reported":1740251245,"current_range_meters":9600,"station_id":"ce4bhf92rcd13ifvqf50","pricing_plan_id":"cebpf4jnsgd1na2vs0mg"},{"bike_id":"6b42034c-3d31-4543-aebc-b03e8643c20b","system_id":"levelo_inurba_marseille","lat":43.25108,"lon":5.40324,"is_reserved":false,"is_disabled":false,"rental_uris":{"android":"levelo://app?vid=6b42034c-3d31-4543-aebc-b03e8643c20b","ios":"levelo://app?vid=6b42034c-3d31-4543-aebc-b03e8643c20b"},"vehicle_type_id":"4","last_reported":1740251245,"current_range_meters":9600,"station_id":"ce4bhlh2rcd13ifvqgig","pricing_plan_id":"cebpf4jnsgd1na2vs0mg"},{"bike_id":"098ba318-f0ee-4c81-991e-ba2f5a0cbad4","system_id":"levelo_inurba_marseille","lat":43.2761,"lon":5.36115,"is_reserved":false,"is_disabled":false,"rental_uris":{"android":"levelo://app?vid=098ba318-f0ee-4c81-991e-ba2f5a0cbad4","ios":"levelo://app?vid=098ba318-f0ee-4c81-991e-ba2f5a0cbad4"},"vehicle_type_id":"4","last_reported":1740251245,"current_range_meters":9600,"station_id":"ce4bgj92rcd13ifvqbe0","pricing_plan_id":"cebpf4jnsgd1na2vs0mg"},{"bike_id":"c3e52c73-d5a6-4495-93d8-58a72c86c1ed","system_id":"levelo_inurba_marseille","lat":43.29266,"lon":5.38446,"is_reserved":false,"is_disabled":false,"rental_uris":{"android":"levelo://app?vid=c3e52c73-d5a6-4495-93d8-58a72c86c1ed","ios":"levelo://app?vid=c3e52c73-d5a6-4495-93d8-58a72c86c1ed"},"vehicle_type_id":"4","last_reported":1740251245,"current_range_meters":9600,"station_id":"ce4bh692rcd13ifvqea0","pricing_plan_id":"cebpf4jnsgd1na2vs0mg"},{"bike_id":"13cb38c2-40cf-4aa2-bb50-70e2c4b0e6c1","system_id":"levelo_inurba_marseille","lat":43.29522,"lon":5.39045,"is_reserved":false,"is_disabled":false,"rental_uris":{"android":"levelo://app?vid=13cb38c2-40cf-4aa2-bb50-70e2c4b0e6c1","ios":"levelo://app?vid=13cb38c2-40cf-4aa2-bb50-70e2c4b0e6c1"},"vehicle_type_id":"4","last_reported":1740251245,"current_range_meters":9600,"station_id":"ce4bh3p2rcd13ifvqdp0","pricing_plan_id":"cebpf4jnsgd1na2vs0mg"},{"bike_id":"58f4f72f-7cd5-456c-ab24-6823b780f369","system_id":"levelo_inurba_marseille","lat":43.30623,"lon":5.40053,"is_reserved":false,"is_disabled":false,"rental_uris":{"android":"levelo://app?vid=58f4f72f-7cd5-456c-ab24-6823b780f369","ios":"levelo://app?vid=58f4f72f-7cd5-456c-ab24-6823b780f369"},"vehicle_type_id":"4","last_reported":1740251245,"current_range_meters":10000,"station_id":"ce4bh112rcd13ifvqda0","pricing_plan_id":"cebpf4jnsgd1na2vs0mg"},{"bike_id":"3c232bab-88ac-4592-9031-c21395fd8a78","system_id":"levelo_inurba_marseille","lat":43.32359,"lon":5.36753,"is_reserved":false,"is_disabled":false,"rental_uris":{"android":"levelo://app?vid=3c232bab-88ac-4592-9031-c21395fd8a78","ios":"levelo://app?vid=3c232bab-88ac-4592-9031-c21395fd8a78"},"vehicle_type_id":"4","last_reported":1740251245,"current_range_meters":10000,"station_id":"ce4bhsh2rcd13ifvqi2g","pricing_plan_id":"cebpf4jnsgd1na2vs0mg"},{"bike_id":"aeafc93e-d7a3-4386-a16b-6d5c2d21332b","system_id":"levelo_inurba_marseille","lat":43.29267,"lon":5.37629,"is_reserved":false,"is_disabled":false,"rental_uris":{"android":"levelo://app?vid=aeafc93e-d7a3-4386-a16b-6d5c2d21332b","ios":"levelo://app?vid=aeafc93e-d7a3-4386-a16b-6d5c2d21332b"},"vehicle_type_id":"4","last_reported":1740251245,"current_range_meters":10000,"station_id":"ce4bgi12rcd13ifvqb80","pricing_plan_id":"cebpf4jnsgd1na2vs0mg"},{"bike_id":"120facfa-3f57-4f60-bc38-b268265a806f","system_id":"levelo_inurba_marseille","lat":43.32335,"lon":5.40624,"is_reserved":false,"is_disabled":false,"rental_uris":{"android":"levelo://app?vid=120facfa-3f57-4f60-bc38-b268265a806f","ios":"levelo://app?vid=120facfa-3f57-4f60-bc38-b268265a806f"},"vehicle_type_id":"4","last_reported":1740251245,"current_range_meters":10000,"station_id":"ce4bhq92rcd13ifvqhjg","pricing_plan_id":"cebpf4jnsgd1na2vs0mg"},{"bike_id":"eabbeaf0-2e59-4c1d-8af5-9810aa7abf21","system_id":"levelo_inurba_marseille","lat":43.29297,"lon":5.37436,"is_reserved":false,"is_disabled":false,"rental_uris":{"android":"levelo://app?vid=eabbeaf0-2e59-4c1d-8af5-9810aa7abf21","ios":"levelo://app?vid=eabbeaf0-2e59-4c1d-8af5-9810aa7abf21"},"vehicle_type_id":"4","last_reported":1740251245,"current_range_meters":10000,"station_id":"ce4bgi12rcd13ifvqb70","pricing_plan_id":"cebpf4jnsgd1na2vs0mg"},{"bike_id":"142dd829-4ceb-4d8e-a91d-126b9ddb9899","system_id":"levelo_inurba_marseille","lat":43.29248,"lon":5.38431,"is_reserved":false,"is_disabled":false,"rental_uris":{"android":"levelo://app?vid=142dd829-4ceb-4d8e-a91d-126b9ddb9899","ios":"levelo://app?vid=142dd829-4ceb-4d8e-a91d-126b9ddb9899"},"vehicle_type_id":"4","last_reported":1740251245,"current_range_meters":10000,"station_id":"ce4bh692rcd13ifvqea0","pricing_plan_id":"cebpf4jnsgd1na2vs0mg"},{"bike_id":"aa820ec7-7f35-4387-8fea-99b9db869428","system_id":"levelo_inurba_marseille","lat":43.29584,"lon":5.38064,"is_reserved":false,"is_disabled":false,"rental_uris":{"android":"levelo://app?vid=aa820ec7-7f35-4387-8fea-99b9db869428","ios":"levelo://app?vid=aa820ec7-7f35-4387-8fea-99b9db869428"},"vehicle_type_id":"4","last_reported":1740251245,"current_range_meters":10000,"station_id":"ce4bgl12rcd13ifvqbo0","pricing_plan_id":"cebpf4jnsgd1na2vs0mg"},{"bike_id":"e7d86e51-54a6-4b4d-9947-776227cd3847","system_id":"levelo_inurba_marseille","lat":43.27067,"lon":5.42272,"is_reserved":false,"is_disabled":false,"rental_uris":{"android":"levelo://app?vid=e7d86e51-54a6-4b4d-9947-776227cd3847","ios":"levelo://app?vid=e7d86e51-54a6-4b4d-9947-776227cd3847"},"vehicle_type_id":"4","last_reported":1740251245,"current_range_meters":10000,"station_id":"ce4bhk92rcd13ifvqgb0","pricing_plan_id":"cebpf4jnsgd1na2vs0mg"},{"bike_id":"827ec7e5-1ae5-45b8-890e-b6822ea9bc11","system_id":"levelo_inurba_marseille","lat":43.23954,"lon":5.36639,"is_reserved":false,"is_disabled":false,"rental_uris":{"android":"levelo://app?vid=827ec7e5-1ae5-45b8-890e-b6822ea9bc11","ios":"levelo://app?vid=827ec7e5-1ae5-45b8-890e-b6822ea9bc11"},"vehicle_type_id":"4","last_reported":1740251245,"current_range_meters":10000,"station_id":"ce4bhi12rcd13ifvqfp0","pricing_plan_id":"cebpf4jnsgd1na2vs0mg"},{"bike_id":"d8228868-aedc-4425-8d12-39248acb0f7f","system_id":"levelo_inurba_marseille","lat":43.28946,"lon":5.36644,"is_reserved":false,"is_disabled":false,"rental_uris":{"android":"levelo://app?vid=d8228868-aedc-4425-8d12-39248acb0f7f","ios":"levelo://app?vid=d8228868-aedc-4425-8d12-39248acb0f7f"},"vehicle_type_id":"4","last_reported":1740251245,"current_range_meters":10800,"station_id":"ce4bhap2rcd13ifvqek0","pricing_plan_id":"cebpf4jnsgd1na2vs0mg"},{"bike_id":"c6a1ef00-1084-493b-8248-9658c4452943","system_id":"levelo_inurba_marseille","lat":43.28248,"lon":5.39066,"is_reserved":false,"is_disabled":false,"rental_uris":{"android":"levelo://app?vid=c6a1ef00-1084-493b-8248-9658c4452943","ios":"levelo://app?vid=c6a1ef00-1084-493b-8248-9658c4452943"},"vehicle_type_id":"4","last_reported":1740251245,"current_range_meters":10800,"station_id":"","pricing_plan_id":"cebpf4jnsgd1na2vs0mg"},{"bike_id":"af90e6ee-7c69-45b2-8f8d-7c5fdc6ab450","system_id":"levelo_inurba_marseille","lat":43.29887,"lon":5.38906,"is_reserved":false,"is_disabled":false,"rental_uris":{"android":"levelo://app?vid=af90e6ee-7c69-45b2-8f8d-7c5fdc6ab450","ios":"levelo://app?vid=af90e6ee-7c69-45b2-8f8d-7c5fdc6ab450"},"vehicle_type_id":"4","last_reported":1740251245,"current_range_meters":10800,"station_id":"ce4bh392rcd13ifvqdl0","pricing_plan_id":"cebpf4jnsgd1na2vs0mg"},{"bike_id":"519c0d90-c598-4074-9c80-d5e1565ff705","system_id":"levelo_inurba_marseille","lat":43.23062,"lon":5.35491,"is_reserved":false,"is_disabled":false,"rental_uris":{"android":"levelo://app?vid=519c0d90-c598-4074-9c80-d5e1565ff705","ios":"levelo://app?vid=519c0d90-c598-4074-9c80-d5e1565ff705"},"vehicle_type_id":"4","last_reported":1740251245,"current_range_meters":11200,"station_id":"cpo3342slgdg3j2ifvpg","pricing_plan_id":"cebpf4jnsgd1na2vs0mg"},{"bike_id":"95ab0dfd-b779-4f25-ba4c-cd3e6b61156a","system_id":"levelo_inurba_marseille","lat":43.30136,"lon":5.3877,"is_reserved":false,"is_disabled":false,"rental_uris":{"android":"levelo://app?vid=95ab0dfd-b779-4f25-ba4c-cd3e6b61156a","ios":"levelo://app?vid=95ab0dfd-b779-4f25-ba4c-cd3e6b61156a"},"vehicle_type_id":"4","last_reported":1740251245,"current_range_meters":11200,"station_id":"ce4bghh2rcd13ifvqb60","pricing_plan_id":"cebpf4jnsgd1na2vs0mg"},{"bike_id":"741cef40-21ce-4c2c-956a-10ae63f78893","system_id":"levelo_inurba_marseille","lat":43.3229,"lon":5.38262,"is_reserved":false,"is_disabled":false,"rental_uris":{"android":"levelo://app?vid=741cef40-21ce-4c2c-956a-10ae63f78893","ios":"levelo://app?vid=741cef40-21ce-4c2c-956a-10ae63f78893"},"vehicle_type_id":"4","last_reported":1740251245,"current_range_meters":11200,"station_id":"ce4bhr12rcd13ifvqhqg","pricing_plan_id":"cebpf4jnsgd1na2vs0mg"},{"bike_id":"83820b44-98df-406b-82f4-e334a281b32a","system_id":"levelo_inurba_marseille","lat":43.29554,"lon":5.42293,"is_reserved":false,"is_disabled":false,"rental_uris":{"android":"levelo://app?vid=83820b44-98df-406b-82f4-e334a281b32a","ios":"levelo://app?vid=83820b44-98df-406b-82f4-e334a281b32a"},"vehicle_type_id":"4","last_reported":1740251245,"current_range_meters":10800,"station_id":"ce4bhph2rcd13ifvqhdg","pricing_plan_id":"cebpf4jnsgd1na2vs0mg"},{"bike_id":"c76531ac-1214-4592-9c1c-6b2ce2bc0cf8","system_id":"levelo_inurba_marseille","lat":43.23191,"lon":5.35541,"is_reserved":false,"is_disabled":false,"rental_uris":{"android":"levelo://app?vid=c76531ac-1214-4592-9c1c-6b2ce2bc0cf8","ios":"levelo://app?vid=c76531ac-1214-4592-9c1c-6b2ce2bc0cf8"},"vehicle_type_id":"4","last_reported":1740251245,"current_range_meters":11200,"station_id":"ce4bhu92rcd13ifvqi70","pricing_plan_id":"cebpf4jnsgd1na2vs0mg"},{"bike_id":"99e75760-16b2-47b8-a597-cefb01e528c8","system_id":"levelo_inurba_marseille","lat":43.25011,"lon":5.38929,"is_reserved":false,"is_disabled":false,"rental_uris":{"android":"levelo://app?vid=99e75760-16b2-47b8-a597-cefb01e528c8","ios":"levelo://app?vid=99e75760-16b2-47b8-a597-cefb01e528c8"},"vehicle_type_id":"4","last_reported":1740251245,"current_range_meters":13600,"station_id":"ce4bhgp2rcd13ifvqfd0","pricing_plan_id":"cebpf4jnsgd1na2vs0mg"},{"bike_id":"f0496cee-709b-46c3-9608-a619de9e4141","system_id":"levelo_inurba_marseille","lat":43.29973,"lon":5.37166,"is_reserved":false,"is_disabled":false,"rental_uris":{"android":"levelo://app?vid=f0496cee-709b-46c3-9608-a619de9e4141","ios":"levelo://app?vid=f0496cee-709b-46c3-9608-a619de9e4141"},"vehicle_type_id":"4","last_reported":1740251245,"current_range_meters":11200,"station_id":"ce4bgr92rcd13ifvqc7g","pricing_plan_id":"cebpf4jnsgd1na2vs0mg"},{"bike_id":"d86b476f-be91-4064-a0d3-0af27d422ae2","system_id":"levelo_inurba_marseille","lat":43.27995,"lon":5.40015,"is_reserved":false,"is_disabled":false,"rental_uris":{"android":"levelo://app?vid=d86b476f-be91-4064-a0d3-0af27d422ae2","ios":"levelo://app?vid=d86b476f-be91-4064-a0d3-0af27d422ae2"},"vehicle_type_id":"4","last_reported":1740251245,"current_range_meters":11200,"station_id":"ce4bho92rcd13ifvqh4g","pricing_plan_id":"cebpf4jnsgd1na2vs0mg"},{"bike_id":"548a47c0-ba06-4c06-9b22-56c419bef6a0","system_id":"levelo_inurba_marseille","lat":43.29415,"lon":5.38622,"is_reserved":false,"is_disabled":false,"rental_uris":{"android":"levelo://app?vid=548a47c0-ba06-4c06-9b22-56c419bef6a0","ios":"levelo://app?vid=548a47c0-ba06-4c06-9b22-56c419bef6a0"},"vehicle_type_id":"4","last_reported":1740251245,"current_range_meters":11200,"station_id":"ce4bh2h2rcd13ifvqdh0","pricing_plan_id":"cebpf4jnsgd1na2vs0mg"},{"bike_id":"5ac0a685-b253-479e-9c9d-98e837ce2dd3","system_id":"levelo_inurba_marseille","lat":43.23967,"lon":5.36629,"is_reserved":false,"is_disabled":false,"rental_uris":{"android":"levelo://app?vid=5ac0a685-b253-479e-9c9d-98e837ce2dd3","ios":"levelo://app?vid=5ac0a685-b253-479e-9c9d-98e837ce2dd3"},"vehicle_type_id":"4","last_reported":1740251245,"current_range_meters":11600,"station_id":"ce4bhi12rcd13ifvqfp0","pricing_plan_id":"cebpf4jnsgd1na2vs0mg"},{"bike_id":"9d49efd4-a238-4a72-8787-13c506ac8d9b","system_id":"levelo_inurba_marseille","lat":43.27192,"lon":5.40989,"is_reserved":false,"is_disabled":false,"rental_uris":{"android":"levelo://app?vid=9d49efd4-a238-4a72-8787-13c506ac8d9b","ios":"levelo://app?vid=9d49efd4-a238-4a72-8787-13c506ac8d9b"},"vehicle_type_id":"4","last_reported":1740251245,"current_range_meters":11600,"station_id":"ce4bhl12rcd13ifvqgf0","pricing_plan_id":"cebpf4jnsgd1na2vs0mg"},{"bike_id":"ddb48cd1-bcb3-4cac-8164-1ae412ca1019","system_id":"levelo_inurba_marseille","lat":43.29327,"lon":5.37247,"is_reserved":false,"is_disabled":false,"rental_uris":{"android":"levelo://app?vid=ddb48cd1-bcb3-4cac-8164-1ae412ca1019","ios":"levelo://app?vid=ddb48cd1-bcb3-4cac-8164-1ae412ca1019"},"vehicle_type_id":"4","last_reported":1740251245,"current_range_meters":11600,"station_id":"","pricing_plan_id":"cebpf4jnsgd1na2vs0mg"},{"bike_id":"c3b9be2e-b257-4f64-8882-ea41b3bf3812","system_id":"levelo_inurba_marseille","lat":43.32305,"lon":5.39233,"is_reserved":false,"is_disabled":false,"rental_uris":{"android":"levelo://app?vid=c3b9be2e-b257-4f64-8882-ea41b3bf3812","ios":"levelo://app?vid=c3b9be2e-b257-4f64-8882-ea41b3bf3812"},"vehicle_type_id":"4","last_reported":1740251245,"current_range_meters":11600,"station_id":"","pricing_plan_id":"cebpf4jnsgd1na2vs0mg"},{"bike_id":"7f1ae1dc-5056-4a84-bf37-ee35e68f8574","system_id":"levelo_inurba_marseille","lat":43.3014,"lon":5.39858,"is_reserved":false,"is_disabled":false,"rental_uris":{"android":"levelo://app?vid=7f1ae1dc-5056-4a84-bf37-ee35e68f8574","ios":"levelo://app?vid=7f1ae1dc-5056-4a84-bf37-ee35e68f8574"},"vehicle_type_id":"4","last_reported":1740251245,"current_range_meters":11600,"station_id":"ce4bh0h2rcd13ifvqd40","pricing_plan_id":"cebpf4jnsgd1na2vs0mg"},{"bike_id":"2dfa133f-2f68-49a3-ae0d-aa28e375da40","system_id":"levelo_inurba_marseille","lat":43.3117,"lon":5.38713,"is_reserved":false,"is_disabled":false,"rental_uris":{"android":"levelo://app?vid=2dfa133f-2f68-49a3-ae0d-aa28e375da40","ios":"levelo://app?vid=2dfa133f-2f68-49a3-ae0d-aa28e375da40"},"vehicle_type_id":"4","last_reported":1740251245,"current_range_meters":11200,"station_id":"ce4bgv12rcd13ifvqcp0","pricing_plan_id":"cebpf4jnsgd1na2vs0mg"},{"bike_id":"f72aaa30-e111-425f-aa7e-bff51a5de9b5","system_id":"levelo_inurba_marseille","lat":43.29425,"lon":5.38629,"is_reserved":false,"is_disabled":false,"rental_uris":{"android":"levelo://app?vid=f72aaa30-e111-425f-aa7e-bff51a5de9b5","ios":"levelo://app?vid=f72aaa30-e111-425f-aa7e-bff51a5de9b5"},"vehicle_type_id":"4","last_reported":1740251245,"current_range_meters":12000,"station_id":"ce4bh2h2rcd13ifvqdh0","pricing_plan_id":"cebpf4jnsgd1na2vs0mg"},{"bike_id":"0b35ef10-1d1d-4e8a-949e-c3122c5e3874","system_id":"levelo_inurba_marseille","lat":43.23956,"lon":5.36635,"is_reserved":false,"is_disabled":false,"rental_uris":{"android":"levelo://app?vid=0b35ef10-1d1d-4e8a-949e-c3122c5e3874","ios":"levelo://app?vid=0b35ef10-1d1d-4e8a-949e-c3122c5e3874"},"vehicle_type_id":"4","last_reported":1740251245,"current_range_meters":12000,"station_id":"ce4bhi12rcd13ifvqfp0","pricing_plan_id":"cebpf4jnsgd1na2vs0mg"},{"bike_id":"3337cd90-bf48-41f0-a733-5e782d6f712b","system_id":"levelo_inurba_marseille","lat":43.29741,"lon":5.37712,"is_reserved":false,"is_disabled":true,"rental_uris":{"android":"levelo://app?vid=3337cd90-bf48-41f0-a733-5e782d6f712b","ios":"levelo://app?vid=3337cd90-bf48-41f0-a733-5e782d6f712b"},"vehicle_type_id":"4","last_reported":1740251245,"current_range_meters":12000,"station_id":"ce4bgkh2rcd13ifvqbl0","pricing_plan_id":"cebpf4jnsgd1na2vs0mg"},{"bike_id":"f03e476b-a990-497f-805d-601f91eb4bb3","system_id":"levelo_inurba_marseille","lat":43.28697,"lon":5.37935,"is_reserved":false,"is_disabled":false,"rental_uris":{"android":"levelo://app?vid=f03e476b-a990-497f-805d-601f91eb4bb3","ios":"levelo://app?vid=f03e476b-a990-497f-805d-601f91eb4bb3"},"vehicle_type_id":"4","last_reported":1740251245,"current_range_meters":11600,"station_id":"ce4bh9p2rcd13ifvqec0","pricing_plan_id":"cebpf4jnsgd1na2vs0mg"},{"bike_id":"eea79a06-f164-4b36-9ab2-e3ff22c5137d","system_id":"levelo_inurba_marseille","lat":43.2929,"lon":5.37488,"is_reserved":false,"is_disabled":false,"rental_uris":{"android":"levelo://app?vid=eea79a06-f164-4b36-9ab2-e3ff22c5137d","ios":"levelo://app?vid=eea79a06-f164-4b36-9ab2-e3ff22c5137d"},"vehicle_type_id":"4","last_reported":1740251245,"current_range_meters":12400,"station_id":"ce4bgi12rcd13ifvqb70","pricing_plan_id":"cebpf4jnsgd1na2vs0mg"},{"bike_id":"1b5b87c8-f96f-4740-8b60-bcc62c6e3f59","system_id":"levelo_inurba_marseille","lat":43.31421,"lon":5.38363,"is_reserved":false,"is_disabled":false,"rental_uris":{"android":"levelo://app?vid=1b5b87c8-f96f-4740-8b60-bcc62c6e3f59","ios":"levelo://app?vid=1b5b87c8-f96f-4740-8b60-bcc62c6e3f59"},"vehicle_type_id":"4","last_reported":1740251245,"current_range_meters":12400,"station_id":"","pricing_plan_id":"cebpf4jnsgd1na2vs0mg"},{"bike_id":"6f23b5b6-de59-4f48-ac8d-e0afba59aadf","system_id":"levelo_inurba_marseille","lat":43.29019,"lon":5.38637,"is_reserved":false,"is_disabled":false,"rental_uris":{"android":"levelo://app?vid=6f23b5b6-de59-4f48-ac8d-e0afba59aadf","ios":"levelo://app?vid=6f23b5b6-de59-4f48-ac8d-e0afba59aadf"},"vehicle_type_id":"4","last_reported":1740251245,"current_range_meters":12400,"station_id":"ce4bh4p2rcd13ifvqe0g","pricing_plan_id":"cebpf4jnsgd1na2vs0mg"},{"bike_id":"a295e3b4-b31b-4d71-989a-12f449db7098","system_id":"levelo_inurba_marseille","lat":43.29533,"lon":5.37501,"is_reserved":false,"is_disabled":false,"rental_uris":{"android":"levelo://app?vid=a295e3b4-b31b-4d71-989a-12f449db7098","ios":"levelo://app?vid=a295e3b4-b31b-4d71-989a-12f449db7098"},"vehicle_type_id":"4","last_reported":1740251245,"current_range_meters":12400,"station_id":"ce4bgkp2rcd13ifvqbmg","pricing_plan_id":"cebpf4jnsgd1na2vs0mg"},{"bike_id":"1b0d6542-f74d-4dd5-b78b-1cd1115ff80b","system_id":"levelo_inurba_marseille","lat":43.30643,"lon":5.37416,"is_reserved":false,"is_disabled":false,"rental_uris":{"android":"levelo://app?vid=1b0d6542-f74d-4dd5-b78b-1cd1115ff80b","ios":"levelo://app?vid=1b0d6542-f74d-4dd5-b78b-1cd1115ff80b"},"vehicle_type_id":"4","last_reported":1740251245,"current_range_meters":12800,"station_id":"","pricing_plan_id":"cebpf4jnsgd1na2vs0mg"},{"bike_id":"ab8e4fa1-a748-4b68-9f46-2fdc2afb052f","system_id":"levelo_inurba_marseille","lat":43.25833,"lon":5.3943,"is_reserved":false,"is_disabled":false,"rental_uris":{"android":"levelo://app?vid=ab8e4fa1-a748-4b68-9f46-2fdc2afb052f","ios":"levelo://app?vid=ab8e4fa1-a748-4b68-9f46-2fdc2afb052f"},"vehicle_type_id":"4","last_reported":1740251245,"current_range_meters":12800,"station_id":"ce4bhip2rcd13ifvqft0","pricing_plan_id":"cebpf4jnsgd1na2vs0mg"},{"bike_id":"74ed6e6f-40cf-4e20-a1d1-eb4d5d7f6813","system_id":"levelo_inurba_marseille","lat":43.30141,"lon":5.3741,"is_reserved":false,"is_disabled":false,"rental_uris":{"android":"levelo://app?vid=74ed6e6f-40cf-4e20-a1d1-eb4d5d7f6813","ios":"levelo://app?vid=74ed6e6f-40cf-4e20-a1d1-eb4d5d7f6813"},"vehicle_type_id":"4","last_reported":1740251245,"current_range_meters":12800,"station_id":"ce4bgs92rcd13ifvqcc0","pricing_plan_id":"cebpf4jnsgd1na2vs0mg"},{"bike_id":"5a5f52d1-4cf1-4827-ba57-5e78b6db2db4","system_id":"levelo_inurba_marseille","lat":43.294438,"lon":5.397522,"is_reserved":false,"is_disabled":false,"rental_uris":{"android":"levelo://app?vid=5a5f52d1-4cf1-4827-ba57-5e78b6db2db4","ios":"levelo://app?vid=5a5f52d1-4cf1-4827-ba57-5e78b6db2db4"},"vehicle_type_id":"4","last_reported":1740251245,"current_range_meters":12800,"station_id":"ce4bh3h2rcd13ifvqdo0","pricing_plan_id":"cebpf4jnsgd1na2vs0mg"},{"bike_id":"d88699b9-7a50-415c-9cdb-a35fdc00ed80","system_id":"levelo_inurba_marseille","lat":43.29934,"lon":5.37193,"is_reserved":false,"is_disabled":false,"rental_uris":{"android":"levelo://app?vid=d88699b9-7a50-415c-9cdb-a35fdc00ed80","ios":"levelo://app?vid=d88699b9-7a50-415c-9cdb-a35fdc00ed80"},"vehicle_type_id":"4","last_reported":1740251245,"current_range_meters":12800,"station_id":"","pricing_plan_id":"cebpf4jnsgd1na2vs0mg"},{"bike_id":"0dc10df1-2422-4347-8406-45044f046857","system_id":"levelo_inurba_marseille","lat":43.27363,"lon":5.36236,"is_reserved":false,"is_disabled":false,"rental_uris":{"android":"levelo://app?vid=0dc10df1-2422-4347-8406-45044f046857","ios":"levelo://app?vid=0dc10df1-2422-4347-8406-45044f046857"},"vehicle_type_id":"4","last_reported":1740251245,"current_range_meters":12800,"station_id":"ce4bhbh2rcd13ifvqeo0","pricing_plan_id":"cebpf4jnsgd1na2vs0mg"},{"bike_id":"8e1cbfd2-7a1c-47c1-9fa5-66ed931831c0","system_id":"levelo_inurba_marseille","lat":43.29534,"lon":5.38553,"is_reserved":false,"is_disabled":false,"rental_uris":{"android":"levelo://app?vid=8e1cbfd2-7a1c-47c1-9fa5-66ed931831c0","ios":"levelo://app?vid=8e1cbfd2-7a1c-47c1-9fa5-66ed931831c0"},"vehicle_type_id":"4","last_reported":1740251245,"current_range_meters":12800,"station_id":"ce4bgih2rcd13ifvqba0","pricing_plan_id":"cebpf4jnsgd1na2vs0mg"},{"bike_id":"580cd37a-010c-47d8-955d-e1bf99f50654","system_id":"levelo_inurba_marseille","lat":43.28356,"lon":5.38647,"is_reserved":false,"is_disabled":false,"rental_uris":{"android":"levelo://app?vid=580cd37a-010c-47d8-955d-e1bf99f50654","ios":"levelo://app?vid=580cd37a-010c-47d8-955d-e1bf99f50654"},"vehicle_type_id":"4","last_reported":1740251245,"current_range_meters":12800,"station_id":"ce4bh492rcd13ifvqdvg","pricing_plan_id":"cebpf4jnsgd1na2vs0mg"},{"bike_id":"d5e39cb2-3541-4721-b8dc-2821e137afec","system_id":"levelo_inurba_marseille","lat":43.30313,"lon":5.36894,"is_reserved":false,"is_disabled":false,"rental_uris":{"android":"levelo://app?vid=d5e39cb2-3541-4721-b8dc-2821e137afec","ios":"levelo://app?vid=d5e39cb2-3541-4721-b8dc-2821e137afec"},"vehicle_type_id":"4","last_reported":1740251245,"current_range_meters":12800,"station_id":"ce4bgqh2rcd13ifvqc5g","pricing_plan_id":"cebpf4jnsgd1na2vs0mg"},{"bike_id":"1f7411cd-9379-4bab-a8bc-411b928d8602","system_id":"levelo_inurba_marseille","lat":43.27485,"lon":5.42457,"is_reserved":false,"is_disabled":false,"rental_uris":{"android":"levelo://app?vid=1f7411cd-9379-4bab-a8bc-411b928d8602","ios":"levelo://app?vid=1f7411cd-9379-4bab-a8bc-411b928d8602"},"vehicle_type_id":"4","last_reported":1740251245,"current_range_meters":13600,"station_id":"ce4bhn92rcd13ifvqgrg","pricing_plan_id":"cebpf4jnsgd1na2vs0mg"},{"bike_id":"8dc51aab-29d3-43fa-a37e-6c47cc4c2e69","system_id":"levelo_inurba_marseille","lat":43.24166,"lon":5.36393,"is_reserved":false,"is_disabled":false,"rental_uris":{"android":"levelo://app?vid=8dc51aab-29d3-43fa-a37e-6c47cc4c2e69","ios":"levelo://app?vid=8dc51aab-29d3-43fa-a37e-6c47cc4c2e69"},"vehicle_type_id":"4","last_reported":1740251245,"current_range_meters":13600,"station_id":"cpo36qri1sfpv3e86is0","pricing_plan_id":"cebpf4jnsgd1na2vs0mg"},{"bike_id":"751d74d4-4720-43ef-8554-5aca785a40e2","system_id":"levelo_inurba_marseille","lat":43.23964,"lon":5.36626,"is_reserved":false,"is_disabled":false,"rental_uris":{"android":"levelo://app?vid=751d74d4-4720-43ef-8554-5aca785a40e2","ios":"levelo://app?vid=751d74d4-4720-43ef-8554-5aca785a40e2"},"vehicle_type_id":"4","last_reported":1740251245,"current_range_meters":14000,"station_id":"ce4bhi12rcd13ifvqfp0","pricing_plan_id":"cebpf4jnsgd1na2vs0mg"},{"bike_id":"fd1b3d11-436f-450d-ae26-4448aa864f60","system_id":"levelo_inurba_marseille","lat":43.31326,"lon":5.39695,"is_reserved":false,"is_disabled":false,"rental_uris":{"android":"levelo://app?vid=fd1b3d11-436f-450d-ae26-4448aa864f60","ios":"levelo://app?vid=fd1b3d11-436f-450d-ae26-4448aa864f60"},"vehicle_type_id":"4","last_reported":1740251245,"current_range_meters":13600,"station_id":"ce4bgvp2rcd13ifvqcu0","pricing_plan_id":"cebpf4jnsgd1na2vs0mg"},{"bike_id":"029edfd1-00eb-4ff7-8e59-974c8fe45f33","system_id":"levelo_inurba_marseille","lat":43.26595,"lon":5.39036,"is_reserved":false,"is_disabled":false,"rental_uris":{"android":"levelo://app?vid=029edfd1-00eb-4ff7-8e59-974c8fe45f33","ios":"levelo://app?vid=029edfd1-00eb-4ff7-8e59-974c8fe45f33"},"vehicle_type_id":"4","last_reported":1740251245,"current_range_meters":13600,"station_id":"ce4bhe12rcd13ifvqf30","pricing_plan_id":"cebpf4jnsgd1na2vs0mg"},{"bike_id":"3fd2a98c-7939-498c-8625-9658300a849b","system_id":"levelo_inurba_marseille","lat":43.25936,"lon":5.409,"is_reserved":false,"is_disabled":false,"rental_uris":{"android":"levelo://app?vid=3fd2a98c-7939-498c-8625-9658300a849b","ios":"levelo://app?vid=3fd2a98c-7939-498c-8625-9658300a849b"},"vehicle_type_id":"4","last_reported":1740251245,"current_range_meters":14000,"station_id":"ce4bhm92rcd13ifvqglg","pricing_plan_id":"cebpf4jnsgd1na2vs0mg"},{"bike_id":"1395b0c4-9e89-45ed-aff4-28390e124d93","system_id":"levelo_inurba_marseille","lat":43.30893,"lon":5.37186,"is_reserved":false,"is_disabled":false,"rental_uris":{"android":"levelo://app?vid=1395b0c4-9e89-45ed-aff4-28390e124d93","ios":"levelo://app?vid=1395b0c4-9e89-45ed-aff4-28390e124d93"},"vehicle_type_id":"4","last_reported":1740251245,"current_range_meters":14000,"station_id":"ce4bguh2rcd13ifvqckg","pricing_plan_id":"cebpf4jnsgd1na2vs0mg"},{"bike_id":"5e8691a8-f2ed-4a5d-8ce2-b5c17291ce24","system_id":"levelo_inurba_marseille","lat":43.29259,"lon":5.38421,"is_reserved":false,"is_disabled":false,"rental_uris":{"android":"levelo://app?vid=5e8691a8-f2ed-4a5d-8ce2-b5c17291ce24","ios":"levelo://app?vid=5e8691a8-f2ed-4a5d-8ce2-b5c17291ce24"},"vehicle_type_id":"4","last_reported":1740251245,"current_range_meters":14000,"station_id":"ce4bh692rcd13ifvqea0","pricing_plan_id":"cebpf4jnsgd1na2vs0mg"},{"bike_id":"65a2b506-9f18-4086-90d7-6bbdf970a117","system_id":"levelo_inurba_marseille","lat":43.29543,"lon":5.38538,"is_reserved":false,"is_disabled":false,"rental_uris":{"android":"levelo://app?vid=65a2b506-9f18-4086-90d7-6bbdf970a117","ios":"levelo://app?vid=65a2b506-9f18-4086-90d7-6bbdf970a117"},"vehicle_type_id":"4","last_reported":1740251245,"current_range_meters":14400,"station_id":"ce4bgih2rcd13ifvqba0","pricing_plan_id":"cebpf4jnsgd1na2vs0mg"},{"bike_id":"f56acf7d-1349-4de4-804c-a58b7bf6436a","system_id":"levelo_inurba_marseille","lat":43.30437,"lon":5.38888,"is_reserved":false,"is_disabled":false,"rental_uris":{"android":"levelo://app?vid=f56acf7d-1349-4de4-804c-a58b7bf6436a","ios":"levelo://app?vid=f56acf7d-1349-4de4-804c-a58b7bf6436a"},"vehicle_type_id":"4","last_reported":1740251245,"current_range_meters":14000,"station_id":"ce4bgk12rcd13ifvqbi0","pricing_plan_id":"cebpf4jnsgd1na2vs0mg"},{"bike_id":"205903f3-7eb7-45a4-a2ac-125a5dae63b1","system_id":"levelo_inurba_marseille","lat":43.29277,"lon":5.38444,"is_reserved":false,"is_disabled":false,"rental_uris":{"android":"levelo://app?vid=205903f3-7eb7-45a4-a2ac-125a5dae63b1","ios":"levelo://app?vid=205903f3-7eb7-45a4-a2ac-125a5dae63b1"},"vehicle_type_id":"4","last_reported":1740251245,"current_range_meters":14400,"station_id":"ce4bh692rcd13ifvqea0","pricing_plan_id":"cebpf4jnsgd1na2vs0mg"},{"bike_id":"8e403f8a-b998-4fb1-bb90-54bf70e024a5","system_id":"levelo_inurba_marseille","lat":43.26935,"lon":5.389166,"is_reserved":false,"is_disabled":false,"rental_uris":{"android":"levelo://app?vid=8e403f8a-b998-4fb1-bb90-54bf70e024a5","ios":"levelo://app?vid=8e403f8a-b998-4fb1-bb90-54bf70e024a5"},"vehicle_type_id":"4","last_reported":1740251245,"current_range_meters":14400,"station_id":"ce4bhhh2rcd13ifvqfl0","pricing_plan_id":"cebpf4jnsgd1na2vs0mg"},{"bike_id":"ad5d970e-426b-4f89-94bd-e7196f45d370","system_id":"levelo_inurba_marseille","lat":43.32133,"lon":5.36788,"is_reserved":false,"is_disabled":false,"rental_uris":{"android":"levelo://app?vid=ad5d970e-426b-4f89-94bd-e7196f45d370","ios":"levelo://app?vid=ad5d970e-426b-4f89-94bd-e7196f45d370"},"vehicle_type_id":"4","last_reported":1740251245,"current_range_meters":14400,"station_id":"","pricing_plan_id":"cebpf4jnsgd1na2vs0mg"},{"bike_id":"123d0a43-f179-4961-9cf4-da91f679c40e","system_id":"levelo_inurba_marseille","lat":43.28368,"lon":5.3862,"is_reserved":false,"is_disabled":false,"rental_uris":{"android":"levelo://app?vid=123d0a43-f179-4961-9cf4-da91f679c40e","ios":"levelo://app?vid=123d0a43-f179-4961-9cf4-da91f679c40e"},"vehicle_type_id":"4","last_reported":1740251245,"current_range_meters":14800,"station_id":"ce4bh492rcd13ifvqdvg","pricing_plan_id":"cebpf4jnsgd1na2vs0mg"},{"bike_id":"bf955d35-f5d5-4c7a-acee-2eb7e71c40f9","system_id":"levelo_inurba_marseille","lat":43.267044,"lon":5.382722,"is_reserved":false,"is_disabled":false,"rental_uris":{"android":"levelo://app?vid=bf955d35-f5d5-4c7a-acee-2eb7e71c40f9","ios":"levelo://app?vid=bf955d35-f5d5-4c7a-acee-2eb7e71c40f9"},"vehicle_type_id":"4","last_reported":1740251245,"current_range_meters":15200,"station_id":"ce4bhg92rcd13ifvqf90","pricing_plan_id":"cebpf4jnsgd1na2vs0mg"},{"bike_id":"47dd2723-c3b7-402d-994e-aadb2040f706","system_id":"levelo_inurba_marseille","lat":43.29629,"lon":5.40596,"is_reserved":false,"is_disabled":false,"rental_uris":{"android":"levelo://app?vid=47dd2723-c3b7-402d-994e-aadb2040f706","ios":"levelo://app?vid=47dd2723-c3b7-402d-994e-aadb2040f706"},"vehicle_type_id":"4","last_reported":1740251245,"current_range_meters":15200,"station_id":"ce4bh0h2rcd13ifvqd60","pricing_plan_id":"cebpf4jnsgd1na2vs0mg"},{"bike_id":"03ade8f7-850c-4eea-80f3-6c8cc31128b4","system_id":"levelo_inurba_marseille","lat":43.29573,"lon":5.37532,"is_reserved":false,"is_disabled":false,"rental_uris":{"android":"levelo://app?vid=03ade8f7-850c-4eea-80f3-6c8cc31128b4","ios":"levelo://app?vid=03ade8f7-850c-4eea-80f3-6c8cc31128b4"},"vehicle_type_id":"4","last_reported":1740251245,"current_range_meters":15200,"station_id":"ce4bgh92rcd13ifvqb50","pricing_plan_id":"cebpf4jnsgd1na2vs0mg"},{"bike_id":"7450d94d-c99b-42f5-9de4-cf65fac97459","system_id":"levelo_inurba_marseille","lat":43.29787,"lon":5.37091,"is_reserved":false,"is_disabled":false,"rental_uris":{"android":"levelo://app?vid=7450d94d-c99b-42f5-9de4-cf65fac97459","ios":"levelo://app?vid=7450d94d-c99b-42f5-9de4-cf65fac97459"},"vehicle_type_id":"4","last_reported":1740251245,"current_range_meters":15200,"station_id":"ce4bgop2rcd13ifvqc1g","pricing_plan_id":"cebpf4jnsgd1na2vs0mg"},{"bike_id":"47ee8aba-5ce6-4066-af4b-a3481dd10b2a","system_id":"levelo_inurba_marseille","lat":43.28429,"lon":5.35014,"is_reserved":false,"is_disabled":false,"rental_uris":{"android":"levelo://app?vid=47ee8aba-5ce6-4066-af4b-a3481dd10b2a","ios":"levelo://app?vid=47ee8aba-5ce6-4066-af4b-a3481dd10b2a"},"vehicle_type_id":"4","last_reported":1740251245,"current_range_meters":15200,"station_id":"ce4bhbh2rcd13ifvqepg","pricing_plan_id":"cebpf4jnsgd1na2vs0mg"},{"bike_id":"8d436272-13a2-4fad-bffe-7e52173d707d","system_id":"levelo_inurba_marseille","lat":43.27816,"lon":5.4074,"is_reserved":false,"is_disabled":false,"rental_uris":{"android":"levelo://app?vid=8d436272-13a2-4fad-bffe-7e52173d707d","ios":"levelo://app?vid=8d436272-13a2-4fad-bffe-7e52173d707d"},"vehicle_type_id":"4","last_reported":1740251245,"current_range_meters":15200,"station_id":"ce4bhnh2rcd13ifvqgtg","pricing_plan_id":"cebpf4jnsgd1na2vs0mg"},{"bike_id":"87960040-de76-45c5-899a-b02fe185e865","system_id":"levelo_inurba_marseille","lat":43.28916,"lon":5.38397,"is_reserved":false,"is_disabled":false,"rental_uris":{"android":"levelo://app?vid=87960040-de76-45c5-899a-b02fe185e865","ios":"levelo://app?vid=87960040-de76-45c5-899a-b02fe185e865"},"vehicle_type_id":"4","last_reported":1740251245,"current_range_meters":15200,"station_id":"ce4bh612rcd13ifvqe6g","pricing_plan_id":"cebpf4jnsgd1na2vs0mg"},{"bike_id":"07e4e78f-155f-46ba-b47c-845e3199ae6c","system_id":"levelo_inurba_marseille","lat":43.25117,"lon":5.40349,"is_reserved":false,"is_disabled":false,"rental_uris":{"android":"levelo://app?vid=07e4e78f-155f-46ba-b47c-845e3199ae6c","ios":"levelo://app?vid=07e4e78f-155f-46ba-b47c-845e3199ae6c"},"vehicle_type_id":"4","last_reported":1740251245,"current_range_meters":15200,"station_id":"ce4bhlh2rcd13ifvqgig","pricing_plan_id":"cebpf4jnsgd1na2vs0mg"},{"bike_id":"025e813a-671a-4ec8-9fc4-a9ae492304f7","system_id":"levelo_inurba_marseille","lat":43.31991,"lon":5.38142,"is_reserved":false,"is_disabled":false,"rental_uris":{"android":"levelo://app?vid=025e813a-671a-4ec8-9fc4-a9ae492304f7","ios":"levelo://app?vid=025e813a-671a-4ec8-9fc4-a9ae492304f7"},"vehicle_type_id":"4","last_reported":1740251245,"current_range_meters":16000,"station_id":"ce4bhr12rcd13ifvqhpg","pricing_plan_id":"cebpf4jnsgd1na2vs0mg"},{"bike_id":"6cee15f5-f5b0-4f78-80d2-62dd5deb5a0a","system_id":"levelo_inurba_marseille","lat":43.26597,"lon":5.39029,"is_reserved":false,"is_disabled":false,"rental_uris":{"android":"levelo://app?vid=6cee15f5-f5b0-4f78-80d2-62dd5deb5a0a","ios":"levelo://app?vid=6cee15f5-f5b0-4f78-80d2-62dd5deb5a0a"},"vehicle_type_id":"4","last_reported":1740251245,"current_range_meters":16000,"station_id":"ce4bhe12rcd13ifvqf30","pricing_plan_id":"cebpf4jnsgd1na2vs0mg"},{"bike_id":"4891a88c-1a29-4106-b197-b6dcbb7d6b43","system_id":"levelo_inurba_marseille","lat":43.28846,"lon":5.35898,"is_reserved":false,"is_disabled":false,"rental_uris":{"android":"levelo://app?vid=4891a88c-1a29-4106-b197-b6dcbb7d6b43","ios":"levelo://app?vid=4891a88c-1a29-4106-b197-b6dcbb7d6b43"},"vehicle_type_id":"4","last_reported":1740251245,"current_range_meters":16000,"station_id":"ce4bhb12rcd13ifvqem0","pricing_plan_id":"cebpf4jnsgd1na2vs0mg"},{"bike_id":"095d5026-b6cb-411c-ab71-6c60703e2b2f","system_id":"levelo_inurba_marseille","lat":43.23059,"lon":5.35489,"is_reserved":false,"is_disabled":true,"rental_uris":{"android":"levelo://app?vid=095d5026-b6cb-411c-ab71-6c60703e2b2f","ios":"levelo://app?vid=095d5026-b6cb-411c-ab71-6c60703e2b2f"},"vehicle_type_id":"4","last_reported":1740251245,"current_range_meters":16000,"station_id":"cpo3342slgdg3j2ifvpg","pricing_plan_id":"cebpf4jnsgd1na2vs0mg"},{"bike_id":"49f0cfbd-4a05-40e7-84e3-188b77d24ee2","system_id":"levelo_inurba_marseille","lat":43.29319,"lon":5.37177,"is_reserved":false,"is_disabled":false,"rental_uris":{"android":"levelo://app?vid=49f0cfbd-4a05-40e7-84e3-188b77d24ee2","ios":"levelo://app?vid=49f0cfbd-4a05-40e7-84e3-188b77d24ee2"},"vehicle_type_id":"4","last_reported":1740251245,"current_range_meters":16000,"station_id":"ce4bgh92rcd13ifvqb40","pricing_plan_id":"cebpf4jnsgd1na2vs0mg"},{"bike_id":"d0bb6e41-80c1-4c43-b652-1b70203c66ac","system_id":"levelo_inurba_marseille","lat":43.29892,"lon":5.43637,"is_reserved":false,"is_disabled":false,"rental_uris":{"android":"levelo://app?vid=d0bb6e41-80c1-4c43-b652-1b70203c66ac","ios":"levelo://app?vid=d0bb6e41-80c1-4c43-b652-1b70203c66ac"},"vehicle_type_id":"4","last_reported":1740251245,"current_range_meters":16000,"station_id":"ce4bhpp2rcd13ifvqhfg","pricing_plan_id":"cebpf4jnsgd1na2vs0mg"},{"bike_id":"f5043b92-9d4a-4bb2-9e78-864d7e12fcea","system_id":"levelo_inurba_marseille","lat":43.287013,"lon":5.373975,"is_reserved":false,"is_disabled":false,"rental_uris":{"android":"levelo://app?vid=f5043b92-9d4a-4bb2-9e78-864d7e12fcea","ios":"levelo://app?vid=f5043b92-9d4a-4bb2-9e78-864d7e12fcea"},"vehicle_type_id":"4","last_reported":1740251245,"current_range_meters":16000,"station_id":"ce4bh3p2rcd13ifvqdq0","pricing_plan_id":"cebpf4jnsgd1na2vs0mg"},{"bike_id":"d174e5a1-b9b6-43dc-bd62-0254c0661ee5","system_id":"levelo_inurba_marseille","lat":43.29578,"lon":5.36734,"is_reserved":false,"is_disabled":false,"rental_uris":{"android":"levelo://app?vid=d174e5a1-b9b6-43dc-bd62-0254c0661ee5","ios":"levelo://app?vid=d174e5a1-b9b6-43dc-bd62-0254c0661ee5"},"vehicle_type_id":"4","last_reported":1740251245,"current_range_meters":16000,"station_id":"ce4bgph2rcd13ifvqc2g","pricing_plan_id":"cebpf4jnsgd1na2vs0mg"},{"bike_id":"5d805d80-16e4-44f6-9af0-59f508a3355e","system_id":"levelo_inurba_marseille","lat":43.25008,"lon":5.38926,"is_reserved":false,"is_disabled":false,"rental_uris":{"android":"levelo://app?vid=5d805d80-16e4-44f6-9af0-59f508a3355e","ios":"levelo://app?vid=5d805d80-16e4-44f6-9af0-59f508a3355e"},"vehicle_type_id":"4","last_reported":1740251245,"current_range_meters":16000,"station_id":"ce4bhgp2rcd13ifvqfd0","pricing_plan_id":"cebpf4jnsgd1na2vs0mg"},{"bike_id":"cd1c00f0-c8b9-4e04-b4b5-658ee63fda16","system_id":"levelo_inurba_marseille","lat":43.29255,"lon":5.37617,"is_reserved":false,"is_disabled":false,"rental_uris":{"android":"levelo://app?vid=cd1c00f0-c8b9-4e04-b4b5-658ee63fda16","ios":"levelo://app?vid=cd1c00f0-c8b9-4e04-b4b5-658ee63fda16"},"vehicle_type_id":"4","last_reported":1740251245,"current_range_meters":16000,"station_id":"ce4bgi12rcd13ifvqb80","pricing_plan_id":"cebpf4jnsgd1na2vs0mg"},{"bike_id":"7cb94319-cfdb-4798-b028-612a7f9d4c51","system_id":"levelo_inurba_marseille","lat":43.29257,"lon":5.38436,"is_reserved":false,"is_disabled":false,"rental_uris":{"android":"levelo://app?vid=7cb94319-cfdb-4798-b028-612a7f9d4c51","ios":"levelo://app?vid=7cb94319-cfdb-4798-b028-612a7f9d4c51"},"vehicle_type_id":"4","last_reported":1740251245,"current_range_meters":17600,"station_id":"ce4bh692rcd13ifvqea0","pricing_plan_id":"cebpf4jnsgd1na2vs0mg"},{"bike_id":"aa184cfe-3d94-4b1b-a9d4-04117d7397ef","system_id":"levelo_inurba_marseille","lat":43.29879,"lon":5.38919,"is_reserved":false,"is_disabled":false,"rental_uris":{"android":"levelo://app?vid=aa184cfe-3d94-4b1b-a9d4-04117d7397ef","ios":"levelo://app?vid=aa184cfe-3d94-4b1b-a9d4-04117d7397ef"},"vehicle_type_id":"4","last_reported":1740251245,"current_range_meters":16400,"station_id":"ce4bh392rcd13ifvqdl0","pricing_plan_id":"cebpf4jnsgd1na2vs0mg"},{"bike_id":"2e193ad2-1d43-4cac-8342-bcef9743f59a","system_id":"levelo_inurba_marseille","lat":43.23198,"lon":5.3555,"is_reserved":false,"is_disabled":false,"rental_uris":{"android":"levelo://app?vid=2e193ad2-1d43-4cac-8342-bcef9743f59a","ios":"levelo://app?vid=2e193ad2-1d43-4cac-8342-bcef9743f59a"},"vehicle_type_id":"4","last_reported":1740251245,"current_range_meters":16400,"station_id":"ce4bhu92rcd13ifvqi70","pricing_plan_id":"cebpf4jnsgd1na2vs0mg"},{"bike_id":"e35b9acf-7164-4fc2-becb-92764ea5b0cd","system_id":"levelo_inurba_marseille","lat":43.30803,"lon":5.38155,"is_reserved":false,"is_disabled":false,"rental_uris":{"android":"levelo://app?vid=e35b9acf-7164-4fc2-becb-92764ea5b0cd","ios":"levelo://app?vid=e35b9acf-7164-4fc2-becb-92764ea5b0cd"},"vehicle_type_id":"4","last_reported":1740251245,"current_range_meters":16400,"station_id":"ce4bgt12rcd13ifvqce0","pricing_plan_id":"cebpf4jnsgd1na2vs0mg"},{"bike_id":"bb875618-a3ed-4172-a9a7-192483798c8f","system_id":"levelo_inurba_marseille","lat":43.302612,"lon":5.384655,"is_reserved":false,"is_disabled":false,"rental_uris":{"android":"levelo://app?vid=bb875618-a3ed-4172-a9a7-192483798c8f","ios":"levelo://app?vid=bb875618-a3ed-4172-a9a7-192483798c8f"},"vehicle_type_id":"4","last_reported":1740251245,"current_range_meters":16400,"station_id":"ce4bhh12rcd13ifvqfg0","pricing_plan_id":"cebpf4jnsgd1na2vs0mg"},{"bike_id":"f3fcc730-cdc0-4a35-9472-678d95b28e69","system_id":"levelo_inurba_marseille","lat":43.29419,"lon":5.38626,"is_reserved":false,"is_disabled":false,"rental_uris":{"android":"levelo://app?vid=f3fcc730-cdc0-4a35-9472-678d95b28e69","ios":"levelo://app?vid=f3fcc730-cdc0-4a35-9472-678d95b28e69"},"vehicle_type_id":"4","last_reported":1740251245,"current_range_meters":16400,"station_id":"ce4bh2h2rcd13ifvqdh0","pricing_plan_id":"cebpf4jnsgd1na2vs0mg"},{"bike_id":"33cc0fcb-f6e1-44bc-9328-d3f75a5791c5","system_id":"levelo_inurba_marseille","lat":43.23195,"lon":5.35559,"is_reserved":false,"is_disabled":false,"rental_uris":{"android":"levelo://app?vid=33cc0fcb-f6e1-44bc-9328-d3f75a5791c5","ios":"levelo://app?vid=33cc0fcb-f6e1-44bc-9328-d3f75a5791c5"},"vehicle_type_id":"4","last_reported":1740251245,"current_range_meters":16400,"station_id":"ce4bhu92rcd13ifvqi70","pricing_plan_id":"cebpf4jnsgd1na2vs0mg"},{"bike_id":"07e94c33-65a8-4be0-90bf-399fe126c10e","system_id":"levelo_inurba_marseille","lat":43.250043,"lon":5.38928,"is_reserved":false,"is_disabled":false,"rental_uris":{"android":"levelo://app?vid=07e94c33-65a8-4be0-90bf-399fe126c10e","ios":"levelo://app?vid=07e94c33-65a8-4be0-90bf-399fe126c10e"},"vehicle_type_id":"4","last_reported":1740251245,"current_range_meters":16400,"station_id":"ce4bhgp2rcd13ifvqfd0","pricing_plan_id":"cebpf4jnsgd1na2vs0mg"},{"bike_id":"1d102fb7-2276-4e7f-8971-e3d16736ac1c","system_id":"levelo_inurba_marseille","lat":43.29421,"lon":5.38622,"is_reserved":false,"is_disabled":false,"rental_uris":{"android":"levelo://app?vid=1d102fb7-2276-4e7f-8971-e3d16736ac1c","ios":"levelo://app?vid=1d102fb7-2276-4e7f-8971-e3d16736ac1c"},"vehicle_type_id":"4","last_reported":1740251245,"current_range_meters":16400,"station_id":"ce4bh2h2rcd13ifvqdh0","pricing_plan_id":"cebpf4jnsgd1na2vs0mg"},{"bike_id":"eefa24ba-825c-44a1-8628-0026e63f206f","system_id":"levelo_inurba_marseille","lat":43.2808,"lon":5.39658,"is_reserved":false,"is_disabled":false,"rental_uris":{"android":"levelo://app?vid=eefa24ba-825c-44a1-8628-0026e63f206f","ios":"levelo://app?vid=eefa24ba-825c-44a1-8628-0026e63f206f"},"vehicle_type_id":"4","last_reported":1740251245,"current_range_meters":16000,"station_id":"ce4bho12rcd13ifvqh2g","pricing_plan_id":"cebpf4jnsgd1na2vs0mg"},{"bike_id":"ef73e067-e342-4ea1-a21d-5bab7be015a4","system_id":"levelo_inurba_marseille","lat":43.32315,"lon":5.39227,"is_reserved":false,"is_disabled":false,"rental_uris":{"android":"levelo://app?vid=ef73e067-e342-4ea1-a21d-5bab7be015a4","ios":"levelo://app?vid=ef73e067-e342-4ea1-a21d-5bab7be015a4"},"vehicle_type_id":"4","last_reported":1740251245,"current_range_meters":16800,"station_id":"","pricing_plan_id":"cebpf4jnsgd1na2vs0mg"},{"bike_id":"1af7aa34-93de-46bf-a63f-a8faeb70fadd","system_id":"levelo_inurba_marseille","lat":43.299148,"lon":5.374614,"is_reserved":false,"is_disabled":false,"rental_uris":{"android":"levelo://app?vid=1af7aa34-93de-46bf-a63f-a8faeb70fadd","ios":"levelo://app?vid=1af7aa34-93de-46bf-a63f-a8faeb70fadd"},"vehicle_type_id":"4","last_reported":1740251245,"current_range_meters":16400,"station_id":"ce4bgjh2rcd13ifvqbg0","pricing_plan_id":"cebpf4jnsgd1na2vs0mg"},{"bike_id":"605f007c-e45a-442c-9c2d-e94566d0e8f4","system_id":"levelo_inurba_marseille","lat":43.29711,"lon":5.37721,"is_reserved":false,"is_disabled":false,"rental_uris":{"android":"levelo://app?vid=605f007c-e45a-442c-9c2d-e94566d0e8f4","ios":"levelo://app?vid=605f007c-e45a-442c-9c2d-e94566d0e8f4"},"vehicle_type_id":"4","last_reported":1740251245,"current_range_meters":17200,"station_id":"ce4bgkh2rcd13ifvqbl0","pricing_plan_id":"cebpf4jnsgd1na2vs0mg"},{"bike_id":"922972a0-0bf5-4aea-82f3-aa17cb10c57a","system_id":"levelo_inurba_marseille","lat":43.30131,"lon":5.3984,"is_reserved":false,"is_disabled":false,"rental_uris":{"android":"levelo://app?vid=922972a0-0bf5-4aea-82f3-aa17cb10c57a","ios":"levelo://app?vid=922972a0-0bf5-4aea-82f3-aa17cb10c57a"},"vehicle_type_id":"4","last_reported":1740251245,"current_range_meters":16800,"station_id":"ce4bgkh2rcd13ifvqbl0","pricing_plan_id":"cebpf4jnsgd1na2vs0mg"},{"bike_id":"3fd3b188-e036-4580-a021-6db56933c529","system_id":"levelo_inurba_marseille","lat":43.30602,"lon":5.40111,"is_reserved":false,"is_disabled":false,"rental_uris":{"android":"levelo://app?vid=3fd3b188-e036-4580-a021-6db56933c529","ios":"levelo://app?vid=3fd3b188-e036-4580-a021-6db56933c529"},"vehicle_type_id":"4","last_reported":1740251245,"current_range_meters":16800,"station_id":"ce4bh112rcd13ifvqda0","pricing_plan_id":"cebpf4jnsgd1na2vs0mg"},{"bike_id":"f91cc6b0-e755-4e0f-bbb6-7e3a01fe243a","system_id":"levelo_inurba_marseille","lat":43.29913,"lon":5.37473,"is_reserved":false,"is_disabled":false,"rental_uris":{"android":"levelo://app?vid=f91cc6b0-e755-4e0f-bbb6-7e3a01fe243a","ios":"levelo://app?vid=f91cc6b0-e755-4e0f-bbb6-7e3a01fe243a"},"vehicle_type_id":"4","last_reported":1740251245,"current_range_meters":16800,"station_id":"ce4bgjh2rcd13ifvqbg0","pricing_plan_id":"cebpf4jnsgd1na2vs0mg"},{"bike_id":"7edad6f1-bb02-4747-8467-5494540e990b","system_id":"levelo_inurba_marseille","lat":43.25006,"lon":5.38921,"is_reserved":false,"is_disabled":false,"rental_uris":{"android":"levelo://app?vid=7edad6f1-bb02-4747-8467-5494540e990b","ios":"levelo://app?vid=7edad6f1-bb02-4747-8467-5494540e990b"},"vehicle_type_id":"4","last_reported":1740251245,"current_range_meters":16800,"station_id":"ce4bhgp2rcd13ifvqfd0","pricing_plan_id":"cebpf4jnsgd1na2vs0mg"},{"bike_id":"35be131f-edca-4ec4-acd1-2747652f68e4","system_id":"levelo_inurba_marseille","lat":43.28991,"lon":5.37839,"is_reserved":false,"is_disabled":false,"rental_uris":{"android":"levelo://app?vid=35be131f-edca-4ec4-acd1-2747652f68e4","ios":"levelo://app?vid=35be131f-edca-4ec4-acd1-2747652f68e4"},"vehicle_type_id":"4","last_reported":1740251245,"current_range_meters":16800,"station_id":"ce4bh9p2rcd13ifvqed0","pricing_plan_id":"cebpf4jnsgd1na2vs0mg"},{"bike_id":"5b0c8dd0-6c48-4996-973b-c5c99c9160c9","system_id":"levelo_inurba_marseille","lat":43.30608,"lon":5.37223,"is_reserved":false,"is_disabled":false,"rental_uris":{"android":"levelo://app?vid=5b0c8dd0-6c48-4996-973b-c5c99c9160c9","ios":"levelo://app?vid=5b0c8dd0-6c48-4996-973b-c5c99c9160c9"},"vehicle_type_id":"4","last_reported":1740251245,"current_range_meters":16800,"station_id":"ce4bgqh2rcd13ifvqc4g","pricing_plan_id":"cebpf4jnsgd1na2vs0mg"},{"bike_id":"a3610751-bbe4-4d3e-a717-1a0eebd2fb2a","system_id":"levelo_inurba_marseille","lat":43.30661,"lon":5.37528,"is_reserved":false,"is_disabled":false,"rental_uris":{"android":"levelo://app?vid=a3610751-bbe4-4d3e-a717-1a0eebd2fb2a","ios":"levelo://app?vid=a3610751-bbe4-4d3e-a717-1a0eebd2fb2a"},"vehicle_type_id":"4","last_reported":1740251245,"current_range_meters":16800,"station_id":"","pricing_plan_id":"cebpf4jnsgd1na2vs0mg"},{"bike_id":"80e30e07-59ff-4807-b06b-c6dc1a9e08e2","system_id":"levelo_inurba_marseille","lat":43.33623,"lon":5.41022,"is_reserved":false,"is_disabled":true,"rental_uris":{"android":"levelo://app?vid=80e30e07-59ff-4807-b06b-c6dc1a9e08e2","ios":"levelo://app?vid=80e30e07-59ff-4807-b06b-c6dc1a9e08e2"},"vehicle_type_id":"4","last_reported":1740251245,"current_range_meters":17200,"station_id":"ce4bhqh2rcd13ifvqhmg","pricing_plan_id":"cebpf4jnsgd1na2vs0mg"},{"bike_id":"eb2d3eb9-c60a-4325-8b75-8669507ad9ce","system_id":"levelo_inurba_marseille","lat":43.2956,"lon":5.42293,"is_reserved":false,"is_disabled":false,"rental_uris":{"android":"levelo://app?vid=eb2d3eb9-c60a-4325-8b75-8669507ad9ce","ios":"levelo://app?vid=eb2d3eb9-c60a-4325-8b75-8669507ad9ce"},"vehicle_type_id":"4","last_reported":1740251245,"current_range_meters":17200,"station_id":"ce4bhph2rcd13ifvqhdg","pricing_plan_id":"cebpf4jnsgd1na2vs0mg"},{"bike_id":"4caf490d-10e5-4073-8dae-a68a285775aa","system_id":"levelo_inurba_marseille","lat":43.24392,"lon":5.37006,"is_reserved":false,"is_disabled":false,"rental_uris":{"android":"levelo://app?vid=4caf490d-10e5-4073-8dae-a68a285775aa","ios":"levelo://app?vid=4caf490d-10e5-4073-8dae-a68a285775aa"},"vehicle_type_id":"4","last_reported":1740251245,"current_range_meters":17200,"station_id":"","pricing_plan_id":"cebpf4jnsgd1na2vs0mg"},{"bike_id":"e636832d-d31d-492b-9bcd-b899a106503d","system_id":"levelo_inurba_marseille","lat":43.2417,"lon":5.3639,"is_reserved":false,"is_disabled":false,"rental_uris":{"android":"levelo://app?vid=e636832d-d31d-492b-9bcd-b899a106503d","ios":"levelo://app?vid=e636832d-d31d-492b-9bcd-b899a106503d"},"vehicle_type_id":"4","last_reported":1740251245,"current_range_meters":17200,"station_id":"cpo36qri1sfpv3e86is0","pricing_plan_id":"cebpf4jnsgd1na2vs0mg"},{"bike_id":"7d4b257a-c60d-48e8-85d7-7dc3f985241e","system_id":"levelo_inurba_marseille","lat":43.29629,"lon":5.38562,"is_reserved":false,"is_disabled":false,"rental_uris":{"android":"levelo://app?vid=7d4b257a-c60d-48e8-85d7-7dc3f985241e","ios":"levelo://app?vid=7d4b257a-c60d-48e8-85d7-7dc3f985241e"},"vehicle_type_id":"4","last_reported":1740251245,"current_range_meters":17200,"station_id":"","pricing_plan_id":"cebpf4jnsgd1na2vs0mg"},{"bike_id":"ac35e38f-342c-4802-b395-a37e42a10246","system_id":"levelo_inurba_marseille","lat":43.29252,"lon":5.38437,"is_reserved":false,"is_disabled":false,"rental_uris":{"android":"levelo://app?vid=ac35e38f-342c-4802-b395-a37e42a10246","ios":"levelo://app?vid=ac35e38f-342c-4802-b395-a37e42a10246"},"vehicle_type_id":"4","last_reported":1740251245,"current_range_meters":17200,"station_id":"ce4bh692rcd13ifvqea0","pricing_plan_id":"cebpf4jnsgd1na2vs0mg"},{"bike_id":"5db6d7ce-c37b-4845-941d-eb14e356443b","system_id":"levelo_inurba_marseille","lat":43.29528,"lon":5.39031,"is_reserved":false,"is_disabled":false,"rental_uris":{"android":"levelo://app?vid=5db6d7ce-c37b-4845-941d-eb14e356443b","ios":"levelo://app?vid=5db6d7ce-c37b-4845-941d-eb14e356443b"},"vehicle_type_id":"4","last_reported":1740251245,"current_range_meters":17600,"station_id":"ce4bh3p2rcd13ifvqdp0","pricing_plan_id":"cebpf4jnsgd1na2vs0mg"},{"bike_id":"aac60368-8072-4d2b-8d69-2a95447ccbec","system_id":"levelo_inurba_marseille","lat":43.30163,"lon":5.38059,"is_reserved":false,"is_disabled":false,"rental_uris":{"android":"levelo://app?vid=aac60368-8072-4d2b-8d69-2a95447ccbec","ios":"levelo://app?vid=aac60368-8072-4d2b-8d69-2a95447ccbec"},"vehicle_type_id":"4","last_reported":1740251245,"current_range_meters":17600,"station_id":"ce4bgjp2rcd13ifvqbh0","pricing_plan_id":"cebpf4jnsgd1na2vs0mg"},{"bike_id":"2e2eec40-5ee7-4992-a4b6-06bf579daddf","system_id":"levelo_inurba_marseille","lat":43.25718,"lon":5.41113,"is_reserved":false,"is_disabled":false,"rental_uris":{"android":"levelo://app?vid=2e2eec40-5ee7-4992-a4b6-06bf579daddf","ios":"levelo://app?vid=2e2eec40-5ee7-4992-a4b6-06bf579daddf"},"vehicle_type_id":"4","last_reported":1740251245,"current_range_meters":17600,"station_id":"ce4bhkp2rcd13ifvqgd0","pricing_plan_id":"cebpf4jnsgd1na2vs0mg"},{"bike_id":"d0c9fb0f-00b9-49de-b58c-77254eb9f1e2","system_id":"levelo_inurba_marseille","lat":43.28855,"lon":5.35856,"is_reserved":false,"is_disabled":false,"rental_uris":{"android":"levelo://app?vid=d0c9fb0f-00b9-49de-b58c-77254eb9f1e2","ios":"levelo://app?vid=d0c9fb0f-00b9-49de-b58c-77254eb9f1e2"},"vehicle_type_id":"4","last_reported":1740251245,"current_range_meters":17600,"station_id":"ce4bhb12rcd13ifvqem0","pricing_plan_id":"cebpf4jnsgd1na2vs0mg"},{"bike_id":"aceee5bb-0a4b-47f3-849d-afa35ac45389","system_id":"levelo_inurba_marseille","lat":43.29375,"lon":5.37812,"is_reserved":false,"is_disabled":false,"rental_uris":{"android":"levelo://app?vid=aceee5bb-0a4b-47f3-849d-afa35ac45389","ios":"levelo://app?vid=aceee5bb-0a4b-47f3-849d-afa35ac45389"},"vehicle_type_id":"4","last_reported":1740251245,"current_range_meters":17600,"station_id":"ce4bgjh2rcd13ifvqbf0","pricing_plan_id":"cebpf4jnsgd1na2vs0mg"},{"bike_id":"61d23409-5051-4c66-8e2a-da18287c489b","system_id":"levelo_inurba_marseille","lat":43.29271,"lon":5.38439,"is_reserved":false,"is_disabled":false,"rental_uris":{"android":"levelo://app?vid=61d23409-5051-4c66-8e2a-da18287c489b","ios":"levelo://app?vid=61d23409-5051-4c66-8e2a-da18287c489b"},"vehicle_type_id":"4","last_reported":1740251245,"current_range_meters":17600,"station_id":"ce4bh692rcd13ifvqea0","pricing_plan_id":"cebpf4jnsgd1na2vs0mg"},{"bike_id":"d53720bf-bb9a-493e-a965-c0754ac375f4","system_id":"levelo_inurba_marseille","lat":43.29255,"lon":5.38429,"is_reserved":false,"is_disabled":false,"rental_uris":{"android":"levelo://app?vid=d53720bf-bb9a-493e-a965-c0754ac375f4","ios":"levelo://app?vid=d53720bf-bb9a-493e-a965-c0754ac375f4"},"vehicle_type_id":"4","last_reported":1740251245,"current_range_meters":17600,"station_id":"ce4bh692rcd13ifvqea0","pricing_plan_id":"cebpf4jnsgd1na2vs0mg"},{"bike_id":"faeb2e28-4e2f-4cbb-aea8-2733d5daab0d","system_id":"levelo_inurba_marseille","lat":43.28703,"lon":5.37376,"is_reserved":false,"is_disabled":false,"rental_uris":{"android":"levelo://app?vid=faeb2e28-4e2f-4cbb-aea8-2733d5daab0d","ios":"levelo://app?vid=faeb2e28-4e2f-4cbb-aea8-2733d5daab0d"},"vehicle_type_id":"4","last_reported":1740251245,"current_range_meters":17600,"station_id":"ce4bh3p2rcd13ifvqdq0","pricing_plan_id":"cebpf4jnsgd1na2vs0mg"},{"bike_id":"31c04e3b-ed31-4ebf-b239-af65f76f849a","system_id":"levelo_inurba_marseille","lat":43.29605,"lon":5.38097,"is_reserved":false,"is_disabled":false,"rental_uris":{"android":"levelo://app?vid=31c04e3b-ed31-4ebf-b239-af65f76f849a","ios":"levelo://app?vid=31c04e3b-ed31-4ebf-b239-af65f76f849a"},"vehicle_type_id":"4","last_reported":1740251245,"current_range_meters":17600,"station_id":"ce4bgl12rcd13ifvqbo0","pricing_plan_id":"cebpf4jnsgd1na2vs0mg"},{"bike_id":"2500fa15-91ee-4850-8ce9-eb499fcb7083","system_id":"levelo_inurba_marseille","lat":43.29539,"lon":5.385424,"is_reserved":false,"is_disabled":false,"rental_uris":{"android":"levelo://app?vid=2500fa15-91ee-4850-8ce9-eb499fcb7083","ios":"levelo://app?vid=2500fa15-91ee-4850-8ce9-eb499fcb7083"},"vehicle_type_id":"4","last_reported":1740251245,"current_range_meters":17600,"station_id":"ce4bgih2rcd13ifvqba0","pricing_plan_id":"cebpf4jnsgd1na2vs0mg"},{"bike_id":"b03de29e-da60-426b-a20c-68a25810bda2","system_id":"levelo_inurba_marseille","lat":43.28105,"lon":5.37839,"is_reserved":false,"is_disabled":false,"rental_uris":{"android":"levelo://app?vid=b03de29e-da60-426b-a20c-68a25810bda2","ios":"levelo://app?vid=b03de29e-da60-426b-a20c-68a25810bda2"},"vehicle_type_id":"4","last_reported":1740251245,"current_range_meters":18000,"station_id":"ce4bha12rcd13ifvqee0","pricing_plan_id":"cebpf4jnsgd1na2vs0mg"},{"bike_id":"6b858b1f-ae4a-4457-a3b7-17cd4eda49ba","system_id":"levelo_inurba_marseille","lat":43.29278,"lon":5.40118,"is_reserved":false,"is_disabled":false,"rental_uris":{"android":"levelo://app?vid=6b858b1f-ae4a-4457-a3b7-17cd4eda49ba","ios":"levelo://app?vid=6b858b1f-ae4a-4457-a3b7-17cd4eda49ba"},"vehicle_type_id":"4","last_reported":1740251245,"current_range_meters":18000,"station_id":"ce4bh312rcd13ifvqdk0","pricing_plan_id":"cebpf4jnsgd1na2vs0mg"},{"bike_id":"0e323633-b9b5-4343-bed5-c5f746e30f43","system_id":"levelo_inurba_marseille","lat":43.29556,"lon":5.37478,"is_reserved":false,"is_disabled":false,"rental_uris":{"android":"levelo://app?vid=0e323633-b9b5-4343-bed5-c5f746e30f43","ios":"levelo://app?vid=0e323633-b9b5-4343-bed5-c5f746e30f43"},"vehicle_type_id":"4","last_reported":1740251245,"current_range_meters":18000,"station_id":"ce4bgkp2rcd13ifvqbmg","pricing_plan_id":"cebpf4jnsgd1na2vs0mg"},{"bike_id":"94d81672-f077-455d-ad5d-d4332136c2a8","system_id":"levelo_inurba_marseille","lat":43.22931,"lon":5.3538,"is_reserved":false,"is_disabled":false,"rental_uris":{"android":"levelo://app?vid=94d81672-f077-455d-ad5d-d4332136c2a8","ios":"levelo://app?vid=94d81672-f077-455d-ad5d-d4332136c2a8"},"vehicle_type_id":"4","last_reported":1740251245,"current_range_meters":18000,"station_id":"cpo3532slgdg3j2ikp40","pricing_plan_id":"cebpf4jnsgd1na2vs0mg"},{"bike_id":"8e167635-3901-414e-97ad-700eaf178302","system_id":"levelo_inurba_marseille","lat":43.29002,"lon":5.35617,"is_reserved":false,"is_disabled":false,"rental_uris":{"android":"levelo://app?vid=8e167635-3901-414e-97ad-700eaf178302","ios":"levelo://app?vid=8e167635-3901-414e-97ad-700eaf178302"},"vehicle_type_id":"4","last_reported":1740251245,"current_range_meters":18000,"station_id":"ce4bhb92rcd13ifvqen0","pricing_plan_id":"cebpf4jnsgd1na2vs0mg"},{"bike_id":"09f6cceb-66c3-4834-b2a6-8bbe92a51d74","system_id":"levelo_inurba_marseille","lat":43.28923,"lon":5.38394,"is_reserved":false,"is_disabled":false,"rental_uris":{"android":"levelo://app?vid=09f6cceb-66c3-4834-b2a6-8bbe92a51d74","ios":"levelo://app?vid=09f6cceb-66c3-4834-b2a6-8bbe92a51d74"},"vehicle_type_id":"4","last_reported":1740251245,"current_range_meters":18000,"station_id":"ce4bh612rcd13ifvqe6g","pricing_plan_id":"cebpf4jnsgd1na2vs0mg"},{"bike_id":"b14f0ae0-79ec-4116-81af-cc68da69fdfd","system_id":"levelo_inurba_marseille","lat":43.28702,"lon":5.37393,"is_reserved":false,"is_disabled":false,"rental_uris":{"android":"levelo://app?vid=b14f0ae0-79ec-4116-81af-cc68da69fdfd","ios":"levelo://app?vid=b14f0ae0-79ec-4116-81af-cc68da69fdfd"},"vehicle_type_id":"4","last_reported":1740251245,"current_range_meters":18000,"station_id":"ce4bh3p2rcd13ifvqdq0","pricing_plan_id":"cebpf4jnsgd1na2vs0mg"},{"bike_id":"9faf844a-413f-419f-bdea-64830f7f2bfb","system_id":"levelo_inurba_marseille","lat":43.29951,"lon":5.37908,"is_reserved":false,"is_disabled":false,"rental_uris":{"android":"levelo://app?vid=9faf844a-413f-419f-bdea-64830f7f2bfb","ios":"levelo://app?vid=9faf844a-413f-419f-bdea-64830f7f2bfb"},"vehicle_type_id":"4","last_reported":1740251245,"current_range_meters":18000,"station_id":"","pricing_plan_id":"cebpf4jnsgd1na2vs0mg"},{"bike_id":"5b7359f1-a62c-432b-b28c-1acf97dd3db9","system_id":"levelo_inurba_marseille","lat":43.24545,"lon":5.39523,"is_reserved":false,"is_disabled":false,"rental_uris":{"android":"levelo://app?vid=5b7359f1-a62c-432b-b28c-1acf97dd3db9","ios":"levelo://app?vid=5b7359f1-a62c-432b-b28c-1acf97dd3db9"},"vehicle_type_id":"4","last_reported":1740251245,"current_range_meters":18000,"station_id":"ce4bhlp2rcd13ifvqgjg","pricing_plan_id":"cebpf4jnsgd1na2vs0mg"},{"bike_id":"60a7a41d-8036-4f4a-a82d-29942b1d0e7b","system_id":"levelo_inurba_marseille","lat":43.29021,"lon":5.37559,"is_reserved":false,"is_disabled":false,"rental_uris":{"android":"levelo://app?vid=60a7a41d-8036-4f4a-a82d-29942b1d0e7b","ios":"levelo://app?vid=60a7a41d-8036-4f4a-a82d-29942b1d0e7b"},"vehicle_type_id":"4","last_reported":1740251245,"current_range_meters":18000,"station_id":"ce4bh692rcd13ifvqe90","pricing_plan_id":"cebpf4jnsgd1na2vs0mg"},{"bike_id":"35f7fe5f-b05d-405c-a155-dda0758733e2","system_id":"levelo_inurba_marseille","lat":43.28155,"lon":5.42644,"is_reserved":false,"is_disabled":true,"rental_uris":{"android":"levelo://app?vid=35f7fe5f-b05d-405c-a155-dda0758733e2","ios":"levelo://app?vid=35f7fe5f-b05d-405c-a155-dda0758733e2"},"vehicle_type_id":"4","last_reported":1740251245,"current_range_meters":18000,"station_id":"ce4bhnh2rcd13ifvqgug","pricing_plan_id":"cebpf4jnsgd1na2vs0mg"},{"bike_id":"47c58b1f-0f04-4a95-ba73-4d794abee5f2","system_id":"levelo_inurba_marseille","lat":43.30462,"lon":5.38915,"is_reserved":false,"is_disabled":true,"rental_uris":{"android":"levelo://app?vid=47c58b1f-0f04-4a95-ba73-4d794abee5f2","ios":"levelo://app?vid=47c58b1f-0f04-4a95-ba73-4d794abee5f2"},"vehicle_type_id":"4","last_reported":1740251245,"current_range_meters":18800,"station_id":"ce4bgk12rcd13ifvqbi0","pricing_plan_id":"cebpf4jnsgd1na2vs0mg"},{"bike_id":"44415748-d947-46b8-85a5-50f7d2f290ad","system_id":"levelo_inurba_marseille","lat":43.31995,"lon":5.38156,"is_reserved":false,"is_disabled":false,"rental_uris":{"android":"levelo://app?vid=44415748-d947-46b8-85a5-50f7d2f290ad","ios":"levelo://app?vid=44415748-d947-46b8-85a5-50f7d2f290ad"},"vehicle_type_id":"4","last_reported":1740251245,"current_range_meters":18800,"station_id":"ce4bhr12rcd13ifvqhpg","pricing_plan_id":"cebpf4jnsgd1na2vs0mg"},{"bike_id":"4358c28d-2469-49b3-8ea0-9eea47120fd3","system_id":"levelo_inurba_marseille","lat":43.29533,"lon":5.38545,"is_reserved":false,"is_disabled":false,"rental_uris":{"android":"levelo://app?vid=4358c28d-2469-49b3-8ea0-9eea47120fd3","ios":"levelo://app?vid=4358c28d-2469-49b3-8ea0-9eea47120fd3"},"vehicle_type_id":"4","last_reported":1740251245,"current_range_meters":18800,"station_id":"ce4bgih2rcd13ifvqba0","pricing_plan_id":"cebpf4jnsgd1na2vs0mg"},{"bike_id":"a0c1b570-1fea-4062-97be-b318c2404cb4","system_id":"levelo_inurba_marseille","lat":43.29542,"lon":5.38547,"is_reserved":false,"is_disabled":false,"rental_uris":{"android":"levelo://app?vid=a0c1b570-1fea-4062-97be-b318c2404cb4","ios":"levelo://app?vid=a0c1b570-1fea-4062-97be-b318c2404cb4"},"vehicle_type_id":"4","last_reported":1740251245,"current_range_meters":18800,"station_id":"ce4bgih2rcd13ifvqba0","pricing_plan_id":"cebpf4jnsgd1na2vs0mg"},{"bike_id":"061355d5-536a-40c5-8687-09e096cc14be","system_id":"levelo_inurba_marseille","lat":43.29579,"lon":5.37514,"is_reserved":false,"is_disabled":false,"rental_uris":{"android":"levelo://app?vid=061355d5-536a-40c5-8687-09e096cc14be","ios":"levelo://app?vid=061355d5-536a-40c5-8687-09e096cc14be"},"vehicle_type_id":"4","last_reported":1740251245,"current_range_meters":18800,"station_id":"ce4bgh92rcd13ifvqb50","pricing_plan_id":"cebpf4jnsgd1na2vs0mg"},{"bike_id":"26acf888-5471-4e61-a395-9c1a8e28b166","system_id":"levelo_inurba_marseille","lat":43.28261,"lon":5.35074,"is_reserved":false,"is_disabled":false,"rental_uris":{"android":"levelo://app?vid=26acf888-5471-4e61-a395-9c1a8e28b166","ios":"levelo://app?vid=26acf888-5471-4e61-a395-9c1a8e28b166"},"vehicle_type_id":"4","last_reported":1740251245,"current_range_meters":18800,"station_id":"ce4bhbp2rcd13ifvqerg","pricing_plan_id":"cebpf4jnsgd1na2vs0mg"},{"bike_id":"3b669aa9-99e3-4868-9434-44378c553f51","system_id":"levelo_inurba_marseille","lat":43.31694,"lon":5.40473,"is_reserved":false,"is_disabled":false,"rental_uris":{"android":"levelo://app?vid=3b669aa9-99e3-4868-9434-44378c553f51","ios":"levelo://app?vid=3b669aa9-99e3-4868-9434-44378c553f51"},"vehicle_type_id":"4","last_reported":1740251245,"current_range_meters":18800,"station_id":"ce4bh012rcd13ifvqd00","pricing_plan_id":"cebpf4jnsgd1na2vs0mg"},{"bike_id":"ceadee61-f043-4a2d-8be0-14c8d26fe957","system_id":"levelo_inurba_marseille","lat":43.27354,"lon":5.36224,"is_reserved":false,"is_disabled":false,"rental_uris":{"android":"levelo://app?vid=ceadee61-f043-4a2d-8be0-14c8d26fe957","ios":"levelo://app?vid=ceadee61-f043-4a2d-8be0-14c8d26fe957"},"vehicle_type_id":"4","last_reported":1740251245,"current_range_meters":18800,"station_id":"ce4bhbh2rcd13ifvqeo0","pricing_plan_id":"cebpf4jnsgd1na2vs0mg"},{"bike_id":"7330758a-b186-4c5c-af68-65980e50c2ac","system_id":"levelo_inurba_marseille","lat":43.28022,"lon":5.36927,"is_reserved":false,"is_disabled":false,"rental_uris":{"android":"levelo://app?vid=7330758a-b186-4c5c-af68-65980e50c2ac","ios":"levelo://app?vid=7330758a-b186-4c5c-af68-65980e50c2ac"},"vehicle_type_id":"4","last_reported":1740251245,"current_range_meters":18800,"station_id":"ce4bha12rcd13ifvqef0","pricing_plan_id":"cebpf4jnsgd1na2vs0mg"},{"bike_id":"98eb9beb-fd92-493a-9375-623d9526be61","system_id":"levelo_inurba_marseille","lat":43.30637,"lon":5.40093,"is_reserved":false,"is_disabled":false,"rental_uris":{"android":"levelo://app?vid=98eb9beb-fd92-493a-9375-623d9526be61","ios":"levelo://app?vid=98eb9beb-fd92-493a-9375-623d9526be61"},"vehicle_type_id":"4","last_reported":1740251245,"current_range_meters":18000,"station_id":"ce4bh112rcd13ifvqda0","pricing_plan_id":"cebpf4jnsgd1na2vs0mg"},{"bike_id":"7771fdde-9496-4c9c-9647-c7256be1dc15","system_id":"levelo_inurba_marseille","lat":43.29532,"lon":5.37505,"is_reserved":false,"is_disabled":false,"rental_uris":{"android":"levelo://app?vid=7771fdde-9496-4c9c-9647-c7256be1dc15","ios":"levelo://app?vid=7771fdde-9496-4c9c-9647-c7256be1dc15"},"vehicle_type_id":"4","last_reported":1740251245,"current_range_meters":18800,"station_id":"ce4bgkp2rcd13ifvqbmg","pricing_plan_id":"cebpf4jnsgd1na2vs0mg"},{"bike_id":"e501be99-a171-4e91-9e5b-ac547e4c06f2","system_id":"levelo_inurba_marseille","lat":43.2319,"lon":5.35561,"is_reserved":false,"is_disabled":false,"rental_uris":{"android":"levelo://app?vid=e501be99-a171-4e91-9e5b-ac547e4c06f2","ios":"levelo://app?vid=e501be99-a171-4e91-9e5b-ac547e4c06f2"},"vehicle_type_id":"4","last_reported":1740251245,"current_range_meters":18800,"station_id":"ce4bhu92rcd13ifvqi70","pricing_plan_id":"cebpf4jnsgd1na2vs0mg"},{"bike_id":"0900b9d7-fcd7-4d9d-9f28-ba583a56952e","system_id":"levelo_inurba_marseille","lat":43.23146,"lon":5.43724,"is_reserved":false,"is_disabled":false,"rental_uris":{"android":"levelo://app?vid=0900b9d7-fcd7-4d9d-9f28-ba583a56952e","ios":"levelo://app?vid=0900b9d7-fcd7-4d9d-9f28-ba583a56952e"},"vehicle_type_id":"4","last_reported":1740251245,"current_range_meters":18800,"station_id":"ce4bhmp2rcd13ifvqgog","pricing_plan_id":"cebpf4jnsgd1na2vs0mg"},{"bike_id":"99a092db-1e7d-4afd-82b8-408417ff3778","system_id":"levelo_inurba_marseille","lat":43.29277,"lon":5.40122,"is_reserved":false,"is_disabled":false,"rental_uris":{"android":"levelo://app?vid=99a092db-1e7d-4afd-82b8-408417ff3778","ios":"levelo://app?vid=99a092db-1e7d-4afd-82b8-408417ff3778"},"vehicle_type_id":"4","last_reported":1740251245,"current_range_meters":18800,"station_id":"ce4bh312rcd13ifvqdk0","pricing_plan_id":"cebpf4jnsgd1na2vs0mg"},{"bike_id":"612ce226-650c-4b2d-ac85-8ed868c616c2","system_id":"levelo_inurba_marseille","lat":43.28078,"lon":5.39654,"is_reserved":false,"is_disabled":false,"rental_uris":{"android":"levelo://app?vid=612ce226-650c-4b2d-ac85-8ed868c616c2","ios":"levelo://app?vid=612ce226-650c-4b2d-ac85-8ed868c616c2"},