{"last_updated":1679584090,"ttl":30,"version":"2.2","data":{"bikes":[{"bike_id":"229575da-47a4-490c-ad8f-0b25d8d065cb","system_id":"levelo_inurba_marseille","lat":43.31227,"lon":5.36864,"is_reserved":false,"is_disabled":false,"rental_uris":{"android":"levelo://app?vid=229575da-47a4-490c-ad8f-0b25d8d065cb","ios":"levelo://app?vid=229575da-47a4-490c-ad8f-0b25d8d065cb"},"vehicle_type_id":"4","last_reported":1679584091,"current_range_meters":0,"station_id":"ce4bgl92rcd13ifvqbq0","pricing_plan_id":"free"},{"bike_id":"00640edf-9c23-48d3-8753-c29d2e7adedf","system_id":"levelo_inurba_marseille","lat":43.30912,"lon":5.36859,"is_reserved":false,"is_disabled":false,"rental_uris":{"android":"levelo://app?vid=00640edf-9c23-48d3-8753-c29d2e7adedf","ios":"levelo://app?vid=00640edf-9c23-48d3-8753-c29d2e7adedf"},"vehicle_type_id":"4","last_reported":1679584091,"current_range_meters":0,"station_id":"ce4bgn92rcd13ifvqbvg","pricing_plan_id":"free"},{"bike_id":"00e50b80-a84a-4754-955d-6d3edfa83c00","system_id":"levelo_inurba_marseille","lat":43.30892,"lon":5.368055,"is_reserved":false,"is_disabled":false,"rental_uris":{"android":"levelo://app?vid=00e50b80-a84a-4754-955d-6d3edfa83c00","ios":"levelo://app?vid=00e50b80-a84a-4754-955d-6d3edfa83c00"},"vehicle_type_id":"4","last_reported":1679584091,"current_range_meters":0,"station_id":"ce4bgrp2rcd13ifvqc9g","pricing_plan_id":"free"},{"bike_id":"733a25d3-c759-4af4-96ef-295c3058470b","system_id":"levelo_inurba_marseille","lat":43.314088,"lon":5.375692,"is_reserved":false,"is_disabled":false,"rental_uris":{"android":"levelo://app?vid=733a25d3-c759-4af4-96ef-295c3058470b","ios":"levelo://app?vid=733a25d3-c759-4af4-96ef-295c3058470b"},"vehicle_type_id":"4","last_reported":1679584091,"current_range_meters":0,"station_id":"","pricing_plan_id":"free"},{"bike_id":"a993c2c7-bb9c-40ff-b767-9a90fec87f3f","system_id":"levelo_inurba_marseille","lat":43.305451,"lon":5.367035,"is_reserved":false,"is_disabled":false,"rental_uris":{"android":"levelo://app?vid=a993c2c7-bb9c-40ff-b767-9a90fec87f3f","ios":"levelo://app?vid=a993c2c7-bb9c-40ff-b767-9a90fec87f3f"},"vehicle_type_id":"4","last_reported":1679584091,"current_range_meters":0,"station_id":"","pricing_plan_id":"free"},{"bike_id":"0bbde663-3125-4738-a3b3-c78d62d44309","system_id":"levelo_inurba_marseille","lat":43.317137,"lon":5.377597,"is_reserved":false,"is_disabled":false,"rental_uris":{"android":"levelo://app?vid=0bbde663-3125-4738-a3b3-c78d62d44309","ios":"levelo://app?vid=0bbde663-3125-4738-a3b3-c78d62d44309"},"vehicle_type_id":"4","last_reported":1679584091,"current_range_meters":4800,"station_id":"ce4bgth2rcd13ifvqch0","pricing_plan_id":"free"},{"bike_id":"bd3f1765-108d-4d8d-be48-9d0f98971c58","system_id":"levelo_inurba_marseille","lat":43.30143,"lon":5.37413,"is_reserved":false,"is_disabled":false,"rental_uris":{"android":"levelo://app?vid=bd3f1765-108d-4d8d-be48-9d0f98971c58","ios":"levelo://app?vid=bd3f1765-108d-4d8d-be48-9d0f98971c58"},"vehicle_type_id":"4","last_reported":1679584091,"current_range_meters":1200,"station_id":"ce4bgs92rcd13ifvqcc0","pricing_plan_id":"free"},{"bike_id":"9c6ba68d-e075-4526-a46c-80944e4e2eb8","system_id":"levelo_inurba_marseille","lat":43.30143,"lon":5.37413,"is_reserved":false,"is_disabled":false,"rental_uris":{"android":"levelo://app?vid=9c6ba68d-e075-4526-a46c-80944e4e2eb8","ios":"levelo://app?vid=9c6ba68d-e075-4526-a46c-80944e4e2eb8"},"vehicle_type_id":"4","last_reported":1679584091,"current_range_meters":0,"station_id":"ce4bgs92rcd13ifvqcc0","pricing_plan_id":"free"},{"bike_id":"4db7459f-30d6-45d1-8a50-5e7e95a25faa","system_id":"levelo_inurba_marseille","lat":43.316513,"lon":5.383584,"is_reserved":false,"is_disabled":false,"rental_uris":{"android":"levelo://app?vid=4db7459f-30d6-45d1-8a50-5e7e95a25faa","ios":"levelo://app?vid=4db7459f-30d6-45d1-8a50-5e7e95a25faa"},"vehicle_type_id":"4","last_reported":1679584091,"current_range_meters":28000,"station_id":"","pricing_plan_id":"free"},{"bike_id":"f75cb84a-464f-4ee4-a92e-d738228011d9","system_id":"levelo_inurba_marseille","lat":43.298433,"lon":5.362774,"is_reserved":false,"is_disabled":false,"rental_uris":{"android":"levelo://app?vid=f75cb84a-464f-4ee4-a92e-d738228011d9","ios":"levelo://app?vid=f75cb84a-464f-4ee4-a92e-d738228011d9"},"vehicle_type_id":"4","last_reported":1679584091,"current_range_meters":14800,"station_id":"ce4bgpp2rcd13ifvqc3g","pricing_plan_id":"free"},{"bike_id":"af04db9f-e538-4397-bc6b-3c9ab1f001e0","system_id":"levelo_inurba_marseille","lat":43.298433,"lon":5.362774,"is_reserved":false,"is_disabled":false,"rental_uris":{"android":"levelo://app?vid=af04db9f-e538-4397-bc6b-3c9ab1f001e0","ios":"levelo://app?vid=af04db9f-e538-4397-bc6b-3c9ab1f001e0"},"vehicle_type_id":"4","last_reported":1679584091,"current_range_meters":7200,"station_id":"ce4bgpp2rcd13ifvqc3g","pricing_plan_id":"free"},{"bike_id":"43331034-cd5a-4e26-a19d-4c6a505b65cd","system_id":"levelo_inurba_marseille","lat":43.298433,"lon":5.362774,"is_reserved":false,"is_disabled":false,"rental_uris":{"android":"levelo://app?vid=43331034-cd5a-4e26-a19d-4c6a505b65cd","ios":"levelo://app?vid=43331034-cd5a-4e26-a19d-4c6a505b65cd"},"vehicle_type_id":"4","last_reported":1679584091,"current_range_meters":2000,"station_id":"ce4bgpp2rcd13ifvqc3g","pricing_plan_id":"free"},{"bike_id":"2a4e48b5-4e81-4d8b-875b-6a501002124f","system_id":"levelo_inurba_marseille","lat":43.299243,"lon":5.374807,"is_reserved":false,"is_disabled":false,"rental_uris":{"android":"levelo://app?vid=2a4e48b5-4e81-4d8b-875b-6a501002124f","ios":"levelo://app?vid=2a4e48b5-4e81-4d8b-875b-6a501002124f"},"vehicle_type_id":"4","last_reported":1679584091,"current_range_meters":0,"station_id":"ce4bgjh2rcd13ifvqbg0","pricing_plan_id":"free"},{"bike_id":"2aa6068d-6088-4ff0-9f51-5544a2fa8e27","system_id":"levelo_inurba_marseille","lat":43.311722,"lon":5.387247,"is_reserved":false,"is_disabled":false,"rental_uris":{"android":"levelo://app?vid=2aa6068d-6088-4ff0-9f51-5544a2fa8e27","ios":"levelo://app?vid=2aa6068d-6088-4ff0-9f51-5544a2fa8e27"},"vehicle_type_id":"4","last_reported":1679584091,"current_range_meters":1600,"station_id":"ce4bgv12rcd13ifvqcp0","pricing_plan_id":"free"},{"bike_id":"ed4d5c04-ef3f-44f5-81f2-a8ff8cf081c0","system_id":"levelo_inurba_marseille","lat":43.311722,"lon":5.387247,"is_reserved":false,"is_disabled":false,"rental_uris":{"android":"levelo://app?vid=ed4d5c04-ef3f-44f5-81f2-a8ff8cf081c0","ios":"levelo://app?vid=ed4d5c04-ef3f-44f5-81f2-a8ff8cf081c0"},"vehicle_type_id":"4","last_reported":1679584091,"current_range_meters":30000,"station_id":"ce4bgv12rcd13ifvqcp0","pricing_plan_id":"free"},{"bike_id":"b0564373-0c58-4135-82a5-66ae1cd6c278","system_id":"levelo_inurba_marseille","lat":43.328371,"lon":5.366909,"is_reserved":false,"is_disabled":false,"rental_uris":{"android":"levelo://app?vid=b0564373-0c58-4135-82a5-66ae1cd6c278","ios":"levelo://app?vid=b0564373-0c58-4135-82a5-66ae1cd6c278"},"vehicle_type_id":"4","last_reported":1679584091,"current_range_meters":5600,"station_id":"ce4bhs92rcd13ifvqi0g","pricing_plan_id":"free"},{"bike_id":"cd74819e-ac99-4a71-9dd6-972ee07fe2ea","system_id":"levelo_inurba_marseille","lat":43.328394,"lon":5.366926,"is_reserved":false,"is_disabled":false,"rental_uris":{"android":"levelo://app?vid=cd74819e-ac99-4a71-9dd6-972ee07fe2ea","ios":"levelo://app?vid=cd74819e-ac99-4a71-9dd6-972ee07fe2ea"},"vehicle_type_id":"4","last_reported":1679584091,"current_range_meters":4000,"station_id":"ce4bhs92rcd13ifvqi0g","pricing_plan_id":"free"},{"bike_id":"f17f961c-670c-4287-a7ab-17f26c38408a","system_id":"levelo_inurba_marseille","lat":43.296129,"lon":5.370777,"is_reserved":false,"is_disabled":false,"rental_uris":{"android":"levelo://app?vid=f17f961c-670c-4287-a7ab-17f26c38408a","ios":"levelo://app?vid=f17f961c-670c-4287-a7ab-17f26c38408a"},"vehicle_type_id":"4","last_reported":1679584091,"current_range_meters":4000,"station_id":"ce4bgnh2rcd13ifvqc0g","pricing_plan_id":"free"},{"bike_id":"2014bcfc-f497-4bc0-9c57-66f47cbb02af","system_id":"levelo_inurba_marseille","lat":43.29573,"lon":5.367355,"is_reserved":false,"is_disabled":false,"rental_uris":{"android":"levelo://app?vid=2014bcfc-f497-4bc0-9c57-66f47cbb02af","ios":"levelo://app?vid=2014bcfc-f497-4bc0-9c57-66f47cbb02af"},"vehicle_type_id":"4","last_reported":1679584091,"current_range_meters":800,"station_id":"ce4bgph2rcd13ifvqc2g","pricing_plan_id":"free"},{"bike_id":"270d8268-6a99-44ce-be5b-d8e1f4a79e40","system_id":"levelo_inurba_marseille","lat":43.231923,"lon":5.355545,"is_reserved":false,"is_disabled":false,"rental_uris":{"android":"levelo://app?vid=270d8268-6a99-44ce-be5b-d8e1f4a79e40","ios":"levelo://app?vid=270d8268-6a99-44ce-be5b-d8e1f4a79e40"},"vehicle_type_id":"4","last_reported":1679584091,"current_range_meters":29600,"station_id":"ce4bhu92rcd13ifvqi70","pricing_plan_id":"free"},{"bike_id":"ad19900b-b635-46d6-94c6-a85266a9b80a","system_id":"levelo_inurba_marseille","lat":43.31766,"lon":5.39007,"is_reserved":false,"is_disabled":false,"rental_uris":{"android":"levelo://app?vid=ad19900b-b635-46d6-94c6-a85266a9b80a","ios":"levelo://app?vid=ad19900b-b635-46d6-94c6-a85266a9b80a"},"vehicle_type_id":"4","last_reported":1679584091,"current_range_meters":10800,"station_id":"ce4bhqp2rcd13ifvqhng","pricing_plan_id":"free"},{"bike_id":"f715e330-612c-4f30-953b-8e6f2c81f351","system_id":"levelo_inurba_marseille","lat":43.317602,"lon":5.390119,"is_reserved":false,"is_disabled":false,"rental_uris":{"android":"levelo://app?vid=f715e330-612c-4f30-953b-8e6f2c81f351","ios":"levelo://app?vid=f715e330-612c-4f30-953b-8e6f2c81f351"},"vehicle_type_id":"4","last_reported":1679584091,"current_range_meters":20800,"station_id":"","pricing_plan_id":"free"},{"bike_id":"3a390a15-8535-4204-a969-32870862107e","system_id":"levelo_inurba_marseille","lat":43.317557,"lon":5.390173,"is_reserved":false,"is_disabled":false,"rental_uris":{"android":"levelo://app?vid=3a390a15-8535-4204-a969-32870862107e","ios":"levelo://app?vid=3a390a15-8535-4204-a969-32870862107e"},"vehicle_type_id":"4","last_reported":1679584091,"current_range_meters":21200,"station_id":"ce4bhqp2rcd13ifvqhng","pricing_plan_id":"free"},{"bike_id":"9920032e-e4c2-4843-aee8-07eb3df82748","system_id":"levelo_inurba_marseille","lat":43.3176,"lon":5.39016,"is_reserved":false,"is_disabled":false,"rental_uris":{"android":"levelo://app?vid=9920032e-e4c2-4843-aee8-07eb3df82748","ios":"levelo://app?vid=9920032e-e4c2-4843-aee8-07eb3df82748"},"vehicle_type_id":"4","last_reported":1679584091,"current_range_meters":6400,"station_id":"","pricing_plan_id":"free"},{"bike_id":"a89a95c1-b992-49ae-b066-a501953041bf","system_id":"levelo_inurba_marseille","lat":43.31761,"lon":5.39018,"is_reserved":false,"is_disabled":false,"rental_uris":{"android":"levelo://app?vid=a89a95c1-b992-49ae-b066-a501953041bf","ios":"levelo://app?vid=a89a95c1-b992-49ae-b066-a501953041bf"},"vehicle_type_id":"4","last_reported":1679584091,"current_range_meters":0,"station_id":"ce4bhqp2rcd13ifvqhng","pricing_plan_id":"free"},{"bike_id":"7b602778-683e-4a6e-a091-143467797630","system_id":"levelo_inurba_marseille","lat":43.297224,"lon":5.378926,"is_reserved":false,"is_disabled":false,"rental_uris":{"android":"levelo://app?vid=7b602778-683e-4a6e-a091-143467797630","ios":"levelo://app?vid=7b602778-683e-4a6e-a091-143467797630"},"vehicle_type_id":"4","last_reported":1679584091,"current_range_meters":0,"station_id":"","pricing_plan_id":"free"},{"bike_id":"c613ceb8-faf5-4c83-92ae-22655f257c16","system_id":"levelo_inurba_marseille","lat":43.298037,"lon":5.381066,"is_reserved":false,"is_disabled":false,"rental_uris":{"android":"levelo://app?vid=c613ceb8-faf5-4c83-92ae-22655f257c16","ios":"levelo://app?vid=c613ceb8-faf5-4c83-92ae-22655f257c16"},"vehicle_type_id":"4","last_reported":1679584091,"current_range_meters":7200,"station_id":"ce4bgip2rcd13ifvqbb0","pricing_plan_id":"free"},{"bike_id":"6efbef28-a796-461a-8973-1fcd39bc3897","system_id":"levelo_inurba_marseille","lat":43.29573,"lon":5.37514,"is_reserved":false,"is_disabled":false,"rental_uris":{"android":"levelo://app?vid=6efbef28-a796-461a-8973-1fcd39bc3897","ios":"levelo://app?vid=6efbef28-a796-461a-8973-1fcd39bc3897"},"vehicle_type_id":"4","last_reported":1679584091,"current_range_meters":8400,"station_id":"ce4bgh92rcd13ifvqb50","pricing_plan_id":"free"},{"bike_id":"cab8f626-264f-41c0-8022-65342a81698a","system_id":"levelo_inurba_marseille","lat":43.295748,"lon":5.37522,"is_reserved":false,"is_disabled":false,"rental_uris":{"android":"levelo://app?vid=cab8f626-264f-41c0-8022-65342a81698a","ios":"levelo://app?vid=cab8f626-264f-41c0-8022-65342a81698a"},"vehicle_type_id":"4","last_reported":1679584091,"current_range_meters":10400,"station_id":"ce4bgh92rcd13ifvqb50","pricing_plan_id":"free"},{"bike_id":"45142af6-f40d-4143-b724-6a6d9173580f","system_id":"levelo_inurba_marseille","lat":43.296277,"lon":5.377108,"is_reserved":false,"is_disabled":false,"rental_uris":{"android":"levelo://app?vid=45142af6-f40d-4143-b724-6a6d9173580f","ios":"levelo://app?vid=45142af6-f40d-4143-b724-6a6d9173580f"},"vehicle_type_id":"4","last_reported":1679584091,"current_range_meters":2800,"station_id":"ce4bgi92rcd13ifvqb90","pricing_plan_id":"free"},{"bike_id":"1c8af578-0b14-4bf8-8ca7-65ae08672266","system_id":"levelo_inurba_marseille","lat":43.295694,"lon":5.375235,"is_reserved":false,"is_disabled":false,"rental_uris":{"android":"levelo://app?vid=1c8af578-0b14-4bf8-8ca7-65ae08672266","ios":"levelo://app?vid=1c8af578-0b14-4bf8-8ca7-65ae08672266"},"vehicle_type_id":"4","last_reported":1679584091,"current_range_meters":0,"station_id":"ce4bgh92rcd13ifvqb50","pricing_plan_id":"free"},{"bike_id":"d734e33d-b02d-49b5-bab1-5619ca20ffe5","system_id":"levelo_inurba_marseille","lat":43.29619,"lon":5.37725,"is_reserved":false,"is_disabled":false,"rental_uris":{"android":"levelo://app?vid=d734e33d-b02d-49b5-bab1-5619ca20ffe5","ios":"levelo://app?vid=d734e33d-b02d-49b5-bab1-5619ca20ffe5"},"vehicle_type_id":"4","last_reported":1679584091,"current_range_meters":0,"station_id":"","pricing_plan_id":"free"},{"bike_id":"786ef466-2ed5-4911-a794-59180a74fd32","system_id":"levelo_inurba_marseille","lat":43.29619,"lon":5.3774,"is_reserved":false,"is_disabled":false,"rental_uris":{"android":"levelo://app?vid=786ef466-2ed5-4911-a794-59180a74fd32","ios":"levelo://app?vid=786ef466-2ed5-4911-a794-59180a74fd32"},"vehicle_type_id":"4","last_reported":1679584091,"current_range_meters":12000,"station_id":"ce4bgi92rcd13ifvqb90","pricing_plan_id":"free"},{"bike_id":"9e1628ed-0c1a-45b1-a7c2-94055caa12ad","system_id":"levelo_inurba_marseille","lat":43.293009,"lon":5.374584,"is_reserved":false,"is_disabled":false,"rental_uris":{"android":"levelo://app?vid=9e1628ed-0c1a-45b1-a7c2-94055caa12ad","ios":"levelo://app?vid=9e1628ed-0c1a-45b1-a7c2-94055caa12ad"},"vehicle_type_id":"4","last_reported":1679584091,"current_range_meters":14400,"station_id":"ce4bgi12rcd13ifvqb70","pricing_plan_id":"free"},{"bike_id":"14439e8d-1fd5-41a4-b924-79babb648f47","system_id":"levelo_inurba_marseille","lat":43.293249,"lon":5.371578,"is_reserved":false,"is_disabled":false,"rental_uris":{"android":"levelo://app?vid=14439e8d-1fd5-41a4-b924-79babb648f47","ios":"levelo://app?vid=14439e8d-1fd5-41a4-b924-79babb648f47"},"vehicle_type_id":"4","last_reported":1679584091,"current_range_meters":0,"station_id":"ce4bgh92rcd13ifvqb40","pricing_plan_id":"free"},{"bike_id":"41643386-13e0-4920-8dbe-d46559b86745","system_id":"levelo_inurba_marseille","lat":43.292683,"lon":5.359737,"is_reserved":false,"is_disabled":false,"rental_uris":{"android":"levelo://app?vid=41643386-13e0-4920-8dbe-d46559b86745","ios":"levelo://app?vid=41643386-13e0-4920-8dbe-d46559b86745"},"vehicle_type_id":"4","last_reported":1679584091,"current_range_meters":6400,"station_id":"","pricing_plan_id":"free"},{"bike_id":"6916cc09-ef2f-4e78-b019-f46de5fe537f","system_id":"levelo_inurba_marseille","lat":43.231919,"lon":5.355532,"is_reserved":false,"is_disabled":false,"rental_uris":{"android":"levelo://app?vid=6916cc09-ef2f-4e78-b019-f46de5fe537f","ios":"levelo://app?vid=6916cc09-ef2f-4e78-b019-f46de5fe537f"},"vehicle_type_id":"4","last_reported":1679584091,"current_range_meters":29200,"station_id":"ce4bhu92rcd13ifvqi70","pricing_plan_id":"free"},{"bike_id":"b6b9babe-3e1d-4ee2-ba08-167b36603833","system_id":"levelo_inurba_marseille","lat":43.292663,"lon":5.376394,"is_reserved":false,"is_disabled":false,"rental_uris":{"android":"levelo://app?vid=b6b9babe-3e1d-4ee2-ba08-167b36603833","ios":"levelo://app?vid=b6b9babe-3e1d-4ee2-ba08-167b36603833"},"vehicle_type_id":"4","last_reported":1679584091,"current_range_meters":0,"station_id":"ce4bgi12rcd13ifvqb80","pricing_plan_id":"free"},{"bike_id":"0084afd2-398c-40f4-a3fb-b27d3c69568d","system_id":"levelo_inurba_marseille","lat":43.241782,"lon":5.397264,"is_reserved":false,"is_disabled":false,"rental_uris":{"android":"levelo://app?vid=0084afd2-398c-40f4-a3fb-b27d3c69568d","ios":"levelo://app?vid=0084afd2-398c-40f4-a3fb-b27d3c69568d"},"vehicle_type_id":"4","last_reported":1679584091,"current_range_meters":0,"station_id":"ce4bhn12rcd13ifvqgpg","pricing_plan_id":"free"},{"bike_id":"d4a3b125-b367-4c79-a22c-fedab5a280fc","system_id":"levelo_inurba_marseille","lat":43.313291,"lon":5.396838,"is_reserved":false,"is_disabled":false,"rental_uris":{"android":"levelo://app?vid=d4a3b125-b367-4c79-a22c-fedab5a280fc","ios":"levelo://app?vid=d4a3b125-b367-4c79-a22c-fedab5a280fc"},"vehicle_type_id":"4","last_reported":1679584091,"current_range_meters":28400,"station_id":"ce4bgvp2rcd13ifvqcu0","pricing_plan_id":"free"},{"bike_id":"970a3569-f19b-4baf-8279-b350b2e6fb6a","system_id":"levelo_inurba_marseille","lat":43.313305,"lon":5.396892,"is_reserved":false,"is_disabled":false,"rental_uris":{"android":"levelo://app?vid=970a3569-f19b-4baf-8279-b350b2e6fb6a","ios":"levelo://app?vid=970a3569-f19b-4baf-8279-b350b2e6fb6a"},"vehicle_type_id":"4","last_reported":1679584091,"current_range_meters":31600,"station_id":"","pricing_plan_id":"free"},{"bike_id":"05f56d03-5f6a-4816-a799-648d5de0292b","system_id":"levelo_inurba_marseille","lat":43.31331,"lon":5.39692,"is_reserved":false,"is_disabled":false,"rental_uris":{"android":"levelo://app?vid=05f56d03-5f6a-4816-a799-648d5de0292b","ios":"levelo://app?vid=05f56d03-5f6a-4816-a799-648d5de0292b"},"vehicle_type_id":"4","last_reported":1679584091,"current_range_meters":30400,"station_id":"","pricing_plan_id":"free"},{"bike_id":"f97296ce-3ca6-46ae-8304-fed500fe25fc","system_id":"levelo_inurba_marseille","lat":43.31327,"lon":5.39693,"is_reserved":false,"is_disabled":false,"rental_uris":{"android":"levelo://app?vid=f97296ce-3ca6-46ae-8304-fed500fe25fc","ios":"levelo://app?vid=f97296ce-3ca6-46ae-8304-fed500fe25fc"},"vehicle_type_id":"4","last_reported":1679584091,"current_range_meters":28800,"station_id":"","pricing_plan_id":"free"},{"bike_id":"dbc62432-c4cc-4490-9303-1d024369d6b3","system_id":"levelo_inurba_marseille","lat":43.313282,"lon":5.396948,"is_reserved":false,"is_disabled":false,"rental_uris":{"android":"levelo://app?vid=dbc62432-c4cc-4490-9303-1d024369d6b3","ios":"levelo://app?vid=dbc62432-c4cc-4490-9303-1d024369d6b3"},"vehicle_type_id":"4","last_reported":1679584091,"current_range_meters":24000,"station_id":"","pricing_plan_id":"free"},{"bike_id":"7b635cb3-967e-4cf3-8df4-e41713567c4c","system_id":"levelo_inurba_marseille","lat":43.29529,"lon":5.385581,"is_reserved":false,"is_disabled":false,"rental_uris":{"android":"levelo://app?vid=7b635cb3-967e-4cf3-8df4-e41713567c4c","ios":"levelo://app?vid=7b635cb3-967e-4cf3-8df4-e41713567c4c"},"vehicle_type_id":"4","last_reported":1679584091,"current_range_meters":6400,"station_id":"ce4bgih2rcd13ifvqba0","pricing_plan_id":"free"},{"bike_id":"c8b1381b-8a40-4a01-8e46-15250b05afe8","system_id":"levelo_inurba_marseille","lat":43.301997,"lon":5.393317,"is_reserved":false,"is_disabled":false,"rental_uris":{"android":"levelo://app?vid=c8b1381b-8a40-4a01-8e46-15250b05afe8","ios":"levelo://app?vid=c8b1381b-8a40-4a01-8e46-15250b05afe8"},"vehicle_type_id":"4","last_reported":1679584091,"current_range_meters":25200,"station_id":"ce4bh0p2rcd13ifvqd70","pricing_plan_id":"free"},{"bike_id":"eb185d69-ce0a-4a56-bdb7-42a498e1f6d7","system_id":"levelo_inurba_marseille","lat":43.2906,"lon":5.37159,"is_reserved":false,"is_disabled":false,"rental_uris":{"android":"levelo://app?vid=eb185d69-ce0a-4a56-bdb7-42a498e1f6d7","ios":"levelo://app?vid=eb185d69-ce0a-4a56-bdb7-42a498e1f6d7"},"vehicle_type_id":"4","last_reported":1679584091,"current_range_meters":16800,"station_id":"ce4bh5p2rcd13ifvqe4g","pricing_plan_id":"free"},{"bike_id":"57dbf7dc-7c2b-49e7-81a7-74eed063147d","system_id":"levelo_inurba_marseille","lat":43.29041,"lon":5.37561,"is_reserved":false,"is_disabled":false,"rental_uris":{"android":"levelo://app?vid=57dbf7dc-7c2b-49e7-81a7-74eed063147d","ios":"levelo://app?vid=57dbf7dc-7c2b-49e7-81a7-74eed063147d"},"vehicle_type_id":"4","last_reported":1679584091,"current_range_meters":24800,"station_id":"","pricing_plan_id":"free"},{"bike_id":"44a7d518-683d-40b5-b851-62e28cbcc639","system_id":"levelo_inurba_marseille","lat":43.290395,"lon":5.37589,"is_reserved":false,"is_disabled":false,"rental_uris":{"android":"levelo://app?vid=44a7d518-683d-40b5-b851-62e28cbcc639","ios":"levelo://app?vid=44a7d518-683d-40b5-b851-62e28cbcc639"},"vehicle_type_id":"4","last_reported":1679584091,"current_range_meters":12000,"station_id":"ce4bh692rcd13ifvqe90","pricing_plan_id":"free"},{"bike_id":"c746e5fc-591b-422d-8b1e-607845516d9f","system_id":"levelo_inurba_marseille","lat":43.289184,"lon":5.366408,"is_reserved":false,"is_disabled":false,"rental_uris":{"android":"levelo://app?vid=c746e5fc-591b-422d-8b1e-607845516d9f","ios":"levelo://app?vid=c746e5fc-591b-422d-8b1e-607845516d9f"},"vehicle_type_id":"4","last_reported":1679584091,"current_range_meters":0,"station_id":"ce4bhap2rcd13ifvqek0","pricing_plan_id":"free"},{"bike_id":"3fab5814-13d7-47a4-9407-5371b2ffa841","system_id":"levelo_inurba_marseille","lat":43.289184,"lon":5.366408,"is_reserved":false,"is_disabled":false,"rental_uris":{"android":"levelo://app?vid=3fab5814-13d7-47a4-9407-5371b2ffa841","ios":"levelo://app?vid=3fab5814-13d7-47a4-9407-5371b2ffa841"},"vehicle_type_id":"4","last_reported":1679584091,"current_range_meters":1200,"station_id":"ce4bhap2rcd13ifvqek0","pricing_plan_id":"free"},{"bike_id":"0a068178-d166-456c-9a21-1f769c8fde06","system_id":"levelo_inurba_marseille","lat":43.289184,"lon":5.366408,"is_reserved":false,"is_disabled":false,"rental_uris":{"android":"levelo://app?vid=0a068178-d166-456c-9a21-1f769c8fde06","ios":"levelo://app?vid=0a068178-d166-456c-9a21-1f769c8fde06"},"vehicle_type_id":"4","last_reported":1679584091,"current_range_meters":11600,"station_id":"ce4bhap2rcd13ifvqek0","pricing_plan_id":"free"},{"bike_id":"e05af74f-a7cb-40dc-a768-dff843ca6264","system_id":"levelo_inurba_marseille","lat":43.28933,"lon":5.36643,"is_reserved":false,"is_disabled":false,"rental_uris":{"android":"levelo://app?vid=e05af74f-a7cb-40dc-a768-dff843ca6264","ios":"levelo://app?vid=e05af74f-a7cb-40dc-a768-dff843ca6264"},"vehicle_type_id":"4","last_reported":1679584091,"current_range_meters":3200,"station_id":"","pricing_plan_id":"free"},{"bike_id":"9c5f441e-c80b-4fa9-a842-7c2acb8673b9","system_id":"levelo_inurba_marseille","lat":43.304274,"lon":5.397513,"is_reserved":false,"is_disabled":false,"rental_uris":{"android":"levelo://app?vid=9c5f441e-c80b-4fa9-a842-7c2acb8673b9","ios":"levelo://app?vid=9c5f441e-c80b-4fa9-a842-7c2acb8673b9"},"vehicle_type_id":"4","last_reported":1679584091,"current_range_meters":24000,"station_id":"ce4bh092rcd13ifvqd20","pricing_plan_id":"free"},{"bike_id":"a6fc580d-e035-4616-9926-69b1d856c4b2","system_id":"levelo_inurba_marseille","lat":43.292644,"lon":5.384257,"is_reserved":false,"is_disabled":false,"rental_uris":{"android":"levelo://app?vid=a6fc580d-e035-4616-9926-69b1d856c4b2","ios":"levelo://app?vid=a6fc580d-e035-4616-9926-69b1d856c4b2"},"vehicle_type_id":"4","last_reported":1679584091,"current_range_meters":0,"station_id":"ce4bh692rcd13ifvqea0","pricing_plan_id":"free"},{"bike_id":"12fec15d-74e0-45b8-8e69-9b76ebe128f9","system_id":"levelo_inurba_marseille","lat":43.292658,"lon":5.384478,"is_reserved":false,"is_disabled":false,"rental_uris":{"android":"levelo://app?vid=12fec15d-74e0-45b8-8e69-9b76ebe128f9","ios":"levelo://app?vid=12fec15d-74e0-45b8-8e69-9b76ebe128f9"},"vehicle_type_id":"4","last_reported":1679584091,"current_range_meters":0,"station_id":"ce4bh692rcd13ifvqea0","pricing_plan_id":"free"},{"bike_id":"2e643ff9-cb02-4cf8-b3a7-ef0902ee48e3","system_id":"levelo_inurba_marseille","lat":43.330442,"lon":5.389148,"is_reserved":false,"is_disabled":false,"rental_uris":{"android":"levelo://app?vid=2e643ff9-cb02-4cf8-b3a7-ef0902ee48e3","ios":"levelo://app?vid=2e643ff9-cb02-4cf8-b3a7-ef0902ee48e3"},"vehicle_type_id":"4","last_reported":1679584091,"current_range_meters":0,"station_id":"ce4bhr92rcd13ifvqhrg","pricing_plan_id":"free"},{"bike_id":"25e16d8b-b6a6-45d3-93ff-b7a9cb61d05b","system_id":"levelo_inurba_marseille","lat":43.290121,"lon":5.3561,"is_reserved":false,"is_disabled":false,"rental_uris":{"android":"levelo://app?vid=25e16d8b-b6a6-45d3-93ff-b7a9cb61d05b","ios":"levelo://app?vid=25e16d8b-b6a6-45d3-93ff-b7a9cb61d05b"},"vehicle_type_id":"4","last_reported":1679584091,"current_range_meters":400,"station_id":"ce4bhb92rcd13ifvqen0","pricing_plan_id":"free"},{"bike_id":"afd90d07-4442-47b6-87eb-873b41941ec3","system_id":"levelo_inurba_marseille","lat":43.290104,"lon":5.356111,"is_reserved":false,"is_disabled":false,"rental_uris":{"android":"levelo://app?vid=afd90d07-4442-47b6-87eb-873b41941ec3","ios":"levelo://app?vid=afd90d07-4442-47b6-87eb-873b41941ec3"},"vehicle_type_id":"4","last_reported":1679584091,"current_range_meters":2000,"station_id":"ce4bhb92rcd13ifvqen0","pricing_plan_id":"free"},{"bike_id":"410d3ead-1660-46d4-b95e-8de33ba98bb7","system_id":"levelo_inurba_marseille","lat":43.330442,"lon":5.389148,"is_reserved":false,"is_disabled":false,"rental_uris":{"android":"levelo://app?vid=410d3ead-1660-46d4-b95e-8de33ba98bb7","ios":"levelo://app?vid=410d3ead-1660-46d4-b95e-8de33ba98bb7"},"vehicle_type_id":"4","last_reported":1679584091,"current_range_meters":0,"station_id":"ce4bhr92rcd13ifvqhrg","pricing_plan_id":"free"},{"bike_id":"f1b316d4-1c27-43d2-ae73-5c5c06d3b2f7","system_id":"levelo_inurba_marseille","lat":43.33045,"lon":5.38923,"is_reserved":false,"is_disabled":false,"rental_uris":{"android":"levelo://app?vid=f1b316d4-1c27-43d2-ae73-5c5c06d3b2f7","ios":"levelo://app?vid=f1b316d4-1c27-43d2-ae73-5c5c06d3b2f7"},"vehicle_type_id":"4","last_reported":1679584091,"current_range_meters":23200,"station_id":"ce4bhr92rcd13ifvqhrg","pricing_plan_id":"free"},{"bike_id":"2edcc464-629c-4a9c-97c9-ba4de04b78a1","system_id":"levelo_inurba_marseille","lat":43.290104,"lon":5.356111,"is_reserved":false,"is_disabled":false,"rental_uris":{"android":"levelo://app?vid=2edcc464-629c-4a9c-97c9-ba4de04b78a1","ios":"levelo://app?vid=2edcc464-629c-4a9c-97c9-ba4de04b78a1"},"vehicle_type_id":"4","last_reported":1679584091,"current_range_meters":11200,"station_id":"ce4bhb92rcd13ifvqen0","pricing_plan_id":"free"},{"bike_id":"094eec85-6e8a-4191-bfd4-ac2b03a5c9e9","system_id":"levelo_inurba_marseille","lat":43.290995,"lon":5.381361,"is_reserved":false,"is_disabled":false,"rental_uris":{"android":"levelo://app?vid=094eec85-6e8a-4191-bfd4-ac2b03a5c9e9","ios":"levelo://app?vid=094eec85-6e8a-4191-bfd4-ac2b03a5c9e9"},"vehicle_type_id":"4","last_reported":1679584091,"current_range_meters":31200,"station_id":"ce4bh512rcd13ifvqe2g","pricing_plan_id":"free"},{"bike_id":"e37cb0d9-f17f-4131-8296-a7410e926597","system_id":"levelo_inurba_marseille","lat":43.291753,"lon":5.3832,"is_reserved":false,"is_disabled":false,"rental_uris":{"android":"levelo://app?vid=e37cb0d9-f17f-4131-8296-a7410e926597","ios":"levelo://app?vid=e37cb0d9-f17f-4131-8296-a7410e926597"},"vehicle_type_id":"4","last_reported":1679584091,"current_range_meters":0,"station_id":"","pricing_plan_id":"free"},{"bike_id":"36bbd5f5-b6c1-43aa-b08e-1830fcebb1c6","system_id":"levelo_inurba_marseille","lat":43.295169,"lon":5.390426,"is_reserved":false,"is_disabled":false,"rental_uris":{"android":"levelo://app?vid=36bbd5f5-b6c1-43aa-b08e-1830fcebb1c6","ios":"levelo://app?vid=36bbd5f5-b6c1-43aa-b08e-1830fcebb1c6"},"vehicle_type_id":"4","last_reported":1679584091,"current_range_meters":800,"station_id":"ce4bh3p2rcd13ifvqdp0","pricing_plan_id":"free"},{"bike_id":"295127b6-552f-4f8a-93c0-e3448b691f46","system_id":"levelo_inurba_marseille","lat":43.30645,"lon":5.40096,"is_reserved":false,"is_disabled":false,"rental_uris":{"android":"levelo://app?vid=295127b6-552f-4f8a-93c0-e3448b691f46","ios":"levelo://app?vid=295127b6-552f-4f8a-93c0-e3448b691f46"},"vehicle_type_id":"4","last_reported":1679584091,"current_range_meters":19600,"station_id":"ce4bh112rcd13ifvqda0","pricing_plan_id":"free"},{"bike_id":"b0a63f33-f88b-4bd2-81a4-2ad6d8ddc016","system_id":"levelo_inurba_marseille","lat":43.298681,"lon":5.397225,"is_reserved":false,"is_disabled":false,"rental_uris":{"android":"levelo://app?vid=b0a63f33-f88b-4bd2-81a4-2ad6d8ddc016","ios":"levelo://app?vid=b0a63f33-f88b-4bd2-81a4-2ad6d8ddc016"},"vehicle_type_id":"4","last_reported":1679584091,"current_range_meters":16000,"station_id":"ce4bh0h2rcd13ifvqd50","pricing_plan_id":"free"},{"bike_id":"c16cbd9e-9c90-4855-a7ae-529671db9228","system_id":"levelo_inurba_marseille","lat":43.2987,"lon":5.397358,"is_reserved":false,"is_disabled":false,"rental_uris":{"android":"levelo://app?vid=c16cbd9e-9c90-4855-a7ae-529671db9228","ios":"levelo://app?vid=c16cbd9e-9c90-4855-a7ae-529671db9228"},"vehicle_type_id":"4","last_reported":1679584091,"current_range_meters":14800,"station_id":"ce4bh0h2rcd13ifvqd50","pricing_plan_id":"free"},{"bike_id":"b79be816-a37c-4abc-bcc4-4e1fcce7fd7b","system_id":"levelo_inurba_marseille","lat":43.29535,"lon":5.39395,"is_reserved":false,"is_disabled":false,"rental_uris":{"android":"levelo://app?vid=b79be816-a37c-4abc-bcc4-4e1fcce7fd7b","ios":"levelo://app?vid=b79be816-a37c-4abc-bcc4-4e1fcce7fd7b"},"vehicle_type_id":"4","last_reported":1679584091,"current_range_meters":30400,"station_id":"ce4bh212rcd13ifvqde0","pricing_plan_id":"free"},{"bike_id":"0de94e95-b1de-4e17-b426-81fd8e58b29f","system_id":"levelo_inurba_marseille","lat":43.316448,"lon":5.40433,"is_reserved":false,"is_disabled":false,"rental_uris":{"android":"levelo://app?vid=0de94e95-b1de-4e17-b426-81fd8e58b29f","ios":"levelo://app?vid=0de94e95-b1de-4e17-b426-81fd8e58b29f"},"vehicle_type_id":"4","last_reported":1679584091,"current_range_meters":4400,"station_id":"","pricing_plan_id":"free"},{"bike_id":"a5a17478-93b8-4821-b8bf-be56949f5769","system_id":"levelo_inurba_marseille","lat":43.31646,"lon":5.40436,"is_reserved":false,"is_disabled":false,"rental_uris":{"android":"levelo://app?vid=a5a17478-93b8-4821-b8bf-be56949f5769","ios":"levelo://app?vid=a5a17478-93b8-4821-b8bf-be56949f5769"},"vehicle_type_id":"4","last_reported":1679584091,"current_range_meters":12400,"station_id":"","pricing_plan_id":"free"},{"bike_id":"1f3ab197-8f22-4646-8b89-546be9719ee5","system_id":"levelo_inurba_marseille","lat":43.31646,"lon":5.40439,"is_reserved":false,"is_disabled":false,"rental_uris":{"android":"levelo://app?vid=1f3ab197-8f22-4646-8b89-546be9719ee5","ios":"levelo://app?vid=1f3ab197-8f22-4646-8b89-546be9719ee5"},"vehicle_type_id":"4","last_reported":1679584091,"current_range_meters":5600,"station_id":"ce4bh012rcd13ifvqd00","pricing_plan_id":"free"},{"bike_id":"1cec0de4-2a8c-4d2e-b86a-57588e46a33f","system_id":"levelo_inurba_marseille","lat":43.31647,"lon":5.40439,"is_reserved":false,"is_disabled":false,"rental_uris":{"android":"levelo://app?vid=1cec0de4-2a8c-4d2e-b86a-57588e46a33f","ios":"levelo://app?vid=1cec0de4-2a8c-4d2e-b86a-57588e46a33f"},"vehicle_type_id":"4","last_reported":1679584091,"current_range_meters":13600,"station_id":"","pricing_plan_id":"free"},{"bike_id":"9d1599ad-1ae7-4c1f-8f48-c4853cb87ff9","system_id":"levelo_inurba_marseille","lat":43.31645,"lon":5.404416,"is_reserved":false,"is_disabled":false,"rental_uris":{"android":"levelo://app?vid=9d1599ad-1ae7-4c1f-8f48-c4853cb87ff9","ios":"levelo://app?vid=9d1599ad-1ae7-4c1f-8f48-c4853cb87ff9"},"vehicle_type_id":"4","last_reported":1679584091,"current_range_meters":1200,"station_id":"ce4bh012rcd13ifvqd00","pricing_plan_id":"free"},{"bike_id":"8ea42180-e514-4289-8046-9c8580b024b0","system_id":"levelo_inurba_marseille","lat":43.28707,"lon":5.35204,"is_reserved":false,"is_disabled":false,"rental_uris":{"android":"levelo://app?vid=8ea42180-e514-4289-8046-9c8580b024b0","ios":"levelo://app?vid=8ea42180-e514-4289-8046-9c8580b024b0"},"vehicle_type_id":"4","last_reported":1679584091,"current_range_meters":3600,"station_id":"","pricing_plan_id":"free"},{"bike_id":"73ff95ae-8619-4e48-905b-2b11abba8ae1","system_id":"levelo_inurba_marseille","lat":43.284534,"lon":5.358662,"is_reserved":false,"is_disabled":false,"rental_uris":{"android":"levelo://app?vid=73ff95ae-8619-4e48-905b-2b11abba8ae1","ios":"levelo://app?vid=73ff95ae-8619-4e48-905b-2b11abba8ae1"},"vehicle_type_id":"4","last_reported":1679584091,"current_range_meters":28400,"station_id":"ce4bhah2rcd13ifvqei0","pricing_plan_id":"free"},{"bike_id":"1d1a10c4-7c8a-4443-9e71-8950ca824a1a","system_id":"levelo_inurba_marseille","lat":43.284662,"lon":5.358945,"is_reserved":false,"is_disabled":false,"rental_uris":{"android":"levelo://app?vid=1d1a10c4-7c8a-4443-9e71-8950ca824a1a","ios":"levelo://app?vid=1d1a10c4-7c8a-4443-9e71-8950ca824a1a"},"vehicle_type_id":"4","last_reported":1679584091,"current_range_meters":1200,"station_id":"","pricing_plan_id":"free"},{"bike_id":"30921755-8541-4b98-9c1d-bfdebae50dcf","system_id":"levelo_inurba_marseille","lat":43.284534,"lon":5.358662,"is_reserved":false,"is_disabled":false,"rental_uris":{"android":"levelo://app?vid=30921755-8541-4b98-9c1d-bfdebae50dcf","ios":"levelo://app?vid=30921755-8541-4b98-9c1d-bfdebae50dcf"},"vehicle_type_id":"4","last_reported":1679584091,"current_range_meters":0,"station_id":"ce4bhah2rcd13ifvqei0","pricing_plan_id":"free"},{"bike_id":"6125f758-feeb-489d-8251-00063d8cf7d4","system_id":"levelo_inurba_marseille","lat":43.241782,"lon":5.397264,"is_reserved":false,"is_disabled":false,"rental_uris":{"android":"levelo://app?vid=6125f758-feeb-489d-8251-00063d8cf7d4","ios":"levelo://app?vid=6125f758-feeb-489d-8251-00063d8cf7d4"},"vehicle_type_id":"4","last_reported":1679584091,"current_range_meters":0,"station_id":"ce4bhn12rcd13ifvqgpg","pricing_plan_id":"free"},{"bike_id":"c87a9b94-1663-4101-827b-fe4128bc7935","system_id":"levelo_inurba_marseille","lat":43.337168,"lon":5.391825,"is_reserved":false,"is_disabled":false,"rental_uris":{"android":"levelo://app?vid=c87a9b94-1663-4101-827b-fe4128bc7935","ios":"levelo://app?vid=c87a9b94-1663-4101-827b-fe4128bc7935"},"vehicle_type_id":"4","last_reported":1679584091,"current_range_meters":14000,"station_id":"ce4bhr92rcd13ifvqhsg","pricing_plan_id":"free"},{"bike_id":"ab80edf6-461d-4e7e-bfe2-b24249b14208","system_id":"levelo_inurba_marseille","lat":43.337196,"lon":5.391935,"is_reserved":false,"is_disabled":false,"rental_uris":{"android":"levelo://app?vid=ab80edf6-461d-4e7e-bfe2-b24249b14208","ios":"levelo://app?vid=ab80edf6-461d-4e7e-bfe2-b24249b14208"},"vehicle_type_id":"4","last_reported":1679584091,"current_range_meters":2800,"station_id":"","pricing_plan_id":"free"},{"bike_id":"c14c8e2f-b5ba-4093-aaed-5a9010aecca7","system_id":"levelo_inurba_marseille","lat":43.32343,"lon":5.4063,"is_reserved":false,"is_disabled":false,"rental_uris":{"android":"levelo://app?vid=c14c8e2f-b5ba-4093-aaed-5a9010aecca7","ios":"levelo://app?vid=c14c8e2f-b5ba-4093-aaed-5a9010aecca7"},"vehicle_type_id":"4","last_reported":1679584091,"current_range_meters":4000,"station_id":"","pricing_plan_id":"free"},{"bike_id":"5b2426fc-4656-445a-b10a-6e06c41af5a3","system_id":"levelo_inurba_marseille","lat":43.28354,"lon":5.381,"is_reserved":false,"is_disabled":false,"rental_uris":{"android":"levelo://app?vid=5b2426fc-4656-445a-b10a-6e06c41af5a3","ios":"levelo://app?vid=5b2426fc-4656-445a-b10a-6e06c41af5a3"},"vehicle_type_id":"4","last_reported":1679584091,"current_range_meters":0,"station_id":"","pricing_plan_id":"free"},{"bike_id":"ce0ebd20-6636-4e1e-8fa7-34f044684cc1","system_id":"levelo_inurba_marseille","lat":43.284219,"lon":5.3497,"is_reserved":false,"is_disabled":false,"rental_uris":{"android":"levelo://app?vid=ce0ebd20-6636-4e1e-8fa7-34f044684cc1","ios":"levelo://app?vid=ce0ebd20-6636-4e1e-8fa7-34f044684cc1"},"vehicle_type_id":"4","last_reported":1679584091,"current_range_meters":800,"station_id":"ce4bhbh2rcd13ifvqepg","pricing_plan_id":"free"},{"bike_id":"b4e3ba7a-4f06-47c7-994c-ff77bfbdf1a7","system_id":"levelo_inurba_marseille","lat":43.289363,"lon":5.396322,"is_reserved":false,"is_disabled":false,"rental_uris":{"android":"levelo://app?vid=b4e3ba7a-4f06-47c7-994c-ff77bfbdf1a7","ios":"levelo://app?vid=b4e3ba7a-4f06-47c7-994c-ff77bfbdf1a7"},"vehicle_type_id":"4","last_reported":1679584091,"current_range_meters":4400,"station_id":"ce4bh3h2rcd13ifvqdn0","pricing_plan_id":"free"},{"bike_id":"5c3f76cc-650b-4af5-a39f-5122f8791e09","system_id":"levelo_inurba_marseille","lat":43.29283,"lon":5.40116,"is_reserved":false,"is_disabled":false,"rental_uris":{"android":"levelo://app?vid=5c3f76cc-650b-4af5-a39f-5122f8791e09","ios":"levelo://app?vid=5c3f76cc-650b-4af5-a39f-5122f8791e09"},"vehicle_type_id":"4","last_reported":1679584091,"current_range_meters":0,"station_id":"","pricing_plan_id":"free"},{"bike_id":"d74a908d-0574-4f5f-9d7e-83a574fb6980","system_id":"levelo_inurba_marseille","lat":43.28039,"lon":5.369297,"is_reserved":false,"is_disabled":false,"rental_uris":{"android":"levelo://app?vid=d74a908d-0574-4f5f-9d7e-83a574fb6980","ios":"levelo://app?vid=d74a908d-0574-4f5f-9d7e-83a574fb6980"},"vehicle_type_id":"4","last_reported":1679584091,"current_range_meters":7200,"station_id":"ce4bha12rcd13ifvqef0","pricing_plan_id":"free"},{"bike_id":"f9aa8a6e-3719-4f6e-be90-dd748951fc19","system_id":"levelo_inurba_marseille","lat":43.28039,"lon":5.369297,"is_reserved":false,"is_disabled":false,"rental_uris":{"android":"levelo://app?vid=f9aa8a6e-3719-4f6e-be90-dd748951fc19","ios":"levelo://app?vid=f9aa8a6e-3719-4f6e-be90-dd748951fc19"},"vehicle_type_id":"4","last_reported":1679584091,"current_range_meters":6000,"station_id":"ce4bha12rcd13ifvqef0","pricing_plan_id":"free"},{"bike_id":"6d2b03ab-0907-421a-ba13-95c9b7b133f9","system_id":"levelo_inurba_marseille","lat":43.28039,"lon":5.36938,"is_reserved":false,"is_disabled":false,"rental_uris":{"android":"levelo://app?vid=6d2b03ab-0907-421a-ba13-95c9b7b133f9","ios":"levelo://app?vid=6d2b03ab-0907-421a-ba13-95c9b7b133f9"},"vehicle_type_id":"4","last_reported":1679584091,"current_range_meters":14800,"station_id":"","pricing_plan_id":"free"},{"bike_id":"307dd951-9c72-48fe-967a-4e0d907c7770","system_id":"levelo_inurba_marseille","lat":43.281135,"lon":5.378445,"is_reserved":false,"is_disabled":false,"rental_uris":{"android":"levelo://app?vid=307dd951-9c72-48fe-967a-4e0d907c7770","ios":"levelo://app?vid=307dd951-9c72-48fe-967a-4e0d907c7770"},"vehicle_type_id":"4","last_reported":1679584091,"current_range_meters":0,"station_id":"ce4bha12rcd13ifvqee0","pricing_plan_id":"free"},{"bike_id":"b7712cce-427b-40db-bed5-774ddc5d312d","system_id":"levelo_inurba_marseille","lat":43.29041,"lon":5.399634,"is_reserved":false,"is_disabled":false,"rental_uris":{"android":"levelo://app?vid=b7712cce-427b-40db-bed5-774ddc5d312d","ios":"levelo://app?vid=b7712cce-427b-40db-bed5-774ddc5d312d"},"vehicle_type_id":"4","last_reported":1679584091,"current_range_meters":24000,"station_id":"ce4bh392rcd13ifvqdm0","pricing_plan_id":"free"},{"bike_id":"265733b6-afc7-44b6-a101-d40b639d21fb","system_id":"levelo_inurba_marseille","lat":43.28108,"lon":5.378475,"is_reserved":false,"is_disabled":false,"rental_uris":{"android":"levelo://app?vid=265733b6-afc7-44b6-a101-d40b639d21fb","ios":"levelo://app?vid=265733b6-afc7-44b6-a101-d40b639d21fb"},"vehicle_type_id":"4","last_reported":1679584091,"current_range_meters":1600,"station_id":"ce4bha12rcd13ifvqee0","pricing_plan_id":"free"},{"bike_id":"69ec7c1e-e9c6-4933-b1ff-b1711db6f0d4","system_id":"levelo_inurba_marseille","lat":43.281073,"lon":5.378465,"is_reserved":false,"is_disabled":false,"rental_uris":{"android":"levelo://app?vid=69ec7c1e-e9c6-4933-b1ff-b1711db6f0d4","ios":"levelo://app?vid=69ec7c1e-e9c6-4933-b1ff-b1711db6f0d4"},"vehicle_type_id":"4","last_reported":1679584091,"current_range_meters":4400,"station_id":"ce4bha12rcd13ifvqee0","pricing_plan_id":"free"},{"bike_id":"84de4f6b-edd3-4eaa-89b3-d7d3532cbd50","system_id":"levelo_inurba_marseille","lat":43.296263,"lon":5.40601,"is_reserved":false,"is_disabled":false,"rental_uris":{"android":"levelo://app?vid=84de4f6b-edd3-4eaa-89b3-d7d3532cbd50","ios":"levelo://app?vid=84de4f6b-edd3-4eaa-89b3-d7d3532cbd50"},"vehicle_type_id":"4","last_reported":1679584091,"current_range_meters":22000,"station_id":"ce4bh0h2rcd13ifvqd60","pricing_plan_id":"free"},{"bike_id":"e436911b-26f6-45e0-8250-c684650b0821","system_id":"levelo_inurba_marseille","lat":43.284462,"lon":5.392121,"is_reserved":false,"is_disabled":false,"rental_uris":{"android":"levelo://app?vid=e436911b-26f6-45e0-8250-c684650b0821","ios":"levelo://app?vid=e436911b-26f6-45e0-8250-c684650b0821"},"vehicle_type_id":"4","last_reported":1679584091,"current_range_meters":3200,"station_id":"ce4bhoh2rcd13ifvqh5g","pricing_plan_id":"free"},{"bike_id":"f835b72d-0389-45f3-880c-e66c385bd5a1","system_id":"levelo_inurba_marseille","lat":43.304188,"lon":5.412904,"is_reserved":false,"is_disabled":false,"rental_uris":{"android":"levelo://app?vid=f835b72d-0389-45f3-880c-e66c385bd5a1","ios":"levelo://app?vid=f835b72d-0389-45f3-880c-e66c385bd5a1"},"vehicle_type_id":"4","last_reported":1679584091,"current_range_meters":4000,"station_id":"ce4bhop2rcd13ifvqh8g","pricing_plan_id":"free"},{"bike_id":"c177e5da-9270-4210-bae7-1dc79f64e0eb","system_id":"levelo_inurba_marseille","lat":43.292571,"lon":5.409107,"is_reserved":false,"is_disabled":false,"rental_uris":{"android":"levelo://app?vid=c177e5da-9270-4210-bae7-1dc79f64e0eb","ios":"levelo://app?vid=c177e5da-9270-4210-bae7-1dc79f64e0eb"},"vehicle_type_id":"4","last_reported":1679584091,"current_range_meters":27200,"station_id":"ce4bh192rcd13ifvqdc0","pricing_plan_id":"free"},{"bike_id":"5bce45f8-134e-4d6d-b882-2a6ce24ff6d7","system_id":"levelo_inurba_marseille","lat":43.292571,"lon":5.409107,"is_reserved":false,"is_disabled":false,"rental_uris":{"android":"levelo://app?vid=5bce45f8-134e-4d6d-b882-2a6ce24ff6d7","ios":"levelo://app?vid=5bce45f8-134e-4d6d-b882-2a6ce24ff6d7"},"vehicle_type_id":"4","last_reported":1679584091,"current_range_meters":0,"station_id":"ce4bh192rcd13ifvqdc0","pricing_plan_id":"free"},{"bike_id":"5c96012a-fd97-4a91-8e2b-7538e17c905b","system_id":"levelo_inurba_marseille","lat":43.32535,"lon":5.41432,"is_reserved":false,"is_disabled":false,"rental_uris":{"android":"levelo://app?vid=5c96012a-fd97-4a91-8e2b-7538e17c905b","ios":"levelo://app?vid=5c96012a-fd97-4a91-8e2b-7538e17c905b"},"vehicle_type_id":"4","last_reported":1679584091,"current_range_meters":6000,"station_id":"ce4bhq12rcd13ifvqhhg","pricing_plan_id":"free"},{"bike_id":"a7b194f9-cbbf-4f26-b030-4c28c7ec34a7","system_id":"levelo_inurba_marseille","lat":43.32534,"lon":5.41435,"is_reserved":false,"is_disabled":false,"rental_uris":{"android":"levelo://app?vid=a7b194f9-cbbf-4f26-b030-4c28c7ec34a7","ios":"levelo://app?vid=a7b194f9-cbbf-4f26-b030-4c28c7ec34a7"},"vehicle_type_id":"4","last_reported":1679584091,"current_range_meters":0,"station_id":"","pricing_plan_id":"free"},{"bike_id":"8f5b428d-0b80-4fb7-99aa-0536ade3d755","system_id":"levelo_inurba_marseille","lat":43.27618,"lon":5.361009,"is_reserved":false,"is_disabled":false,"rental_uris":{"android":"levelo://app?vid=8f5b428d-0b80-4fb7-99aa-0536ade3d755","ios":"levelo://app?vid=8f5b428d-0b80-4fb7-99aa-0536ade3d755"},"vehicle_type_id":"4","last_reported":1679584091,"current_range_meters":31600,"station_id":"ce4bgj92rcd13ifvqbe0","pricing_plan_id":"free"},{"bike_id":"6edd952a-d8b5-43e9-ae01-1792a1dd69ee","system_id":"levelo_inurba_marseille","lat":43.325513,"lon":5.414328,"is_reserved":false,"is_disabled":false,"rental_uris":{"android":"levelo://app?vid=6edd952a-d8b5-43e9-ae01-1792a1dd69ee","ios":"levelo://app?vid=6edd952a-d8b5-43e9-ae01-1792a1dd69ee"},"vehicle_type_id":"4","last_reported":1679584091,"current_range_meters":0,"station_id":"","pricing_plan_id":"free"},{"bike_id":"1026ebd7-bb0e-47e5-baca-c44a117536a1","system_id":"levelo_inurba_marseille","lat":43.276024,"lon":5.360974,"is_reserved":false,"is_disabled":false,"rental_uris":{"android":"levelo://app?vid=1026ebd7-bb0e-47e5-baca-c44a117536a1","ios":"levelo://app?vid=1026ebd7-bb0e-47e5-baca-c44a117536a1"},"vehicle_type_id":"4","last_reported":1679584091,"current_range_meters":22800,"station_id":"ce4bgj92rcd13ifvqbe0","pricing_plan_id":"free"},{"bike_id":"57daa250-b36d-468f-9cfc-774e5deb7206","system_id":"levelo_inurba_marseille","lat":43.280784,"lon":5.396622,"is_reserved":false,"is_disabled":false,"rental_uris":{"android":"levelo://app?vid=57daa250-b36d-468f-9cfc-774e5deb7206","ios":"levelo://app?vid=57daa250-b36d-468f-9cfc-774e5deb7206"},"vehicle_type_id":"4","last_reported":1679584091,"current_range_meters":22800,"station_id":"ce4bho12rcd13ifvqh2g","pricing_plan_id":"free"},{"bike_id":"667963e0-05a0-438e-b016-8e3a5005157b","system_id":"levelo_inurba_marseille","lat":43.280784,"lon":5.396622,"is_reserved":false,"is_disabled":false,"rental_uris":{"android":"levelo://app?vid=667963e0-05a0-438e-b016-8e3a5005157b","ios":"levelo://app?vid=667963e0-05a0-438e-b016-8e3a5005157b"},"vehicle_type_id":"4","last_reported":1679584091,"current_range_meters":0,"station_id":"ce4bho12rcd13ifvqh2g","pricing_plan_id":"free"},{"bike_id":"d1ea6b6d-8af9-4a59-9f88-f2d022ee19ae","system_id":"levelo_inurba_marseille","lat":43.28079,"lon":5.39658,"is_reserved":false,"is_disabled":false,"rental_uris":{"android":"levelo://app?vid=d1ea6b6d-8af9-4a59-9f88-f2d022ee19ae","ios":"levelo://app?vid=d1ea6b6d-8af9-4a59-9f88-f2d022ee19ae"},"vehicle_type_id":"4","last_reported":1679584091,"current_range_meters":2400,"station_id":"ce4bho12rcd13ifvqh2g","pricing_plan_id":"free"},{"bike_id":"fe5a78aa-9c73-4808-a3e9-6c529469e7ec","system_id":"levelo_inurba_marseille","lat":43.280784,"lon":5.396622,"is_reserved":false,"is_disabled":false,"rental_uris":{"android":"levelo://app?vid=fe5a78aa-9c73-4808-a3e9-6c529469e7ec","ios":"levelo://app?vid=fe5a78aa-9c73-4808-a3e9-6c529469e7ec"},"vehicle_type_id":"4","last_reported":1679584091,"current_range_meters":21600,"station_id":"ce4bho12rcd13ifvqh2g","pricing_plan_id":"free"},{"bike_id":"365d4526-fb3a-4239-8c3f-487868d79aa5","system_id":"levelo_inurba_marseille","lat":43.280793,"lon":5.396593,"is_reserved":false,"is_disabled":false,"rental_uris":{"android":"levelo://app?vid=365d4526-fb3a-4239-8c3f-487868d79aa5","ios":"levelo://app?vid=365d4526-fb3a-4239-8c3f-487868d79aa5"},"vehicle_type_id":"4","last_reported":1679584091,"current_range_meters":13200,"station_id":"ce4bho12rcd13ifvqh2g","pricing_plan_id":"free"},{"bike_id":"b41808f3-aed7-42e5-8885-a468f94ff3fa","system_id":"levelo_inurba_marseille","lat":43.28071,"lon":5.39651,"is_reserved":false,"is_disabled":false,"rental_uris":{"android":"levelo://app?vid=b41808f3-aed7-42e5-8885-a468f94ff3fa","ios":"levelo://app?vid=b41808f3-aed7-42e5-8885-a468f94ff3fa"},"vehicle_type_id":"4","last_reported":1679584091,"current_range_meters":7600,"station_id":"ce4bho12rcd13ifvqh2g","pricing_plan_id":"free"},{"bike_id":"c6bae198-27a8-4320-a691-5de08ac8fd0b","system_id":"levelo_inurba_marseille","lat":43.273613,"lon":5.362705,"is_reserved":false,"is_disabled":false,"rental_uris":{"android":"levelo://app?vid=c6bae198-27a8-4320-a691-5de08ac8fd0b","ios":"levelo://app?vid=c6bae198-27a8-4320-a691-5de08ac8fd0b"},"vehicle_type_id":"4","last_reported":1679584091,"current_range_meters":800,"station_id":"ce4bhbh2rcd13ifvqeo0","pricing_plan_id":"free"},{"bike_id":"ecb1fe5e-f43f-45b0-b776-35deeeffab1a","system_id":"levelo_inurba_marseille","lat":43.273613,"lon":5.362705,"is_reserved":false,"is_disabled":false,"rental_uris":{"android":"levelo://app?vid=ecb1fe5e-f43f-45b0-b776-35deeeffab1a","ios":"levelo://app?vid=ecb1fe5e-f43f-45b0-b776-35deeeffab1a"},"vehicle_type_id":"4","last_reported":1679584091,"current_range_meters":24800,"station_id":"ce4bhbh2rcd13ifvqeo0","pricing_plan_id":"free"},{"bike_id":"879db0f5-205e-4e10-947f-8cc2475d4fb8","system_id":"levelo_inurba_marseille","lat":43.273613,"lon":5.362705,"is_reserved":false,"is_disabled":false,"rental_uris":{"android":"levelo://app?vid=879db0f5-205e-4e10-947f-8cc2475d4fb8","ios":"levelo://app?vid=879db0f5-205e-4e10-947f-8cc2475d4fb8"},"vehicle_type_id":"4","last_reported":1679584091,"current_range_meters":31600,"station_id":"ce4bhbh2rcd13ifvqeo0","pricing_plan_id":"free"},{"bike_id":"b37b623c-ec92-4633-9524-e2a3c5236eb8","system_id":"levelo_inurba_marseille","lat":43.273613,"lon":5.362705,"is_reserved":false,"is_disabled":false,"rental_uris":{"android":"levelo://app?vid=b37b623c-ec92-4633-9524-e2a3c5236eb8","ios":"levelo://app?vid=b37b623c-ec92-4633-9524-e2a3c5236eb8"},"vehicle_type_id":"4","last_reported":1679584091,"current_range_meters":31600,"station_id":"ce4bhbh2rcd13ifvqeo0","pricing_plan_id":"free"},{"bike_id":"10cdcc7e-dfe0-44d3-9e03-21bd78465d3d","system_id":"levelo_inurba_marseille","lat":43.273613,"lon":5.362705,"is_reserved":false,"is_disabled":false,"rental_uris":{"android":"levelo://app?vid=10cdcc7e-dfe0-44d3-9e03-21bd78465d3d","ios":"levelo://app?vid=10cdcc7e-dfe0-44d3-9e03-21bd78465d3d"},"vehicle_type_id":"4","last_reported":1679584091,"current_range_meters":31600,"station_id":"ce4bhbh2rcd13ifvqeo0","pricing_plan_id":"free"},{"bike_id":"f945dcb1-d092-438a-9c56-7f22a682d04a","system_id":"levelo_inurba_marseille","lat":43.33611,"lon":5.410315,"is_reserved":false,"is_disabled":false,"rental_uris":{"android":"levelo://app?vid=f945dcb1-d092-438a-9c56-7f22a682d04a","ios":"levelo://app?vid=f945dcb1-d092-438a-9c56-7f22a682d04a"},"vehicle_type_id":"4","last_reported":1679584091,"current_range_meters":1200,"station_id":"","pricing_plan_id":"free"},{"bike_id":"5283a503-b56e-4c5d-8d0e-a0b3efc396d2","system_id":"levelo_inurba_marseille","lat":43.31085,"lon":5.42434,"is_reserved":false,"is_disabled":false,"rental_uris":{"android":"levelo://app?vid=5283a503-b56e-4c5d-8d0e-a0b3efc396d2","ios":"levelo://app?vid=5283a503-b56e-4c5d-8d0e-a0b3efc396d2"},"vehicle_type_id":"4","last_reported":1679584091,"current_range_meters":29200,"station_id":"ce4bhp92rcd13ifvqhag","pricing_plan_id":"free"},{"bike_id":"969fc24b-141b-45d1-9cc8-85634b751edb","system_id":"levelo_inurba_marseille","lat":43.293009,"lon":5.374584,"is_reserved":false,"is_disabled":false,"rental_uris":{"android":"levelo://app?vid=969fc24b-141b-45d1-9cc8-85634b751edb","ios":"levelo://app?vid=969fc24b-141b-45d1-9cc8-85634b751edb"},"vehicle_type_id":"4","last_reported":1679584091,"current_range_meters":12400,"station_id":"ce4bgi12rcd13ifvqb70","pricing_plan_id":"free"},{"bike_id":"5ff2ec55-321f-41ab-a0f8-a77e46efd1b9","system_id":"levelo_inurba_marseille","lat":43.293009,"lon":5.374584,"is_reserved":false,"is_disabled":false,"rental_uris":{"android":"levelo://app?vid=5ff2ec55-321f-41ab-a0f8-a77e46efd1b9","ios":"levelo://app?vid=5ff2ec55-321f-41ab-a0f8-a77e46efd1b9"},"vehicle_type_id":"4","last_reported":1679584091,"current_range_meters":19200,"station_id":"ce4bgi12rcd13ifvqb70","pricing_plan_id":"free"},{"bike_id":"e977d583-1f38-4a80-aff4-5ec2253182d8","system_id":"levelo_inurba_marseille","lat":43.29553,"lon":5.42286,"is_reserved":false,"is_disabled":false,"rental_uris":{"android":"levelo://app?vid=e977d583-1f38-4a80-aff4-5ec2253182d8","ios":"levelo://app?vid=e977d583-1f38-4a80-aff4-5ec2253182d8"},"vehicle_type_id":"4","last_reported":1679584091,"current_range_meters":4400,"station_id":"ce4bhph2rcd13ifvqhdg","pricing_plan_id":"free"},{"bike_id":"9ba7972e-962a-44a2-92b7-43089cbce3c6","system_id":"levelo_inurba_marseille","lat":43.272116,"lon":5.391763,"is_reserved":false,"is_disabled":false,"rental_uris":{"android":"levelo://app?vid=9ba7972e-962a-44a2-92b7-43089cbce3c6","ios":"levelo://app?vid=9ba7972e-962a-44a2-92b7-43089cbce3c6"},"vehicle_type_id":"4","last_reported":1679584091,"current_range_meters":0,"station_id":"ce4bhhp2rcd13ifvqfm0","pricing_plan_id":"free"},{"bike_id":"4e2806d6-1c91-47f7-ac8f-7f222d759604","system_id":"levelo_inurba_marseille","lat":43.278128,"lon":5.407195,"is_reserved":false,"is_disabled":false,"rental_uris":{"android":"levelo://app?vid=4e2806d6-1c91-47f7-ac8f-7f222d759604","ios":"levelo://app?vid=4e2806d6-1c91-47f7-ac8f-7f222d759604"},"vehicle_type_id":"4","last_reported":1679584091,"current_range_meters":7200,"station_id":"ce4bhnh2rcd13ifvqgtg","pricing_plan_id":"free"},{"bike_id":"4c42ab98-92a9-4976-b8ee-c324ec52ba2f","system_id":"levelo_inurba_marseille","lat":43.278128,"lon":5.407195,"is_reserved":false,"is_disabled":false,"rental_uris":{"android":"levelo://app?vid=4c42ab98-92a9-4976-b8ee-c324ec52ba2f","ios":"levelo://app?vid=4c42ab98-92a9-4976-b8ee-c324ec52ba2f"},"vehicle_type_id":"4","last_reported":1679584091,"current_range_meters":13200,"station_id":"ce4bhnh2rcd13ifvqgtg","pricing_plan_id":"free"},{"bike_id":"5ebbd7ef-76d3-45f6-99d3-f3ba49d17b28","system_id":"levelo_inurba_marseille","lat":43.269467,"lon":5.386439,"is_reserved":false,"is_disabled":false,"rental_uris":{"android":"levelo://app?vid=5ebbd7ef-76d3-45f6-99d3-f3ba49d17b28","ios":"levelo://app?vid=5ebbd7ef-76d3-45f6-99d3-f3ba49d17b28"},"vehicle_type_id":"4","last_reported":1679584091,"current_range_meters":0,"station_id":"ce4bhh92rcd13ifvqfh0","pricing_plan_id":"free"},{"bike_id":"61822f5d-e482-42c9-b2eb-feb1227f982a","system_id":"levelo_inurba_marseille","lat":43.265714,"lon":5.372891,"is_reserved":false,"is_disabled":false,"rental_uris":{"android":"levelo://app?vid=61822f5d-e482-42c9-b2eb-feb1227f982a","ios":"levelo://app?vid=61822f5d-e482-42c9-b2eb-feb1227f982a"},"vehicle_type_id":"4","last_reported":1679584091,"current_range_meters":0,"station_id":"ce4bhg12rcd13ifvqf70","pricing_plan_id":"free"},{"bike_id":"6633b337-a904-4a4c-a6b3-56ee731aada4","system_id":"levelo_inurba_marseille","lat":43.280051,"lon":5.416665,"is_reserved":false,"is_disabled":false,"rental_uris":{"android":"levelo://app?vid=6633b337-a904-4a4c-a6b3-56ee731aada4","ios":"levelo://app?vid=6633b337-a904-4a4c-a6b3-56ee731aada4"},"vehicle_type_id":"4","last_reported":1679584091,"current_range_meters":8400,"station_id":"ce4bho12rcd13ifvqh1g","pricing_plan_id":"free"},{"bike_id":"a14de34e-5230-4355-9f77-b3f5e1378647","system_id":"levelo_inurba_marseille","lat":43.331831,"lon":5.431734,"is_reserved":false,"is_disabled":false,"rental_uris":{"android":"levelo://app?vid=a14de34e-5230-4355-9f77-b3f5e1378647","ios":"levelo://app?vid=a14de34e-5230-4355-9f77-b3f5e1378647"},"vehicle_type_id":"4","last_reported":1679584091,"current_range_meters":17600,"station_id":"","pricing_plan_id":"free"},{"bike_id":"40653d78-af93-45ba-a2fa-fad45a75751c","system_id":"levelo_inurba_marseille","lat":43.261782,"lon":5.374515,"is_reserved":false,"is_disabled":false,"rental_uris":{"android":"levelo://app?vid=40653d78-af93-45ba-a2fa-fad45a75751c","ios":"levelo://app?vid=40653d78-af93-45ba-a2fa-fad45a75751c"},"vehicle_type_id":"4","last_reported":1679584091,"current_range_meters":1200,"station_id":"ce4bhgp2rcd13ifvqfc0","pricing_plan_id":"free"},{"bike_id":"0b87db22-cef9-454f-b286-ece018601d6b","system_id":"levelo_inurba_marseille","lat":43.31714,"lon":5.43702,"is_reserved":false,"is_disabled":false,"rental_uris":{"android":"levelo://app?vid=0b87db22-cef9-454f-b286-ece018601d6b","ios":"levelo://app?vid=0b87db22-cef9-454f-b286-ece018601d6b"},"vehicle_type_id":"4","last_reported":1679584091,"current_range_meters":0,"station_id":"ce4bhp92rcd13ifvqhcg","pricing_plan_id":"free"},{"bike_id":"014be9f7-850a-4792-8472-06ca7ec702b5","system_id":"levelo_inurba_marseille","lat":43.317206,"lon":5.437095,"is_reserved":false,"is_disabled":false,"rental_uris":{"android":"levelo://app?vid=014be9f7-850a-4792-8472-06ca7ec702b5","ios":"levelo://app?vid=014be9f7-850a-4792-8472-06ca7ec702b5"},"vehicle_type_id":"4","last_reported":1679584091,"current_range_meters":9600,"station_id":"","pricing_plan_id":"free"},{"bike_id":"a77ce29c-caa6-4d04-8ffe-578274e9d74b","system_id":"levelo_inurba_marseille","lat":43.26198,"lon":5.37932,"is_reserved":false,"is_disabled":false,"rental_uris":{"android":"levelo://app?vid=a77ce29c-caa6-4d04-8ffe-578274e9d74b","ios":"levelo://app?vid=a77ce29c-caa6-4d04-8ffe-578274e9d74b"},"vehicle_type_id":"4","last_reported":1679584091,"current_range_meters":10400,"station_id":"ce4bhjp2rcd13ifvqg90","pricing_plan_id":"free"},{"bike_id":"561534a6-baed-4d7b-bc52-7da933517285","system_id":"levelo_inurba_marseille","lat":43.267959,"lon":5.402687,"is_reserved":false,"is_disabled":false,"rental_uris":{"android":"levelo://app?vid=561534a6-baed-4d7b-bc52-7da933517285","ios":"levelo://app?vid=561534a6-baed-4d7b-bc52-7da933517285"},"vehicle_type_id":"4","last_reported":1679584091,"current_range_meters":3200,"station_id":"ce501612rcd8frsf0b60","pricing_plan_id":"free"},{"bike_id":"f7f5a254-24dc-45c1-8127-a21a4ee48650","system_id":"levelo_inurba_marseille","lat":43.26024,"lon":5.37555,"is_reserved":false,"is_disabled":false,"rental_uris":{"android":"levelo://app?vid=f7f5a254-24dc-45c1-8127-a21a4ee48650","ios":"levelo://app?vid=f7f5a254-24dc-45c1-8127-a21a4ee48650"},"vehicle_type_id":"4","last_reported":1679584091,"current_range_meters":26800,"station_id":"ce4bhgh2rcd13ifvqfa0","pricing_plan_id":"free"},{"bike_id":"1d54b340-5a4f-4334-8a0b-c2fc4e195e33","system_id":"levelo_inurba_marseille","lat":43.260909,"lon":5.397591,"is_reserved":false,"is_disabled":false,"rental_uris":{"android":"levelo://app?vid=1d54b340-5a4f-4334-8a0b-c2fc4e195e33","ios":"levelo://app?vid=1d54b340-5a4f-4334-8a0b-c2fc4e195e33"},"vehicle_type_id":"4","last_reported":1679584091,"current_range_meters":6800,"station_id":"ce4bhi12rcd13ifvqfq0","pricing_plan_id":"free"},{"bike_id":"daf3f941-04ed-4f5d-a4c0-0086b7ea6ccf","system_id":"levelo_inurba_marseille","lat":43.260909,"lon":5.397591,"is_reserved":false,"is_disabled":false,"rental_uris":{"android":"levelo://app?vid=daf3f941-04ed-4f5d-a4c0-0086b7ea6ccf","ios":"levelo://app?vid=daf3f941-04ed-4f5d-a4c0-0086b7ea6ccf"},"vehicle_type_id":"4","last_reported":1679584091,"current_range_meters":7600,"station_id":"ce4bhi12rcd13ifvqfq0","pricing_plan_id":"free"},{"bike_id":"081534d0-16da-4715-b978-a5c509f2caf0","system_id":"levelo_inurba_marseille","lat":43.255756,"lon":5.382303,"is_reserved":false,"is_disabled":false,"rental_uris":{"android":"levelo://app?vid=081534d0-16da-4715-b978-a5c509f2caf0","ios":"levelo://app?vid=081534d0-16da-4715-b978-a5c509f2caf0"},"vehicle_type_id":"4","last_reported":1679584091,"current_range_meters":15600,"station_id":"ce4bhih2rcd13ifvqfs0","pricing_plan_id":"free"},{"bike_id":"c1c0ba26-2bb3-4257-9e86-846563066cdf","system_id":"levelo_inurba_marseille","lat":43.254947,"lon":5.376454,"is_reserved":false,"is_disabled":false,"rental_uris":{"android":"levelo://app?vid=c1c0ba26-2bb3-4257-9e86-846563066cdf","ios":"levelo://app?vid=c1c0ba26-2bb3-4257-9e86-846563066cdf"},"vehicle_type_id":"4","last_reported":1679584091,"current_range_meters":2000,"station_id":"ce4bhh12rcd13ifvqff0","pricing_plan_id":"free"},{"bike_id":"158ff7c5-fcb7-42ee-842c-66ce5d2bdcf1","system_id":"levelo_inurba_marseille","lat":43.270721,"lon":5.422764,"is_reserved":false,"is_disabled":false,"rental_uris":{"android":"levelo://app?vid=158ff7c5-fcb7-42ee-842c-66ce5d2bdcf1","ios":"levelo://app?vid=158ff7c5-fcb7-42ee-842c-66ce5d2bdcf1"},"vehicle_type_id":"4","last_reported":1679584091,"current_range_meters":16800,"station_id":"ce4bhk92rcd13ifvqgb0","pricing_plan_id":"free"},{"bike_id":"70e09324-b78b-4af4-9210-45b868fde803","system_id":"levelo_inurba_marseille","lat":43.27069,"lon":5.42275,"is_reserved":false,"is_disabled":false,"rental_uris":{"android":"levelo://app?vid=70e09324-b78b-4af4-9210-45b868fde803","ios":"levelo://app?vid=70e09324-b78b-4af4-9210-45b868fde803"},"vehicle_type_id":"4","last_reported":1679584091,"current_range_meters":4400,"station_id":"ce4bhk92rcd13ifvqgb0","pricing_plan_id":"free"},{"bike_id":"faaf6fe7-9231-4364-acf2-a6238fdece58","system_id":"levelo_inurba_marseille","lat":43.25869,"lon":5.39901,"is_reserved":false,"is_disabled":false,"rental_uris":{"android":"levelo://app?vid=faaf6fe7-9231-4364-acf2-a6238fdece58","ios":"levelo://app?vid=faaf6fe7-9231-4364-acf2-a6238fdece58"},"vehicle_type_id":"4","last_reported":1679584091,"current_range_meters":0,"station_id":"ce4bhl92rcd13ifvqghg","pricing_plan_id":"free"},{"bike_id":"cd738220-1dff-4a6a-88e1-efb6966ad512","system_id":"levelo_inurba_marseille","lat":43.250023,"lon":5.38919,"is_reserved":false,"is_disabled":false,"rental_uris":{"android":"levelo://app?vid=cd738220-1dff-4a6a-88e1-efb6966ad512","ios":"levelo://app?vid=cd738220-1dff-4a6a-88e1-efb6966ad512"},"vehicle_type_id":"4","last_reported":1679584091,"current_range_meters":6400,"station_id":"ce4bhgp2rcd13ifvqfd0","pricing_plan_id":"free"},{"bike_id":"67c7a759-dd26-4d75-9151-08b087cabc3d","system_id":"levelo_inurba_marseille","lat":43.24693,"lon":5.382096,"is_reserved":false,"is_disabled":false,"rental_uris":{"android":"levelo://app?vid=67c7a759-dd26-4d75-9151-08b087cabc3d","ios":"levelo://app?vid=67c7a759-dd26-4d75-9151-08b087cabc3d"},"vehicle_type_id":"4","last_reported":1679584091,"current_range_meters":14400,"station_id":"ce4bhih2rcd13ifvqfr0","pricing_plan_id":"free"},{"bike_id":"3e0f2867-0147-44de-a331-a48834d5f72c","system_id":"levelo_inurba_marseille","lat":43.251214,"lon":5.403239,"is_reserved":false,"is_disabled":false,"rental_uris":{"android":"levelo://app?vid=3e0f2867-0147-44de-a331-a48834d5f72c","ios":"levelo://app?vid=3e0f2867-0147-44de-a331-a48834d5f72c"},"vehicle_type_id":"4","last_reported":1679584091,"current_range_meters":0,"station_id":"ce4bhlh2rcd13ifvqgig","pricing_plan_id":"free"},{"bike_id":"b6bebe25-0946-4a9d-a86e-4acddf97d436","system_id":"levelo_inurba_marseille","lat":43.24693,"lon":5.382096,"is_reserved":false,"is_disabled":false,"rental_uris":{"android":"levelo://app?vid=b6bebe25-0946-4a9d-a86e-4acddf97d436","ios":"levelo://app?vid=b6bebe25-0946-4a9d-a86e-4acddf97d436"},"vehicle_type_id":"4","last_reported":1679584091,"current_range_meters":0,"station_id":"ce4bhih2rcd13ifvqfr0","pricing_plan_id":"free"},{"bike_id":"9792c515-b5be-4e44-8d0f-60cb05ddf4de","system_id":"levelo_inurba_marseille","lat":43.25102,"lon":5.403214,"is_reserved":false,"is_disabled":false,"rental_uris":{"android":"levelo://app?vid=9792c515-b5be-4e44-8d0f-60cb05ddf4de","ios":"levelo://app?vid=9792c515-b5be-4e44-8d0f-60cb05ddf4de"},"vehicle_type_id":"4","last_reported":1679584091,"current_range_meters":0,"station_id":"ce4bhlh2rcd13ifvqgig","pricing_plan_id":"free"},{"bike_id":"a3dc36e9-4b07-43b1-89aa-593d09e25dee","system_id":"levelo_inurba_marseille","lat":43.246467,"lon":5.388984,"is_reserved":false,"is_disabled":false,"rental_uris":{"android":"levelo://app?vid=a3dc36e9-4b07-43b1-89aa-593d09e25dee","ios":"levelo://app?vid=a3dc36e9-4b07-43b1-89aa-593d09e25dee"},"vehicle_type_id":"4","last_reported":1679584091,"current_range_meters":800,"station_id":"ce4bhg12rcd13ifvqf60","pricing_plan_id":"free"},{"bike_id":"84fe66bd-d097-488b-9966-c0706a678c67","system_id":"levelo_inurba_marseille","lat":43.246467,"lon":5.388984,"is_reserved":false,"is_disabled":false,"rental_uris":{"android":"levelo://app?vid=84fe66bd-d097-488b-9966-c0706a678c67","ios":"levelo://app?vid=84fe66bd-d097-488b-9966-c0706a678c67"},"vehicle_type_id":"4","last_reported":1679584091,"current_range_meters":0,"station_id":"ce4bhg12rcd13ifvqf60","pricing_plan_id":"free"},{"bike_id":"ad660339-71fb-4389-9807-f647b9203b62","system_id":"levelo_inurba_marseille","lat":43.243884,"lon":5.370736,"is_reserved":false,"is_disabled":false,"rental_uris":{"android":"levelo://app?vid=ad660339-71fb-4389-9807-f647b9203b62","ios":"levelo://app?vid=ad660339-71fb-4389-9807-f647b9203b62"},"vehicle_type_id":"4","last_reported":1679584091,"current_range_meters":4000,"station_id":"ce4bhhh2rcd13ifvqfk0","pricing_plan_id":"free"},{"bike_id":"66b85e8b-29e1-424d-ac67-c5f739f80686","system_id":"levelo_inurba_marseille","lat":43.24078,"lon":5.37759,"is_reserved":false,"is_disabled":false,"rental_uris":{"android":"levelo://app?vid=66b85e8b-29e1-424d-ac67-c5f739f80686","ios":"levelo://app?vid=66b85e8b-29e1-424d-ac67-c5f739f80686"},"vehicle_type_id":"4","last_reported":1679584091,"current_range_meters":6400,"station_id":"","pricing_plan_id":"free"},{"bike_id":"2f5bedb1-6c82-467f-8b8b-e96fa076caf8","system_id":"levelo_inurba_marseille","lat":43.241782,"lon":5.397264,"is_reserved":false,"is_disabled":false,"rental_uris":{"android":"levelo://app?vid=2f5bedb1-6c82-467f-8b8b-e96fa076caf8","ios":"levelo://app?vid=2f5bedb1-6c82-467f-8b8b-e96fa076caf8"},"vehicle_type_id":"4","last_reported":1679584091,"current_range_meters":12400,"station_id":"ce4bhn12rcd13ifvqgpg","pricing_plan_id":"free"},{"bike_id":"20d73d7c-b2e9-42ae-8193-f372e50c66fa","system_id":"levelo_inurba_marseille","lat":43.24183,"lon":5.39733,"is_reserved":false,"is_disabled":false,"rental_uris":{"android":"levelo://app?vid=20d73d7c-b2e9-42ae-8193-f372e50c66fa","ios":"levelo://app?vid=20d73d7c-b2e9-42ae-8193-f372e50c66fa"},"vehicle_type_id":"4","last_reported":1679584091,"current_range_meters":11600,"station_id":"","pricing_plan_id":"free"},{"bike_id":"f008f8d5-5533-4475-b573-86fb10ff04c8","system_id":"levelo_inurba_marseille","lat":43.241782,"lon":5.397264,"is_reserved":false,"is_disabled":false,"rental_uris":{"android":"levelo://app?vid=f008f8d5-5533-4475-b573-86fb10ff04c8","ios":"levelo://app?vid=f008f8d5-5533-4475-b573-86fb10ff04c8"},"vehicle_type_id":"4","last_reported":1679584091,"current_range_meters":11600,"station_id":"ce4bhn12rcd13ifvqgpg","pricing_plan_id":"free"},{"bike_id":"de3935bb-8dca-4f1e-9182-317e20394883","system_id":"levelo_inurba_marseille","lat":43.2418,"lon":5.39725,"is_reserved":false,"is_disabled":false,"rental_uris":{"android":"levelo://app?vid=de3935bb-8dca-4f1e-9182-317e20394883","ios":"levelo://app?vid=de3935bb-8dca-4f1e-9182-317e20394883"},"vehicle_type_id":"4","last_reported":1679584091,"current_range_meters":3200,"station_id":"","pricing_plan_id":"free"}]}}