{"last_updated":1714755994,"ttl":30,"version":"2.2","data":{"bikes":[{"bike_id":"939e49f1-da39-466b-903f-3575d41fc943","system_id":"levelo_inurba_marseille","lat":43.312239,"lon":5.368562,"is_reserved":false,"is_disabled":false,"rental_uris":{"android":"levelo://app?vid=939e49f1-da39-466b-903f-3575d41fc943","ios":"levelo://app?vid=939e49f1-da39-466b-903f-3575d41fc943"},"vehicle_type_id":"4","last_reported":1714755994,"current_range_meters":21200,"station_id":"ce4bgl92rcd13ifvqbq0","pricing_plan_id":"cebpf4jnsgd1na2vs0mg"},{"bike_id":"f7046d3c-0567-405a-93bd-12986182fe58","system_id":"levelo_inurba_marseille","lat":43.312239,"lon":5.368562,"is_reserved":false,"is_disabled":false,"rental_uris":{"android":"levelo://app?vid=f7046d3c-0567-405a-93bd-12986182fe58","ios":"levelo://app?vid=f7046d3c-0567-405a-93bd-12986182fe58"},"vehicle_type_id":"4","last_reported":1714755994,"current_range_meters":2400,"station_id":"ce4bgl92rcd13ifvqbq0","pricing_plan_id":"cebpf4jnsgd1na2vs0mg"},{"bike_id":"e0a52e38-b6db-4eaf-97d7-96a73cafd91d","system_id":"levelo_inurba_marseille","lat":43.312239,"lon":5.368562,"is_reserved":false,"is_disabled":false,"rental_uris":{"android":"levelo://app?vid=e0a52e38-b6db-4eaf-97d7-96a73cafd91d","ios":"levelo://app?vid=e0a52e38-b6db-4eaf-97d7-96a73cafd91d"},"vehicle_type_id":"4","last_reported":1714755994,"current_range_meters":0,"station_id":"ce4bgl92rcd13ifvqbq0","pricing_plan_id":"cebpf4jnsgd1na2vs0mg"},{"bike_id":"209e5d90-5d31-4e22-acbe-987670c0b585","system_id":"levelo_inurba_marseille","lat":43.314811,"lon":5.373103,"is_reserved":false,"is_disabled":false,"rental_uris":{"android":"levelo://app?vid=209e5d90-5d31-4e22-acbe-987670c0b585","ios":"levelo://app?vid=209e5d90-5d31-4e22-acbe-987670c0b585"},"vehicle_type_id":"4","last_reported":1714755994,"current_range_meters":18800,"station_id":"ce4bgt12rcd13ifvqcd0","pricing_plan_id":"cebpf4jnsgd1na2vs0mg"},{"bike_id":"34d000ab-2db5-41f0-a82f-78b629d8c10f","system_id":"levelo_inurba_marseille","lat":43.314811,"lon":5.373103,"is_reserved":false,"is_disabled":false,"rental_uris":{"android":"levelo://app?vid=34d000ab-2db5-41f0-a82f-78b629d8c10f","ios":"levelo://app?vid=34d000ab-2db5-41f0-a82f-78b629d8c10f"},"vehicle_type_id":"4","last_reported":1714755994,"current_range_meters":17200,"station_id":"ce4bgt12rcd13ifvqcd0","pricing_plan_id":"cebpf4jnsgd1na2vs0mg"},{"bike_id":"037e531e-3faa-4ab3-8bbd-1ba0f7b63eb8","system_id":"levelo_inurba_marseille","lat":43.311125,"lon":5.377624,"is_reserved":false,"is_disabled":false,"rental_uris":{"android":"levelo://app?vid=037e531e-3faa-4ab3-8bbd-1ba0f7b63eb8","ios":"levelo://app?vid=037e531e-3faa-4ab3-8bbd-1ba0f7b63eb8"},"vehicle_type_id":"4","last_reported":1714755994,"current_range_meters":17600,"station_id":"ce4bgt92rcd13ifvqcg0","pricing_plan_id":"cebpf4jnsgd1na2vs0mg"},{"bike_id":"1a0fce49-43df-4c30-82f1-6728e24eb7a6","system_id":"levelo_inurba_marseille","lat":43.30892,"lon":5.37193,"is_reserved":false,"is_disabled":false,"rental_uris":{"android":"levelo://app?vid=1a0fce49-43df-4c30-82f1-6728e24eb7a6","ios":"levelo://app?vid=1a0fce49-43df-4c30-82f1-6728e24eb7a6"},"vehicle_type_id":"4","last_reported":1714755994,"current_range_meters":0,"station_id":"ce4bguh2rcd13ifvqckg","pricing_plan_id":"cebpf4jnsgd1na2vs0mg"},{"bike_id":"7be61336-76bd-4e57-b73f-49e91af258ac","system_id":"levelo_inurba_marseille","lat":43.314288,"lon":5.37445,"is_reserved":false,"is_disabled":false,"rental_uris":{"android":"levelo://app?vid=7be61336-76bd-4e57-b73f-49e91af258ac","ios":"levelo://app?vid=7be61336-76bd-4e57-b73f-49e91af258ac"},"vehicle_type_id":"4","last_reported":1714755994,"current_range_meters":3600,"station_id":"","pricing_plan_id":"cebpf4jnsgd1na2vs0mg"},{"bike_id":"34cee220-6038-4573-9676-c765bd642c16","system_id":"levelo_inurba_marseille","lat":43.31284,"lon":5.375847,"is_reserved":false,"is_disabled":false,"rental_uris":{"android":"levelo://app?vid=34cee220-6038-4573-9676-c765bd642c16","ios":"levelo://app?vid=34cee220-6038-4573-9676-c765bd642c16"},"vehicle_type_id":"4","last_reported":1714755994,"current_range_meters":0,"station_id":"","pricing_plan_id":"cebpf4jnsgd1na2vs0mg"},{"bike_id":"d39ef393-8014-4f70-9a2d-98c6f03ab96c","system_id":"levelo_inurba_marseille","lat":43.305368,"lon":5.367343,"is_reserved":false,"is_disabled":false,"rental_uris":{"android":"levelo://app?vid=d39ef393-8014-4f70-9a2d-98c6f03ab96c","ios":"levelo://app?vid=d39ef393-8014-4f70-9a2d-98c6f03ab96c"},"vehicle_type_id":"4","last_reported":1714755994,"current_range_meters":2400,"station_id":"ce4bgrp2rcd13ifvqc9g","pricing_plan_id":"cebpf4jnsgd1na2vs0mg"},{"bike_id":"f4278bea-a82b-4381-8055-e707fc09c7e0","system_id":"levelo_inurba_marseille","lat":43.30538,"lon":5.36546,"is_reserved":false,"is_disabled":false,"rental_uris":{"android":"levelo://app?vid=f4278bea-a82b-4381-8055-e707fc09c7e0","ios":"levelo://app?vid=f4278bea-a82b-4381-8055-e707fc09c7e0"},"vehicle_type_id":"4","last_reported":1714755994,"current_range_meters":0,"station_id":"ce4bgs12rcd13ifvqcag","pricing_plan_id":"cebpf4jnsgd1na2vs0mg"},{"bike_id":"0f3cda2c-e774-4ca3-9c19-bea6e81c14f9","system_id":"levelo_inurba_marseille","lat":43.31117,"lon":5.37764,"is_reserved":false,"is_disabled":false,"rental_uris":{"android":"levelo://app?vid=0f3cda2c-e774-4ca3-9c19-bea6e81c14f9","ios":"levelo://app?vid=0f3cda2c-e774-4ca3-9c19-bea6e81c14f9"},"vehicle_type_id":"4","last_reported":1714755994,"current_range_meters":0,"station_id":"ce4bgt92rcd13ifvqcg0","pricing_plan_id":"cebpf4jnsgd1na2vs0mg"},{"bike_id":"5d8bb540-a459-485c-9a40-df0ca1c68a16","system_id":"levelo_inurba_marseille","lat":43.307945,"lon":5.376487,"is_reserved":false,"is_disabled":false,"rental_uris":{"android":"levelo://app?vid=5d8bb540-a459-485c-9a40-df0ca1c68a16","ios":"levelo://app?vid=5d8bb540-a459-485c-9a40-df0ca1c68a16"},"vehicle_type_id":"4","last_reported":1714755994,"current_range_meters":18400,"station_id":"ce4bgv92rcd13ifvqcq0","pricing_plan_id":"cebpf4jnsgd1na2vs0mg"},{"bike_id":"ca7f130b-55fc-4ed1-8f56-799c59877d75","system_id":"levelo_inurba_marseille","lat":43.307945,"lon":5.376487,"is_reserved":false,"is_disabled":false,"rental_uris":{"android":"levelo://app?vid=ca7f130b-55fc-4ed1-8f56-799c59877d75","ios":"levelo://app?vid=ca7f130b-55fc-4ed1-8f56-799c59877d75"},"vehicle_type_id":"4","last_reported":1714755994,"current_range_meters":17200,"station_id":"ce4bgv92rcd13ifvqcq0","pricing_plan_id":"cebpf4jnsgd1na2vs0mg"},{"bike_id":"3cd5781e-9c7c-47ad-b39e-6da7ec1b5dbb","system_id":"levelo_inurba_marseille","lat":43.307945,"lon":5.376487,"is_reserved":false,"is_disabled":false,"rental_uris":{"android":"levelo://app?vid=3cd5781e-9c7c-47ad-b39e-6da7ec1b5dbb","ios":"levelo://app?vid=3cd5781e-9c7c-47ad-b39e-6da7ec1b5dbb"},"vehicle_type_id":"4","last_reported":1714755994,"current_range_meters":0,"station_id":"ce4bgv92rcd13ifvqcq0","pricing_plan_id":"cebpf4jnsgd1na2vs0mg"},{"bike_id":"b01181e8-78a1-4e33-a450-55a3bbad3bd8","system_id":"levelo_inurba_marseille","lat":43.317075,"lon":5.377367,"is_reserved":false,"is_disabled":false,"rental_uris":{"android":"levelo://app?vid=b01181e8-78a1-4e33-a450-55a3bbad3bd8","ios":"levelo://app?vid=b01181e8-78a1-4e33-a450-55a3bbad3bd8"},"vehicle_type_id":"4","last_reported":1714755994,"current_range_meters":2400,"station_id":"ce4bgth2rcd13ifvqch0","pricing_plan_id":"cebpf4jnsgd1na2vs0mg"},{"bike_id":"28bcd774-dcda-42dc-b269-d7b6cf26a800","system_id":"levelo_inurba_marseille","lat":43.303046,"lon":5.368981,"is_reserved":false,"is_disabled":false,"rental_uris":{"android":"levelo://app?vid=28bcd774-dcda-42dc-b269-d7b6cf26a800","ios":"levelo://app?vid=28bcd774-dcda-42dc-b269-d7b6cf26a800"},"vehicle_type_id":"4","last_reported":1714755994,"current_range_meters":2800,"station_id":"ce4bgqh2rcd13ifvqc5g","pricing_plan_id":"cebpf4jnsgd1na2vs0mg"},{"bike_id":"4f4ae830-f260-42c5-b771-5bd882c72e3f","system_id":"levelo_inurba_marseille","lat":43.30304,"lon":5.368987,"is_reserved":false,"is_disabled":false,"rental_uris":{"android":"levelo://app?vid=4f4ae830-f260-42c5-b771-5bd882c72e3f","ios":"levelo://app?vid=4f4ae830-f260-42c5-b771-5bd882c72e3f"},"vehicle_type_id":"4","last_reported":1714755994,"current_range_meters":12000,"station_id":"ce4bgqh2rcd13ifvqc5g","pricing_plan_id":"cebpf4jnsgd1na2vs0mg"},{"bike_id":"3126a470-881f-4f65-8bab-de2bff4ff97b","system_id":"levelo_inurba_marseille","lat":43.303046,"lon":5.368981,"is_reserved":false,"is_disabled":false,"rental_uris":{"android":"levelo://app?vid=3126a470-881f-4f65-8bab-de2bff4ff97b","ios":"levelo://app?vid=3126a470-881f-4f65-8bab-de2bff4ff97b"},"vehicle_type_id":"4","last_reported":1714755994,"current_range_meters":6400,"station_id":"ce4bgqh2rcd13ifvqc5g","pricing_plan_id":"cebpf4jnsgd1na2vs0mg"},{"bike_id":"843a2394-f12b-430a-94a5-9de3545f59fd","system_id":"levelo_inurba_marseille","lat":43.315293,"lon":5.380349,"is_reserved":false,"is_disabled":false,"rental_uris":{"android":"levelo://app?vid=843a2394-f12b-430a-94a5-9de3545f59fd","ios":"levelo://app?vid=843a2394-f12b-430a-94a5-9de3545f59fd"},"vehicle_type_id":"4","last_reported":1714755994,"current_range_meters":22800,"station_id":"ce4bhsp2rcd13ifvqi50","pricing_plan_id":"cebpf4jnsgd1na2vs0mg"},{"bike_id":"ac28f3d8-f162-4133-9f83-c596d20569a5","system_id":"levelo_inurba_marseille","lat":43.315289,"lon":5.380349,"is_reserved":false,"is_disabled":false,"rental_uris":{"android":"levelo://app?vid=ac28f3d8-f162-4133-9f83-c596d20569a5","ios":"levelo://app?vid=ac28f3d8-f162-4133-9f83-c596d20569a5"},"vehicle_type_id":"4","last_reported":1714755994,"current_range_meters":26000,"station_id":"ce4bhsp2rcd13ifvqi50","pricing_plan_id":"cebpf4jnsgd1na2vs0mg"},{"bike_id":"8475b555-f2a1-40ba-b274-318b7e91b200","system_id":"levelo_inurba_marseille","lat":43.315293,"lon":5.380349,"is_reserved":false,"is_disabled":false,"rental_uris":{"android":"levelo://app?vid=8475b555-f2a1-40ba-b274-318b7e91b200","ios":"levelo://app?vid=8475b555-f2a1-40ba-b274-318b7e91b200"},"vehicle_type_id":"4","last_reported":1714755994,"current_range_meters":18800,"station_id":"ce4bhsp2rcd13ifvqi50","pricing_plan_id":"cebpf4jnsgd1na2vs0mg"},{"bike_id":"f9878e2c-d8c3-44a1-b1a8-10ad5759ac7e","system_id":"levelo_inurba_marseille","lat":43.30194,"lon":5.36619,"is_reserved":false,"is_disabled":false,"rental_uris":{"android":"levelo://app?vid=f9878e2c-d8c3-44a1-b1a8-10ad5759ac7e","ios":"levelo://app?vid=f9878e2c-d8c3-44a1-b1a8-10ad5759ac7e"},"vehicle_type_id":"4","last_reported":1714755994,"current_range_meters":0,"station_id":"ce4bgrh2rcd13ifvqc8g","pricing_plan_id":"cebpf4jnsgd1na2vs0mg"},{"bike_id":"1babc1bb-3888-417d-ba04-a0be636f06b4","system_id":"levelo_inurba_marseille","lat":43.301939,"lon":5.366286,"is_reserved":false,"is_disabled":false,"rental_uris":{"android":"levelo://app?vid=1babc1bb-3888-417d-ba04-a0be636f06b4","ios":"levelo://app?vid=1babc1bb-3888-417d-ba04-a0be636f06b4"},"vehicle_type_id":"4","last_reported":1714755994,"current_range_meters":32000,"station_id":"ce4bgrh2rcd13ifvqc8g","pricing_plan_id":"cebpf4jnsgd1na2vs0mg"},{"bike_id":"f32637d1-c2cf-4e16-8a1b-8a85cd1c2c21","system_id":"levelo_inurba_marseille","lat":43.301939,"lon":5.366286,"is_reserved":false,"is_disabled":false,"rental_uris":{"android":"levelo://app?vid=f32637d1-c2cf-4e16-8a1b-8a85cd1c2c21","ios":"levelo://app?vid=f32637d1-c2cf-4e16-8a1b-8a85cd1c2c21"},"vehicle_type_id":"4","last_reported":1714755994,"current_range_meters":15600,"station_id":"ce4bgrh2rcd13ifvqc8g","pricing_plan_id":"cebpf4jnsgd1na2vs0mg"},{"bike_id":"8654e6f2-db1d-4dc9-ad17-3ba8dd2ee17c","system_id":"levelo_inurba_marseille","lat":43.308012,"lon":5.381511,"is_reserved":false,"is_disabled":false,"rental_uris":{"android":"levelo://app?vid=8654e6f2-db1d-4dc9-ad17-3ba8dd2ee17c","ios":"levelo://app?vid=8654e6f2-db1d-4dc9-ad17-3ba8dd2ee17c"},"vehicle_type_id":"4","last_reported":1714755994,"current_range_meters":8800,"station_id":"ce4bgt12rcd13ifvqce0","pricing_plan_id":"cebpf4jnsgd1na2vs0mg"},{"bike_id":"920698d6-7490-40d2-aef9-5591d5f2e136","system_id":"levelo_inurba_marseille","lat":43.308012,"lon":5.381511,"is_reserved":false,"is_disabled":false,"rental_uris":{"android":"levelo://app?vid=920698d6-7490-40d2-aef9-5591d5f2e136","ios":"levelo://app?vid=920698d6-7490-40d2-aef9-5591d5f2e136"},"vehicle_type_id":"4","last_reported":1714755994,"current_range_meters":30800,"station_id":"ce4bgt12rcd13ifvqce0","pricing_plan_id":"cebpf4jnsgd1na2vs0mg"},{"bike_id":"1baa690b-ca05-4caf-8db4-a01e7926843c","system_id":"levelo_inurba_marseille","lat":43.308012,"lon":5.381511,"is_reserved":false,"is_disabled":false,"rental_uris":{"android":"levelo://app?vid=1baa690b-ca05-4caf-8db4-a01e7926843c","ios":"levelo://app?vid=1baa690b-ca05-4caf-8db4-a01e7926843c"},"vehicle_type_id":"4","last_reported":1714755994,"current_range_meters":13600,"station_id":"ce4bgt12rcd13ifvqce0","pricing_plan_id":"cebpf4jnsgd1na2vs0mg"},{"bike_id":"7a703619-509a-4f53-a843-a9c2316848c8","system_id":"levelo_inurba_marseille","lat":43.308012,"lon":5.381511,"is_reserved":false,"is_disabled":false,"rental_uris":{"android":"levelo://app?vid=7a703619-509a-4f53-a843-a9c2316848c8","ios":"levelo://app?vid=7a703619-509a-4f53-a843-a9c2316848c8"},"vehicle_type_id":"4","last_reported":1714755994,"current_range_meters":5600,"station_id":"ce4bgt12rcd13ifvqce0","pricing_plan_id":"cebpf4jnsgd1na2vs0mg"},{"bike_id":"08eea008-ac24-46af-91ce-10c1a7122ff0","system_id":"levelo_inurba_marseille","lat":43.308012,"lon":5.381511,"is_reserved":false,"is_disabled":false,"rental_uris":{"android":"levelo://app?vid=08eea008-ac24-46af-91ce-10c1a7122ff0","ios":"levelo://app?vid=08eea008-ac24-46af-91ce-10c1a7122ff0"},"vehicle_type_id":"4","last_reported":1714755994,"current_range_meters":20400,"station_id":"ce4bgt12rcd13ifvqce0","pricing_plan_id":"cebpf4jnsgd1na2vs0mg"},{"bike_id":"8fc369f8-d61f-4197-a45a-8765a329e42d","system_id":"levelo_inurba_marseille","lat":43.308012,"lon":5.381511,"is_reserved":false,"is_disabled":false,"rental_uris":{"android":"levelo://app?vid=8fc369f8-d61f-4197-a45a-8765a329e42d","ios":"levelo://app?vid=8fc369f8-d61f-4197-a45a-8765a329e42d"},"vehicle_type_id":"4","last_reported":1714755994,"current_range_meters":25200,"station_id":"ce4bgt12rcd13ifvqce0","pricing_plan_id":"cebpf4jnsgd1na2vs0mg"},{"bike_id":"571cb268-2add-41ee-ae66-20b3661fcd9f","system_id":"levelo_inurba_marseille","lat":43.308012,"lon":5.381511,"is_reserved":false,"is_disabled":false,"rental_uris":{"android":"levelo://app?vid=571cb268-2add-41ee-ae66-20b3661fcd9f","ios":"levelo://app?vid=571cb268-2add-41ee-ae66-20b3661fcd9f"},"vehicle_type_id":"4","last_reported":1714755994,"current_range_meters":8800,"station_id":"ce4bgt12rcd13ifvqce0","pricing_plan_id":"cebpf4jnsgd1na2vs0mg"},{"bike_id":"865c1a52-28be-4081-b828-c226738ceca2","system_id":"levelo_inurba_marseille","lat":43.30467,"lon":5.37892,"is_reserved":false,"is_disabled":false,"rental_uris":{"android":"levelo://app?vid=865c1a52-28be-4081-b828-c226738ceca2","ios":"levelo://app?vid=865c1a52-28be-4081-b828-c226738ceca2"},"vehicle_type_id":"4","last_reported":1714755994,"current_range_meters":0,"station_id":"ce4bgup2rcd13ifvqcn0","pricing_plan_id":"cebpf4jnsgd1na2vs0mg"},{"bike_id":"f7169b33-9b75-483d-9f0e-e1200851b3e7","system_id":"levelo_inurba_marseille","lat":43.304606,"lon":5.379026,"is_reserved":false,"is_disabled":false,"rental_uris":{"android":"levelo://app?vid=f7169b33-9b75-483d-9f0e-e1200851b3e7","ios":"levelo://app?vid=f7169b33-9b75-483d-9f0e-e1200851b3e7"},"vehicle_type_id":"4","last_reported":1714755994,"current_range_meters":0,"station_id":"ce4bgup2rcd13ifvqcn0","pricing_plan_id":"cebpf4jnsgd1na2vs0mg"},{"bike_id":"c2db1abf-d99c-4781-a869-59d4e0c58056","system_id":"levelo_inurba_marseille","lat":43.32474,"lon":5.36561,"is_reserved":false,"is_disabled":false,"rental_uris":{"android":"levelo://app?vid=c2db1abf-d99c-4781-a869-59d4e0c58056","ios":"levelo://app?vid=c2db1abf-d99c-4781-a869-59d4e0c58056"},"vehicle_type_id":"4","last_reported":1714755994,"current_range_meters":14000,"station_id":"","pricing_plan_id":"cebpf4jnsgd1na2vs0mg"},{"bike_id":"f7702a9e-365b-4789-8d88-06c14e4a4e5f","system_id":"levelo_inurba_marseille","lat":43.324771,"lon":5.36557,"is_reserved":false,"is_disabled":false,"rental_uris":{"android":"levelo://app?vid=f7702a9e-365b-4789-8d88-06c14e4a4e5f","ios":"levelo://app?vid=f7702a9e-365b-4789-8d88-06c14e4a4e5f"},"vehicle_type_id":"4","last_reported":1714755994,"current_range_meters":0,"station_id":"ce4bhs12rcd13ifvqhvg","pricing_plan_id":"cebpf4jnsgd1na2vs0mg"},{"bike_id":"79a22e1f-bf16-4d4b-a96b-09cc7d2859f2","system_id":"levelo_inurba_marseille","lat":43.302784,"lon":5.377158,"is_reserved":false,"is_disabled":false,"rental_uris":{"android":"levelo://app?vid=79a22e1f-bf16-4d4b-a96b-09cc7d2859f2","ios":"levelo://app?vid=79a22e1f-bf16-4d4b-a96b-09cc7d2859f2"},"vehicle_type_id":"4","last_reported":1714755994,"current_range_meters":2800,"station_id":"ce4bguh2rcd13ifvqcj0","pricing_plan_id":"cebpf4jnsgd1na2vs0mg"},{"bike_id":"a20a7680-f589-4e66-8659-cb2023b618d3","system_id":"levelo_inurba_marseille","lat":43.310804,"lon":5.38359,"is_reserved":false,"is_disabled":false,"rental_uris":{"android":"levelo://app?vid=a20a7680-f589-4e66-8659-cb2023b618d3","ios":"levelo://app?vid=a20a7680-f589-4e66-8659-cb2023b618d3"},"vehicle_type_id":"4","last_reported":1714755994,"current_range_meters":0,"station_id":"ce4bgv92rcd13ifvqcr0","pricing_plan_id":"cebpf4jnsgd1na2vs0mg"},{"bike_id":"8ae2cf2c-b8c5-4fe6-9aef-cbde52281ff8","system_id":"levelo_inurba_marseille","lat":43.303222,"lon":5.377557,"is_reserved":false,"is_disabled":false,"rental_uris":{"android":"levelo://app?vid=8ae2cf2c-b8c5-4fe6-9aef-cbde52281ff8","ios":"levelo://app?vid=8ae2cf2c-b8c5-4fe6-9aef-cbde52281ff8"},"vehicle_type_id":"4","last_reported":1714755994,"current_range_meters":0,"station_id":"ce4bguh2rcd13ifvqcj0","pricing_plan_id":"cebpf4jnsgd1na2vs0mg"},{"bike_id":"788bc9b9-819c-43a0-a44b-b3a06cd7903b","system_id":"levelo_inurba_marseille","lat":43.310804,"lon":5.38359,"is_reserved":false,"is_disabled":false,"rental_uris":{"android":"levelo://app?vid=788bc9b9-819c-43a0-a44b-b3a06cd7903b","ios":"levelo://app?vid=788bc9b9-819c-43a0-a44b-b3a06cd7903b"},"vehicle_type_id":"4","last_reported":1714755994,"current_range_meters":6000,"station_id":"ce4bgv92rcd13ifvqcr0","pricing_plan_id":"cebpf4jnsgd1na2vs0mg"},{"bike_id":"9ff8b617-2c73-49b7-96c4-2af36855c0e1","system_id":"levelo_inurba_marseille","lat":43.302784,"lon":5.377158,"is_reserved":false,"is_disabled":false,"rental_uris":{"android":"levelo://app?vid=9ff8b617-2c73-49b7-96c4-2af36855c0e1","ios":"levelo://app?vid=9ff8b617-2c73-49b7-96c4-2af36855c0e1"},"vehicle_type_id":"4","last_reported":1714755994,"current_range_meters":2000,"station_id":"ce4bguh2rcd13ifvqcj0","pricing_plan_id":"cebpf4jnsgd1na2vs0mg"},{"bike_id":"541b3d56-8c2a-4893-95ea-7e4904516561","system_id":"levelo_inurba_marseille","lat":43.302784,"lon":5.377158,"is_reserved":false,"is_disabled":false,"rental_uris":{"android":"levelo://app?vid=541b3d56-8c2a-4893-95ea-7e4904516561","ios":"levelo://app?vid=541b3d56-8c2a-4893-95ea-7e4904516561"},"vehicle_type_id":"4","last_reported":1714755994,"current_range_meters":0,"station_id":"ce4bguh2rcd13ifvqcj0","pricing_plan_id":"cebpf4jnsgd1na2vs0mg"},{"bike_id":"69010a23-b5f8-4d84-8d34-44597150410b","system_id":"levelo_inurba_marseille","lat":43.301429,"lon":5.37413,"is_reserved":false,"is_disabled":false,"rental_uris":{"android":"levelo://app?vid=69010a23-b5f8-4d84-8d34-44597150410b","ios":"levelo://app?vid=69010a23-b5f8-4d84-8d34-44597150410b"},"vehicle_type_id":"4","last_reported":1714755994,"current_range_meters":18400,"station_id":"ce4bgs92rcd13ifvqcc0","pricing_plan_id":"cebpf4jnsgd1na2vs0mg"},{"bike_id":"0b97269e-4820-4e44-bb1f-6c397bf5560a","system_id":"levelo_inurba_marseille","lat":43.301429,"lon":5.37413,"is_reserved":false,"is_disabled":false,"rental_uris":{"android":"levelo://app?vid=0b97269e-4820-4e44-bb1f-6c397bf5560a","ios":"levelo://app?vid=0b97269e-4820-4e44-bb1f-6c397bf5560a"},"vehicle_type_id":"4","last_reported":1714755994,"current_range_meters":7200,"station_id":"ce4bgs92rcd13ifvqcc0","pricing_plan_id":"cebpf4jnsgd1na2vs0mg"},{"bike_id":"a82b83d4-235b-4e10-b693-d6af18ed3323","system_id":"levelo_inurba_marseille","lat":43.302784,"lon":5.377158,"is_reserved":false,"is_disabled":false,"rental_uris":{"android":"levelo://app?vid=a82b83d4-235b-4e10-b693-d6af18ed3323","ios":"levelo://app?vid=a82b83d4-235b-4e10-b693-d6af18ed3323"},"vehicle_type_id":"4","last_reported":1714755994,"current_range_meters":12800,"station_id":"ce4bguh2rcd13ifvqcj0","pricing_plan_id":"cebpf4jnsgd1na2vs0mg"},{"bike_id":"b17d0bbf-9a76-4999-bfd2-2c4474f6a7ca","system_id":"levelo_inurba_marseille","lat":43.30143,"lon":5.37413,"is_reserved":false,"is_disabled":false,"rental_uris":{"android":"levelo://app?vid=b17d0bbf-9a76-4999-bfd2-2c4474f6a7ca","ios":"levelo://app?vid=b17d0bbf-9a76-4999-bfd2-2c4474f6a7ca"},"vehicle_type_id":"4","last_reported":1714755994,"current_range_meters":0,"station_id":"ce4bgs92rcd13ifvqcc0","pricing_plan_id":"cebpf4jnsgd1na2vs0mg"},{"bike_id":"c7c2b076-94b8-4d5a-9e9d-ddbc88b041ec","system_id":"levelo_inurba_marseille","lat":43.32003,"lon":5.38151,"is_reserved":false,"is_disabled":false,"rental_uris":{"android":"levelo://app?vid=c7c2b076-94b8-4d5a-9e9d-ddbc88b041ec","ios":"levelo://app?vid=c7c2b076-94b8-4d5a-9e9d-ddbc88b041ec"},"vehicle_type_id":"4","last_reported":1714755994,"current_range_meters":14400,"station_id":"ce4bhr12rcd13ifvqhpg","pricing_plan_id":"cebpf4jnsgd1na2vs0mg"},{"bike_id":"61306c02-dd36-461a-be42-a3a740cbda48","system_id":"levelo_inurba_marseille","lat":43.319935,"lon":5.381699,"is_reserved":false,"is_disabled":false,"rental_uris":{"android":"levelo://app?vid=61306c02-dd36-461a-be42-a3a740cbda48","ios":"levelo://app?vid=61306c02-dd36-461a-be42-a3a740cbda48"},"vehicle_type_id":"4","last_reported":1714755994,"current_range_meters":0,"station_id":"ce4bhr12rcd13ifvqhpg","pricing_plan_id":"cebpf4jnsgd1na2vs0mg"},{"bike_id":"42f53f8b-5b65-42ec-9783-a9bf21157a41","system_id":"levelo_inurba_marseille","lat":43.313571,"lon":5.384829,"is_reserved":false,"is_disabled":false,"rental_uris":{"android":"levelo://app?vid=42f53f8b-5b65-42ec-9783-a9bf21157a41","ios":"levelo://app?vid=42f53f8b-5b65-42ec-9783-a9bf21157a41"},"vehicle_type_id":"4","last_reported":1714755994,"current_range_meters":5200,"station_id":"ce4bgt92rcd13ifvqcf0","pricing_plan_id":"cebpf4jnsgd1na2vs0mg"},{"bike_id":"d5b436b8-4794-43ac-9f3c-5e252fa7c992","system_id":"levelo_inurba_marseille","lat":43.29983,"lon":5.37169,"is_reserved":false,"is_disabled":false,"rental_uris":{"android":"levelo://app?vid=d5b436b8-4794-43ac-9f3c-5e252fa7c992","ios":"levelo://app?vid=d5b436b8-4794-43ac-9f3c-5e252fa7c992"},"vehicle_type_id":"4","last_reported":1714755994,"current_range_meters":13200,"station_id":"ce4bgr92rcd13ifvqc7g","pricing_plan_id":"cebpf4jnsgd1na2vs0mg"},{"bike_id":"ef4ecba7-5cd8-45e9-97a1-7f3c3926dd22","system_id":"levelo_inurba_marseille","lat":43.29941,"lon":5.36548,"is_reserved":false,"is_disabled":false,"rental_uris":{"android":"levelo://app?vid=ef4ecba7-5cd8-45e9-97a1-7f3c3926dd22","ios":"levelo://app?vid=ef4ecba7-5cd8-45e9-97a1-7f3c3926dd22"},"vehicle_type_id":"4","last_reported":1714755994,"current_range_meters":22000,"station_id":"ce4bgm92rcd13ifvqbr0","pricing_plan_id":"cebpf4jnsgd1na2vs0mg"},{"bike_id":"dc7e05cd-fec3-40a7-b824-707041b11a91","system_id":"levelo_inurba_marseille","lat":43.2994,"lon":5.36535,"is_reserved":false,"is_disabled":false,"rental_uris":{"android":"levelo://app?vid=dc7e05cd-fec3-40a7-b824-707041b11a91","ios":"levelo://app?vid=dc7e05cd-fec3-40a7-b824-707041b11a91"},"vehicle_type_id":"4","last_reported":1714755994,"current_range_meters":14000,"station_id":"ce4bgm92rcd13ifvqbr0","pricing_plan_id":"cebpf4jnsgd1na2vs0mg"},{"bike_id":"9f61475d-7491-43ec-9c79-f31c0fa132ee","system_id":"levelo_inurba_marseille","lat":43.299222,"lon":5.365554,"is_reserved":false,"is_disabled":false,"rental_uris":{"android":"levelo://app?vid=9f61475d-7491-43ec-9c79-f31c0fa132ee","ios":"levelo://app?vid=9f61475d-7491-43ec-9c79-f31c0fa132ee"},"vehicle_type_id":"4","last_reported":1714755994,"current_range_meters":4000,"station_id":"ce4bgm92rcd13ifvqbr0","pricing_plan_id":"cebpf4jnsgd1na2vs0mg"},{"bike_id":"e77fbea6-d371-4fcd-8098-040262cda4ba","system_id":"levelo_inurba_marseille","lat":43.2998,"lon":5.37175,"is_reserved":false,"is_disabled":false,"rental_uris":{"android":"levelo://app?vid=e77fbea6-d371-4fcd-8098-040262cda4ba","ios":"levelo://app?vid=e77fbea6-d371-4fcd-8098-040262cda4ba"},"vehicle_type_id":"4","last_reported":1714755994,"current_range_meters":2000,"station_id":"ce4bgr92rcd13ifvqc7g","pricing_plan_id":"cebpf4jnsgd1na2vs0mg"},{"bike_id":"4c8ab8ce-f637-4ba0-8a7b-a2c906653951","system_id":"levelo_inurba_marseille","lat":43.299222,"lon":5.365554,"is_reserved":false,"is_disabled":false,"rental_uris":{"android":"levelo://app?vid=4c8ab8ce-f637-4ba0-8a7b-a2c906653951","ios":"levelo://app?vid=4c8ab8ce-f637-4ba0-8a7b-a2c906653951"},"vehicle_type_id":"4","last_reported":1714755994,"current_range_meters":25200,"station_id":"ce4bgm92rcd13ifvqbr0","pricing_plan_id":"cebpf4jnsgd1na2vs0mg"},{"bike_id":"fb8a8ac4-9c7b-4ef9-9712-c6babe0db12a","system_id":"levelo_inurba_marseille","lat":43.299222,"lon":5.365554,"is_reserved":false,"is_disabled":false,"rental_uris":{"android":"levelo://app?vid=fb8a8ac4-9c7b-4ef9-9712-c6babe0db12a","ios":"levelo://app?vid=fb8a8ac4-9c7b-4ef9-9712-c6babe0db12a"},"vehicle_type_id":"4","last_reported":1714755994,"current_range_meters":17600,"station_id":"ce4bgm92rcd13ifvqbr0","pricing_plan_id":"cebpf4jnsgd1na2vs0mg"},{"bike_id":"29b87d34-20b0-4be2-bdfd-5f1c3348a073","system_id":"levelo_inurba_marseille","lat":43.29936,"lon":5.36523,"is_reserved":false,"is_disabled":false,"rental_uris":{"android":"levelo://app?vid=29b87d34-20b0-4be2-bdfd-5f1c3348a073","ios":"levelo://app?vid=29b87d34-20b0-4be2-bdfd-5f1c3348a073"},"vehicle_type_id":"4","last_reported":1714755994,"current_range_meters":0,"station_id":"ce4bgm92rcd13ifvqbr0","pricing_plan_id":"cebpf4jnsgd1na2vs0mg"},{"bike_id":"14baee6e-342e-4e53-b0a4-bc644121fd3c","system_id":"levelo_inurba_marseille","lat":43.299222,"lon":5.365554,"is_reserved":false,"is_disabled":false,"rental_uris":{"android":"levelo://app?vid=14baee6e-342e-4e53-b0a4-bc644121fd3c","ios":"levelo://app?vid=14baee6e-342e-4e53-b0a4-bc644121fd3c"},"vehicle_type_id":"4","last_reported":1714755994,"current_range_meters":31200,"station_id":"ce4bgm92rcd13ifvqbr0","pricing_plan_id":"cebpf4jnsgd1na2vs0mg"},{"bike_id":"4954bcba-63b8-4c14-8da3-15827b964b7f","system_id":"levelo_inurba_marseille","lat":43.30211,"lon":5.37966,"is_reserved":false,"is_disabled":false,"rental_uris":{"android":"levelo://app?vid=4954bcba-63b8-4c14-8da3-15827b964b7f","ios":"levelo://app?vid=4954bcba-63b8-4c14-8da3-15827b964b7f"},"vehicle_type_id":"4","last_reported":1714755994,"current_range_meters":1200,"station_id":"","pricing_plan_id":"cebpf4jnsgd1na2vs0mg"},{"bike_id":"1c732e7f-9939-4d92-adb7-fcbdc0548ad3","system_id":"levelo_inurba_marseille","lat":43.298433,"lon":5.362774,"is_reserved":false,"is_disabled":false,"rental_uris":{"android":"levelo://app?vid=1c732e7f-9939-4d92-adb7-fcbdc0548ad3","ios":"levelo://app?vid=1c732e7f-9939-4d92-adb7-fcbdc0548ad3"},"vehicle_type_id":"4","last_reported":1714755994,"current_range_meters":31200,"station_id":"ce4bgpp2rcd13ifvqc3g","pricing_plan_id":"cebpf4jnsgd1na2vs0mg"},{"bike_id":"00dc687e-410f-43f3-9210-e3137a91c418","system_id":"levelo_inurba_marseille","lat":43.305364,"lon":5.384119,"is_reserved":false,"is_disabled":false,"rental_uris":{"android":"levelo://app?vid=00dc687e-410f-43f3-9210-e3137a91c418","ios":"levelo://app?vid=00dc687e-410f-43f3-9210-e3137a91c418"},"vehicle_type_id":"4","last_reported":1714755994,"current_range_meters":1200,"station_id":"ce4bgg92rcd13ifvqb30","pricing_plan_id":"cebpf4jnsgd1na2vs0mg"},{"bike_id":"671a9919-8945-4519-a0af-f58f4841fcd2","system_id":"levelo_inurba_marseille","lat":43.298433,"lon":5.362774,"is_reserved":false,"is_disabled":false,"rental_uris":{"android":"levelo://app?vid=671a9919-8945-4519-a0af-f58f4841fcd2","ios":"levelo://app?vid=671a9919-8945-4519-a0af-f58f4841fcd2"},"vehicle_type_id":"4","last_reported":1714755994,"current_range_meters":23600,"station_id":"ce4bgpp2rcd13ifvqc3g","pricing_plan_id":"cebpf4jnsgd1na2vs0mg"},{"bike_id":"79d904e9-9ec6-4e00-ad60-6e606af299e7","system_id":"levelo_inurba_marseille","lat":43.298433,"lon":5.362774,"is_reserved":false,"is_disabled":false,"rental_uris":{"android":"levelo://app?vid=79d904e9-9ec6-4e00-ad60-6e606af299e7","ios":"levelo://app?vid=79d904e9-9ec6-4e00-ad60-6e606af299e7"},"vehicle_type_id":"4","last_reported":1714755994,"current_range_meters":14400,"station_id":"ce4bgpp2rcd13ifvqc3g","pricing_plan_id":"cebpf4jnsgd1na2vs0mg"},{"bike_id":"19616685-cc95-45c5-80ce-1d476fcccb84","system_id":"levelo_inurba_marseille","lat":43.298433,"lon":5.362774,"is_reserved":false,"is_disabled":false,"rental_uris":{"android":"levelo://app?vid=19616685-cc95-45c5-80ce-1d476fcccb84","ios":"levelo://app?vid=19616685-cc95-45c5-80ce-1d476fcccb84"},"vehicle_type_id":"4","last_reported":1714755994,"current_range_meters":29200,"station_id":"ce4bgpp2rcd13ifvqc3g","pricing_plan_id":"cebpf4jnsgd1na2vs0mg"},{"bike_id":"1814243a-9e08-4414-aa10-f75efb90c61e","system_id":"levelo_inurba_marseille","lat":43.29848,"lon":5.36272,"is_reserved":false,"is_disabled":false,"rental_uris":{"android":"levelo://app?vid=1814243a-9e08-4414-aa10-f75efb90c61e","ios":"levelo://app?vid=1814243a-9e08-4414-aa10-f75efb90c61e"},"vehicle_type_id":"4","last_reported":1714755994,"current_range_meters":17600,"station_id":"ce4bgpp2rcd13ifvqc3g","pricing_plan_id":"cebpf4jnsgd1na2vs0mg"},{"bike_id":"8e5acfb6-5946-49bc-be10-5c85b90ca938","system_id":"levelo_inurba_marseille","lat":43.29846,"lon":5.36273,"is_reserved":false,"is_disabled":false,"rental_uris":{"android":"levelo://app?vid=8e5acfb6-5946-49bc-be10-5c85b90ca938","ios":"levelo://app?vid=8e5acfb6-5946-49bc-be10-5c85b90ca938"},"vehicle_type_id":"4","last_reported":1714755994,"current_range_meters":17200,"station_id":"ce4bgpp2rcd13ifvqc3g","pricing_plan_id":"cebpf4jnsgd1na2vs0mg"},{"bike_id":"926ed395-1a85-4695-8233-1a8fc0e1b8ff","system_id":"levelo_inurba_marseille","lat":43.29845,"lon":5.36276,"is_reserved":false,"is_disabled":false,"rental_uris":{"android":"levelo://app?vid=926ed395-1a85-4695-8233-1a8fc0e1b8ff","ios":"levelo://app?vid=926ed395-1a85-4695-8233-1a8fc0e1b8ff"},"vehicle_type_id":"4","last_reported":1714755994,"current_range_meters":24000,"station_id":"ce4bgpp2rcd13ifvqc3g","pricing_plan_id":"cebpf4jnsgd1na2vs0mg"},{"bike_id":"b9f99b1b-e7de-4220-8fc1-8720529cfbe9","system_id":"levelo_inurba_marseille","lat":43.298433,"lon":5.362774,"is_reserved":false,"is_disabled":false,"rental_uris":{"android":"levelo://app?vid=b9f99b1b-e7de-4220-8fc1-8720529cfbe9","ios":"levelo://app?vid=b9f99b1b-e7de-4220-8fc1-8720529cfbe9"},"vehicle_type_id":"4","last_reported":1714755994,"current_range_meters":13600,"station_id":"ce4bgpp2rcd13ifvqc3g","pricing_plan_id":"cebpf4jnsgd1na2vs0mg"},{"bike_id":"5595ce3b-566b-42fd-8bce-ac08eb92fc13","system_id":"levelo_inurba_marseille","lat":43.29844,"lon":5.36275,"is_reserved":false,"is_disabled":false,"rental_uris":{"android":"levelo://app?vid=5595ce3b-566b-42fd-8bce-ac08eb92fc13","ios":"levelo://app?vid=5595ce3b-566b-42fd-8bce-ac08eb92fc13"},"vehicle_type_id":"4","last_reported":1714755994,"current_range_meters":13600,"station_id":"ce4bgpp2rcd13ifvqc3g","pricing_plan_id":"cebpf4jnsgd1na2vs0mg"},{"bike_id":"32d1a725-2646-41d7-842d-269b628ae0c0","system_id":"levelo_inurba_marseille","lat":43.298433,"lon":5.362774,"is_reserved":false,"is_disabled":false,"rental_uris":{"android":"levelo://app?vid=32d1a725-2646-41d7-842d-269b628ae0c0","ios":"levelo://app?vid=32d1a725-2646-41d7-842d-269b628ae0c0"},"vehicle_type_id":"4","last_reported":1714755994,"current_range_meters":30400,"station_id":"ce4bgpp2rcd13ifvqc3g","pricing_plan_id":"cebpf4jnsgd1na2vs0mg"},{"bike_id":"d82eeaf3-c03c-4a6c-941e-6527427c2090","system_id":"levelo_inurba_marseille","lat":43.29841,"lon":5.36272,"is_reserved":false,"is_disabled":false,"rental_uris":{"android":"levelo://app?vid=d82eeaf3-c03c-4a6c-941e-6527427c2090","ios":"levelo://app?vid=d82eeaf3-c03c-4a6c-941e-6527427c2090"},"vehicle_type_id":"4","last_reported":1714755994,"current_range_meters":30400,"station_id":"ce4bgpp2rcd13ifvqc3g","pricing_plan_id":"cebpf4jnsgd1na2vs0mg"},{"bike_id":"73065751-57c3-487f-a44f-db9f4baaf30a","system_id":"levelo_inurba_marseille","lat":43.299243,"lon":5.37481,"is_reserved":false,"is_disabled":false,"rental_uris":{"android":"levelo://app?vid=73065751-57c3-487f-a44f-db9f4baaf30a","ios":"levelo://app?vid=73065751-57c3-487f-a44f-db9f4baaf30a"},"vehicle_type_id":"4","last_reported":1714755994,"current_range_meters":31200,"station_id":"ce4bgjh2rcd13ifvqbg0","pricing_plan_id":"cebpf4jnsgd1na2vs0mg"},{"bike_id":"92745de7-6da3-4ac1-8e83-a724a0199601","system_id":"levelo_inurba_marseille","lat":43.29912,"lon":5.37463,"is_reserved":false,"is_disabled":false,"rental_uris":{"android":"levelo://app?vid=92745de7-6da3-4ac1-8e83-a724a0199601","ios":"levelo://app?vid=92745de7-6da3-4ac1-8e83-a724a0199601"},"vehicle_type_id":"4","last_reported":1714755994,"current_range_meters":22800,"station_id":"ce4bgjh2rcd13ifvqbg0","pricing_plan_id":"cebpf4jnsgd1na2vs0mg"},{"bike_id":"8b36fccd-e86d-4c81-91e1-d20ae2684988","system_id":"levelo_inurba_marseille","lat":43.29908,"lon":5.37471,"is_reserved":false,"is_disabled":false,"rental_uris":{"android":"levelo://app?vid=8b36fccd-e86d-4c81-91e1-d20ae2684988","ios":"levelo://app?vid=8b36fccd-e86d-4c81-91e1-d20ae2684988"},"vehicle_type_id":"4","last_reported":1714755994,"current_range_meters":29600,"station_id":"ce4bgjh2rcd13ifvqbg0","pricing_plan_id":"cebpf4jnsgd1na2vs0mg"},{"bike_id":"af8cd477-8074-4f9e-be4f-8689a80e8c3f","system_id":"levelo_inurba_marseille","lat":43.299243,"lon":5.37481,"is_reserved":false,"is_disabled":false,"rental_uris":{"android":"levelo://app?vid=af8cd477-8074-4f9e-be4f-8689a80e8c3f","ios":"levelo://app?vid=af8cd477-8074-4f9e-be4f-8689a80e8c3f"},"vehicle_type_id":"4","last_reported":1714755994,"current_range_meters":5200,"station_id":"ce4bgjh2rcd13ifvqbg0","pricing_plan_id":"cebpf4jnsgd1na2vs0mg"},{"bike_id":"b2c16f7f-eff4-4e48-89d5-71c4b16ad800","system_id":"levelo_inurba_marseille","lat":43.311722,"lon":5.387247,"is_reserved":false,"is_disabled":false,"rental_uris":{"android":"levelo://app?vid=b2c16f7f-eff4-4e48-89d5-71c4b16ad800","ios":"levelo://app?vid=b2c16f7f-eff4-4e48-89d5-71c4b16ad800"},"vehicle_type_id":"4","last_reported":1714755994,"current_range_meters":4800,"station_id":"ce4bgv12rcd13ifvqcp0","pricing_plan_id":"cebpf4jnsgd1na2vs0mg"},{"bike_id":"67a77d0a-ffff-4bde-9839-a5c73f026ffb","system_id":"levelo_inurba_marseille","lat":43.29807,"lon":5.36326,"is_reserved":false,"is_disabled":false,"rental_uris":{"android":"levelo://app?vid=67a77d0a-ffff-4bde-9839-a5c73f026ffb","ios":"levelo://app?vid=67a77d0a-ffff-4bde-9839-a5c73f026ffb"},"vehicle_type_id":"4","last_reported":1714755994,"current_range_meters":0,"station_id":"","pricing_plan_id":"cebpf4jnsgd1na2vs0mg"},{"bike_id":"cece6e37-6428-4118-9b30-04e5696cad42","system_id":"levelo_inurba_marseille","lat":43.299243,"lon":5.37481,"is_reserved":false,"is_disabled":false,"rental_uris":{"android":"levelo://app?vid=cece6e37-6428-4118-9b30-04e5696cad42","ios":"levelo://app?vid=cece6e37-6428-4118-9b30-04e5696cad42"},"vehicle_type_id":"4","last_reported":1714755994,"current_range_meters":25200,"station_id":"ce4bgjh2rcd13ifvqbg0","pricing_plan_id":"cebpf4jnsgd1na2vs0mg"},{"bike_id":"a1c8dcb4-18aa-420d-b0de-dc9af6fe06c1","system_id":"levelo_inurba_marseille","lat":43.311722,"lon":5.387247,"is_reserved":false,"is_disabled":false,"rental_uris":{"android":"levelo://app?vid=a1c8dcb4-18aa-420d-b0de-dc9af6fe06c1","ios":"levelo://app?vid=a1c8dcb4-18aa-420d-b0de-dc9af6fe06c1"},"vehicle_type_id":"4","last_reported":1714755994,"current_range_meters":14000,"station_id":"ce4bgv12rcd13ifvqcp0","pricing_plan_id":"cebpf4jnsgd1na2vs0mg"},{"bike_id":"985964aa-15f7-457a-a40b-4d5a2e6c3d0c","system_id":"levelo_inurba_marseille","lat":43.29786,"lon":5.371,"is_reserved":false,"is_disabled":false,"rental_uris":{"android":"levelo://app?vid=985964aa-15f7-457a-a40b-4d5a2e6c3d0c","ios":"levelo://app?vid=985964aa-15f7-457a-a40b-4d5a2e6c3d0c"},"vehicle_type_id":"4","last_reported":1714755994,"current_range_meters":14800,"station_id":"ce4bgop2rcd13ifvqc1g","pricing_plan_id":"cebpf4jnsgd1na2vs0mg"},{"bike_id":"4ee802ef-d604-4641-ae53-ff6a8e9618eb","system_id":"levelo_inurba_marseille","lat":43.29786,"lon":5.37103,"is_reserved":false,"is_disabled":false,"rental_uris":{"android":"levelo://app?vid=4ee802ef-d604-4641-ae53-ff6a8e9618eb","ios":"levelo://app?vid=4ee802ef-d604-4641-ae53-ff6a8e9618eb"},"vehicle_type_id":"4","last_reported":1714755994,"current_range_meters":1600,"station_id":"ce4bgop2rcd13ifvqc1g","pricing_plan_id":"cebpf4jnsgd1na2vs0mg"},{"bike_id":"90fe322c-eba9-4636-b8e4-ce43c924b4ac","system_id":"levelo_inurba_marseille","lat":43.29778,"lon":5.37105,"is_reserved":false,"is_disabled":false,"rental_uris":{"android":"levelo://app?vid=90fe322c-eba9-4636-b8e4-ce43c924b4ac","ios":"levelo://app?vid=90fe322c-eba9-4636-b8e4-ce43c924b4ac"},"vehicle_type_id":"4","last_reported":1714755994,"current_range_meters":2800,"station_id":"ce4bgop2rcd13ifvqc1g","pricing_plan_id":"cebpf4jnsgd1na2vs0mg"},{"bike_id":"7452fc98-5d81-4d26-ae72-38fd4dc76fd3","system_id":"levelo_inurba_marseille","lat":43.322872,"lon":5.382756,"is_reserved":false,"is_disabled":false,"rental_uris":{"android":"levelo://app?vid=7452fc98-5d81-4d26-ae72-38fd4dc76fd3","ios":"levelo://app?vid=7452fc98-5d81-4d26-ae72-38fd4dc76fd3"},"vehicle_type_id":"4","last_reported":1714755994,"current_range_meters":6000,"station_id":"ce4bhr12rcd13ifvqhqg","pricing_plan_id":"cebpf4jnsgd1na2vs0mg"},{"bike_id":"2180f336-259d-4495-a73d-fbb4a4b46ad9","system_id":"levelo_inurba_marseille","lat":43.322872,"lon":5.382756,"is_reserved":false,"is_disabled":false,"rental_uris":{"android":"levelo://app?vid=2180f336-259d-4495-a73d-fbb4a4b46ad9","ios":"levelo://app?vid=2180f336-259d-4495-a73d-fbb4a4b46ad9"},"vehicle_type_id":"4","last_reported":1714755994,"current_range_meters":14000,"station_id":"ce4bhr12rcd13ifvqhqg","pricing_plan_id":"cebpf4jnsgd1na2vs0mg"},{"bike_id":"42cfaad0-e964-4991-9975-3c2a8d325aef","system_id":"levelo_inurba_marseille","lat":43.297774,"lon":5.370875,"is_reserved":false,"is_disabled":false,"rental_uris":{"android":"levelo://app?vid=42cfaad0-e964-4991-9975-3c2a8d325aef","ios":"levelo://app?vid=42cfaad0-e964-4991-9975-3c2a8d325aef"},"vehicle_type_id":"4","last_reported":1714755994,"current_range_meters":14400,"station_id":"ce4bgop2rcd13ifvqc1g","pricing_plan_id":"cebpf4jnsgd1na2vs0mg"},{"bike_id":"33a9cc58-068f-4ad2-848c-79884724c304","system_id":"levelo_inurba_marseille","lat":43.322872,"lon":5.382756,"is_reserved":false,"is_disabled":false,"rental_uris":{"android":"levelo://app?vid=33a9cc58-068f-4ad2-848c-79884724c304","ios":"levelo://app?vid=33a9cc58-068f-4ad2-848c-79884724c304"},"vehicle_type_id":"4","last_reported":1714755994,"current_range_meters":0,"station_id":"ce4bhr12rcd13ifvqhqg","pricing_plan_id":"cebpf4jnsgd1na2vs0mg"},{"bike_id":"d15c365d-48f4-41ec-8a15-8c93a9cf008b","system_id":"levelo_inurba_marseille","lat":43.322872,"lon":5.382756,"is_reserved":false,"is_disabled":false,"rental_uris":{"android":"levelo://app?vid=d15c365d-48f4-41ec-8a15-8c93a9cf008b","ios":"levelo://app?vid=d15c365d-48f4-41ec-8a15-8c93a9cf008b"},"vehicle_type_id":"4","last_reported":1714755994,"current_range_meters":29600,"station_id":"ce4bhr12rcd13ifvqhqg","pricing_plan_id":"cebpf4jnsgd1na2vs0mg"},{"bike_id":"419a2b5c-4238-4e2c-8bf0-24105af66f38","system_id":"levelo_inurba_marseille","lat":43.322872,"lon":5.382756,"is_reserved":false,"is_disabled":false,"rental_uris":{"android":"levelo://app?vid=419a2b5c-4238-4e2c-8bf0-24105af66f38","ios":"levelo://app?vid=419a2b5c-4238-4e2c-8bf0-24105af66f38"},"vehicle_type_id":"4","last_reported":1714755994,"current_range_meters":6000,"station_id":"ce4bhr12rcd13ifvqhqg","pricing_plan_id":"cebpf4jnsgd1na2vs0mg"},{"bike_id":"934df9a4-5440-49d1-b0e7-1bf237bbef83","system_id":"levelo_inurba_marseille","lat":43.311722,"lon":5.387247,"is_reserved":false,"is_disabled":false,"rental_uris":{"android":"levelo://app?vid=934df9a4-5440-49d1-b0e7-1bf237bbef83","ios":"levelo://app?vid=934df9a4-5440-49d1-b0e7-1bf237bbef83"},"vehicle_type_id":"4","last_reported":1714755994,"current_range_meters":9200,"station_id":"ce4bgv12rcd13ifvqcp0","pricing_plan_id":"cebpf4jnsgd1na2vs0mg"},{"bike_id":"20e0b06a-25d4-4137-9fd3-d07bb00f838c","system_id":"levelo_inurba_marseille","lat":43.322872,"lon":5.382756,"is_reserved":false,"is_disabled":false,"rental_uris":{"android":"levelo://app?vid=20e0b06a-25d4-4137-9fd3-d07bb00f838c","ios":"levelo://app?vid=20e0b06a-25d4-4137-9fd3-d07bb00f838c"},"vehicle_type_id":"4","last_reported":1714755994,"current_range_meters":30000,"station_id":"ce4bhr12rcd13ifvqhqg","pricing_plan_id":"cebpf4jnsgd1na2vs0mg"},{"bike_id":"ee5d5f57-aa9f-4035-ad0b-fffa8eb347a1","system_id":"levelo_inurba_marseille","lat":43.322872,"lon":5.382756,"is_reserved":false,"is_disabled":false,"rental_uris":{"android":"levelo://app?vid=ee5d5f57-aa9f-4035-ad0b-fffa8eb347a1","ios":"levelo://app?vid=ee5d5f57-aa9f-4035-ad0b-fffa8eb347a1"},"vehicle_type_id":"4","last_reported":1714755994,"current_range_meters":17600,"station_id":"ce4bhr12rcd13ifvqhqg","pricing_plan_id":"cebpf4jnsgd1na2vs0mg"},{"bike_id":"f8476cb3-5250-4fe5-aefa-6d4f94287710","system_id":"levelo_inurba_marseille","lat":43.297163,"lon":5.365866,"is_reserved":false,"is_disabled":false,"rental_uris":{"android":"levelo://app?vid=f8476cb3-5250-4fe5-aefa-6d4f94287710","ios":"levelo://app?vid=f8476cb3-5250-4fe5-aefa-6d4f94287710"},"vehicle_type_id":"4","last_reported":1714755994,"current_range_meters":20800,"station_id":"ce4bgn12rcd13ifvqbt0","pricing_plan_id":"cebpf4jnsgd1na2vs0mg"},{"bike_id":"c7b20714-2cdc-4318-ad5e-e9fd25b882cc","system_id":"levelo_inurba_marseille","lat":43.297163,"lon":5.365866,"is_reserved":false,"is_disabled":false,"rental_uris":{"android":"levelo://app?vid=c7b20714-2cdc-4318-ad5e-e9fd25b882cc","ios":"levelo://app?vid=c7b20714-2cdc-4318-ad5e-e9fd25b882cc"},"vehicle_type_id":"4","last_reported":1714755994,"current_range_meters":31200,"station_id":"ce4bgn12rcd13ifvqbt0","pricing_plan_id":"cebpf4jnsgd1na2vs0mg"},{"bike_id":"7f572c29-1927-4463-9fa1-26fe60a745fa","system_id":"levelo_inurba_marseille","lat":43.29709,"lon":5.36622,"is_reserved":false,"is_disabled":false,"rental_uris":{"android":"levelo://app?vid=7f572c29-1927-4463-9fa1-26fe60a745fa","ios":"levelo://app?vid=7f572c29-1927-4463-9fa1-26fe60a745fa"},"vehicle_type_id":"4","last_reported":1714755994,"current_range_meters":0,"station_id":"ce4bgn12rcd13ifvqbt0","pricing_plan_id":"cebpf4jnsgd1na2vs0mg"},{"bike_id":"3e016252-f1f5-4c19-b45e-28b83426c519","system_id":"levelo_inurba_marseille","lat":43.29709,"lon":5.36615,"is_reserved":false,"is_disabled":false,"rental_uris":{"android":"levelo://app?vid=3e016252-f1f5-4c19-b45e-28b83426c519","ios":"levelo://app?vid=3e016252-f1f5-4c19-b45e-28b83426c519"},"vehicle_type_id":"4","last_reported":1714755994,"current_range_meters":400,"station_id":"ce4bgn12rcd13ifvqbt0","pricing_plan_id":"cebpf4jnsgd1na2vs0mg"},{"bike_id":"3366b3cf-c7e8-4851-961c-702dbf5ee797","system_id":"levelo_inurba_marseille","lat":43.311722,"lon":5.387247,"is_reserved":false,"is_disabled":false,"rental_uris":{"android":"levelo://app?vid=3366b3cf-c7e8-4851-961c-702dbf5ee797","ios":"levelo://app?vid=3366b3cf-c7e8-4851-961c-702dbf5ee797"},"vehicle_type_id":"4","last_reported":1714755994,"current_range_meters":25600,"station_id":"ce4bgv12rcd13ifvqcp0","pricing_plan_id":"cebpf4jnsgd1na2vs0mg"},{"bike_id":"87ae53a9-6727-4ea9-8745-2ccad419b33d","system_id":"levelo_inurba_marseille","lat":43.2968,"lon":5.37291,"is_reserved":false,"is_disabled":false,"rental_uris":{"android":"levelo://app?vid=87ae53a9-6727-4ea9-8745-2ccad419b33d","ios":"levelo://app?vid=87ae53a9-6727-4ea9-8745-2ccad419b33d"},"vehicle_type_id":"4","last_reported":1714755994,"current_range_meters":9600,"station_id":"ce4bgk12rcd13ifvqbj0","pricing_plan_id":"cebpf4jnsgd1na2vs0mg"},{"bike_id":"ebb1c6af-1b68-4920-a107-ea68a1301240","system_id":"levelo_inurba_marseille","lat":43.296129,"lon":5.370777,"is_reserved":false,"is_disabled":false,"rental_uris":{"android":"levelo://app?vid=ebb1c6af-1b68-4920-a107-ea68a1301240","ios":"levelo://app?vid=ebb1c6af-1b68-4920-a107-ea68a1301240"},"vehicle_type_id":"4","last_reported":1714755994,"current_range_meters":26400,"station_id":"ce4bgnh2rcd13ifvqc0g","pricing_plan_id":"cebpf4jnsgd1na2vs0mg"},{"bike_id":"043b501e-b553-449d-9b1d-09da74ca805d","system_id":"levelo_inurba_marseille","lat":43.296129,"lon":5.370777,"is_reserved":false,"is_disabled":false,"rental_uris":{"android":"levelo://app?vid=043b501e-b553-449d-9b1d-09da74ca805d","ios":"levelo://app?vid=043b501e-b553-449d-9b1d-09da74ca805d"},"vehicle_type_id":"4","last_reported":1714755994,"current_range_meters":23600,"station_id":"ce4bgnh2rcd13ifvqc0g","pricing_plan_id":"cebpf4jnsgd1na2vs0mg"},{"bike_id":"9664bcf4-fbaa-430b-81e9-4561bf64d15b","system_id":"levelo_inurba_marseille","lat":43.2959,"lon":5.36738,"is_reserved":false,"is_disabled":false,"rental_uris":{"android":"levelo://app?vid=9664bcf4-fbaa-430b-81e9-4561bf64d15b","ios":"levelo://app?vid=9664bcf4-fbaa-430b-81e9-4561bf64d15b"},"vehicle_type_id":"4","last_reported":1714755994,"current_range_meters":2400,"station_id":"ce4bgph2rcd13ifvqc2g","pricing_plan_id":"cebpf4jnsgd1na2vs0mg"},{"bike_id":"33e9c2c9-f106-4ecb-aff3-deaf1a449cf6","system_id":"levelo_inurba_marseille","lat":43.29624,"lon":5.37167,"is_reserved":false,"is_disabled":false,"rental_uris":{"android":"levelo://app?vid=33e9c2c9-f106-4ecb-aff3-deaf1a449cf6","ios":"levelo://app?vid=33e9c2c9-f106-4ecb-aff3-deaf1a449cf6"},"vehicle_type_id":"4","last_reported":1714755994,"current_range_meters":22000,"station_id":"ce4bgnh2rcd13ifvqc0g","pricing_plan_id":"cebpf4jnsgd1na2vs0mg"},{"bike_id":"da19c422-696d-4004-a8cd-f82393c157cf","system_id":"levelo_inurba_marseille","lat":43.29573,"lon":5.367355,"is_reserved":false,"is_disabled":false,"rental_uris":{"android":"levelo://app?vid=da19c422-696d-4004-a8cd-f82393c157cf","ios":"levelo://app?vid=da19c422-696d-4004-a8cd-f82393c157cf"},"vehicle_type_id":"4","last_reported":1714755994,"current_range_meters":18000,"station_id":"ce4bgph2rcd13ifvqc2g","pricing_plan_id":"cebpf4jnsgd1na2vs0mg"},{"bike_id":"61e41592-3419-4bf6-86d4-f8fb3e7ef58a","system_id":"levelo_inurba_marseille","lat":43.29622,"lon":5.37167,"is_reserved":false,"is_disabled":false,"rental_uris":{"android":"levelo://app?vid=61e41592-3419-4bf6-86d4-f8fb3e7ef58a","ios":"levelo://app?vid=61e41592-3419-4bf6-86d4-f8fb3e7ef58a"},"vehicle_type_id":"4","last_reported":1714755994,"current_range_meters":24400,"station_id":"ce4bgnh2rcd13ifvqc0g","pricing_plan_id":"cebpf4jnsgd1na2vs0mg"},{"bike_id":"46f4aa6e-5a11-4adb-801e-29c76d8fd474","system_id":"levelo_inurba_marseille","lat":43.29622,"lon":5.3717,"is_reserved":false,"is_disabled":false,"rental_uris":{"android":"levelo://app?vid=46f4aa6e-5a11-4adb-801e-29c76d8fd474","ios":"levelo://app?vid=46f4aa6e-5a11-4adb-801e-29c76d8fd474"},"vehicle_type_id":"4","last_reported":1714755994,"current_range_meters":31200,"station_id":"ce4bgnh2rcd13ifvqc0g","pricing_plan_id":"cebpf4jnsgd1na2vs0mg"},{"bike_id":"fd9468eb-1e34-46f2-82df-99e77dc5f636","system_id":"levelo_inurba_marseille","lat":43.29585,"lon":5.36727,"is_reserved":false,"is_disabled":false,"rental_uris":{"android":"levelo://app?vid=fd9468eb-1e34-46f2-82df-99e77dc5f636","ios":"levelo://app?vid=fd9468eb-1e34-46f2-82df-99e77dc5f636"},"vehicle_type_id":"4","last_reported":1714755994,"current_range_meters":12800,"station_id":"ce4bgph2rcd13ifvqc2g","pricing_plan_id":"cebpf4jnsgd1na2vs0mg"},{"bike_id":"f0327959-bc4a-4274-837c-7fe879ed136f","system_id":"levelo_inurba_marseille","lat":43.29573,"lon":5.367355,"is_reserved":false,"is_disabled":false,"rental_uris":{"android":"levelo://app?vid=f0327959-bc4a-4274-837c-7fe879ed136f","ios":"levelo://app?vid=f0327959-bc4a-4274-837c-7fe879ed136f"},"vehicle_type_id":"4","last_reported":1714755994,"current_range_meters":27200,"station_id":"ce4bgph2rcd13ifvqc2g","pricing_plan_id":"cebpf4jnsgd1na2vs0mg"},{"bike_id":"f9da8853-0e15-4d05-998b-6120d8b0ad03","system_id":"levelo_inurba_marseille","lat":43.29581,"lon":5.36736,"is_reserved":false,"is_disabled":false,"rental_uris":{"android":"levelo://app?vid=f9da8853-0e15-4d05-998b-6120d8b0ad03","ios":"levelo://app?vid=f9da8853-0e15-4d05-998b-6120d8b0ad03"},"vehicle_type_id":"4","last_reported":1714755994,"current_range_meters":26800,"station_id":"ce4bgph2rcd13ifvqc2g","pricing_plan_id":"cebpf4jnsgd1na2vs0mg"},{"bike_id":"f4f5eaf3-8fd8-422e-9646-2dfe0b0de0c9","system_id":"levelo_inurba_marseille","lat":43.29573,"lon":5.367355,"is_reserved":false,"is_disabled":false,"rental_uris":{"android":"levelo://app?vid=f4f5eaf3-8fd8-422e-9646-2dfe0b0de0c9","ios":"levelo://app?vid=f4f5eaf3-8fd8-422e-9646-2dfe0b0de0c9"},"vehicle_type_id":"4","last_reported":1714755994,"current_range_meters":17600,"station_id":"ce4bgph2rcd13ifvqc2g","pricing_plan_id":"cebpf4jnsgd1na2vs0mg"},{"bike_id":"f9b89f20-2ae0-4c41-b048-c12490c007c1","system_id":"levelo_inurba_marseille","lat":43.309589,"lon":5.390258,"is_reserved":false,"is_disabled":false,"rental_uris":{"android":"levelo://app?vid=f9b89f20-2ae0-4c41-b048-c12490c007c1","ios":"levelo://app?vid=f9b89f20-2ae0-4c41-b048-c12490c007c1"},"vehicle_type_id":"4","last_reported":1714755994,"current_range_meters":4800,"station_id":"ce4bgup2rcd13ifvqco0","pricing_plan_id":"cebpf4jnsgd1na2vs0mg"},{"bike_id":"d1f0b631-fdb1-423f-b65b-1de6f85215e5","system_id":"levelo_inurba_marseille","lat":43.29573,"lon":5.367355,"is_reserved":false,"is_disabled":false,"rental_uris":{"android":"levelo://app?vid=d1f0b631-fdb1-423f-b65b-1de6f85215e5","ios":"levelo://app?vid=d1f0b631-fdb1-423f-b65b-1de6f85215e5"},"vehicle_type_id":"4","last_reported":1714755994,"current_range_meters":22000,"station_id":"ce4bgph2rcd13ifvqc2g","pricing_plan_id":"cebpf4jnsgd1na2vs0mg"},{"bike_id":"24ca6ab9-2c00-44d6-83c6-a3747a983486","system_id":"levelo_inurba_marseille","lat":43.29579,"lon":5.36744,"is_reserved":false,"is_disabled":false,"rental_uris":{"android":"levelo://app?vid=24ca6ab9-2c00-44d6-83c6-a3747a983486","ios":"levelo://app?vid=24ca6ab9-2c00-44d6-83c6-a3747a983486"},"vehicle_type_id":"4","last_reported":1714755994,"current_range_meters":0,"station_id":"ce4bgph2rcd13ifvqc2g","pricing_plan_id":"cebpf4jnsgd1na2vs0mg"},{"bike_id":"20d99301-0dfe-4fa2-a8b1-05297836445f","system_id":"levelo_inurba_marseille","lat":43.337168,"lon":5.391825,"is_reserved":false,"is_disabled":false,"rental_uris":{"android":"levelo://app?vid=20d99301-0dfe-4fa2-a8b1-05297836445f","ios":"levelo://app?vid=20d99301-0dfe-4fa2-a8b1-05297836445f"},"vehicle_type_id":"4","last_reported":1714755994,"current_range_meters":28800,"station_id":"ce4bhr92rcd13ifvqhsg","pricing_plan_id":"cebpf4jnsgd1na2vs0mg"},{"bike_id":"4a49b1d6-398f-4ebf-bcf2-0db6a7e9c6b1","system_id":"levelo_inurba_marseille","lat":43.296935,"lon":5.376544,"is_reserved":false,"is_disabled":false,"rental_uris":{"android":"levelo://app?vid=4a49b1d6-398f-4ebf-bcf2-0db6a7e9c6b1","ios":"levelo://app?vid=4a49b1d6-398f-4ebf-bcf2-0db6a7e9c6b1"},"vehicle_type_id":"4","last_reported":1714755994,"current_range_meters":20800,"station_id":"ce4bgkh2rcd13ifvqbl0","pricing_plan_id":"cebpf4jnsgd1na2vs0mg"},{"bike_id":"87f36cc2-6505-4f52-a1ce-ee6f5e9a908e","system_id":"levelo_inurba_marseille","lat":43.29728,"lon":5.37689,"is_reserved":false,"is_disabled":false,"rental_uris":{"android":"levelo://app?vid=87f36cc2-6505-4f52-a1ce-ee6f5e9a908e","ios":"levelo://app?vid=87f36cc2-6505-4f52-a1ce-ee6f5e9a908e"},"vehicle_type_id":"4","last_reported":1714755994,"current_range_meters":15600,"station_id":"ce4bgkh2rcd13ifvqbl0","pricing_plan_id":"cebpf4jnsgd1na2vs0mg"},{"bike_id":"87859380-c8bd-4c86-9ace-0bb577f8310e","system_id":"levelo_inurba_marseille","lat":43.29728,"lon":5.37692,"is_reserved":false,"is_disabled":false,"rental_uris":{"android":"levelo://app?vid=87859380-c8bd-4c86-9ace-0bb577f8310e","ios":"levelo://app?vid=87859380-c8bd-4c86-9ace-0bb577f8310e"},"vehicle_type_id":"4","last_reported":1714755994,"current_range_meters":1600,"station_id":"ce4bgkh2rcd13ifvqbl0","pricing_plan_id":"cebpf4jnsgd1na2vs0mg"},{"bike_id":"fe53f0e8-12ea-494a-91a7-a877627dfef1","system_id":"levelo_inurba_marseille","lat":43.299028,"lon":5.381509,"is_reserved":false,"is_disabled":false,"rental_uris":{"android":"levelo://app?vid=fe53f0e8-12ea-494a-91a7-a877627dfef1","ios":"levelo://app?vid=fe53f0e8-12ea-494a-91a7-a877627dfef1"},"vehicle_type_id":"4","last_reported":1714755994,"current_range_meters":2800,"station_id":"ce4bgj12rcd13ifvqbc0","pricing_plan_id":"cebpf4jnsgd1na2vs0mg"},{"bike_id":"aaabbee6-3818-4691-a77c-a0783169882e","system_id":"levelo_inurba_marseille","lat":43.296906,"lon":5.376305,"is_reserved":false,"is_disabled":false,"rental_uris":{"android":"levelo://app?vid=aaabbee6-3818-4691-a77c-a0783169882e","ios":"levelo://app?vid=aaabbee6-3818-4691-a77c-a0783169882e"},"vehicle_type_id":"4","last_reported":1714755994,"current_range_meters":15600,"station_id":"ce4bgkh2rcd13ifvqbl0","pricing_plan_id":"cebpf4jnsgd1na2vs0mg"},{"bike_id":"5037ecba-f260-41f1-a68e-ccd0373520dc","system_id":"levelo_inurba_marseille","lat":43.309589,"lon":5.390258,"is_reserved":false,"is_disabled":false,"rental_uris":{"android":"levelo://app?vid=5037ecba-f260-41f1-a68e-ccd0373520dc","ios":"levelo://app?vid=5037ecba-f260-41f1-a68e-ccd0373520dc"},"vehicle_type_id":"4","last_reported":1714755994,"current_range_meters":0,"station_id":"ce4bgup2rcd13ifvqco0","pricing_plan_id":"cebpf4jnsgd1na2vs0mg"},{"bike_id":"111d1535-d6b7-46ea-9249-e0160e59bf70","system_id":"levelo_inurba_marseille","lat":43.29906,"lon":5.38138,"is_reserved":false,"is_disabled":false,"rental_uris":{"android":"levelo://app?vid=111d1535-d6b7-46ea-9249-e0160e59bf70","ios":"levelo://app?vid=111d1535-d6b7-46ea-9249-e0160e59bf70"},"vehicle_type_id":"4","last_reported":1714755994,"current_range_meters":16800,"station_id":"ce4bgj12rcd13ifvqbc0","pricing_plan_id":"cebpf4jnsgd1na2vs0mg"},{"bike_id":"f3778696-af6d-4024-9260-ea8d9e037f71","system_id":"levelo_inurba_marseille","lat":43.29714,"lon":5.37711,"is_reserved":false,"is_disabled":false,"rental_uris":{"android":"levelo://app?vid=f3778696-af6d-4024-9260-ea8d9e037f71","ios":"levelo://app?vid=f3778696-af6d-4024-9260-ea8d9e037f71"},"vehicle_type_id":"4","last_reported":1714755994,"current_range_meters":0,"station_id":"ce4bgkh2rcd13ifvqbl0","pricing_plan_id":"cebpf4jnsgd1na2vs0mg"},{"bike_id":"c051e195-8b39-4a2b-a265-5f3e29900f23","system_id":"levelo_inurba_marseille","lat":43.309589,"lon":5.390258,"is_reserved":false,"is_disabled":false,"rental_uris":{"android":"levelo://app?vid=c051e195-8b39-4a2b-a265-5f3e29900f23","ios":"levelo://app?vid=c051e195-8b39-4a2b-a265-5f3e29900f23"},"vehicle_type_id":"4","last_reported":1714755994,"current_range_meters":25200,"station_id":"ce4bgup2rcd13ifvqco0","pricing_plan_id":"cebpf4jnsgd1na2vs0mg"},{"bike_id":"9633794a-79e0-40b4-88db-f9d267743085","system_id":"levelo_inurba_marseille","lat":43.299028,"lon":5.381509,"is_reserved":false,"is_disabled":false,"rental_uris":{"android":"levelo://app?vid=9633794a-79e0-40b4-88db-f9d267743085","ios":"levelo://app?vid=9633794a-79e0-40b4-88db-f9d267743085"},"vehicle_type_id":"4","last_reported":1714755994,"current_range_meters":1600,"station_id":"ce4bgj12rcd13ifvqbc0","pricing_plan_id":"cebpf4jnsgd1na2vs0mg"},{"bike_id":"bf8a5495-ed5d-47f7-ab69-8f475d6be8a2","system_id":"levelo_inurba_marseille","lat":43.309589,"lon":5.390258,"is_reserved":false,"is_disabled":false,"rental_uris":{"android":"levelo://app?vid=bf8a5495-ed5d-47f7-ab69-8f475d6be8a2","ios":"levelo://app?vid=bf8a5495-ed5d-47f7-ab69-8f475d6be8a2"},"vehicle_type_id":"4","last_reported":1714755994,"current_range_meters":22000,"station_id":"ce4bgup2rcd13ifvqco0","pricing_plan_id":"cebpf4jnsgd1na2vs0mg"},{"bike_id":"09bd7e7a-11a1-4b9a-bc30-fa837568ed2e","system_id":"levelo_inurba_marseille","lat":43.309589,"lon":5.390258,"is_reserved":false,"is_disabled":false,"rental_uris":{"android":"levelo://app?vid=09bd7e7a-11a1-4b9a-bc30-fa837568ed2e","ios":"levelo://app?vid=09bd7e7a-11a1-4b9a-bc30-fa837568ed2e"},"vehicle_type_id":"4","last_reported":1714755994,"current_range_meters":1200,"station_id":"ce4bgup2rcd13ifvqco0","pricing_plan_id":"cebpf4jnsgd1na2vs0mg"},{"bike_id":"5582a9e0-f946-4e5b-8056-beb91ef19778","system_id":"levelo_inurba_marseille","lat":43.309589,"lon":5.390258,"is_reserved":false,"is_disabled":false,"rental_uris":{"android":"levelo://app?vid=5582a9e0-f946-4e5b-8056-beb91ef19778","ios":"levelo://app?vid=5582a9e0-f946-4e5b-8056-beb91ef19778"},"vehicle_type_id":"4","last_reported":1714755994,"current_range_meters":7200,"station_id":"ce4bgup2rcd13ifvqco0","pricing_plan_id":"cebpf4jnsgd1na2vs0mg"},{"bike_id":"f6d2a92d-e997-4e59-874c-b0b1be2f5a4b","system_id":"levelo_inurba_marseille","lat":43.309589,"lon":5.390258,"is_reserved":false,"is_disabled":false,"rental_uris":{"android":"levelo://app?vid=f6d2a92d-e997-4e59-874c-b0b1be2f5a4b","ios":"levelo://app?vid=f6d2a92d-e997-4e59-874c-b0b1be2f5a4b"},"vehicle_type_id":"4","last_reported":1714755994,"current_range_meters":26400,"station_id":"ce4bgup2rcd13ifvqco0","pricing_plan_id":"cebpf4jnsgd1na2vs0mg"},{"bike_id":"037e0252-18ea-42b0-80e2-0565354c515f","system_id":"levelo_inurba_marseille","lat":43.309589,"lon":5.390258,"is_reserved":false,"is_disabled":false,"rental_uris":{"android":"levelo://app?vid=037e0252-18ea-42b0-80e2-0565354c515f","ios":"levelo://app?vid=037e0252-18ea-42b0-80e2-0565354c515f"},"vehicle_type_id":"4","last_reported":1714755994,"current_range_meters":0,"station_id":"ce4bgup2rcd13ifvqco0","pricing_plan_id":"cebpf4jnsgd1na2vs0mg"},{"bike_id":"90303228-8520-4acd-9d05-c6c19f77516b","system_id":"levelo_inurba_marseille","lat":43.296935,"lon":5.376544,"is_reserved":false,"is_disabled":false,"rental_uris":{"android":"levelo://app?vid=90303228-8520-4acd-9d05-c6c19f77516b","ios":"levelo://app?vid=90303228-8520-4acd-9d05-c6c19f77516b"},"vehicle_type_id":"4","last_reported":1714755994,"current_range_meters":8400,"station_id":"ce4bgkh2rcd13ifvqbl0","pricing_plan_id":"cebpf4jnsgd1na2vs0mg"},{"bike_id":"8e4f65cd-2f84-4c65-ba3f-9a3d6ba17e29","system_id":"levelo_inurba_marseille","lat":43.309589,"lon":5.390258,"is_reserved":false,"is_disabled":false,"rental_uris":{"android":"levelo://app?vid=8e4f65cd-2f84-4c65-ba3f-9a3d6ba17e29","ios":"levelo://app?vid=8e4f65cd-2f84-4c65-ba3f-9a3d6ba17e29"},"vehicle_type_id":"4","last_reported":1714755994,"current_range_meters":19600,"station_id":"ce4bgup2rcd13ifvqco0","pricing_plan_id":"cebpf4jnsgd1na2vs0mg"},{"bike_id":"40018f7e-0213-4ec3-9ecb-dfc172681f68","system_id":"levelo_inurba_marseille","lat":43.309589,"lon":5.390258,"is_reserved":false,"is_disabled":false,"rental_uris":{"android":"levelo://app?vid=40018f7e-0213-4ec3-9ecb-dfc172681f68","ios":"levelo://app?vid=40018f7e-0213-4ec3-9ecb-dfc172681f68"},"vehicle_type_id":"4","last_reported":1714755994,"current_range_meters":10800,"station_id":"ce4bgup2rcd13ifvqco0","pricing_plan_id":"cebpf4jnsgd1na2vs0mg"},{"bike_id":"faf594fe-6442-4e3d-8bf9-52889a83cc0f","system_id":"levelo_inurba_marseille","lat":43.317557,"lon":5.390173,"is_reserved":false,"is_disabled":false,"rental_uris":{"android":"levelo://app?vid=faf594fe-6442-4e3d-8bf9-52889a83cc0f","ios":"levelo://app?vid=faf594fe-6442-4e3d-8bf9-52889a83cc0f"},"vehicle_type_id":"4","last_reported":1714755994,"current_range_meters":25600,"station_id":"ce4bhqp2rcd13ifvqhng","pricing_plan_id":"cebpf4jnsgd1na2vs0mg"},{"bike_id":"1c482a21-ee0d-43dd-aa37-eb4df7558872","system_id":"levelo_inurba_marseille","lat":43.317557,"lon":5.390173,"is_reserved":false,"is_disabled":false,"rental_uris":{"android":"levelo://app?vid=1c482a21-ee0d-43dd-aa37-eb4df7558872","ios":"levelo://app?vid=1c482a21-ee0d-43dd-aa37-eb4df7558872"},"vehicle_type_id":"4","last_reported":1714755994,"current_range_meters":20000,"station_id":"ce4bhqp2rcd13ifvqhng","pricing_plan_id":"cebpf4jnsgd1na2vs0mg"},{"bike_id":"faad0e83-7aa7-47f7-97d4-979e6930c468","system_id":"levelo_inurba_marseille","lat":43.317557,"lon":5.390173,"is_reserved":false,"is_disabled":false,"rental_uris":{"android":"levelo://app?vid=faad0e83-7aa7-47f7-97d4-979e6930c468","ios":"levelo://app?vid=faad0e83-7aa7-47f7-97d4-979e6930c468"},"vehicle_type_id":"4","last_reported":1714755994,"current_range_meters":16400,"station_id":"ce4bhqp2rcd13ifvqhng","pricing_plan_id":"cebpf4jnsgd1na2vs0mg"},{"bike_id":"5c69aeee-c6fb-435a-8697-65dbb88611ef","system_id":"levelo_inurba_marseille","lat":43.31758,"lon":5.39015,"is_reserved":false,"is_disabled":false,"rental_uris":{"android":"levelo://app?vid=5c69aeee-c6fb-435a-8697-65dbb88611ef","ios":"levelo://app?vid=5c69aeee-c6fb-435a-8697-65dbb88611ef"},"vehicle_type_id":"4","last_reported":1714755994,"current_range_meters":2800,"station_id":"ce4bhqp2rcd13ifvqhng","pricing_plan_id":"cebpf4jnsgd1na2vs0mg"},{"bike_id":"a459f8ba-46d7-46b1-a219-fc0afe6754ee","system_id":"levelo_inurba_marseille","lat":43.317557,"lon":5.390173,"is_reserved":false,"is_disabled":false,"rental_uris":{"android":"levelo://app?vid=a459f8ba-46d7-46b1-a219-fc0afe6754ee","ios":"levelo://app?vid=a459f8ba-46d7-46b1-a219-fc0afe6754ee"},"vehicle_type_id":"4","last_reported":1714755994,"current_range_meters":16800,"station_id":"ce4bhqp2rcd13ifvqhng","pricing_plan_id":"cebpf4jnsgd1na2vs0mg"},{"bike_id":"3f8869ab-9ec3-47e0-b114-b27821d34dc5","system_id":"levelo_inurba_marseille","lat":43.317557,"lon":5.390173,"is_reserved":false,"is_disabled":false,"rental_uris":{"android":"levelo://app?vid=3f8869ab-9ec3-47e0-b114-b27821d34dc5","ios":"levelo://app?vid=3f8869ab-9ec3-47e0-b114-b27821d34dc5"},"vehicle_type_id":"4","last_reported":1714755994,"current_range_meters":3600,"station_id":"ce4bhqp2rcd13ifvqhng","pricing_plan_id":"cebpf4jnsgd1na2vs0mg"},{"bike_id":"717ac7bc-b2e1-4461-b327-7f17e34ea17e","system_id":"levelo_inurba_marseille","lat":43.29815,"lon":5.38095,"is_reserved":false,"is_disabled":false,"rental_uris":{"android":"levelo://app?vid=717ac7bc-b2e1-4461-b327-7f17e34ea17e","ios":"levelo://app?vid=717ac7bc-b2e1-4461-b327-7f17e34ea17e"},"vehicle_type_id":"4","last_reported":1714755994,"current_range_meters":0,"station_id":"ce4bgip2rcd13ifvqbb0","pricing_plan_id":"cebpf4jnsgd1na2vs0mg"},{"bike_id":"f49cc78f-6cb6-42a8-af42-65184319ac38","system_id":"levelo_inurba_marseille","lat":43.29579,"lon":5.37519,"is_reserved":false,"is_disabled":false,"rental_uris":{"android":"levelo://app?vid=f49cc78f-6cb6-42a8-af42-65184319ac38","ios":"levelo://app?vid=f49cc78f-6cb6-42a8-af42-65184319ac38"},"vehicle_type_id":"4","last_reported":1714755994,"current_range_meters":27200,"station_id":"ce4bgh92rcd13ifvqb50","pricing_plan_id":"cebpf4jnsgd1na2vs0mg"},{"bike_id":"a6d0dbb7-c280-4348-9b39-8ecada5e24e1","system_id":"levelo_inurba_marseille","lat":43.304274,"lon":5.388873,"is_reserved":false,"is_disabled":false,"rental_uris":{"android":"levelo://app?vid=a6d0dbb7-c280-4348-9b39-8ecada5e24e1","ios":"levelo://app?vid=a6d0dbb7-c280-4348-9b39-8ecada5e24e1"},"vehicle_type_id":"4","last_reported":1714755994,"current_range_meters":8000,"station_id":"ce4bgk12rcd13ifvqbi0","pricing_plan_id":"cebpf4jnsgd1na2vs0mg"},{"bike_id":"ed3387f7-3687-4ae5-9353-b11c34fe61ab","system_id":"levelo_inurba_marseille","lat":43.304278,"lon":5.388868,"is_reserved":false,"is_disabled":false,"rental_uris":{"android":"levelo://app?vid=ed3387f7-3687-4ae5-9353-b11c34fe61ab","ios":"levelo://app?vid=ed3387f7-3687-4ae5-9353-b11c34fe61ab"},"vehicle_type_id":"4","last_reported":1714755994,"current_range_meters":0,"station_id":"ce4bgk12rcd13ifvqbi0","pricing_plan_id":"cebpf4jnsgd1na2vs0mg"},{"bike_id":"edf415b8-a23a-470a-8e48-7228b9ebad8d","system_id":"levelo_inurba_marseille","lat":43.304278,"lon":5.388868,"is_reserved":false,"is_disabled":false,"rental_uris":{"android":"levelo://app?vid=edf415b8-a23a-470a-8e48-7228b9ebad8d","ios":"levelo://app?vid=edf415b8-a23a-470a-8e48-7228b9ebad8d"},"vehicle_type_id":"4","last_reported":1714755994,"current_range_meters":29200,"station_id":"ce4bgk12rcd13ifvqbi0","pricing_plan_id":"cebpf4jnsgd1na2vs0mg"},{"bike_id":"4c3d7326-2967-43d8-9dff-1da373a1550a","system_id":"levelo_inurba_marseille","lat":43.304278,"lon":5.388868,"is_reserved":false,"is_disabled":false,"rental_uris":{"android":"levelo://app?vid=4c3d7326-2967-43d8-9dff-1da373a1550a","ios":"levelo://app?vid=4c3d7326-2967-43d8-9dff-1da373a1550a"},"vehicle_type_id":"4","last_reported":1714755994,"current_range_meters":11200,"station_id":"ce4bgk12rcd13ifvqbi0","pricing_plan_id":"cebpf4jnsgd1na2vs0mg"},{"bike_id":"941c7833-b596-4659-ba55-243146f63d59","system_id":"levelo_inurba_marseille","lat":43.295748,"lon":5.37522,"is_reserved":false,"is_disabled":false,"rental_uris":{"android":"levelo://app?vid=941c7833-b596-4659-ba55-243146f63d59","ios":"levelo://app?vid=941c7833-b596-4659-ba55-243146f63d59"},"vehicle_type_id":"4","last_reported":1714755994,"current_range_meters":5600,"station_id":"ce4bgh92rcd13ifvqb50","pricing_plan_id":"cebpf4jnsgd1na2vs0mg"},{"bike_id":"7ea7aee3-0baf-443d-8116-8551b4b6be3e","system_id":"levelo_inurba_marseille","lat":43.304274,"lon":5.388873,"is_reserved":false,"is_disabled":false,"rental_uris":{"android":"levelo://app?vid=7ea7aee3-0baf-443d-8116-8551b4b6be3e","ios":"levelo://app?vid=7ea7aee3-0baf-443d-8116-8551b4b6be3e"},"vehicle_type_id":"4","last_reported":1714755994,"current_range_meters":14400,"station_id":"ce4bgk12rcd13ifvqbi0","pricing_plan_id":"cebpf4jnsgd1na2vs0mg"},{"bike_id":"bb4c8126-c529-44e9-b816-f012ae13c9b6","system_id":"levelo_inurba_marseille","lat":43.295748,"lon":5.37522,"is_reserved":false,"is_disabled":false,"rental_uris":{"android":"levelo://app?vid=bb4c8126-c529-44e9-b816-f012ae13c9b6","ios":"levelo://app?vid=bb4c8126-c529-44e9-b816-f012ae13c9b6"},"vehicle_type_id":"4","last_reported":1714755994,"current_range_meters":11600,"station_id":"ce4bgh92rcd13ifvqb50","pricing_plan_id":"cebpf4jnsgd1na2vs0mg"},{"bike_id":"1865eb90-7b74-4662-8176-c134f944c132","system_id":"levelo_inurba_marseille","lat":43.296277,"lon":5.377108,"is_reserved":false,"is_disabled":false,"rental_uris":{"android":"levelo://app?vid=1865eb90-7b74-4662-8176-c134f944c132","ios":"levelo://app?vid=1865eb90-7b74-4662-8176-c134f944c132"},"vehicle_type_id":"4","last_reported":1714755994,"current_range_meters":7600,"station_id":"ce4bgi92rcd13ifvqb90","pricing_plan_id":"cebpf4jnsgd1na2vs0mg"},{"bike_id":"c63ecfd0-21e0-4745-bdb3-21c174076ca7","system_id":"levelo_inurba_marseille","lat":43.304278,"lon":5.388868,"is_reserved":false,"is_disabled":false,"rental_uris":{"android":"levelo://app?vid=c63ecfd0-21e0-4745-bdb3-21c174076ca7","ios":"levelo://app?vid=c63ecfd0-21e0-4745-bdb3-21c174076ca7"},"vehicle_type_id":"4","last_reported":1714755994,"current_range_meters":0,"station_id":"ce4bgk12rcd13ifvqbi0","pricing_plan_id":"cebpf4jnsgd1na2vs0mg"},{"bike_id":"02ee66e7-84c8-42d7-99d5-08863fa55fec","system_id":"levelo_inurba_marseille","lat":43.296277,"lon":5.377108,"is_reserved":false,"is_disabled":false,"rental_uris":{"android":"levelo://app?vid=02ee66e7-84c8-42d7-99d5-08863fa55fec","ios":"levelo://app?vid=02ee66e7-84c8-42d7-99d5-08863fa55fec"},"vehicle_type_id":"4","last_reported":1714755994,"current_range_meters":1200,"station_id":"ce4bgi92rcd13ifvqb90","pricing_plan_id":"cebpf4jnsgd1na2vs0mg"},{"bike_id":"13145247-27d3-49b2-8282-ca53b48e55f7","system_id":"levelo_inurba_marseille","lat":43.295279,"lon":5.375048,"is_reserved":false,"is_disabled":false,"rental_uris":{"android":"levelo://app?vid=13145247-27d3-49b2-8282-ca53b48e55f7","ios":"levelo://app?vid=13145247-27d3-49b2-8282-ca53b48e55f7"},"vehicle_type_id":"4","last_reported":1714755994,"current_range_meters":18800,"station_id":"ce4bgkp2rcd13ifvqbmg","pricing_plan_id":"cebpf4jnsgd1na2vs0mg"},{"bike_id":"bc9419a8-b5d5-42cc-847c-73bccec48e72","system_id":"levelo_inurba_marseille","lat":43.299707,"lon":5.384859,"is_reserved":false,"is_disabled":false,"rental_uris":{"android":"levelo://app?vid=bc9419a8-b5d5-42cc-847c-73bccec48e72","ios":"levelo://app?vid=bc9419a8-b5d5-42cc-847c-73bccec48e72"},"vehicle_type_id":"4","last_reported":1714755994,"current_range_meters":1200,"station_id":"ce4bgj92rcd13ifvqbd0","pricing_plan_id":"cebpf4jnsgd1na2vs0mg"},{"bike_id":"3e8ff4e3-2235-4b8f-ab3a-7d8277a83cf1","system_id":"levelo_inurba_marseille","lat":43.299707,"lon":5.384859,"is_reserved":false,"is_disabled":false,"rental_uris":{"android":"levelo://app?vid=3e8ff4e3-2235-4b8f-ab3a-7d8277a83cf1","ios":"levelo://app?vid=3e8ff4e3-2235-4b8f-ab3a-7d8277a83cf1"},"vehicle_type_id":"4","last_reported":1714755994,"current_range_meters":10800,"station_id":"ce4bgj92rcd13ifvqbd0","pricing_plan_id":"cebpf4jnsgd1na2vs0mg"},{"bike_id":"6e0f4c94-9604-4057-8ebc-3b312f5351aa","system_id":"levelo_inurba_marseille","lat":43.295279,"lon":5.375048,"is_reserved":false,"is_disabled":false,"rental_uris":{"android":"levelo://app?vid=6e0f4c94-9604-4057-8ebc-3b312f5351aa","ios":"levelo://app?vid=6e0f4c94-9604-4057-8ebc-3b312f5351aa"},"vehicle_type_id":"4","last_reported":1714755994,"current_range_meters":29200,"station_id":"ce4bgkp2rcd13ifvqbmg","pricing_plan_id":"cebpf4jnsgd1na2vs0mg"},{"bike_id":"938fd8ab-bb98-4215-8c5e-15efe1da9371","system_id":"levelo_inurba_marseille","lat":43.29978,"lon":5.38498,"is_reserved":false,"is_disabled":false,"rental_uris":{"android":"levelo://app?vid=938fd8ab-bb98-4215-8c5e-15efe1da9371","ios":"levelo://app?vid=938fd8ab-bb98-4215-8c5e-15efe1da9371"},"vehicle_type_id":"4","last_reported":1714755994,"current_range_meters":0,"station_id":"ce4bgj92rcd13ifvqbd0","pricing_plan_id":"cebpf4jnsgd1na2vs0mg"},{"bike_id":"8e0827ab-7599-4706-8bcd-184f35f7f7bd","system_id":"levelo_inurba_marseille","lat":43.295279,"lon":5.375048,"is_reserved":false,"is_disabled":false,"rental_uris":{"android":"levelo://app?vid=8e0827ab-7599-4706-8bcd-184f35f7f7bd","ios":"levelo://app?vid=8e0827ab-7599-4706-8bcd-184f35f7f7bd"},"vehicle_type_id":"4","last_reported":1714755994,"current_range_meters":22800,"station_id":"ce4bgkp2rcd13ifvqbmg","pricing_plan_id":"cebpf4jnsgd1na2vs0mg"},{"bike_id":"00bdb618-5ecb-455e-81a3-2cb9eedc6a15","system_id":"levelo_inurba_marseille","lat":43.299707,"lon":5.384859,"is_reserved":false,"is_disabled":false,"rental_uris":{"android":"levelo://app?vid=00bdb618-5ecb-455e-81a3-2cb9eedc6a15","ios":"levelo://app?vid=00bdb618-5ecb-455e-81a3-2cb9eedc6a15"},"vehicle_type_id":"4","last_reported":1714755994,"current_range_meters":10800,"station_id":"ce4bgj92rcd13ifvqbd0","pricing_plan_id":"cebpf4jnsgd1na2vs0mg"},{"bike_id":"22c37ef8-2c97-4353-8430-6f5778868d91","system_id":"levelo_inurba_marseille","lat":43.295279,"lon":5.375048,"is_reserved":false,"is_disabled":false,"rental_uris":{"android":"levelo://app?vid=22c37ef8-2c97-4353-8430-6f5778868d91","ios":"levelo://app?vid=22c37ef8-2c97-4353-8430-6f5778868d91"},"vehicle_type_id":"4","last_reported":1714755994,"current_range_meters":3600,"station_id":"ce4bgkp2rcd13ifvqbmg","pricing_plan_id":"cebpf4jnsgd1na2vs0mg"},{"bike_id":"5d9ea168-7a22-4d93-bdf6-a251d9b4dfab","system_id":"levelo_inurba_marseille","lat":43.299724,"lon":5.384848,"is_reserved":false,"is_disabled":false,"rental_uris":{"android":"levelo://app?vid=5d9ea168-7a22-4d93-bdf6-a251d9b4dfab","ios":"levelo://app?vid=5d9ea168-7a22-4d93-bdf6-a251d9b4dfab"},"vehicle_type_id":"4","last_reported":1714755994,"current_range_meters":400,"station_id":"ce4bgj92rcd13ifvqbd0","pricing_plan_id":"cebpf4jnsgd1na2vs0mg"},{"bike_id":"17dfba97-34a8-4d4a-b476-fdff534197c0","system_id":"levelo_inurba_marseille","lat":43.295279,"lon":5.375048,"is_reserved":false,"is_disabled":false,"rental_uris":{"android":"levelo://app?vid=17dfba97-34a8-4d4a-b476-fdff534197c0","ios":"levelo://app?vid=17dfba97-34a8-4d4a-b476-fdff534197c0"},"vehicle_type_id":"4","last_reported":1714755994,"current_range_meters":31200,"station_id":"ce4bgkp2rcd13ifvqbmg","pricing_plan_id":"cebpf4jnsgd1na2vs0mg"},{"bike_id":"92425524-b7b2-47ff-82a5-7f6325292ee7","system_id":"levelo_inurba_marseille","lat":43.29512,"lon":5.37496,"is_reserved":false,"is_disabled":false,"rental_uris":{"android":"levelo://app?vid=92425524-b7b2-47ff-82a5-7f6325292ee7","ios":"levelo://app?vid=92425524-b7b2-47ff-82a5-7f6325292ee7"},"vehicle_type_id":"4","last_reported":1714755994,"current_range_meters":800,"station_id":"ce4bgkp2rcd13ifvqbmg","pricing_plan_id":"cebpf4jnsgd1na2vs0mg"},{"bike_id":"b89bf782-7813-43e4-bdf4-b4e34aff1cdd","system_id":"levelo_inurba_marseille","lat":43.29963,"lon":5.38499,"is_reserved":false,"is_disabled":false,"rental_uris":{"android":"levelo://app?vid=b89bf782-7813-43e4-bdf4-b4e34aff1cdd","ios":"levelo://app?vid=b89bf782-7813-43e4-bdf4-b4e34aff1cdd"},"vehicle_type_id":"4","last_reported":1714755994,"current_range_meters":0,"station_id":"ce4bgj92rcd13ifvqbd0","pricing_plan_id":"cebpf4jnsgd1na2vs0mg"},{"bike_id":"93595a34-8960-406b-9a4c-f4ae1d0751b9","system_id":"levelo_inurba_marseille","lat":43.2951,"lon":5.37494,"is_reserved":false,"is_disabled":false,"rental_uris":{"android":"levelo://app?vid=93595a34-8960-406b-9a4c-f4ae1d0751b9","ios":"levelo://app?vid=93595a34-8960-406b-9a4c-f4ae1d0751b9"},"vehicle_type_id":"4","last_reported":1714755994,"current_range_meters":8800,"station_id":"ce4bgkp2rcd13ifvqbmg","pricing_plan_id":"cebpf4jnsgd1na2vs0mg"},{"bike_id":"6ca3ecbe-04c1-4718-8272-e457db4d8246","system_id":"levelo_inurba_marseille","lat":43.295279,"lon":5.375048,"is_reserved":false,"is_disabled":false,"rental_uris":{"android":"levelo://app?vid=6ca3ecbe-04c1-4718-8272-e457db4d8246","ios":"levelo://app?vid=6ca3ecbe-04c1-4718-8272-e457db4d8246"},"vehicle_type_id":"4","last_reported":1714755994,"current_range_meters":16000,"station_id":"ce4bgkp2rcd13ifvqbmg","pricing_plan_id":"cebpf4jnsgd1na2vs0mg"},{"bike_id":"22b37f3b-f64d-4a7f-bd47-1f4bb120655c","system_id":"levelo_inurba_marseille","lat":43.31405,"lon":5.3927,"is_reserved":false,"is_disabled":false,"rental_uris":{"android":"levelo://app?vid=22b37f3b-f64d-4a7f-bd47-1f4bb120655c","ios":"levelo://app?vid=22b37f3b-f64d-4a7f-bd47-1f4bb120655c"},"vehicle_type_id":"4","last_reported":1714755994,"current_range_meters":4000,"station_id":"","pricing_plan_id":"cebpf4jnsgd1na2vs0mg"},{"bike_id":"2f12e5ea-72ee-43f5-843f-ca3280c16c29","system_id":"levelo_inurba_marseille","lat":43.29602,"lon":5.381084,"is_reserved":false,"is_disabled":false,"rental_uris":{"android":"levelo://app?vid=2f12e5ea-72ee-43f5-843f-ca3280c16c29","ios":"levelo://app?vid=2f12e5ea-72ee-43f5-843f-ca3280c16c29"},"vehicle_type_id":"4","last_reported":1714755994,"current_range_meters":16000,"station_id":"ce4bgl12rcd13ifvqbo0","pricing_plan_id":"cebpf4jnsgd1na2vs0mg"},{"bike_id":"ef0e7b79-3d6a-4667-b55e-be3cafffcbd5","system_id":"levelo_inurba_marseille","lat":43.29602,"lon":5.381084,"is_reserved":false,"is_disabled":false,"rental_uris":{"android":"levelo://app?vid=ef0e7b79-3d6a-4667-b55e-be3cafffcbd5","ios":"levelo://app?vid=ef0e7b79-3d6a-4667-b55e-be3cafffcbd5"},"vehicle_type_id":"4","last_reported":1714755994,"current_range_meters":8800,"station_id":"ce4bgl12rcd13ifvqbo0","pricing_plan_id":"cebpf4jnsgd1na2vs0mg"},{"bike_id":"681ec7ba-0269-44c2-911f-8c2ef6ac7a66","system_id":"levelo_inurba_marseille","lat":43.29602,"lon":5.381084,"is_reserved":false,"is_disabled":false,"rental_uris":{"android":"levelo://app?vid=681ec7ba-0269-44c2-911f-8c2ef6ac7a66","ios":"levelo://app?vid=681ec7ba-0269-44c2-911f-8c2ef6ac7a66"},"vehicle_type_id":"4","last_reported":1714755994,"current_range_meters":5200,"station_id":"ce4bgl12rcd13ifvqbo0","pricing_plan_id":"cebpf4jnsgd1na2vs0mg"},{"bike_id":"99a22e03-2aff-479d-b632-4daa13ee445f","system_id":"levelo_inurba_marseille","lat":43.29602,"lon":5.381084,"is_reserved":false,"is_disabled":false,"rental_uris":{"android":"levelo://app?vid=99a22e03-2aff-479d-b632-4daa13ee445f","ios":"levelo://app?vid=99a22e03-2aff-479d-b632-4daa13ee445f"},"vehicle_type_id":"4","last_reported":1714755994,"current_range_meters":4800,"station_id":"ce4bgl12rcd13ifvqbo0","pricing_plan_id":"cebpf4jnsgd1na2vs0mg"},{"bike_id":"2e10510e-3c0f-4cca-b2cf-b7d6d79cce0f","system_id":"levelo_inurba_marseille","lat":43.29602,"lon":5.381084,"is_reserved":false,"is_disabled":false,"rental_uris":{"android":"levelo://app?vid=2e10510e-3c0f-4cca-b2cf-b7d6d79cce0f","ios":"levelo://app?vid=2e10510e-3c0f-4cca-b2cf-b7d6d79cce0f"},"vehicle_type_id":"4","last_reported":1714755994,"current_range_meters":0,"station_id":"ce4bgl12rcd13ifvqbo0","pricing_plan_id":"cebpf4jnsgd1na2vs0mg"},{"bike_id":"d3a15830-739f-419c-bcd1-961ca1813408","system_id":"levelo_inurba_marseille","lat":43.29602,"lon":5.381084,"is_reserved":false,"is_disabled":false,"rental_uris":{"android":"levelo://app?vid=d3a15830-739f-419c-bcd1-961ca1813408","ios":"levelo://app?vid=d3a15830-739f-419c-bcd1-961ca1813408"},"vehicle_type_id":"4","last_reported":1714755994,"current_range_meters":21200,"station_id":"ce4bgl12rcd13ifvqbo0","pricing_plan_id":"cebpf4jnsgd1na2vs0mg"},{"bike_id":"e22d3eea-1c89-42a4-9a61-58afae61c526","system_id":"levelo_inurba_marseille","lat":43.29596,"lon":5.3811,"is_reserved":false,"is_disabled":false,"rental_uris":{"android":"levelo://app?vid=e22d3eea-1c89-42a4-9a61-58afae61c526","ios":"levelo://app?vid=e22d3eea-1c89-42a4-9a61-58afae61c526"},"vehicle_type_id":"4","last_reported":1714755994,"current_range_meters":1200,"station_id":"ce4bgl12rcd13ifvqbo0","pricing_plan_id":"cebpf4jnsgd1na2vs0mg"},{"bike_id":"12f2b0e7-d427-41c0-bc9d-c4da780bb370","system_id":"levelo_inurba_marseille","lat":43.2931,"lon":5.37169,"is_reserved":false,"is_disabled":false,"rental_uris":{"android":"levelo://app?vid=12f2b0e7-d427-41c0-bc9d-c4da780bb370","ios":"levelo://app?vid=12f2b0e7-d427-41c0-bc9d-c4da780bb370"},"vehicle_type_id":"4","last_reported":1714755994,"current_range_meters":0,"station_id":"ce4bgh92rcd13ifvqb40","pricing_plan_id":"cebpf4jnsgd1na2vs0mg"},{"bike_id":"600467be-dcef-4afe-9f5a-b0e786276c85","system_id":"levelo_inurba_marseille","lat":43.29314,"lon":5.372,"is_reserved":false,"is_disabled":false,"rental_uris":{"android":"levelo://app?vid=600467be-dcef-4afe-9f5a-b0e786276c85","ios":"levelo://app?vid=600467be-dcef-4afe-9f5a-b0e786276c85"},"vehicle_type_id":"4","last_reported":1714755994,"current_range_meters":1600,"station_id":"ce4bgh92rcd13ifvqb40","pricing_plan_id":"cebpf4jnsgd1na2vs0mg"},{"bike_id":"59f0bd85-f5a4-4bef-b9b0-224b4361f85b","system_id":"levelo_inurba_marseille","lat":43.29312,"lon":5.37187,"is_reserved":false,"is_disabled":false,"rental_uris":{"android":"levelo://app?vid=59f0bd85-f5a4-4bef-b9b0-224b4361f85b","ios":"levelo://app?vid=59f0bd85-f5a4-4bef-b9b0-224b4361f85b"},"vehicle_type_id":"4","last_reported":1714755994,"current_range_meters":5200,"station_id":"ce4bgh92rcd13ifvqb40","pricing_plan_id":"cebpf4jnsgd1na2vs0mg"},{"bike_id":"6cacbcbf-5edf-4a37-a599-24f33395497d","system_id":"levelo_inurba_marseille","lat":43.29309,"lon":5.37173,"is_reserved":false,"is_disabled":false,"rental_uris":{"android":"levelo://app?vid=6cacbcbf-5edf-4a37-a599-24f33395497d","ios":"levelo://app?vid=6cacbcbf-5edf-4a37-a599-24f33395497d"},"vehicle_type_id":"4","last_reported":1714755994,"current_range_meters":29200,"station_id":"ce4bgh92rcd13ifvqb40","pricing_plan_id":"cebpf4jnsgd1na2vs0mg"},{"bike_id":"edc931eb-5df2-4dcf-b3b4-fff21e6dcf94","system_id":"levelo_inurba_marseille","lat":43.2928,"lon":5.36844,"is_reserved":false,"is_disabled":false,"rental_uris":{"android":"levelo://app?vid=edc931eb-5df2-4dcf-b3b4-fff21e6dcf94","ios":"levelo://app?vid=edc931eb-5df2-4dcf-b3b4-fff21e6dcf94"},"vehicle_type_id":"4","last_reported":1714755994,"current_range_meters":16400,"station_id":"ce4bhbp2rcd13ifvqesg","pricing_plan_id":"cebpf4jnsgd1na2vs0mg"},{"bike_id":"802764d5-d2a9-4f4b-ab5b-589307dcd0f9","system_id":"levelo_inurba_marseille","lat":43.29307,"lon":5.37171,"is_reserved":false,"is_disabled":false,"rental_uris":{"android":"levelo://app?vid=802764d5-d2a9-4f4b-ab5b-589307dcd0f9","ios":"levelo://app?vid=802764d5-d2a9-4f4b-ab5b-589307dcd0f9"},"vehicle_type_id":"4","last_reported":1714755994,"current_range_meters":7600,"station_id":"ce4bgh92rcd13ifvqb40","pricing_plan_id":"cebpf4jnsgd1na2vs0mg"},{"bike_id":"4fd0be7c-8747-4653-85ef-55ac8dfac8cc","system_id":"levelo_inurba_marseille","lat":43.29308,"lon":5.37182,"is_reserved":false,"is_disabled":false,"rental_uris":{"android":"levelo://app?vid=4fd0be7c-8747-4653-85ef-55ac8dfac8cc","ios":"levelo://app?vid=4fd0be7c-8747-4653-85ef-55ac8dfac8cc"},"vehicle_type_id":"4","last_reported":1714755994,"current_range_meters":4000,"station_id":"ce4bgh92rcd13ifvqb40","pricing_plan_id":"cebpf4jnsgd1na2vs0mg"},{"bike_id":"0a63b018-3797-4eef-aef7-d978372db174","system_id":"levelo_inurba_marseille","lat":43.29278,"lon":5.36837,"is_reserved":false,"is_disabled":false,"rental_uris":{"android":"levelo://app?vid=0a63b018-3797-4eef-aef7-d978372db174","ios":"levelo://app?vid=0a63b018-3797-4eef-aef7-d978372db174"},"vehicle_type_id":"4","last_reported":1714755994,"current_range_meters":16000,"station_id":"ce4bhbp2rcd13ifvqesg","pricing_plan_id":"cebpf4jnsgd1na2vs0mg"},{"bike_id":"babf1a20-8bf0-4eeb-8362-9139786e002f","system_id":"levelo_inurba_marseille","lat":43.29278,"lon":5.3684,"is_reserved":false,"is_disabled":false,"rental_uris":{"android":"levelo://app?vid=babf1a20-8bf0-4eeb-8362-9139786e002f","ios":"levelo://app?vid=babf1a20-8bf0-4eeb-8362-9139786e002f"},"vehicle_type_id":"4","last_reported":1714755994,"current_range_meters":4000,"station_id":"ce4bhbp2rcd13ifvqesg","pricing_plan_id":"cebpf4jnsgd1na2vs0mg"},{"bike_id":"b3bb1d1d-ca6c-4c04-9a39-ba9d720066bb","system_id":"levelo_inurba_marseille","lat":43.292749,"lon":5.368398,"is_reserved":false,"is_disabled":false,"rental_uris":{"android":"levelo://app?vid=b3bb1d1d-ca6c-4c04-9a39-ba9d720066bb","ios":"levelo://app?vid=b3bb1d1d-ca6c-4c04-9a39-ba9d720066bb"},"vehicle_type_id":"4","last_reported":1714755994,"current_range_meters":1600,"station_id":"ce4bhbp2rcd13ifvqesg","pricing_plan_id":"cebpf4jnsgd1na2vs0mg"},{"bike_id":"f39f48bf-effe-4c99-b875-7028136ea6f0","system_id":"levelo_inurba_marseille","lat":43.29306,"lon":5.37179,"is_reserved":false,"is_disabled":false,"rental_uris":{"android":"levelo://app?vid=f39f48bf-effe-4c99-b875-7028136ea6f0","ios":"levelo://app?vid=f39f48bf-effe-4c99-b875-7028136ea6f0"},"vehicle_type_id":"4","last_reported":1714755994,"current_range_meters":20800,"station_id":"ce4bgh92rcd13ifvqb40","pricing_plan_id":"cebpf4jnsgd1na2vs0mg"},{"bike_id":"a53b4e41-337e-4792-b0f2-9740d2ad867b","system_id":"levelo_inurba_marseille","lat":43.29303,"lon":5.37162,"is_reserved":false,"is_disabled":false,"rental_uris":{"android":"levelo://app?vid=a53b4e41-337e-4792-b0f2-9740d2ad867b","ios":"levelo://app?vid=a53b4e41-337e-4792-b0f2-9740d2ad867b"},"vehicle_type_id":"4","last_reported":1714755994,"current_range_meters":0,"station_id":"ce4bgh92rcd13ifvqb40","pricing_plan_id":"cebpf4jnsgd1na2vs0mg"},{"bike_id":"81c78049-531c-4c21-9e76-fdd603479f76","system_id":"levelo_inurba_marseille","lat":43.29305,"lon":5.37182,"is_reserved":false,"is_disabled":false,"rental_uris":{"android":"levelo://app?vid=81c78049-531c-4c21-9e76-fdd603479f76","ios":"levelo://app?vid=81c78049-531c-4c21-9e76-fdd603479f76"},"vehicle_type_id":"4","last_reported":1714755994,"current_range_meters":1600,"station_id":"ce4bgh92rcd13ifvqb40","pricing_plan_id":"cebpf4jnsgd1na2vs0mg"},{"bike_id":"87565ee2-7bd6-4ac2-87e3-c1dbf298bbed","system_id":"levelo_inurba_marseille","lat":43.29276,"lon":5.36847,"is_reserved":false,"is_disabled":false,"rental_uris":{"android":"levelo://app?vid=87565ee2-7bd6-4ac2-87e3-c1dbf298bbed","ios":"levelo://app?vid=87565ee2-7bd6-4ac2-87e3-c1dbf298bbed"},"vehicle_type_id":"4","last_reported":1714755994,"current_range_meters":14800,"station_id":"ce4bhbp2rcd13ifvqesg","pricing_plan_id":"cebpf4jnsgd1na2vs0mg"},{"bike_id":"fda48e49-eae9-4203-8d7a-e31285ee5b8f","system_id":"levelo_inurba_marseille","lat":43.29302,"lon":5.37169,"is_reserved":false,"is_disabled":false,"rental_uris":{"android":"levelo://app?vid=fda48e49-eae9-4203-8d7a-e31285ee5b8f","ios":"levelo://app?vid=fda48e49-eae9-4203-8d7a-e31285ee5b8f"},"vehicle_type_id":"4","last_reported":1714755994,"current_range_meters":5600,"station_id":"ce4bgh92rcd13ifvqb40","pricing_plan_id":"cebpf4jnsgd1na2vs0mg"},{"bike_id":"9eb6cfd4-91be-4053-bf11-b9859da798fb","system_id":"levelo_inurba_marseille","lat":43.292749,"lon":5.368398,"is_reserved":false,"is_disabled":false,"rental_uris":{"android":"levelo://app?vid=9eb6cfd4-91be-4053-bf11-b9859da798fb","ios":"levelo://app?vid=9eb6cfd4-91be-4053-bf11-b9859da798fb"},"vehicle_type_id":"4","last_reported":1714755994,"current_range_meters":15200,"station_id":"ce4bhbp2rcd13ifvqesg","pricing_plan_id":"cebpf4jnsgd1na2vs0mg"},{"bike_id":"09f7cb5d-9edd-47d2-a04e-f1b90dc48fc4","system_id":"levelo_inurba_marseille","lat":43.29271,"lon":5.36851,"is_reserved":false,"is_disabled":false,"rental_uris":{"android":"levelo://app?vid=09f7cb5d-9edd-47d2-a04e-f1b90dc48fc4","ios":"levelo://app?vid=09f7cb5d-9edd-47d2-a04e-f1b90dc48fc4"},"vehicle_type_id":"4","last_reported":1714755994,"current_range_meters":30000,"station_id":"ce4bhbp2rcd13ifvqesg","pricing_plan_id":"cebpf4jnsgd1na2vs0mg"},{"bike_id":"5d019507-8bdc-44e4-91ba-d66a497aee56","system_id":"levelo_inurba_marseille","lat":43.29269,"lon":5.36842,"is_reserved":false,"is_disabled":false,"rental_uris":{"android":"levelo://app?vid=5d019507-8bdc-44e4-91ba-d66a497aee56","ios":"levelo://app?vid=5d019507-8bdc-44e4-91ba-d66a497aee56"},"vehicle_type_id":"4","last_reported":1714755994,"current_range_meters":11600,"station_id":"ce4bhbp2rcd13ifvqesg","pricing_plan_id":"cebpf4jnsgd1na2vs0mg"},{"bike_id":"dc77257c-7963-4bf2-8c56-db9617a82a24","system_id":"levelo_inurba_marseille","lat":43.29267,"lon":5.36844,"is_reserved":false,"is_disabled":false,"rental_uris":{"android":"levelo://app?vid=dc77257c-7963-4bf2-8c56-db9617a82a24","ios":"levelo://app?vid=dc77257c-7963-4bf2-8c56-db9617a82a24"},"vehicle_type_id":"4","last_reported":1714755994,"current_range_meters":18400,"station_id":"ce4bhbp2rcd13ifvqesg","pricing_plan_id":"cebpf4jnsgd1na2vs0mg"},{"bike_id":"38087ce9-b07b-4f49-8e9c-73ed4319f1f7","system_id":"levelo_inurba_marseille","lat":43.29265,"lon":5.36857,"is_reserved":false,"is_disabled":false,"rental_uris":{"android":"levelo://app?vid=38087ce9-b07b-4f49-8e9c-73ed4319f1f7","ios":"levelo://app?vid=38087ce9-b07b-4f49-8e9c-73ed4319f1f7"},"vehicle_type_id":"4","last_reported":1714755994,"current_range_meters":15600,"station_id":"ce4bhbp2rcd13ifvqesg","pricing_plan_id":"cebpf4jnsgd1na2vs0mg"},{"bike_id":"8b3fc83e-7d43-4843-a275-cda605ea6660","system_id":"levelo_inurba_marseille","lat":43.293009,"lon":5.374584,"is_reserved":false,"is_disabled":false,"rental_uris":{"android":"levelo://app?vid=8b3fc83e-7d43-4843-a275-cda605ea6660","ios":"levelo://app?vid=8b3fc83e-7d43-4843-a275-cda605ea6660"},"vehicle_type_id":"4","last_reported":1714755994,"current_range_meters":22400,"station_id":"ce4bgi12rcd13ifvqb70","pricing_plan_id":"cebpf4jnsgd1na2vs0mg"},{"bike_id":"84d34504-72d3-4c24-ba0e-55396c1cc626","system_id":"levelo_inurba_marseille","lat":43.295279,"lon":5.375048,"is_reserved":false,"is_disabled":false,"rental_uris":{"android":"levelo://app?vid=84d34504-72d3-4c24-ba0e-55396c1cc626","ios":"levelo://app?vid=84d34504-72d3-4c24-ba0e-55396c1cc626"},"vehicle_type_id":"4","last_reported":1714755994,"current_range_meters":13200,"station_id":"ce4bgkp2rcd13ifvqbmg","pricing_plan_id":"cebpf4jnsgd1na2vs0mg"},{"bike_id":"f15ec747-4f3d-491b-81f9-70307058cf77","system_id":"levelo_inurba_marseille","lat":43.305994,"lon":5.393687,"is_reserved":false,"is_disabled":false,"rental_uris":{"android":"levelo://app?vid=f15ec747-4f3d-491b-81f9-70307058cf77","ios":"levelo://app?vid=f15ec747-4f3d-491b-81f9-70307058cf77"},"vehicle_type_id":"4","last_reported":1714755994,"current_range_meters":26800,"station_id":"ce4bh0p2rcd13ifvqd80","pricing_plan_id":"cebpf4jnsgd1na2vs0mg"},{"bike_id":"1c8abc24-1901-4a7a-a1c3-685f0a761f90","system_id":"levelo_inurba_marseille","lat":43.293009,"lon":5.374584,"is_reserved":false,"is_disabled":false,"rental_uris":{"android":"levelo://app?vid=1c8abc24-1901-4a7a-a1c3-685f0a761f90","ios":"levelo://app?vid=1c8abc24-1901-4a7a-a1c3-685f0a761f90"},"vehicle_type_id":"4","last_reported":1714755994,"current_range_meters":0,"station_id":"ce4bgi12rcd13ifvqb70","pricing_plan_id":"cebpf4jnsgd1na2vs0mg"},{"bike_id":"2ba36697-5700-4169-83f3-0182f95fd2f3","system_id":"levelo_inurba_marseille","lat":43.30592,"lon":5.39359,"is_reserved":false,"is_disabled":false,"rental_uris":{"android":"levelo://app?vid=2ba36697-5700-4169-83f3-0182f95fd2f3","ios":"levelo://app?vid=2ba36697-5700-4169-83f3-0182f95fd2f3"},"vehicle_type_id":"4","last_reported":1714755994,"current_range_meters":20400,"station_id":"ce4bh0p2rcd13ifvqd80","pricing_plan_id":"cebpf4jnsgd1na2vs0mg"},{"bike_id":"1198bd20-78f7-4ac4-8585-ea9056e4be69","system_id":"levelo_inurba_marseille","lat":43.303002,"lon":5.392142,"is_reserved":false,"is_disabled":false,"rental_uris":{"android":"levelo://app?vid=1198bd20-78f7-4ac4-8585-ea9056e4be69","ios":"levelo://app?vid=1198bd20-78f7-4ac4-8585-ea9056e4be69"},"vehicle_type_id":"4","last_reported":1714755994,"current_range_meters":12800,"station_id":"ce4bgkh2rcd13ifvqbk0","pricing_plan_id":"cebpf4jnsgd1na2vs0mg"},{"bike_id":"3b9d08bb-1b55-42a6-afe7-eb04ae251396","system_id":"levelo_inurba_marseille","lat":43.2929,"lon":5.3746,"is_reserved":false,"is_disabled":false,"rental_uris":{"android":"levelo://app?vid=3b9d08bb-1b55-42a6-afe7-eb04ae251396","ios":"levelo://app?vid=3b9d08bb-1b55-42a6-afe7-eb04ae251396"},"vehicle_type_id":"4","last_reported":1714755994,"current_range_meters":0,"station_id":"ce4bgi12rcd13ifvqb70","pricing_plan_id":"cebpf4jnsgd1na2vs0mg"},{"bike_id":"5145adf1-74b2-4ea3-b0b3-c4764cee3ea1","system_id":"levelo_inurba_marseille","lat":43.293009,"lon":5.374584,"is_reserved":false,"is_disabled":false,"rental_uris":{"android":"levelo://app?vid=5145adf1-74b2-4ea3-b0b3-c4764cee3ea1","ios":"levelo://app?vid=5145adf1-74b2-4ea3-b0b3-c4764cee3ea1"},"vehicle_type_id":"4","last_reported":1714755994,"current_range_meters":0,"station_id":"ce4bgi12rcd13ifvqb70","pricing_plan_id":"cebpf4jnsgd1na2vs0mg"},{"bike_id":"ffff8f5f-bfb5-4b64-8441-655586534757","system_id":"levelo_inurba_marseille","lat":43.293009,"lon":5.374584,"is_reserved":false,"is_disabled":false,"rental_uris":{"android":"levelo://app?vid=ffff8f5f-bfb5-4b64-8441-655586534757","ios":"levelo://app?vid=ffff8f5f-bfb5-4b64-8441-655586534757"},"vehicle_type_id":"4","last_reported":1714755994,"current_range_meters":27200,"station_id":"ce4bgi12rcd13ifvqb70","pricing_plan_id":"cebpf4jnsgd1na2vs0mg"},{"bike_id":"60c49f6c-0016-4ed3-bea0-d363484c0c91","system_id":"levelo_inurba_marseille","lat":43.302992,"lon":5.392136,"is_reserved":false,"is_disabled":false,"rental_uris":{"android":"levelo://app?vid=60c49f6c-0016-4ed3-bea0-d363484c0c91","ios":"levelo://app?vid=60c49f6c-0016-4ed3-bea0-d363484c0c91"},"vehicle_type_id":"4","last_reported":1714755994,"current_range_meters":0,"station_id":"ce4bgkh2rcd13ifvqbk0","pricing_plan_id":"cebpf4jnsgd1na2vs0mg"},{"bike_id":"97d1ca0f-5513-49aa-b598-8f72950138a2","system_id":"levelo_inurba_marseille","lat":43.29274,"lon":5.37468,"is_reserved":false,"is_disabled":false,"rental_uris":{"android":"levelo://app?vid=97d1ca0f-5513-49aa-b598-8f72950138a2","ios":"levelo://app?vid=97d1ca0f-5513-49aa-b598-8f72950138a2"},"vehicle_type_id":"4","last_reported":1714755994,"current_range_meters":17600,"station_id":"ce4bgi12rcd13ifvqb70","pricing_plan_id":"cebpf4jnsgd1na2vs0mg"},{"bike_id":"a681395b-591d-48a7-8bf6-3c1b92c30039","system_id":"levelo_inurba_marseille","lat":43.293733,"lon":5.378518,"is_reserved":false,"is_disabled":false,"rental_uris":{"android":"levelo://app?vid=a681395b-591d-48a7-8bf6-3c1b92c30039","ios":"levelo://app?vid=a681395b-591d-48a7-8bf6-3c1b92c30039"},"vehicle_type_id":"4","last_reported":1714755994,"current_range_meters":0,"station_id":"ce4bgjh2rcd13ifvqbf0","pricing_plan_id":"cebpf4jnsgd1na2vs0mg"},{"bike_id":"f0b127f8-3e72-4089-aa3c-28b389a3ccd4","system_id":"levelo_inurba_marseille","lat":43.302992,"lon":5.392136,"is_reserved":false,"is_disabled":false,"rental_uris":{"android":"levelo://app?vid=f0b127f8-3e72-4089-aa3c-28b389a3ccd4","ios":"levelo://app?vid=f0b127f8-3e72-4089-aa3c-28b389a3ccd4"},"vehicle_type_id":"4","last_reported":1714755994,"current_range_meters":19600,"station_id":"ce4bgkh2rcd13ifvqbk0","pricing_plan_id":"cebpf4jnsgd1na2vs0mg"},{"bike_id":"9391e608-bad6-4fc2-8c0b-0d3b1674e381","system_id":"levelo_inurba_marseille","lat":43.29364,"lon":5.37838,"is_reserved":false,"is_disabled":false,"rental_uris":{"android":"levelo://app?vid=9391e608-bad6-4fc2-8c0b-0d3b1674e381","ios":"levelo://app?vid=9391e608-bad6-4fc2-8c0b-0d3b1674e381"},"vehicle_type_id":"4","last_reported":1714755994,"current_range_meters":30800,"station_id":"ce4bgjh2rcd13ifvqbf0","pricing_plan_id":"cebpf4jnsgd1na2vs0mg"},{"bike_id":"dbf293f3-7310-4a06-af8d-15e73e3e1d11","system_id":"levelo_inurba_marseille","lat":43.30294,"lon":5.3923,"is_reserved":false,"is_disabled":false,"rental_uris":{"android":"levelo://app?vid=dbf293f3-7310-4a06-af8d-15e73e3e1d11","ios":"levelo://app?vid=dbf293f3-7310-4a06-af8d-15e73e3e1d11"},"vehicle_type_id":"4","last_reported":1714755994,"current_range_meters":0,"station_id":"ce4bgkh2rcd13ifvqbk0","pricing_plan_id":"cebpf4jnsgd1na2vs0mg"},{"bike_id":"7d30004e-f013-44b3-912f-26af4d15c3ac","system_id":"levelo_inurba_marseille","lat":43.292311,"lon":5.360731,"is_reserved":false,"is_disabled":false,"rental_uris":{"android":"levelo://app?vid=7d30004e-f013-44b3-912f-26af4d15c3ac","ios":"levelo://app?vid=7d30004e-f013-44b3-912f-26af4d15c3ac"},"vehicle_type_id":"4","last_reported":1714755994,"current_range_meters":22400,"station_id":"ce4bhbh2rcd13ifvqeqg","pricing_plan_id":"cebpf4jnsgd1na2vs0mg"},{"bike_id":"bad364d9-d15d-4024-845b-18ad63397551","system_id":"levelo_inurba_marseille","lat":43.292311,"lon":5.360731,"is_reserved":false,"is_disabled":false,"rental_uris":{"android":"levelo://app?vid=bad364d9-d15d-4024-845b-18ad63397551","ios":"levelo://app?vid=bad364d9-d15d-4024-845b-18ad63397551"},"vehicle_type_id":"4","last_reported":1714755994,"current_range_meters":0,"station_id":"ce4bhbh2rcd13ifvqeqg","pricing_plan_id":"cebpf4jnsgd1na2vs0mg"},{"bike_id":"06b9f7fd-87a2-4e7f-83e9-7a94016a1054","system_id":"levelo_inurba_marseille","lat":43.292311,"lon":5.360731,"is_reserved":false,"is_disabled":false,"rental_uris":{"android":"levelo://app?vid=06b9f7fd-87a2-4e7f-83e9-7a94016a1054","ios":"levelo://app?vid=06b9f7fd-87a2-4e7f-83e9-7a94016a1054"},"vehicle_type_id":"4","last_reported":1714755994,"current_range_meters":0,"station_id":"ce4bhbh2rcd13ifvqeqg","pricing_plan_id":"cebpf4jnsgd1na2vs0mg"},{"bike_id":"834f637b-29c3-4293-9944-f0a258a94395","system_id":"levelo_inurba_marseille","lat":43.30085,"lon":5.390856,"is_reserved":false,"is_disabled":false,"rental_uris":{"android":"levelo://app?vid=834f637b-29c3-4293-9944-f0a258a94395","ios":"levelo://app?vid=834f637b-29c3-4293-9944-f0a258a94395"},"vehicle_type_id":"4","last_reported":1714755994,"current_range_meters":21200,"station_id":"ce4bh192rcd13ifvqdb0","pricing_plan_id":"cebpf4jnsgd1na2vs0mg"},{"bike_id":"2c76a22c-9091-475c-8c71-9a6437d9882f","system_id":"levelo_inurba_marseille","lat":43.291675,"lon":5.371583,"is_reserved":false,"is_disabled":false,"rental_uris":{"android":"levelo://app?vid=2c76a22c-9091-475c-8c71-9a6437d9882f","ios":"levelo://app?vid=2c76a22c-9091-475c-8c71-9a6437d9882f"},"vehicle_type_id":"4","last_reported":1714755994,"current_range_meters":7600,"station_id":"ce4bha92rcd13ifvqeh0","pricing_plan_id":"cebpf4jnsgd1na2vs0mg"},{"bike_id":"9747f146-ce4c-4371-929d-8614326079ac","system_id":"levelo_inurba_marseille","lat":43.291675,"lon":5.371583,"is_reserved":false,"is_disabled":false,"rental_uris":{"android":"levelo://app?vid=9747f146-ce4c-4371-929d-8614326079ac","ios":"levelo://app?vid=9747f146-ce4c-4371-929d-8614326079ac"},"vehicle_type_id":"4","last_reported":1714755994,"current_range_meters":17200,"station_id":"ce4bha92rcd13ifvqeh0","pricing_plan_id":"cebpf4jnsgd1na2vs0mg"},{"bike_id":"eddbc4ad-f9ff-43a5-a556-515b73080831","system_id":"levelo_inurba_marseille","lat":43.291671,"lon":5.371575,"is_reserved":false,"is_disabled":false,"rental_uris":{"android":"levelo://app?vid=eddbc4ad-f9ff-43a5-a556-515b73080831","ios":"levelo://app?vid=eddbc4ad-f9ff-43a5-a556-515b73080831"},"vehicle_type_id":"4","last_reported":1714755994,"current_range_meters":0,"station_id":"ce4bha92rcd13ifvqeh0","pricing_plan_id":"cebpf4jnsgd1na2vs0mg"},{"bike_id":"159c2251-0762-48c3-98dc-a977d11f9c40","system_id":"levelo_inurba_marseille","lat":43.291671,"lon":5.371575,"is_reserved":false,"is_disabled":false,"rental_uris":{"android":"levelo://app?vid=159c2251-0762-48c3-98dc-a977d11f9c40","ios":"levelo://app?vid=159c2251-0762-48c3-98dc-a977d11f9c40"},"vehicle_type_id":"4","last_reported":1714755994,"current_range_meters":30800,"station_id":"ce4bha92rcd13ifvqeh0","pricing_plan_id":"cebpf4jnsgd1na2vs0mg"},{"bike_id":"c51abd76-2731-4537-ad52-9447a927714b","system_id":"levelo_inurba_marseille","lat":43.298764,"lon":5.388973,"is_reserved":false,"is_disabled":false,"rental_uris":{"android":"levelo://app?vid=c51abd76-2731-4537-ad52-9447a927714b","ios":"levelo://app?vid=c51abd76-2731-4537-ad52-9447a927714b"},"vehicle_type_id":"4","last_reported":1714755994,"current_range_meters":20400,"station_id":"ce4bh392rcd13ifvqdl0","pricing_plan_id":"cebpf4jnsgd1na2vs0mg"},{"bike_id":"24bec04b-e52e-446a-b141-281cb58dffb7","system_id":"levelo_inurba_marseille","lat":43.291671,"lon":5.371575,"is_reserved":false,"is_disabled":false,"rental_uris":{"android":"levelo://app?vid=24bec04b-e52e-446a-b141-281cb58dffb7","ios":"levelo://app?vid=24bec04b-e52e-446a-b141-281cb58dffb7"},"vehicle_type_id":"4","last_reported":1714755994,"current_range_meters":7200,"station_id":"ce4bha92rcd13ifvqeh0","pricing_plan_id":"cebpf4jnsgd1na2vs0mg"},{"bike_id":"5ebba607-b7b6-433d-b69c-c5702dfdf1f0","system_id":"levelo_inurba_marseille","lat":43.291671,"lon":5.371575,"is_reserved":false,"is_disabled":false,"rental_uris":{"android":"levelo://app?vid=5ebba607-b7b6-433d-b69c-c5702dfdf1f0","ios":"levelo://app?vid=5ebba607-b7b6-433d-b69c-c5702dfdf1f0"},"vehicle_type_id":"4","last_reported":1714755994,"current_range_meters":22800,"station_id":"ce4bha92rcd13ifvqeh0","pricing_plan_id":"cebpf4jnsgd1na2vs0mg"},{"bike_id":"1f12f441-a44e-45ed-b104-500b18941ff4","system_id":"levelo_inurba_marseille","lat":43.298764,"lon":5.388973,"is_reserved":false,"is_disabled":false,"rental_uris":{"android":"levelo://app?vid=1f12f441-a44e-45ed-b104-500b18941ff4","ios":"levelo://app?vid=1f12f441-a44e-45ed-b104-500b18941ff4"},"vehicle_type_id":"4","last_reported":1714755994,"current_range_meters":10400,"station_id":"ce4bh392rcd13ifvqdl0","pricing_plan_id":"cebpf4jnsgd1na2vs0mg"},{"bike_id":"327fb343-a9eb-4813-959c-4865fd7a9511","system_id":"levelo_inurba_marseille","lat":43.291671,"lon":5.371575,"is_reserved":false,"is_disabled":false,"rental_uris":{"android":"levelo://app?vid=327fb343-a9eb-4813-959c-4865fd7a9511","ios":"levelo://app?vid=327fb343-a9eb-4813-959c-4865fd7a9511"},"vehicle_type_id":"4","last_reported":1714755994,"current_range_meters":14400,"station_id":"ce4bha92rcd13ifvqeh0","pricing_plan_id":"cebpf4jnsgd1na2vs0mg"},{"bike_id":"046af7bc-d242-4119-920c-df0b91a568be","system_id":"levelo_inurba_marseille","lat":43.291671,"lon":5.371575,"is_reserved":false,"is_disabled":false,"rental_uris":{"android":"levelo://app?vid=046af7bc-d242-4119-920c-df0b91a568be","ios":"levelo://app?vid=046af7bc-d242-4119-920c-df0b91a568be"},