{"last_updated":1692770957,"ttl":30,"version":"2.2","data":{"bikes":[{"bike_id":"bf515de0-e7a8-45cf-b350-3e4ec324556d","system_id":"levelo_inurba_marseille","lat":43.31341,"lon":5.367098,"is_reserved":false,"is_disabled":false,"rental_uris":{"android":"levelo://app?vid=bf515de0-e7a8-45cf-b350-3e4ec324556d","ios":"levelo://app?vid=bf515de0-e7a8-45cf-b350-3e4ec324556d"},"vehicle_type_id":"4","last_reported":1692770958,"current_range_meters":30000,"station_id":"ce4bgr92rcd13ifvqc6g","pricing_plan_id":"free"},{"bike_id":"112d3d4c-5658-4ff8-942f-0a846261844d","system_id":"levelo_inurba_marseille","lat":43.31341,"lon":5.367098,"is_reserved":false,"is_disabled":false,"rental_uris":{"android":"levelo://app?vid=112d3d4c-5658-4ff8-942f-0a846261844d","ios":"levelo://app?vid=112d3d4c-5658-4ff8-942f-0a846261844d"},"vehicle_type_id":"4","last_reported":1692770958,"current_range_meters":22400,"station_id":"ce4bgr92rcd13ifvqc6g","pricing_plan_id":"free"},{"bike_id":"3c38fae8-1d9e-4005-b196-e8e64e6913d7","system_id":"levelo_inurba_marseille","lat":43.31341,"lon":5.367098,"is_reserved":false,"is_disabled":false,"rental_uris":{"android":"levelo://app?vid=3c38fae8-1d9e-4005-b196-e8e64e6913d7","ios":"levelo://app?vid=3c38fae8-1d9e-4005-b196-e8e64e6913d7"},"vehicle_type_id":"4","last_reported":1692770958,"current_range_meters":800,"station_id":"ce4bgr92rcd13ifvqc6g","pricing_plan_id":"free"},{"bike_id":"2e3cd838-dfaa-46b4-8ba3-29af314a88fb","system_id":"levelo_inurba_marseille","lat":43.31341,"lon":5.36728,"is_reserved":false,"is_disabled":false,"rental_uris":{"android":"levelo://app?vid=2e3cd838-dfaa-46b4-8ba3-29af314a88fb","ios":"levelo://app?vid=2e3cd838-dfaa-46b4-8ba3-29af314a88fb"},"vehicle_type_id":"4","last_reported":1692770958,"current_range_meters":29600,"station_id":"ce4bgr92rcd13ifvqc6g","pricing_plan_id":"free"},{"bike_id":"ef5ea443-86f7-413c-9754-aa4c2de42c31","system_id":"levelo_inurba_marseille","lat":43.31341,"lon":5.367098,"is_reserved":false,"is_disabled":false,"rental_uris":{"android":"levelo://app?vid=ef5ea443-86f7-413c-9754-aa4c2de42c31","ios":"levelo://app?vid=ef5ea443-86f7-413c-9754-aa4c2de42c31"},"vehicle_type_id":"4","last_reported":1692770958,"current_range_meters":27600,"station_id":"ce4bgr92rcd13ifvqc6g","pricing_plan_id":"free"},{"bike_id":"d0880c3e-1759-4811-a4c7-d38f16c31f8f","system_id":"levelo_inurba_marseille","lat":43.31341,"lon":5.367098,"is_reserved":false,"is_disabled":false,"rental_uris":{"android":"levelo://app?vid=d0880c3e-1759-4811-a4c7-d38f16c31f8f","ios":"levelo://app?vid=d0880c3e-1759-4811-a4c7-d38f16c31f8f"},"vehicle_type_id":"4","last_reported":1692770958,"current_range_meters":29600,"station_id":"ce4bgr92rcd13ifvqc6g","pricing_plan_id":"free"},{"bike_id":"aa4d784c-bf83-4480-8650-05158e09ffb4","system_id":"levelo_inurba_marseille","lat":43.31341,"lon":5.367098,"is_reserved":false,"is_disabled":false,"rental_uris":{"android":"levelo://app?vid=aa4d784c-bf83-4480-8650-05158e09ffb4","ios":"levelo://app?vid=aa4d784c-bf83-4480-8650-05158e09ffb4"},"vehicle_type_id":"4","last_reported":1692770958,"current_range_meters":19600,"station_id":"ce4bgr92rcd13ifvqc6g","pricing_plan_id":"free"},{"bike_id":"7138b621-0f91-4038-98f2-88da77ae7db8","system_id":"levelo_inurba_marseille","lat":43.312239,"lon":5.368562,"is_reserved":false,"is_disabled":false,"rental_uris":{"android":"levelo://app?vid=7138b621-0f91-4038-98f2-88da77ae7db8","ios":"levelo://app?vid=7138b621-0f91-4038-98f2-88da77ae7db8"},"vehicle_type_id":"4","last_reported":1692770958,"current_range_meters":7600,"station_id":"ce4bgl92rcd13ifvqbq0","pricing_plan_id":"free"},{"bike_id":"f22ca441-4e4e-4660-b824-b2f46943e54d","system_id":"levelo_inurba_marseille","lat":43.312239,"lon":5.368562,"is_reserved":false,"is_disabled":false,"rental_uris":{"android":"levelo://app?vid=f22ca441-4e4e-4660-b824-b2f46943e54d","ios":"levelo://app?vid=f22ca441-4e4e-4660-b824-b2f46943e54d"},"vehicle_type_id":"4","last_reported":1692770958,"current_range_meters":31200,"station_id":"ce4bgl92rcd13ifvqbq0","pricing_plan_id":"free"},{"bike_id":"7da3170d-fdb9-4e5e-a56a-1703f316c303","system_id":"levelo_inurba_marseille","lat":43.309076,"lon":5.368465,"is_reserved":false,"is_disabled":false,"rental_uris":{"android":"levelo://app?vid=7da3170d-fdb9-4e5e-a56a-1703f316c303","ios":"levelo://app?vid=7da3170d-fdb9-4e5e-a56a-1703f316c303"},"vehicle_type_id":"4","last_reported":1692770958,"current_range_meters":13200,"station_id":"ce4bgn92rcd13ifvqbvg","pricing_plan_id":"free"},{"bike_id":"8b19b892-55ff-4f4a-80c3-6355c76df58b","system_id":"levelo_inurba_marseille","lat":43.309076,"lon":5.368465,"is_reserved":false,"is_disabled":false,"rental_uris":{"android":"levelo://app?vid=8b19b892-55ff-4f4a-80c3-6355c76df58b","ios":"levelo://app?vid=8b19b892-55ff-4f4a-80c3-6355c76df58b"},"vehicle_type_id":"4","last_reported":1692770958,"current_range_meters":31200,"station_id":"ce4bgn92rcd13ifvqbvg","pricing_plan_id":"free"},{"bike_id":"4b336640-f13e-4cb1-acde-19321e372b7c","system_id":"levelo_inurba_marseille","lat":43.314811,"lon":5.373103,"is_reserved":false,"is_disabled":false,"rental_uris":{"android":"levelo://app?vid=4b336640-f13e-4cb1-acde-19321e372b7c","ios":"levelo://app?vid=4b336640-f13e-4cb1-acde-19321e372b7c"},"vehicle_type_id":"4","last_reported":1692770958,"current_range_meters":31200,"station_id":"ce4bgt12rcd13ifvqcd0","pricing_plan_id":"free"},{"bike_id":"cdbf647c-6996-4d95-aad1-8cd4b89ab70f","system_id":"levelo_inurba_marseille","lat":43.314811,"lon":5.373103,"is_reserved":false,"is_disabled":false,"rental_uris":{"android":"levelo://app?vid=cdbf647c-6996-4d95-aad1-8cd4b89ab70f","ios":"levelo://app?vid=cdbf647c-6996-4d95-aad1-8cd4b89ab70f"},"vehicle_type_id":"4","last_reported":1692770958,"current_range_meters":18800,"station_id":"ce4bgt12rcd13ifvqcd0","pricing_plan_id":"free"},{"bike_id":"d2be997d-44d2-40a5-bb20-02aeaaf65fa5","system_id":"levelo_inurba_marseille","lat":43.314811,"lon":5.373103,"is_reserved":false,"is_disabled":false,"rental_uris":{"android":"levelo://app?vid=d2be997d-44d2-40a5-bb20-02aeaaf65fa5","ios":"levelo://app?vid=d2be997d-44d2-40a5-bb20-02aeaaf65fa5"},"vehicle_type_id":"4","last_reported":1692770958,"current_range_meters":31200,"station_id":"ce4bgt12rcd13ifvqcd0","pricing_plan_id":"free"},{"bike_id":"115feda4-159c-470b-9c82-5d105d49d730","system_id":"levelo_inurba_marseille","lat":43.305712,"lon":5.365641,"is_reserved":false,"is_disabled":false,"rental_uris":{"android":"levelo://app?vid=115feda4-159c-470b-9c82-5d105d49d730","ios":"levelo://app?vid=115feda4-159c-470b-9c82-5d105d49d730"},"vehicle_type_id":"4","last_reported":1692770958,"current_range_meters":3600,"station_id":"ce4bgs12rcd13ifvqcag","pricing_plan_id":"free"},{"bike_id":"1875bfe4-17ad-4849-8600-171298ee25e1","system_id":"levelo_inurba_marseille","lat":43.305368,"lon":5.367343,"is_reserved":false,"is_disabled":false,"rental_uris":{"android":"levelo://app?vid=1875bfe4-17ad-4849-8600-171298ee25e1","ios":"levelo://app?vid=1875bfe4-17ad-4849-8600-171298ee25e1"},"vehicle_type_id":"4","last_reported":1692770958,"current_range_meters":30400,"station_id":"ce4bgrp2rcd13ifvqc9g","pricing_plan_id":"free"},{"bike_id":"1fdc1537-4282-4706-be0f-d321b829fc05","system_id":"levelo_inurba_marseille","lat":43.305714,"lon":5.365633,"is_reserved":false,"is_disabled":false,"rental_uris":{"android":"levelo://app?vid=1fdc1537-4282-4706-be0f-d321b829fc05","ios":"levelo://app?vid=1fdc1537-4282-4706-be0f-d321b829fc05"},"vehicle_type_id":"4","last_reported":1692770958,"current_range_meters":31200,"station_id":"ce4bgs12rcd13ifvqcag","pricing_plan_id":"free"},{"bike_id":"fc94b2b2-b2e2-4ab1-a18c-c7d13d1bca8f","system_id":"levelo_inurba_marseille","lat":43.305714,"lon":5.365633,"is_reserved":false,"is_disabled":false,"rental_uris":{"android":"levelo://app?vid=fc94b2b2-b2e2-4ab1-a18c-c7d13d1bca8f","ios":"levelo://app?vid=fc94b2b2-b2e2-4ab1-a18c-c7d13d1bca8f"},"vehicle_type_id":"4","last_reported":1692770958,"current_range_meters":31200,"station_id":"ce4bgs12rcd13ifvqcag","pricing_plan_id":"free"},{"bike_id":"c2928a4f-bcf7-408d-a9b8-d8c40110a33e","system_id":"levelo_inurba_marseille","lat":43.305714,"lon":5.365633,"is_reserved":false,"is_disabled":false,"rental_uris":{"android":"levelo://app?vid=c2928a4f-bcf7-408d-a9b8-d8c40110a33e","ios":"levelo://app?vid=c2928a4f-bcf7-408d-a9b8-d8c40110a33e"},"vehicle_type_id":"4","last_reported":1692770958,"current_range_meters":31600,"station_id":"ce4bgs12rcd13ifvqcag","pricing_plan_id":"free"},{"bike_id":"38fa51a5-7765-4b9b-a067-7574f5639f6a","system_id":"levelo_inurba_marseille","lat":43.305714,"lon":5.365633,"is_reserved":false,"is_disabled":false,"rental_uris":{"android":"levelo://app?vid=38fa51a5-7765-4b9b-a067-7574f5639f6a","ios":"levelo://app?vid=38fa51a5-7765-4b9b-a067-7574f5639f6a"},"vehicle_type_id":"4","last_reported":1692770958,"current_range_meters":4800,"station_id":"ce4bgs12rcd13ifvqcag","pricing_plan_id":"free"},{"bike_id":"76451ae9-bca7-445b-af95-63929e1da819","system_id":"levelo_inurba_marseille","lat":43.305714,"lon":5.365633,"is_reserved":false,"is_disabled":false,"rental_uris":{"android":"levelo://app?vid=76451ae9-bca7-445b-af95-63929e1da819","ios":"levelo://app?vid=76451ae9-bca7-445b-af95-63929e1da819"},"vehicle_type_id":"4","last_reported":1692770958,"current_range_meters":31200,"station_id":"ce4bgs12rcd13ifvqcag","pricing_plan_id":"free"},{"bike_id":"f751d5a8-6935-46de-8302-8476d8a3c2ef","system_id":"levelo_inurba_marseille","lat":43.305714,"lon":5.365633,"is_reserved":false,"is_disabled":false,"rental_uris":{"android":"levelo://app?vid=f751d5a8-6935-46de-8302-8476d8a3c2ef","ios":"levelo://app?vid=f751d5a8-6935-46de-8302-8476d8a3c2ef"},"vehicle_type_id":"4","last_reported":1692770958,"current_range_meters":28000,"station_id":"ce4bgs12rcd13ifvqcag","pricing_plan_id":"free"},{"bike_id":"6ff6b4ba-c1ef-4901-89dc-18c05aca73f0","system_id":"levelo_inurba_marseille","lat":43.305368,"lon":5.367343,"is_reserved":false,"is_disabled":false,"rental_uris":{"android":"levelo://app?vid=6ff6b4ba-c1ef-4901-89dc-18c05aca73f0","ios":"levelo://app?vid=6ff6b4ba-c1ef-4901-89dc-18c05aca73f0"},"vehicle_type_id":"4","last_reported":1692770958,"current_range_meters":28000,"station_id":"ce4bgrp2rcd13ifvqc9g","pricing_plan_id":"free"},{"bike_id":"3c5a08f0-94f9-4007-ac63-3be7ce42d047","system_id":"levelo_inurba_marseille","lat":43.305368,"lon":5.367343,"is_reserved":false,"is_disabled":false,"rental_uris":{"android":"levelo://app?vid=3c5a08f0-94f9-4007-ac63-3be7ce42d047","ios":"levelo://app?vid=3c5a08f0-94f9-4007-ac63-3be7ce42d047"},"vehicle_type_id":"4","last_reported":1692770958,"current_range_meters":21600,"station_id":"ce4bgrp2rcd13ifvqc9g","pricing_plan_id":"free"},{"bike_id":"27c9635b-be6b-41a2-9f34-1bd2814bdbd9","system_id":"levelo_inurba_marseille","lat":43.305247,"lon":5.366985,"is_reserved":false,"is_disabled":false,"rental_uris":{"android":"levelo://app?vid=27c9635b-be6b-41a2-9f34-1bd2814bdbd9","ios":"levelo://app?vid=27c9635b-be6b-41a2-9f34-1bd2814bdbd9"},"vehicle_type_id":"4","last_reported":1692770958,"current_range_meters":24000,"station_id":"ce4bgr92rcd13ifvqc7g","pricing_plan_id":"free"},{"bike_id":"9fbe6e18-d192-44c2-98b5-cafb68b41aa4","system_id":"levelo_inurba_marseille","lat":43.30529,"lon":5.36551,"is_reserved":false,"is_disabled":false,"rental_uris":{"android":"levelo://app?vid=9fbe6e18-d192-44c2-98b5-cafb68b41aa4","ios":"levelo://app?vid=9fbe6e18-d192-44c2-98b5-cafb68b41aa4"},"vehicle_type_id":"4","last_reported":1692770958,"current_range_meters":24000,"station_id":"ce4bgs12rcd13ifvqcag","pricing_plan_id":"free"},{"bike_id":"768def55-b70b-4c17-908c-3407c3ea8fa8","system_id":"levelo_inurba_marseille","lat":43.30521,"lon":5.36708,"is_reserved":false,"is_disabled":false,"rental_uris":{"android":"levelo://app?vid=768def55-b70b-4c17-908c-3407c3ea8fa8","ios":"levelo://app?vid=768def55-b70b-4c17-908c-3407c3ea8fa8"},"vehicle_type_id":"4","last_reported":1692770958,"current_range_meters":25200,"station_id":"ce4bgrp2rcd13ifvqc9g","pricing_plan_id":"free"},{"bike_id":"88e1ec37-7b5d-4f97-86c5-8ce0d100d792","system_id":"levelo_inurba_marseille","lat":43.31115,"lon":5.3778,"is_reserved":false,"is_disabled":false,"rental_uris":{"android":"levelo://app?vid=88e1ec37-7b5d-4f97-86c5-8ce0d100d792","ios":"levelo://app?vid=88e1ec37-7b5d-4f97-86c5-8ce0d100d792"},"vehicle_type_id":"4","last_reported":1692770958,"current_range_meters":21200,"station_id":"ce4bgt92rcd13ifvqcg0","pricing_plan_id":"free"},{"bike_id":"a16643f9-1875-4ff1-a241-d843476ab0fd","system_id":"levelo_inurba_marseille","lat":43.311125,"lon":5.377624,"is_reserved":false,"is_disabled":false,"rental_uris":{"android":"levelo://app?vid=a16643f9-1875-4ff1-a241-d843476ab0fd","ios":"levelo://app?vid=a16643f9-1875-4ff1-a241-d843476ab0fd"},"vehicle_type_id":"4","last_reported":1692770958,"current_range_meters":23600,"station_id":"ce4bgt92rcd13ifvqcg0","pricing_plan_id":"free"},{"bike_id":"9788be56-1130-4c94-923a-5eb6eaaf99f4","system_id":"levelo_inurba_marseille","lat":43.30779,"lon":5.37652,"is_reserved":false,"is_disabled":false,"rental_uris":{"android":"levelo://app?vid=9788be56-1130-4c94-923a-5eb6eaaf99f4","ios":"levelo://app?vid=9788be56-1130-4c94-923a-5eb6eaaf99f4"},"vehicle_type_id":"4","last_reported":1692770958,"current_range_meters":28800,"station_id":"ce4bgv92rcd13ifvqcq0","pricing_plan_id":"free"},{"bike_id":"fe625659-517c-4e4e-b858-fa37794f542a","system_id":"levelo_inurba_marseille","lat":43.307945,"lon":5.376487,"is_reserved":false,"is_disabled":false,"rental_uris":{"android":"levelo://app?vid=fe625659-517c-4e4e-b858-fa37794f542a","ios":"levelo://app?vid=fe625659-517c-4e4e-b858-fa37794f542a"},"vehicle_type_id":"4","last_reported":1692770958,"current_range_meters":29200,"station_id":"ce4bgv92rcd13ifvqcq0","pricing_plan_id":"free"},{"bike_id":"996dd5ae-8b47-43a7-88b2-57c0ab5f7df6","system_id":"levelo_inurba_marseille","lat":43.30777,"lon":5.37659,"is_reserved":false,"is_disabled":false,"rental_uris":{"android":"levelo://app?vid=996dd5ae-8b47-43a7-88b2-57c0ab5f7df6","ios":"levelo://app?vid=996dd5ae-8b47-43a7-88b2-57c0ab5f7df6"},"vehicle_type_id":"4","last_reported":1692770958,"current_range_meters":5600,"station_id":"ce4bgv92rcd13ifvqcq0","pricing_plan_id":"free"},{"bike_id":"c9bcadb5-a63c-40ca-bcab-5b723515887b","system_id":"levelo_inurba_marseille","lat":43.30772,"lon":5.37655,"is_reserved":false,"is_disabled":false,"rental_uris":{"android":"levelo://app?vid=c9bcadb5-a63c-40ca-bcab-5b723515887b","ios":"levelo://app?vid=c9bcadb5-a63c-40ca-bcab-5b723515887b"},"vehicle_type_id":"4","last_reported":1692770958,"current_range_meters":17600,"station_id":"ce4bgv92rcd13ifvqcq0","pricing_plan_id":"free"},{"bike_id":"19fd6379-7911-4cb1-aa56-31483bcb621e","system_id":"levelo_inurba_marseille","lat":43.317075,"lon":5.377367,"is_reserved":false,"is_disabled":false,"rental_uris":{"android":"levelo://app?vid=19fd6379-7911-4cb1-aa56-31483bcb621e","ios":"levelo://app?vid=19fd6379-7911-4cb1-aa56-31483bcb621e"},"vehicle_type_id":"4","last_reported":1692770958,"current_range_meters":30000,"station_id":"ce4bgth2rcd13ifvqch0","pricing_plan_id":"free"},{"bike_id":"874e34a8-80c1-4d79-8e18-aa1bd38adad4","system_id":"levelo_inurba_marseille","lat":43.317065,"lon":5.377313,"is_reserved":false,"is_disabled":false,"rental_uris":{"android":"levelo://app?vid=874e34a8-80c1-4d79-8e18-aa1bd38adad4","ios":"levelo://app?vid=874e34a8-80c1-4d79-8e18-aa1bd38adad4"},"vehicle_type_id":"4","last_reported":1692770958,"current_range_meters":0,"station_id":"ce4bgth2rcd13ifvqch0","pricing_plan_id":"free"},{"bike_id":"db7db2e3-f3be-4049-b4a1-a03925836ba9","system_id":"levelo_inurba_marseille","lat":43.317075,"lon":5.377367,"is_reserved":false,"is_disabled":false,"rental_uris":{"android":"levelo://app?vid=db7db2e3-f3be-4049-b4a1-a03925836ba9","ios":"levelo://app?vid=db7db2e3-f3be-4049-b4a1-a03925836ba9"},"vehicle_type_id":"4","last_reported":1692770958,"current_range_meters":30800,"station_id":"ce4bgth2rcd13ifvqch0","pricing_plan_id":"free"},{"bike_id":"671024a4-7bf3-4e0c-bd0a-e717a6861197","system_id":"levelo_inurba_marseille","lat":43.30308,"lon":5.36899,"is_reserved":false,"is_disabled":false,"rental_uris":{"android":"levelo://app?vid=671024a4-7bf3-4e0c-bd0a-e717a6861197","ios":"levelo://app?vid=671024a4-7bf3-4e0c-bd0a-e717a6861197"},"vehicle_type_id":"4","last_reported":1692770958,"current_range_meters":18000,"station_id":"ce4bgqh2rcd13ifvqc5g","pricing_plan_id":"free"},{"bike_id":"7a3dd58f-b80e-494c-8e19-add71a60990c","system_id":"levelo_inurba_marseille","lat":43.30301,"lon":5.36886,"is_reserved":false,"is_disabled":false,"rental_uris":{"android":"levelo://app?vid=7a3dd58f-b80e-494c-8e19-add71a60990c","ios":"levelo://app?vid=7a3dd58f-b80e-494c-8e19-add71a60990c"},"vehicle_type_id":"4","last_reported":1692770958,"current_range_meters":31200,"station_id":"ce4bgqh2rcd13ifvqc5g","pricing_plan_id":"free"},{"bike_id":"17240a85-4e70-46f8-83cb-f2ea88218c9e","system_id":"levelo_inurba_marseille","lat":43.31535,"lon":5.38025,"is_reserved":false,"is_disabled":false,"rental_uris":{"android":"levelo://app?vid=17240a85-4e70-46f8-83cb-f2ea88218c9e","ios":"levelo://app?vid=17240a85-4e70-46f8-83cb-f2ea88218c9e"},"vehicle_type_id":"4","last_reported":1692770958,"current_range_meters":3200,"station_id":"ce4bhsp2rcd13ifvqi50","pricing_plan_id":"free"},{"bike_id":"fe7b5ce0-9067-47d8-ac97-bba599fac355","system_id":"levelo_inurba_marseille","lat":43.3019,"lon":5.36614,"is_reserved":false,"is_disabled":false,"rental_uris":{"android":"levelo://app?vid=fe7b5ce0-9067-47d8-ac97-bba599fac355","ios":"levelo://app?vid=fe7b5ce0-9067-47d8-ac97-bba599fac355"},"vehicle_type_id":"4","last_reported":1692770958,"current_range_meters":30800,"station_id":"ce4bgrh2rcd13ifvqc8g","pricing_plan_id":"free"},{"bike_id":"237c1187-0b1e-4a6a-83f3-89fcb0ea5cea","system_id":"levelo_inurba_marseille","lat":43.307921,"lon":5.38146,"is_reserved":false,"is_disabled":false,"rental_uris":{"android":"levelo://app?vid=237c1187-0b1e-4a6a-83f3-89fcb0ea5cea","ios":"levelo://app?vid=237c1187-0b1e-4a6a-83f3-89fcb0ea5cea"},"vehicle_type_id":"4","last_reported":1692770958,"current_range_meters":0,"station_id":"ce4bgt92rcd13ifvqcg0","pricing_plan_id":"free"},{"bike_id":"e0eaf9da-a727-41bd-8898-01e45206ba32","system_id":"levelo_inurba_marseille","lat":43.304606,"lon":5.379026,"is_reserved":false,"is_disabled":false,"rental_uris":{"android":"levelo://app?vid=e0eaf9da-a727-41bd-8898-01e45206ba32","ios":"levelo://app?vid=e0eaf9da-a727-41bd-8898-01e45206ba32"},"vehicle_type_id":"4","last_reported":1692770958,"current_range_meters":21200,"station_id":"ce4bgup2rcd13ifvqcn0","pricing_plan_id":"free"},{"bike_id":"dd6d1c83-8a8f-403b-b3ce-5e7ca2abfbaa","system_id":"levelo_inurba_marseille","lat":43.304606,"lon":5.379026,"is_reserved":false,"is_disabled":false,"rental_uris":{"android":"levelo://app?vid=dd6d1c83-8a8f-403b-b3ce-5e7ca2abfbaa","ios":"levelo://app?vid=dd6d1c83-8a8f-403b-b3ce-5e7ca2abfbaa"},"vehicle_type_id":"4","last_reported":1692770958,"current_range_meters":31600,"station_id":"ce4bgup2rcd13ifvqcn0","pricing_plan_id":"free"},{"bike_id":"14122601-03bf-4212-9fd6-f20417b91cd6","system_id":"levelo_inurba_marseille","lat":43.304606,"lon":5.379026,"is_reserved":false,"is_disabled":false,"rental_uris":{"android":"levelo://app?vid=14122601-03bf-4212-9fd6-f20417b91cd6","ios":"levelo://app?vid=14122601-03bf-4212-9fd6-f20417b91cd6"},"vehicle_type_id":"4","last_reported":1692770958,"current_range_meters":30400,"station_id":"ce4bgup2rcd13ifvqcn0","pricing_plan_id":"free"},{"bike_id":"1b297564-cdaf-44e6-8e91-929ec42dbd8e","system_id":"levelo_inurba_marseille","lat":43.304606,"lon":5.379026,"is_reserved":false,"is_disabled":false,"rental_uris":{"android":"levelo://app?vid=1b297564-cdaf-44e6-8e91-929ec42dbd8e","ios":"levelo://app?vid=1b297564-cdaf-44e6-8e91-929ec42dbd8e"},"vehicle_type_id":"4","last_reported":1692770958,"current_range_meters":22000,"station_id":"ce4bgup2rcd13ifvqcn0","pricing_plan_id":"free"},{"bike_id":"98ab2b44-0e70-49de-b139-00811f5002ad","system_id":"levelo_inurba_marseille","lat":43.304606,"lon":5.379026,"is_reserved":false,"is_disabled":false,"rental_uris":{"android":"levelo://app?vid=98ab2b44-0e70-49de-b139-00811f5002ad","ios":"levelo://app?vid=98ab2b44-0e70-49de-b139-00811f5002ad"},"vehicle_type_id":"4","last_reported":1692770958,"current_range_meters":28400,"station_id":"ce4bgup2rcd13ifvqcn0","pricing_plan_id":"free"},{"bike_id":"c172bc1c-0868-4a97-8963-0e760d03de15","system_id":"levelo_inurba_marseille","lat":43.304606,"lon":5.379026,"is_reserved":false,"is_disabled":false,"rental_uris":{"android":"levelo://app?vid=c172bc1c-0868-4a97-8963-0e760d03de15","ios":"levelo://app?vid=c172bc1c-0868-4a97-8963-0e760d03de15"},"vehicle_type_id":"4","last_reported":1692770958,"current_range_meters":29200,"station_id":"ce4bgup2rcd13ifvqcn0","pricing_plan_id":"free"},{"bike_id":"786d61ee-68c3-442e-a8c0-34836a6787e9","system_id":"levelo_inurba_marseille","lat":43.304606,"lon":5.379026,"is_reserved":false,"is_disabled":false,"rental_uris":{"android":"levelo://app?vid=786d61ee-68c3-442e-a8c0-34836a6787e9","ios":"levelo://app?vid=786d61ee-68c3-442e-a8c0-34836a6787e9"},"vehicle_type_id":"4","last_reported":1692770958,"current_range_meters":27600,"station_id":"ce4bgup2rcd13ifvqcn0","pricing_plan_id":"free"},{"bike_id":"28164fd7-53fa-4e73-91e4-feaf403de699","system_id":"levelo_inurba_marseille","lat":43.304606,"lon":5.379026,"is_reserved":false,"is_disabled":false,"rental_uris":{"android":"levelo://app?vid=28164fd7-53fa-4e73-91e4-feaf403de699","ios":"levelo://app?vid=28164fd7-53fa-4e73-91e4-feaf403de699"},"vehicle_type_id":"4","last_reported":1692770958,"current_range_meters":13600,"station_id":"ce4bgup2rcd13ifvqcn0","pricing_plan_id":"free"},{"bike_id":"35c24f92-7056-473e-b8bc-79df47629423","system_id":"levelo_inurba_marseille","lat":43.304606,"lon":5.379026,"is_reserved":false,"is_disabled":false,"rental_uris":{"android":"levelo://app?vid=35c24f92-7056-473e-b8bc-79df47629423","ios":"levelo://app?vid=35c24f92-7056-473e-b8bc-79df47629423"},"vehicle_type_id":"4","last_reported":1692770958,"current_range_meters":25200,"station_id":"ce4bgup2rcd13ifvqcn0","pricing_plan_id":"free"},{"bike_id":"90cc7ed8-d822-40f1-ab1b-aa20139f74fc","system_id":"levelo_inurba_marseille","lat":43.304606,"lon":5.379026,"is_reserved":false,"is_disabled":false,"rental_uris":{"android":"levelo://app?vid=90cc7ed8-d822-40f1-ab1b-aa20139f74fc","ios":"levelo://app?vid=90cc7ed8-d822-40f1-ab1b-aa20139f74fc"},"vehicle_type_id":"4","last_reported":1692770958,"current_range_meters":25200,"station_id":"ce4bgup2rcd13ifvqcn0","pricing_plan_id":"free"},{"bike_id":"27c3570a-1dde-4163-8a96-1173d3a3de87","system_id":"levelo_inurba_marseille","lat":43.304606,"lon":5.379026,"is_reserved":false,"is_disabled":false,"rental_uris":{"android":"levelo://app?vid=27c3570a-1dde-4163-8a96-1173d3a3de87","ios":"levelo://app?vid=27c3570a-1dde-4163-8a96-1173d3a3de87"},"vehicle_type_id":"4","last_reported":1692770958,"current_range_meters":31200,"station_id":"ce4bgup2rcd13ifvqcn0","pricing_plan_id":"free"},{"bike_id":"243e178c-de0c-4c43-bae5-bdccd5fa788e","system_id":"levelo_inurba_marseille","lat":43.304606,"lon":5.379026,"is_reserved":false,"is_disabled":false,"rental_uris":{"android":"levelo://app?vid=243e178c-de0c-4c43-bae5-bdccd5fa788e","ios":"levelo://app?vid=243e178c-de0c-4c43-bae5-bdccd5fa788e"},"vehicle_type_id":"4","last_reported":1692770958,"current_range_meters":10400,"station_id":"ce4bgup2rcd13ifvqcn0","pricing_plan_id":"free"},{"bike_id":"6febc082-3eeb-4752-83a6-301f0152afe1","system_id":"levelo_inurba_marseille","lat":43.304606,"lon":5.379026,"is_reserved":false,"is_disabled":false,"rental_uris":{"android":"levelo://app?vid=6febc082-3eeb-4752-83a6-301f0152afe1","ios":"levelo://app?vid=6febc082-3eeb-4752-83a6-301f0152afe1"},"vehicle_type_id":"4","last_reported":1692770958,"current_range_meters":21200,"station_id":"ce4bgup2rcd13ifvqcn0","pricing_plan_id":"free"},{"bike_id":"7905aacb-2940-43c8-9c32-a4c42e312a6e","system_id":"levelo_inurba_marseille","lat":43.304606,"lon":5.379026,"is_reserved":false,"is_disabled":false,"rental_uris":{"android":"levelo://app?vid=7905aacb-2940-43c8-9c32-a4c42e312a6e","ios":"levelo://app?vid=7905aacb-2940-43c8-9c32-a4c42e312a6e"},"vehicle_type_id":"4","last_reported":1692770958,"current_range_meters":31200,"station_id":"ce4bgup2rcd13ifvqcn0","pricing_plan_id":"free"},{"bike_id":"5fff2462-7f53-46ed-b555-51d7fa679314","system_id":"levelo_inurba_marseille","lat":43.304606,"lon":5.379026,"is_reserved":false,"is_disabled":false,"rental_uris":{"android":"levelo://app?vid=5fff2462-7f53-46ed-b555-51d7fa679314","ios":"levelo://app?vid=5fff2462-7f53-46ed-b555-51d7fa679314"},"vehicle_type_id":"4","last_reported":1692770958,"current_range_meters":31200,"station_id":"ce4bgup2rcd13ifvqcn0","pricing_plan_id":"free"},{"bike_id":"4f812d46-320b-4ec9-b226-3abfa3d968b2","system_id":"levelo_inurba_marseille","lat":43.304606,"lon":5.379026,"is_reserved":false,"is_disabled":false,"rental_uris":{"android":"levelo://app?vid=4f812d46-320b-4ec9-b226-3abfa3d968b2","ios":"levelo://app?vid=4f812d46-320b-4ec9-b226-3abfa3d968b2"},"vehicle_type_id":"4","last_reported":1692770958,"current_range_meters":31200,"station_id":"ce4bgup2rcd13ifvqcn0","pricing_plan_id":"free"},{"bike_id":"caf6d6c6-d060-47f8-8105-edb648054333","system_id":"levelo_inurba_marseille","lat":43.304606,"lon":5.379026,"is_reserved":false,"is_disabled":false,"rental_uris":{"android":"levelo://app?vid=caf6d6c6-d060-47f8-8105-edb648054333","ios":"levelo://app?vid=caf6d6c6-d060-47f8-8105-edb648054333"},"vehicle_type_id":"4","last_reported":1692770958,"current_range_meters":3200,"station_id":"ce4bgup2rcd13ifvqcn0","pricing_plan_id":"free"},{"bike_id":"597379a8-48cc-461d-9ec5-6f2be78ceca0","system_id":"levelo_inurba_marseille","lat":43.304606,"lon":5.379026,"is_reserved":false,"is_disabled":false,"rental_uris":{"android":"levelo://app?vid=597379a8-48cc-461d-9ec5-6f2be78ceca0","ios":"levelo://app?vid=597379a8-48cc-461d-9ec5-6f2be78ceca0"},"vehicle_type_id":"4","last_reported":1692770958,"current_range_meters":25600,"station_id":"ce4bgup2rcd13ifvqcn0","pricing_plan_id":"free"},{"bike_id":"889aafd6-3a44-48c8-9510-3aa68f97d951","system_id":"levelo_inurba_marseille","lat":43.304606,"lon":5.379026,"is_reserved":false,"is_disabled":false,"rental_uris":{"android":"levelo://app?vid=889aafd6-3a44-48c8-9510-3aa68f97d951","ios":"levelo://app?vid=889aafd6-3a44-48c8-9510-3aa68f97d951"},"vehicle_type_id":"4","last_reported":1692770958,"current_range_meters":16800,"station_id":"ce4bgup2rcd13ifvqcn0","pricing_plan_id":"free"},{"bike_id":"21c538fc-66c6-47d9-9fea-89963b225dde","system_id":"levelo_inurba_marseille","lat":43.304606,"lon":5.379026,"is_reserved":false,"is_disabled":false,"rental_uris":{"android":"levelo://app?vid=21c538fc-66c6-47d9-9fea-89963b225dde","ios":"levelo://app?vid=21c538fc-66c6-47d9-9fea-89963b225dde"},"vehicle_type_id":"4","last_reported":1692770958,"current_range_meters":28800,"station_id":"ce4bgup2rcd13ifvqcn0","pricing_plan_id":"free"},{"bike_id":"4e0a5597-4dfe-4d38-9fc2-1bd4409a8065","system_id":"levelo_inurba_marseille","lat":43.304606,"lon":5.379026,"is_reserved":false,"is_disabled":false,"rental_uris":{"android":"levelo://app?vid=4e0a5597-4dfe-4d38-9fc2-1bd4409a8065","ios":"levelo://app?vid=4e0a5597-4dfe-4d38-9fc2-1bd4409a8065"},"vehicle_type_id":"4","last_reported":1692770958,"current_range_meters":17600,"station_id":"ce4bgup2rcd13ifvqcn0","pricing_plan_id":"free"},{"bike_id":"b33fabd0-cf3d-4cb0-add3-0ba242f4eb7b","system_id":"levelo_inurba_marseille","lat":43.304606,"lon":5.379026,"is_reserved":false,"is_disabled":false,"rental_uris":{"android":"levelo://app?vid=b33fabd0-cf3d-4cb0-add3-0ba242f4eb7b","ios":"levelo://app?vid=b33fabd0-cf3d-4cb0-add3-0ba242f4eb7b"},"vehicle_type_id":"4","last_reported":1692770958,"current_range_meters":16400,"station_id":"ce4bgup2rcd13ifvqcn0","pricing_plan_id":"free"},{"bike_id":"e674d55b-2f9c-46b9-b06f-36847daedec7","system_id":"levelo_inurba_marseille","lat":43.304606,"lon":5.379026,"is_reserved":false,"is_disabled":false,"rental_uris":{"android":"levelo://app?vid=e674d55b-2f9c-46b9-b06f-36847daedec7","ios":"levelo://app?vid=e674d55b-2f9c-46b9-b06f-36847daedec7"},"vehicle_type_id":"4","last_reported":1692770958,"current_range_meters":31600,"station_id":"ce4bgup2rcd13ifvqcn0","pricing_plan_id":"free"},{"bike_id":"5ead1b41-0172-41f3-84c5-51135be216d9","system_id":"levelo_inurba_marseille","lat":43.304606,"lon":5.379026,"is_reserved":false,"is_disabled":false,"rental_uris":{"android":"levelo://app?vid=5ead1b41-0172-41f3-84c5-51135be216d9","ios":"levelo://app?vid=5ead1b41-0172-41f3-84c5-51135be216d9"},"vehicle_type_id":"4","last_reported":1692770958,"current_range_meters":10400,"station_id":"ce4bgup2rcd13ifvqcn0","pricing_plan_id":"free"},{"bike_id":"2e9a93a6-0221-4155-9787-025dbab2d9fb","system_id":"levelo_inurba_marseille","lat":43.304606,"lon":5.379026,"is_reserved":false,"is_disabled":false,"rental_uris":{"android":"levelo://app?vid=2e9a93a6-0221-4155-9787-025dbab2d9fb","ios":"levelo://app?vid=2e9a93a6-0221-4155-9787-025dbab2d9fb"},"vehicle_type_id":"4","last_reported":1692770958,"current_range_meters":19600,"station_id":"ce4bgup2rcd13ifvqcn0","pricing_plan_id":"free"},{"bike_id":"14606b38-18db-4619-8f30-3bedaa5e0837","system_id":"levelo_inurba_marseille","lat":43.304606,"lon":5.379026,"is_reserved":false,"is_disabled":false,"rental_uris":{"android":"levelo://app?vid=14606b38-18db-4619-8f30-3bedaa5e0837","ios":"levelo://app?vid=14606b38-18db-4619-8f30-3bedaa5e0837"},"vehicle_type_id":"4","last_reported":1692770958,"current_range_meters":24000,"station_id":"ce4bgup2rcd13ifvqcn0","pricing_plan_id":"free"},{"bike_id":"445059a4-1f58-4025-9db8-00c6a0b45c1c","system_id":"levelo_inurba_marseille","lat":43.304606,"lon":5.379026,"is_reserved":false,"is_disabled":false,"rental_uris":{"android":"levelo://app?vid=445059a4-1f58-4025-9db8-00c6a0b45c1c","ios":"levelo://app?vid=445059a4-1f58-4025-9db8-00c6a0b45c1c"},"vehicle_type_id":"4","last_reported":1692770958,"current_range_meters":27600,"station_id":"ce4bgup2rcd13ifvqcn0","pricing_plan_id":"free"},{"bike_id":"8103bea9-2cc9-48e0-8075-5108530aa84b","system_id":"levelo_inurba_marseille","lat":43.304606,"lon":5.379026,"is_reserved":false,"is_disabled":false,"rental_uris":{"android":"levelo://app?vid=8103bea9-2cc9-48e0-8075-5108530aa84b","ios":"levelo://app?vid=8103bea9-2cc9-48e0-8075-5108530aa84b"},"vehicle_type_id":"4","last_reported":1692770958,"current_range_meters":26400,"station_id":"ce4bgup2rcd13ifvqcn0","pricing_plan_id":"free"},{"bike_id":"f522acbd-b271-4124-9626-50b861a54e82","system_id":"levelo_inurba_marseille","lat":43.304606,"lon":5.379026,"is_reserved":false,"is_disabled":false,"rental_uris":{"android":"levelo://app?vid=f522acbd-b271-4124-9626-50b861a54e82","ios":"levelo://app?vid=f522acbd-b271-4124-9626-50b861a54e82"},"vehicle_type_id":"4","last_reported":1692770958,"current_range_meters":0,"station_id":"ce4bgup2rcd13ifvqcn0","pricing_plan_id":"free"},{"bike_id":"1251c19f-b474-4d8b-aa28-137038bf47ba","system_id":"levelo_inurba_marseille","lat":43.304606,"lon":5.379026,"is_reserved":false,"is_disabled":false,"rental_uris":{"android":"levelo://app?vid=1251c19f-b474-4d8b-aa28-137038bf47ba","ios":"levelo://app?vid=1251c19f-b474-4d8b-aa28-137038bf47ba"},"vehicle_type_id":"4","last_reported":1692770958,"current_range_meters":22000,"station_id":"ce4bgup2rcd13ifvqcn0","pricing_plan_id":"free"},{"bike_id":"dbd54332-ad7b-4208-b2b6-ee9681720a89","system_id":"levelo_inurba_marseille","lat":43.304606,"lon":5.379026,"is_reserved":false,"is_disabled":false,"rental_uris":{"android":"levelo://app?vid=dbd54332-ad7b-4208-b2b6-ee9681720a89","ios":"levelo://app?vid=dbd54332-ad7b-4208-b2b6-ee9681720a89"},"vehicle_type_id":"4","last_reported":1692770958,"current_range_meters":26800,"station_id":"ce4bgup2rcd13ifvqcn0","pricing_plan_id":"free"},{"bike_id":"e25bed9b-cf04-43d3-8514-670725f60647","system_id":"levelo_inurba_marseille","lat":43.304606,"lon":5.379026,"is_reserved":false,"is_disabled":false,"rental_uris":{"android":"levelo://app?vid=e25bed9b-cf04-43d3-8514-670725f60647","ios":"levelo://app?vid=e25bed9b-cf04-43d3-8514-670725f60647"},"vehicle_type_id":"4","last_reported":1692770958,"current_range_meters":29200,"station_id":"ce4bgup2rcd13ifvqcn0","pricing_plan_id":"free"},{"bike_id":"93dfbe6b-68b0-4647-a507-9249cf6747c4","system_id":"levelo_inurba_marseille","lat":43.304606,"lon":5.379026,"is_reserved":false,"is_disabled":false,"rental_uris":{"android":"levelo://app?vid=93dfbe6b-68b0-4647-a507-9249cf6747c4","ios":"levelo://app?vid=93dfbe6b-68b0-4647-a507-9249cf6747c4"},"vehicle_type_id":"4","last_reported":1692770958,"current_range_meters":22000,"station_id":"ce4bgup2rcd13ifvqcn0","pricing_plan_id":"free"},{"bike_id":"a54fe55e-89a4-44ff-ac53-f8494e6661a3","system_id":"levelo_inurba_marseille","lat":43.304606,"lon":5.379026,"is_reserved":false,"is_disabled":false,"rental_uris":{"android":"levelo://app?vid=a54fe55e-89a4-44ff-ac53-f8494e6661a3","ios":"levelo://app?vid=a54fe55e-89a4-44ff-ac53-f8494e6661a3"},"vehicle_type_id":"4","last_reported":1692770958,"current_range_meters":28400,"station_id":"ce4bgup2rcd13ifvqcn0","pricing_plan_id":"free"},{"bike_id":"6251fe52-81d9-46ef-9d6e-bd238e8fc9f7","system_id":"levelo_inurba_marseille","lat":43.302784,"lon":5.377158,"is_reserved":false,"is_disabled":false,"rental_uris":{"android":"levelo://app?vid=6251fe52-81d9-46ef-9d6e-bd238e8fc9f7","ios":"levelo://app?vid=6251fe52-81d9-46ef-9d6e-bd238e8fc9f7"},"vehicle_type_id":"4","last_reported":1692770958,"current_range_meters":17600,"station_id":"ce4bguh2rcd13ifvqcj0","pricing_plan_id":"free"},{"bike_id":"d17a443f-e291-4a2a-93d5-e49aea9b2d53","system_id":"levelo_inurba_marseille","lat":43.30142,"lon":5.37417,"is_reserved":false,"is_disabled":false,"rental_uris":{"android":"levelo://app?vid=d17a443f-e291-4a2a-93d5-e49aea9b2d53","ios":"levelo://app?vid=d17a443f-e291-4a2a-93d5-e49aea9b2d53"},"vehicle_type_id":"4","last_reported":1692770958,"current_range_meters":31200,"station_id":"ce4bgs92rcd13ifvqcc0","pricing_plan_id":"free"},{"bike_id":"faba66ed-21e4-4e75-b4bd-377437cb70a7","system_id":"levelo_inurba_marseille","lat":43.313571,"lon":5.384829,"is_reserved":false,"is_disabled":false,"rental_uris":{"android":"levelo://app?vid=faba66ed-21e4-4e75-b4bd-377437cb70a7","ios":"levelo://app?vid=faba66ed-21e4-4e75-b4bd-377437cb70a7"},"vehicle_type_id":"4","last_reported":1692770958,"current_range_meters":27600,"station_id":"ce4bgt92rcd13ifvqcf0","pricing_plan_id":"free"},{"bike_id":"1abe93fc-88bb-4e5f-abe8-fd8aa360d6c5","system_id":"levelo_inurba_marseille","lat":43.313571,"lon":5.384829,"is_reserved":false,"is_disabled":false,"rental_uris":{"android":"levelo://app?vid=1abe93fc-88bb-4e5f-abe8-fd8aa360d6c5","ios":"levelo://app?vid=1abe93fc-88bb-4e5f-abe8-fd8aa360d6c5"},"vehicle_type_id":"4","last_reported":1692770958,"current_range_meters":30400,"station_id":"ce4bgt92rcd13ifvqcf0","pricing_plan_id":"free"},{"bike_id":"168a198f-c2c9-455c-a30b-36eb68e44a91","system_id":"levelo_inurba_marseille","lat":43.313571,"lon":5.384829,"is_reserved":false,"is_disabled":false,"rental_uris":{"android":"levelo://app?vid=168a198f-c2c9-455c-a30b-36eb68e44a91","ios":"levelo://app?vid=168a198f-c2c9-455c-a30b-36eb68e44a91"},"vehicle_type_id":"4","last_reported":1692770958,"current_range_meters":30000,"station_id":"ce4bgt92rcd13ifvqcf0","pricing_plan_id":"free"},{"bike_id":"f2eb44e2-d980-4ad0-bbaf-fb8699d352d5","system_id":"levelo_inurba_marseille","lat":43.313571,"lon":5.384829,"is_reserved":false,"is_disabled":false,"rental_uris":{"android":"levelo://app?vid=f2eb44e2-d980-4ad0-bbaf-fb8699d352d5","ios":"levelo://app?vid=f2eb44e2-d980-4ad0-bbaf-fb8699d352d5"},"vehicle_type_id":"4","last_reported":1692770958,"current_range_meters":28800,"station_id":"ce4bgt92rcd13ifvqcf0","pricing_plan_id":"free"},{"bike_id":"6ca0272a-9960-4c62-a14c-e805caccc9b2","system_id":"levelo_inurba_marseille","lat":43.31356,"lon":5.38525,"is_reserved":false,"is_disabled":false,"rental_uris":{"android":"levelo://app?vid=6ca0272a-9960-4c62-a14c-e805caccc9b2","ios":"levelo://app?vid=6ca0272a-9960-4c62-a14c-e805caccc9b2"},"vehicle_type_id":"4","last_reported":1692770958,"current_range_meters":21600,"station_id":"ce4bgt92rcd13ifvqcf0","pricing_plan_id":"free"},{"bike_id":"95dc9ecf-047e-4c3a-bb12-a5676cb36ad4","system_id":"levelo_inurba_marseille","lat":43.3216,"lon":5.38166,"is_reserved":false,"is_disabled":false,"rental_uris":{"android":"levelo://app?vid=95dc9ecf-047e-4c3a-bb12-a5676cb36ad4","ios":"levelo://app?vid=95dc9ecf-047e-4c3a-bb12-a5676cb36ad4"},"vehicle_type_id":"4","last_reported":1692770958,"current_range_meters":4400,"station_id":"","pricing_plan_id":"free"},{"bike_id":"829cff0d-2001-4059-9d65-3ba51ebdf745","system_id":"levelo_inurba_marseille","lat":43.30537,"lon":5.38414,"is_reserved":false,"is_disabled":false,"rental_uris":{"android":"levelo://app?vid=829cff0d-2001-4059-9d65-3ba51ebdf745","ios":"levelo://app?vid=829cff0d-2001-4059-9d65-3ba51ebdf745"},"vehicle_type_id":"4","last_reported":1692770958,"current_range_meters":28400,"station_id":"ce4bgg92rcd13ifvqb30","pricing_plan_id":"free"},{"bike_id":"343cb82f-fc96-4ea5-b052-656bfede397e","system_id":"levelo_inurba_marseille","lat":43.298433,"lon":5.362774,"is_reserved":false,"is_disabled":false,"rental_uris":{"android":"levelo://app?vid=343cb82f-fc96-4ea5-b052-656bfede397e","ios":"levelo://app?vid=343cb82f-fc96-4ea5-b052-656bfede397e"},"vehicle_type_id":"4","last_reported":1692770958,"current_range_meters":28400,"station_id":"ce4bgpp2rcd13ifvqc3g","pricing_plan_id":"free"},{"bike_id":"bcc0932f-7ae2-47ba-a7d3-6b81bc0fa315","system_id":"levelo_inurba_marseille","lat":43.29848,"lon":5.36291,"is_reserved":false,"is_disabled":false,"rental_uris":{"android":"levelo://app?vid=bcc0932f-7ae2-47ba-a7d3-6b81bc0fa315","ios":"levelo://app?vid=bcc0932f-7ae2-47ba-a7d3-6b81bc0fa315"},"vehicle_type_id":"4","last_reported":1692770958,"current_range_meters":22800,"station_id":"ce4bgpp2rcd13ifvqc3g","pricing_plan_id":"free"},{"bike_id":"04416e1a-9d10-4e23-be74-068b43dbf032","system_id":"levelo_inurba_marseille","lat":43.298433,"lon":5.362774,"is_reserved":false,"is_disabled":false,"rental_uris":{"android":"levelo://app?vid=04416e1a-9d10-4e23-be74-068b43dbf032","ios":"levelo://app?vid=04416e1a-9d10-4e23-be74-068b43dbf032"},"vehicle_type_id":"4","last_reported":1692770958,"current_range_meters":29600,"station_id":"ce4bgpp2rcd13ifvqc3g","pricing_plan_id":"free"},{"bike_id":"daee5967-dc02-4fe5-bd64-4b2c41139207","system_id":"levelo_inurba_marseille","lat":43.298433,"lon":5.362774,"is_reserved":false,"is_disabled":false,"rental_uris":{"android":"levelo://app?vid=daee5967-dc02-4fe5-bd64-4b2c41139207","ios":"levelo://app?vid=daee5967-dc02-4fe5-bd64-4b2c41139207"},"vehicle_type_id":"4","last_reported":1692770958,"current_range_meters":29600,"station_id":"ce4bgpp2rcd13ifvqc3g","pricing_plan_id":"free"},{"bike_id":"f721320d-a7e8-4335-9220-3ed39bd4a32e","system_id":"levelo_inurba_marseille","lat":43.298433,"lon":5.362774,"is_reserved":false,"is_disabled":false,"rental_uris":{"android":"levelo://app?vid=f721320d-a7e8-4335-9220-3ed39bd4a32e","ios":"levelo://app?vid=f721320d-a7e8-4335-9220-3ed39bd4a32e"},"vehicle_type_id":"4","last_reported":1692770958,"current_range_meters":29600,"station_id":"ce4bgpp2rcd13ifvqc3g","pricing_plan_id":"free"},{"bike_id":"b11b8dc0-4454-4567-9c02-56b95a13e4c1","system_id":"levelo_inurba_marseille","lat":43.30548,"lon":5.38432,"is_reserved":false,"is_disabled":false,"rental_uris":{"android":"levelo://app?vid=b11b8dc0-4454-4567-9c02-56b95a13e4c1","ios":"levelo://app?vid=b11b8dc0-4454-4567-9c02-56b95a13e4c1"},"vehicle_type_id":"4","last_reported":1692770958,"current_range_meters":8400,"station_id":"ce4bgg92rcd13ifvqb30","pricing_plan_id":"free"},{"bike_id":"02d8270b-8a7d-473c-b33d-e53aaf509093","system_id":"levelo_inurba_marseille","lat":43.30531,"lon":5.38421,"is_reserved":false,"is_disabled":false,"rental_uris":{"android":"levelo://app?vid=02d8270b-8a7d-473c-b33d-e53aaf509093","ios":"levelo://app?vid=02d8270b-8a7d-473c-b33d-e53aaf509093"},"vehicle_type_id":"4","last_reported":1692770958,"current_range_meters":31200,"station_id":"ce4bgg92rcd13ifvqb30","pricing_plan_id":"free"},{"bike_id":"31cd58a0-046a-428f-ac3e-3629efb51bc7","system_id":"levelo_inurba_marseille","lat":43.30542,"lon":5.38431,"is_reserved":false,"is_disabled":false,"rental_uris":{"android":"levelo://app?vid=31cd58a0-046a-428f-ac3e-3629efb51bc7","ios":"levelo://app?vid=31cd58a0-046a-428f-ac3e-3629efb51bc7"},"vehicle_type_id":"4","last_reported":1692770958,"current_range_meters":31200,"station_id":"ce4bgg92rcd13ifvqb30","pricing_plan_id":"free"},{"bike_id":"f575435e-afab-4442-aec5-586f9a794bf0","system_id":"levelo_inurba_marseille","lat":43.311722,"lon":5.387247,"is_reserved":false,"is_disabled":false,"rental_uris":{"android":"levelo://app?vid=f575435e-afab-4442-aec5-586f9a794bf0","ios":"levelo://app?vid=f575435e-afab-4442-aec5-586f9a794bf0"},"vehicle_type_id":"4","last_reported":1692770958,"current_range_meters":31200,"station_id":"ce4bgv12rcd13ifvqcp0","pricing_plan_id":"free"},{"bike_id":"f826d2a2-b918-4dc0-bce8-27ccfa1316fc","system_id":"levelo_inurba_marseille","lat":43.311722,"lon":5.387247,"is_reserved":false,"is_disabled":false,"rental_uris":{"android":"levelo://app?vid=f826d2a2-b918-4dc0-bce8-27ccfa1316fc","ios":"levelo://app?vid=f826d2a2-b918-4dc0-bce8-27ccfa1316fc"},"vehicle_type_id":"4","last_reported":1692770958,"current_range_meters":23200,"station_id":"ce4bgv12rcd13ifvqcp0","pricing_plan_id":"free"},{"bike_id":"6dd5b914-c820-4f38-a9d7-f2592afa9e55","system_id":"levelo_inurba_marseille","lat":43.311722,"lon":5.387247,"is_reserved":false,"is_disabled":false,"rental_uris":{"android":"levelo://app?vid=6dd5b914-c820-4f38-a9d7-f2592afa9e55","ios":"levelo://app?vid=6dd5b914-c820-4f38-a9d7-f2592afa9e55"},"vehicle_type_id":"4","last_reported":1692770958,"current_range_meters":23600,"station_id":"ce4bgv12rcd13ifvqcp0","pricing_plan_id":"free"},{"bike_id":"f5d9bc9c-d318-468d-9d76-142041bb3750","system_id":"levelo_inurba_marseille","lat":43.311722,"lon":5.387247,"is_reserved":false,"is_disabled":false,"rental_uris":{"android":"levelo://app?vid=f5d9bc9c-d318-468d-9d76-142041bb3750","ios":"levelo://app?vid=f5d9bc9c-d318-468d-9d76-142041bb3750"},"vehicle_type_id":"4","last_reported":1692770958,"current_range_meters":31600,"station_id":"ce4bgv12rcd13ifvqcp0","pricing_plan_id":"free"},{"bike_id":"fa539643-016e-45b7-bda5-46ee7315bbef","system_id":"levelo_inurba_marseille","lat":43.311722,"lon":5.387247,"is_reserved":false,"is_disabled":false,"rental_uris":{"android":"levelo://app?vid=fa539643-016e-45b7-bda5-46ee7315bbef","ios":"levelo://app?vid=fa539643-016e-45b7-bda5-46ee7315bbef"},"vehicle_type_id":"4","last_reported":1692770958,"current_range_meters":20000,"station_id":"ce4bgv12rcd13ifvqcp0","pricing_plan_id":"free"},{"bike_id":"4ca13a31-b30f-4ea7-866b-379a1ecfc2bc","system_id":"levelo_inurba_marseille","lat":43.311722,"lon":5.387247,"is_reserved":false,"is_disabled":false,"rental_uris":{"android":"levelo://app?vid=4ca13a31-b30f-4ea7-866b-379a1ecfc2bc","ios":"levelo://app?vid=4ca13a31-b30f-4ea7-866b-379a1ecfc2bc"},"vehicle_type_id":"4","last_reported":1692770958,"current_range_meters":19200,"station_id":"ce4bgv12rcd13ifvqcp0","pricing_plan_id":"free"},{"bike_id":"2f9e2def-2173-4eb4-a460-9a385f59debe","system_id":"levelo_inurba_marseille","lat":43.299243,"lon":5.374807,"is_reserved":false,"is_disabled":false,"rental_uris":{"android":"levelo://app?vid=2f9e2def-2173-4eb4-a460-9a385f59debe","ios":"levelo://app?vid=2f9e2def-2173-4eb4-a460-9a385f59debe"},"vehicle_type_id":"4","last_reported":1692770958,"current_range_meters":31200,"station_id":"ce4bgjh2rcd13ifvqbg0","pricing_plan_id":"free"},{"bike_id":"6f711787-f240-4b1c-8e8c-6938a7d5039f","system_id":"levelo_inurba_marseille","lat":43.311722,"lon":5.387247,"is_reserved":false,"is_disabled":false,"rental_uris":{"android":"levelo://app?vid=6f711787-f240-4b1c-8e8c-6938a7d5039f","ios":"levelo://app?vid=6f711787-f240-4b1c-8e8c-6938a7d5039f"},"vehicle_type_id":"4","last_reported":1692770958,"current_range_meters":31200,"station_id":"ce4bgv12rcd13ifvqcp0","pricing_plan_id":"free"},{"bike_id":"f26f39d0-f8a5-4fed-b051-e7076f3deef3","system_id":"levelo_inurba_marseille","lat":43.311722,"lon":5.387247,"is_reserved":false,"is_disabled":false,"rental_uris":{"android":"levelo://app?vid=f26f39d0-f8a5-4fed-b051-e7076f3deef3","ios":"levelo://app?vid=f26f39d0-f8a5-4fed-b051-e7076f3deef3"},"vehicle_type_id":"4","last_reported":1692770958,"current_range_meters":31200,"station_id":"ce4bgv12rcd13ifvqcp0","pricing_plan_id":"free"},{"bike_id":"3a5eeb94-5738-499e-a1ee-8a2543f919a7","system_id":"levelo_inurba_marseille","lat":43.311722,"lon":5.387247,"is_reserved":false,"is_disabled":false,"rental_uris":{"android":"levelo://app?vid=3a5eeb94-5738-499e-a1ee-8a2543f919a7","ios":"levelo://app?vid=3a5eeb94-5738-499e-a1ee-8a2543f919a7"},"vehicle_type_id":"4","last_reported":1692770958,"current_range_meters":23600,"station_id":"ce4bgv12rcd13ifvqcp0","pricing_plan_id":"free"},{"bike_id":"b885f463-e8c5-42cc-902f-7152167ce1c7","system_id":"levelo_inurba_marseille","lat":43.299243,"lon":5.37481,"is_reserved":false,"is_disabled":false,"rental_uris":{"android":"levelo://app?vid=b885f463-e8c5-42cc-902f-7152167ce1c7","ios":"levelo://app?vid=b885f463-e8c5-42cc-902f-7152167ce1c7"},"vehicle_type_id":"4","last_reported":1692770958,"current_range_meters":31200,"station_id":"ce4bgjh2rcd13ifvqbg0","pricing_plan_id":"free"},{"bike_id":"46f7c179-4ef4-457f-9abb-c95b7c2f68b4","system_id":"levelo_inurba_marseille","lat":43.311722,"lon":5.387247,"is_reserved":false,"is_disabled":false,"rental_uris":{"android":"levelo://app?vid=46f7c179-4ef4-457f-9abb-c95b7c2f68b4","ios":"levelo://app?vid=46f7c179-4ef4-457f-9abb-c95b7c2f68b4"},"vehicle_type_id":"4","last_reported":1692770958,"current_range_meters":31200,"station_id":"ce4bgv12rcd13ifvqcp0","pricing_plan_id":"free"},{"bike_id":"8dc74b15-16e8-458d-b318-829df7df5e5e","system_id":"levelo_inurba_marseille","lat":43.311722,"lon":5.387247,"is_reserved":false,"is_disabled":false,"rental_uris":{"android":"levelo://app?vid=8dc74b15-16e8-458d-b318-829df7df5e5e","ios":"levelo://app?vid=8dc74b15-16e8-458d-b318-829df7df5e5e"},"vehicle_type_id":"4","last_reported":1692770958,"current_range_meters":31200,"station_id":"ce4bgv12rcd13ifvqcp0","pricing_plan_id":"free"},{"bike_id":"17d2b753-a157-4e79-9b62-fe22e985a412","system_id":"levelo_inurba_marseille","lat":43.32824,"lon":5.36688,"is_reserved":false,"is_disabled":false,"rental_uris":{"android":"levelo://app?vid=17d2b753-a157-4e79-9b62-fe22e985a412","ios":"levelo://app?vid=17d2b753-a157-4e79-9b62-fe22e985a412"},"vehicle_type_id":"4","last_reported":1692770958,"current_range_meters":22400,"station_id":"ce4bhs92rcd13ifvqi0g","pricing_plan_id":"free"},{"bike_id":"9e60c384-80d1-4d92-9651-b81e4ea4629b","system_id":"levelo_inurba_marseille","lat":43.32826,"lon":5.36683,"is_reserved":false,"is_disabled":false,"rental_uris":{"android":"levelo://app?vid=9e60c384-80d1-4d92-9651-b81e4ea4629b","ios":"levelo://app?vid=9e60c384-80d1-4d92-9651-b81e4ea4629b"},"vehicle_type_id":"4","last_reported":1692770958,"current_range_meters":24800,"station_id":"ce4bhs92rcd13ifvqi0g","pricing_plan_id":"free"},{"bike_id":"7c14a9ce-0e8c-41a7-8b8e-5fd17185ca64","system_id":"levelo_inurba_marseille","lat":43.328371,"lon":5.366909,"is_reserved":false,"is_disabled":false,"rental_uris":{"android":"levelo://app?vid=7c14a9ce-0e8c-41a7-8b8e-5fd17185ca64","ios":"levelo://app?vid=7c14a9ce-0e8c-41a7-8b8e-5fd17185ca64"},"vehicle_type_id":"4","last_reported":1692770958,"current_range_meters":26000,"station_id":"ce4bhs92rcd13ifvqi0g","pricing_plan_id":"free"},{"bike_id":"30b50c15-c563-4e17-a5d3-c3aadc823af3","system_id":"levelo_inurba_marseille","lat":43.328371,"lon":5.366909,"is_reserved":false,"is_disabled":false,"rental_uris":{"android":"levelo://app?vid=30b50c15-c563-4e17-a5d3-c3aadc823af3","ios":"levelo://app?vid=30b50c15-c563-4e17-a5d3-c3aadc823af3"},"vehicle_type_id":"4","last_reported":1692770958,"current_range_meters":7200,"station_id":"ce4bhs92rcd13ifvqi0g","pricing_plan_id":"free"},{"bike_id":"971b2097-8344-4d2c-97b0-492e2bb68d84","system_id":"levelo_inurba_marseille","lat":43.32831,"lon":5.36691,"is_reserved":false,"is_disabled":false,"rental_uris":{"android":"levelo://app?vid=971b2097-8344-4d2c-97b0-492e2bb68d84","ios":"levelo://app?vid=971b2097-8344-4d2c-97b0-492e2bb68d84"},"vehicle_type_id":"4","last_reported":1692770958,"current_range_meters":21600,"station_id":"ce4bhs92rcd13ifvqi0g","pricing_plan_id":"free"},{"bike_id":"56b87030-d1dd-4d50-87dc-de3f2313ab1a","system_id":"levelo_inurba_marseille","lat":43.328371,"lon":5.366909,"is_reserved":false,"is_disabled":false,"rental_uris":{"android":"levelo://app?vid=56b87030-d1dd-4d50-87dc-de3f2313ab1a","ios":"levelo://app?vid=56b87030-d1dd-4d50-87dc-de3f2313ab1a"},"vehicle_type_id":"4","last_reported":1692770958,"current_range_meters":8800,"station_id":"ce4bhs92rcd13ifvqi0g","pricing_plan_id":"free"},{"bike_id":"dd789220-e7b5-42c1-b9dc-dc4243148021","system_id":"levelo_inurba_marseille","lat":43.29713,"lon":5.36604,"is_reserved":false,"is_disabled":false,"rental_uris":{"android":"levelo://app?vid=dd789220-e7b5-42c1-b9dc-dc4243148021","ios":"levelo://app?vid=dd789220-e7b5-42c1-b9dc-dc4243148021"},"vehicle_type_id":"4","last_reported":1692770958,"current_range_meters":31200,"station_id":"ce4bgn12rcd13ifvqbt0","pricing_plan_id":"free"},{"bike_id":"d3139180-8ba9-4c91-b6e4-8baae3c22113","system_id":"levelo_inurba_marseille","lat":43.296131,"lon":5.370791,"is_reserved":false,"is_disabled":false,"rental_uris":{"android":"levelo://app?vid=d3139180-8ba9-4c91-b6e4-8baae3c22113","ios":"levelo://app?vid=d3139180-8ba9-4c91-b6e4-8baae3c22113"},"vehicle_type_id":"4","last_reported":1692770958,"current_range_meters":28800,"station_id":"ce4bgnh2rcd13ifvqc0g","pricing_plan_id":"free"},{"bike_id":"bbecf6fb-9af4-46db-94c7-0855e66e8865","system_id":"levelo_inurba_marseille","lat":43.296131,"lon":5.370773,"is_reserved":false,"is_disabled":false,"rental_uris":{"android":"levelo://app?vid=bbecf6fb-9af4-46db-94c7-0855e66e8865","ios":"levelo://app?vid=bbecf6fb-9af4-46db-94c7-0855e66e8865"},"vehicle_type_id":"4","last_reported":1692770958,"current_range_meters":15200,"station_id":"ce4bgnh2rcd13ifvqc0g","pricing_plan_id":"free"},{"bike_id":"bb155e93-116e-494a-9911-2df351c7dae8","system_id":"levelo_inurba_marseille","lat":43.29621,"lon":5.37188,"is_reserved":false,"is_disabled":false,"rental_uris":{"android":"levelo://app?vid=bb155e93-116e-494a-9911-2df351c7dae8","ios":"levelo://app?vid=bb155e93-116e-494a-9911-2df351c7dae8"},"vehicle_type_id":"4","last_reported":1692770958,"current_range_meters":26400,"station_id":"","pricing_plan_id":"free"},{"bike_id":"79be60d9-223c-45d3-846b-26624f73d1cf","system_id":"levelo_inurba_marseille","lat":43.29573,"lon":5.367355,"is_reserved":false,"is_disabled":false,"rental_uris":{"android":"levelo://app?vid=79be60d9-223c-45d3-846b-26624f73d1cf","ios":"levelo://app?vid=79be60d9-223c-45d3-846b-26624f73d1cf"},"vehicle_type_id":"4","last_reported":1692770958,"current_range_meters":28000,"station_id":"ce4bgph2rcd13ifvqc2g","pricing_plan_id":"free"},{"bike_id":"cd1c1548-2a76-4057-93cd-f731135be7d4","system_id":"levelo_inurba_marseille","lat":43.30949,"lon":5.39021,"is_reserved":false,"is_disabled":false,"rental_uris":{"android":"levelo://app?vid=cd1c1548-2a76-4057-93cd-f731135be7d4","ios":"levelo://app?vid=cd1c1548-2a76-4057-93cd-f731135be7d4"},"vehicle_type_id":"4","last_reported":1692770958,"current_range_meters":12400,"station_id":"ce4bgup2rcd13ifvqco0","pricing_plan_id":"free"},{"bike_id":"c4e5f08a-eab4-4da5-ae5a-4bcea97c5917","system_id":"levelo_inurba_marseille","lat":43.30945,"lon":5.39024,"is_reserved":false,"is_disabled":false,"rental_uris":{"android":"levelo://app?vid=c4e5f08a-eab4-4da5-ae5a-4bcea97c5917","ios":"levelo://app?vid=c4e5f08a-eab4-4da5-ae5a-4bcea97c5917"},"vehicle_type_id":"4","last_reported":1692770958,"current_range_meters":31200,"station_id":"","pricing_plan_id":"free"},{"bike_id":"ad26bbde-f654-47e3-aec6-64a066a0edc1","system_id":"levelo_inurba_marseille","lat":43.30953,"lon":5.39035,"is_reserved":false,"is_disabled":false,"rental_uris":{"android":"levelo://app?vid=ad26bbde-f654-47e3-aec6-64a066a0edc1","ios":"levelo://app?vid=ad26bbde-f654-47e3-aec6-64a066a0edc1"},"vehicle_type_id":"4","last_reported":1692770958,"current_range_meters":31200,"station_id":"ce4bgup2rcd13ifvqco0","pricing_plan_id":"free"},{"bike_id":"0b769a15-141e-4d79-be39-b480ef2e7812","system_id":"levelo_inurba_marseille","lat":43.309589,"lon":5.390258,"is_reserved":false,"is_disabled":false,"rental_uris":{"android":"levelo://app?vid=0b769a15-141e-4d79-be39-b480ef2e7812","ios":"levelo://app?vid=0b769a15-141e-4d79-be39-b480ef2e7812"},"vehicle_type_id":"4","last_reported":1692770958,"current_range_meters":12400,"station_id":"ce4bgup2rcd13ifvqco0","pricing_plan_id":"free"},{"bike_id":"1587a621-c8fd-4d7a-9394-ae8fbfa800e6","system_id":"levelo_inurba_marseille","lat":43.317591,"lon":5.389868,"is_reserved":false,"is_disabled":false,"rental_uris":{"android":"levelo://app?vid=1587a621-c8fd-4d7a-9394-ae8fbfa800e6","ios":"levelo://app?vid=1587a621-c8fd-4d7a-9394-ae8fbfa800e6"},"vehicle_type_id":"4","last_reported":1692770958,"current_range_meters":26800,"station_id":"ce4bhqp2rcd13ifvqhng","pricing_plan_id":"free"},{"bike_id":"4819b304-aebb-4c4a-9788-608658a5ce9d","system_id":"levelo_inurba_marseille","lat":43.309589,"lon":5.390258,"is_reserved":false,"is_disabled":false,"rental_uris":{"android":"levelo://app?vid=4819b304-aebb-4c4a-9788-608658a5ce9d","ios":"levelo://app?vid=4819b304-aebb-4c4a-9788-608658a5ce9d"},"vehicle_type_id":"4","last_reported":1692770958,"current_range_meters":28800,"station_id":"ce4bgup2rcd13ifvqco0","pricing_plan_id":"free"},{"bike_id":"ac022322-aa3e-4d52-996e-260a03fff618","system_id":"levelo_inurba_marseille","lat":43.309589,"lon":5.390258,"is_reserved":false,"is_disabled":false,"rental_uris":{"android":"levelo://app?vid=ac022322-aa3e-4d52-996e-260a03fff618","ios":"levelo://app?vid=ac022322-aa3e-4d52-996e-260a03fff618"},"vehicle_type_id":"4","last_reported":1692770958,"current_range_meters":31200,"station_id":"ce4bgup2rcd13ifvqco0","pricing_plan_id":"free"},{"bike_id":"707edd10-347e-4e17-bb1b-089f6322bb14","system_id":"levelo_inurba_marseille","lat":43.309589,"lon":5.390258,"is_reserved":false,"is_disabled":false,"rental_uris":{"android":"levelo://app?vid=707edd10-347e-4e17-bb1b-089f6322bb14","ios":"levelo://app?vid=707edd10-347e-4e17-bb1b-089f6322bb14"},"vehicle_type_id":"4","last_reported":1692770958,"current_range_meters":24800,"station_id":"ce4bgup2rcd13ifvqco0","pricing_plan_id":"free"},{"bike_id":"2c93ce6f-c5e1-4ec9-9941-ebb7469bb8f2","system_id":"levelo_inurba_marseille","lat":43.317557,"lon":5.390173,"is_reserved":false,"is_disabled":false,"rental_uris":{"android":"levelo://app?vid=2c93ce6f-c5e1-4ec9-9941-ebb7469bb8f2","ios":"levelo://app?vid=2c93ce6f-c5e1-4ec9-9941-ebb7469bb8f2"},"vehicle_type_id":"4","last_reported":1692770958,"current_range_meters":28000,"station_id":"ce4bhqp2rcd13ifvqhng","pricing_plan_id":"free"},{"bike_id":"fb8a8a85-1c76-4ded-abfd-51837d8fe13b","system_id":"levelo_inurba_marseille","lat":43.317557,"lon":5.390173,"is_reserved":false,"is_disabled":false,"rental_uris":{"android":"levelo://app?vid=fb8a8a85-1c76-4ded-abfd-51837d8fe13b","ios":"levelo://app?vid=fb8a8a85-1c76-4ded-abfd-51837d8fe13b"},"vehicle_type_id":"4","last_reported":1692770958,"current_range_meters":30000,"station_id":"ce4bhqp2rcd13ifvqhng","pricing_plan_id":"free"},{"bike_id":"804fa21c-ec99-4ac0-b9eb-b90627304221","system_id":"levelo_inurba_marseille","lat":43.31756,"lon":5.3902,"is_reserved":false,"is_disabled":false,"rental_uris":{"android":"levelo://app?vid=804fa21c-ec99-4ac0-b9eb-b90627304221","ios":"levelo://app?vid=804fa21c-ec99-4ac0-b9eb-b90627304221"},"vehicle_type_id":"4","last_reported":1692770958,"current_range_meters":31200,"station_id":"ce4bhqp2rcd13ifvqhng","pricing_plan_id":"free"},{"bike_id":"04ed8339-4720-4571-b664-adf46bf5beb9","system_id":"levelo_inurba_marseille","lat":43.317557,"lon":5.390173,"is_reserved":false,"is_disabled":false,"rental_uris":{"android":"levelo://app?vid=04ed8339-4720-4571-b664-adf46bf5beb9","ios":"levelo://app?vid=04ed8339-4720-4571-b664-adf46bf5beb9"},"vehicle_type_id":"4","last_reported":1692770958,"current_range_meters":30400,"station_id":"ce4bhqp2rcd13ifvqhng","pricing_plan_id":"free"},{"bike_id":"a17c4e14-3d92-4f29-a3d8-eded8ea88fe8","system_id":"levelo_inurba_marseille","lat":43.29578,"lon":5.37513,"is_reserved":false,"is_disabled":false,"rental_uris":{"android":"levelo://app?vid=a17c4e14-3d92-4f29-a3d8-eded8ea88fe8","ios":"levelo://app?vid=a17c4e14-3d92-4f29-a3d8-eded8ea88fe8"},"vehicle_type_id":"4","last_reported":1692770958,"current_range_meters":28400,"station_id":"ce4bgh92rcd13ifvqb50","pricing_plan_id":"free"},{"bike_id":"a4df99ce-0488-49dd-a888-94686f562e88","system_id":"levelo_inurba_marseille","lat":43.295748,"lon":5.37522,"is_reserved":false,"is_disabled":false,"rental_uris":{"android":"levelo://app?vid=a4df99ce-0488-49dd-a888-94686f562e88","ios":"levelo://app?vid=a4df99ce-0488-49dd-a888-94686f562e88"},"vehicle_type_id":"4","last_reported":1692770958,"current_range_meters":28800,"station_id":"ce4bgh92rcd13ifvqb50","pricing_plan_id":"free"},{"bike_id":"008d76b0-a111-46eb-80dd-a3c0c112e90e","system_id":"levelo_inurba_marseille","lat":43.296263,"lon":5.377094,"is_reserved":false,"is_disabled":false,"rental_uris":{"android":"levelo://app?vid=008d76b0-a111-46eb-80dd-a3c0c112e90e","ios":"levelo://app?vid=008d76b0-a111-46eb-80dd-a3c0c112e90e"},"vehicle_type_id":"4","last_reported":1692770958,"current_range_meters":4000,"station_id":"ce4bgi92rcd13ifvqb90","pricing_plan_id":"free"},{"bike_id":"6c757004-8225-4c18-9871-6bd0fe04dddd","system_id":"levelo_inurba_marseille","lat":43.296263,"lon":5.377094,"is_reserved":false,"is_disabled":false,"rental_uris":{"android":"levelo://app?vid=6c757004-8225-4c18-9871-6bd0fe04dddd","ios":"levelo://app?vid=6c757004-8225-4c18-9871-6bd0fe04dddd"},"vehicle_type_id":"4","last_reported":1692770958,"current_range_meters":31200,"station_id":"ce4bgi92rcd13ifvqb90","pricing_plan_id":"free"},{"bike_id":"664f0983-e011-4363-8476-1c9098c5700c","system_id":"levelo_inurba_marseille","lat":43.29605,"lon":5.37722,"is_reserved":false,"is_disabled":false,"rental_uris":{"android":"levelo://app?vid=664f0983-e011-4363-8476-1c9098c5700c","ios":"levelo://app?vid=664f0983-e011-4363-8476-1c9098c5700c"},"vehicle_type_id":"4","last_reported":1692770958,"current_range_meters":26800,"station_id":"ce4bgi92rcd13ifvqb90","pricing_plan_id":"free"},{"bike_id":"952a19e7-6602-41c3-942f-79cfb514366f","system_id":"levelo_inurba_marseille","lat":43.29752,"lon":5.3809,"is_reserved":false,"is_disabled":false,"rental_uris":{"android":"levelo://app?vid=952a19e7-6602-41c3-942f-79cfb514366f","ios":"levelo://app?vid=952a19e7-6602-41c3-942f-79cfb514366f"},"vehicle_type_id":"4","last_reported":1692770958,"current_range_meters":30000,"station_id":"","pricing_plan_id":"free"},{"bike_id":"ca63ec06-f99f-4fa9-b9f8-1dcb13858976","system_id":"levelo_inurba_marseille","lat":43.296263,"lon":5.377094,"is_reserved":false,"is_disabled":false,"rental_uris":{"android":"levelo://app?vid=ca63ec06-f99f-4fa9-b9f8-1dcb13858976","ios":"levelo://app?vid=ca63ec06-f99f-4fa9-b9f8-1dcb13858976"},"vehicle_type_id":"4","last_reported":1692770958,"current_range_meters":26000,"station_id":"ce4bgi92rcd13ifvqb90","pricing_plan_id":"free"},{"bike_id":"bf77397c-bccc-42a7-9f1f-b106ed4d44ce","system_id":"levelo_inurba_marseille","lat":43.299717,"lon":5.384845,"is_reserved":false,"is_disabled":false,"rental_uris":{"android":"levelo://app?vid=bf77397c-bccc-42a7-9f1f-b106ed4d44ce","ios":"levelo://app?vid=bf77397c-bccc-42a7-9f1f-b106ed4d44ce"},"vehicle_type_id":"4","last_reported":1692770958,"current_range_meters":28800,"station_id":"ce4bgj92rcd13ifvqbd0","pricing_plan_id":"free"},{"bike_id":"5b3fcd30-fde1-4d3f-b3ac-fe2432b64388","system_id":"levelo_inurba_marseille","lat":43.2968,"lon":5.38014,"is_reserved":false,"is_disabled":false,"rental_uris":{"android":"levelo://app?vid=5b3fcd30-fde1-4d3f-b3ac-fe2432b64388","ios":"levelo://app?vid=5b3fcd30-fde1-4d3f-b3ac-fe2432b64388"},"vehicle_type_id":"4","last_reported":1692770958,"current_range_meters":2400,"station_id":"","pricing_plan_id":"free"},{"bike_id":"5affd882-c024-4f3d-b8f2-b96665658d92","system_id":"levelo_inurba_marseille","lat":43.301252,"lon":5.387877,"is_reserved":false,"is_disabled":false,"rental_uris":{"android":"levelo://app?vid=5affd882-c024-4f3d-b8f2-b96665658d92","ios":"levelo://app?vid=5affd882-c024-4f3d-b8f2-b96665658d92"},"vehicle_type_id":"4","last_reported":1692770958,"current_range_meters":28000,"station_id":"","pricing_plan_id":"free"},{"bike_id":"27a50d23-376e-4614-8f33-7c6a033807d7","system_id":"levelo_inurba_marseille","lat":43.32367,"lon":5.388836,"is_reserved":false,"is_disabled":false,"rental_uris":{"android":"levelo://app?vid=27a50d23-376e-4614-8f33-7c6a033807d7","ios":"levelo://app?vid=27a50d23-376e-4614-8f33-7c6a033807d7"},"vehicle_type_id":"4","last_reported":1692770958,"current_range_meters":29600,"station_id":"ce4bhqp2rcd13ifvqhog","pricing_plan_id":"free"},{"bike_id":"00883cd9-a56a-4720-bb55-237d0136a4a1","system_id":"levelo_inurba_marseille","lat":43.32363,"lon":5.3888,"is_reserved":false,"is_disabled":false,"rental_uris":{"android":"levelo://app?vid=00883cd9-a56a-4720-bb55-237d0136a4a1","ios":"levelo://app?vid=00883cd9-a56a-4720-bb55-237d0136a4a1"},"vehicle_type_id":"4","last_reported":1692770958,"current_range_meters":31200,"station_id":"ce4bhqp2rcd13ifvqhog","pricing_plan_id":"free"},{"bike_id":"3f6c624c-afdd-49eb-9c6d-d2de811ea07c","system_id":"levelo_inurba_marseille","lat":43.32367,"lon":5.388836,"is_reserved":false,"is_disabled":false,"rental_uris":{"android":"levelo://app?vid=3f6c624c-afdd-49eb-9c6d-d2de811ea07c","ios":"levelo://app?vid=3f6c624c-afdd-49eb-9c6d-d2de811ea07c"},"vehicle_type_id":"4","last_reported":1692770958,"current_range_meters":30000,"station_id":"ce4bhqp2rcd13ifvqhog","pricing_plan_id":"free"},{"bike_id":"3ee6736d-0a2a-429b-8608-53e06375372f","system_id":"levelo_inurba_marseille","lat":43.32364,"lon":5.38886,"is_reserved":false,"is_disabled":false,"rental_uris":{"android":"levelo://app?vid=3ee6736d-0a2a-429b-8608-53e06375372f","ios":"levelo://app?vid=3ee6736d-0a2a-429b-8608-53e06375372f"},"vehicle_type_id":"4","last_reported":1692770958,"current_range_meters":30400,"station_id":"ce4bhqp2rcd13ifvqhog","pricing_plan_id":"free"},{"bike_id":"7875e335-592b-49ba-85b1-bf33d07068a8","system_id":"levelo_inurba_marseille","lat":43.32368,"lon":5.38885,"is_reserved":false,"is_disabled":false,"rental_uris":{"android":"levelo://app?vid=7875e335-592b-49ba-85b1-bf33d07068a8","ios":"levelo://app?vid=7875e335-592b-49ba-85b1-bf33d07068a8"},"vehicle_type_id":"4","last_reported":1692770958,"current_range_meters":31200,"station_id":"ce4bhqp2rcd13ifvqhog","pricing_plan_id":"free"},{"bike_id":"c3ba7584-b7c0-4f76-8649-1bf4e40470e6","system_id":"levelo_inurba_marseille","lat":43.29601,"lon":5.381084,"is_reserved":false,"is_disabled":false,"rental_uris":{"android":"levelo://app?vid=c3ba7584-b7c0-4f76-8649-1bf4e40470e6","ios":"levelo://app?vid=c3ba7584-b7c0-4f76-8649-1bf4e40470e6"},"vehicle_type_id":"4","last_reported":1692770958,"current_range_meters":21200,"station_id":"ce4bgl12rcd13ifvqbo0","pricing_plan_id":"free"},{"bike_id":"96f85cf2-71e8-4a18-94a8-95b6286f28bb","system_id":"levelo_inurba_marseille","lat":43.29601,"lon":5.381084,"is_reserved":false,"is_disabled":false,"rental_uris":{"android":"levelo://app?vid=96f85cf2-71e8-4a18-94a8-95b6286f28bb","ios":"levelo://app?vid=96f85cf2-71e8-4a18-94a8-95b6286f28bb"},"vehicle_type_id":"4","last_reported":1692770958,"current_range_meters":21600,"station_id":"ce4bgl12rcd13ifvqbo0","pricing_plan_id":"free"},{"bike_id":"fdabff91-3654-4c53-8dad-32eeb86354c5","system_id":"levelo_inurba_marseille","lat":43.29602,"lon":5.381084,"is_reserved":false,"is_disabled":false,"rental_uris":{"android":"levelo://app?vid=fdabff91-3654-4c53-8dad-32eeb86354c5","ios":"levelo://app?vid=fdabff91-3654-4c53-8dad-32eeb86354c5"},"vehicle_type_id":"4","last_reported":1692770958,"current_range_meters":23200,"station_id":"ce4bgl12rcd13ifvqbo0","pricing_plan_id":"free"},{"bike_id":"1c697591-554d-4a35-b1ce-c20cd7404158","system_id":"levelo_inurba_marseille","lat":43.29601,"lon":5.381084,"is_reserved":false,"is_disabled":false,"rental_uris":{"android":"levelo://app?vid=1c697591-554d-4a35-b1ce-c20cd7404158","ios":"levelo://app?vid=1c697591-554d-4a35-b1ce-c20cd7404158"},"vehicle_type_id":"4","last_reported":1692770958,"current_range_meters":21600,"station_id":"ce4bgl12rcd13ifvqbo0","pricing_plan_id":"free"},{"bike_id":"792e5012-a2b1-42f1-9ebc-84a47a9a6c62","system_id":"levelo_inurba_marseille","lat":43.29602,"lon":5.381084,"is_reserved":false,"is_disabled":false,"rental_uris":{"android":"levelo://app?vid=792e5012-a2b1-42f1-9ebc-84a47a9a6c62","ios":"levelo://app?vid=792e5012-a2b1-42f1-9ebc-84a47a9a6c62"},"vehicle_type_id":"4","last_reported":1692770958,"current_range_meters":26400,"station_id":"ce4bgl12rcd13ifvqbo0","pricing_plan_id":"free"},{"bike_id":"c78f3aeb-e3be-4aab-aa35-76ab1629967e","system_id":"levelo_inurba_marseille","lat":43.29602,"lon":5.381084,"is_reserved":false,"is_disabled":false,"rental_uris":{"android":"levelo://app?vid=c78f3aeb-e3be-4aab-aa35-76ab1629967e","ios":"levelo://app?vid=c78f3aeb-e3be-4aab-aa35-76ab1629967e"},"vehicle_type_id":"4","last_reported":1692770958,"current_range_meters":26000,"station_id":"ce4bgl12rcd13ifvqbo0","pricing_plan_id":"free"},{"bike_id":"e8ae8810-661b-449d-bb94-9465608ca03c","system_id":"levelo_inurba_marseille","lat":43.292749,"lon":5.368402,"is_reserved":false,"is_disabled":false,"rental_uris":{"android":"levelo://app?vid=e8ae8810-661b-449d-bb94-9465608ca03c","ios":"levelo://app?vid=e8ae8810-661b-449d-bb94-9465608ca03c"},"vehicle_type_id":"4","last_reported":1692770958,"current_range_meters":30800,"station_id":"ce4bhbp2rcd13ifvqesg","pricing_plan_id":"free"},{"bike_id":"caaf00e7-b2e8-452a-b28e-43698415e3bc","system_id":"levelo_inurba_marseille","lat":43.292749,"lon":5.368402,"is_reserved":false,"is_disabled":false,"rental_uris":{"android":"levelo://app?vid=caaf00e7-b2e8-452a-b28e-43698415e3bc","ios":"levelo://app?vid=caaf00e7-b2e8-452a-b28e-43698415e3bc"},"vehicle_type_id":"4","last_reported":1692770958,"current_range_meters":17200,"station_id":"ce4bhbp2rcd13ifvqesg","pricing_plan_id":"free"},{"bike_id":"196c65e2-fa7c-402c-b444-a937f4b79868","system_id":"levelo_inurba_marseille","lat":43.293249,"lon":5.371578,"is_reserved":false,"is_disabled":false,"rental_uris":{"android":"levelo://app?vid=196c65e2-fa7c-402c-b444-a937f4b79868","ios":"levelo://app?vid=196c65e2-fa7c-402c-b444-a937f4b79868"},"vehicle_type_id":"4","last_reported":1692770958,"current_range_meters":12000,"station_id":"ce4bgh92rcd13ifvqb40","pricing_plan_id":"free"},{"bike_id":"7a9faf62-0b79-4714-8f8f-e2c2c9df3f7a","system_id":"levelo_inurba_marseille","lat":43.292749,"lon":5.368402,"is_reserved":false,"is_disabled":false,"rental_uris":{"android":"levelo://app?vid=7a9faf62-0b79-4714-8f8f-e2c2c9df3f7a","ios":"levelo://app?vid=7a9faf62-0b79-4714-8f8f-e2c2c9df3f7a"},"vehicle_type_id":"4","last_reported":1692770958,"current_range_meters":31200,"station_id":"ce4bhbp2rcd13ifvqesg","pricing_plan_id":"free"},{"bike_id":"607041f6-db3f-43c8-8af3-8eb93a3b85f0","system_id":"levelo_inurba_marseille","lat":43.292749,"lon":5.368398,"is_reserved":false,"is_disabled":false,"rental_uris":{"android":"levelo://app?vid=607041f6-db3f-43c8-8af3-8eb93a3b85f0","ios":"levelo://app?vid=607041f6-db3f-43c8-8af3-8eb93a3b85f0"},"vehicle_type_id":"4","last_reported":1692770958,"current_range_meters":22400,"station_id":"ce4bhbp2rcd13ifvqesg","pricing_plan_id":"free"},{"bike_id":"54026b1a-5974-4140-a2ae-3963e8fc9622","system_id":"levelo_inurba_marseille","lat":43.29511,"lon":5.38004,"is_reserved":false,"is_disabled":false,"rental_uris":{"android":"levelo://app?vid=54026b1a-5974-4140-a2ae-3963e8fc9622","ios":"levelo://app?vid=54026b1a-5974-4140-a2ae-3963e8fc9622"},"vehicle_type_id":"4","last_reported":1692770958,"current_range_meters":0,"station_id":"","pricing_plan_id":"free"},{"bike_id":"085f7bde-ba06-4ed0-b36d-bfc996549ab8","system_id":"levelo_inurba_marseille","lat":43.30601,"lon":5.3935,"is_reserved":false,"is_disabled":false,"rental_uris":{"android":"levelo://app?vid=085f7bde-ba06-4ed0-b36d-bfc996549ab8","ios":"levelo://app?vid=085f7bde-ba06-4ed0-b36d-bfc996549ab8"},"vehicle_type_id":"4","last_reported":1692770958,"current_range_meters":31200,"station_id":"ce4bh0p2rcd13ifvqd80","pricing_plan_id":"free"},{"bike_id":"dc99fb8e-085b-4a54-afbb-d64d12445127","system_id":"levelo_inurba_marseille","lat":43.293009,"lon":5.374584,"is_reserved":false,"is_disabled":false,"rental_uris":{"android":"levelo://app?vid=dc99fb8e-085b-4a54-afbb-d64d12445127","ios":"levelo://app?vid=dc99fb8e-085b-4a54-afbb-d64d12445127"},"vehicle_type_id":"4","last_reported":1692770958,"current_range_meters":31200,"station_id":"ce4bgi12rcd13ifvqb70","pricing_plan_id":"free"},{"bike_id":"38fef587-7cc5-4800-b069-87b8f296a10a","system_id":"levelo_inurba_marseille","lat":43.29294,"lon":5.37471,"is_reserved":false,"is_disabled":false,"rental_uris":{"android":"levelo://app?vid=38fef587-7cc5-4800-b069-87b8f296a10a","ios":"levelo://app?vid=38fef587-7cc5-4800-b069-87b8f296a10a"},"vehicle_type_id":"4","last_reported":1692770958,"current_range_meters":30400,"station_id":"ce4bgi12rcd13ifvqb70","pricing_plan_id":"free"},{"bike_id":"c7aeb225-4852-4968-98b0-6f9a05b3174c","system_id":"levelo_inurba_marseille","lat":43.2936,"lon":5.37835,"is_reserved":false,"is_disabled":false,"rental_uris":{"android":"levelo://app?vid=c7aeb225-4852-4968-98b0-6f9a05b3174c","ios":"levelo://app?vid=c7aeb225-4852-4968-98b0-6f9a05b3174c"},"vehicle_type_id":"4","last_reported":1692770958,"current_range_meters":12800,"station_id":"ce4bgjh2rcd13ifvqbf0","pricing_plan_id":"free"},{"bike_id":"dd14adea-66c6-494d-a84a-d6b1ac55cd1b","system_id":"levelo_inurba_marseille","lat":43.303061,"lon":5.392095,"is_reserved":false,"is_disabled":false,"rental_uris":{"android":"levelo://app?vid=dd14adea-66c6-494d-a84a-d6b1ac55cd1b","ios":"levelo://app?vid=dd14adea-66c6-494d-a84a-d6b1ac55cd1b"},"vehicle_type_id":"4","last_reported":1692770958,"current_range_meters":30800,"station_id":"ce4bgkh2rcd13ifvqbk0","pricing_plan_id":"free"},{"bike_id":"0724f352-a262-45b7-9b71-9a09ff17d945","system_id":"levelo_inurba_marseille","lat":43.303002,"lon":5.392142,"is_reserved":false,"is_disabled":false,"rental_uris":{"android":"levelo://app?vid=0724f352-a262-45b7-9b71-9a09ff17d945","ios":"levelo://app?vid=0724f352-a262-45b7-9b71-9a09ff17d945"},"vehicle_type_id":"4","last_reported":1692770958,"current_range_meters":28400,"station_id":"ce4bgkh2rcd13ifvqbk0","pricing_plan_id":"free"},{"bike_id":"60c80010-e7a1-4226-b121-3a7aca2ce8f7","system_id":"levelo_inurba_marseille","lat":43.2936,"lon":5.37835,"is_reserved":false,"is_disabled":false,"rental_uris":{"android":"levelo://app?vid=60c80010-e7a1-4226-b121-3a7aca2ce8f7","ios":"levelo://app?vid=60c80010-e7a1-4226-b121-3a7aca2ce8f7"},"vehicle_type_id":"4","last_reported":1692770958,"current_range_meters":28800,"station_id":"ce4bgjh2rcd13ifvqbf0","pricing_plan_id":"free"},{"bike_id":"59d4a7cc-c4d8-47e1-a63f-2e26b5d209c3","system_id":"levelo_inurba_marseille","lat":43.2936,"lon":5.37835,"is_reserved":false,"is_disabled":false,"rental_uris":{"android":"levelo://app?vid=59d4a7cc-c4d8-47e1-a63f-2e26b5d209c3","ios":"levelo://app?vid=59d4a7cc-c4d8-47e1-a63f-2e26b5d209c3"},"vehicle_type_id":"4","last_reported":1692770958,"current_range_meters":31200,"station_id":"ce4bgjh2rcd13ifvqbf0","pricing_plan_id":"free"},{"bike_id":"03ec169c-ef0e-463c-8ab3-7a434d609272","system_id":"levelo_inurba_marseille","lat":43.2936,"lon":5.37835,"is_reserved":false,"is_disabled":false,"rental_uris":{"android":"levelo://app?vid=03ec169c-ef0e-463c-8ab3-7a434d609272","ios":"levelo://app?vid=03ec169c-ef0e-463c-8ab3-7a434d609272"},"vehicle_type_id":"4","last_reported":1692770958,"current_range_meters":19200,"station_id":"ce4bgjh2rcd13ifvqbf0","pricing_plan_id":"free"},{"bike_id":"7fe21e3e-e2b2-4fe5-9909-782508c4706f","system_id":"levelo_inurba_marseille","lat":43.2936,"lon":5.37835,"is_reserved":false,"is_disabled":false,"rental_uris":{"android":"levelo://app?vid=7fe21e3e-e2b2-4fe5-9909-782508c4706f","ios":"levelo://app?vid=7fe21e3e-e2b2-4fe5-9909-782508c4706f"},"vehicle_type_id":"4","last_reported":1692770958,"current_range_meters":31200,"station_id":"ce4bgjh2rcd13ifvqbf0","pricing_plan_id":"free"},{"bike_id":"b5bdd6d7-7e50-40e0-b142-885d82957029","system_id":"levelo_inurba_marseille","lat":43.2936,"lon":5.37835,"is_reserved":false,"is_disabled":false,"rental_uris":{"android":"levelo://app?vid=b5bdd6d7-7e50-40e0-b142-885d82957029","ios":"levelo://app?vid=b5bdd6d7-7e50-40e0-b142-885d82957029"},"vehicle_type_id":"4","last_reported":1692770958,"current_range_meters":31600,"station_id":"ce4bgjh2rcd13ifvqbf0","pricing_plan_id":"free"},{"bike_id":"9a2277ec-890e-4c38-af81-5e1360b18147","system_id":"levelo_inurba_marseille","lat":43.2936,"lon":5.37835,"is_reserved":false,"is_disabled":false,"rental_uris":{"android":"levelo://app?vid=9a2277ec-890e-4c38-af81-5e1360b18147","ios":"levelo://app?vid=9a2277ec-890e-4c38-af81-5e1360b18147"},"vehicle_type_id":"4","last_reported":1692770958,"current_range_meters":30800,"station_id":"ce4bgjh2rcd13ifvqbf0","pricing_plan_id":"free"},{"bike_id":"cad3cda1-5a90-4ace-9eee-e5b718527473","system_id":"levelo_inurba_marseille","lat":43.2936,"lon":5.37835,"is_reserved":false,"is_disabled":false,"rental_uris":{"android":"levelo://app?vid=cad3cda1-5a90-4ace-9eee-e5b718527473","ios":"levelo://app?vid=cad3cda1-5a90-4ace-9eee-e5b718527473"},"vehicle_type_id":"4","last_reported":1692770958,"current_range_meters":28400,"station_id":"ce4bgjh2rcd13ifvqbf0","pricing_plan_id":"free"},{"bike_id":"58f26e0f-47dc-47c5-b3fd-2ca056b14977","system_id":"levelo_inurba_marseille","lat":43.292311,"lon":5.360731,"is_reserved":false,"is_disabled":false,"rental_uris":{"android":"levelo://app?vid=58f26e0f-47dc-47c5-b3fd-2ca056b14977","ios":"levelo://app?vid=58f26e0f-47dc-47c5-b3fd-2ca056b14977"},"vehicle_type_id":"4","last_reported":1692770958,"current_range_meters":29200,"station_id":"ce4bhbh2rcd13ifvqeqg","pricing_plan_id":"free"},{"bike_id":"42a79245-26ef-4f4c-bebf-4eff544f91f3","system_id":"levelo_inurba_marseille","lat":43.292663,"lon":5.376389,"is_reserved":false,"is_disabled":false,"rental_uris":{"android":"levelo://app?vid=42a79245-26ef-4f4c-bebf-4eff544f91f3","ios":"levelo://app?vid=42a79245-26ef-4f4c-bebf-4eff544f91f3"},"vehicle_type_id":"4","last_reported":1692770958,"current_range_meters":31200,"station_id":"ce4bgi12rcd13ifvqb80","pricing_plan_id":"free"},{"bike_id":"e1c848cd-9d8c-47e2-8e3a-e7894b26eb2d","system_id":"levelo_inurba_marseille","lat":43.292663,"lon":5.376389,"is_reserved":false,"is_disabled":false,"rental_uris":{"android":"levelo://app?vid=e1c848cd-9d8c-47e2-8e3a-e7894b26eb2d","ios":"levelo://app?vid=e1c848cd-9d8c-47e2-8e3a-e7894b26eb2d"},"vehicle_type_id":"4","last_reported":1692770958,"current_range_meters":31200,"station_id":"ce4bgi12rcd13ifvqb80","pricing_plan_id":"free"},{"bike_id":"437d85b6-8f44-4f65-a531-7e4bb8b462be","system_id":"levelo_inurba_marseille","lat":43.291675,"lon":5.371583,"is_reserved":false,"is_disabled":false,"rental_uris":{"android":"levelo://app?vid=437d85b6-8f44-4f65-a531-7e4bb8b462be","ios":"levelo://app?vid=437d85b6-8f44-4f65-a531-7e4bb8b462be"},"vehicle_type_id":"4","last_reported":1692770958,"current_range_meters":27200,"station_id":"ce4bha92rcd13ifvqeh0","pricing_plan_id":"free"},{"bike_id":"31a0db89-447a-4748-8a3f-44ae44644408","system_id":"levelo_inurba_marseille","lat":43.291671,"lon":5.371575,"is_reserved":false,"is_disabled":false,"rental_uris":{"android":"levelo://app?vid=31a0db89-447a-4748-8a3f-44ae44644408","ios":"levelo://app?vid=31a0db89-447a-4748-8a3f-44ae44644408"},"vehicle_type_id":"4","last_reported":1692770958,"current_range_meters":22400,"station_id":"ce4bha92rcd13ifvqeh0","pricing_plan_id":"free"},{"bike_id":"0dd02432-c8f0-4ba7-8488-5b4862e99c55","system_id":"levelo_inurba_marseille","lat":43.291671,"lon":5.371575,"is_reserved":false,"is_disabled":false,"rental_uris":{"android":"levelo://app?vid=0dd02432-c8f0-4ba7-8488-5b4862e99c55","ios":"levelo://app?vid=0dd02432-c8f0-4ba7-8488-5b4862e99c55"},"vehicle_type_id":"4","last_reported":1692770958,"current_range_meters":21200,"station_id":"ce4bha92rcd13ifvqeh0","pricing_plan_id":"free"},{"bike_id":"3ac3e844-16cd-4c49-a6c3-e105890ab95b","system_id":"levelo_inurba_marseille","lat":43.3089,"lon":5.39637,"is_reserved":false,"is_disabled":false,"rental_uris":{"android":"levelo://app?vid=3ac3e844-16cd-4c49-a6c3-e105890ab95b","ios":"levelo://app?vid=3ac3e844-16cd-4c49-a6c3-e105890ab95b"},"vehicle_type_id":"4","last_reported":1692770958,"current_range_meters":30800,"station_id":"ce4bh012rcd13ifvqcv0","pricing_plan_id":"free"},{"bike_id":"dda936da-1cea-4f5e-b783-27f97053e384","system_id":"levelo_inurba_marseille","lat":43.30886,"lon":5.39638,"is_reserved":false,"is_disabled":false,"rental_uris":{"android":"levelo://app?vid=dda936da-1cea-4f5e-b783-27f97053e384","ios":"levelo://app?vid=dda936da-1cea-4f5e-b783-27f97053e384"},"vehicle_type_id":"4","last_reported":1692770958,"current_range_meters":26400,"station_id":"ce4bh012rcd13ifvqcv0","pricing_plan_id":"free"},{"bike_id":"d7b29ef9-a477-4364-92f2-91792825ad91","system_id":"levelo_inurba_marseille","lat":43.309038,"lon":5.396546,"is_reserved":false,"is_disabled":false,"rental_uris":{"android":"levelo://app?vid=d7b29ef9-a477-4364-92f2-91792825ad91","ios":"levelo://app?vid=d7b29ef9-a477-4364-92f2-91792825ad91"},"vehicle_type_id":"4","last_reported":1692770958,"current_range_meters":20400,"station_id":"ce4bh012rcd13ifvqcv0","pricing_plan_id":"free"},{"bike_id":"22ee558b-ae08-4772-9c62-74ca61d2c480","system_id":"levelo_inurba_marseille","lat":43.309038,"lon":5.396546,"is_reserved":false,"is_disabled":false,"rental_uris":{"android":"levelo://app?vid=22ee558b-ae08-4772-9c62-74ca61d2c480","ios":"levelo://app?vid=22ee558b-ae08-4772-9c62-74ca61d2c480"},"vehicle_type_id":"4","last_reported":1692770958,"current_range_meters":21600,"station_id":"ce4bh012rcd13ifvqcv0","pricing_plan_id":"free"},{"bike_id":"f07fdadc-813f-4f5a-ba0f-271c35540855","system_id":"levelo_inurba_marseille","lat":43.309038,"lon":5.396546,"is_reserved":false,"is_disabled":false,"rental_uris":{"android":"levelo://app?vid=f07fdadc-813f-4f5a-ba0f-271c35540855","ios":"levelo://app?vid=f07fdadc-813f-4f5a-ba0f-271c35540855"},"vehicle_type_id":"4","last_reported":1692770958,"current_range_meters":26800,"station_id":"ce4bh012rcd13ifvqcv0","pricing_plan_id":"free"},{"bike_id":"4b343901-2891-4575-a3d8-99fe06a06e44","system_id":"levelo_inurba_marseille","lat":43.31326,"lon":5.39687,"is_reserved":false,"is_disabled":false,"rental_uris":{"android":"levelo://app?vid=4b343901-2891-4575-a3d8-99fe06a06e44","ios":"levelo://app?vid=4b343901-2891-4575-a3d8-99fe06a06e44"},"vehicle_type_id":"4","last_reported":1692770958,"current_range_meters":31200,"station_id":"ce4bgvp2rcd13ifvqcu0","pricing_plan_id":"free"},{"bike_id":"6e6b165c-d0ae-4a6e-b3bb-9ae6990baea9","system_id":"levelo_inurba_marseille","lat":43.30893,"lon":5.39644,"is_reserved":false,"is_disabled":false,"rental_uris":{"android":"levelo://app?vid=6e6b165c-d0ae-4a6e-b3bb-9ae6990baea9","ios":"levelo://app?vid=6e6b165c-d0ae-4a6e-b3bb-9ae6990baea9"},"vehicle_type_id":"4","last_reported":1692770958,"current_range_meters":30400,"station_id":"ce4bh012rcd13ifvqcv0","pricing_plan_id":"free"},{"bike_id":"e17bc19b-1c5d-465b-bf26-58157fc49f12","system_id":"levelo_inurba_marseille","lat":43.309038,"lon":5.396546,"is_reserved":false,"is_disabled":false,"rental_uris":{"android":"levelo://app?vid=e17bc19b-1c5d-465b-bf26-58157fc49f12","ios":"levelo://app?vid=e17bc19b-1c5d-465b-bf26-58157fc49f12"},"vehicle_type_id":"4","last_reported":1692770958,"current_range_meters":26800,"station_id":"ce4bh012rcd13ifvqcv0","pricing_plan_id":"free"},{"bike_id":"86d20f0d-74e1-4fe5-b51a-e082ab2c8172","system_id":"levelo_inurba_marseille","lat":43.309038,"lon":5.396546,"is_reserved":false,"is_disabled":false,"rental_uris":{"android":"levelo://app?vid=86d20f0d-74e1-4fe5-b51a-e082ab2c8172","ios":"levelo://app?vid=86d20f0d-74e1-4fe5-b51a-e082ab2c8172"},"vehicle_type_id":"4","last_reported":1692770958,"current_range_meters":28400,"station_id":"ce4bh012rcd13ifvqcv0","pricing_plan_id":"free"},{"bike_id":"d77d08b1-f23e-4527-adb1-cc354f8e41e9","system_id":"levelo_inurba_marseille","lat":43.309038,"lon":5.396546,"is_reserved":false,"is_disabled":false,"rental_uris":{"android":"levelo://app?vid=d77d08b1-f23e-4527-adb1-cc354f8e41e9","ios":"levelo://app?vid=d77d08b1-f23e-4527-adb1-cc354f8e41e9"},"vehicle_type_id":"4","last_reported":1692770958,"current_range_meters":22800,"station_id":"ce4bh012rcd13ifvqcv0","pricing_plan_id":"free"},{"bike_id":"7ef37ac9-eabc-4a63-9778-b1f2ba4a71b8","system_id":"levelo_inurba_marseille","lat":43.309038,"lon":5.396546,"is_reserved":false,"is_disabled":false,"rental_uris":{"android":"levelo://app?vid=7ef37ac9-eabc-4a63-9778-b1f2ba4a71b8","ios":"levelo://app?vid=7ef37ac9-eabc-4a63-9778-b1f2ba4a71b8"},"vehicle_type_id":"4","last_reported":1692770958,"current_range_meters":31200,"station_id":"ce4bh012rcd13ifvqcv0","pricing_plan_id":"free"},{"bike_id":"9945b6ab-4c8b-4ca8-aed1-4e038f4908a0","system_id":"levelo_inurba_marseille","lat":43.31325,"lon":5.39693,"is_reserved":false,"is_disabled":false,"rental_uris":{"android":"levelo://app?vid=9945b6ab-4c8b-4ca8-aed1-4e038f4908a0","ios":"levelo://app?vid=9945b6ab-4c8b-4ca8-aed1-4e038f4908a0"},"vehicle_type_id":"4","last_reported":1692770958,"current_range_meters":18000,"station_id":"ce4bgvp2rcd13ifvqcu0","pricing_plan_id":"free"},{"bike_id":"9f78b5d2-7c1b-45a7-a1af-23e727ba0133","system_id":"levelo_inurba_marseille","lat":43.31329,"lon":5.39693,"is_reserved":false,"is_disabled":false,"rental_uris":{"android":"levelo://app?vid=9f78b5d2-7c1b-45a7-a1af-23e727ba0133","ios":"levelo://app?vid=9f78b5d2-7c1b-45a7-a1af-23e727ba0133"},"vehicle_type_id":"4","last_reported":1692770958,"current_range_meters":30400,"station_id":"ce4bgvp2rcd13ifvqcu0","pricing_plan_id":"free"},{"bike_id":"9a4dcef5-ad32-4c9e-a0cf-fba39460f59c","system_id":"levelo_inurba_marseille","lat":43.30882,"lon":5.39647,"is_reserved":false,"is_disabled":false,"rental_uris":{"android":"levelo://app?vid=9a4dcef5-ad32-4c9e-a0cf-fba39460f59c","ios":"levelo://app?vid=9a4dcef5-ad32-4c9e-a0cf-fba39460f59c"},"vehicle_type_id":"4","last_reported":1692770958,"current_range_meters":31200,"station_id":"ce4bh012rcd13ifvqcv0","pricing_plan_id":"free"},{"bike_id":"637f1d0b-7d22-452f-b31c-2ae320b69447","system_id":"levelo_inurba_marseille","lat":43.30886,"lon":5.39648,"is_reserved":false,"is_disabled":false,"rental_uris":{"android":"levelo://app?vid=637f1d0b-7d22-452f-b31c-2ae320b69447","ios":"levelo://app?vid=637f1d0b-7d22-452f-b31c-2ae320b69447"},"vehicle_type_id":"4","last_reported":1692770958,"current_range_meters":31200,"station_id":"ce4bh012rcd13ifvqcv0","pricing_plan_id":"free"},{"bike_id":"f741caf6-56a8-4ebe-8023-bdf87fb263c9","system_id":"levelo_inurba_marseille","lat":43.31326,"lon":5.39695,"is_reserved":false,"is_disabled":false,"rental_uris":{"android":"levelo://app?vid=f741caf6-56a8-4ebe-8023-bdf87fb263c9","ios":"levelo://app?vid=f741caf6-56a8-4ebe-8023-bdf87fb263c9"},"vehicle_type_id":"4","last_reported":1692770958,"current_range_meters":23200,"station_id":"ce4bgvp2rcd13ifvqcu0","pricing_plan_id":"free"},{"bike_id":"2bd07cc6-10cc-49e1-9b20-09141cac8d3c","system_id":"levelo_inurba_marseille","lat":43.313291,"lon":5.396838,"is_reserved":false,"is_disabled":false,"rental_uris":{"android":"levelo://app?vid=2bd07cc6-10cc-49e1-9b20-09141cac8d3c","ios":"levelo://app?vid=2bd07cc6-10cc-49e1-9b20-09141cac8d3c"},"vehicle_type_id":"4","last_reported":1692770958,"current_range_meters":28800,"station_id":"ce4bgvp2rcd13ifvqcu0","pricing_plan_id":"free"},{"bike_id":"6e2a7a85-f94d-450a-aff2-dbf6679541b4","system_id":"levelo_inurba_marseille","lat":43.30889,"lon":5.39649,"is_reserved":false,"is_disabled":false,"rental_uris":{"android":"levelo://app?vid=6e2a7a85-f94d-450a-aff2-dbf6679541b4","ios":"levelo://app?vid=6e2a7a85-f94d-450a-aff2-dbf6679541b4"},"vehicle_type_id":"4","last_reported":1692770958,"current_range_meters":21600,"station_id":"ce4bh012rcd13ifvqcv0","pricing_plan_id":"free"},{"bike_id":"63d7f4b5-088d-4c12-8b1d-2914274d162a","system_id":"levelo_inurba_marseille","lat":43.31325,"lon":5.39696,"is_reserved":false,"is_disabled":false,"rental_uris":{"android":"levelo://app?vid=63d7f4b5-088d-4c12-8b1d-2914274d162a","ios":"levelo://app?vid=63d7f4b5-088d-4c12-8b1d-2914274d162a"},"vehicle_type_id":"4","last_reported":1692770958,"current_range_meters":18400,"station_id":"ce4bgvp2rcd13ifvqcu0","pricing_plan_id":"free"},{"bike_id":"8a2f8717-cffa-4935-8641-f277be3434f6","system_id":"levelo_inurba_marseille","lat":43.31318,"lon":5.39697,"is_reserved":false,"is_disabled":false,"rental_uris":{"android":"levelo://app?vid=8a2f8717-cffa-4935-8641-f277be3434f6","ios":"levelo://app?vid=8a2f8717-cffa-4935-8641-f277be3434f6"},"vehicle_type_id":"4","last_reported":1692770958,"current_range_meters":10400,"station_id":"ce4bgvp2rcd13ifvqcu0","pricing_plan_id":"free"},{"bike_id":"e3c01c69-6169-4838-9b94-56f1bd1a53c2","system_id":"levelo_inurba_marseille","lat":43.309038,"lon":5.396546,"is_reserved":false,"is_disabled":false,"rental_uris":{"android":"levelo://app?vid=e3c01c69-6169-4838-9b94-56f1bd1a53c2","ios":"levelo://app?vid=e3c01c69-6169-4838-9b94-56f1bd1a53c2"},"vehicle_type_id":"4","last_reported":1692770958,"current_range_meters":27600,"station_id":"ce4bh012rcd13ifvqcv0","pricing_plan_id":"free"},{"bike_id":"8086c0eb-188a-4ca8-b633-ae0dfe744e3d","system_id":"levelo_inurba_marseille","lat":43.29187,"lon":5.35793,"is_reserved":false,"is_disabled":false,"rental_uris":{"android":"levelo://app?vid=8086c0eb-188a-4ca8-b633-ae0dfe744e3d","ios":"levelo://app?vid=8086c0eb-188a-4ca8-b633-ae0dfe744e3d"},"vehicle_type_id":"4","last_reported":1692770958,"current_range_meters":30800,"station_id":"ce4bhb12rcd13ifvqel0","pricing_plan_id":"free"},{"bike_id":"40da6681-1664-4e1e-8a9b-83af51d64bf1","system_id":"levelo_inurba_marseille","lat":43.313291,"lon":5.396838,"is_reserved":false,"is_disabled":false,"rental_uris":{"android":"levelo://app?vid=40da6681-1664-4e1e-8a9b-83af51d64bf1","ios":"levelo://app?vid=40da6681-1664-4e1e-8a9b-83af51d64bf1"},"vehicle_type_id":"4","last_reported":1692770958,"current_range_meters":18800,"station_id":"ce4bgvp2rcd13ifvqcu0","pricing_plan_id":"free"},{"bike_id":"3000639e-d072-48c9-982a-59d7fa47b4ce","system_id":"levelo_inurba_marseille","lat":43.309038,"lon":5.396546,"is_reserved":false,"is_disabled":false,"rental_uris":{"android":"levelo://app?vid=3000639e-d072-48c9-982a-59d7fa47b4ce","ios":"levelo://app?vid=3000639e-d072-48c9-982a-59d7fa47b4ce"},"vehicle_type_id":"4","last_reported":1692770958,"current_range_meters":21200,"station_id":"ce4bh012rcd13ifvqcv0","pricing_plan_id":"free"},{"bike_id":"cc5483be-917e-4c5e-a231-05c61e7a6732","system_id":"levelo_inurba_marseille","lat":43.30879,"lon":5.3965,"is_reserved":false,"is_disabled":false,"rental_uris":{"android":"levelo://app?vid=cc5483be-917e-4c5e-a231-05c61e7a6732","ios":"levelo://app?vid=cc5483be-917e-4c5e-a231-05c61e7a6732"},"vehicle_type_id":"4","last_reported":1692770958,"current_range_meters":23600,"station_id":"ce4bh012rcd13ifvqcv0","pricing_plan_id":"free"},{"bike_id":"869b7731-ddc2-443e-b04c-78cb9f07685b","system_id":"levelo_inurba_marseille","lat":43.309038,"lon":5.396546,"is_reserved":false,"is_disabled":false,"rental_uris":{"android":"levelo://app?vid=869b7731-ddc2-443e-b04c-78cb9f07685b","ios":"levelo://app?vid=869b7731-ddc2-443e-b04c-78cb9f07685b"},"vehicle_type_id":"4","last_reported":1692770958,"current_range_meters":31200,"station_id":"ce4bh012rcd13ifvqcv0","pricing_plan_id":"free"},{"bike_id":"5ce8524a-680b-4457-a806-2829e96dc0d5","system_id":"levelo_inurba_marseille","lat":43.309038,"lon":5.396546,"is_reserved":false,"is_disabled":false,"rental_uris":{"android":"levelo://app?vid=5ce8524a-680b-4457-a806-2829e96dc0d5","ios":"levelo://app?vid=5ce8524a-680b-4457-a806-2829e96dc0d5"},"vehicle_type_id":"4","last_reported":1692770958,"current_range_meters":30800,"station_id":"ce4bh012rcd13ifvqcv0","pricing_plan_id":"free"},{"bike_id":"55733591-4bf6-4b3a-87c6-bf57e1d72414","system_id":"levelo_inurba_marseille","lat":43.31327,"lon":5.39703,"is_reserved":false,"is_disabled":false,"rental_uris":{"android":"levelo://app?vid=55733591-4bf6-4b3a-87c6-bf57e1d72414","ios":"levelo://app?vid=55733591-4bf6-4b3a-87c6-bf57e1d72414"},"vehicle_type_id":"4","last_reported":1692770958,"current_range_meters":30000,"station_id":"ce4bgvp2rcd13ifvqcu0","pricing_plan_id":"free"},{"bike_id":"da8e5fde-6b05-429b-bd64-c5de6eae9457","system_id":"levelo_inurba_marseille","lat":43.291864,"lon":5.357297,"is_reserved":false,"is_disabled":false,"rental_uris":{"android":"levelo://app?vid=da8e5fde-6b05-429b-bd64-c5de6eae9457","ios":"levelo://app?vid=da8e5fde-6b05-429b-bd64-c5de6eae9457"},"vehicle_type_id":"4","last_reported":1692770958,"current_range_meters":16800,"station_id":"ce4bhb12rcd13ifvqel0","pricing_plan_id":"free"},{"bike_id":"39b5b5cf-86ef-48ea-a176-58e554756417","system_id":"levelo_inurba_marseille","lat":43.302008,"lon":5.394694,"is_reserved":false,"is_disabled":false,"rental_uris":{"android":"levelo://app?vid=39b5b5cf-86ef-48ea-a176-58e554756417","ios":"levelo://app?vid=39b5b5cf-86ef-48ea-a176-58e554756417"},"vehicle_type_id":"4","last_reported":1692770958,"current_range_meters":31200,"station_id":"ce4bh0p2rcd13ifvqd70","pricing_plan_id":"free"},{"bike_id":"c993eb4a-450a-4788-aa78-e8f6aa9b457a","system_id":"levelo_inurba_marseille","lat":43.29463,"lon":5.38692,"is_reserved":false,"is_disabled":false,"rental_uris":{"android":"levelo://app?vid=c993eb4a-450a-4788-aa78-e8f6aa9b457a","ios":"levelo://app?vid=c993eb4a-450a-4788-aa78-e8f6aa9b457a"},"vehicle_type_id":"4","last_reported":1692770958,"current_range_meters":0,"station_id":"","pricing_plan_id":"free"},{"bike_id":"26ed4d3d-0537-4ef6-abfa-961cec8a8a5f","system_id":"levelo_inurba_marseille","lat":43.28947,"lon":5.36637,"is_reserved":false,"is_disabled":false,"rental_uris":{"android":"levelo://app?vid=26ed4d3d-0537-4ef6-abfa-961cec8a8a5f","ios":"levelo://app?vid=26ed4d3d-0537-4ef6-abfa-961cec8a8a5f"},"vehicle_type_id":"4","last_reported":1692770958,"current_range_meters":31200,"station_id":"ce4bhap2rcd13ifvqek0","pricing_plan_id":"free"},{"bike_id":"547f6f64-5d52-47ba-a1e3-fe2eb0c1395e","system_id":"levelo_inurba_marseille","lat":43.290327,"lon":5.375711,"is_reserved":false,"is_disabled":false,"rental_uris":{"android":"levelo://app?vid=547f6f64-5d52-47ba-a1e3-fe2eb0c1395e","ios":"levelo://app?vid=547f6f64-5d52-47ba-a1e3-fe2eb0c1395e"},"vehicle_type_id":"4","last_reported":1692770958,"current_range_meters":8400,"station_id":"ce4bh692rcd13ifvqe90","pricing_plan_id":"free"},{"bike_id":"f9a1eb28-a053-4895-87c7-3551492954ff","system_id":"levelo_inurba_marseille","lat":43.28941,"lon":5.36636,"is_reserved":false,"is_disabled":false,"rental_uris":{"android":"levelo://app?vid=f9a1eb28-a053-4895-87c7-3551492954ff","ios":"levelo://app?vid=f9a1eb28-a053-4895-87c7-3551492954ff"},"vehicle_type_id":"4","last_reported":1692770958,"current_range_meters":30800,"station_id":"ce4bhap2rcd13ifvqek0","pricing_plan_id":"free"},{"bike_id":"e339d6a5-80a2-4164-b0d2-ef09dfcfb654","system_id":"levelo_inurba_marseille","lat":43.28936,"lon":5.36639,"is_reserved":false,"is_disabled":false,"rental_uris":{"android":"levelo://app?vid=e339d6a5-80a2-4164-b0d2-ef09dfcfb654","ios":"levelo://app?vid=e339d6a5-80a2-4164-b0d2-ef09dfcfb654"},"vehicle_type_id":"4","last_reported":1692770958,"current_range_meters":27200,"station_id":"ce4bhap2rcd13ifvqek0","pricing_plan_id":"free"},{"bike_id":"b48dfd61-a4f8-4872-830a-a4c0e1bac622","system_id":"levelo_inurba_marseille","lat":43.289184,"lon":5.366408,"is_reserved":false,"is_disabled":false,"rental_uris":{"android":"levelo://app?vid=b48dfd61-a4f8-4872-830a-a4c0e1bac622","ios":"levelo://app?vid=b48dfd61-a4f8-4872-830a-a4c0e1bac622"},"vehicle_type_id":"4","last_reported":1692770958,"current_range_meters":30400,"station_id":"ce4bhap2rcd13ifvqek0","pricing_plan_id":"free"},{"bike_id":"8dff27b9-bdaa-4d02-96ec-13c8b758109e","system_id":"levelo_inurba_marseille","lat":43.28935,"lon":5.36639,"is_reserved":false,"is_disabled":false,"rental_uris":{"android":"levelo://app?vid=8dff27b9-bdaa-4d02-96ec-13c8b758109e","ios":"levelo://app?vid=8dff27b9-bdaa-4d02-96ec-13c8b758109e"},"vehicle_type_id":"4","last_reported":1692770958,"current_range_meters":11200,"station_id":"ce4bhap2rcd13ifvqek0","pricing_plan_id":"free"},{"bike_id":"4bcdab75-8970-437d-8420-d3f87aa03283","system_id":"levelo_inurba_marseille","lat":43.289468,"lon":5.363719,"is_reserved":false,"is_disabled":false,"rental_uris":{"android":"levelo://app?vid=4bcdab75-8970-437d-8420-d3f87aa03283","ios":"levelo://app?vid=4bcdab75-8970-437d-8420-d3f87aa03283"},"vehicle_type_id":"4","last_reported":1692770958,"current_range_meters":6800,"station_id":"ce4bhc92rcd13ifvqetg","pricing_plan_id":"free"},{"bike_id":"416832a5-c1d4-423b-90c0-e0470dfb3aa6","system_id":"levelo_inurba_marseille","lat":43.3304,"lon":5.38918,"is_reserved":false,"is_disabled":false,"rental_uris":{"android":"levelo://app?vid=416832a5-c1d4-423b-90c0-e0470dfb3aa6","ios":"levelo://app?vid=416832a5-c1d4-423b-90c0-e0470dfb3aa6"},"vehicle_type_id":"4","last_reported":1692770958,"current_range_meters":21600,"station_id":"ce4bhr92rcd13ifvqhrg","pricing_plan_id":"free"},{"bike_id":"0f060318-14ff-4bbb-b1bd-d3bad0d20b4a","system_id":"levelo_inurba_marseille","lat":43.33038,"lon":5.38921,"is_reserved":false,"is_disabled":false,"rental_uris":{"android":"levelo://app?vid=0f060318-14ff-4bbb-b1bd-d3bad0d20b4a","ios":"levelo://app?vid=0f060318-14ff-4bbb-b1bd-d3bad0d20b4a"},"vehicle_type_id":"4","last_reported":1692770958,"current_range_meters":12000,"station_id":"ce4bhr92rcd13ifvqhrg","pricing_plan_id":"free"},{"bike_id":"cf72444a-69e4-40cb-88b7-7785ea61ec51","system_id":"levelo_inurba_marseille","lat":43.290104,"lon":5.356111,"is_reserved":false,"is_disabled":false,"rental_uris":{"android":"levelo://app?vid=cf72444a-69e4-40cb-88b7-7785ea61ec51","ios":"levelo://app?vid=cf72444a-69e4-40cb-88b7-7785ea61ec51"},"vehicle_type_id":"4","last_reported":1692770958,"current_range_meters":4800,"station_id":"ce4bhb92rcd13ifvqen0","pricing_plan_id":"free"},{"bike_id":"7691d65d-d321-467f-86e8-b26ac6013c5b","system_id":"levelo_inurba_marseille","lat":43.33037,"lon":5.38923,"is_reserved":false,"is_disabled":false,"rental_uris":{"android":"levelo://app?vid=7691d65d-d321-467f-86e8-b26ac6013c5b","ios":"levelo://app?vid=7691d65d-d321-467f-86e8-b26ac6013c5b"},"vehicle_type_id":"4","last_reported":1692770958,"current_range_meters":26000,"station_id":"ce4bhr92rcd13ifvqhrg","pricing_plan_id":"free"},{"bike_id":"ea2c072a-c599-4cb1-a67c-c82011d9d932","system_id":"levelo_inurba_marseille","lat":43.33041,"lon":5.38921,"is_reserved":false,"is_disabled":false,"rental_uris":{"android":"levelo://app?vid=ea2c072a-c599-4cb1-a67c-c82011d9d932","ios":"levelo://app?vid=ea2c072a-c599-4cb1-a67c-c82011d9d932"},"vehicle_type_id":"4","last_reported":1692770958,"current_range_meters":18400,"station_id":"ce4bhr92rcd13ifvqhrg","pricing_plan_id":"free"},{"bike_id":"3edec34c-b5e0-4c51-b916-cb7b6255aa81","system_id":"levelo_inurba_marseille","lat":43.33041,"lon":5.38924,"is_reserved":false,"is_disabled":false,"rental_uris":{"android":"levelo://app?vid=3edec34c-b5e0-4c51-b916-cb7b6255aa81","ios":"levelo://app?vid=3edec34c-b5e0-4c51-b916-cb7b6255aa81"},"vehicle_type_id":"4","last_reported":1692770958,"current_range_meters":9600,"station_id":"ce4bhr92rcd13ifvqhrg","pricing_plan_id":"free"},{"bike_id":"4bef911f-f277-4de3-86d5-0f9c7aaa1d5e","system_id":"levelo_inurba_marseille","lat":43.33041,"lon":5.38924,"is_reserved":false,"is_disabled":false,"rental_uris":{"android":"levelo://app?vid=4bef911f-f277-4de3-86d5-0f9c7aaa1d5e","ios":"levelo://app?vid=4bef911f-f277-4de3-86d5-0f9c7aaa1d5e"},"vehicle_type_id":"4","last_reported":1692770958,"current_range_meters":12800,"station_id":"ce4bhr92rcd13ifvqhrg","pricing_plan_id":"free"},{"bike_id":"b7485f8e-79cf-49fb-9b64-8bef91ab5902","system_id":"levelo_inurba_marseille","lat":43.33045,"lon":5.3892,"is_reserved":false,"is_disabled":false,"rental_uris":{"android":"levelo://app?vid=b7485f8e-79cf-49fb-9b64-8bef91ab5902","ios":"levelo://app?vid=b7485f8e-79cf-49fb-9b64-8bef91ab5902"},"vehicle_type_id":"4","last_reported":1692770958,"current_range_meters":18400,"station_id":"ce4bhr92rcd13ifvqhrg","pricing_plan_id":"free"},{"bike_id":"d315989d-2676-45b1-a67d-c868ea228848","system_id":"levelo_inurba_marseille","lat":43.290104,"lon":5.356111,"is_reserved":false,"is_disabled":false,"rental_uris":{"android":"levelo://app?vid=d315989d-2676-45b1-a67d-c868ea228848","ios":"levelo://app?vid=d315989d-2676-45b1-a67d-c868ea228848"},"vehicle_type_id":"4","last_reported":1692770958,"current_range_meters":10000,"station_id":"ce4bhb92rcd13ifvqen0","pricing_plan_id":"free"},{"bike_id":"b0b77687-c0a3-40f8-a8eb-6ce971853aa1","system_id":"levelo_inurba_marseille","lat":43.290104,"lon":5.356111,"is_reserved":false,"is_disabled":false,"rental_uris":{"android":"levelo://app?vid=b0b77687-c0a3-40f8-a8eb-6ce971853aa1","ios":"levelo://app?vid=b0b77687-c0a3-40f8-a8eb-6ce971853aa1"},"vehicle_type_id":"4","last_reported":1692770958,"current_range_meters":28000,"station_id":"ce4bhb92rcd13ifvqen0","pricing_plan_id":"free"},{"bike_id":"cde08171-d87e-45a5-a8d0-c519ab926fc6","system_id":"levelo_inurba_marseille","lat":43.33046,"lon":5.38921,"is_reserved":false,"is_disabled":false,"rental_uris":{"android":"levelo://app?vid=cde08171-d87e-45a5-a8d0-c519ab926fc6","ios":"levelo://app?vid=cde08171-d87e-45a5-a8d0-c519ab926fc6"},"vehicle_type_id":"4","last_reported":1692770958,"current_range_meters":3600,"station_id":"ce4bhr92rcd13ifvqhrg","pricing_plan_id":"free"},{"bike_id":"6d4dc447-7a6f-47cf-a8f3-62c264ef5abe","system_id":"levelo_inurba_marseille","lat":43.29,"lon":5.35625,"is_reserved":false,"is_disabled":false,"rental_uris":{"android":"levelo://app?vid=6d4dc447-7a6f-47cf-a8f3-62c264ef5abe","ios":"levelo://app?vid=6d4dc447-7a6f-47cf-a8f3-62c264ef5abe"},"vehicle_type_id":"4","last_reported":1692770958,"current_range_meters":31200,"station_id":"ce4bhb92rcd13ifvqen0","pricing_plan_id":"free"},{"bike_id":"6c918aa6-b6e4-4d62-a00b-b8b8ea917d4e","system_id":"levelo_inurba_marseille","lat":43.28999,"lon":5.35625,"is_reserved":false,"is_disabled":false,"rental_uris":{"android":"levelo://app?vid=6c918aa6-b6e4-4d62-a00b-b8b8ea917d4e","ios":"levelo://app?vid=6c918aa6-b6e4-4d62-a00b-b8b8ea917d4e"},"vehicle_type_id":"4","last_reported":1692770958,"current_range_meters":26000,"station_id":"ce4bhb92rcd13ifvqen0","pricing_plan_id":"free"},{"bike_id":"c5db4168-1bf6-4878-b80a-7a479ba0aef9","system_id":"levelo_inurba_marseille","lat":43.290104,"lon":5.356111,"is_reserved":false,"is_disabled":false,"rental_uris":{"android":"levelo://app?vid=c5db4168-1bf6-4878-b80a-7a479ba0aef9","ios":"levelo://app?vid=c5db4168-1bf6-4878-b80a-7a479ba0aef9"},"vehicle_type_id":"4","last_reported":1692770958,"current_range_meters":20800,"station_id":"ce4bhb92rcd13ifvqen0","pricing_plan_id":"free"},