{"last_updated":1770031707,"ttl":60,"version":"2.2","data":{"bikes":[{"bike_id":"c16bbffc-3f7b-4299-aa6c-4c3611fa54d9","system_id":"levelo_inurba_marseille","lat":43.28462,"lon":5.39064,"is_reserved":false,"is_disabled":true,"rental_uris":{"android":"levelo://app?vid=c16bbffc-3f7b-4299-aa6c-4c3611fa54d9","ios":"levelo://app?vid=c16bbffc-3f7b-4299-aa6c-4c3611fa54d9"},"vehicle_type_id":"4","last_reported":1770031708,"current_range_meters":2800,"station_id":"","pricing_plan_id":"cebpf4jnsgd1na2vs0mg"},{"bike_id":"7974b1b2-000f-4cf2-b1f2-c280cc324e92","system_id":"levelo_inurba_marseille","lat":43.26535,"lon":5.39549,"is_reserved":false,"is_disabled":true,"rental_uris":{"android":"levelo://app?vid=7974b1b2-000f-4cf2-b1f2-c280cc324e92","ios":"levelo://app?vid=7974b1b2-000f-4cf2-b1f2-c280cc324e92"},"vehicle_type_id":"4","last_reported":1770031708,"current_range_meters":2800,"station_id":"ce4bhi12rcd13ifvqfq0","pricing_plan_id":"cebpf4jnsgd1na2vs0mg"},{"bike_id":"26bd2557-3046-4212-82fc-da1fdbd42b2c","system_id":"levelo_inurba_marseille","lat":43.28527,"lon":5.441,"is_reserved":false,"is_disabled":false,"rental_uris":{"android":"levelo://app?vid=26bd2557-3046-4212-82fc-da1fdbd42b2c","ios":"levelo://app?vid=26bd2557-3046-4212-82fc-da1fdbd42b2c"},"vehicle_type_id":"4","last_reported":1770031708,"current_range_meters":2800,"station_id":"st_d3j3df2ikq2c7380ej80","pricing_plan_id":"cebpf4jnsgd1na2vs0mg"},{"bike_id":"f8a0ae1c-a37d-4006-8541-a752d1a3cea9","system_id":"levelo_inurba_marseille","lat":43.29661,"lon":5.40123,"is_reserved":false,"is_disabled":false,"rental_uris":{"android":"levelo://app?vid=f8a0ae1c-a37d-4006-8541-a752d1a3cea9","ios":"levelo://app?vid=f8a0ae1c-a37d-4006-8541-a752d1a3cea9"},"vehicle_type_id":"4","last_reported":1770031708,"current_range_meters":2800,"station_id":"","pricing_plan_id":"cebpf4jnsgd1na2vs0mg"},{"bike_id":"77cb0c61-c53d-487e-9b54-63053dd543ff","system_id":"levelo_inurba_marseille","lat":43.26766,"lon":5.39427,"is_reserved":false,"is_disabled":false,"rental_uris":{"android":"levelo://app?vid=77cb0c61-c53d-487e-9b54-63053dd543ff","ios":"levelo://app?vid=77cb0c61-c53d-487e-9b54-63053dd543ff"},"vehicle_type_id":"4","last_reported":1770031708,"current_range_meters":2800,"station_id":"ce4bhh12rcd13ifvqfg0","pricing_plan_id":"cebpf4jnsgd1na2vs0mg"},{"bike_id":"f272140a-ba8c-41f4-b937-d299664fe4de","system_id":"levelo_inurba_marseille","lat":43.24094,"lon":5.37755,"is_reserved":false,"is_disabled":false,"rental_uris":{"android":"levelo://app?vid=f272140a-ba8c-41f4-b937-d299664fe4de","ios":"levelo://app?vid=f272140a-ba8c-41f4-b937-d299664fe4de"},"vehicle_type_id":"4","last_reported":1770031708,"current_range_meters":2800,"station_id":"ce4bhnp2rcd13ifvqgvg","pricing_plan_id":"cebpf4jnsgd1na2vs0mg"},{"bike_id":"eade64ed-d848-41f2-be48-17a755c95a46","system_id":"levelo_inurba_marseille","lat":43.30583,"lon":5.39355,"is_reserved":false,"is_disabled":false,"rental_uris":{"android":"levelo://app?vid=eade64ed-d848-41f2-be48-17a755c95a46","ios":"levelo://app?vid=eade64ed-d848-41f2-be48-17a755c95a46"},"vehicle_type_id":"4","last_reported":1770031708,"current_range_meters":2800,"station_id":"ce4bh0p2rcd13ifvqd80","pricing_plan_id":"cebpf4jnsgd1na2vs0mg"},{"bike_id":"e8fa66cc-805c-4ac6-8036-6b85aaeb4d1e","system_id":"levelo_inurba_marseille","lat":43.29871,"lon":5.37611,"is_reserved":false,"is_disabled":false,"rental_uris":{"android":"levelo://app?vid=e8fa66cc-805c-4ac6-8036-6b85aaeb4d1e","ios":"levelo://app?vid=e8fa66cc-805c-4ac6-8036-6b85aaeb4d1e"},"vehicle_type_id":"4","last_reported":1770031708,"current_range_meters":2800,"station_id":"","pricing_plan_id":"cebpf4jnsgd1na2vs0mg"},{"bike_id":"6f8455de-cdcb-4115-8f9f-1a1c57d7cc8a","system_id":"levelo_inurba_marseille","lat":43.250057,"lon":5.389531,"is_reserved":false,"is_disabled":false,"rental_uris":{"android":"levelo://app?vid=6f8455de-cdcb-4115-8f9f-1a1c57d7cc8a","ios":"levelo://app?vid=6f8455de-cdcb-4115-8f9f-1a1c57d7cc8a"},"vehicle_type_id":"4","last_reported":1770031708,"current_range_meters":3200,"station_id":"ce4bhgp2rcd13ifvqfd0","pricing_plan_id":"cebpf4jnsgd1na2vs0mg"},{"bike_id":"dc68db14-c906-4c81-af24-38ade0c0fe18","system_id":"levelo_inurba_marseille","lat":43.22555,"lon":5.41633,"is_reserved":false,"is_disabled":false,"rental_uris":{"android":"levelo://app?vid=dc68db14-c906-4c81-af24-38ade0c0fe18","ios":"levelo://app?vid=dc68db14-c906-4c81-af24-38ade0c0fe18"},"vehicle_type_id":"4","last_reported":1770031708,"current_range_meters":3200,"station_id":"st_d2o4gvlbi1j2169b742g","pricing_plan_id":"cebpf4jnsgd1na2vs0mg"},{"bike_id":"d02a39b5-b9e6-42c0-89cf-ec41b03ef41c","system_id":"levelo_inurba_marseille","lat":43.27391,"lon":5.36274,"is_reserved":false,"is_disabled":false,"rental_uris":{"android":"levelo://app?vid=d02a39b5-b9e6-42c0-89cf-ec41b03ef41c","ios":"levelo://app?vid=d02a39b5-b9e6-42c0-89cf-ec41b03ef41c"},"vehicle_type_id":"4","last_reported":1770031708,"current_range_meters":3200,"station_id":"ce4bhbh2rcd13ifvqeo0","pricing_plan_id":"cebpf4jnsgd1na2vs0mg"},{"bike_id":"767dc731-f365-45e9-b7a0-0144ed9ff9a5","system_id":"levelo_inurba_marseille","lat":43.31212,"lon":5.36856,"is_reserved":false,"is_disabled":false,"rental_uris":{"android":"levelo://app?vid=767dc731-f365-45e9-b7a0-0144ed9ff9a5","ios":"levelo://app?vid=767dc731-f365-45e9-b7a0-0144ed9ff9a5"},"vehicle_type_id":"4","last_reported":1770031708,"current_range_meters":3200,"station_id":"ce4bgl92rcd13ifvqbq0","pricing_plan_id":"cebpf4jnsgd1na2vs0mg"},{"bike_id":"e5b9c854-52bd-4571-9d09-3836aec2957e","system_id":"levelo_inurba_marseille","lat":43.24162,"lon":5.36425,"is_reserved":false,"is_disabled":false,"rental_uris":{"android":"levelo://app?vid=e5b9c854-52bd-4571-9d09-3836aec2957e","ios":"levelo://app?vid=e5b9c854-52bd-4571-9d09-3836aec2957e"},"vehicle_type_id":"4","last_reported":1770031708,"current_range_meters":3200,"station_id":"cpo36qri1sfpv3e86is0","pricing_plan_id":"cebpf4jnsgd1na2vs0mg"},{"bike_id":"419e6abb-0874-44e4-9204-0dace6715096","system_id":"levelo_inurba_marseille","lat":43.3361,"lon":5.41026,"is_reserved":false,"is_disabled":false,"rental_uris":{"android":"levelo://app?vid=419e6abb-0874-44e4-9204-0dace6715096","ios":"levelo://app?vid=419e6abb-0874-44e4-9204-0dace6715096"},"vehicle_type_id":"4","last_reported":1770031708,"current_range_meters":3600,"station_id":"ce4bhqh2rcd13ifvqhmg","pricing_plan_id":"cebpf4jnsgd1na2vs0mg"},{"bike_id":"98410b4b-1668-4db2-80a0-19d281225169","system_id":"levelo_inurba_marseille","lat":43.28141,"lon":5.42644,"is_reserved":false,"is_disabled":false,"rental_uris":{"android":"levelo://app?vid=98410b4b-1668-4db2-80a0-19d281225169","ios":"levelo://app?vid=98410b4b-1668-4db2-80a0-19d281225169"},"vehicle_type_id":"4","last_reported":1770031708,"current_range_meters":3600,"station_id":"ce4bhnh2rcd13ifvqgug","pricing_plan_id":"cebpf4jnsgd1na2vs0mg"},{"bike_id":"1c1f8539-b1ae-43f7-94e2-f9ba91100b64","system_id":"levelo_inurba_marseille","lat":43.31711,"lon":5.37763,"is_reserved":false,"is_disabled":false,"rental_uris":{"android":"levelo://app?vid=1c1f8539-b1ae-43f7-94e2-f9ba91100b64","ios":"levelo://app?vid=1c1f8539-b1ae-43f7-94e2-f9ba91100b64"},"vehicle_type_id":"4","last_reported":1770031708,"current_range_meters":3600,"station_id":"ce4bgth2rcd13ifvqch0","pricing_plan_id":"cebpf4jnsgd1na2vs0mg"},{"bike_id":"09e8f712-2d3f-42c3-8273-19bbaf32447d","system_id":"levelo_inurba_marseille","lat":43.26555,"lon":5.4033,"is_reserved":false,"is_disabled":true,"rental_uris":{"android":"levelo://app?vid=09e8f712-2d3f-42c3-8273-19bbaf32447d","ios":"levelo://app?vid=09e8f712-2d3f-42c3-8273-19bbaf32447d"},"vehicle_type_id":"4","last_reported":1770031708,"current_range_meters":3600,"station_id":"ce4bhmp2rcd13ifvqgng","pricing_plan_id":"cebpf4jnsgd1na2vs0mg"},{"bike_id":"83b0c6a2-5e64-44ff-82ae-2e65241f9e96","system_id":"levelo_inurba_marseille","lat":43.24071,"lon":5.37759,"is_reserved":false,"is_disabled":false,"rental_uris":{"android":"levelo://app?vid=83b0c6a2-5e64-44ff-82ae-2e65241f9e96","ios":"levelo://app?vid=83b0c6a2-5e64-44ff-82ae-2e65241f9e96"},"vehicle_type_id":"4","last_reported":1770031708,"current_range_meters":3600,"station_id":"ce4bhnp2rcd13ifvqgvg","pricing_plan_id":"cebpf4jnsgd1na2vs0mg"},{"bike_id":"54e0ff64-435b-46c4-97df-663dd90037bc","system_id":"levelo_inurba_marseille","lat":43.24076,"lon":5.37732,"is_reserved":false,"is_disabled":false,"rental_uris":{"android":"levelo://app?vid=54e0ff64-435b-46c4-97df-663dd90037bc","ios":"levelo://app?vid=54e0ff64-435b-46c4-97df-663dd90037bc"},"vehicle_type_id":"4","last_reported":1770031708,"current_range_meters":3600,"station_id":"ce4bhnp2rcd13ifvqgvg","pricing_plan_id":"cebpf4jnsgd1na2vs0mg"},{"bike_id":"08c04026-029c-49a2-b697-ec4c70ee4946","system_id":"levelo_inurba_marseille","lat":43.26192,"lon":5.37926,"is_reserved":false,"is_disabled":false,"rental_uris":{"android":"levelo://app?vid=08c04026-029c-49a2-b697-ec4c70ee4946","ios":"levelo://app?vid=08c04026-029c-49a2-b697-ec4c70ee4946"},"vehicle_type_id":"4","last_reported":1770031708,"current_range_meters":3600,"station_id":"ce4bhjp2rcd13ifvqg90","pricing_plan_id":"cebpf4jnsgd1na2vs0mg"},{"bike_id":"de0938f4-31a7-4a18-9919-5f275dd46947","system_id":"levelo_inurba_marseille","lat":43.29046,"lon":5.37584,"is_reserved":false,"is_disabled":false,"rental_uris":{"android":"levelo://app?vid=de0938f4-31a7-4a18-9919-5f275dd46947","ios":"levelo://app?vid=de0938f4-31a7-4a18-9919-5f275dd46947"},"vehicle_type_id":"4","last_reported":1770031708,"current_range_meters":4000,"station_id":"ce4bh692rcd13ifvqe90","pricing_plan_id":"cebpf4jnsgd1na2vs0mg"},{"bike_id":"8ac46387-d96e-4cba-b623-64994c03094f","system_id":"levelo_inurba_marseille","lat":43.2901,"lon":5.35619,"is_reserved":false,"is_disabled":false,"rental_uris":{"android":"levelo://app?vid=8ac46387-d96e-4cba-b623-64994c03094f","ios":"levelo://app?vid=8ac46387-d96e-4cba-b623-64994c03094f"},"vehicle_type_id":"4","last_reported":1770031708,"current_range_meters":4000,"station_id":"ce4bhb92rcd13ifvqen0","pricing_plan_id":"cebpf4jnsgd1na2vs0mg"},{"bike_id":"b00753f6-9e43-40ef-9959-628446071746","system_id":"levelo_inurba_marseille","lat":43.27827,"lon":5.40721,"is_reserved":false,"is_disabled":false,"rental_uris":{"android":"levelo://app?vid=b00753f6-9e43-40ef-9959-628446071746","ios":"levelo://app?vid=b00753f6-9e43-40ef-9959-628446071746"},"vehicle_type_id":"4","last_reported":1770031708,"current_range_meters":4000,"station_id":"ce4bhnh2rcd13ifvqgtg","pricing_plan_id":"cebpf4jnsgd1na2vs0mg"},{"bike_id":"e1d85e8f-816e-43e5-832f-fa3bb6c7d9fd","system_id":"levelo_inurba_marseille","lat":43.29792,"lon":5.4407,"is_reserved":false,"is_disabled":false,"rental_uris":{"android":"levelo://app?vid=e1d85e8f-816e-43e5-832f-fa3bb6c7d9fd","ios":"levelo://app?vid=e1d85e8f-816e-43e5-832f-fa3bb6c7d9fd"},"vehicle_type_id":"4","last_reported":1770031708,"current_range_meters":4000,"station_id":"st_d3jp68qikq2c7381ktn0","pricing_plan_id":"cebpf4jnsgd1na2vs0mg"},{"bike_id":"efc90966-4a96-483e-8db1-1b5d593938eb","system_id":"levelo_inurba_marseille","lat":43.31249,"lon":5.36862,"is_reserved":false,"is_disabled":false,"rental_uris":{"android":"levelo://app?vid=efc90966-4a96-483e-8db1-1b5d593938eb","ios":"levelo://app?vid=efc90966-4a96-483e-8db1-1b5d593938eb"},"vehicle_type_id":"4","last_reported":1770031708,"current_range_meters":4000,"station_id":"ce4bgl92rcd13ifvqbq0","pricing_plan_id":"cebpf4jnsgd1na2vs0mg"},{"bike_id":"1382f623-0261-429d-8a1d-8dba8ed96a7a","system_id":"levelo_inurba_marseille","lat":43.23157,"lon":5.43714,"is_reserved":false,"is_disabled":false,"rental_uris":{"android":"levelo://app?vid=1382f623-0261-429d-8a1d-8dba8ed96a7a","ios":"levelo://app?vid=1382f623-0261-429d-8a1d-8dba8ed96a7a"},"vehicle_type_id":"4","last_reported":1770031708,"current_range_meters":4000,"station_id":"ce4bhmp2rcd13ifvqgog","pricing_plan_id":"cebpf4jnsgd1na2vs0mg"},{"bike_id":"e1b9d24f-2421-486f-a00c-01e9adfdba49","system_id":"levelo_inurba_marseille","lat":43.2318,"lon":5.39989,"is_reserved":false,"is_disabled":false,"rental_uris":{"android":"levelo://app?vid=e1b9d24f-2421-486f-a00c-01e9adfdba49","ios":"levelo://app?vid=e1b9d24f-2421-486f-a00c-01e9adfdba49"},"vehicle_type_id":"4","last_reported":1770031708,"current_range_meters":4000,"station_id":"ce4bhn12rcd13ifvqgqg","pricing_plan_id":"cebpf4jnsgd1na2vs0mg"},{"bike_id":"d2a8c5fa-0c36-41dd-8f7a-8a7d34ee666f","system_id":"levelo_inurba_marseille","lat":43.25577,"lon":5.38267,"is_reserved":false,"is_disabled":false,"rental_uris":{"android":"levelo://app?vid=d2a8c5fa-0c36-41dd-8f7a-8a7d34ee666f","ios":"levelo://app?vid=d2a8c5fa-0c36-41dd-8f7a-8a7d34ee666f"},"vehicle_type_id":"4","last_reported":1770031708,"current_range_meters":4400,"station_id":"ce4bhih2rcd13ifvqfs0","pricing_plan_id":"cebpf4jnsgd1na2vs0mg"},{"bike_id":"8a43b495-b8dd-4169-8578-7a912884a06e","system_id":"levelo_inurba_marseille","lat":43.24822,"lon":5.37452,"is_reserved":false,"is_disabled":false,"rental_uris":{"android":"levelo://app?vid=8a43b495-b8dd-4169-8578-7a912884a06e","ios":"levelo://app?vid=8a43b495-b8dd-4169-8578-7a912884a06e"},"vehicle_type_id":"4","last_reported":1770031708,"current_range_meters":4400,"station_id":"ce4bhgh2rcd13ifvqfb0","pricing_plan_id":"cebpf4jnsgd1na2vs0mg"},{"bike_id":"282b4c58-6430-4481-adf2-6fc926d2a7c4","system_id":"levelo_inurba_marseille","lat":43.23195,"lon":5.35587,"is_reserved":false,"is_disabled":false,"rental_uris":{"android":"levelo://app?vid=282b4c58-6430-4481-adf2-6fc926d2a7c4","ios":"levelo://app?vid=282b4c58-6430-4481-adf2-6fc926d2a7c4"},"vehicle_type_id":"4","last_reported":1770031708,"current_range_meters":4400,"station_id":"ce4bhu92rcd13ifvqi70","pricing_plan_id":"cebpf4jnsgd1na2vs0mg"},{"bike_id":"bafe06f4-691a-42ad-b544-2647048d76df","system_id":"levelo_inurba_marseille","lat":43.23029,"lon":5.35501,"is_reserved":false,"is_disabled":false,"rental_uris":{"android":"levelo://app?vid=bafe06f4-691a-42ad-b544-2647048d76df","ios":"levelo://app?vid=bafe06f4-691a-42ad-b544-2647048d76df"},"vehicle_type_id":"4","last_reported":1770031708,"current_range_meters":4400,"station_id":"cpo3342slgdg3j2ifvpg","pricing_plan_id":"cebpf4jnsgd1na2vs0mg"},{"bike_id":"8791bebb-8e0b-4ff1-9213-d620c7784012","system_id":"levelo_inurba_marseille","lat":43.293119,"lon":5.371707,"is_reserved":false,"is_disabled":false,"rental_uris":{"android":"levelo://app?vid=8791bebb-8e0b-4ff1-9213-d620c7784012","ios":"levelo://app?vid=8791bebb-8e0b-4ff1-9213-d620c7784012"},"vehicle_type_id":"4","last_reported":1770031708,"current_range_meters":4400,"station_id":"ce4bgh92rcd13ifvqb40","pricing_plan_id":"cebpf4jnsgd1na2vs0mg"},{"bike_id":"53336c15-c4a9-4afd-ad5c-4a4cebf6f0c1","system_id":"levelo_inurba_marseille","lat":43.24182,"lon":5.36402,"is_reserved":false,"is_disabled":false,"rental_uris":{"android":"levelo://app?vid=53336c15-c4a9-4afd-ad5c-4a4cebf6f0c1","ios":"levelo://app?vid=53336c15-c4a9-4afd-ad5c-4a4cebf6f0c1"},"vehicle_type_id":"4","last_reported":1770031708,"current_range_meters":4400,"station_id":"cpo36qri1sfpv3e86is0","pricing_plan_id":"cebpf4jnsgd1na2vs0mg"},{"bike_id":"0a8bd2b9-8f66-47cb-8794-72cdd9e9bbcd","system_id":"levelo_inurba_marseille","lat":43.27828,"lon":5.40728,"is_reserved":false,"is_disabled":false,"rental_uris":{"android":"levelo://app?vid=0a8bd2b9-8f66-47cb-8794-72cdd9e9bbcd","ios":"levelo://app?vid=0a8bd2b9-8f66-47cb-8794-72cdd9e9bbcd"},"vehicle_type_id":"4","last_reported":1770031708,"current_range_meters":4400,"station_id":"ce4bhnh2rcd13ifvqgtg","pricing_plan_id":"cebpf4jnsgd1na2vs0mg"},{"bike_id":"0a1300ad-2f14-46b7-8956-d36a4a430b42","system_id":"levelo_inurba_marseille","lat":43.248012,"lon":5.374517,"is_reserved":false,"is_disabled":false,"rental_uris":{"android":"levelo://app?vid=0a1300ad-2f14-46b7-8956-d36a4a430b42","ios":"levelo://app?vid=0a1300ad-2f14-46b7-8956-d36a4a430b42"},"vehicle_type_id":"4","last_reported":1770031708,"current_range_meters":4800,"station_id":"ce4bhgh2rcd13ifvqfb0","pricing_plan_id":"cebpf4jnsgd1na2vs0mg"},{"bike_id":"8d19955e-e09c-4b47-a6e3-ae607dbe5088","system_id":"levelo_inurba_marseille","lat":43.26212,"lon":5.37458,"is_reserved":false,"is_disabled":true,"rental_uris":{"android":"levelo://app?vid=8d19955e-e09c-4b47-a6e3-ae607dbe5088","ios":"levelo://app?vid=8d19955e-e09c-4b47-a6e3-ae607dbe5088"},"vehicle_type_id":"4","last_reported":1770031708,"current_range_meters":4800,"station_id":"ce4bhgp2rcd13ifvqfc0","pricing_plan_id":"cebpf4jnsgd1na2vs0mg"},{"bike_id":"d2ee53f1-49b6-44a6-a171-d364ff8162cf","system_id":"levelo_inurba_marseille","lat":43.33367,"lon":5.43136,"is_reserved":false,"is_disabled":false,"rental_uris":{"android":"levelo://app?vid=d2ee53f1-49b6-44a6-a171-d364ff8162cf","ios":"levelo://app?vid=d2ee53f1-49b6-44a6-a171-d364ff8162cf"},"vehicle_type_id":"4","last_reported":1770031708,"current_range_meters":4800,"station_id":"","pricing_plan_id":"cebpf4jnsgd1na2vs0mg"},{"bike_id":"cdcd2ca5-bb29-4d09-985c-54060c308203","system_id":"levelo_inurba_marseille","lat":43.29971,"lon":5.38492,"is_reserved":false,"is_disabled":false,"rental_uris":{"android":"levelo://app?vid=cdcd2ca5-bb29-4d09-985c-54060c308203","ios":"levelo://app?vid=cdcd2ca5-bb29-4d09-985c-54060c308203"},"vehicle_type_id":"4","last_reported":1770031708,"current_range_meters":4800,"station_id":"ce4bgj92rcd13ifvqbd0","pricing_plan_id":"cebpf4jnsgd1na2vs0mg"},{"bike_id":"fff7e7d9-a5a2-4648-8c64-acd8db891467","system_id":"levelo_inurba_marseille","lat":43.26219,"lon":5.40487,"is_reserved":false,"is_disabled":false,"rental_uris":{"android":"levelo://app?vid=fff7e7d9-a5a2-4648-8c64-acd8db891467","ios":"levelo://app?vid=fff7e7d9-a5a2-4648-8c64-acd8db891467"},"vehicle_type_id":"4","last_reported":1770031708,"current_range_meters":4800,"station_id":"ce4bhmh2rcd13ifvqgmg","pricing_plan_id":"cebpf4jnsgd1na2vs0mg"},{"bike_id":"d1da5c85-5393-4ca7-9880-c49b370fa393","system_id":"levelo_inurba_marseille","lat":43.24372,"lon":5.37086,"is_reserved":false,"is_disabled":false,"rental_uris":{"android":"levelo://app?vid=d1da5c85-5393-4ca7-9880-c49b370fa393","ios":"levelo://app?vid=d1da5c85-5393-4ca7-9880-c49b370fa393"},"vehicle_type_id":"4","last_reported":1770031708,"current_range_meters":4800,"station_id":"ce4bhhh2rcd13ifvqfk0","pricing_plan_id":"cebpf4jnsgd1na2vs0mg"},{"bike_id":"cec514c3-7ecb-423b-80b5-18639cf7781d","system_id":"levelo_inurba_marseille","lat":43.25643,"lon":5.37622,"is_reserved":false,"is_disabled":false,"rental_uris":{"android":"levelo://app?vid=cec514c3-7ecb-423b-80b5-18639cf7781d","ios":"levelo://app?vid=cec514c3-7ecb-423b-80b5-18639cf7781d"},"vehicle_type_id":"4","last_reported":1770031708,"current_range_meters":4800,"station_id":"","pricing_plan_id":"cebpf4jnsgd1na2vs0mg"},{"bike_id":"62c50383-2b52-4f8d-abb6-a19fdd94f4aa","system_id":"levelo_inurba_marseille","lat":43.27811,"lon":5.40709,"is_reserved":false,"is_disabled":false,"rental_uris":{"android":"levelo://app?vid=62c50383-2b52-4f8d-abb6-a19fdd94f4aa","ios":"levelo://app?vid=62c50383-2b52-4f8d-abb6-a19fdd94f4aa"},"vehicle_type_id":"4","last_reported":1770031708,"current_range_meters":4800,"station_id":"ce4bhnh2rcd13ifvqgtg","pricing_plan_id":"cebpf4jnsgd1na2vs0mg"},{"bike_id":"dfa39721-0fe8-4f3c-b19a-2ad1d1cb4560","system_id":"levelo_inurba_marseille","lat":43.30157,"lon":5.38052,"is_reserved":false,"is_disabled":false,"rental_uris":{"android":"levelo://app?vid=dfa39721-0fe8-4f3c-b19a-2ad1d1cb4560","ios":"levelo://app?vid=dfa39721-0fe8-4f3c-b19a-2ad1d1cb4560"},"vehicle_type_id":"4","last_reported":1770031708,"current_range_meters":4800,"station_id":"ce4bgjp2rcd13ifvqbh0","pricing_plan_id":"cebpf4jnsgd1na2vs0mg"},{"bike_id":"b9a9097f-13d0-49a9-bb46-6f5237ccc9ec","system_id":"levelo_inurba_marseille","lat":43.27373,"lon":5.36207,"is_reserved":false,"is_disabled":false,"rental_uris":{"android":"levelo://app?vid=b9a9097f-13d0-49a9-bb46-6f5237ccc9ec","ios":"levelo://app?vid=b9a9097f-13d0-49a9-bb46-6f5237ccc9ec"},"vehicle_type_id":"4","last_reported":1770031708,"current_range_meters":4800,"station_id":"","pricing_plan_id":"cebpf4jnsgd1na2vs0mg"},{"bike_id":"468f78e2-3171-4ca0-8dcc-b96e38d11249","system_id":"levelo_inurba_marseille","lat":43.29572,"lon":5.39982,"is_reserved":false,"is_disabled":false,"rental_uris":{"android":"levelo://app?vid=468f78e2-3171-4ca0-8dcc-b96e38d11249","ios":"levelo://app?vid=468f78e2-3171-4ca0-8dcc-b96e38d11249"},"vehicle_type_id":"4","last_reported":1770031708,"current_range_meters":4800,"station_id":"ce4bh312rcd13ifvqdj0","pricing_plan_id":"cebpf4jnsgd1na2vs0mg"},{"bike_id":"f9c9c4c6-14ce-4eb3-8db3-090e3dd89b86","system_id":"levelo_inurba_marseille","lat":43.29197,"lon":5.39313,"is_reserved":false,"is_disabled":false,"rental_uris":{"android":"levelo://app?vid=f9c9c4c6-14ce-4eb3-8db3-090e3dd89b86","ios":"levelo://app?vid=f9c9c4c6-14ce-4eb3-8db3-090e3dd89b86"},"vehicle_type_id":"4","last_reported":1770031708,"current_range_meters":5600,"station_id":"ce4bh192rcd13ifvqdd0","pricing_plan_id":"cebpf4jnsgd1na2vs0mg"},{"bike_id":"d431d2dc-fe64-4d55-be3e-18b6291747e9","system_id":"levelo_inurba_marseille","lat":43.2305,"lon":5.35501,"is_reserved":false,"is_disabled":false,"rental_uris":{"android":"levelo://app?vid=d431d2dc-fe64-4d55-be3e-18b6291747e9","ios":"levelo://app?vid=d431d2dc-fe64-4d55-be3e-18b6291747e9"},"vehicle_type_id":"4","last_reported":1770031708,"current_range_meters":5600,"station_id":"cpo3342slgdg3j2ifvpg","pricing_plan_id":"cebpf4jnsgd1na2vs0mg"},{"bike_id":"b6312071-7764-4894-a911-dea7dace47bd","system_id":"levelo_inurba_marseille","lat":43.29532,"lon":5.375,"is_reserved":false,"is_disabled":false,"rental_uris":{"android":"levelo://app?vid=b6312071-7764-4894-a911-dea7dace47bd","ios":"levelo://app?vid=b6312071-7764-4894-a911-dea7dace47bd"},"vehicle_type_id":"4","last_reported":1770031708,"current_range_meters":5600,"station_id":"ce4bgkp2rcd13ifvqbmg","pricing_plan_id":"cebpf4jnsgd1na2vs0mg"},{"bike_id":"2143853c-60e1-470b-ade6-219310f4f674","system_id":"levelo_inurba_marseille","lat":43.255099,"lon":5.376521,"is_reserved":false,"is_disabled":false,"rental_uris":{"android":"levelo://app?vid=2143853c-60e1-470b-ade6-219310f4f674","ios":"levelo://app?vid=2143853c-60e1-470b-ade6-219310f4f674"},"vehicle_type_id":"4","last_reported":1770031708,"current_range_meters":5600,"station_id":"ce4bhh12rcd13ifvqff0","pricing_plan_id":"cebpf4jnsgd1na2vs0mg"},{"bike_id":"461a2893-efc2-4e09-ab9d-8da8c86d5332","system_id":"levelo_inurba_marseille","lat":43.24986,"lon":5.38961,"is_reserved":false,"is_disabled":false,"rental_uris":{"android":"levelo://app?vid=461a2893-efc2-4e09-ab9d-8da8c86d5332","ios":"levelo://app?vid=461a2893-efc2-4e09-ab9d-8da8c86d5332"},"vehicle_type_id":"4","last_reported":1770031708,"current_range_meters":5600,"station_id":"ce4bhgp2rcd13ifvqfd0","pricing_plan_id":"cebpf4jnsgd1na2vs0mg"},{"bike_id":"4aa9036f-1644-47eb-81dc-e43aa71f929e","system_id":"levelo_inurba_marseille","lat":43.3057,"lon":5.36539,"is_reserved":false,"is_disabled":false,"rental_uris":{"android":"levelo://app?vid=4aa9036f-1644-47eb-81dc-e43aa71f929e","ios":"levelo://app?vid=4aa9036f-1644-47eb-81dc-e43aa71f929e"},"vehicle_type_id":"4","last_reported":1770031708,"current_range_meters":5600,"station_id":"ce4bgs12rcd13ifvqcag","pricing_plan_id":"cebpf4jnsgd1na2vs0mg"},{"bike_id":"7168aa73-ef62-449b-af6d-8e5b8d3d357e","system_id":"levelo_inurba_marseille","lat":43.29018,"lon":5.38133,"is_reserved":false,"is_disabled":false,"rental_uris":{"android":"levelo://app?vid=7168aa73-ef62-449b-af6d-8e5b8d3d357e","ios":"levelo://app?vid=7168aa73-ef62-449b-af6d-8e5b8d3d357e"},"vehicle_type_id":"4","last_reported":1770031708,"current_range_meters":5600,"station_id":"ce4bh4p2rcd13ifvqe1g","pricing_plan_id":"cebpf4jnsgd1na2vs0mg"},{"bike_id":"2f272f9d-bafe-4a44-a2e3-105574c73c4b","system_id":"levelo_inurba_marseille","lat":43.24182,"lon":5.39721,"is_reserved":false,"is_disabled":false,"rental_uris":{"android":"levelo://app?vid=2f272f9d-bafe-4a44-a2e3-105574c73c4b","ios":"levelo://app?vid=2f272f9d-bafe-4a44-a2e3-105574c73c4b"},"vehicle_type_id":"4","last_reported":1770031708,"current_range_meters":6000,"station_id":"ce4bhn12rcd13ifvqgpg","pricing_plan_id":"cebpf4jnsgd1na2vs0mg"},{"bike_id":"56a4bae4-bfa4-41b7-a15b-c9d1c79421ee","system_id":"levelo_inurba_marseille","lat":43.29972,"lon":5.37178,"is_reserved":false,"is_disabled":false,"rental_uris":{"android":"levelo://app?vid=56a4bae4-bfa4-41b7-a15b-c9d1c79421ee","ios":"levelo://app?vid=56a4bae4-bfa4-41b7-a15b-c9d1c79421ee"},"vehicle_type_id":"4","last_reported":1770031708,"current_range_meters":6000,"station_id":"ce4bgr92rcd13ifvqc7g","pricing_plan_id":"cebpf4jnsgd1na2vs0mg"},{"bike_id":"76d75860-135e-4342-8d60-d738c4449126","system_id":"levelo_inurba_marseille","lat":43.25953,"lon":5.4089,"is_reserved":false,"is_disabled":false,"rental_uris":{"android":"levelo://app?vid=76d75860-135e-4342-8d60-d738c4449126","ios":"levelo://app?vid=76d75860-135e-4342-8d60-d738c4449126"},"vehicle_type_id":"4","last_reported":1770031708,"current_range_meters":6000,"station_id":"ce4bhm92rcd13ifvqglg","pricing_plan_id":"cebpf4jnsgd1na2vs0mg"},{"bike_id":"ed2be06d-91ad-4677-865f-307b96adcadb","system_id":"levelo_inurba_marseille","lat":43.29284,"lon":5.36852,"is_reserved":false,"is_disabled":false,"rental_uris":{"android":"levelo://app?vid=ed2be06d-91ad-4677-865f-307b96adcadb","ios":"levelo://app?vid=ed2be06d-91ad-4677-865f-307b96adcadb"},"vehicle_type_id":"4","last_reported":1770031708,"current_range_meters":6000,"station_id":"ce4bhbp2rcd13ifvqesg","pricing_plan_id":"cebpf4jnsgd1na2vs0mg"},{"bike_id":"4d614b31-2487-459c-80b4-20568895cab0","system_id":"levelo_inurba_marseille","lat":43.2403,"lon":5.37797,"is_reserved":false,"is_disabled":true,"rental_uris":{"android":"levelo://app?vid=4d614b31-2487-459c-80b4-20568895cab0","ios":"levelo://app?vid=4d614b31-2487-459c-80b4-20568895cab0"},"vehicle_type_id":"4","last_reported":1770031708,"current_range_meters":6000,"station_id":"ce4bhnp2rcd13ifvqgvg","pricing_plan_id":"cebpf4jnsgd1na2vs0mg"},{"bike_id":"46a20b62-64ae-4717-b610-6e8bb569cadb","system_id":"levelo_inurba_marseille","lat":43.25862,"lon":5.399,"is_reserved":false,"is_disabled":false,"rental_uris":{"android":"levelo://app?vid=46a20b62-64ae-4717-b610-6e8bb569cadb","ios":"levelo://app?vid=46a20b62-64ae-4717-b610-6e8bb569cadb"},"vehicle_type_id":"4","last_reported":1770031708,"current_range_meters":6000,"station_id":"ce4bhl92rcd13ifvqghg","pricing_plan_id":"cebpf4jnsgd1na2vs0mg"},{"bike_id":"37e1db01-2c00-4271-9cb1-4046301f9704","system_id":"levelo_inurba_marseille","lat":43.290046,"lon":5.356159,"is_reserved":false,"is_disabled":false,"rental_uris":{"android":"levelo://app?vid=37e1db01-2c00-4271-9cb1-4046301f9704","ios":"levelo://app?vid=37e1db01-2c00-4271-9cb1-4046301f9704"},"vehicle_type_id":"4","last_reported":1770031708,"current_range_meters":6000,"station_id":"ce4bhb92rcd13ifvqen0","pricing_plan_id":"cebpf4jnsgd1na2vs0mg"},{"bike_id":"4c50b102-00aa-40e2-83bd-5e90d2e54b17","system_id":"levelo_inurba_marseille","lat":43.27985,"lon":5.40004,"is_reserved":false,"is_disabled":false,"rental_uris":{"android":"levelo://app?vid=4c50b102-00aa-40e2-83bd-5e90d2e54b17","ios":"levelo://app?vid=4c50b102-00aa-40e2-83bd-5e90d2e54b17"},"vehicle_type_id":"4","last_reported":1770031708,"current_range_meters":6000,"station_id":"ce4bho92rcd13ifvqh4g","pricing_plan_id":"cebpf4jnsgd1na2vs0mg"},{"bike_id":"05884c8f-5dd4-4093-a5e5-bff4fc551273","system_id":"levelo_inurba_marseille","lat":43.273712,"lon":5.362518,"is_reserved":false,"is_disabled":false,"rental_uris":{"android":"levelo://app?vid=05884c8f-5dd4-4093-a5e5-bff4fc551273","ios":"levelo://app?vid=05884c8f-5dd4-4093-a5e5-bff4fc551273"},"vehicle_type_id":"4","last_reported":1770031708,"current_range_meters":6000,"station_id":"ce4bhbh2rcd13ifvqeo0","pricing_plan_id":"cebpf4jnsgd1na2vs0mg"},{"bike_id":"a2761c11-725b-4795-a6a4-357fb7215904","system_id":"levelo_inurba_marseille","lat":43.27952,"lon":5.41049,"is_reserved":false,"is_disabled":false,"rental_uris":{"android":"levelo://app?vid=a2761c11-725b-4795-a6a4-357fb7215904","ios":"levelo://app?vid=a2761c11-725b-4795-a6a4-357fb7215904"},"vehicle_type_id":"4","last_reported":1770031708,"current_range_meters":6000,"station_id":"ce4bhnp2rcd13ifvqh0g","pricing_plan_id":"cebpf4jnsgd1na2vs0mg"},{"bike_id":"fb4a42e6-4b95-4d29-93ec-2fbab2cfeec3","system_id":"levelo_inurba_marseille","lat":43.30159,"lon":5.38096,"is_reserved":false,"is_disabled":false,"rental_uris":{"android":"levelo://app?vid=fb4a42e6-4b95-4d29-93ec-2fbab2cfeec3","ios":"levelo://app?vid=fb4a42e6-4b95-4d29-93ec-2fbab2cfeec3"},"vehicle_type_id":"4","last_reported":1770031708,"current_range_meters":6000,"station_id":"ce4bgjp2rcd13ifvqbh0","pricing_plan_id":"cebpf4jnsgd1na2vs0mg"},{"bike_id":"48defe86-fd01-4bdf-bb58-0b96240d5da2","system_id":"levelo_inurba_marseille","lat":43.28492,"lon":5.48414,"is_reserved":false,"is_disabled":false,"rental_uris":{"android":"levelo://app?vid=48defe86-fd01-4bdf-bb58-0b96240d5da2","ios":"levelo://app?vid=48defe86-fd01-4bdf-bb58-0b96240d5da2"},"vehicle_type_id":"4","last_reported":1770031708,"current_range_meters":6000,"station_id":"st_d3svhcjqgbts73a3dn0g","pricing_plan_id":"cebpf4jnsgd1na2vs0mg"},{"bike_id":"e09e2717-153b-489f-b446-f480f14d97b2","system_id":"levelo_inurba_marseille","lat":43.279415,"lon":5.410439,"is_reserved":false,"is_disabled":false,"rental_uris":{"android":"levelo://app?vid=e09e2717-153b-489f-b446-f480f14d97b2","ios":"levelo://app?vid=e09e2717-153b-489f-b446-f480f14d97b2"},"vehicle_type_id":"4","last_reported":1770031708,"current_range_meters":6400,"station_id":"ce4bhnp2rcd13ifvqh0g","pricing_plan_id":"cebpf4jnsgd1na2vs0mg"},{"bike_id":"4b39f1cc-8d5c-4330-8483-0300616cf7c0","system_id":"levelo_inurba_marseille","lat":43.24077,"lon":5.36375,"is_reserved":false,"is_disabled":false,"rental_uris":{"android":"levelo://app?vid=4b39f1cc-8d5c-4330-8483-0300616cf7c0","ios":"levelo://app?vid=4b39f1cc-8d5c-4330-8483-0300616cf7c0"},"vehicle_type_id":"4","last_reported":1770031708,"current_range_meters":6400,"station_id":"","pricing_plan_id":"cebpf4jnsgd1na2vs0mg"},{"bike_id":"c2397caa-3943-4684-9b65-18709872d0dd","system_id":"levelo_inurba_marseille","lat":43.33163,"lon":5.37689,"is_reserved":false,"is_disabled":false,"rental_uris":{"android":"levelo://app?vid=c2397caa-3943-4684-9b65-18709872d0dd","ios":"levelo://app?vid=c2397caa-3943-4684-9b65-18709872d0dd"},"vehicle_type_id":"4","last_reported":1770031708,"current_range_meters":6400,"station_id":"st_d46cu089ee8s73dldbu0","pricing_plan_id":"cebpf4jnsgd1na2vs0mg"},{"bike_id":"95a1fbc0-e05e-4a2f-ab75-31a440e10fc9","system_id":"levelo_inurba_marseille","lat":43.29986,"lon":5.38484,"is_reserved":false,"is_disabled":false,"rental_uris":{"android":"levelo://app?vid=95a1fbc0-e05e-4a2f-ab75-31a440e10fc9","ios":"levelo://app?vid=95a1fbc0-e05e-4a2f-ab75-31a440e10fc9"},"vehicle_type_id":"4","last_reported":1770031708,"current_range_meters":6400,"station_id":"ce4bgj92rcd13ifvqbd0","pricing_plan_id":"cebpf4jnsgd1na2vs0mg"},{"bike_id":"d64baf67-1a62-4b86-9aae-88e7781f3b30","system_id":"levelo_inurba_marseille","lat":43.23185,"lon":5.39998,"is_reserved":false,"is_disabled":false,"rental_uris":{"android":"levelo://app?vid=d64baf67-1a62-4b86-9aae-88e7781f3b30","ios":"levelo://app?vid=d64baf67-1a62-4b86-9aae-88e7781f3b30"},"vehicle_type_id":"4","last_reported":1770031708,"current_range_meters":6400,"station_id":"ce4bhn12rcd13ifvqgqg","pricing_plan_id":"cebpf4jnsgd1na2vs0mg"},{"bike_id":"35e94623-6487-4043-aec6-ee449fcb47c5","system_id":"levelo_inurba_marseille","lat":43.25972,"lon":5.40874,"is_reserved":false,"is_disabled":false,"rental_uris":{"android":"levelo://app?vid=35e94623-6487-4043-aec6-ee449fcb47c5","ios":"levelo://app?vid=35e94623-6487-4043-aec6-ee449fcb47c5"},"vehicle_type_id":"4","last_reported":1770031708,"current_range_meters":6400,"station_id":"","pricing_plan_id":"cebpf4jnsgd1na2vs0mg"},{"bike_id":"465b42eb-da71-423f-8035-0bf0e2c1d396","system_id":"levelo_inurba_marseille","lat":43.32114,"lon":5.36763,"is_reserved":false,"is_disabled":false,"rental_uris":{"android":"levelo://app?vid=465b42eb-da71-423f-8035-0bf0e2c1d396","ios":"levelo://app?vid=465b42eb-da71-423f-8035-0bf0e2c1d396"},"vehicle_type_id":"4","last_reported":1770031708,"current_range_meters":6400,"station_id":"ce4bhrh2rcd13ifvqhug","pricing_plan_id":"cebpf4jnsgd1na2vs0mg"},{"bike_id":"926a8edb-6c8d-4b2e-993e-6675e7b51abd","system_id":"levelo_inurba_marseille","lat":43.23787,"lon":5.36634,"is_reserved":false,"is_disabled":false,"rental_uris":{"android":"levelo://app?vid=926a8edb-6c8d-4b2e-993e-6675e7b51abd","ios":"levelo://app?vid=926a8edb-6c8d-4b2e-993e-6675e7b51abd"},"vehicle_type_id":"4","last_reported":1770031708,"current_range_meters":6400,"station_id":"st_d3nk18o9ro0c73en2l3g","pricing_plan_id":"cebpf4jnsgd1na2vs0mg"},{"bike_id":"13520a12-52a2-48a7-b78a-95b4b6c64cad","system_id":"levelo_inurba_marseille","lat":43.271764,"lon":5.39135,"is_reserved":false,"is_disabled":false,"rental_uris":{"android":"levelo://app?vid=13520a12-52a2-48a7-b78a-95b4b6c64cad","ios":"levelo://app?vid=13520a12-52a2-48a7-b78a-95b4b6c64cad"},"vehicle_type_id":"4","last_reported":1770031708,"current_range_meters":6400,"station_id":"ce4bhhp2rcd13ifvqfm0","pricing_plan_id":"cebpf4jnsgd1na2vs0mg"},{"bike_id":"c9843640-776e-4044-862e-049f5b9f5c80","system_id":"levelo_inurba_marseille","lat":43.30326,"lon":5.36898,"is_reserved":false,"is_disabled":false,"rental_uris":{"android":"levelo://app?vid=c9843640-776e-4044-862e-049f5b9f5c80","ios":"levelo://app?vid=c9843640-776e-4044-862e-049f5b9f5c80"},"vehicle_type_id":"4","last_reported":1770031708,"current_range_meters":6400,"station_id":"ce4bgqh2rcd13ifvqc5g","pricing_plan_id":"cebpf4jnsgd1na2vs0mg"},{"bike_id":"fb770f52-ce98-4cd4-aae7-0a310d77081f","system_id":"levelo_inurba_marseille","lat":43.28852,"lon":5.4251,"is_reserved":false,"is_disabled":true,"rental_uris":{"android":"levelo://app?vid=fb770f52-ce98-4cd4-aae7-0a310d77081f","ios":"levelo://app?vid=fb770f52-ce98-4cd4-aae7-0a310d77081f"},"vehicle_type_id":"4","last_reported":1770031708,"current_range_meters":6400,"station_id":"st_d3b462108ojc7389ooeg","pricing_plan_id":"cebpf4jnsgd1na2vs0mg"},{"bike_id":"c0d40f90-7913-4fed-8cd4-3a714c98284b","system_id":"levelo_inurba_marseille","lat":43.27212,"lon":5.39178,"is_reserved":false,"is_disabled":false,"rental_uris":{"android":"levelo://app?vid=c0d40f90-7913-4fed-8cd4-3a714c98284b","ios":"levelo://app?vid=c0d40f90-7913-4fed-8cd4-3a714c98284b"},"vehicle_type_id":"4","last_reported":1770031708,"current_range_meters":6400,"station_id":"ce4bhhp2rcd13ifvqfm0","pricing_plan_id":"cebpf4jnsgd1na2vs0mg"},{"bike_id":"94cbe5a1-172e-4cc9-bb27-f3369919b100","system_id":"levelo_inurba_marseille","lat":43.24053,"lon":5.37722,"is_reserved":false,"is_disabled":false,"rental_uris":{"android":"levelo://app?vid=94cbe5a1-172e-4cc9-bb27-f3369919b100","ios":"levelo://app?vid=94cbe5a1-172e-4cc9-bb27-f3369919b100"},"vehicle_type_id":"4","last_reported":1770031708,"current_range_meters":6800,"station_id":"ce4bhnp2rcd13ifvqgvg","pricing_plan_id":"cebpf4jnsgd1na2vs0mg"},{"bike_id":"c908c76d-5841-48a6-bd50-48ef6a9cf886","system_id":"levelo_inurba_marseille","lat":43.32494,"lon":5.38301,"is_reserved":false,"is_disabled":false,"rental_uris":{"android":"levelo://app?vid=c908c76d-5841-48a6-bd50-48ef6a9cf886","ios":"levelo://app?vid=c908c76d-5841-48a6-bd50-48ef6a9cf886"},"vehicle_type_id":"4","last_reported":1770031708,"current_range_meters":6800,"station_id":"st_d4asgbiv49dc73anf9m0","pricing_plan_id":"cebpf4jnsgd1na2vs0mg"},{"bike_id":"eae001be-3b34-469f-b5f5-7615da95a4ed","system_id":"levelo_inurba_marseille","lat":43.27816,"lon":5.407195,"is_reserved":false,"is_disabled":false,"rental_uris":{"android":"levelo://app?vid=eae001be-3b34-469f-b5f5-7615da95a4ed","ios":"levelo://app?vid=eae001be-3b34-469f-b5f5-7615da95a4ed"},"vehicle_type_id":"4","last_reported":1770031708,"current_range_meters":6800,"station_id":"ce4bhnh2rcd13ifvqgtg","pricing_plan_id":"cebpf4jnsgd1na2vs0mg"},{"bike_id":"b38789cc-18dd-40d1-ae76-cc4e95e9c6fd","system_id":"levelo_inurba_marseille","lat":43.31377,"lon":5.36694,"is_reserved":false,"is_disabled":false,"rental_uris":{"android":"levelo://app?vid=b38789cc-18dd-40d1-ae76-cc4e95e9c6fd","ios":"levelo://app?vid=b38789cc-18dd-40d1-ae76-cc4e95e9c6fd"},"vehicle_type_id":"4","last_reported":1770031708,"current_range_meters":6800,"station_id":"ce4bgr92rcd13ifvqc6g","pricing_plan_id":"cebpf4jnsgd1na2vs0mg"},{"bike_id":"78f87509-7a97-4d09-86ee-cdbe34d59bc6","system_id":"levelo_inurba_marseille","lat":43.2482,"lon":5.38473,"is_reserved":false,"is_disabled":false,"rental_uris":{"android":"levelo://app?vid=78f87509-7a97-4d09-86ee-cdbe34d59bc6","ios":"levelo://app?vid=78f87509-7a97-4d09-86ee-cdbe34d59bc6"},"vehicle_type_id":"4","last_reported":1770031708,"current_range_meters":6800,"station_id":"","pricing_plan_id":"cebpf4jnsgd1na2vs0mg"},{"bike_id":"3475ef01-6815-478c-8253-72b3293c048d","system_id":"levelo_inurba_marseille","lat":43.31242,"lon":5.36834,"is_reserved":false,"is_disabled":false,"rental_uris":{"android":"levelo://app?vid=3475ef01-6815-478c-8253-72b3293c048d","ios":"levelo://app?vid=3475ef01-6815-478c-8253-72b3293c048d"},"vehicle_type_id":"4","last_reported":1770031708,"current_range_meters":6800,"station_id":"ce4bgl92rcd13ifvqbq0","pricing_plan_id":"cebpf4jnsgd1na2vs0mg"},{"bike_id":"83087f4e-0d78-41d4-8b16-ef75c68aab04","system_id":"levelo_inurba_marseille","lat":43.30532,"lon":5.36537,"is_reserved":false,"is_disabled":false,"rental_uris":{"android":"levelo://app?vid=83087f4e-0d78-41d4-8b16-ef75c68aab04","ios":"levelo://app?vid=83087f4e-0d78-41d4-8b16-ef75c68aab04"},"vehicle_type_id":"4","last_reported":1770031708,"current_range_meters":6800,"station_id":"ce4bgs12rcd13ifvqcag","pricing_plan_id":"cebpf4jnsgd1na2vs0mg"},{"bike_id":"dc4e48c8-1bea-4a31-80dc-e6a3add496a8","system_id":"levelo_inurba_marseille","lat":43.30567,"lon":5.36546,"is_reserved":false,"is_disabled":false,"rental_uris":{"android":"levelo://app?vid=dc4e48c8-1bea-4a31-80dc-e6a3add496a8","ios":"levelo://app?vid=dc4e48c8-1bea-4a31-80dc-e6a3add496a8"},"vehicle_type_id":"4","last_reported":1770031708,"current_range_meters":6800,"station_id":"ce4bgs12rcd13ifvqcag","pricing_plan_id":"cebpf4jnsgd1na2vs0mg"},{"bike_id":"f34b59e1-4e39-4af3-a25b-ab4cbda4d328","system_id":"levelo_inurba_marseille","lat":43.247735,"lon":5.374272,"is_reserved":false,"is_disabled":false,"rental_uris":{"android":"levelo://app?vid=f34b59e1-4e39-4af3-a25b-ab4cbda4d328","ios":"levelo://app?vid=f34b59e1-4e39-4af3-a25b-ab4cbda4d328"},"vehicle_type_id":"4","last_reported":1770031708,"current_range_meters":6800,"station_id":"ce4bhgh2rcd13ifvqfb0","pricing_plan_id":"cebpf4jnsgd1na2vs0mg"},{"bike_id":"ead9d525-178d-43f7-b202-498aac541976","system_id":"levelo_inurba_marseille","lat":43.22562,"lon":5.41627,"is_reserved":false,"is_disabled":false,"rental_uris":{"android":"levelo://app?vid=ead9d525-178d-43f7-b202-498aac541976","ios":"levelo://app?vid=ead9d525-178d-43f7-b202-498aac541976"},"vehicle_type_id":"4","last_reported":1770031708,"current_range_meters":6800,"station_id":"st_d2o4gvlbi1j2169b742g","pricing_plan_id":"cebpf4jnsgd1na2vs0mg"},{"bike_id":"7339baea-42a7-44c8-866b-b3318d7a94e4","system_id":"levelo_inurba_marseille","lat":43.31081,"lon":5.37183,"is_reserved":false,"is_disabled":false,"rental_uris":{"android":"levelo://app?vid=7339baea-42a7-44c8-866b-b3318d7a94e4","ios":"levelo://app?vid=7339baea-42a7-44c8-866b-b3318d7a94e4"},"vehicle_type_id":"4","last_reported":1770031708,"current_range_meters":6800,"station_id":"st_d4kl2rp97mjs73e7tdfg","pricing_plan_id":"cebpf4jnsgd1na2vs0mg"},{"bike_id":"3a58788c-4a23-4531-9872-db4b04a34512","system_id":"levelo_inurba_marseille","lat":43.25029,"lon":5.38918,"is_reserved":false,"is_disabled":false,"rental_uris":{"android":"levelo://app?vid=3a58788c-4a23-4531-9872-db4b04a34512","ios":"levelo://app?vid=3a58788c-4a23-4531-9872-db4b04a34512"},"vehicle_type_id":"4","last_reported":1770031708,"current_range_meters":6800,"station_id":"ce4bhgp2rcd13ifvqfd0","pricing_plan_id":"cebpf4jnsgd1na2vs0mg"},{"bike_id":"25fa64a5-b83a-4b77-9fc0-d8981c1c39e7","system_id":"levelo_inurba_marseille","lat":43.299284,"lon":5.365253,"is_reserved":false,"is_disabled":false,"rental_uris":{"android":"levelo://app?vid=25fa64a5-b83a-4b77-9fc0-d8981c1c39e7","ios":"levelo://app?vid=25fa64a5-b83a-4b77-9fc0-d8981c1c39e7"},"vehicle_type_id":"4","last_reported":1770031708,"current_range_meters":6800,"station_id":"ce4bgm92rcd13ifvqbr0","pricing_plan_id":"cebpf4jnsgd1na2vs0mg"},{"bike_id":"df56c3cd-b8f3-4331-9204-6cdae907a930","system_id":"levelo_inurba_marseille","lat":43.29991,"lon":5.37156,"is_reserved":false,"is_disabled":false,"rental_uris":{"android":"levelo://app?vid=df56c3cd-b8f3-4331-9204-6cdae907a930","ios":"levelo://app?vid=df56c3cd-b8f3-4331-9204-6cdae907a930"},"vehicle_type_id":"4","last_reported":1770031708,"current_range_meters":6800,"station_id":"ce4bgr92rcd13ifvqc7g","pricing_plan_id":"cebpf4jnsgd1na2vs0mg"},{"bike_id":"6632b7eb-39fd-4ac6-ab18-a3a8fd79732f","system_id":"levelo_inurba_marseille","lat":43.30875,"lon":5.37133,"is_reserved":false,"is_disabled":false,"rental_uris":{"android":"levelo://app?vid=6632b7eb-39fd-4ac6-ab18-a3a8fd79732f","ios":"levelo://app?vid=6632b7eb-39fd-4ac6-ab18-a3a8fd79732f"},"vehicle_type_id":"4","last_reported":1770031708,"current_range_meters":6800,"station_id":"ce4bguh2rcd13ifvqckg","pricing_plan_id":"cebpf4jnsgd1na2vs0mg"},{"bike_id":"96300c52-49d4-40e1-b534-95612ab6bf2d","system_id":"levelo_inurba_marseille","lat":43.25005,"lon":5.38932,"is_reserved":false,"is_disabled":false,"rental_uris":{"android":"levelo://app?vid=96300c52-49d4-40e1-b534-95612ab6bf2d","ios":"levelo://app?vid=96300c52-49d4-40e1-b534-95612ab6bf2d"},"vehicle_type_id":"4","last_reported":1770031708,"current_range_meters":6800,"station_id":"ce4bhgp2rcd13ifvqfd0","pricing_plan_id":"cebpf4jnsgd1na2vs0mg"},{"bike_id":"2626d157-6b41-4539-8a2c-c8cecc8cc8c3","system_id":"levelo_inurba_marseille","lat":43.269475,"lon":5.386331,"is_reserved":false,"is_disabled":false,"rental_uris":{"android":"levelo://app?vid=2626d157-6b41-4539-8a2c-c8cecc8cc8c3","ios":"levelo://app?vid=2626d157-6b41-4539-8a2c-c8cecc8cc8c3"},"vehicle_type_id":"4","last_reported":1770031708,"current_range_meters":7200,"station_id":"ce4bhh92rcd13ifvqfh0","pricing_plan_id":"cebpf4jnsgd1na2vs0mg"},{"bike_id":"e83b6c0f-7a5b-41f4-92e7-be20baaaade8","system_id":"levelo_inurba_marseille","lat":43.252847,"lon":5.402541,"is_reserved":false,"is_disabled":false,"rental_uris":{"android":"levelo://app?vid=e83b6c0f-7a5b-41f4-92e7-be20baaaade8","ios":"levelo://app?vid=e83b6c0f-7a5b-41f4-92e7-be20baaaade8"},"vehicle_type_id":"4","last_reported":1770031708,"current_range_meters":7200,"station_id":"ce4bhlh2rcd13ifvqgig","pricing_plan_id":"cebpf4jnsgd1na2vs0mg"},{"bike_id":"297d13dc-a8fe-4c7e-ab4e-c67c01d72bc9","system_id":"levelo_inurba_marseille","lat":43.26682,"lon":5.38286,"is_reserved":false,"is_disabled":false,"rental_uris":{"android":"levelo://app?vid=297d13dc-a8fe-4c7e-ab4e-c67c01d72bc9","ios":"levelo://app?vid=297d13dc-a8fe-4c7e-ab4e-c67c01d72bc9"},"vehicle_type_id":"4","last_reported":1770031708,"current_range_meters":7200,"station_id":"ce4bhg92rcd13ifvqf90","pricing_plan_id":"cebpf4jnsgd1na2vs0mg"},{"bike_id":"83954c91-b1be-419e-85e2-be05d774291d","system_id":"levelo_inurba_marseille","lat":43.2405,"lon":5.37765,"is_reserved":false,"is_disabled":false,"rental_uris":{"android":"levelo://app?vid=83954c91-b1be-419e-85e2-be05d774291d","ios":"levelo://app?vid=83954c91-b1be-419e-85e2-be05d774291d"},"vehicle_type_id":"4","last_reported":1770031708,"current_range_meters":7200,"station_id":"ce4bhnp2rcd13ifvqgvg","pricing_plan_id":"cebpf4jnsgd1na2vs0mg"},{"bike_id":"2e89fdd1-7445-4232-b055-a170710a3c69","system_id":"levelo_inurba_marseille","lat":43.30157,"lon":5.37407,"is_reserved":false,"is_disabled":false,"rental_uris":{"android":"levelo://app?vid=2e89fdd1-7445-4232-b055-a170710a3c69","ios":"levelo://app?vid=2e89fdd1-7445-4232-b055-a170710a3c69"},"vehicle_type_id":"4","last_reported":1770031708,"current_range_meters":7200,"station_id":"ce4bgs92rcd13ifvqcc0","pricing_plan_id":"cebpf4jnsgd1na2vs0mg"},{"bike_id":"0f8ab205-b08e-4dd8-9e0a-11809d5e78f9","system_id":"levelo_inurba_marseille","lat":43.30547,"lon":5.36527,"is_reserved":false,"is_disabled":false,"rental_uris":{"android":"levelo://app?vid=0f8ab205-b08e-4dd8-9e0a-11809d5e78f9","ios":"levelo://app?vid=0f8ab205-b08e-4dd8-9e0a-11809d5e78f9"},"vehicle_type_id":"4","last_reported":1770031708,"current_range_meters":7200,"station_id":"ce4bgs12rcd13ifvqcag","pricing_plan_id":"cebpf4jnsgd1na2vs0mg"},{"bike_id":"dc2c97f4-77e9-469e-b7f4-cfdc7db4a37e","system_id":"levelo_inurba_marseille","lat":43.25502,"lon":5.37661,"is_reserved":false,"is_disabled":false,"rental_uris":{"android":"levelo://app?vid=dc2c97f4-77e9-469e-b7f4-cfdc7db4a37e","ios":"levelo://app?vid=dc2c97f4-77e9-469e-b7f4-cfdc7db4a37e"},"vehicle_type_id":"4","last_reported":1770031708,"current_range_meters":7200,"station_id":"ce4bhh12rcd13ifvqff0","pricing_plan_id":"cebpf4jnsgd1na2vs0mg"},{"bike_id":"afd4599a-bce3-4586-87e8-b420b6da49a7","system_id":"levelo_inurba_marseille","lat":43.2594,"lon":5.40913,"is_reserved":false,"is_disabled":false,"rental_uris":{"android":"levelo://app?vid=afd4599a-bce3-4586-87e8-b420b6da49a7","ios":"levelo://app?vid=afd4599a-bce3-4586-87e8-b420b6da49a7"},"vehicle_type_id":"4","last_reported":1770031708,"current_range_meters":7200,"station_id":"ce4bhm92rcd13ifvqglg","pricing_plan_id":"cebpf4jnsgd1na2vs0mg"},{"bike_id":"21dfd025-0a6f-4817-9235-85c27205e571","system_id":"levelo_inurba_marseille","lat":43.29961,"lon":5.41322,"is_reserved":false,"is_disabled":false,"rental_uris":{"android":"levelo://app?vid=21dfd025-0a6f-4817-9235-85c27205e571","ios":"levelo://app?vid=21dfd025-0a6f-4817-9235-85c27205e571"},"vehicle_type_id":"4","last_reported":1770031708,"current_range_meters":7200,"station_id":"ce4bhp12rcd13ifvqh9g","pricing_plan_id":"cebpf4jnsgd1na2vs0mg"},{"bike_id":"aabc73f4-e148-416a-9756-3803b48c1e01","system_id":"levelo_inurba_marseille","lat":43.28729,"lon":5.36087,"is_reserved":false,"is_disabled":false,"rental_uris":{"android":"levelo://app?vid=aabc73f4-e148-416a-9756-3803b48c1e01","ios":"levelo://app?vid=aabc73f4-e148-416a-9756-3803b48c1e01"},"vehicle_type_id":"4","last_reported":1770031708,"current_range_meters":7200,"station_id":"cki0cbj6b192h4jlfktg","pricing_plan_id":"cebpf4jnsgd1na2vs0mg"},{"bike_id":"103d9878-2da6-4373-a147-e7fd1a4a7487","system_id":"levelo_inurba_marseille","lat":43.31032,"lon":5.37156,"is_reserved":false,"is_disabled":false,"rental_uris":{"android":"levelo://app?vid=103d9878-2da6-4373-a147-e7fd1a4a7487","ios":"levelo://app?vid=103d9878-2da6-4373-a147-e7fd1a4a7487"},"vehicle_type_id":"4","last_reported":1770031708,"current_range_meters":7200,"station_id":"st_d4kl2rp97mjs73e7tdfg","pricing_plan_id":"cebpf4jnsgd1na2vs0mg"},{"bike_id":"11dd8a11-c8bc-42b0-b90f-0f9ed1cd3060","system_id":"levelo_inurba_marseille","lat":43.29577,"lon":5.37513,"is_reserved":false,"is_disabled":false,"rental_uris":{"android":"levelo://app?vid=11dd8a11-c8bc-42b0-b90f-0f9ed1cd3060","ios":"levelo://app?vid=11dd8a11-c8bc-42b0-b90f-0f9ed1cd3060"},"vehicle_type_id":"4","last_reported":1770031708,"current_range_meters":7200,"station_id":"ce4bgh92rcd13ifvqb50","pricing_plan_id":"cebpf4jnsgd1na2vs0mg"},{"bike_id":"7cb4d92c-ddfd-4673-939d-de19e5a92bf3","system_id":"levelo_inurba_marseille","lat":43.30154,"lon":5.38106,"is_reserved":false,"is_disabled":true,"rental_uris":{"android":"levelo://app?vid=7cb4d92c-ddfd-4673-939d-de19e5a92bf3","ios":"levelo://app?vid=7cb4d92c-ddfd-4673-939d-de19e5a92bf3"},"vehicle_type_id":"4","last_reported":1770031708,"current_range_meters":7200,"station_id":"ce4bgjp2rcd13ifvqbh0","pricing_plan_id":"cebpf4jnsgd1na2vs0mg"},{"bike_id":"2853f334-2cdf-42f1-8da1-cf1ae57972cd","system_id":"levelo_inurba_marseille","lat":43.29523,"lon":5.39041,"is_reserved":false,"is_disabled":false,"rental_uris":{"android":"levelo://app?vid=2853f334-2cdf-42f1-8da1-cf1ae57972cd","ios":"levelo://app?vid=2853f334-2cdf-42f1-8da1-cf1ae57972cd"},"vehicle_type_id":"4","last_reported":1770031708,"current_range_meters":7200,"station_id":"ce4bh3p2rcd13ifvqdp0","pricing_plan_id":"cebpf4jnsgd1na2vs0mg"},{"bike_id":"7de6c525-acf6-4483-9860-c28ce1185629","system_id":"levelo_inurba_marseille","lat":43.29095,"lon":5.38152,"is_reserved":false,"is_disabled":false,"rental_uris":{"android":"levelo://app?vid=7de6c525-acf6-4483-9860-c28ce1185629","ios":"levelo://app?vid=7de6c525-acf6-4483-9860-c28ce1185629"},"vehicle_type_id":"4","last_reported":1770031708,"current_range_meters":8000,"station_id":"ce4bh512rcd13ifvqe2g","pricing_plan_id":"cebpf4jnsgd1na2vs0mg"},{"bike_id":"383629b2-73f2-4b1e-9cf1-7119fdaec39e","system_id":"levelo_inurba_marseille","lat":43.27378,"lon":5.36245,"is_reserved":false,"is_disabled":false,"rental_uris":{"android":"levelo://app?vid=383629b2-73f2-4b1e-9cf1-7119fdaec39e","ios":"levelo://app?vid=383629b2-73f2-4b1e-9cf1-7119fdaec39e"},"vehicle_type_id":"4","last_reported":1770031708,"current_range_meters":8000,"station_id":"ce4bhbh2rcd13ifvqeo0","pricing_plan_id":"cebpf4jnsgd1na2vs0mg"},{"bike_id":"42f3911a-939e-4889-9561-3c06517c8f7e","system_id":"levelo_inurba_marseille","lat":43.26822,"lon":5.39407,"is_reserved":false,"is_disabled":true,"rental_uris":{"android":"levelo://app?vid=42f3911a-939e-4889-9561-3c06517c8f7e","ios":"levelo://app?vid=42f3911a-939e-4889-9561-3c06517c8f7e"},"vehicle_type_id":"4","last_reported":1770031708,"current_range_meters":8000,"station_id":"ce4bhh12rcd13ifvqfg0","pricing_plan_id":"cebpf4jnsgd1na2vs0mg"},{"bike_id":"10a44ace-9c6c-4c5a-b2c1-f978b4648244","system_id":"levelo_inurba_marseille","lat":43.2926,"lon":5.38444,"is_reserved":false,"is_disabled":false,"rental_uris":{"android":"levelo://app?vid=10a44ace-9c6c-4c5a-b2c1-f978b4648244","ios":"levelo://app?vid=10a44ace-9c6c-4c5a-b2c1-f978b4648244"},"vehicle_type_id":"4","last_reported":1770031708,"current_range_meters":8000,"station_id":"ce4bh692rcd13ifvqea0","pricing_plan_id":"cebpf4jnsgd1na2vs0mg"},{"bike_id":"4dd7c8cd-c4fb-4510-a23c-5093a24e05f8","system_id":"levelo_inurba_marseille","lat":43.26778,"lon":5.39422,"is_reserved":false,"is_disabled":false,"rental_uris":{"android":"levelo://app?vid=4dd7c8cd-c4fb-4510-a23c-5093a24e05f8","ios":"levelo://app?vid=4dd7c8cd-c4fb-4510-a23c-5093a24e05f8"},"vehicle_type_id":"4","last_reported":1770031708,"current_range_meters":8000,"station_id":"ce4bhh12rcd13ifvqfg0","pricing_plan_id":"cebpf4jnsgd1na2vs0mg"},{"bike_id":"7e6720a5-fbda-4d83-9ebd-b4b2e7bba224","system_id":"levelo_inurba_marseille","lat":43.26212,"lon":5.3744,"is_reserved":false,"is_disabled":false,"rental_uris":{"android":"levelo://app?vid=7e6720a5-fbda-4d83-9ebd-b4b2e7bba224","ios":"levelo://app?vid=7e6720a5-fbda-4d83-9ebd-b4b2e7bba224"},"vehicle_type_id":"4","last_reported":1770031708,"current_range_meters":8000,"station_id":"ce4bhgp2rcd13ifvqfc0","pricing_plan_id":"cebpf4jnsgd1na2vs0mg"},{"bike_id":"11669f92-a768-40e3-968e-23d92654a864","system_id":"levelo_inurba_marseille","lat":43.27956,"lon":5.41043,"is_reserved":false,"is_disabled":false,"rental_uris":{"android":"levelo://app?vid=11669f92-a768-40e3-968e-23d92654a864","ios":"levelo://app?vid=11669f92-a768-40e3-968e-23d92654a864"},"vehicle_type_id":"4","last_reported":1770031708,"current_range_meters":8000,"station_id":"ce4bhnp2rcd13ifvqh0g","pricing_plan_id":"cebpf4jnsgd1na2vs0mg"},{"bike_id":"8774adf0-091c-4acb-a18a-0b7f970d22ca","system_id":"levelo_inurba_marseille","lat":43.29884,"lon":5.38423,"is_reserved":false,"is_disabled":false,"rental_uris":{"android":"levelo://app?vid=8774adf0-091c-4acb-a18a-0b7f970d22ca","ios":"levelo://app?vid=8774adf0-091c-4acb-a18a-0b7f970d22ca"},"vehicle_type_id":"4","last_reported":1770031708,"current_range_meters":8000,"station_id":"","pricing_plan_id":"cebpf4jnsgd1na2vs0mg"},{"bike_id":"7ac53e7b-4a27-4aab-9631-08495b8cb3e9","system_id":"levelo_inurba_marseille","lat":43.29536,"lon":5.37499,"is_reserved":false,"is_disabled":false,"rental_uris":{"android":"levelo://app?vid=7ac53e7b-4a27-4aab-9631-08495b8cb3e9","ios":"levelo://app?vid=7ac53e7b-4a27-4aab-9631-08495b8cb3e9"},"vehicle_type_id":"4","last_reported":1770031708,"current_range_meters":8000,"station_id":"ce4bgkp2rcd13ifvqbmg","pricing_plan_id":"cebpf4jnsgd1na2vs0mg"},{"bike_id":"3732f1eb-e4a8-4e19-ac1d-f42f35b721e7","system_id":"levelo_inurba_marseille","lat":43.30082,"lon":5.39095,"is_reserved":false,"is_disabled":false,"rental_uris":{"android":"levelo://app?vid=3732f1eb-e4a8-4e19-ac1d-f42f35b721e7","ios":"levelo://app?vid=3732f1eb-e4a8-4e19-ac1d-f42f35b721e7"},"vehicle_type_id":"4","last_reported":1770031708,"current_range_meters":8000,"station_id":"ce4bh192rcd13ifvqdb0","pricing_plan_id":"cebpf4jnsgd1na2vs0mg"},{"bike_id":"15441752-de89-46d3-a5a4-a1bc8c6e7535","system_id":"levelo_inurba_marseille","lat":43.26931,"lon":5.38643,"is_reserved":false,"is_disabled":false,"rental_uris":{"android":"levelo://app?vid=15441752-de89-46d3-a5a4-a1bc8c6e7535","ios":"levelo://app?vid=15441752-de89-46d3-a5a4-a1bc8c6e7535"},"vehicle_type_id":"4","last_reported":1770031708,"current_range_meters":8000,"station_id":"ce4bhh92rcd13ifvqfh0","pricing_plan_id":"cebpf4jnsgd1na2vs0mg"},{"bike_id":"180da0d1-bd60-4b3f-a4d6-ad95d36df675","system_id":"levelo_inurba_marseille","lat":43.23186,"lon":5.35556,"is_reserved":false,"is_disabled":false,"rental_uris":{"android":"levelo://app?vid=180da0d1-bd60-4b3f-a4d6-ad95d36df675","ios":"levelo://app?vid=180da0d1-bd60-4b3f-a4d6-ad95d36df675"},"vehicle_type_id":"4","last_reported":1770031708,"current_range_meters":8000,"station_id":"ce4bhu92rcd13ifvqi70","pricing_plan_id":"cebpf4jnsgd1na2vs0mg"},{"bike_id":"1ee60695-7d19-4898-8409-84a71f8a4b7f","system_id":"levelo_inurba_marseille","lat":43.29308,"lon":5.3716,"is_reserved":false,"is_disabled":false,"rental_uris":{"android":"levelo://app?vid=1ee60695-7d19-4898-8409-84a71f8a4b7f","ios":"levelo://app?vid=1ee60695-7d19-4898-8409-84a71f8a4b7f"},"vehicle_type_id":"4","last_reported":1770031708,"current_range_meters":8000,"station_id":"ce4bgh92rcd13ifvqb40","pricing_plan_id":"cebpf4jnsgd1na2vs0mg"},{"bike_id":"1413a3c5-43f8-460d-a61b-08089073a895","system_id":"levelo_inurba_marseille","lat":43.31327,"lon":5.396885,"is_reserved":false,"is_disabled":false,"rental_uris":{"android":"levelo://app?vid=1413a3c5-43f8-460d-a61b-08089073a895","ios":"levelo://app?vid=1413a3c5-43f8-460d-a61b-08089073a895"},"vehicle_type_id":"4","last_reported":1770031708,"current_range_meters":8000,"station_id":"ce4bgvp2rcd13ifvqcu0","pricing_plan_id":"cebpf4jnsgd1na2vs0mg"},{"bike_id":"1892c110-b5cc-4824-9abb-dc137647955e","system_id":"levelo_inurba_marseille","lat":43.272302,"lon":5.391772,"is_reserved":false,"is_disabled":false,"rental_uris":{"android":"levelo://app?vid=1892c110-b5cc-4824-9abb-dc137647955e","ios":"levelo://app?vid=1892c110-b5cc-4824-9abb-dc137647955e"},"vehicle_type_id":"4","last_reported":1770031708,"current_range_meters":8400,"station_id":"ce4bhhp2rcd13ifvqfm0","pricing_plan_id":"cebpf4jnsgd1na2vs0mg"},{"bike_id":"62af0ab7-05b6-4f47-9cdb-5da8f9fcdec4","system_id":"levelo_inurba_marseille","lat":43.22549,"lon":5.41644,"is_reserved":false,"is_disabled":false,"rental_uris":{"android":"levelo://app?vid=62af0ab7-05b6-4f47-9cdb-5da8f9fcdec4","ios":"levelo://app?vid=62af0ab7-05b6-4f47-9cdb-5da8f9fcdec4"},"vehicle_type_id":"4","last_reported":1770031708,"current_range_meters":8400,"station_id":"st_d2o4gvlbi1j2169b742g","pricing_plan_id":"cebpf4jnsgd1na2vs0mg"},{"bike_id":"34563dd1-22ef-47ee-b5f6-1a548e8b6096","system_id":"levelo_inurba_marseille","lat":43.29827,"lon":5.38099,"is_reserved":false,"is_disabled":false,"rental_uris":{"android":"levelo://app?vid=34563dd1-22ef-47ee-b5f6-1a548e8b6096","ios":"levelo://app?vid=34563dd1-22ef-47ee-b5f6-1a548e8b6096"},"vehicle_type_id":"4","last_reported":1770031708,"current_range_meters":8400,"station_id":"ce4bgip2rcd13ifvqbb0","pricing_plan_id":"cebpf4jnsgd1na2vs0mg"},{"bike_id":"3b9c8f3e-f433-4f76-92cb-a9ab1b517dc0","system_id":"levelo_inurba_marseille","lat":43.29474,"lon":5.37585,"is_reserved":false,"is_disabled":false,"rental_uris":{"android":"levelo://app?vid=3b9c8f3e-f433-4f76-92cb-a9ab1b517dc0","ios":"levelo://app?vid=3b9c8f3e-f433-4f76-92cb-a9ab1b517dc0"},"vehicle_type_id":"4","last_reported":1770031708,"current_range_meters":8400,"station_id":"","pricing_plan_id":"cebpf4jnsgd1na2vs0mg"},{"bike_id":"ada20fd7-edee-4547-81d7-01d0919d10ab","system_id":"levelo_inurba_marseille","lat":43.33606,"lon":5.40995,"is_reserved":false,"is_disabled":false,"rental_uris":{"android":"levelo://app?vid=ada20fd7-edee-4547-81d7-01d0919d10ab","ios":"levelo://app?vid=ada20fd7-edee-4547-81d7-01d0919d10ab"},"vehicle_type_id":"4","last_reported":1770031708,"current_range_meters":8400,"station_id":"ce4bhqh2rcd13ifvqhmg","pricing_plan_id":"cebpf4jnsgd1na2vs0mg"},{"bike_id":"0120f280-addb-4cd6-8fb0-47e716725bd0","system_id":"levelo_inurba_marseille","lat":43.30854,"lon":5.38295,"is_reserved":false,"is_disabled":false,"rental_uris":{"android":"levelo://app?vid=0120f280-addb-4cd6-8fb0-47e716725bd0","ios":"levelo://app?vid=0120f280-addb-4cd6-8fb0-47e716725bd0"},"vehicle_type_id":"4","last_reported":1770031708,"current_range_meters":8400,"station_id":"","pricing_plan_id":"cebpf4jnsgd1na2vs0mg"},{"bike_id":"60ec9f4c-f7b7-49ce-aee7-2bca40541c8d","system_id":"levelo_inurba_marseille","lat":43.29622,"lon":5.37164,"is_reserved":false,"is_disabled":false,"rental_uris":{"android":"levelo://app?vid=60ec9f4c-f7b7-49ce-aee7-2bca40541c8d","ios":"levelo://app?vid=60ec9f4c-f7b7-49ce-aee7-2bca40541c8d"},"vehicle_type_id":"4","last_reported":1770031708,"current_range_meters":8400,"station_id":"ce4bgnh2rcd13ifvqc0g","pricing_plan_id":"cebpf4jnsgd1na2vs0mg"},{"bike_id":"551b7a29-d776-4906-b0b3-5e3381c6f5a6","system_id":"levelo_inurba_marseille","lat":43.29263,"lon":5.37652,"is_reserved":false,"is_disabled":false,"rental_uris":{"android":"levelo://app?vid=551b7a29-d776-4906-b0b3-5e3381c6f5a6","ios":"levelo://app?vid=551b7a29-d776-4906-b0b3-5e3381c6f5a6"},"vehicle_type_id":"4","last_reported":1770031708,"current_range_meters":8400,"station_id":"ce4bgi12rcd13ifvqb80","pricing_plan_id":"cebpf4jnsgd1na2vs0mg"},{"bike_id":"20e5a6ab-b7c2-47d7-a8a2-b30b7e3c699b","system_id":"levelo_inurba_marseille","lat":43.28476,"lon":5.48406,"is_reserved":false,"is_disabled":false,"rental_uris":{"android":"levelo://app?vid=20e5a6ab-b7c2-47d7-a8a2-b30b7e3c699b","ios":"levelo://app?vid=20e5a6ab-b7c2-47d7-a8a2-b30b7e3c699b"},"vehicle_type_id":"4","last_reported":1770031708,"current_range_meters":8400,"station_id":"st_d3svhcjqgbts73a3dn0g","pricing_plan_id":"cebpf4jnsgd1na2vs0mg"},{"bike_id":"cd51f784-a77c-4831-b04b-afe6fd280c95","system_id":"levelo_inurba_marseille","lat":43.23205,"lon":5.3555,"is_reserved":false,"is_disabled":false,"rental_uris":{"android":"levelo://app?vid=cd51f784-a77c-4831-b04b-afe6fd280c95","ios":"levelo://app?vid=cd51f784-a77c-4831-b04b-afe6fd280c95"},"vehicle_type_id":"4","last_reported":1770031708,"current_range_meters":8400,"station_id":"ce4bhu92rcd13ifvqi70","pricing_plan_id":"cebpf4jnsgd1na2vs0mg"},{"bike_id":"9113ed34-4eae-4a17-a7d2-71a7b76f8d6a","system_id":"levelo_inurba_marseille","lat":43.25942,"lon":5.40913,"is_reserved":false,"is_disabled":false,"rental_uris":{"android":"levelo://app?vid=9113ed34-4eae-4a17-a7d2-71a7b76f8d6a","ios":"levelo://app?vid=9113ed34-4eae-4a17-a7d2-71a7b76f8d6a"},"vehicle_type_id":"4","last_reported":1770031708,"current_range_meters":8400,"station_id":"ce4bhm92rcd13ifvqglg","pricing_plan_id":"cebpf4jnsgd1na2vs0mg"},{"bike_id":"9fff0643-071c-436a-8cfd-837b6e92089a","system_id":"levelo_inurba_marseille","lat":43.25941,"lon":5.40908,"is_reserved":false,"is_disabled":false,"rental_uris":{"android":"levelo://app?vid=9fff0643-071c-436a-8cfd-837b6e92089a","ios":"levelo://app?vid=9fff0643-071c-436a-8cfd-837b6e92089a"},"vehicle_type_id":"4","last_reported":1770031708,"current_range_meters":8400,"station_id":"ce4bhm92rcd13ifvqglg","pricing_plan_id":"cebpf4jnsgd1na2vs0mg"},{"bike_id":"a3edfbf7-0a87-4e2d-bbe1-b4e19bd3a462","system_id":"levelo_inurba_marseille","lat":43.29821,"lon":5.38078,"is_reserved":false,"is_disabled":false,"rental_uris":{"android":"levelo://app?vid=a3edfbf7-0a87-4e2d-bbe1-b4e19bd3a462","ios":"levelo://app?vid=a3edfbf7-0a87-4e2d-bbe1-b4e19bd3a462"},"vehicle_type_id":"4","last_reported":1770031708,"current_range_meters":8800,"station_id":"ce4bgip2rcd13ifvqbb0","pricing_plan_id":"cebpf4jnsgd1na2vs0mg"},{"bike_id":"a7a08982-a4b3-4165-befb-342335e20b0b","system_id":"levelo_inurba_marseille","lat":43.23782,"lon":5.36623,"is_reserved":false,"is_disabled":false,"rental_uris":{"android":"levelo://app?vid=a7a08982-a4b3-4165-befb-342335e20b0b","ios":"levelo://app?vid=a7a08982-a4b3-4165-befb-342335e20b0b"},"vehicle_type_id":"4","last_reported":1770031708,"current_range_meters":8800,"station_id":"st_d3nk18o9ro0c73en2l3g","pricing_plan_id":"cebpf4jnsgd1na2vs0mg"},{"bike_id":"a4a78e26-f7cc-42fe-a5d9-4836263a9354","system_id":"levelo_inurba_marseille","lat":43.33158,"lon":5.37703,"is_reserved":false,"is_disabled":false,"rental_uris":{"android":"levelo://app?vid=a4a78e26-f7cc-42fe-a5d9-4836263a9354","ios":"levelo://app?vid=a4a78e26-f7cc-42fe-a5d9-4836263a9354"},"vehicle_type_id":"4","last_reported":1770031708,"current_range_meters":8800,"station_id":"st_d46cu089ee8s73dldbu0","pricing_plan_id":"cebpf4jnsgd1na2vs0mg"},{"bike_id":"3ef65dfb-54d4-469d-946a-35ac1380b0ff","system_id":"levelo_inurba_marseille","lat":43.27373,"lon":5.36264,"is_reserved":false,"is_disabled":false,"rental_uris":{"android":"levelo://app?vid=3ef65dfb-54d4-469d-946a-35ac1380b0ff","ios":"levelo://app?vid=3ef65dfb-54d4-469d-946a-35ac1380b0ff"},"vehicle_type_id":"4","last_reported":1770031708,"current_range_meters":8800,"station_id":"ce4bhbh2rcd13ifvqeo0","pricing_plan_id":"cebpf4jnsgd1na2vs0mg"},{"bike_id":"2ebe3d1a-eb9d-4119-9eb6-9d700362d893","system_id":"levelo_inurba_marseille","lat":43.24178,"lon":5.39729,"is_reserved":false,"is_disabled":false,"rental_uris":{"android":"levelo://app?vid=2ebe3d1a-eb9d-4119-9eb6-9d700362d893","ios":"levelo://app?vid=2ebe3d1a-eb9d-4119-9eb6-9d700362d893"},"vehicle_type_id":"4","last_reported":1770031708,"current_range_meters":8800,"station_id":"ce4bhn12rcd13ifvqgpg","pricing_plan_id":"cebpf4jnsgd1na2vs0mg"},{"bike_id":"450d125b-db69-4dd8-9efc-f1b0ec2c3479","system_id":"levelo_inurba_marseille","lat":43.23137,"lon":5.43707,"is_reserved":false,"is_disabled":false,"rental_uris":{"android":"levelo://app?vid=450d125b-db69-4dd8-9efc-f1b0ec2c3479","ios":"levelo://app?vid=450d125b-db69-4dd8-9efc-f1b0ec2c3479"},"vehicle_type_id":"4","last_reported":1770031708,"current_range_meters":8800,"station_id":"ce4bhmp2rcd13ifvqgog","pricing_plan_id":"cebpf4jnsgd1na2vs0mg"},{"bike_id":"771ea2bc-bf93-42aa-8bb5-10cd9d180578","system_id":"levelo_inurba_marseille","lat":43.33548,"lon":5.37459,"is_reserved":false,"is_disabled":false,"rental_uris":{"android":"levelo://app?vid=771ea2bc-bf93-42aa-8bb5-10cd9d180578","ios":"levelo://app?vid=771ea2bc-bf93-42aa-8bb5-10cd9d180578"},"vehicle_type_id":"4","last_reported":1770031708,"current_range_meters":8800,"station_id":"st_d46tts09ee8s73dlu43g","pricing_plan_id":"cebpf4jnsgd1na2vs0mg"},{"bike_id":"ae37f4ed-1c7e-48e9-927f-477832e5c8bb","system_id":"levelo_inurba_marseille","lat":43.24181,"lon":5.39732,"is_reserved":false,"is_disabled":false,"rental_uris":{"android":"levelo://app?vid=ae37f4ed-1c7e-48e9-927f-477832e5c8bb","ios":"levelo://app?vid=ae37f4ed-1c7e-48e9-927f-477832e5c8bb"},"vehicle_type_id":"4","last_reported":1770031708,"current_range_meters":8800,"station_id":"ce4bhn12rcd13ifvqgpg","pricing_plan_id":"cebpf4jnsgd1na2vs0mg"},{"bike_id":"ae255bd0-9835-47df-b385-88eb6d2ac6b7","system_id":"levelo_inurba_marseille","lat":43.2783,"lon":5.40718,"is_reserved":false,"is_disabled":false,"rental_uris":{"android":"levelo://app?vid=ae255bd0-9835-47df-b385-88eb6d2ac6b7","ios":"levelo://app?vid=ae255bd0-9835-47df-b385-88eb6d2ac6b7"},"vehicle_type_id":"4","last_reported":1770031708,"current_range_meters":8800,"station_id":"ce4bhnh2rcd13ifvqgtg","pricing_plan_id":"cebpf4jnsgd1na2vs0mg"},{"bike_id":"3f624f26-2d27-45df-a7a3-72d7bebfc4a7","system_id":"levelo_inurba_marseille","lat":43.24478,"lon":5.425272,"is_reserved":false,"is_disabled":false,"rental_uris":{"android":"levelo://app?vid=3f624f26-2d27-45df-a7a3-72d7bebfc4a7","ios":"levelo://app?vid=3f624f26-2d27-45df-a7a3-72d7bebfc4a7"},"vehicle_type_id":"4","last_reported":1770031708,"current_range_meters":8800,"station_id":"st_d4a3vfp97mjs738cd8kg","pricing_plan_id":"cebpf4jnsgd1na2vs0mg"},{"bike_id":"f20bb48e-727d-4540-9b36-1c78e60f2341","system_id":"levelo_inurba_marseille","lat":43.260982,"lon":5.418995,"is_reserved":false,"is_disabled":false,"rental_uris":{"android":"levelo://app?vid=f20bb48e-727d-4540-9b36-1c78e60f2341","ios":"levelo://app?vid=f20bb48e-727d-4540-9b36-1c78e60f2341"},"vehicle_type_id":"4","last_reported":1770031708,"current_range_meters":8800,"station_id":"","pricing_plan_id":"cebpf4jnsgd1na2vs0mg"},{"bike_id":"3f47ca80-54c1-4013-9cfc-ea973900904f","system_id":"levelo_inurba_marseille","lat":43.29227,"lon":5.36064,"is_reserved":false,"is_disabled":false,"rental_uris":{"android":"levelo://app?vid=3f47ca80-54c1-4013-9cfc-ea973900904f","ios":"levelo://app?vid=3f47ca80-54c1-4013-9cfc-ea973900904f"},"vehicle_type_id":"4","last_reported":1770031708,"current_range_meters":8800,"station_id":"ce4bhbh2rcd13ifvqeqg","pricing_plan_id":"cebpf4jnsgd1na2vs0mg"},{"bike_id":"eaecb828-b76d-4182-97d7-3d3819619546","system_id":"levelo_inurba_marseille","lat":43.27366,"lon":5.39092,"is_reserved":false,"is_disabled":false,"rental_uris":{"android":"levelo://app?vid=eaecb828-b76d-4182-97d7-3d3819619546","ios":"levelo://app?vid=eaecb828-b76d-4182-97d7-3d3819619546"},"vehicle_type_id":"4","last_reported":1770031708,"current_range_meters":8800,"station_id":"ce4bhgp2rcd13ifvqfe0","pricing_plan_id":"cebpf4jnsgd1na2vs0mg"},{"bike_id":"9b62e550-d3d6-4757-ade3-41b7624599d0","system_id":"levelo_inurba_marseille","lat":43.25335,"lon":5.42171,"is_reserved":false,"is_disabled":false,"rental_uris":{"android":"levelo://app?vid=9b62e550-d3d6-4757-ade3-41b7624599d0","ios":"levelo://app?vid=9b62e550-d3d6-4757-ade3-41b7624599d0"},"vehicle_type_id":"4","last_reported":1770031708,"current_range_meters":8800,"station_id":"st_d2m65c5bi1j21697t3ng","pricing_plan_id":"cebpf4jnsgd1na2vs0mg"},{"bike_id":"0161be71-5acc-4bef-a661-add8f18169dc","system_id":"levelo_inurba_marseille","lat":43.29884,"lon":5.4368,"is_reserved":false,"is_disabled":false,"rental_uris":{"android":"levelo://app?vid=0161be71-5acc-4bef-a661-add8f18169dc","ios":"levelo://app?vid=0161be71-5acc-4bef-a661-add8f18169dc"},"vehicle_type_id":"4","last_reported":1770031708,"current_range_meters":8800,"station_id":"ce4bhpp2rcd13ifvqhfg","pricing_plan_id":"cebpf4jnsgd1na2vs0mg"},{"bike_id":"238a26a8-c3fa-42a9-b794-92179fc39192","system_id":"levelo_inurba_marseille","lat":43.23178,"lon":5.39991,"is_reserved":false,"is_disabled":false,"rental_uris":{"android":"levelo://app?vid=238a26a8-c3fa-42a9-b794-92179fc39192","ios":"levelo://app?vid=238a26a8-c3fa-42a9-b794-92179fc39192"},"vehicle_type_id":"4","last_reported":1770031708,"current_range_meters":9200,"station_id":"ce4bhn12rcd13ifvqgqg","pricing_plan_id":"cebpf4jnsgd1na2vs0mg"},{"bike_id":"2fa2c29c-1079-447f-9840-16848f1eaa54","system_id":"levelo_inurba_marseille","lat":43.297494,"lon":5.378492,"is_reserved":false,"is_disabled":false,"rental_uris":{"android":"levelo://app?vid=2fa2c29c-1079-447f-9840-16848f1eaa54","ios":"levelo://app?vid=2fa2c29c-1079-447f-9840-16848f1eaa54"},"vehicle_type_id":"4","last_reported":1770031708,"current_range_meters":9200,"station_id":"","pricing_plan_id":"cebpf4jnsgd1na2vs0mg"},{"bike_id":"f2b46649-f2d2-4dab-a524-4025b198537f","system_id":"levelo_inurba_marseille","lat":43.297521,"lon":5.427869,"is_reserved":false,"is_disabled":false,"rental_uris":{"android":"levelo://app?vid=f2b46649-f2d2-4dab-a524-4025b198537f","ios":"levelo://app?vid=f2b46649-f2d2-4dab-a524-4025b198537f"},"vehicle_type_id":"4","last_reported":1770031708,"current_range_meters":9200,"station_id":"st_d3md5207bmas73dh9klg","pricing_plan_id":"cebpf4jnsgd1na2vs0mg"},{"bike_id":"08649d84-e1d6-4e07-9829-b3006714256b","system_id":"levelo_inurba_marseille","lat":43.24089,"lon":5.39753,"is_reserved":false,"is_disabled":false,"rental_uris":{"android":"levelo://app?vid=08649d84-e1d6-4e07-9829-b3006714256b","ios":"levelo://app?vid=08649d84-e1d6-4e07-9829-b3006714256b"},"vehicle_type_id":"4","last_reported":1770031708,"current_range_meters":9200,"station_id":"","pricing_plan_id":"cebpf4jnsgd1na2vs0mg"},{"bike_id":"7bfa4b57-17f3-4ffb-906e-4ac6f600d95b","system_id":"levelo_inurba_marseille","lat":43.29901,"lon":5.43676,"is_reserved":false,"is_disabled":false,"rental_uris":{"android":"levelo://app?vid=7bfa4b57-17f3-4ffb-906e-4ac6f600d95b","ios":"levelo://app?vid=7bfa4b57-17f3-4ffb-906e-4ac6f600d95b"},"vehicle_type_id":"4","last_reported":1770031708,"current_range_meters":9200,"station_id":"ce4bhpp2rcd13ifvqhfg","pricing_plan_id":"cebpf4jnsgd1na2vs0mg"},{"bike_id":"8c34401f-5308-4100-993b-4be205aa9273","system_id":"levelo_inurba_marseille","lat":43.29289,"lon":5.36855,"is_reserved":false,"is_disabled":false,"rental_uris":{"android":"levelo://app?vid=8c34401f-5308-4100-993b-4be205aa9273","ios":"levelo://app?vid=8c34401f-5308-4100-993b-4be205aa9273"},"vehicle_type_id":"4","last_reported":1770031708,"current_range_meters":9200,"station_id":"ce4bhbp2rcd13ifvqesg","pricing_plan_id":"cebpf4jnsgd1na2vs0mg"},{"bike_id":"7af7fd93-8501-4af2-a05a-7a66f6aac093","system_id":"levelo_inurba_marseille","lat":43.29526,"lon":5.39039,"is_reserved":false,"is_disabled":false,"rental_uris":{"android":"levelo://app?vid=7af7fd93-8501-4af2-a05a-7a66f6aac093","ios":"levelo://app?vid=7af7fd93-8501-4af2-a05a-7a66f6aac093"},"vehicle_type_id":"4","last_reported":1770031708,"current_range_meters":9200,"station_id":"ce4bh3p2rcd13ifvqdp0","pricing_plan_id":"cebpf4jnsgd1na2vs0mg"},{"bike_id":"08b20334-3e9e-45da-98e2-403d0460dda8","system_id":"levelo_inurba_marseille","lat":43.23195,"lon":5.35549,"is_reserved":false,"is_disabled":false,"rental_uris":{"android":"levelo://app?vid=08b20334-3e9e-45da-98e2-403d0460dda8","ios":"levelo://app?vid=08b20334-3e9e-45da-98e2-403d0460dda8"},"vehicle_type_id":"4","last_reported":1770031708,"current_range_meters":9200,"station_id":"ce4bhu92rcd13ifvqi70","pricing_plan_id":"cebpf4jnsgd1na2vs0mg"},{"bike_id":"d65e7611-55ca-42ca-909a-fde8278b5659","system_id":"levelo_inurba_marseille","lat":43.212,"lon":5.35077,"is_reserved":false,"is_disabled":false,"rental_uris":{"android":"levelo://app?vid=d65e7611-55ca-42ca-909a-fde8278b5659","ios":"levelo://app?vid=d65e7611-55ca-42ca-909a-fde8278b5659"},"vehicle_type_id":"4","last_reported":1770031708,"current_range_meters":9200,"station_id":"","pricing_plan_id":"cebpf4jnsgd1na2vs0mg"},{"bike_id":"77664360-035c-4d82-9456-35cb07920bef","system_id":"levelo_inurba_marseille","lat":43.24807,"lon":5.37451,"is_reserved":false,"is_disabled":false,"rental_uris":{"android":"levelo://app?vid=77664360-035c-4d82-9456-35cb07920bef","ios":"levelo://app?vid=77664360-035c-4d82-9456-35cb07920bef"},"vehicle_type_id":"4","last_reported":1770031708,"current_range_meters":9200,"station_id":"ce4bhgh2rcd13ifvqfb0","pricing_plan_id":"cebpf4jnsgd1na2vs0mg"},{"bike_id":"c062aa34-fffd-40cf-8dc3-ef00546731c9","system_id":"levelo_inurba_marseille","lat":43.31273,"lon":5.37749,"is_reserved":false,"is_disabled":false,"rental_uris":{"android":"levelo://app?vid=c062aa34-fffd-40cf-8dc3-ef00546731c9","ios":"levelo://app?vid=c062aa34-fffd-40cf-8dc3-ef00546731c9"},"vehicle_type_id":"4","last_reported":1770031708,"current_range_meters":9200,"station_id":"","pricing_plan_id":"cebpf4jnsgd1na2vs0mg"},{"bike_id":"9e82ccca-a401-48fb-8c8e-38aea5c23c2d","system_id":"levelo_inurba_marseille","lat":43.31194,"lon":5.36902,"is_reserved":false,"is_disabled":false,"rental_uris":{"android":"levelo://app?vid=9e82ccca-a401-48fb-8c8e-38aea5c23c2d","ios":"levelo://app?vid=9e82ccca-a401-48fb-8c8e-38aea5c23c2d"},"vehicle_type_id":"4","last_reported":1770031708,"current_range_meters":9200,"station_id":"ce4bgl92rcd13ifvqbq0","pricing_plan_id":"cebpf4jnsgd1na2vs0mg"},{"bike_id":"7ea469f1-f16e-4924-a213-85ca76ef9bcc","system_id":"levelo_inurba_marseille","lat":43.29797,"lon":5.38078,"is_reserved":false,"is_disabled":false,"rental_uris":{"android":"levelo://app?vid=7ea469f1-f16e-4924-a213-85ca76ef9bcc","ios":"levelo://app?vid=7ea469f1-f16e-4924-a213-85ca76ef9bcc"},"vehicle_type_id":"4","last_reported":1770031708,"current_range_meters":9600,"station_id":"ce4bgip2rcd13ifvqbb0","pricing_plan_id":"cebpf4jnsgd1na2vs0mg"},{"bike_id":"bdc8f3f1-7191-4554-b1d6-3542e00caa57","system_id":"levelo_inurba_marseille","lat":43.2843,"lon":5.3501,"is_reserved":false,"is_disabled":false,"rental_uris":{"android":"levelo://app?vid=bdc8f3f1-7191-4554-b1d6-3542e00caa57","ios":"levelo://app?vid=bdc8f3f1-7191-4554-b1d6-3542e00caa57"},"vehicle_type_id":"4","last_reported":1770031708,"current_range_meters":9600,"station_id":"ce4bhbh2rcd13ifvqepg","pricing_plan_id":"cebpf4jnsgd1na2vs0mg"},{"bike_id":"b58600c9-abec-4ab9-8237-97f14c1cef12","system_id":"levelo_inurba_marseille","lat":43.29009,"lon":5.35614,"is_reserved":false,"is_disabled":false,"rental_uris":{"android":"levelo://app?vid=b58600c9-abec-4ab9-8237-97f14c1cef12","ios":"levelo://app?vid=b58600c9-abec-4ab9-8237-97f14c1cef12"},"vehicle_type_id":"4","last_reported":1770031708,"current_range_meters":9600,"station_id":"ce4bhb92rcd13ifvqen0","pricing_plan_id":"cebpf4jnsgd1na2vs0mg"},{"bike_id":"5049f44b-a994-41e4-85c4-2776528ca057","system_id":"levelo_inurba_marseille","lat":43.26548,"lon":5.3729,"is_reserved":false,"is_disabled":true,"rental_uris":{"android":"levelo://app?vid=5049f44b-a994-41e4-85c4-2776528ca057","ios":"levelo://app?vid=5049f44b-a994-41e4-85c4-2776528ca057"},"vehicle_type_id":"4","last_reported":1770031708,"current_range_meters":9600,"station_id":"ce4bhg12rcd13ifvqf70","pricing_plan_id":"cebpf4jnsgd1na2vs0mg"},{"bike_id":"eb477061-3a3e-4dfe-a718-310fb89287e4","system_id":"levelo_inurba_marseille","lat":43.29915,"lon":5.37477,"is_reserved":false,"is_disabled":false,"rental_uris":{"android":"levelo://app?vid=eb477061-3a3e-4dfe-a718-310fb89287e4","ios":"levelo://app?vid=eb477061-3a3e-4dfe-a718-310fb89287e4"},"vehicle_type_id":"4","last_reported":1770031708,"current_range_meters":9600,"station_id":"ce4bgjh2rcd13ifvqbg0","pricing_plan_id":"cebpf4jnsgd1na2vs0mg"},{"bike_id":"442edd71-d810-4686-81a8-39dc717cb4bd","system_id":"levelo_inurba_marseille","lat":43.28697,"lon":5.39987,"is_reserved":false,"is_disabled":false,"rental_uris":{"android":"levelo://app?vid=442edd71-d810-4686-81a8-39dc717cb4bd","ios":"levelo://app?vid=442edd71-d810-4686-81a8-39dc717cb4bd"},"vehicle_type_id":"4","last_reported":1770031708,"current_range_meters":9600,"station_id":"ce4bho92rcd13ifvqh3g","pricing_plan_id":"cebpf4jnsgd1na2vs0mg"},{"bike_id":"76c8fc78-3107-4a30-bfc0-80b4c769e9eb","system_id":"levelo_inurba_marseille","lat":43.2407,"lon":5.37757,"is_reserved":false,"is_disabled":false,"rental_uris":{"android":"levelo://app?vid=76c8fc78-3107-4a30-bfc0-80b4c769e9eb","ios":"levelo://app?vid=76c8fc78-3107-4a30-bfc0-80b4c769e9eb"},"vehicle_type_id":"4","last_reported":1770031708,"current_range_meters":9600,"station_id":"ce4bhnp2rcd13ifvqgvg","pricing_plan_id":"cebpf4jnsgd1na2vs0mg"},{"bike_id":"6ae88fa9-af08-4b37-be02-1f24911e013b","system_id":"levelo_inurba_marseille","lat":43.284843,"lon":5.385603,"is_reserved":false,"is_disabled":false,"rental_uris":{"android":"levelo://app?vid=6ae88fa9-af08-4b37-be02-1f24911e013b","ios":"levelo://app?vid=6ae88fa9-af08-4b37-be02-1f24911e013b"},"vehicle_type_id":"4","last_reported":1770031708,"current_range_meters":9600,"station_id":"ce4bh8p2rcd13ifvqeb0","pricing_plan_id":"cebpf4jnsgd1na2vs0mg"},{"bike_id":"bff22768-2cde-4a3f-98d2-4af19e4efeec","system_id":"levelo_inurba_marseille","lat":43.31056,"lon":5.37178,"is_reserved":false,"is_disabled":false,"rental_uris":{"android":"levelo://app?vid=bff22768-2cde-4a3f-98d2-4af19e4efeec","ios":"levelo://app?vid=bff22768-2cde-4a3f-98d2-4af19e4efeec"},"vehicle_type_id":"4","last_reported":1770031708,"current_range_meters":9600,"station_id":"st_d4kl2rp97mjs73e7tdfg","pricing_plan_id":"cebpf4jnsgd1na2vs0mg"},{"bike_id":"5704d325-44da-4640-841e-d73cfa2e6959","system_id":"levelo_inurba_marseille","lat":43.31156,"lon":5.38043,"is_reserved":false,"is_disabled":false,"rental_uris":{"android":"levelo://app?vid=5704d325-44da-4640-841e-d73cfa2e6959","ios":"levelo://app?vid=5704d325-44da-4640-841e-d73cfa2e6959"},"vehicle_type_id":"4","last_reported":1770031708,"current_range_meters":9600,"station_id":"","pricing_plan_id":"cebpf4jnsgd1na2vs0mg"},{"bike_id":"b4da3c95-9f92-4d98-9243-d1a099fbcabf","system_id":"levelo_inurba_marseille","lat":43.25017,"lon":5.38928,"is_reserved":false,"is_disabled":false,"rental_uris":{"android":"levelo://app?vid=b4da3c95-9f92-4d98-9243-d1a099fbcabf","ios":"levelo://app?vid=b4da3c95-9f92-4d98-9243-d1a099fbcabf"},"vehicle_type_id":"4","last_reported":1770031708,"current_range_meters":10000,"station_id":"ce4bhgp2rcd13ifvqfd0","pricing_plan_id":"cebpf4jnsgd1na2vs0mg"},{"bike_id":"218ea040-7293-441b-9ee6-c6817f423f67","system_id":"levelo_inurba_marseille","lat":43.2629,"lon":5.3986,"is_reserved":false,"is_disabled":false,"rental_uris":{"android":"levelo://app?vid=218ea040-7293-441b-9ee6-c6817f423f67","ios":"levelo://app?vid=218ea040-7293-441b-9ee6-c6817f423f67"},"vehicle_type_id":"4","last_reported":1770031708,"current_range_meters":10000,"station_id":"","pricing_plan_id":"cebpf4jnsgd1na2vs0mg"},{"bike_id":"6ca9ea11-e24b-44dd-9591-e8e049789ac0","system_id":"levelo_inurba_marseille","lat":43.3105,"lon":5.37177,"is_reserved":false,"is_disabled":false,"rental_uris":{"android":"levelo://app?vid=6ca9ea11-e24b-44dd-9591-e8e049789ac0","ios":"levelo://app?vid=6ca9ea11-e24b-44dd-9591-e8e049789ac0"},"vehicle_type_id":"4","last_reported":1770031708,"current_range_meters":10000,"station_id":"st_d4kl2rp97mjs73e7tdfg","pricing_plan_id":"cebpf4jnsgd1na2vs0mg"},{"bike_id":"c702bfae-0b53-420e-aaf5-96723e750ff9","system_id":"levelo_inurba_marseille","lat":43.258691,"lon":5.398937,"is_reserved":false,"is_disabled":false,"rental_uris":{"android":"levelo://app?vid=c702bfae-0b53-420e-aaf5-96723e750ff9","ios":"levelo://app?vid=c702bfae-0b53-420e-aaf5-96723e750ff9"},"vehicle_type_id":"4","last_reported":1770031708,"current_range_meters":10000,"station_id":"ce4bhl92rcd13ifvqghg","pricing_plan_id":"cebpf4jnsgd1na2vs0mg"},{"bike_id":"6460c266-762f-472e-8583-aca66fe8ea6d","system_id":"levelo_inurba_marseille","lat":43.24068,"lon":5.37759,"is_reserved":false,"is_disabled":false,"rental_uris":{"android":"levelo://app?vid=6460c266-762f-472e-8583-aca66fe8ea6d","ios":"levelo://app?vid=6460c266-762f-472e-8583-aca66fe8ea6d"},"vehicle_type_id":"4","last_reported":1770031708,"current_range_meters":10000,"station_id":"ce4bhnp2rcd13ifvqgvg","pricing_plan_id":"cebpf4jnsgd1na2vs0mg"},{"bike_id":"fb9b35b4-dc53-4613-89d0-1c7f37ccb8be","system_id":"levelo_inurba_marseille","lat":43.29016,"lon":5.35617,"is_reserved":false,"is_disabled":false,"rental_uris":{"android":"levelo://app?vid=fb9b35b4-dc53-4613-89d0-1c7f37ccb8be","ios":"levelo://app?vid=fb9b35b4-dc53-4613-89d0-1c7f37ccb8be"},"vehicle_type_id":"4","last_reported":1770031708,"current_range_meters":10000,"station_id":"ce4bhb92rcd13ifvqen0","pricing_plan_id":"cebpf4jnsgd1na2vs0mg"},{"bike_id":"d72b8f61-4fd4-4866-9411-b2ee01711121","system_id":"levelo_inurba_marseille","lat":43.27978,"lon":5.38688,"is_reserved":false,"is_disabled":false,"rental_uris":{"android":"levelo://app?vid=d72b8f61-4fd4-4866-9411-b2ee01711121","ios":"levelo://app?vid=d72b8f61-4fd4-4866-9411-b2ee01711121"},"vehicle_type_id":"4","last_reported":1770031708,"current_range_meters":10000,"station_id":"ce4bhg12rcd13ifvqf80","pricing_plan_id":"cebpf4jnsgd1na2vs0mg"},{"bike_id":"950ef2fd-ac9f-4024-bdd2-e70e2f21cb2a","system_id":"levelo_inurba_marseille","lat":43.27913,"lon":5.39588,"is_reserved":false,"is_disabled":false,"rental_uris":{"android":"levelo://app?vid=950ef2fd-ac9f-4024-bdd2-e70e2f21cb2a","ios":"levelo://app?vid=950ef2fd-ac9f-4024-bdd2-e70e2f21cb2a"},"vehicle_type_id":"4","last_reported":1770031708,"current_range_meters":10000,"station_id":"ce4bhf92rcd13ifvqf40","pricing_plan_id":"cebpf4jnsgd1na2vs0mg"},{"bike_id":"ed9a7218-63f3-4261-b519-175952f0c861","system_id":"levelo_inurba_marseille","lat":43.279111,"lon":5.395755,"is_reserved":false,"is_disabled":false,"rental_uris":{"android":"levelo://app?vid=ed9a7218-63f3-4261-b519-175952f0c861","ios":"levelo://app?vid=ed9a7218-63f3-4261-b519-175952f0c861"},"vehicle_type_id":"4","last_reported":1770031708,"current_range_meters":10000,"station_id":"","pricing_plan_id":"cebpf4jnsgd1na2vs0mg"},{"bike_id":"1c862d84-25b5-4bcd-a442-030289de526e","system_id":"levelo_inurba_marseille","lat":43.28601,"lon":5.35105,"is_reserved":false,"is_disabled":true,"rental_uris":{"android":"levelo://app?vid=1c862d84-25b5-4bcd-a442-030289de526e","ios":"levelo://app?vid=1c862d84-25b5-4bcd-a442-030289de526e"},"vehicle_type_id":"4","last_reported":1770031708,"current_range_meters":10000,"station_id":"","pricing_plan_id":"cebpf4jnsgd1na2vs0mg"},{"bike_id":"4871e837-6911-4ba3-bd49-e8642c4e0d53","system_id":"levelo_inurba_marseille","lat":43.286,"lon":5.37051,"is_reserved":false,"is_disabled":false,"rental_uris":{"android":"levelo://app?vid=4871e837-6911-4ba3-bd49-e8642c4e0d53","ios":"levelo://app?vid=4871e837-6911-4ba3-bd49-e8642c4e0d53"},"vehicle_type_id":"4","last_reported":1770031708,"current_range_meters":10000,"station_id":"ce4bht12rcd13ifvqi60","pricing_plan_id":"cebpf4jnsgd1na2vs0mg"},{"bike_id":"f0653f9d-58c6-4236-ad69-87e4f2d312de","system_id":"levelo_inurba_marseille","lat":43.28615,"lon":5.35104,"is_reserved":false,"is_disabled":false,"rental_uris":{"android":"levelo://app?vid=f0653f9d-58c6-4236-ad69-87e4f2d312de","ios":"levelo://app?vid=f0653f9d-58c6-4236-ad69-87e4f2d312de"},"vehicle_type_id":"4","last_reported":1770031708,"current_range_meters":10000,"station_id":"ce4bhch2rcd13ifvqeug","pricing_plan_id":"cebpf4jnsgd1na2vs0mg"},{"bike_id":"7c48928e-9a34-40c6-8c02-f16fa56b2c4a","system_id":"levelo_inurba_marseille","lat":43.24081,"lon":5.37757,"is_reserved":false,"is_disabled":false,"rental_uris":{"android":"levelo://app?vid=7c48928e-9a34-40c6-8c02-f16fa56b2c4a","ios":"levelo://app?vid=7c48928e-9a34-40c6-8c02-f16fa56b2c4a"},"vehicle_type_id":"4","last_reported":1770031708,"current_range_meters":10000,"station_id":"ce4bhnp2rcd13ifvqgvg","pricing_plan_id":"cebpf4jnsgd1na2vs0mg"},{"bike_id":"00aa65f2-b269-417d-9516-05011b7ebc65","system_id":"levelo_inurba_marseille","lat":43.28488,"lon":5.38422,"is_reserved":false,"is_disabled":false,"rental_uris":{"android":"levelo://app?vid=00aa65f2-b269-417d-9516-05011b7ebc65","ios":"levelo://app?vid=00aa65f2-b269-417d-9516-05011b7ebc65"},"vehicle_type_id":"4","last_reported":1770031708,"current_range_meters":10000,"station_id":"ce4bh512rcd13ifvqe3g","pricing_plan_id":"cebpf4jnsgd1na2vs0mg"},{"bike_id":"792177f6-d143-4dfd-b5a3-f016d8d7a0ac","system_id":"levelo_inurba_marseille","lat":43.29809,"lon":5.38102,"is_reserved":false,"is_disabled":false,"rental_uris":{"android":"levelo://app?vid=792177f6-d143-4dfd-b5a3-f016d8d7a0ac","ios":"levelo://app?vid=792177f6-d143-4dfd-b5a3-f016d8d7a0ac"},"vehicle_type_id":"4","last_reported":1770031708,"current_range_meters":10000,"station_id":"ce4bgip2rcd13ifvqbb0","pricing_plan_id":"cebpf4jnsgd1na2vs0mg"},{"bike_id":"9856ac21-8758-4457-ad87-2d03ea77e6e1","system_id":"levelo_inurba_marseille","lat":43.29446,"lon":5.42938,"is_reserved":false,"is_disabled":false,"rental_uris":{"android":"levelo://app?vid=9856ac21-8758-4457-ad87-2d03ea77e6e1","ios":"levelo://app?vid=9856ac21-8758-4457-ad87-2d03ea77e6e1"},"vehicle_type_id":"4","last_reported":1770031708,"current_range_meters":10800,"station_id":"","pricing_plan_id":"cebpf4jnsgd1na2vs0mg"},{"bike_id":"df433f98-703d-4ae8-bbcd-074688555f41","system_id":"levelo_inurba_marseille","lat":43.31195,"lon":5.36908,"is_reserved":false,"is_disabled":false,"rental_uris":{"android":"levelo://app?vid=df433f98-703d-4ae8-bbcd-074688555f41","ios":"levelo://app?vid=df433f98-703d-4ae8-bbcd-074688555f41"},"vehicle_type_id":"4","last_reported":1770031708,"current_range_meters":10800,"station_id":"","pricing_plan_id":"cebpf4jnsgd1na2vs0mg"},{"bike_id":"a84daa6c-6966-4a0e-b6c8-2f40ae65cb03","system_id":"levelo_inurba_marseille","lat":43.29171,"lon":5.37155,"is_reserved":false,"is_disabled":false,"rental_uris":{"android":"levelo://app?vid=a84daa6c-6966-4a0e-b6c8-2f40ae65cb03","ios":"levelo://app?vid=a84daa6c-6966-4a0e-b6c8-2f40ae65cb03"},"vehicle_type_id":"4","last_reported":1770031708,"current_range_meters":10800,"station_id":"ce4bha92rcd13ifvqeh0","pricing_plan_id":"cebpf4jnsgd1na2vs0mg"},{"bike_id":"7f90f827-7dd6-4c19-8235-0f1df3368cc6","system_id":"levelo_inurba_marseille","lat":43.24075,"lon":5.3774,"is_reserved":false,"is_disabled":false,"rental_uris":{"android":"levelo://app?vid=7f90f827-7dd6-4c19-8235-0f1df3368cc6","ios":"levelo://app?vid=7f90f827-7dd6-4c19-8235-0f1df3368cc6"},"vehicle_type_id":"4","last_reported":1770031708,"current_range_meters":10800,"station_id":"ce4bhnp2rcd13ifvqgvg","pricing_plan_id":"cebpf4jnsgd1na2vs0mg"},{"bike_id":"071d422e-bf78-4543-b080-48c21b7250ce","system_id":"levelo_inurba_marseille","lat":43.24829,"lon":5.37451,"is_reserved":false,"is_disabled":false,"rental_uris":{"android":"levelo://app?vid=071d422e-bf78-4543-b080-48c21b7250ce","ios":"levelo://app?vid=071d422e-bf78-4543-b080-48c21b7250ce"},"vehicle_type_id":"4","last_reported":1770031708,"current_range_meters":10800,"station_id":"ce4bhgh2rcd13ifvqfb0","pricing_plan_id":"cebpf4jnsgd1na2vs0mg"},{"bike_id":"3b780a40-d3af-4a12-a5f5-d241bc4c4597","system_id":"levelo_inurba_marseille","lat":43.29845,"lon":5.36275,"is_reserved":false,"is_disabled":false,"rental_uris":{"android":"levelo://app?vid=3b780a40-d3af-4a12-a5f5-d241bc4c4597","ios":"levelo://app?vid=3b780a40-d3af-4a12-a5f5-d241bc4c4597"},"vehicle_type_id":"4","last_reported":1770031708,"current_range_meters":10800,"station_id":"ce4bgpp2rcd13ifvqc3g","pricing_plan_id":"cebpf4jnsgd1na2vs0mg"},{"bike_id":"185868d5-c17c-44f6-936b-7ab0a075d39b","system_id":"levelo_inurba_marseille","lat":43.29975,"lon":5.41318,"is_reserved":false,"is_disabled":false,"rental_uris":{"android":"levelo://app?vid=185868d5-c17c-44f6-936b-7ab0a075d39b","ios":"levelo://app?vid=185868d5-c17c-44f6-936b-7ab0a075d39b"},"vehicle_type_id":"4","last_reported":1770031708,"current_range_meters":10800,"station_id":"ce4bhp12rcd13ifvqh9g","pricing_plan_id":"cebpf4jnsgd1na2vs0mg"},{"bike_id":"1593db29-2b46-4b1e-96c3-e152e9f43a74","system_id":"levelo_inurba_marseille","lat":43.28479,"lon":5.48392,"is_reserved":false,"is_disabled":false,"rental_uris":{"android":"levelo://app?vid=1593db29-2b46-4b1e-96c3-e152e9f43a74","ios":"levelo://app?vid=1593db29-2b46-4b1e-96c3-e152e9f43a74"},"vehicle_type_id":"4","last_reported":1770031708,"current_range_meters":10800,"station_id":"","pricing_plan_id":"cebpf4jnsgd1na2vs0mg"},{"bike_id":"46843c63-ee3c-4511-9659-5d64d08c85f9","system_id":"levelo_inurba_marseille","lat":43.25336,"lon":5.42172,"is_reserved":false,"is_disabled":false,"rental_uris":{"android":"levelo://app?vid=46843c63-ee3c-4511-9659-5d64d08c85f9","ios":"levelo://app?vid=46843c63-ee3c-4511-9659-5d64d08c85f9"},"vehicle_type_id":"4","last_reported":1770031708,"current_range_meters":10800,"station_id":"st_d2m65c5bi1j21697t3ng","pricing_plan_id":"cebpf4jnsgd1na2vs0mg"},{"bike_id":"40b0550a-e03e-4f65-b0ad-7eb884dc2646","system_id":"levelo_inurba_marseille","lat":43.239687,"lon":5.366353,"is_reserved":false,"is_disabled":false,"rental_uris":{"android":"levelo://app?vid=40b0550a-e03e-4f65-b0ad-7eb884dc2646","ios":"levelo://app?vid=40b0550a-e03e-4f65-b0ad-7eb884dc2646"},"vehicle_type_id":"4","last_reported":1770031708,"current_range_meters":10800,"station_id":"ce4bhi12rcd13ifvqfp0","pricing_plan_id":"cebpf4jnsgd1na2vs0mg"},{"bike_id":"71a07312-ff45-45c1-87c7-b2e91c5b4e37","system_id":"levelo_inurba_marseille","lat":43.28489,"lon":5.51493,"is_reserved":false,"is_disabled":false,"rental_uris":{"android":"levelo://app?vid=71a07312-ff45-45c1-87c7-b2e91c5b4e37","ios":"levelo://app?vid=71a07312-ff45-45c1-87c7-b2e91c5b4e37"},"vehicle_type_id":"4","last_reported":1770031708,"current_range_meters":10800,"station_id":"","pricing_plan_id":"cebpf4jnsgd1na2vs0mg"},{"bike_id":"618231d8-291d-4a2d-8cee-faa8248fa735","system_id":"levelo_inurba_marseille","lat":43.2119,"lon":5.35074,"is_reserved":false,"is_disabled":true,"rental_uris":{"android":"levelo://app?vid=618231d8-291d-4a2d-8cee-faa8248fa735","ios":"levelo://app?vid=618231d8-291d-4a2d-8cee-faa8248fa735"},"vehicle_type_id":"4","last_reported":1770031708,"current_range_meters":10800,"station_id":"st_cvj6sg6p6f1abm77japg","pricing_plan_id":"cebpf4jnsgd1na2vs0mg"},{"bike_id":"9e54afd6-164d-4a09-a4c1-827c0fa4b28c","system_id":"levelo_inurba_marseille","lat":43.291655,"lon":5.371518,"is_reserved":false,"is_disabled":false,"rental_uris":{"android":"levelo://app?vid=9e54afd6-164d-4a09-a4c1-827c0fa4b28c","ios":"levelo://app?vid=9e54afd6-164d-4a09-a4c1-827c0fa4b28c"},"vehicle_type_id":"4","last_reported":1770031708,"current_range_meters":10800,"station_id":"ce4bha92rcd13ifvqeh0","pricing_plan_id":"cebpf4jnsgd1na2vs0mg"},{"bike_id":"e685b8e3-afce-4dcd-a202-86a08c955aff","system_id":"levelo_inurba_marseille","lat":43.232,"lon":5.35543,"is_reserved":false,"is_disabled":false,"rental_uris":{"android":"levelo://app?vid=e685b8e3-afce-4dcd-a202-86a08c955aff","ios":"levelo://app?vid=e685b8e3-afce-4dcd-a202-86a08c955aff"},"vehicle_type_id":"4","last_reported":1770031708,"current_range_meters":10800,"station_id":"ce4bhu92rcd13ifvqi70","pricing_plan_id":"cebpf4jnsgd1na2vs0mg"},{"bike_id":"e6dc7f9d-f444-4ec1-a2a6-3dca4179150f","system_id":"levelo_inurba_marseille","lat":43.30954,"lon":5.3904,"is_reserved":false,"is_disabled":false,"rental_uris":{"android":"levelo://app?vid=e6dc7f9d-f444-4ec1-a2a6-3dca4179150f","ios":"levelo://app?vid=e6dc7f9d-f444-4ec1-a2a6-3dca4179150f"},"vehicle_type_id":"4","last_reported":1770031708,"current_range_meters":10800,"station_id":"ce4bgup2rcd13ifvqco0","pricing_plan_id":"cebpf4jnsgd1na2vs0mg"},{"bike_id":"65bf3991-3be5-47bd-ac33-b3a254f4d015","system_id":"levelo_inurba_marseille","lat":43.31055,"lon":5.37194,"is_reserved":false,"is_disabled":false,"rental_uris":{"android":"levelo://app?vid=65bf3991-3be5-47bd-ac33-b3a254f4d015","ios":"levelo://app?vid=65bf3991-3be5-47bd-ac33-b3a254f4d015"},"vehicle_type_id":"4","last_reported":1770031708,"current_range_meters":10800,"station_id":"st_d4kl2rp97mjs73e7tdfg","pricing_plan_id":"cebpf4jnsgd1na2vs0mg"},{"bike_id":"d123f663-9321-4ba2-9f85-e756187d5f99","system_id":"levelo_inurba_marseille","lat":43.24152,"lon":5.36412,"is_reserved":false,"is_disabled":false,"rental_uris":{"android":"levelo://app?vid=d123f663-9321-4ba2-9f85-e756187d5f99","ios":"levelo://app?vid=d123f663-9321-4ba2-9f85-e756187d5f99"},"vehicle_type_id":"4","last_reported":1770031708,"current_range_meters":10800,"station_id":"cpo36qri1sfpv3e86is0","pricing_plan_id":"cebpf4jnsgd1na2vs0mg"},{"bike_id":"c5c476c6-13e3-4e9e-ac25-4350ce35a8e8","system_id":"levelo_inurba_marseille","lat":43.23165,"lon":5.43725,"is_reserved":false,"is_disabled":false,"rental_uris":{"android":"levelo://app?vid=c5c476c6-13e3-4e9e-ac25-4350ce35a8e8","ios":"levelo://app?vid=c5c476c6-13e3-4e9e-ac25-4350ce35a8e8"},"vehicle_type_id":"4","last_reported":1770031708,"current_range_meters":11200,"station_id":"ce4bhmp2rcd13ifvqgog","pricing_plan_id":"cebpf4jnsgd1na2vs0mg"},{"bike_id":"f641041c-d518-4d47-bcb4-d5214de2c231","system_id":"levelo_inurba_marseille","lat":43.28519,"lon":5.44082,"is_reserved":false,"is_disabled":true,"rental_uris":{"android":"levelo://app?vid=f641041c-d518-4d47-bcb4-d5214de2c231","ios":"levelo://app?vid=f641041c-d518-4d47-bcb4-d5214de2c231"},"vehicle_type_id":"4","last_reported":1770031708,"current_range_meters":11200,"station_id":"st_d3j3df2ikq2c7380ej80","pricing_plan_id":"cebpf4jnsgd1na2vs0mg"},{"bike_id":"0c0cda98-98d2-47de-a4e3-fbc60a330e55","system_id":"levelo_inurba_marseille","lat":43.26567,"lon":5.37279,"is_reserved":false,"is_disabled":true,"rental_uris":{"android":"levelo://app?vid=0c0cda98-98d2-47de-a4e3-fbc60a330e55","ios":"levelo://app?vid=0c0cda98-98d2-47de-a4e3-fbc60a330e55"},"vehicle_type_id":"4","last_reported":1770031708,"current_range_meters":11200,"station_id":"ce4bhg12rcd13ifvqf70","pricing_plan_id":"cebpf4jnsgd1na2vs0mg"},{"bike_id":"89a4b334-de0d-4445-bb14-5bd7dd41c2f6","system_id":"levelo_inurba_marseille","lat":43.2971,"lon":5.37957,"is_reserved":false,"is_disabled":false,"rental_uris":{"android":"levelo://app?vid=89a4b334-de0d-4445-bb14-5bd7dd41c2f6","ios":"levelo://app?vid=89a4b334-de0d-4445-bb14-5bd7dd41c2f6"},"vehicle_type_id":"4","last_reported":1770031708,"current_range_meters":11200,"station_id":"","pricing_plan_id":"cebpf4jnsgd1na2vs0mg"},{"bike_id":"49d7e7a4-1c59-4677-a938-b64c19f8a821","system_id":"levelo_inurba_marseille","lat":43.26381,"lon":5.41075,"is_reserved":false,"is_disabled":false,"rental_uris":{"android":"levelo://app?vid=49d7e7a4-1c59-4677-a938-b64c19f8a821","ios":"levelo://app?vid=49d7e7a4-1c59-4677-a938-b64c19f8a821"},"vehicle_type_id":"4","last_reported":1770031708,"current_range_meters":11200,"station_id":"st_d4e5ca6na9uc73bfl5fg","pricing_plan_id":"cebpf4jnsgd1na2vs0mg"},{"bike_id":"f056ea2b-6797-487b-a390-938d25af24c7","system_id":"levelo_inurba_marseille","lat":43.27494,"lon":5.42466,"is_reserved":false,"is_disabled":false,"rental_uris":{"android":"levelo://app?vid=f056ea2b-6797-487b-a390-938d25af24c7","ios":"levelo://app?vid=f056ea2b-6797-487b-a390-938d25af24c7"},"vehicle_type_id":"4","last_reported":1770031708,"current_range_meters":11200,"station_id":"ce4bhn92rcd13ifvqgrg","pricing_plan_id":"cebpf4jnsgd1na2vs0mg"},{"bike_id":"6c3c24e0-93af-425c-b8b6-7f814593e98b","system_id":"levelo_inurba_marseille","lat":43.311,"lon":5.37873,"is_reserved":false,"is_disabled":false,"rental_uris":{"android":"levelo://app?vid=6c3c24e0-93af-425c-b8b6-7f814593e98b","ios":"levelo://app?vid=6c3c24e0-93af-425c-b8b6-7f814593e98b"},"vehicle_type_id":"4","last_reported":1770031708,"current_range_meters":11200,"station_id":"","pricing_plan_id":"cebpf4jnsgd1na2vs0mg"},{"bike_id":"1e5f83d1-4cb0-4273-9ebf-e5b6fa085170","system_id":"levelo_inurba_marseille","lat":43.23148,"lon":5.43704,"is_reserved":false,"is_disabled":false,"rental_uris":{"android":"levelo://app?vid=1e5f83d1-4cb0-4273-9ebf-e5b6fa085170","ios":"levelo://app?vid=1e5f83d1-4cb0-4273-9ebf-e5b6fa085170"},"vehicle_type_id":"4","last_reported":1770031708,"current_range_meters":11200,"station_id":"ce4bhmp2rcd13ifvqgog","pricing_plan_id":"cebpf4jnsgd1na2vs0mg"},{"bike_id":"048801af-a43f-4e73-ab67-4d5f4857a076","system_id":"levelo_inurba_marseille","lat":43.23215,"lon":5.35603,"is_reserved":false,"is_disabled":false,"rental_uris":{"android":"levelo://app?vid=048801af-a43f-4e73-ab67-4d5f4857a076","ios":"levelo://app?vid=048801af-a43f-4e73-ab67-4d5f4857a076"},"vehicle_type_id":"4","last_reported":1770031708,"current_range_meters":11200,"station_id":"ce4bhu92rcd13ifvqi70","pricing_plan_id":"cebpf4jnsgd1na2vs0mg"},{"bike_id":"e872709a-d005-471d-b5d9-b0633154a0e4","system_id":"levelo_inurba_marseille","lat":43.26566,"lon":5.40317,"is_reserved":false,"is_disabled":false,"rental_uris":{"android":"levelo://app?vid=e872709a-d005-471d-b5d9-b0633154a0e4","ios":"levelo://app?vid=e872709a-d005-471d-b5d9-b0633154a0e4"},"vehicle_type_id":"4","last_reported":1770031708,"current_range_meters":11200,"station_id":"ce4bhmp2rcd13ifvqgng","pricing_plan_id":"cebpf4jnsgd1na2vs0mg"},{"bike_id":"f1145939-d7f8-4cf8-8a94-b59c5c9791d1","system_id":"levelo_inurba_marseille","lat":43.30156,"lon":5.3808,"is_reserved":false,"is_disabled":false,"rental_uris":{"android":"levelo://app?vid=f1145939-d7f8-4cf8-8a94-b59c5c9791d1","ios":"levelo://app?vid=f1145939-d7f8-4cf8-8a94-b59c5c9791d1"},"vehicle_type_id":"4","last_reported":1770031708,"current_range_meters":11200,"station_id":"ce4bgjp2rcd13ifvqbh0","pricing_plan_id":"cebpf4jnsgd1na2vs0mg"},{"bike_id":"f911d4e7-64e5-465c-ad05-e77684dd39c4","system_id":"levelo_inurba_marseille","lat":43.24071,"lon":5.37742,"is_reserved":false,"is_disabled":false,"rental_uris":{"android":"levelo://app?vid=f911d4e7-64e5-465c-ad05-e77684dd39c4","ios":"levelo://app?vid=f911d4e7-64e5-465c-ad05-e77684dd39c4"},"vehicle_type_id":"4","last_reported":1770031708,"current_range_meters":11200,"station_id":"ce4bhnp2rcd13ifvqgvg","pricing_plan_id":"cebpf4jnsgd1na2vs0mg"},{"bike_id":"ec37c60e-aacc-4bcd-8de5-0ceca8dc27c6","system_id":"levelo_inurba_marseille","lat":43.24627,"lon":5.38909,"is_reserved":false,"is_disabled":false,"rental_uris":{"android":"levelo://app?vid=ec37c60e-aacc-4bcd-8de5-0ceca8dc27c6","ios":"levelo://app?vid=ec37c60e-aacc-4bcd-8de5-0ceca8dc27c6"},"vehicle_type_id":"4","last_reported":1770031708,"current_range_meters":11200,"station_id":"ce4bhg12rcd13ifvqf60","pricing_plan_id":"cebpf4jnsgd1na2vs0mg"},{"bike_id":"c5766d50-136e-4251-9fb1-f9e94e72303c","system_id":"levelo_inurba_marseille","lat":43.26935,"lon":5.40763,"is_reserved":false,"is_disabled":false,"rental_uris":{"android":"levelo://app?vid=c5766d50-136e-4251-9fb1-f9e94e72303c","ios":"levelo://app?vid=c5766d50-136e-4251-9fb1-f9e94e72303c"},"vehicle_type_id":"4","last_reported":1770031708,"current_range_meters":11200,"station_id":"","pricing_plan_id":"cebpf4jnsgd1na2vs0mg"},{"bike_id":"892133a8-ee18-48c0-8a5c-12f75f9d68f3","system_id":"levelo_inurba_marseille","lat":43.23182,"lon":5.39995,"is_reserved":false,"is_disabled":false,"rental_uris":{"android":"levelo://app?vid=892133a8-ee18-48c0-8a5c-12f75f9d68f3","ios":"levelo://app?vid=892133a8-ee18-48c0-8a5c-12f75f9d68f3"},"vehicle_type_id":"4","last_reported":1770031708,"current_range_meters":11600,"station_id":"ce4bhn12rcd13ifvqgqg","pricing_plan_id":"cebpf4jnsgd1na2vs0mg"},{"bike_id":"86a15370-8c2f-465c-b374-181007e47fe1","system_id":"levelo_inurba_marseille","lat":43.26218,"lon":5.3791,"is_reserved":false,"is_disabled":false,"rental_uris":{"android":"levelo://app?vid=86a15370-8c2f-465c-b374-181007e47fe1","ios":"levelo://app?vid=86a15370-8c2f-465c-b374-181007e47fe1"},"vehicle_type_id":"4","last_reported":1770031708,"current_range_meters":11600,"station_id":"ce4bhjp2rcd13ifvqg90","pricing_plan_id":"cebpf4jnsgd1na2vs0mg"},{"bike_id":"cd5cc5be-1de1-4676-9bd4-4da4d1d6d7d1","system_id":"levelo_inurba_marseille","lat":43.27208,"lon":5.39181,"is_reserved":false,"is_disabled":false,"rental_uris":{"android":"levelo://app?vid=cd5cc5be-1de1-4676-9bd4-4da4d1d6d7d1","ios":"levelo://app?vid=cd5cc5be-1de1-4676-9bd4-4da4d1d6d7d1"},"vehicle_type_id":"4","last_reported":1770031708,"current_range_meters":11600,"station_id":"ce4bhhp2rcd13ifvqfm0","pricing_plan_id":"cebpf4jnsgd1na2vs0mg"},{"bike_id":"64b0450a-3d43-4dd0-b2c6-52ba0e4c8a80","system_id":"levelo_inurba_marseille","lat":43.24997,"lon":5.38965,"is_reserved":false,"is_disabled":false,"rental_uris":{"android":"levelo://app?vid=64b0450a-3d43-4dd0-b2c6-52ba0e4c8a80","ios":"levelo://app?vid=64b0450a-3d43-4dd0-b2c6-52ba0e4c8a80"},"vehicle_type_id":"4","last_reported":1770031708,"current_range_meters":11600,"station_id":"ce4bhgp2rcd13ifvqfd0","pricing_plan_id":"cebpf4jnsgd1na2vs0mg"},{"bike_id":"5db61420-b5a9-4227-b9f0-86a15e60b1ba","system_id":"levelo_inurba_marseille","lat":43.31045,"lon":5.37154,"is_reserved":false,"is_disabled":false,"rental_uris":{"android":"levelo://app?vid=5db61420-b5a9-4227-b9f0-86a15e60b1ba","ios":"levelo://app?vid=5db61420-b5a9-4227-b9f0-86a15e60b1ba"},"vehicle_type_id":"4","last_reported":1770031708,"current_range_meters":11600,"station_id":"st_d4kl2rp97mjs73e7tdfg","pricing_plan_id":"cebpf4jnsgd1na2vs0mg"},