{"last_updated":1685653551,"ttl":30,"version":"2.2","data":{"bikes":[{"bike_id":"4565556b-6672-4ac3-b4fb-9271dbf94926","system_id":"levelo_inurba_marseille","lat":43.31341,"lon":5.367098,"is_reserved":false,"is_disabled":false,"rental_uris":{"android":"levelo://app?vid=4565556b-6672-4ac3-b4fb-9271dbf94926","ios":"levelo://app?vid=4565556b-6672-4ac3-b4fb-9271dbf94926"},"vehicle_type_id":"4","last_reported":1685653551,"current_range_meters":30400,"station_id":"ce4bgr92rcd13ifvqc6g","pricing_plan_id":"free"},{"bike_id":"acdfce9c-c44a-44e5-a08c-4ed3cf1e51fa","system_id":"levelo_inurba_marseille","lat":43.31341,"lon":5.367098,"is_reserved":false,"is_disabled":false,"rental_uris":{"android":"levelo://app?vid=acdfce9c-c44a-44e5-a08c-4ed3cf1e51fa","ios":"levelo://app?vid=acdfce9c-c44a-44e5-a08c-4ed3cf1e51fa"},"vehicle_type_id":"4","last_reported":1685653551,"current_range_meters":26400,"station_id":"ce4bgr92rcd13ifvqc6g","pricing_plan_id":"free"},{"bike_id":"a9091c3a-a543-45d5-8a3a-7d7054c74a2f","system_id":"levelo_inurba_marseille","lat":43.31346,"lon":5.36722,"is_reserved":false,"is_disabled":false,"rental_uris":{"android":"levelo://app?vid=a9091c3a-a543-45d5-8a3a-7d7054c74a2f","ios":"levelo://app?vid=a9091c3a-a543-45d5-8a3a-7d7054c74a2f"},"vehicle_type_id":"4","last_reported":1685653551,"current_range_meters":31200,"station_id":"ce4bgr92rcd13ifvqc6g","pricing_plan_id":"free"},{"bike_id":"206c7cdb-9047-48c2-bd6c-b07d6f113ae0","system_id":"levelo_inurba_marseille","lat":43.31341,"lon":5.367098,"is_reserved":false,"is_disabled":false,"rental_uris":{"android":"levelo://app?vid=206c7cdb-9047-48c2-bd6c-b07d6f113ae0","ios":"levelo://app?vid=206c7cdb-9047-48c2-bd6c-b07d6f113ae0"},"vehicle_type_id":"4","last_reported":1685653551,"current_range_meters":26400,"station_id":"ce4bgr92rcd13ifvqc6g","pricing_plan_id":"free"},{"bike_id":"86efc2d4-0f51-4430-8a90-f5f18c8694d7","system_id":"levelo_inurba_marseille","lat":43.31341,"lon":5.367098,"is_reserved":false,"is_disabled":false,"rental_uris":{"android":"levelo://app?vid=86efc2d4-0f51-4430-8a90-f5f18c8694d7","ios":"levelo://app?vid=86efc2d4-0f51-4430-8a90-f5f18c8694d7"},"vehicle_type_id":"4","last_reported":1685653551,"current_range_meters":28400,"station_id":"ce4bgr92rcd13ifvqc6g","pricing_plan_id":"free"},{"bike_id":"380b5f6d-58f0-4b03-aa0b-b13371583b94","system_id":"levelo_inurba_marseille","lat":43.31341,"lon":5.367098,"is_reserved":false,"is_disabled":false,"rental_uris":{"android":"levelo://app?vid=380b5f6d-58f0-4b03-aa0b-b13371583b94","ios":"levelo://app?vid=380b5f6d-58f0-4b03-aa0b-b13371583b94"},"vehicle_type_id":"4","last_reported":1685653551,"current_range_meters":22000,"station_id":"ce4bgr92rcd13ifvqc6g","pricing_plan_id":"free"},{"bike_id":"608c5d66-9863-47b6-bcfa-26548aefb25d","system_id":"levelo_inurba_marseille","lat":43.31341,"lon":5.367098,"is_reserved":false,"is_disabled":false,"rental_uris":{"android":"levelo://app?vid=608c5d66-9863-47b6-bcfa-26548aefb25d","ios":"levelo://app?vid=608c5d66-9863-47b6-bcfa-26548aefb25d"},"vehicle_type_id":"4","last_reported":1685653551,"current_range_meters":26800,"station_id":"ce4bgr92rcd13ifvqc6g","pricing_plan_id":"free"},{"bike_id":"a7f49332-048e-4641-85b2-479be30cf272","system_id":"levelo_inurba_marseille","lat":43.31341,"lon":5.367098,"is_reserved":false,"is_disabled":false,"rental_uris":{"android":"levelo://app?vid=a7f49332-048e-4641-85b2-479be30cf272","ios":"levelo://app?vid=a7f49332-048e-4641-85b2-479be30cf272"},"vehicle_type_id":"4","last_reported":1685653551,"current_range_meters":28000,"station_id":"ce4bgr92rcd13ifvqc6g","pricing_plan_id":"free"},{"bike_id":"9806c50b-2795-4aaa-a8bd-d1f7ee7a093b","system_id":"levelo_inurba_marseille","lat":43.31341,"lon":5.367098,"is_reserved":false,"is_disabled":false,"rental_uris":{"android":"levelo://app?vid=9806c50b-2795-4aaa-a8bd-d1f7ee7a093b","ios":"levelo://app?vid=9806c50b-2795-4aaa-a8bd-d1f7ee7a093b"},"vehicle_type_id":"4","last_reported":1685653551,"current_range_meters":30000,"station_id":"ce4bgr92rcd13ifvqc6g","pricing_plan_id":"free"},{"bike_id":"70449bc2-11af-4ddf-8aa8-0dee631c8b7b","system_id":"levelo_inurba_marseille","lat":43.313391,"lon":5.36706,"is_reserved":false,"is_disabled":false,"rental_uris":{"android":"levelo://app?vid=70449bc2-11af-4ddf-8aa8-0dee631c8b7b","ios":"levelo://app?vid=70449bc2-11af-4ddf-8aa8-0dee631c8b7b"},"vehicle_type_id":"4","last_reported":1685653551,"current_range_meters":28800,"station_id":"ce4bgr92rcd13ifvqc6g","pricing_plan_id":"free"},{"bike_id":"3e8f0699-d53e-499c-b629-e2aabeb4df2b","system_id":"levelo_inurba_marseille","lat":43.313391,"lon":5.36706,"is_reserved":false,"is_disabled":false,"rental_uris":{"android":"levelo://app?vid=3e8f0699-d53e-499c-b629-e2aabeb4df2b","ios":"levelo://app?vid=3e8f0699-d53e-499c-b629-e2aabeb4df2b"},"vehicle_type_id":"4","last_reported":1685653551,"current_range_meters":18400,"station_id":"ce4bgr92rcd13ifvqc6g","pricing_plan_id":"free"},{"bike_id":"4a2c4d1c-7798-4c91-a07f-b53831b35068","system_id":"levelo_inurba_marseille","lat":43.31341,"lon":5.367098,"is_reserved":false,"is_disabled":false,"rental_uris":{"android":"levelo://app?vid=4a2c4d1c-7798-4c91-a07f-b53831b35068","ios":"levelo://app?vid=4a2c4d1c-7798-4c91-a07f-b53831b35068"},"vehicle_type_id":"4","last_reported":1685653551,"current_range_meters":26800,"station_id":"ce4bgr92rcd13ifvqc6g","pricing_plan_id":"free"},{"bike_id":"f876f6a7-7580-4a13-bd89-09591147c079","system_id":"levelo_inurba_marseille","lat":43.31341,"lon":5.367098,"is_reserved":false,"is_disabled":false,"rental_uris":{"android":"levelo://app?vid=f876f6a7-7580-4a13-bd89-09591147c079","ios":"levelo://app?vid=f876f6a7-7580-4a13-bd89-09591147c079"},"vehicle_type_id":"4","last_reported":1685653551,"current_range_meters":30000,"station_id":"ce4bgr92rcd13ifvqc6g","pricing_plan_id":"free"},{"bike_id":"4c61dd01-f8dd-454c-b11a-80509682d1da","system_id":"levelo_inurba_marseille","lat":43.312239,"lon":5.368562,"is_reserved":false,"is_disabled":false,"rental_uris":{"android":"levelo://app?vid=4c61dd01-f8dd-454c-b11a-80509682d1da","ios":"levelo://app?vid=4c61dd01-f8dd-454c-b11a-80509682d1da"},"vehicle_type_id":"4","last_reported":1685653551,"current_range_meters":25600,"station_id":"ce4bgl92rcd13ifvqbq0","pricing_plan_id":"free"},{"bike_id":"64a95447-f32f-48d5-aa00-696d7ffea0fa","system_id":"levelo_inurba_marseille","lat":43.314811,"lon":5.373103,"is_reserved":false,"is_disabled":false,"rental_uris":{"android":"levelo://app?vid=64a95447-f32f-48d5-aa00-696d7ffea0fa","ios":"levelo://app?vid=64a95447-f32f-48d5-aa00-696d7ffea0fa"},"vehicle_type_id":"4","last_reported":1685653551,"current_range_meters":24000,"station_id":"ce4bgt12rcd13ifvqcd0","pricing_plan_id":"free"},{"bike_id":"c4f1ff24-9457-4a0e-9363-ddb8b4ac2975","system_id":"levelo_inurba_marseille","lat":43.314811,"lon":5.373103,"is_reserved":false,"is_disabled":false,"rental_uris":{"android":"levelo://app?vid=c4f1ff24-9457-4a0e-9363-ddb8b4ac2975","ios":"levelo://app?vid=c4f1ff24-9457-4a0e-9363-ddb8b4ac2975"},"vehicle_type_id":"4","last_reported":1685653551,"current_range_meters":28000,"station_id":"ce4bgt12rcd13ifvqcd0","pricing_plan_id":"free"},{"bike_id":"9ca3ae96-5e6c-490e-91a0-9148c2c9f5d3","system_id":"levelo_inurba_marseille","lat":43.314811,"lon":5.373103,"is_reserved":false,"is_disabled":false,"rental_uris":{"android":"levelo://app?vid=9ca3ae96-5e6c-490e-91a0-9148c2c9f5d3","ios":"levelo://app?vid=9ca3ae96-5e6c-490e-91a0-9148c2c9f5d3"},"vehicle_type_id":"4","last_reported":1685653551,"current_range_meters":31600,"station_id":"ce4bgt12rcd13ifvqcd0","pricing_plan_id":"free"},{"bike_id":"565fdc60-a9fc-4d59-a67d-f27aff90f713","system_id":"levelo_inurba_marseille","lat":43.314811,"lon":5.373103,"is_reserved":false,"is_disabled":false,"rental_uris":{"android":"levelo://app?vid=565fdc60-a9fc-4d59-a67d-f27aff90f713","ios":"levelo://app?vid=565fdc60-a9fc-4d59-a67d-f27aff90f713"},"vehicle_type_id":"4","last_reported":1685653551,"current_range_meters":26800,"station_id":"ce4bgt12rcd13ifvqcd0","pricing_plan_id":"free"},{"bike_id":"b9ec6313-acc9-4014-af82-617f52cca01a","system_id":"levelo_inurba_marseille","lat":43.314811,"lon":5.373103,"is_reserved":false,"is_disabled":false,"rental_uris":{"android":"levelo://app?vid=b9ec6313-acc9-4014-af82-617f52cca01a","ios":"levelo://app?vid=b9ec6313-acc9-4014-af82-617f52cca01a"},"vehicle_type_id":"4","last_reported":1685653551,"current_range_meters":31600,"station_id":"ce4bgt12rcd13ifvqcd0","pricing_plan_id":"free"},{"bike_id":"b2ef43d1-b511-4d35-b0fa-b5efee0616ee","system_id":"levelo_inurba_marseille","lat":43.314811,"lon":5.373103,"is_reserved":false,"is_disabled":false,"rental_uris":{"android":"levelo://app?vid=b2ef43d1-b511-4d35-b0fa-b5efee0616ee","ios":"levelo://app?vid=b2ef43d1-b511-4d35-b0fa-b5efee0616ee"},"vehicle_type_id":"4","last_reported":1685653551,"current_range_meters":31600,"station_id":"ce4bgt12rcd13ifvqcd0","pricing_plan_id":"free"},{"bike_id":"954a1d51-355b-41a9-bd3a-22109cade1c0","system_id":"levelo_inurba_marseille","lat":43.314811,"lon":5.373103,"is_reserved":false,"is_disabled":false,"rental_uris":{"android":"levelo://app?vid=954a1d51-355b-41a9-bd3a-22109cade1c0","ios":"levelo://app?vid=954a1d51-355b-41a9-bd3a-22109cade1c0"},"vehicle_type_id":"4","last_reported":1685653551,"current_range_meters":29200,"station_id":"ce4bgt12rcd13ifvqcd0","pricing_plan_id":"free"},{"bike_id":"f0d9f911-1300-4abc-ae73-bdeadb366ec8","system_id":"levelo_inurba_marseille","lat":43.314811,"lon":5.373103,"is_reserved":false,"is_disabled":false,"rental_uris":{"android":"levelo://app?vid=f0d9f911-1300-4abc-ae73-bdeadb366ec8","ios":"levelo://app?vid=f0d9f911-1300-4abc-ae73-bdeadb366ec8"},"vehicle_type_id":"4","last_reported":1685653551,"current_range_meters":29200,"station_id":"ce4bgt12rcd13ifvqcd0","pricing_plan_id":"free"},{"bike_id":"b86e03bb-7658-4646-b631-8a1ee7425eb1","system_id":"levelo_inurba_marseille","lat":43.314811,"lon":5.373104,"is_reserved":false,"is_disabled":false,"rental_uris":{"android":"levelo://app?vid=b86e03bb-7658-4646-b631-8a1ee7425eb1","ios":"levelo://app?vid=b86e03bb-7658-4646-b631-8a1ee7425eb1"},"vehicle_type_id":"4","last_reported":1685653551,"current_range_meters":14800,"station_id":"ce4bgt12rcd13ifvqcd0","pricing_plan_id":"free"},{"bike_id":"e2a88203-2715-465c-a250-37bdfb7df465","system_id":"levelo_inurba_marseille","lat":43.314811,"lon":5.373103,"is_reserved":false,"is_disabled":false,"rental_uris":{"android":"levelo://app?vid=e2a88203-2715-465c-a250-37bdfb7df465","ios":"levelo://app?vid=e2a88203-2715-465c-a250-37bdfb7df465"},"vehicle_type_id":"4","last_reported":1685653551,"current_range_meters":31200,"station_id":"ce4bgt12rcd13ifvqcd0","pricing_plan_id":"free"},{"bike_id":"4fdcb079-0d29-4a22-8b7c-2ae8e29fe1d0","system_id":"levelo_inurba_marseille","lat":43.314811,"lon":5.373104,"is_reserved":false,"is_disabled":false,"rental_uris":{"android":"levelo://app?vid=4fdcb079-0d29-4a22-8b7c-2ae8e29fe1d0","ios":"levelo://app?vid=4fdcb079-0d29-4a22-8b7c-2ae8e29fe1d0"},"vehicle_type_id":"4","last_reported":1685653551,"current_range_meters":30400,"station_id":"ce4bgt12rcd13ifvqcd0","pricing_plan_id":"free"},{"bike_id":"4d43e892-ec90-4fce-8475-f727fed3851f","system_id":"levelo_inurba_marseille","lat":43.31724,"lon":5.37092,"is_reserved":false,"is_disabled":false,"rental_uris":{"android":"levelo://app?vid=4d43e892-ec90-4fce-8475-f727fed3851f","ios":"levelo://app?vid=4d43e892-ec90-4fce-8475-f727fed3851f"},"vehicle_type_id":"4","last_reported":1685653551,"current_range_meters":12000,"station_id":"","pricing_plan_id":"free"},{"bike_id":"948549bb-5459-48c7-9638-9941162063b5","system_id":"levelo_inurba_marseille","lat":43.305368,"lon":5.367343,"is_reserved":false,"is_disabled":false,"rental_uris":{"android":"levelo://app?vid=948549bb-5459-48c7-9638-9941162063b5","ios":"levelo://app?vid=948549bb-5459-48c7-9638-9941162063b5"},"vehicle_type_id":"4","last_reported":1685653551,"current_range_meters":2000,"station_id":"ce4bgrp2rcd13ifvqc9g","pricing_plan_id":"free"},{"bike_id":"56a44531-5fa4-4710-be86-67d269dc1541","system_id":"levelo_inurba_marseille","lat":43.311131,"lon":5.377651,"is_reserved":false,"is_disabled":false,"rental_uris":{"android":"levelo://app?vid=56a44531-5fa4-4710-be86-67d269dc1541","ios":"levelo://app?vid=56a44531-5fa4-4710-be86-67d269dc1541"},"vehicle_type_id":"4","last_reported":1685653551,"current_range_meters":1200,"station_id":"ce4bgt92rcd13ifvqcg0","pricing_plan_id":"free"},{"bike_id":"4766084f-a2c6-48e4-b018-669b3efaf16a","system_id":"levelo_inurba_marseille","lat":43.317075,"lon":5.377367,"is_reserved":false,"is_disabled":false,"rental_uris":{"android":"levelo://app?vid=4766084f-a2c6-48e4-b018-669b3efaf16a","ios":"levelo://app?vid=4766084f-a2c6-48e4-b018-669b3efaf16a"},"vehicle_type_id":"4","last_reported":1685653551,"current_range_meters":26800,"station_id":"ce4bgth2rcd13ifvqch0","pricing_plan_id":"free"},{"bike_id":"02acd43f-cf52-4546-adc7-1e61a8305b6e","system_id":"levelo_inurba_marseille","lat":43.317075,"lon":5.377367,"is_reserved":false,"is_disabled":false,"rental_uris":{"android":"levelo://app?vid=02acd43f-cf52-4546-adc7-1e61a8305b6e","ios":"levelo://app?vid=02acd43f-cf52-4546-adc7-1e61a8305b6e"},"vehicle_type_id":"4","last_reported":1685653551,"current_range_meters":26000,"station_id":"ce4bgth2rcd13ifvqch0","pricing_plan_id":"free"},{"bike_id":"0438951a-b484-47dd-bbb6-22e04f0ed0cd","system_id":"levelo_inurba_marseille","lat":43.317075,"lon":5.377367,"is_reserved":false,"is_disabled":false,"rental_uris":{"android":"levelo://app?vid=0438951a-b484-47dd-bbb6-22e04f0ed0cd","ios":"levelo://app?vid=0438951a-b484-47dd-bbb6-22e04f0ed0cd"},"vehicle_type_id":"4","last_reported":1685653551,"current_range_meters":28000,"station_id":"ce4bgth2rcd13ifvqch0","pricing_plan_id":"free"},{"bike_id":"fe85f849-8f36-49a1-9723-faf00f87d1c0","system_id":"levelo_inurba_marseille","lat":43.303046,"lon":5.368981,"is_reserved":false,"is_disabled":false,"rental_uris":{"android":"levelo://app?vid=fe85f849-8f36-49a1-9723-faf00f87d1c0","ios":"levelo://app?vid=fe85f849-8f36-49a1-9723-faf00f87d1c0"},"vehicle_type_id":"4","last_reported":1685653551,"current_range_meters":800,"station_id":"ce4bgqh2rcd13ifvqc5g","pricing_plan_id":"free"},{"bike_id":"64668d62-2c56-40da-9e4a-cb84a2c2ea4d","system_id":"levelo_inurba_marseille","lat":43.31002,"lon":5.38021,"is_reserved":false,"is_disabled":false,"rental_uris":{"android":"levelo://app?vid=64668d62-2c56-40da-9e4a-cb84a2c2ea4d","ios":"levelo://app?vid=64668d62-2c56-40da-9e4a-cb84a2c2ea4d"},"vehicle_type_id":"4","last_reported":1685653551,"current_range_meters":3600,"station_id":"","pricing_plan_id":"free"},{"bike_id":"91f99a49-5b76-4e77-9bd3-51797f2fd3cc","system_id":"levelo_inurba_marseille","lat":43.315293,"lon":5.380349,"is_reserved":false,"is_disabled":false,"rental_uris":{"android":"levelo://app?vid=91f99a49-5b76-4e77-9bd3-51797f2fd3cc","ios":"levelo://app?vid=91f99a49-5b76-4e77-9bd3-51797f2fd3cc"},"vehicle_type_id":"4","last_reported":1685653551,"current_range_meters":1600,"station_id":"ce4bhsp2rcd13ifvqi50","pricing_plan_id":"free"},{"bike_id":"263d3181-c779-4243-947a-9071039aeb4c","system_id":"levelo_inurba_marseille","lat":43.301939,"lon":5.366286,"is_reserved":false,"is_disabled":false,"rental_uris":{"android":"levelo://app?vid=263d3181-c779-4243-947a-9071039aeb4c","ios":"levelo://app?vid=263d3181-c779-4243-947a-9071039aeb4c"},"vehicle_type_id":"4","last_reported":1685653551,"current_range_meters":1600,"station_id":"ce4bgrh2rcd13ifvqc8g","pricing_plan_id":"free"},{"bike_id":"e78903f0-9f53-4f8a-8cbe-4ae857508d68","system_id":"levelo_inurba_marseille","lat":43.301939,"lon":5.366286,"is_reserved":false,"is_disabled":false,"rental_uris":{"android":"levelo://app?vid=e78903f0-9f53-4f8a-8cbe-4ae857508d68","ios":"levelo://app?vid=e78903f0-9f53-4f8a-8cbe-4ae857508d68"},"vehicle_type_id":"4","last_reported":1685653551,"current_range_meters":10000,"station_id":"ce4bgrh2rcd13ifvqc8g","pricing_plan_id":"free"},{"bike_id":"f8309795-c2f1-4ec5-b69d-7b015ef6d142","system_id":"levelo_inurba_marseille","lat":43.32381,"lon":5.36996,"is_reserved":false,"is_disabled":false,"rental_uris":{"android":"levelo://app?vid=f8309795-c2f1-4ec5-b69d-7b015ef6d142","ios":"levelo://app?vid=f8309795-c2f1-4ec5-b69d-7b015ef6d142"},"vehicle_type_id":"4","last_reported":1685653551,"current_range_meters":17600,"station_id":"","pricing_plan_id":"free"},{"bike_id":"648d2e0c-e58d-4196-8541-f08de1e8aa32","system_id":"levelo_inurba_marseille","lat":43.305364,"lon":5.384119,"is_reserved":false,"is_disabled":false,"rental_uris":{"android":"levelo://app?vid=648d2e0c-e58d-4196-8541-f08de1e8aa32","ios":"levelo://app?vid=648d2e0c-e58d-4196-8541-f08de1e8aa32"},"vehicle_type_id":"4","last_reported":1685653551,"current_range_meters":18000,"station_id":"ce4bgg92rcd13ifvqb30","pricing_plan_id":"free"},{"bike_id":"a243ce1a-9b8e-44b3-b576-f133339bc316","system_id":"levelo_inurba_marseille","lat":43.3181,"lon":5.38163,"is_reserved":false,"is_disabled":false,"rental_uris":{"android":"levelo://app?vid=a243ce1a-9b8e-44b3-b576-f133339bc316","ios":"levelo://app?vid=a243ce1a-9b8e-44b3-b576-f133339bc316"},"vehicle_type_id":"4","last_reported":1685653551,"current_range_meters":0,"station_id":"","pricing_plan_id":"free"},{"bike_id":"b7a28efd-bc25-41ba-814b-ea8712831193","system_id":"levelo_inurba_marseille","lat":43.319935,"lon":5.381699,"is_reserved":false,"is_disabled":false,"rental_uris":{"android":"levelo://app?vid=b7a28efd-bc25-41ba-814b-ea8712831193","ios":"levelo://app?vid=b7a28efd-bc25-41ba-814b-ea8712831193"},"vehicle_type_id":"4","last_reported":1685653551,"current_range_meters":18400,"station_id":"ce4bhr12rcd13ifvqhpg","pricing_plan_id":"free"},{"bike_id":"01283503-4d7d-4ae2-ab83-994d7b92fcae","system_id":"levelo_inurba_marseille","lat":43.313571,"lon":5.384829,"is_reserved":false,"is_disabled":false,"rental_uris":{"android":"levelo://app?vid=01283503-4d7d-4ae2-ab83-994d7b92fcae","ios":"levelo://app?vid=01283503-4d7d-4ae2-ab83-994d7b92fcae"},"vehicle_type_id":"4","last_reported":1685653551,"current_range_meters":27600,"station_id":"ce4bgt92rcd13ifvqcf0","pricing_plan_id":"free"},{"bike_id":"69b22731-45ef-4dd1-b822-fa5f12743b2c","system_id":"levelo_inurba_marseille","lat":43.299222,"lon":5.365554,"is_reserved":false,"is_disabled":false,"rental_uris":{"android":"levelo://app?vid=69b22731-45ef-4dd1-b822-fa5f12743b2c","ios":"levelo://app?vid=69b22731-45ef-4dd1-b822-fa5f12743b2c"},"vehicle_type_id":"4","last_reported":1685653551,"current_range_meters":18000,"station_id":"ce4bgm92rcd13ifvqbr0","pricing_plan_id":"free"},{"bike_id":"69ba79cb-aa67-4fff-a861-e85a153160a3","system_id":"levelo_inurba_marseille","lat":43.311722,"lon":5.387247,"is_reserved":false,"is_disabled":false,"rental_uris":{"android":"levelo://app?vid=69ba79cb-aa67-4fff-a861-e85a153160a3","ios":"levelo://app?vid=69ba79cb-aa67-4fff-a861-e85a153160a3"},"vehicle_type_id":"4","last_reported":1685653551,"current_range_meters":1600,"station_id":"ce4bgv12rcd13ifvqcp0","pricing_plan_id":"free"},{"bike_id":"95c77e70-6a0c-4421-9e70-3561b62fd6df","system_id":"levelo_inurba_marseille","lat":43.29888,"lon":5.37412,"is_reserved":false,"is_disabled":false,"rental_uris":{"android":"levelo://app?vid=95c77e70-6a0c-4421-9e70-3561b62fd6df","ios":"levelo://app?vid=95c77e70-6a0c-4421-9e70-3561b62fd6df"},"vehicle_type_id":"4","last_reported":1685653551,"current_range_meters":4800,"station_id":"","pricing_plan_id":"free"},{"bike_id":"aacdfffe-1c0e-4ddd-9387-9007e5fbf370","system_id":"levelo_inurba_marseille","lat":43.311722,"lon":5.387247,"is_reserved":false,"is_disabled":false,"rental_uris":{"android":"levelo://app?vid=aacdfffe-1c0e-4ddd-9387-9007e5fbf370","ios":"levelo://app?vid=aacdfffe-1c0e-4ddd-9387-9007e5fbf370"},"vehicle_type_id":"4","last_reported":1685653551,"current_range_meters":20800,"station_id":"ce4bgv12rcd13ifvqcp0","pricing_plan_id":"free"},{"bike_id":"f41d03f7-7536-441c-8c02-c38f1ba6d868","system_id":"levelo_inurba_marseille","lat":43.297794,"lon":5.370888,"is_reserved":false,"is_disabled":false,"rental_uris":{"android":"levelo://app?vid=f41d03f7-7536-441c-8c02-c38f1ba6d868","ios":"levelo://app?vid=f41d03f7-7536-441c-8c02-c38f1ba6d868"},"vehicle_type_id":"4","last_reported":1685653551,"current_range_meters":5200,"station_id":"ce4bgop2rcd13ifvqc1g","pricing_plan_id":"free"},{"bike_id":"0b0d3d39-ad77-4452-a1cc-60bfdf58c9d3","system_id":"levelo_inurba_marseille","lat":43.328371,"lon":5.366909,"is_reserved":false,"is_disabled":false,"rental_uris":{"android":"levelo://app?vid=0b0d3d39-ad77-4452-a1cc-60bfdf58c9d3","ios":"levelo://app?vid=0b0d3d39-ad77-4452-a1cc-60bfdf58c9d3"},"vehicle_type_id":"4","last_reported":1685653551,"current_range_meters":24400,"station_id":"ce4bhs92rcd13ifvqi0g","pricing_plan_id":"free"},{"bike_id":"7de22db2-3ad1-4d39-9f99-94cd81d8cdc9","system_id":"levelo_inurba_marseille","lat":43.29712,"lon":5.36609,"is_reserved":false,"is_disabled":false,"rental_uris":{"android":"levelo://app?vid=7de22db2-3ad1-4d39-9f99-94cd81d8cdc9","ios":"levelo://app?vid=7de22db2-3ad1-4d39-9f99-94cd81d8cdc9"},"vehicle_type_id":"4","last_reported":1685653551,"current_range_meters":9600,"station_id":"","pricing_plan_id":"free"},{"bike_id":"20727c43-7945-4fbb-b222-45e2d3f0f712","system_id":"levelo_inurba_marseille","lat":43.29705,"lon":5.36603,"is_reserved":false,"is_disabled":false,"rental_uris":{"android":"levelo://app?vid=20727c43-7945-4fbb-b222-45e2d3f0f712","ios":"levelo://app?vid=20727c43-7945-4fbb-b222-45e2d3f0f712"},"vehicle_type_id":"4","last_reported":1685653551,"current_range_meters":8400,"station_id":"","pricing_plan_id":"free"},{"bike_id":"75cf1b12-2163-4309-af95-baa455936443","system_id":"levelo_inurba_marseille","lat":43.311722,"lon":5.387247,"is_reserved":false,"is_disabled":false,"rental_uris":{"android":"levelo://app?vid=75cf1b12-2163-4309-af95-baa455936443","ios":"levelo://app?vid=75cf1b12-2163-4309-af95-baa455936443"},"vehicle_type_id":"4","last_reported":1685653551,"current_range_meters":3600,"station_id":"ce4bgv12rcd13ifvqcp0","pricing_plan_id":"free"},{"bike_id":"af53ce63-2b1e-469a-8527-61102309cc20","system_id":"levelo_inurba_marseille","lat":43.296129,"lon":5.370777,"is_reserved":false,"is_disabled":false,"rental_uris":{"android":"levelo://app?vid=af53ce63-2b1e-469a-8527-61102309cc20","ios":"levelo://app?vid=af53ce63-2b1e-469a-8527-61102309cc20"},"vehicle_type_id":"4","last_reported":1685653551,"current_range_meters":0,"station_id":"ce4bgnh2rcd13ifvqc0g","pricing_plan_id":"free"},{"bike_id":"2bb6427c-5937-494c-88eb-1ad77caad364","system_id":"levelo_inurba_marseille","lat":43.296131,"lon":5.370791,"is_reserved":false,"is_disabled":false,"rental_uris":{"android":"levelo://app?vid=2bb6427c-5937-494c-88eb-1ad77caad364","ios":"levelo://app?vid=2bb6427c-5937-494c-88eb-1ad77caad364"},"vehicle_type_id":"4","last_reported":1685653551,"current_range_meters":28000,"station_id":"ce4bgnh2rcd13ifvqc0g","pricing_plan_id":"free"},{"bike_id":"aae33f28-e158-4983-b9d1-6aee012e221e","system_id":"levelo_inurba_marseille","lat":43.299028,"lon":5.381509,"is_reserved":false,"is_disabled":false,"rental_uris":{"android":"levelo://app?vid=aae33f28-e158-4983-b9d1-6aee012e221e","ios":"levelo://app?vid=aae33f28-e158-4983-b9d1-6aee012e221e"},"vehicle_type_id":"4","last_reported":1685653551,"current_range_meters":20800,"station_id":"ce4bgj12rcd13ifvqbc0","pricing_plan_id":"free"},{"bike_id":"0536261f-64cf-4bf6-898b-4d855127c4a5","system_id":"levelo_inurba_marseille","lat":43.309589,"lon":5.390258,"is_reserved":false,"is_disabled":false,"rental_uris":{"android":"levelo://app?vid=0536261f-64cf-4bf6-898b-4d855127c4a5","ios":"levelo://app?vid=0536261f-64cf-4bf6-898b-4d855127c4a5"},"vehicle_type_id":"4","last_reported":1685653551,"current_range_meters":26400,"station_id":"ce4bgup2rcd13ifvqco0","pricing_plan_id":"free"},{"bike_id":"e4cd92f6-8ed0-4fe1-8024-89201c5c4dda","system_id":"levelo_inurba_marseille","lat":43.317557,"lon":5.390173,"is_reserved":false,"is_disabled":false,"rental_uris":{"android":"levelo://app?vid=e4cd92f6-8ed0-4fe1-8024-89201c5c4dda","ios":"levelo://app?vid=e4cd92f6-8ed0-4fe1-8024-89201c5c4dda"},"vehicle_type_id":"4","last_reported":1685653551,"current_range_meters":22800,"station_id":"ce4bhqp2rcd13ifvqhng","pricing_plan_id":"free"},{"bike_id":"29418387-0b15-4fad-9d82-1fa2fc83ff7b","system_id":"levelo_inurba_marseille","lat":43.317557,"lon":5.390173,"is_reserved":false,"is_disabled":false,"rental_uris":{"android":"levelo://app?vid=29418387-0b15-4fad-9d82-1fa2fc83ff7b","ios":"levelo://app?vid=29418387-0b15-4fad-9d82-1fa2fc83ff7b"},"vehicle_type_id":"4","last_reported":1685653551,"current_range_meters":22000,"station_id":"ce4bhqp2rcd13ifvqhng","pricing_plan_id":"free"},{"bike_id":"e408036a-c0f4-4614-9976-3642fd13c73d","system_id":"levelo_inurba_marseille","lat":43.298037,"lon":5.381066,"is_reserved":false,"is_disabled":false,"rental_uris":{"android":"levelo://app?vid=e408036a-c0f4-4614-9976-3642fd13c73d","ios":"levelo://app?vid=e408036a-c0f4-4614-9976-3642fd13c73d"},"vehicle_type_id":"4","last_reported":1685653551,"current_range_meters":8400,"station_id":"ce4bgip2rcd13ifvqbb0","pricing_plan_id":"free"},{"bike_id":"a3ccb171-8d97-4402-bfd9-4f8218d455ea","system_id":"levelo_inurba_marseille","lat":43.29965,"lon":5.38494,"is_reserved":false,"is_disabled":false,"rental_uris":{"android":"levelo://app?vid=a3ccb171-8d97-4402-bfd9-4f8218d455ea","ios":"levelo://app?vid=a3ccb171-8d97-4402-bfd9-4f8218d455ea"},"vehicle_type_id":"4","last_reported":1685653551,"current_range_meters":29200,"station_id":"ce4bgj92rcd13ifvqbd0","pricing_plan_id":"free"},{"bike_id":"7dfe5321-8d74-41e0-acb2-f10dfddb8dcb","system_id":"levelo_inurba_marseille","lat":43.32367,"lon":5.388836,"is_reserved":false,"is_disabled":false,"rental_uris":{"android":"levelo://app?vid=7dfe5321-8d74-41e0-acb2-f10dfddb8dcb","ios":"levelo://app?vid=7dfe5321-8d74-41e0-acb2-f10dfddb8dcb"},"vehicle_type_id":"4","last_reported":1685653551,"current_range_meters":12000,"station_id":"ce4bhqp2rcd13ifvqhog","pricing_plan_id":"free"},{"bike_id":"639af06e-3134-4c59-9c80-86cff18b9f58","system_id":"levelo_inurba_marseille","lat":43.32367,"lon":5.388836,"is_reserved":false,"is_disabled":false,"rental_uris":{"android":"levelo://app?vid=639af06e-3134-4c59-9c80-86cff18b9f58","ios":"levelo://app?vid=639af06e-3134-4c59-9c80-86cff18b9f58"},"vehicle_type_id":"4","last_reported":1685653551,"current_range_meters":18000,"station_id":"ce4bhqp2rcd13ifvqhog","pricing_plan_id":"free"},{"bike_id":"062fe851-9cfd-4b70-87ad-cda6fe3b3595","system_id":"levelo_inurba_marseille","lat":43.32367,"lon":5.388836,"is_reserved":false,"is_disabled":false,"rental_uris":{"android":"levelo://app?vid=062fe851-9cfd-4b70-87ad-cda6fe3b3595","ios":"levelo://app?vid=062fe851-9cfd-4b70-87ad-cda6fe3b3595"},"vehicle_type_id":"4","last_reported":1685653551,"current_range_meters":15200,"station_id":"ce4bhqp2rcd13ifvqhog","pricing_plan_id":"free"},{"bike_id":"df852c57-a0a9-46cf-97c2-91523cf66fd1","system_id":"levelo_inurba_marseille","lat":43.29305,"lon":5.37127,"is_reserved":false,"is_disabled":false,"rental_uris":{"android":"levelo://app?vid=df852c57-a0a9-46cf-97c2-91523cf66fd1","ios":"levelo://app?vid=df852c57-a0a9-46cf-97c2-91523cf66fd1"},"vehicle_type_id":"4","last_reported":1685653551,"current_range_meters":11200,"station_id":"","pricing_plan_id":"free"},{"bike_id":"c9058939-6568-496f-a69b-ea60d171582b","system_id":"levelo_inurba_marseille","lat":43.29258,"lon":5.37214,"is_reserved":false,"is_disabled":false,"rental_uris":{"android":"levelo://app?vid=c9058939-6568-496f-a69b-ea60d171582b","ios":"levelo://app?vid=c9058939-6568-496f-a69b-ea60d171582b"},"vehicle_type_id":"4","last_reported":1685653551,"current_range_meters":17200,"station_id":"","pricing_plan_id":"free"},{"bike_id":"cf35f392-1feb-4c42-836e-2a5c6ff6cd18","system_id":"levelo_inurba_marseille","lat":43.29219,"lon":5.36061,"is_reserved":false,"is_disabled":false,"rental_uris":{"android":"levelo://app?vid=cf35f392-1feb-4c42-836e-2a5c6ff6cd18","ios":"levelo://app?vid=cf35f392-1feb-4c42-836e-2a5c6ff6cd18"},"vehicle_type_id":"4","last_reported":1685653551,"current_range_meters":28000,"station_id":"ce4bhbh2rcd13ifvqeqg","pricing_plan_id":"free"},{"bike_id":"b1de265e-8fab-4414-95c9-c09c8e7341c1","system_id":"levelo_inurba_marseille","lat":43.291671,"lon":5.371575,"is_reserved":false,"is_disabled":false,"rental_uris":{"android":"levelo://app?vid=b1de265e-8fab-4414-95c9-c09c8e7341c1","ios":"levelo://app?vid=b1de265e-8fab-4414-95c9-c09c8e7341c1"},"vehicle_type_id":"4","last_reported":1685653551,"current_range_meters":4400,"station_id":"ce4bha92rcd13ifvqeh0","pricing_plan_id":"free"},{"bike_id":"2b9c5b33-7b92-4442-bb2b-b3c354d82fbd","system_id":"levelo_inurba_marseille","lat":43.289468,"lon":5.363719,"is_reserved":false,"is_disabled":false,"rental_uris":{"android":"levelo://app?vid=2b9c5b33-7b92-4442-bb2b-b3c354d82fbd","ios":"levelo://app?vid=2b9c5b33-7b92-4442-bb2b-b3c354d82fbd"},"vehicle_type_id":"4","last_reported":1685653551,"current_range_meters":7200,"station_id":"ce4bhc92rcd13ifvqetg","pricing_plan_id":"free"},{"bike_id":"5a660338-3281-43aa-affc-986af7b1f5e7","system_id":"levelo_inurba_marseille","lat":43.31915,"lon":5.39543,"is_reserved":false,"is_disabled":false,"rental_uris":{"android":"levelo://app?vid=5a660338-3281-43aa-affc-986af7b1f5e7","ios":"levelo://app?vid=5a660338-3281-43aa-affc-986af7b1f5e7"},"vehicle_type_id":"4","last_reported":1685653551,"current_range_meters":6400,"station_id":"","pricing_plan_id":"free"},{"bike_id":"9253cc9e-ade2-4c54-a2f2-8c3e0262d8bd","system_id":"levelo_inurba_marseille","lat":43.309038,"lon":5.396546,"is_reserved":false,"is_disabled":false,"rental_uris":{"android":"levelo://app?vid=9253cc9e-ade2-4c54-a2f2-8c3e0262d8bd","ios":"levelo://app?vid=9253cc9e-ade2-4c54-a2f2-8c3e0262d8bd"},"vehicle_type_id":"4","last_reported":1685653551,"current_range_meters":6400,"station_id":"ce4bh012rcd13ifvqcv0","pricing_plan_id":"free"},{"bike_id":"168be0c8-f75b-4c5c-8dc3-70c6c785c00e","system_id":"levelo_inurba_marseille","lat":43.3133,"lon":5.39686,"is_reserved":false,"is_disabled":false,"rental_uris":{"android":"levelo://app?vid=168be0c8-f75b-4c5c-8dc3-70c6c785c00e","ios":"levelo://app?vid=168be0c8-f75b-4c5c-8dc3-70c6c785c00e"},"vehicle_type_id":"4","last_reported":1685653551,"current_range_meters":15600,"station_id":"ce4bgvp2rcd13ifvqcu0","pricing_plan_id":"free"},{"bike_id":"37713633-0c35-4f86-af32-61b58117d3c3","system_id":"levelo_inurba_marseille","lat":43.31332,"lon":5.39687,"is_reserved":false,"is_disabled":false,"rental_uris":{"android":"levelo://app?vid=37713633-0c35-4f86-af32-61b58117d3c3","ios":"levelo://app?vid=37713633-0c35-4f86-af32-61b58117d3c3"},"vehicle_type_id":"4","last_reported":1685653551,"current_range_meters":0,"station_id":"ce4bgvp2rcd13ifvqcu0","pricing_plan_id":"free"},{"bike_id":"03338762-a10b-4c66-89e9-561ca0754571","system_id":"levelo_inurba_marseille","lat":43.291994,"lon":5.357886,"is_reserved":false,"is_disabled":false,"rental_uris":{"android":"levelo://app?vid=03338762-a10b-4c66-89e9-561ca0754571","ios":"levelo://app?vid=03338762-a10b-4c66-89e9-561ca0754571"},"vehicle_type_id":"4","last_reported":1685653551,"current_range_meters":16800,"station_id":"ce4bhb12rcd13ifvqel0","pricing_plan_id":"free"},{"bike_id":"a3864dec-bfae-4729-8513-6a0df424dd84","system_id":"levelo_inurba_marseille","lat":43.31325,"lon":5.39689,"is_reserved":false,"is_disabled":false,"rental_uris":{"android":"levelo://app?vid=a3864dec-bfae-4729-8513-6a0df424dd84","ios":"levelo://app?vid=a3864dec-bfae-4729-8513-6a0df424dd84"},"vehicle_type_id":"4","last_reported":1685653551,"current_range_meters":10000,"station_id":"ce4bgvp2rcd13ifvqcu0","pricing_plan_id":"free"},{"bike_id":"b494c893-d64f-4688-bedb-993319463e5f","system_id":"levelo_inurba_marseille","lat":43.31327,"lon":5.3969,"is_reserved":false,"is_disabled":false,"rental_uris":{"android":"levelo://app?vid=b494c893-d64f-4688-bedb-993319463e5f","ios":"levelo://app?vid=b494c893-d64f-4688-bedb-993319463e5f"},"vehicle_type_id":"4","last_reported":1685653551,"current_range_meters":3600,"station_id":"ce4bgvp2rcd13ifvqcu0","pricing_plan_id":"free"},{"bike_id":"54c35c09-8117-48de-a2cb-b1bab30ec19e","system_id":"levelo_inurba_marseille","lat":43.31333,"lon":5.39692,"is_reserved":false,"is_disabled":false,"rental_uris":{"android":"levelo://app?vid=54c35c09-8117-48de-a2cb-b1bab30ec19e","ios":"levelo://app?vid=54c35c09-8117-48de-a2cb-b1bab30ec19e"},"vehicle_type_id":"4","last_reported":1685653551,"current_range_meters":6800,"station_id":"ce4bgvp2rcd13ifvqcu0","pricing_plan_id":"free"},{"bike_id":"869ca85c-098e-499b-8978-4b1e0ef991e1","system_id":"levelo_inurba_marseille","lat":43.31328,"lon":5.39696,"is_reserved":false,"is_disabled":false,"rental_uris":{"android":"levelo://app?vid=869ca85c-098e-499b-8978-4b1e0ef991e1","ios":"levelo://app?vid=869ca85c-098e-499b-8978-4b1e0ef991e1"},"vehicle_type_id":"4","last_reported":1685653551,"current_range_meters":9200,"station_id":"ce4bgvp2rcd13ifvqcu0","pricing_plan_id":"free"},{"bike_id":"465a2b15-e875-473a-b0a1-300e34872236","system_id":"levelo_inurba_marseille","lat":43.31331,"lon":5.39696,"is_reserved":false,"is_disabled":false,"rental_uris":{"android":"levelo://app?vid=465a2b15-e875-473a-b0a1-300e34872236","ios":"levelo://app?vid=465a2b15-e875-473a-b0a1-300e34872236"},"vehicle_type_id":"4","last_reported":1685653551,"current_range_meters":2400,"station_id":"ce4bgvp2rcd13ifvqcu0","pricing_plan_id":"free"},{"bike_id":"309cb383-a097-4253-9f0c-54b9b69aac17","system_id":"levelo_inurba_marseille","lat":43.309038,"lon":5.396546,"is_reserved":false,"is_disabled":false,"rental_uris":{"android":"levelo://app?vid=309cb383-a097-4253-9f0c-54b9b69aac17","ios":"levelo://app?vid=309cb383-a097-4253-9f0c-54b9b69aac17"},"vehicle_type_id":"4","last_reported":1685653551,"current_range_meters":2000,"station_id":"ce4bh012rcd13ifvqcv0","pricing_plan_id":"free"},{"bike_id":"549eaa6f-6884-49f8-8ea5-615ff734a623","system_id":"levelo_inurba_marseille","lat":43.309038,"lon":5.396546,"is_reserved":false,"is_disabled":false,"rental_uris":{"android":"levelo://app?vid=549eaa6f-6884-49f8-8ea5-615ff734a623","ios":"levelo://app?vid=549eaa6f-6884-49f8-8ea5-615ff734a623"},"vehicle_type_id":"4","last_reported":1685653551,"current_range_meters":22000,"station_id":"ce4bh012rcd13ifvqcv0","pricing_plan_id":"free"},{"bike_id":"aeebcbd8-45ed-4225-821c-078a0486d9e6","system_id":"levelo_inurba_marseille","lat":43.309038,"lon":5.396546,"is_reserved":false,"is_disabled":false,"rental_uris":{"android":"levelo://app?vid=aeebcbd8-45ed-4225-821c-078a0486d9e6","ios":"levelo://app?vid=aeebcbd8-45ed-4225-821c-078a0486d9e6"},"vehicle_type_id":"4","last_reported":1685653551,"current_range_meters":6000,"station_id":"ce4bh012rcd13ifvqcv0","pricing_plan_id":"free"},{"bike_id":"a749d1af-c861-4451-b5d7-b83d605185f3","system_id":"levelo_inurba_marseille","lat":43.29536,"lon":5.38535,"is_reserved":false,"is_disabled":false,"rental_uris":{"android":"levelo://app?vid=a749d1af-c861-4451-b5d7-b83d605185f3","ios":"levelo://app?vid=a749d1af-c861-4451-b5d7-b83d605185f3"},"vehicle_type_id":"4","last_reported":1685653551,"current_range_meters":20000,"station_id":"ce4bgih2rcd13ifvqba0","pricing_plan_id":"free"},{"bike_id":"10928350-bd5a-4566-a968-57350a4e8837","system_id":"levelo_inurba_marseille","lat":43.29529,"lon":5.385581,"is_reserved":false,"is_disabled":false,"rental_uris":{"android":"levelo://app?vid=10928350-bd5a-4566-a968-57350a4e8837","ios":"levelo://app?vid=10928350-bd5a-4566-a968-57350a4e8837"},"vehicle_type_id":"4","last_reported":1685653551,"current_range_meters":19200,"station_id":"ce4bgih2rcd13ifvqba0","pricing_plan_id":"free"},{"bike_id":"7f175447-e2cc-4ec3-8d9a-2269757ee294","system_id":"levelo_inurba_marseille","lat":43.290779,"lon":5.371482,"is_reserved":false,"is_disabled":false,"rental_uris":{"android":"levelo://app?vid=7f175447-e2cc-4ec3-8d9a-2269757ee294","ios":"levelo://app?vid=7f175447-e2cc-4ec3-8d9a-2269757ee294"},"vehicle_type_id":"4","last_reported":1685653551,"current_range_meters":7200,"station_id":"ce4bh5p2rcd13ifvqe4g","pricing_plan_id":"free"},{"bike_id":"a1d588f9-8125-4a8f-9f59-c1cf1bdc5430","system_id":"levelo_inurba_marseille","lat":43.32819,"lon":5.38914,"is_reserved":false,"is_disabled":false,"rental_uris":{"android":"levelo://app?vid=a1d588f9-8125-4a8f-9f59-c1cf1bdc5430","ios":"levelo://app?vid=a1d588f9-8125-4a8f-9f59-c1cf1bdc5430"},"vehicle_type_id":"4","last_reported":1685653551,"current_range_meters":24000,"station_id":"","pricing_plan_id":"free"},{"bike_id":"d70e9ab8-97f3-4f78-918d-39a863de1715","system_id":"levelo_inurba_marseille","lat":43.290779,"lon":5.371482,"is_reserved":false,"is_disabled":false,"rental_uris":{"android":"levelo://app?vid=d70e9ab8-97f3-4f78-918d-39a863de1715","ios":"levelo://app?vid=d70e9ab8-97f3-4f78-918d-39a863de1715"},"vehicle_type_id":"4","last_reported":1685653551,"current_range_meters":0,"station_id":"ce4bh5p2rcd13ifvqe4g","pricing_plan_id":"free"},{"bike_id":"2a527ff0-c7a1-4af8-80f2-d8151682a5df","system_id":"levelo_inurba_marseille","lat":43.290624,"lon":5.359245,"is_reserved":false,"is_disabled":false,"rental_uris":{"android":"levelo://app?vid=2a527ff0-c7a1-4af8-80f2-d8151682a5df","ios":"levelo://app?vid=2a527ff0-c7a1-4af8-80f2-d8151682a5df"},"vehicle_type_id":"4","last_reported":1685653551,"current_range_meters":16800,"station_id":"ce4bha92rcd13ifvqeg0","pricing_plan_id":"free"},{"bike_id":"f3b3d904-d575-4c11-8faa-702c5171a5e2","system_id":"levelo_inurba_marseille","lat":43.290631,"lon":5.359244,"is_reserved":false,"is_disabled":false,"rental_uris":{"android":"levelo://app?vid=f3b3d904-d575-4c11-8faa-702c5171a5e2","ios":"levelo://app?vid=f3b3d904-d575-4c11-8faa-702c5171a5e2"},"vehicle_type_id":"4","last_reported":1685653551,"current_range_meters":31200,"station_id":"ce4bha92rcd13ifvqeg0","pricing_plan_id":"free"},{"bike_id":"951f0509-cc8a-435a-b3ac-7810940a03b8","system_id":"levelo_inurba_marseille","lat":43.290631,"lon":5.359244,"is_reserved":false,"is_disabled":false,"rental_uris":{"android":"levelo://app?vid=951f0509-cc8a-435a-b3ac-7810940a03b8","ios":"levelo://app?vid=951f0509-cc8a-435a-b3ac-7810940a03b8"},"vehicle_type_id":"4","last_reported":1685653551,"current_range_meters":28000,"station_id":"ce4bha92rcd13ifvqeg0","pricing_plan_id":"free"},{"bike_id":"9b4e0377-b18f-418e-874f-a482611852fb","system_id":"levelo_inurba_marseille","lat":43.294153,"lon":5.386305,"is_reserved":false,"is_disabled":false,"rental_uris":{"android":"levelo://app?vid=9b4e0377-b18f-418e-874f-a482611852fb","ios":"levelo://app?vid=9b4e0377-b18f-418e-874f-a482611852fb"},"vehicle_type_id":"4","last_reported":1685653551,"current_range_meters":24000,"station_id":"ce4bh2h2rcd13ifvqdh0","pricing_plan_id":"free"},{"bike_id":"2a724352-ec85-40ac-b0b7-333d87a19901","system_id":"levelo_inurba_marseille","lat":43.294162,"lon":5.386292,"is_reserved":false,"is_disabled":false,"rental_uris":{"android":"levelo://app?vid=2a724352-ec85-40ac-b0b7-333d87a19901","ios":"levelo://app?vid=2a724352-ec85-40ac-b0b7-333d87a19901"},"vehicle_type_id":"4","last_reported":1685653551,"current_range_meters":9200,"station_id":"ce4bh2h2rcd13ifvqdh0","pricing_plan_id":"free"},{"bike_id":"e6401cd2-2823-4566-9f36-58083c070844","system_id":"levelo_inurba_marseille","lat":43.294162,"lon":5.386292,"is_reserved":false,"is_disabled":false,"rental_uris":{"android":"levelo://app?vid=e6401cd2-2823-4566-9f36-58083c070844","ios":"levelo://app?vid=e6401cd2-2823-4566-9f36-58083c070844"},"vehicle_type_id":"4","last_reported":1685653551,"current_range_meters":27600,"station_id":"ce4bh2h2rcd13ifvqdh0","pricing_plan_id":"free"},{"bike_id":"a2eb2c92-5be4-4cf3-a40b-7847976e2f4d","system_id":"levelo_inurba_marseille","lat":43.290327,"lon":5.375711,"is_reserved":false,"is_disabled":false,"rental_uris":{"android":"levelo://app?vid=a2eb2c92-5be4-4cf3-a40b-7847976e2f4d","ios":"levelo://app?vid=a2eb2c92-5be4-4cf3-a40b-7847976e2f4d"},"vehicle_type_id":"4","last_reported":1685653551,"current_range_meters":22000,"station_id":"ce4bh692rcd13ifvqe90","pricing_plan_id":"free"},{"bike_id":"3c57f287-026f-4f75-ad51-46ee0641928a","system_id":"levelo_inurba_marseille","lat":43.289468,"lon":5.363719,"is_reserved":false,"is_disabled":false,"rental_uris":{"android":"levelo://app?vid=3c57f287-026f-4f75-ad51-46ee0641928a","ios":"levelo://app?vid=3c57f287-026f-4f75-ad51-46ee0641928a"},"vehicle_type_id":"4","last_reported":1685653551,"current_range_meters":9600,"station_id":"ce4bhc92rcd13ifvqetg","pricing_plan_id":"free"},{"bike_id":"c32681b8-ca68-4191-aff7-2d97c1efeea5","system_id":"levelo_inurba_marseille","lat":43.289468,"lon":5.363719,"is_reserved":false,"is_disabled":false,"rental_uris":{"android":"levelo://app?vid=c32681b8-ca68-4191-aff7-2d97c1efeea5","ios":"levelo://app?vid=c32681b8-ca68-4191-aff7-2d97c1efeea5"},"vehicle_type_id":"4","last_reported":1685653551,"current_range_meters":0,"station_id":"ce4bhc92rcd13ifvqetg","pricing_plan_id":"free"},{"bike_id":"c88b8a69-f3f9-4652-b409-2e944f1c5095","system_id":"levelo_inurba_marseille","lat":43.289468,"lon":5.363719,"is_reserved":false,"is_disabled":false,"rental_uris":{"android":"levelo://app?vid=c88b8a69-f3f9-4652-b409-2e944f1c5095","ios":"levelo://app?vid=c88b8a69-f3f9-4652-b409-2e944f1c5095"},"vehicle_type_id":"4","last_reported":1685653551,"current_range_meters":5600,"station_id":"ce4bhc92rcd13ifvqetg","pricing_plan_id":"free"},{"bike_id":"28c97719-0466-4d01-b4fb-73e1983f7773","system_id":"levelo_inurba_marseille","lat":43.292642,"lon":5.384254,"is_reserved":false,"is_disabled":false,"rental_uris":{"android":"levelo://app?vid=28c97719-0466-4d01-b4fb-73e1983f7773","ios":"levelo://app?vid=28c97719-0466-4d01-b4fb-73e1983f7773"},"vehicle_type_id":"4","last_reported":1685653551,"current_range_meters":21600,"station_id":"ce4bh692rcd13ifvqea0","pricing_plan_id":"free"},{"bike_id":"80707550-b084-4d01-a97d-236643145924","system_id":"levelo_inurba_marseille","lat":43.292644,"lon":5.384257,"is_reserved":false,"is_disabled":false,"rental_uris":{"android":"levelo://app?vid=80707550-b084-4d01-a97d-236643145924","ios":"levelo://app?vid=80707550-b084-4d01-a97d-236643145924"},"vehicle_type_id":"4","last_reported":1685653551,"current_range_meters":31200,"station_id":"ce4bh692rcd13ifvqea0","pricing_plan_id":"free"},{"bike_id":"f0ed6d62-2b3d-4685-ad48-b03f1547b2ce","system_id":"levelo_inurba_marseille","lat":43.292644,"lon":5.384257,"is_reserved":false,"is_disabled":false,"rental_uris":{"android":"levelo://app?vid=f0ed6d62-2b3d-4685-ad48-b03f1547b2ce","ios":"levelo://app?vid=f0ed6d62-2b3d-4685-ad48-b03f1547b2ce"},"vehicle_type_id":"4","last_reported":1685653551,"current_range_meters":2000,"station_id":"ce4bh692rcd13ifvqea0","pricing_plan_id":"free"},{"bike_id":"e9ee4d99-550c-4b63-857f-346264c080af","system_id":"levelo_inurba_marseille","lat":43.292644,"lon":5.384257,"is_reserved":false,"is_disabled":false,"rental_uris":{"android":"levelo://app?vid=e9ee4d99-550c-4b63-857f-346264c080af","ios":"levelo://app?vid=e9ee4d99-550c-4b63-857f-346264c080af"},"vehicle_type_id":"4","last_reported":1685653551,"current_range_meters":24000,"station_id":"ce4bh692rcd13ifvqea0","pricing_plan_id":"free"},{"bike_id":"1c0a30af-e138-4c7c-9dfb-19339f914cde","system_id":"levelo_inurba_marseille","lat":43.292644,"lon":5.384257,"is_reserved":false,"is_disabled":false,"rental_uris":{"android":"levelo://app?vid=1c0a30af-e138-4c7c-9dfb-19339f914cde","ios":"levelo://app?vid=1c0a30af-e138-4c7c-9dfb-19339f914cde"},"vehicle_type_id":"4","last_reported":1685653551,"current_range_meters":24800,"station_id":"ce4bh692rcd13ifvqea0","pricing_plan_id":"free"},{"bike_id":"ead7bdc9-66ea-44f5-8b0f-f153f18efb44","system_id":"levelo_inurba_marseille","lat":43.292642,"lon":5.384254,"is_reserved":false,"is_disabled":false,"rental_uris":{"android":"levelo://app?vid=ead7bdc9-66ea-44f5-8b0f-f153f18efb44","ios":"levelo://app?vid=ead7bdc9-66ea-44f5-8b0f-f153f18efb44"},"vehicle_type_id":"4","last_reported":1685653551,"current_range_meters":27600,"station_id":"ce4bh692rcd13ifvqea0","pricing_plan_id":"free"},{"bike_id":"23f89c34-b72c-46d9-88ca-cc3cc66c2925","system_id":"levelo_inurba_marseille","lat":43.292644,"lon":5.384257,"is_reserved":false,"is_disabled":false,"rental_uris":{"android":"levelo://app?vid=23f89c34-b72c-46d9-88ca-cc3cc66c2925","ios":"levelo://app?vid=23f89c34-b72c-46d9-88ca-cc3cc66c2925"},"vehicle_type_id":"4","last_reported":1685653551,"current_range_meters":11600,"station_id":"ce4bh692rcd13ifvqea0","pricing_plan_id":"free"},{"bike_id":"71d6021b-47da-4f43-85e7-627c9cabd0b1","system_id":"levelo_inurba_marseille","lat":43.292642,"lon":5.384254,"is_reserved":false,"is_disabled":false,"rental_uris":{"android":"levelo://app?vid=71d6021b-47da-4f43-85e7-627c9cabd0b1","ios":"levelo://app?vid=71d6021b-47da-4f43-85e7-627c9cabd0b1"},"vehicle_type_id":"4","last_reported":1685653551,"current_range_meters":18800,"station_id":"ce4bh692rcd13ifvqea0","pricing_plan_id":"free"},{"bike_id":"d12f5d70-72bb-4ace-b79e-30402b1b062d","system_id":"levelo_inurba_marseille","lat":43.292642,"lon":5.384254,"is_reserved":false,"is_disabled":false,"rental_uris":{"android":"levelo://app?vid=d12f5d70-72bb-4ace-b79e-30402b1b062d","ios":"levelo://app?vid=d12f5d70-72bb-4ace-b79e-30402b1b062d"},"vehicle_type_id":"4","last_reported":1685653551,"current_range_meters":14400,"station_id":"ce4bh692rcd13ifvqea0","pricing_plan_id":"free"},{"bike_id":"1c2f35fc-b3bf-42fc-9038-fdd66d09fc78","system_id":"levelo_inurba_marseille","lat":43.292644,"lon":5.384257,"is_reserved":false,"is_disabled":false,"rental_uris":{"android":"levelo://app?vid=1c2f35fc-b3bf-42fc-9038-fdd66d09fc78","ios":"levelo://app?vid=1c2f35fc-b3bf-42fc-9038-fdd66d09fc78"},"vehicle_type_id":"4","last_reported":1685653551,"current_range_meters":16800,"station_id":"ce4bh692rcd13ifvqea0","pricing_plan_id":"free"},{"bike_id":"6870a057-8536-4e7c-ba9e-fa5915919250","system_id":"levelo_inurba_marseille","lat":43.304296,"lon":5.397513,"is_reserved":false,"is_disabled":false,"rental_uris":{"android":"levelo://app?vid=6870a057-8536-4e7c-ba9e-fa5915919250","ios":"levelo://app?vid=6870a057-8536-4e7c-ba9e-fa5915919250"},"vehicle_type_id":"4","last_reported":1685653551,"current_range_meters":14000,"station_id":"ce4bh092rcd13ifvqd20","pricing_plan_id":"free"},{"bike_id":"c0f1dc9f-ea67-4467-be3f-2b40a341c6bb","system_id":"levelo_inurba_marseille","lat":43.28856,"lon":5.358371,"is_reserved":false,"is_disabled":false,"rental_uris":{"android":"levelo://app?vid=c0f1dc9f-ea67-4467-be3f-2b40a341c6bb","ios":"levelo://app?vid=c0f1dc9f-ea67-4467-be3f-2b40a341c6bb"},"vehicle_type_id":"4","last_reported":1685653551,"current_range_meters":28000,"station_id":"ce4bhb12rcd13ifvqem0","pricing_plan_id":"free"},{"bike_id":"61ddbd0d-a164-4025-8b88-820fc40f2279","system_id":"levelo_inurba_marseille","lat":43.290995,"lon":5.381361,"is_reserved":false,"is_disabled":false,"rental_uris":{"android":"levelo://app?vid=61ddbd0d-a164-4025-8b88-820fc40f2279","ios":"levelo://app?vid=61ddbd0d-a164-4025-8b88-820fc40f2279"},"vehicle_type_id":"4","last_reported":1685653551,"current_range_meters":400,"station_id":"ce4bh512rcd13ifvqe2g","pricing_plan_id":"free"},{"bike_id":"c5a33613-9f8d-4160-bc3f-7736ca0fd18f","system_id":"levelo_inurba_marseille","lat":43.297814,"lon":5.393513,"is_reserved":false,"is_disabled":false,"rental_uris":{"android":"levelo://app?vid=c5a33613-9f8d-4160-bc3f-7736ca0fd18f","ios":"levelo://app?vid=c5a33613-9f8d-4160-bc3f-7736ca0fd18f"},"vehicle_type_id":"4","last_reported":1685653551,"current_range_meters":16400,"station_id":"chh1huq6cuj3fo74tm60","pricing_plan_id":"free"},{"bike_id":"681b3f56-1123-4f30-a3a1-f95416c60075","system_id":"levelo_inurba_marseille","lat":43.297814,"lon":5.393513,"is_reserved":false,"is_disabled":false,"rental_uris":{"android":"levelo://app?vid=681b3f56-1123-4f30-a3a1-f95416c60075","ios":"levelo://app?vid=681b3f56-1123-4f30-a3a1-f95416c60075"},"vehicle_type_id":"4","last_reported":1685653551,"current_range_meters":2400,"station_id":"chh1huq6cuj3fo74tm60","pricing_plan_id":"free"},{"bike_id":"a74a92f2-9b86-4d26-8200-02781cb351ba","system_id":"levelo_inurba_marseille","lat":43.289832,"lon":5.37828,"is_reserved":false,"is_disabled":false,"rental_uris":{"android":"levelo://app?vid=a74a92f2-9b86-4d26-8200-02781cb351ba","ios":"levelo://app?vid=a74a92f2-9b86-4d26-8200-02781cb351ba"},"vehicle_type_id":"4","last_reported":1685653551,"current_range_meters":26800,"station_id":"ce4bh4p2rcd13ifvqe1g","pricing_plan_id":"free"},{"bike_id":"d67a088c-e420-4666-964f-d84a8d9df4fa","system_id":"levelo_inurba_marseille","lat":43.289741,"lon":5.378306,"is_reserved":false,"is_disabled":false,"rental_uris":{"android":"levelo://app?vid=d67a088c-e420-4666-964f-d84a8d9df4fa","ios":"levelo://app?vid=d67a088c-e420-4666-964f-d84a8d9df4fa"},"vehicle_type_id":"4","last_reported":1685653551,"current_range_meters":13600,"station_id":"ce4bh9p2rcd13ifvqed0","pricing_plan_id":"free"},{"bike_id":"2a158134-a887-404a-bbb0-38b9f4808e94","system_id":"levelo_inurba_marseille","lat":43.2953,"lon":5.39035,"is_reserved":false,"is_disabled":false,"rental_uris":{"android":"levelo://app?vid=2a158134-a887-404a-bbb0-38b9f4808e94","ios":"levelo://app?vid=2a158134-a887-404a-bbb0-38b9f4808e94"},"vehicle_type_id":"4","last_reported":1685653551,"current_range_meters":30000,"station_id":"ce4bh3p2rcd13ifvqdp0","pricing_plan_id":"free"},{"bike_id":"092ba2c9-8de9-4c8a-8c96-cba202d5016b","system_id":"levelo_inurba_marseille","lat":43.297814,"lon":5.393513,"is_reserved":false,"is_disabled":false,"rental_uris":{"android":"levelo://app?vid=092ba2c9-8de9-4c8a-8c96-cba202d5016b","ios":"levelo://app?vid=092ba2c9-8de9-4c8a-8c96-cba202d5016b"},"vehicle_type_id":"4","last_reported":1685653551,"current_range_meters":22800,"station_id":"chh1huq6cuj3fo74tm60","pricing_plan_id":"free"},{"bike_id":"4965375a-3efe-46db-88a8-fda0ee2d9641","system_id":"levelo_inurba_marseille","lat":43.289741,"lon":5.378306,"is_reserved":false,"is_disabled":false,"rental_uris":{"android":"levelo://app?vid=4965375a-3efe-46db-88a8-fda0ee2d9641","ios":"levelo://app?vid=4965375a-3efe-46db-88a8-fda0ee2d9641"},"vehicle_type_id":"4","last_reported":1685653551,"current_range_meters":0,"station_id":"ce4bh9p2rcd13ifvqed0","pricing_plan_id":"free"},{"bike_id":"ef917775-c034-495b-b664-d21157574588","system_id":"levelo_inurba_marseille","lat":43.286039,"lon":5.370679,"is_reserved":false,"is_disabled":false,"rental_uris":{"android":"levelo://app?vid=ef917775-c034-495b-b664-d21157574588","ios":"levelo://app?vid=ef917775-c034-495b-b664-d21157574588"},"vehicle_type_id":"4","last_reported":1685653551,"current_range_meters":3200,"station_id":"ce4bht12rcd13ifvqi60","pricing_plan_id":"free"},{"bike_id":"d8eb4c26-04df-4679-a27b-0a08a70f7666","system_id":"levelo_inurba_marseille","lat":43.295169,"lon":5.390426,"is_reserved":false,"is_disabled":false,"rental_uris":{"android":"levelo://app?vid=d8eb4c26-04df-4679-a27b-0a08a70f7666","ios":"levelo://app?vid=d8eb4c26-04df-4679-a27b-0a08a70f7666"},"vehicle_type_id":"4","last_reported":1685653551,"current_range_meters":12400,"station_id":"ce4bh3p2rcd13ifvqdp0","pricing_plan_id":"free"},{"bike_id":"26a567c5-728e-41b1-b81f-579a62278d28","system_id":"levelo_inurba_marseille","lat":43.295169,"lon":5.390426,"is_reserved":false,"is_disabled":false,"rental_uris":{"android":"levelo://app?vid=26a567c5-728e-41b1-b81f-579a62278d28","ios":"levelo://app?vid=26a567c5-728e-41b1-b81f-579a62278d28"},"vehicle_type_id":"4","last_reported":1685653551,"current_range_meters":26800,"station_id":"ce4bh3p2rcd13ifvqdp0","pricing_plan_id":"free"},{"bike_id":"4ea683fb-bc7a-44c6-822c-14c35e54e7ba","system_id":"levelo_inurba_marseille","lat":43.2901,"lon":5.381269,"is_reserved":false,"is_disabled":false,"rental_uris":{"android":"levelo://app?vid=4ea683fb-bc7a-44c6-822c-14c35e54e7ba","ios":"levelo://app?vid=4ea683fb-bc7a-44c6-822c-14c35e54e7ba"},"vehicle_type_id":"4","last_reported":1685653551,"current_range_meters":18400,"station_id":"ce4bh4p2rcd13ifvqe1g","pricing_plan_id":"free"},{"bike_id":"d724611d-9426-4f29-b841-c15a487f5236","system_id":"levelo_inurba_marseille","lat":43.295169,"lon":5.390426,"is_reserved":false,"is_disabled":false,"rental_uris":{"android":"levelo://app?vid=d724611d-9426-4f29-b841-c15a487f5236","ios":"levelo://app?vid=d724611d-9426-4f29-b841-c15a487f5236"},"vehicle_type_id":"4","last_reported":1685653551,"current_range_meters":23200,"station_id":"ce4bh3p2rcd13ifvqdp0","pricing_plan_id":"free"},{"bike_id":"89d3bf70-12f4-4250-93f9-35791e1ccaf2","system_id":"levelo_inurba_marseille","lat":43.28856,"lon":5.358371,"is_reserved":false,"is_disabled":false,"rental_uris":{"android":"levelo://app?vid=89d3bf70-12f4-4250-93f9-35791e1ccaf2","ios":"levelo://app?vid=89d3bf70-12f4-4250-93f9-35791e1ccaf2"},"vehicle_type_id":"4","last_reported":1685653551,"current_range_meters":28400,"station_id":"ce4bhb12rcd13ifvqem0","pricing_plan_id":"free"},{"bike_id":"a869be3d-19c3-49bb-a89a-d4829d1e3c6f","system_id":"levelo_inurba_marseille","lat":43.28856,"lon":5.358371,"is_reserved":false,"is_disabled":false,"rental_uris":{"android":"levelo://app?vid=a869be3d-19c3-49bb-a89a-d4829d1e3c6f","ios":"levelo://app?vid=a869be3d-19c3-49bb-a89a-d4829d1e3c6f"},"vehicle_type_id":"4","last_reported":1685653551,"current_range_meters":6800,"station_id":"ce4bhb12rcd13ifvqem0","pricing_plan_id":"free"},{"bike_id":"bddf66ef-0c9c-4e5f-8017-a1f0c58cac94","system_id":"levelo_inurba_marseille","lat":43.30929,"lon":5.40139,"is_reserved":false,"is_disabled":false,"rental_uris":{"android":"levelo://app?vid=bddf66ef-0c9c-4e5f-8017-a1f0c58cac94","ios":"levelo://app?vid=bddf66ef-0c9c-4e5f-8017-a1f0c58cac94"},"vehicle_type_id":"4","last_reported":1685653551,"current_range_meters":5200,"station_id":"","pricing_plan_id":"free"},{"bike_id":"be775c46-8b5c-4bf4-9288-70cd617a7d4d","system_id":"levelo_inurba_marseille","lat":43.30929,"lon":5.40141,"is_reserved":false,"is_disabled":false,"rental_uris":{"android":"levelo://app?vid=be775c46-8b5c-4bf4-9288-70cd617a7d4d","ios":"levelo://app?vid=be775c46-8b5c-4bf4-9288-70cd617a7d4d"},"vehicle_type_id":"4","last_reported":1685653551,"current_range_meters":23600,"station_id":"","pricing_plan_id":"free"},{"bike_id":"31ec68a4-cf5c-4267-8be2-a85d66cafd8b","system_id":"levelo_inurba_marseille","lat":43.30642,"lon":5.401031,"is_reserved":false,"is_disabled":false,"rental_uris":{"android":"levelo://app?vid=31ec68a4-cf5c-4267-8be2-a85d66cafd8b","ios":"levelo://app?vid=31ec68a4-cf5c-4267-8be2-a85d66cafd8b"},"vehicle_type_id":"4","last_reported":1685653551,"current_range_meters":6800,"station_id":"ce4bh112rcd13ifvqda0","pricing_plan_id":"free"},{"bike_id":"178c8f48-bd41-4e96-a8d8-8f6b997a2dd2","system_id":"levelo_inurba_marseille","lat":43.298681,"lon":5.397225,"is_reserved":false,"is_disabled":false,"rental_uris":{"android":"levelo://app?vid=178c8f48-bd41-4e96-a8d8-8f6b997a2dd2","ios":"levelo://app?vid=178c8f48-bd41-4e96-a8d8-8f6b997a2dd2"},"vehicle_type_id":"4","last_reported":1685653551,"current_range_meters":23200,"station_id":"ce4bh0h2rcd13ifvqd50","pricing_plan_id":"free"},{"bike_id":"9ef3fcb3-fe90-4f08-a4cc-575b4feac9c9","system_id":"levelo_inurba_marseille","lat":43.30642,"lon":5.401031,"is_reserved":false,"is_disabled":false,"rental_uris":{"android":"levelo://app?vid=9ef3fcb3-fe90-4f08-a4cc-575b4feac9c9","ios":"levelo://app?vid=9ef3fcb3-fe90-4f08-a4cc-575b4feac9c9"},"vehicle_type_id":"4","last_reported":1685653551,"current_range_meters":6000,"station_id":"ce4bh112rcd13ifvqda0","pricing_plan_id":"free"},{"bike_id":"939e91bf-3c54-4e7f-a210-743f2dcf63d9","system_id":"levelo_inurba_marseille","lat":43.30642,"lon":5.401031,"is_reserved":false,"is_disabled":false,"rental_uris":{"android":"levelo://app?vid=939e91bf-3c54-4e7f-a210-743f2dcf63d9","ios":"levelo://app?vid=939e91bf-3c54-4e7f-a210-743f2dcf63d9"},"vehicle_type_id":"4","last_reported":1685653551,"current_range_meters":8800,"station_id":"ce4bh112rcd13ifvqda0","pricing_plan_id":"free"},{"bike_id":"e3f28a17-350d-40bd-b31d-070aa3bb80a1","system_id":"levelo_inurba_marseille","lat":43.30642,"lon":5.401031,"is_reserved":false,"is_disabled":false,"rental_uris":{"android":"levelo://app?vid=e3f28a17-350d-40bd-b31d-070aa3bb80a1","ios":"levelo://app?vid=e3f28a17-350d-40bd-b31d-070aa3bb80a1"},"vehicle_type_id":"4","last_reported":1685653551,"current_range_meters":18400,"station_id":"ce4bh112rcd13ifvqda0","pricing_plan_id":"free"},{"bike_id":"78c64193-55aa-4a64-874b-c89446854849","system_id":"levelo_inurba_marseille","lat":43.30642,"lon":5.401031,"is_reserved":false,"is_disabled":false,"rental_uris":{"android":"levelo://app?vid=78c64193-55aa-4a64-874b-c89446854849","ios":"levelo://app?vid=78c64193-55aa-4a64-874b-c89446854849"},"vehicle_type_id":"4","last_reported":1685653551,"current_range_meters":3200,"station_id":"ce4bh112rcd13ifvqda0","pricing_plan_id":"free"},{"bike_id":"e4e075ed-be92-489f-8a0b-6d8a9b9b1d2e","system_id":"levelo_inurba_marseille","lat":43.28706,"lon":5.37388,"is_reserved":false,"is_disabled":false,"rental_uris":{"android":"levelo://app?vid=e4e075ed-be92-489f-8a0b-6d8a9b9b1d2e","ios":"levelo://app?vid=e4e075ed-be92-489f-8a0b-6d8a9b9b1d2e"},"vehicle_type_id":"4","last_reported":1685653551,"current_range_meters":16000,"station_id":"","pricing_plan_id":"free"},{"bike_id":"1b5b61a4-301c-436e-a009-924c21386426","system_id":"levelo_inurba_marseille","lat":43.286591,"lon":5.363346,"is_reserved":false,"is_disabled":false,"rental_uris":{"android":"levelo://app?vid=1b5b61a4-301c-436e-a009-924c21386426","ios":"levelo://app?vid=1b5b61a4-301c-436e-a009-924c21386426"},"vehicle_type_id":"4","last_reported":1685653551,"current_range_meters":17600,"station_id":"ce4bhah2rcd13ifvqej0","pricing_plan_id":"free"},{"bike_id":"cc3ed620-46a7-4d27-b33c-7884d409f252","system_id":"levelo_inurba_marseille","lat":43.30421,"lon":5.401,"is_reserved":false,"is_disabled":false,"rental_uris":{"android":"levelo://app?vid=cc3ed620-46a7-4d27-b33c-7884d409f252","ios":"levelo://app?vid=cc3ed620-46a7-4d27-b33c-7884d409f252"},"vehicle_type_id":"4","last_reported":1685653551,"current_range_meters":3200,"station_id":"","pricing_plan_id":"free"},{"bike_id":"c4651d45-6ff3-4c5d-b230-480dcd017449","system_id":"levelo_inurba_marseille","lat":43.286591,"lon":5.363346,"is_reserved":false,"is_disabled":false,"rental_uris":{"android":"levelo://app?vid=c4651d45-6ff3-4c5d-b230-480dcd017449","ios":"levelo://app?vid=c4651d45-6ff3-4c5d-b230-480dcd017449"},"vehicle_type_id":"4","last_reported":1685653551,"current_range_meters":24000,"station_id":"ce4bhah2rcd13ifvqej0","pricing_plan_id":"free"},{"bike_id":"ec6f4936-f385-40dd-99a8-ad41d2ceaf3a","system_id":"levelo_inurba_marseille","lat":43.29536,"lon":5.39405,"is_reserved":false,"is_disabled":false,"rental_uris":{"android":"levelo://app?vid=ec6f4936-f385-40dd-99a8-ad41d2ceaf3a","ios":"levelo://app?vid=ec6f4936-f385-40dd-99a8-ad41d2ceaf3a"},"vehicle_type_id":"4","last_reported":1685653551,"current_range_meters":17600,"station_id":"ce4bh292rcd13ifvqdf0","pricing_plan_id":"free"},{"bike_id":"a1d632da-0448-4a8c-bf4d-36ee70342f8e","system_id":"levelo_inurba_marseille","lat":43.29523,"lon":5.39396,"is_reserved":false,"is_disabled":false,"rental_uris":{"android":"levelo://app?vid=a1d632da-0448-4a8c-bf4d-36ee70342f8e","ios":"levelo://app?vid=a1d632da-0448-4a8c-bf4d-36ee70342f8e"},"vehicle_type_id":"4","last_reported":1685653551,"current_range_meters":400,"station_id":"ce4bh292rcd13ifvqdf0","pricing_plan_id":"free"},{"bike_id":"307ae433-0738-4cec-87ad-c8a69bd9fbcf","system_id":"levelo_inurba_marseille","lat":43.2952,"lon":5.39401,"is_reserved":false,"is_disabled":false,"rental_uris":{"android":"levelo://app?vid=307ae433-0738-4cec-87ad-c8a69bd9fbcf","ios":"levelo://app?vid=307ae433-0738-4cec-87ad-c8a69bd9fbcf"},"vehicle_type_id":"4","last_reported":1685653551,"current_range_meters":26800,"station_id":"ce4bh292rcd13ifvqdf0","pricing_plan_id":"free"},{"bike_id":"2ae7ef79-5b39-4007-937b-5c1359f8a2cd","system_id":"levelo_inurba_marseille","lat":43.295194,"lon":5.39397,"is_reserved":false,"is_disabled":false,"rental_uris":{"android":"levelo://app?vid=2ae7ef79-5b39-4007-937b-5c1359f8a2cd","ios":"levelo://app?vid=2ae7ef79-5b39-4007-937b-5c1359f8a2cd"},"vehicle_type_id":"4","last_reported":1685653551,"current_range_meters":22400,"station_id":"ce4bh292rcd13ifvqdf0","pricing_plan_id":"free"},{"bike_id":"f72baa57-cbb1-435b-b7dd-22e4246f4541","system_id":"levelo_inurba_marseille","lat":43.302759,"lon":5.400793,"is_reserved":false,"is_disabled":false,"rental_uris":{"android":"levelo://app?vid=f72baa57-cbb1-435b-b7dd-22e4246f4541","ios":"levelo://app?vid=f72baa57-cbb1-435b-b7dd-22e4246f4541"},"vehicle_type_id":"4","last_reported":1685653551,"current_range_meters":13600,"station_id":"ce4bgvh2rcd13ifvqcs0","pricing_plan_id":"free"},{"bike_id":"1e11bdbd-0350-44b3-bb5b-160439442b95","system_id":"levelo_inurba_marseille","lat":43.295194,"lon":5.39397,"is_reserved":false,"is_disabled":false,"rental_uris":{"android":"levelo://app?vid=1e11bdbd-0350-44b3-bb5b-160439442b95","ios":"levelo://app?vid=1e11bdbd-0350-44b3-bb5b-160439442b95"},"vehicle_type_id":"4","last_reported":1685653551,"current_range_meters":21600,"station_id":"ce4bh292rcd13ifvqdf0","pricing_plan_id":"free"},{"bike_id":"0a497c87-21d4-4086-afe6-910de19d19d2","system_id":"levelo_inurba_marseille","lat":43.290349,"lon":5.386432,"is_reserved":false,"is_disabled":false,"rental_uris":{"android":"levelo://app?vid=0a497c87-21d4-4086-afe6-910de19d19d2","ios":"levelo://app?vid=0a497c87-21d4-4086-afe6-910de19d19d2"},"vehicle_type_id":"4","last_reported":1685653551,"current_range_meters":14000,"station_id":"ce4bh4p2rcd13ifvqe0g","pricing_plan_id":"free"},{"bike_id":"1b9666c9-0a30-476a-965e-2e3b96e77318","system_id":"levelo_inurba_marseille","lat":43.290336,"lon":5.386425,"is_reserved":false,"is_disabled":false,"rental_uris":{"android":"levelo://app?vid=1b9666c9-0a30-476a-965e-2e3b96e77318","ios":"levelo://app?vid=1b9666c9-0a30-476a-965e-2e3b96e77318"},"vehicle_type_id":"4","last_reported":1685653551,"current_range_meters":22800,"station_id":"ce4bh4p2rcd13ifvqe0g","pricing_plan_id":"free"},{"bike_id":"cc2b191d-c886-4600-b843-4750d4a3911e","system_id":"levelo_inurba_marseille","lat":43.290336,"lon":5.386425,"is_reserved":false,"is_disabled":false,"rental_uris":{"android":"levelo://app?vid=cc2b191d-c886-4600-b843-4750d4a3911e","ios":"levelo://app?vid=cc2b191d-c886-4600-b843-4750d4a3911e"},"vehicle_type_id":"4","last_reported":1685653551,"current_range_meters":19600,"station_id":"ce4bh4p2rcd13ifvqe0g","pricing_plan_id":"free"},{"bike_id":"77b1509d-fbce-45ef-929a-57f6151bafc3","system_id":"levelo_inurba_marseille","lat":43.290336,"lon":5.386425,"is_reserved":false,"is_disabled":false,"rental_uris":{"android":"levelo://app?vid=77b1509d-fbce-45ef-929a-57f6151bafc3","ios":"levelo://app?vid=77b1509d-fbce-45ef-929a-57f6151bafc3"},"vehicle_type_id":"4","last_reported":1685653551,"current_range_meters":27600,"station_id":"ce4bh4p2rcd13ifvqe0g","pricing_plan_id":"free"},{"bike_id":"91479459-2415-43d1-8aa3-4879f652dd3c","system_id":"levelo_inurba_marseille","lat":43.286039,"lon":5.370679,"is_reserved":false,"is_disabled":false,"rental_uris":{"android":"levelo://app?vid=91479459-2415-43d1-8aa3-4879f652dd3c","ios":"levelo://app?vid=91479459-2415-43d1-8aa3-4879f652dd3c"},"vehicle_type_id":"4","last_reported":1685653551,"current_range_meters":32000,"station_id":"ce4bht12rcd13ifvqi60","pricing_plan_id":"free"},{"bike_id":"fc7a587c-a07f-404c-b162-abbf09de806a","system_id":"levelo_inurba_marseille","lat":43.286039,"lon":5.370679,"is_reserved":false,"is_disabled":false,"rental_uris":{"android":"levelo://app?vid=fc7a587c-a07f-404c-b162-abbf09de806a","ios":"levelo://app?vid=fc7a587c-a07f-404c-b162-abbf09de806a"},"vehicle_type_id":"4","last_reported":1685653551,"current_range_meters":16400,"station_id":"ce4bht12rcd13ifvqi60","pricing_plan_id":"free"},{"bike_id":"06d1f5b1-ff65-4c43-b05f-c9fe7c2ab203","system_id":"levelo_inurba_marseille","lat":43.287184,"lon":5.37937,"is_reserved":false,"is_disabled":false,"rental_uris":{"android":"levelo://app?vid=06d1f5b1-ff65-4c43-b05f-c9fe7c2ab203","ios":"levelo://app?vid=06d1f5b1-ff65-4c43-b05f-c9fe7c2ab203"},"vehicle_type_id":"4","last_reported":1685653551,"current_range_meters":27600,"station_id":"ce4bh9p2rcd13ifvqec0","pricing_plan_id":"free"},{"bike_id":"badba24e-da08-46b1-a534-ed040c96dc96","system_id":"levelo_inurba_marseille","lat":43.316517,"lon":5.404375,"is_reserved":false,"is_disabled":false,"rental_uris":{"android":"levelo://app?vid=badba24e-da08-46b1-a534-ed040c96dc96","ios":"levelo://app?vid=badba24e-da08-46b1-a534-ed040c96dc96"},"vehicle_type_id":"4","last_reported":1685653551,"current_range_meters":16000,"station_id":"ce4bh012rcd13ifvqd00","pricing_plan_id":"free"},{"bike_id":"9e56aad4-9832-4544-ba8f-2f293461616f","system_id":"levelo_inurba_marseille","lat":43.316517,"lon":5.404375,"is_reserved":false,"is_disabled":false,"rental_uris":{"android":"levelo://app?vid=9e56aad4-9832-4544-ba8f-2f293461616f","ios":"levelo://app?vid=9e56aad4-9832-4544-ba8f-2f293461616f"},"vehicle_type_id":"4","last_reported":1685653551,"current_range_meters":19200,"station_id":"ce4bh012rcd13ifvqd00","pricing_plan_id":"free"},{"bike_id":"eb844d69-274e-4984-88eb-1718c34bf2c4","system_id":"levelo_inurba_marseille","lat":43.291994,"lon":5.392907,"is_reserved":false,"is_disabled":false,"rental_uris":{"android":"levelo://app?vid=eb844d69-274e-4984-88eb-1718c34bf2c4","ios":"levelo://app?vid=eb844d69-274e-4984-88eb-1718c34bf2c4"},"vehicle_type_id":"4","last_reported":1685653551,"current_range_meters":1200,"station_id":"ce4bh192rcd13ifvqdd0","pricing_plan_id":"free"},{"bike_id":"8b631c33-145a-4a7f-ae4e-acb435b25bd0","system_id":"levelo_inurba_marseille","lat":43.291994,"lon":5.392907,"is_reserved":false,"is_disabled":false,"rental_uris":{"android":"levelo://app?vid=8b631c33-145a-4a7f-ae4e-acb435b25bd0","ios":"levelo://app?vid=8b631c33-145a-4a7f-ae4e-acb435b25bd0"},"vehicle_type_id":"4","last_reported":1685653551,"current_range_meters":23600,"station_id":"ce4bh192rcd13ifvqdd0","pricing_plan_id":"free"},{"bike_id":"729ebd8e-ac41-4762-b9ee-333595cfe803","system_id":"levelo_inurba_marseille","lat":43.284534,"lon":5.358662,"is_reserved":false,"is_disabled":false,"rental_uris":{"android":"levelo://app?vid=729ebd8e-ac41-4762-b9ee-333595cfe803","ios":"levelo://app?vid=729ebd8e-ac41-4762-b9ee-333595cfe803"},"vehicle_type_id":"4","last_reported":1685653551,"current_range_meters":0,"station_id":"ce4bhah2rcd13ifvqei0","pricing_plan_id":"free"},{"bike_id":"c19c14ad-8270-41e5-a5a4-73128a78c293","system_id":"levelo_inurba_marseille","lat":43.284534,"lon":5.358662,"is_reserved":false,"is_disabled":false,"rental_uris":{"android":"levelo://app?vid=c19c14ad-8270-41e5-a5a4-73128a78c293","ios":"levelo://app?vid=c19c14ad-8270-41e5-a5a4-73128a78c293"},"vehicle_type_id":"4","last_reported":1685653551,"current_range_meters":14000,"station_id":"ce4bhah2rcd13ifvqei0","pricing_plan_id":"free"},{"bike_id":"9691ca73-f89b-423e-8785-3f1e028e4b0f","system_id":"levelo_inurba_marseille","lat":43.284534,"lon":5.358662,"is_reserved":false,"is_disabled":false,"rental_uris":{"android":"levelo://app?vid=9691ca73-f89b-423e-8785-3f1e028e4b0f","ios":"levelo://app?vid=9691ca73-f89b-423e-8785-3f1e028e4b0f"},"vehicle_type_id":"4","last_reported":1685653551,"current_range_meters":0,"station_id":"ce4bhah2rcd13ifvqei0","pricing_plan_id":"free"},{"bike_id":"398a9799-253b-4553-abf5-89c78ef43890","system_id":"levelo_inurba_marseille","lat":43.28616,"lon":5.35096,"is_reserved":false,"is_disabled":false,"rental_uris":{"android":"levelo://app?vid=398a9799-253b-4553-abf5-89c78ef43890","ios":"levelo://app?vid=398a9799-253b-4553-abf5-89c78ef43890"},"vehicle_type_id":"4","last_reported":1685653551,"current_range_meters":9600,"station_id":"","pricing_plan_id":"free"},{"bike_id":"6a2d1e6f-2217-47c1-8ec1-29bfaa898152","system_id":"levelo_inurba_marseille","lat":43.295713,"lon":5.399639,"is_reserved":false,"is_disabled":false,"rental_uris":{"android":"levelo://app?vid=6a2d1e6f-2217-47c1-8ec1-29bfaa898152","ios":"levelo://app?vid=6a2d1e6f-2217-47c1-8ec1-29bfaa898152"},"vehicle_type_id":"4","last_reported":1685653551,"current_range_meters":22400,"station_id":"ce4bh312rcd13ifvqdj0","pricing_plan_id":"free"},{"bike_id":"8862e023-c530-4eb3-8eca-beed36507a03","system_id":"levelo_inurba_marseille","lat":43.29568,"lon":5.39987,"is_reserved":false,"is_disabled":false,"rental_uris":{"android":"levelo://app?vid=8862e023-c530-4eb3-8eca-beed36507a03","ios":"levelo://app?vid=8862e023-c530-4eb3-8eca-beed36507a03"},"vehicle_type_id":"4","last_reported":1685653551,"current_range_meters":0,"station_id":"ce4bh312rcd13ifvqdj0","pricing_plan_id":"free"},{"bike_id":"2fa6d077-6b3e-4fe7-b5c3-ce178d537ac6","system_id":"levelo_inurba_marseille","lat":43.316517,"lon":5.404375,"is_reserved":false,"is_disabled":false,"rental_uris":{"android":"levelo://app?vid=2fa6d077-6b3e-4fe7-b5c3-ce178d537ac6","ios":"levelo://app?vid=2fa6d077-6b3e-4fe7-b5c3-ce178d537ac6"},"vehicle_type_id":"4","last_reported":1685653551,"current_range_meters":5200,"station_id":"ce4bh012rcd13ifvqd00","pricing_plan_id":"free"},{"bike_id":"b3804271-6b6f-48e6-9f7a-1151186ea9fb","system_id":"levelo_inurba_marseille","lat":43.2955,"lon":5.40034,"is_reserved":false,"is_disabled":false,"rental_uris":{"android":"levelo://app?vid=b3804271-6b6f-48e6-9f7a-1151186ea9fb","ios":"levelo://app?vid=b3804271-6b6f-48e6-9f7a-1151186ea9fb"},"vehicle_type_id":"4","last_reported":1685653551,"current_range_meters":0,"station_id":"","pricing_plan_id":"free"},{"bike_id":"1b9c1d67-85f2-4030-ba01-6f4d6b59c565","system_id":"levelo_inurba_marseille","lat":43.28653,"lon":5.38665,"is_reserved":false,"is_disabled":false,"rental_uris":{"android":"levelo://app?vid=1b9c1d67-85f2-4030-ba01-6f4d6b59c565","ios":"levelo://app?vid=1b9c1d67-85f2-4030-ba01-6f4d6b59c565"},"vehicle_type_id":"4","last_reported":1685653551,"current_range_meters":1600,"station_id":"ce4bh492rcd13ifvqdug","pricing_plan_id":"free"},{"bike_id":"b205e703-9cc6-479d-b47b-dcec15459f4d","system_id":"levelo_inurba_marseille","lat":43.32705,"lon":5.40367,"is_reserved":false,"is_disabled":false,"rental_uris":{"android":"levelo://app?vid=b205e703-9cc6-479d-b47b-dcec15459f4d","ios":"levelo://app?vid=b205e703-9cc6-479d-b47b-dcec15459f4d"},"vehicle_type_id":"4","last_reported":1685653551,"current_range_meters":24400,"station_id":"","pricing_plan_id":"free"},{"bike_id":"ad3b4fc5-d39b-480f-b7a2-35fd52f0f794","system_id":"levelo_inurba_marseille","lat":43.323464,"lon":5.406297,"is_reserved":false,"is_disabled":false,"rental_uris":{"android":"levelo://app?vid=ad3b4fc5-d39b-480f-b7a2-35fd52f0f794","ios":"levelo://app?vid=ad3b4fc5-d39b-480f-b7a2-35fd52f0f794"},"vehicle_type_id":"4","last_reported":1685653551,"current_range_meters":25600,"station_id":"ce4bhq92rcd13ifvqhjg","pricing_plan_id":"free"},{"bike_id":"6b6e6550-a570-4017-8c87-39e899e1fe64","system_id":"levelo_inurba_marseille","lat":43.33729,"lon":5.39192,"is_reserved":false,"is_disabled":false,"rental_uris":{"android":"levelo://app?vid=6b6e6550-a570-4017-8c87-39e899e1fe64","ios":"levelo://app?vid=6b6e6550-a570-4017-8c87-39e899e1fe64"},"vehicle_type_id":"4","last_reported":1685653551,"current_range_meters":3600,"station_id":"","pricing_plan_id":"free"},{"bike_id":"11e24285-9fee-4666-bf30-bbcc6d1fd00b","system_id":"levelo_inurba_marseille","lat":43.32347,"lon":5.40628,"is_reserved":false,"is_disabled":false,"rental_uris":{"android":"levelo://app?vid=11e24285-9fee-4666-bf30-bbcc6d1fd00b","ios":"levelo://app?vid=11e24285-9fee-4666-bf30-bbcc6d1fd00b"},"vehicle_type_id":"4","last_reported":1685653551,"current_range_meters":27600,"station_id":"ce4bhq92rcd13ifvqhjg","pricing_plan_id":"free"},{"bike_id":"9946f159-9261-474a-ae67-4ea3635aeaaf","system_id":"levelo_inurba_marseille","lat":43.288497,"lon":5.393089,"is_reserved":false,"is_disabled":false,"rental_uris":{"android":"levelo://app?vid=9946f159-9261-474a-ae67-4ea3635aeaaf","ios":"levelo://app?vid=9946f159-9261-474a-ae67-4ea3635aeaaf"},"vehicle_type_id":"4","last_reported":1685653551,"current_range_meters":13200,"station_id":"ce4bh2p2rcd13ifvqdi0","pricing_plan_id":"free"},{"bike_id":"ab43bd00-efd7-4749-bcb9-6bdd239cf1c0","system_id":"levelo_inurba_marseille","lat":43.288497,"lon":5.393089,"is_reserved":false,"is_disabled":false,"rental_uris":{"android":"levelo://app?vid=ab43bd00-efd7-4749-bcb9-6bdd239cf1c0","ios":"levelo://app?vid=ab43bd00-efd7-4749-bcb9-6bdd239cf1c0"},"vehicle_type_id":"4","last_reported":1685653551,"current_range_meters":29200,"station_id":"ce4bh2p2rcd13ifvqdi0","pricing_plan_id":"free"},{"bike_id":"2fb3bb8a-0376-4065-aaee-f47b514e1e1e","system_id":"levelo_inurba_marseille","lat":43.283498,"lon":5.380948,"is_reserved":false,"is_disabled":false,"rental_uris":{"android":"levelo://app?vid=2fb3bb8a-0376-4065-aaee-f47b514e1e1e","ios":"levelo://app?vid=2fb3bb8a-0376-4065-aaee-f47b514e1e1e"},"vehicle_type_id":"4","last_reported":1685653551,"current_range_meters":11200,"station_id":"ce4bh412rcd13ifvqdr0","pricing_plan_id":"free"},{"bike_id":"5a033f97-d1a3-42c5-8e1c-f63472b3c334","system_id":"levelo_inurba_marseille","lat":43.284217,"lon":5.349697,"is_reserved":false,"is_disabled":false,"rental_uris":{"android":"levelo://app?vid=5a033f97-d1a3-42c5-8e1c-f63472b3c334","ios":"levelo://app?vid=5a033f97-d1a3-42c5-8e1c-f63472b3c334"},"vehicle_type_id":"4","last_reported":1685653551,"current_range_meters":25600,"station_id":"ce4bhbh2rcd13ifvqepg","pricing_plan_id":"free"},{"bike_id":"cf71f1b1-b3d1-4dd5-a913-5ad31d3c392d","system_id":"levelo_inurba_marseille","lat":43.284219,"lon":5.3497,"is_reserved":false,"is_disabled":false,"rental_uris":{"android":"levelo://app?vid=cf71f1b1-b3d1-4dd5-a913-5ad31d3c392d","ios":"levelo://app?vid=cf71f1b1-b3d1-4dd5-a913-5ad31d3c392d"},"vehicle_type_id":"4","last_reported":1685653551,"current_range_meters":6800,"station_id":"ce4bhbh2rcd13ifvqepg","pricing_plan_id":"free"},{"bike_id":"2d2e4aa8-c68c-40d8-96eb-a651c29879e1","system_id":"levelo_inurba_marseille","lat":43.2842,"lon":5.34987,"is_reserved":false,"is_disabled":false,"rental_uris":{"android":"levelo://app?vid=2d2e4aa8-c68c-40d8-96eb-a651c29879e1","ios":"levelo://app?vid=2d2e4aa8-c68c-40d8-96eb-a651c29879e1"},"vehicle_type_id":"4","last_reported":1685653551,"current_range_meters":30000,"station_id":"ce4bhbh2rcd13ifvqepg","pricing_plan_id":"free"},{"bike_id":"733a7182-88cb-4e72-a838-6d5e64acb37f","system_id":"levelo_inurba_marseille","lat":43.284217,"lon":5.349697,"is_reserved":false,"is_disabled":false,"rental_uris":{"android":"levelo://app?vid=733a7182-88cb-4e72-a838-6d5e64acb37f","ios":"levelo://app?vid=733a7182-88cb-4e72-a838-6d5e64acb37f"},"vehicle_type_id":"4","last_reported":1685653551,"current_range_meters":25600,"station_id":"ce4bhbh2rcd13ifvqepg","pricing_plan_id":"free"},{"bike_id":"3c2eb3ff-5214-4108-b049-06084eae045f","system_id":"levelo_inurba_marseille","lat":43.284218,"lon":5.349744,"is_reserved":false,"is_disabled":false,"rental_uris":{"android":"levelo://app?vid=3c2eb3ff-5214-4108-b049-06084eae045f","ios":"levelo://app?vid=3c2eb3ff-5214-4108-b049-06084eae045f"},"vehicle_type_id":"4","last_reported":1685653551,"current_range_meters":23600,"station_id":"ce4bhbh2rcd13ifvqepg","pricing_plan_id":"free"},{"bike_id":"e62c9ea1-afd4-4702-aedb-7ef67c4b5c71","system_id":"levelo_inurba_marseille","lat":43.292724,"lon":5.401131,"is_reserved":false,"is_disabled":false,"rental_uris":{"android":"levelo://app?vid=e62c9ea1-afd4-4702-aedb-7ef67c4b5c71","ios":"levelo://app?vid=e62c9ea1-afd4-4702-aedb-7ef67c4b5c71"},"vehicle_type_id":"4","last_reported":1685653551,"current_range_meters":20400,"station_id":"ce4bh312rcd13ifvqdk0","pricing_plan_id":"free"},{"bike_id":"a840c439-acf6-4520-8f5b-5a91aea94484","system_id":"levelo_inurba_marseille","lat":43.282754,"lon":5.350519,"is_reserved":false,"is_disabled":false,"rental_uris":{"android":"levelo://app?vid=a840c439-acf6-4520-8f5b-5a91aea94484","ios":"levelo://app?vid=a840c439-acf6-4520-8f5b-5a91aea94484"},"vehicle_type_id":"4","last_reported":1685653551,"current_range_meters":31200,"station_id":"ce4bhbp2rcd13ifvqerg","pricing_plan_id":"free"},{"bike_id":"0c04f975-95fc-469f-9c29-90bf8294b9cf","system_id":"levelo_inurba_marseille","lat":43.282744,"lon":5.350533,"is_reserved":false,"is_disabled":false,"rental_uris":{"android":"levelo://app?vid=0c04f975-95fc-469f-9c29-90bf8294b9cf","ios":"levelo://app?vid=0c04f975-95fc-469f-9c29-90bf8294b9cf"},"vehicle_type_id":"4","last_reported":1685653551,"current_range_meters":21600,"station_id":"ce4bhbp2rcd13ifvqerg","pricing_plan_id":"free"},{"bike_id":"0b795b6d-d075-4b92-abff-41d6068fe33d","system_id":"levelo_inurba_marseille","lat":43.28039,"lon":5.369297,"is_reserved":false,"is_disabled":false,"rental_uris":{"android":"levelo://app?vid=0b795b6d-d075-4b92-abff-41d6068fe33d","ios":"levelo://app?vid=0b795b6d-d075-4b92-abff-41d6068fe33d"},"vehicle_type_id":"4","last_reported":1685653551,"current_range_meters":9600,"station_id":"ce4bha12rcd13ifvqef0","pricing_plan_id":"free"},{"bike_id":"79a6599a-a540-42d4-b494-15b4baa94a32","system_id":"levelo_inurba_marseille","lat":43.280382,"lon":5.369291,"is_reserved":false,"is_disabled":false,"rental_uris":{"android":"levelo://app?vid=79a6599a-a540-42d4-b494-15b4baa94a32","ios":"levelo://app?vid=79a6599a-a540-42d4-b494-15b4baa94a32"},"vehicle_type_id":"4","last_reported":1685653551,"current_range_meters":3200,"station_id":"ce4bha12rcd13ifvqef0","pricing_plan_id":"free"},{"bike_id":"6fdbe50e-dc44-4a02-98d0-3fab4dc2dd80","system_id":"levelo_inurba_marseille","lat":43.28039,"lon":5.369297,"is_reserved":false,"is_disabled":false,"rental_uris":{"android":"levelo://app?vid=6fdbe50e-dc44-4a02-98d0-3fab4dc2dd80","ios":"levelo://app?vid=6fdbe50e-dc44-4a02-98d0-3fab4dc2dd80"},"vehicle_type_id":"4","last_reported":1685653551,"current_range_meters":11200,"station_id":"ce4bha12rcd13ifvqef0","pricing_plan_id":"free"},{"bike_id":"dab1a37c-14c0-4c1c-a543-b587c8481f2b","system_id":"levelo_inurba_marseille","lat":43.280382,"lon":5.369291,"is_reserved":false,"is_disabled":false,"rental_uris":{"android":"levelo://app?vid=dab1a37c-14c0-4c1c-a543-b587c8481f2b","ios":"levelo://app?vid=dab1a37c-14c0-4c1c-a543-b587c8481f2b"},"vehicle_type_id":"4","last_reported":1685653551,"current_range_meters":26800,"station_id":"ce4bha12rcd13ifvqef0","pricing_plan_id":"free"},{"bike_id":"c5e554c4-9473-4e20-9a87-6fc3eb03ba5d","system_id":"levelo_inurba_marseille","lat":43.28039,"lon":5.369297,"is_reserved":false,"is_disabled":false,"rental_uris":{"android":"levelo://app?vid=c5e554c4-9473-4e20-9a87-6fc3eb03ba5d","ios":"levelo://app?vid=c5e554c4-9473-4e20-9a87-6fc3eb03ba5d"},"vehicle_type_id":"4","last_reported":1685653551,"current_range_meters":13600,"station_id":"ce4bha12rcd13ifvqef0","pricing_plan_id":"free"},{"bike_id":"1869b417-76c7-4c84-b40d-64625b4dcf30","system_id":"levelo_inurba_marseille","lat":43.28039,"lon":5.369297,"is_reserved":false,"is_disabled":false,"rental_uris":{"android":"levelo://app?vid=1869b417-76c7-4c84-b40d-64625b4dcf30","ios":"levelo://app?vid=1869b417-76c7-4c84-b40d-64625b4dcf30"},"vehicle_type_id":"4","last_reported":1685653551,"current_range_meters":31600,"station_id":"ce4bha12rcd13ifvqef0","pricing_plan_id":"free"},{"bike_id":"5624a150-1c3a-4259-a725-290d2e7d5b2c","system_id":"levelo_inurba_marseille","lat":43.28039,"lon":5.369297,"is_reserved":false,"is_disabled":false,"rental_uris":{"android":"levelo://app?vid=5624a150-1c3a-4259-a725-290d2e7d5b2c","ios":"levelo://app?vid=5624a150-1c3a-4259-a725-290d2e7d5b2c"},"vehicle_type_id":"4","last_reported":1685653551,"current_range_meters":9600,"station_id":"ce4bha12rcd13ifvqef0","pricing_plan_id":"free"},{"bike_id":"f0f9257e-4280-487e-91e3-63573b4bc2ce","system_id":"levelo_inurba_marseille","lat":43.28039,"lon":5.369297,"is_reserved":false,"is_disabled":false,"rental_uris":{"android":"levelo://app?vid=f0f9257e-4280-487e-91e3-63573b4bc2ce","ios":"levelo://app?vid=f0f9257e-4280-487e-91e3-63573b4bc2ce"},"vehicle_type_id":"4","last_reported":1685653551,"current_range_meters":31600,"station_id":"ce4bha12rcd13ifvqef0","pricing_plan_id":"free"},{"bike_id":"c687c511-a093-4436-bc20-aea7f58c655c","system_id":"levelo_inurba_marseille","lat":43.296263,"lon":5.40601,"is_reserved":false,"is_disabled":false,"rental_uris":{"android":"levelo://app?vid=c687c511-a093-4436-bc20-aea7f58c655c","ios":"levelo://app?vid=c687c511-a093-4436-bc20-aea7f58c655c"},"vehicle_type_id":"4","last_reported":1685653551,"current_range_meters":13200,"station_id":"ce4bh0h2rcd13ifvqd60","pricing_plan_id":"free"},{"bike_id":"cf859b07-f023-4446-a258-8317828b68a5","system_id":"levelo_inurba_marseille","lat":43.296263,"lon":5.40601,"is_reserved":false,"is_disabled":false,"rental_uris":{"android":"levelo://app?vid=cf859b07-f023-4446-a258-8317828b68a5","ios":"levelo://app?vid=cf859b07-f023-4446-a258-8317828b68a5"},"vehicle_type_id":"4","last_reported":1685653551,"current_range_meters":5200,"station_id":"ce4bh0h2rcd13ifvqd60","pricing_plan_id":"free"},{"bike_id":"81d17782-4a68-4e31-b473-b10a611826bf","system_id":"levelo_inurba_marseille","lat":43.281044,"lon":5.378308,"is_reserved":false,"is_disabled":false,"rental_uris":{"android":"levelo://app?vid=81d17782-4a68-4e31-b473-b10a611826bf","ios":"levelo://app?vid=81d17782-4a68-4e31-b473-b10a611826bf"},"vehicle_type_id":"4","last_reported":1685653551,"current_range_meters":22800,"station_id":"ce4bha12rcd13ifvqee0","pricing_plan_id":"free"},{"bike_id":"0cd9ad78-8ffe-4421-8ebf-c6c5799a256f","system_id":"levelo_inurba_marseille","lat":43.284462,"lon":5.392121,"is_reserved":false,"is_disabled":false,"rental_uris":{"android":"levelo://app?vid=0cd9ad78-8ffe-4421-8ebf-c6c5799a256f","ios":"levelo://app?vid=0cd9ad78-8ffe-4421-8ebf-c6c5799a256f"},"vehicle_type_id":"4","last_reported":1685653551,"current_range_meters":8800,"station_id":"ce4bhoh2rcd13ifvqh5g","pricing_plan_id":"free"},{"bike_id":"b80a3c29-2c26-40be-86c1-01242b2138ef","system_id":"levelo_inurba_marseille","lat":43.284462,"lon":5.392121,"is_reserved":false,"is_disabled":false,"rental_uris":{"android":"levelo://app?vid=b80a3c29-2c26-40be-86c1-01242b2138ef","ios":"levelo://app?vid=b80a3c29-2c26-40be-86c1-01242b2138ef"},"vehicle_type_id":"4","last_reported":1685653551,"current_range_meters":14400,"station_id":"ce4bhoh2rcd13ifvqh5g","pricing_plan_id":"free"},{"bike_id":"5af70146-5642-4b4e-b260-93198c437309","system_id":"levelo_inurba_marseille","lat":43.285742,"lon":5.395004,"is_reserved":false,"is_disabled":false,"rental_uris":{"android":"levelo://app?vid=5af70146-5642-4b4e-b260-93198c437309","ios":"levelo://app?vid=5af70146-5642-4b4e-b260-93198c437309"},"vehicle_type_id":"4","last_reported":1685653551,"current_range_meters":10400,"station_id":"ce4bh292rcd13ifvqdg0","pricing_plan_id":"free"},{"bike_id":"f201aaa8-2284-45b1-bfb3-71d06ffaba90","system_id":"levelo_inurba_marseille","lat":43.27899,"lon":5.38013,"is_reserved":false,"is_disabled":false,"rental_uris":{"android":"levelo://app?vid=f201aaa8-2284-45b1-bfb3-71d06ffaba90","ios":"levelo://app?vid=f201aaa8-2284-45b1-bfb3-71d06ffaba90"},"vehicle_type_id":"4","last_reported":1685653551,"current_range_meters":0,"station_id":"","pricing_plan_id":"free"},{"bike_id":"490ae80a-5ddf-42f1-8cf8-b4b6eb31e5e4","system_id":"levelo_inurba_marseille","lat":43.287154,"lon":5.399979,"is_reserved":false,"is_disabled":false,"rental_uris":{"android":"levelo://app?vid=490ae80a-5ddf-42f1-8cf8-b4b6eb31e5e4","ios":"levelo://app?vid=490ae80a-5ddf-42f1-8cf8-b4b6eb31e5e4"},"vehicle_type_id":"4","last_reported":1685653551,"current_range_meters":22400,"station_id":"ce4bho92rcd13ifvqh3g","pricing_plan_id":"free"},{"bike_id":"9d58d211-55df-47e0-a5bc-653ad4aa47c5","system_id":"levelo_inurba_marseille","lat":43.320045,"lon":5.415046,"is_reserved":false,"is_disabled":false,"rental_uris":{"android":"levelo://app?vid=9d58d211-55df-47e0-a5bc-653ad4aa47c5","ios":"levelo://app?vid=9d58d211-55df-47e0-a5bc-653ad4aa47c5"},"vehicle_type_id":"4","last_reported":1685653551,"current_range_meters":6000,"station_id":"ce4bhq92rcd13ifvqhkg","pricing_plan_id":"free"},{"bike_id":"67939e38-d624-485e-8efc-2a80273f51eb","system_id":"levelo_inurba_marseille","lat":43.279742,"lon":5.38744,"is_reserved":false,"is_disabled":false,"rental_uris":{"android":"levelo://app?vid=67939e38-d624-485e-8efc-2a80273f51eb","ios":"levelo://app?vid=67939e38-d624-485e-8efc-2a80273f51eb"},"vehicle_type_id":"4","last_reported":1685653551,"current_range_meters":0,"station_id":"ce4bhg12rcd13ifvqf80","pricing_plan_id":"free"},{"bike_id":"bea13afb-46e2-4c99-a14e-45a1512edc4c","system_id":"levelo_inurba_marseille","lat":43.284462,"lon":5.392121,"is_reserved":false,"is_disabled":false,"rental_uris":{"android":"levelo://app?vid=bea13afb-46e2-4c99-a14e-45a1512edc4c","ios":"levelo://app?vid=bea13afb-46e2-4c99-a14e-45a1512edc4c"},"vehicle_type_id":"4","last_reported":1685653551,"current_range_meters":6800,"station_id":"ce4bhoh2rcd13ifvqh5g","pricing_plan_id":"free"},{"bike_id":"619c419a-4d42-4777-aa83-7bf05ce5d723","system_id":"levelo_inurba_marseille","lat":43.292569,"lon":5.409107,"is_reserved":false,"is_disabled":false,"rental_uris":{"android":"levelo://app?vid=619c419a-4d42-4777-aa83-7bf05ce5d723","ios":"levelo://app?vid=619c419a-4d42-4777-aa83-7bf05ce5d723"},"vehicle_type_id":"4","last_reported":1685653551,"current_range_meters":15200,"station_id":"ce4bh192rcd13ifvqdc0","pricing_plan_id":"free"},{"bike_id":"38c85f58-152f-4dcb-8a2e-d7b9a556392f","system_id":"levelo_inurba_marseille","lat":43.292571,"lon":5.409107,"is_reserved":false,"is_disabled":false,"rental_uris":{"android":"levelo://app?vid=38c85f58-152f-4dcb-8a2e-d7b9a556392f","ios":"levelo://app?vid=38c85f58-152f-4dcb-8a2e-d7b9a556392f"},"vehicle_type_id":"4","last_reported":1685653551,"current_range_meters":14800,"station_id":"ce4bh192rcd13ifvqdc0","pricing_plan_id":"free"},{"bike_id":"5f2c3917-f893-403e-915a-0347679082b5","system_id":"levelo_inurba_marseille","lat":43.292569,"lon":5.409107,"is_reserved":false,"is_disabled":false,"rental_uris":{"android":"levelo://app?vid=5f2c3917-f893-403e-915a-0347679082b5","ios":"levelo://app?vid=5f2c3917-f893-403e-915a-0347679082b5"},"vehicle_type_id":"4","last_reported":1685653551,"current_range_meters":21200,"station_id":"ce4bh192rcd13ifvqdc0","pricing_plan_id":"free"},{"bike_id":"64a04445-9070-49d3-b533-416db62729f7","system_id":"levelo_inurba_marseille","lat":43.27622,"lon":5.36115,"is_reserved":false,"is_disabled":false,"rental_uris":{"android":"levelo://app?vid=64a04445-9070-49d3-b533-416db62729f7","ios":"levelo://app?vid=64a04445-9070-49d3-b533-416db62729f7"},"vehicle_type_id":"4","last_reported":1685653551,"current_range_meters":18800,"station_id":"ce4bgj92rcd13ifvqbe0","pricing_plan_id":"free"},{"bike_id":"8982aa94-e983-45c3-b672-35ed1b9b2713","system_id":"levelo_inurba_marseille","lat":43.276179,"lon":5.361009,"is_reserved":false,"is_disabled":false,"rental_uris":{"android":"levelo://app?vid=8982aa94-e983-45c3-b672-35ed1b9b2713","ios":"levelo://app?vid=8982aa94-e983-45c3-b672-35ed1b9b2713"},"vehicle_type_id":"4","last_reported":1685653551,"current_range_meters":18800,"station_id":"ce4bgj92rcd13ifvqbe0","pricing_plan_id":"free"},{"bike_id":"5ff57a70-624d-4ca0-af36-39aaa9c3c5b0","system_id":"levelo_inurba_marseille","lat":43.27617,"lon":5.36114,"is_reserved":false,"is_disabled":false,"rental_uris":{"android":"levelo://app?vid=5ff57a70-624d-4ca0-af36-39aaa9c3c5b0","ios":"levelo://app?vid=5ff57a70-624d-4ca0-af36-39aaa9c3c5b0"},"vehicle_type_id":"4","last_reported":1685653551,"current_range_meters":2400,"station_id":"ce4bgj92rcd13ifvqbe0","pricing_plan_id":"free"},{"bike_id":"32fbd8b1-c421-44d2-9ba2-afff43c61df7","system_id":"levelo_inurba_marseille","lat":43.325243,"lon":5.414326,"is_reserved":false,"is_disabled":false,"rental_uris":{"android":"levelo://app?vid=32fbd8b1-c421-44d2-9ba2-afff43c61df7","ios":"levelo://app?vid=32fbd8b1-c421-44d2-9ba2-afff43c61df7"},"vehicle_type_id":"4","last_reported":1685653551,"current_range_meters":15600,"station_id":"ce4bhq12rcd13ifvqhhg","pricing_plan_id":"free"},{"bike_id":"a3a133a6-ae98-4b08-855e-fad1e41dfc17","system_id":"levelo_inurba_marseille","lat":43.2761,"lon":5.36108,"is_reserved":false,"is_disabled":false,"rental_uris":{"android":"levelo://app?vid=a3a133a6-ae98-4b08-855e-fad1e41dfc17","ios":"levelo://app?vid=a3a133a6-ae98-4b08-855e-fad1e41dfc17"},"vehicle_type_id":"4","last_reported":1685653551,"current_range_meters":21200,"station_id":"ce4bgj92rcd13ifvqbe0","pricing_plan_id":"free"},{"bike_id":"7fb27749-1b6b-4f92-a727-8dfc4d8ee5e6","system_id":"levelo_inurba_marseille","lat":43.278399,"lon":5.392139,"is_reserved":false,"is_disabled":false,"rental_uris":{"android":"levelo://app?vid=7fb27749-1b6b-4f92-a727-8dfc4d8ee5e6","ios":"levelo://app?vid=7fb27749-1b6b-4f92-a727-8dfc4d8ee5e6"},"vehicle_type_id":"4","last_reported":1685653551,"current_range_meters":30400,"station_id":"ce4bhjp2rcd13ifvqga0","pricing_plan_id":"free"},{"bike_id":"cea323e7-227d-422a-a684-aa9827c13417","system_id":"levelo_inurba_marseille","lat":43.278399,"lon":5.392139,"is_reserved":false,"is_disabled":false,"rental_uris":{"android":"levelo://app?vid=cea323e7-227d-422a-a684-aa9827c13417","ios":"levelo://app?vid=cea323e7-227d-422a-a684-aa9827c13417"},"vehicle_type_id":"4","last_reported":1685653551,"current_range_meters":0,"station_id":"ce4bhjp2rcd13ifvqga0","pricing_plan_id":"free"},{"bike_id":"5ba957c0-3735-40bd-96ad-a1809bb8a1a7","system_id":"levelo_inurba_marseille","lat":43.27837,"lon":5.39218,"is_reserved":false,"is_disabled":false,"rental_uris":{"android":"levelo://app?vid=5ba957c0-3735-40bd-96ad-a1809bb8a1a7","ios":"levelo://app?vid=5ba957c0-3735-40bd-96ad-a1809bb8a1a7"},"vehicle_type_id":"4","last_reported":1685653551,"current_range_meters":14000,"station_id":"ce4bhjp2rcd13ifvqga0","pricing_plan_id":"free"},{"bike_id":"4d405399-4dd0-4392-b2f4-01e1b281d696","system_id":"levelo_inurba_marseille","lat":43.278399,"lon":5.392139,"is_reserved":false,"is_disabled":false,"rental_uris":{"android":"levelo://app?vid=4d405399-4dd0-4392-b2f4-01e1b281d696","ios":"levelo://app?vid=4d405399-4dd0-4392-b2f4-01e1b281d696"},"vehicle_type_id":"4","last_reported":1685653551,"current_range_meters":22000,"station_id":"ce4bhjp2rcd13ifvqga0","pricing_plan_id":"free"},{"bike_id":"11681796-f35b-4a13-bc8c-58f2672b04bb","system_id":"levelo_inurba_marseille","lat":43.278401,"lon":5.392152,"is_reserved":false,"is_disabled":false,"rental_uris":{"android":"levelo://app?vid=11681796-f35b-4a13-bc8c-58f2672b04bb","ios":"levelo://app?vid=11681796-f35b-4a13-bc8c-58f2672b04bb"},"vehicle_type_id":"4","last_reported":1685653551,"current_range_meters":32000,"station_id":"ce4bhjp2rcd13ifvqga0","pricing_plan_id":"free"},{"bike_id":"15fb19df-8e8a-40cc-a605-0c0f3ea83f75","system_id":"levelo_inurba_marseille","lat":43.27961,"lon":5.39536,"is_reserved":false,"is_disabled":false,"rental_uris":{"android":"levelo://app?vid=15fb19df-8e8a-40cc-a605-0c0f3ea83f75","ios":"levelo://app?vid=15fb19df-8e8a-40cc-a605-0c0f3ea83f75"},"vehicle_type_id":"4","last_reported":1685653551,"current_range_meters":10400,"station_id":"ce4bgj12rcd13ifvqbc0","pricing_plan_id":"free"},{"bike_id":"5bf4d281-b30a-4430-93cf-89889e473ce6","system_id":"levelo_inurba_marseille","lat":43.33612,"lon":5.410321,"is_reserved":false,"is_disabled":false,"rental_uris":{"android":"levelo://app?vid=5bf4d281-b30a-4430-93cf-89889e473ce6","ios":"levelo://app?vid=5bf4d281-b30a-4430-93cf-89889e473ce6"},"vehicle_type_id":"4","last_reported":1685653551,"current_range_meters":24800,"station_id":"ce4bhqh2rcd13ifvqhmg","pricing_plan_id":"free"},{"bike_id":"82c583c2-189f-4ef2-9455-f2aa6245d502","system_id":"levelo_inurba_marseille","lat":43.33603,"lon":5.41026,"is_reserved":false,"is_disabled":false,"rental_uris":{"android":"levelo://app?vid=82c583c2-189f-4ef2-9455-f2aa6245d502","ios":"levelo://app?vid=82c583c2-189f-4ef2-9455-f2aa6245d502"},"vehicle_type_id":"4","last_reported":1685653551,"current_range_meters":15600,"station_id":"ce4bhqh2rcd13ifvqhmg","pricing_plan_id":"free"},{"bike_id":"43f5e7d1-baec-4dba-8906-2e64be39be36","system_id":"levelo_inurba_marseille","lat":43.33612,"lon":5.410321,"is_reserved":false,"is_disabled":false,"rental_uris":{"android":"levelo://app?vid=43f5e7d1-baec-4dba-8906-2e64be39be36","ios":"levelo://app?vid=43f5e7d1-baec-4dba-8906-2e64be39be36"},"vehicle_type_id":"4","last_reported":1685653551,"current_range_meters":8000,"station_id":"ce4bhqh2rcd13ifvqhmg","pricing_plan_id":"free"},{"bike_id":"f2d327a5-28e7-4da4-90fd-530084b1cda8","system_id":"levelo_inurba_marseille","lat":43.33612,"lon":5.410321,"is_reserved":false,"is_disabled":false,"rental_uris":{"android":"levelo://app?vid=f2d327a5-28e7-4da4-90fd-530084b1cda8","ios":"levelo://app?vid=f2d327a5-28e7-4da4-90fd-530084b1cda8"},"vehicle_type_id":"4","last_reported":1685653551,"current_range_meters":22400,"station_id":"ce4bhqh2rcd13ifvqhmg","pricing_plan_id":"free"},{"bike_id":"000889f6-b764-4903-8cca-c3e8f75bedfa","system_id":"levelo_inurba_marseille","lat":43.276771,"lon":5.388799,"is_reserved":false,"is_disabled":false,"rental_uris":{"android":"levelo://app?vid=000889f6-b764-4903-8cca-c3e8f75bedfa","ios":"levelo://app?vid=000889f6-b764-4903-8cca-c3e8f75bedfa"},"vehicle_type_id":"4","last_reported":1685653551,"current_range_meters":26400,"station_id":"ce4bhi12rcd13ifvqfo0","pricing_plan_id":"free"},{"bike_id":"b95ec563-9311-4532-b1d3-064d3a2c66e5","system_id":"levelo_inurba_marseille","lat":43.317121,"lon":5.423936,"is_reserved":false,"is_disabled":false,"rental_uris":{"android":"levelo://app?vid=b95ec563-9311-4532-b1d3-064d3a2c66e5","ios":"levelo://app?vid=b95ec563-9311-4532-b1d3-064d3a2c66e5"},"vehicle_type_id":"4","last_reported":1685653551,"current_range_meters":22800,"station_id":"ce4bhp92rcd13ifvqhbg","pricing_plan_id":"free"},{"bike_id":"e983f764-91b5-48d2-9b2f-05b897d8f6e7","system_id":"levelo_inurba_marseille","lat":43.317121,"lon":5.423936,"is_reserved":false,"is_disabled":false,"rental_uris":{"android":"levelo://app?vid=e983f764-91b5-48d2-9b2f-05b897d8f6e7","ios":"levelo://app?vid=e983f764-91b5-48d2-9b2f-05b897d8f6e7"},"vehicle_type_id":"4","last_reported":1685653551,"current_range_meters":30000,"station_id":"ce4bhp92rcd13ifvqhbg","pricing_plan_id":"free"},{"bike_id":"99a41045-ee60-42b4-aca0-348ab09a4f25","system_id":"levelo_inurba_marseille","lat":43.317121,"lon":5.423936,"is_reserved":false,"is_disabled":false,"rental_uris":{"android":"levelo://app?vid=99a41045-ee60-42b4-aca0-348ab09a4f25","ios":"levelo://app?vid=99a41045-ee60-42b4-aca0-348ab09a4f25"},"vehicle_type_id":"4","last_reported":1685653551,"current_range_meters":10000,"station_id":"ce4bhp92rcd13ifvqhbg","pricing_plan_id":"free"},{"bike_id":"9925be55-b870-4c67-84e2-b7da7b62efa3","system_id":"levelo_inurba_marseille","lat":43.273129,"lon":5.390725,"is_reserved":false,"is_disabled":false,"rental_uris":{"android":"levelo://app?vid=9925be55-b870-4c67-84e2-b7da7b62efa3","ios":"levelo://app?vid=9925be55-b870-4c67-84e2-b7da7b62efa3"},"vehicle_type_id":"4","last_reported":1685653551,"current_range_meters":14000,"station_id":"ce4bhgp2rcd13ifvqfe0","pricing_plan_id":"free"},{"bike_id":"b7e3519c-aac6-4944-bfb6-cf08cb910e16","system_id":"levelo_inurba_marseille","lat":43.27423,"lon":5.39407,"is_reserved":false,"is_disabled":false,"rental_uris":{"android":"levelo://app?vid=b7e3519c-aac6-4944-bfb6-cf08cb910e16","ios":"levelo://app?vid=b7e3519c-aac6-4944-bfb6-cf08cb910e16"},"vehicle_type_id":"4","last_reported":1685653551,"current_range_meters":2400,"station_id":"","pricing_plan_id":"free"},{"bike_id":"64625cd9-820f-44d7-b6b9-0d71fc1b863f","system_id":"levelo_inurba_marseille","lat":43.304096,"lon":5.425385,"is_reserved":false,"is_disabled":false,"rental_uris":{"android":"levelo://app?vid=64625cd9-820f-44d7-b6b9-0d71fc1b863f","ios":"levelo://app?vid=64625cd9-820f-44d7-b6b9-0d71fc1b863f"},"vehicle_type_id":"4","last_reported":1685653551,"current_range_meters":6400,"station_id":"ce4bhoh2rcd13ifvqh6g","pricing_plan_id":"free"},{"bike_id":"c265a28b-eafb-42e1-867e-a9bcc5c9ea7e","system_id":"levelo_inurba_marseille","lat":43.295523,"lon":5.422926,"is_reserved":false,"is_disabled":false,"rental_uris":{"android":"levelo://app?vid=c265a28b-eafb-42e1-867e-a9bcc5c9ea7e","ios":"levelo://app?vid=c265a28b-eafb-42e1-867e-a9bcc5c9ea7e"},"vehicle_type_id":"4","last_reported":1685653551,"current_range_meters":28000,"station_id":"ce4bhph2rcd13ifvqhdg","pricing_plan_id":"free"},{"bike_id":"c806f8a9-5e05-48a7-a6de-9d3112366edd","system_id":"levelo_inurba_marseille","lat":43.295523,"lon":5.422926,"is_reserved":false,"is_disabled":false,"rental_uris":{"android":"levelo://app?vid=c806f8a9-5e05-48a7-a6de-9d3112366edd","ios":"levelo://app?vid=c806f8a9-5e05-48a7-a6de-9d3112366edd"},"vehicle_type_id":"4","last_reported":1685653551,"current_range_meters":30000,"station_id":"ce4bhph2rcd13ifvqhdg","pricing_plan_id":"free"},{"bike_id":"90a2b37a-cb29-42ec-acf4-4ec28f01172c","system_id":"levelo_inurba_marseille","lat":43.295523,"lon":5.422926,"is_reserved":false,"is_disabled":false,"rental_uris":{"android":"levelo://app?vid=90a2b37a-cb29-42ec-acf4-4ec28f01172c","ios":"levelo://app?vid=90a2b37a-cb29-42ec-acf4-4ec28f01172c"},"vehicle_type_id":"4","last_reported":1685653551,"current_range_meters":12400,"station_id":"ce4bhph2rcd13ifvqhdg","pricing_plan_id":"free"},{"bike_id":"e82122c6-b642-478a-a64a-3adae6c0bd95","system_id":"levelo_inurba_marseille","lat":43.295523,"lon":5.422926,"is_reserved":false,"is_disabled":false,"rental_uris":{"android":"levelo://app?vid=e82122c6-b642-478a-a64a-3adae6c0bd95","ios":"levelo://app?vid=e82122c6-b642-478a-a64a-3adae6c0bd95"},"vehicle_type_id":"4","last_reported":1685653551,"current_range_meters":31200,"station_id":"ce4bhph2rcd13ifvqhdg","pricing_plan_id":"free"},{"bike_id":"ad14d362-7cf7-464e-97d9-12b4e0764fc1","system_id":"levelo_inurba_marseille","lat":43.29494,"lon":5.42264,"is_reserved":false,"is_disabled":false,"rental_uris":{"android":"levelo://app?vid=ad14d362-7cf7-464e-97d9-12b4e0764fc1","ios":"levelo://app?vid=ad14d362-7cf7-464e-97d9-12b4e0764fc1"},"vehicle_type_id":"4","last_reported":1685653551,"current_range_meters":10000,"station_id":"","pricing_plan_id":"free"},{"bike_id":"95856a0d-0f08-4b3c-9d73-172405da53e3","system_id":"levelo_inurba_marseille","lat":43.272124,"lon":5.391768,"is_reserved":false,"is_disabled":false,"rental_uris":{"android":"levelo://app?vid=95856a0d-0f08-4b3c-9d73-172405da53e3","ios":"levelo://app?vid=95856a0d-0f08-4b3c-9d73-172405da53e3"},"vehicle_type_id":"4","last_reported":1685653551,"current_range_meters":25200,"station_id":"ce4bhhp2rcd13ifvqfm0","pricing_plan_id":"free"},{"bike_id":"326b25f6-1231-42b6-be15-91c6d8d27b5a","system_id":"levelo_inurba_marseille","lat":43.272118,"lon":5.391758,"is_reserved":false,"is_disabled":false,"rental_uris":{"android":"levelo://app?vid=326b25f6-1231-42b6-be15-91c6d8d27b5a","ios":"levelo://app?vid=326b25f6-1231-42b6-be15-91c6d8d27b5a"},"vehicle_type_id":"4","last_reported":1685653551,"current_range_meters":6400,"station_id":"ce4bhhp2rcd13ifvqfm0","pricing_plan_id":"free"},{"bike_id":"a419c7b0-9e3f-45c0-b3b0-ee8ef2fb8af9","system_id":"levelo_inurba_marseille","lat":43.272116,"lon":5.391763,"is_reserved":false,"is_disabled":false,"rental_uris":{"android":"levelo://app?vid=a419c7b0-9e3f-45c0-b3b0-ee8ef2fb8af9","ios":"levelo://app?vid=a419c7b0-9e3f-45c0-b3b0-ee8ef2fb8af9"},"vehicle_type_id":"4","last_reported":1685653551,"current_range_meters":16000,"station_id":"ce4bhhp2rcd13ifvqfm0","pricing_plan_id":"free"},{"bike_id":"65c65e9c-bc61-42cd-9cb3-857cedbbe955","system_id":"levelo_inurba_marseille","lat":43.27205,"lon":5.39184,"is_reserved":false,"is_disabled":false,"rental_uris":{"android":"levelo://app?vid=65c65e9c-bc61-42cd-9cb3-857cedbbe955","ios":"levelo://app?vid=65c65e9c-bc61-42cd-9cb3-857cedbbe955"},"vehicle_type_id":"4","last_reported":1685653551,"current_range_meters":22800,"station_id":"ce4bhhp2rcd13ifvqfm0","pricing_plan_id":"free"},