{"last_updated":1745324356,"ttl":60,"version":"2.2","data":{"bikes":[{"bike_id":"cdfeb60c-53d0-4633-b4bb-c32ac36e86ff","system_id":"levelo_inurba_marseille","lat":43.32364,"lon":5.42064,"is_reserved":false,"is_disabled":false,"rental_uris":{"android":"levelo://app?vid=cdfeb60c-53d0-4633-b4bb-c32ac36e86ff","ios":"levelo://app?vid=cdfeb60c-53d0-4633-b4bb-c32ac36e86ff"},"vehicle_type_id":"4","last_reported":1745324356,"current_range_meters":3200,"station_id":"","pricing_plan_id":"cebpf4jnsgd1na2vs0mg"},{"bike_id":"d42da8b3-5312-4608-a60b-fef54c0c16d1","system_id":"levelo_inurba_marseille","lat":43.28074,"lon":5.39662,"is_reserved":false,"is_disabled":false,"rental_uris":{"android":"levelo://app?vid=d42da8b3-5312-4608-a60b-fef54c0c16d1","ios":"levelo://app?vid=d42da8b3-5312-4608-a60b-fef54c0c16d1"},"vehicle_type_id":"4","last_reported":1745324356,"current_range_meters":3200,"station_id":"ce4bho12rcd13ifvqh2g","pricing_plan_id":"cebpf4jnsgd1na2vs0mg"},{"bike_id":"afcf9a1e-0a1b-425e-8676-509c93040b99","system_id":"levelo_inurba_marseille","lat":43.27484,"lon":5.42476,"is_reserved":false,"is_disabled":true,"rental_uris":{"android":"levelo://app?vid=afcf9a1e-0a1b-425e-8676-509c93040b99","ios":"levelo://app?vid=afcf9a1e-0a1b-425e-8676-509c93040b99"},"vehicle_type_id":"4","last_reported":1745324356,"current_range_meters":3200,"station_id":"ce4bhn92rcd13ifvqgrg","pricing_plan_id":"cebpf4jnsgd1na2vs0mg"},{"bike_id":"9cb78838-fa40-49f8-9f8e-bb3eea88e658","system_id":"levelo_inurba_marseille","lat":43.28154,"lon":5.42643,"is_reserved":false,"is_disabled":false,"rental_uris":{"android":"levelo://app?vid=9cb78838-fa40-49f8-9f8e-bb3eea88e658","ios":"levelo://app?vid=9cb78838-fa40-49f8-9f8e-bb3eea88e658"},"vehicle_type_id":"4","last_reported":1745324356,"current_range_meters":3600,"station_id":"ce4bhnh2rcd13ifvqgug","pricing_plan_id":"cebpf4jnsgd1na2vs0mg"},{"bike_id":"6621aba9-34af-42b8-a6bb-29d0168b1c54","system_id":"levelo_inurba_marseille","lat":43.3042,"lon":5.41281,"is_reserved":false,"is_disabled":false,"rental_uris":{"android":"levelo://app?vid=6621aba9-34af-42b8-a6bb-29d0168b1c54","ios":"levelo://app?vid=6621aba9-34af-42b8-a6bb-29d0168b1c54"},"vehicle_type_id":"4","last_reported":1745324356,"current_range_meters":3600,"station_id":"ce4bhop2rcd13ifvqh8g","pricing_plan_id":"cebpf4jnsgd1na2vs0mg"},{"bike_id":"65dbee6d-5871-47b3-956d-dd10c0a7e8be","system_id":"levelo_inurba_marseille","lat":43.28942,"lon":5.39631,"is_reserved":false,"is_disabled":false,"rental_uris":{"android":"levelo://app?vid=65dbee6d-5871-47b3-956d-dd10c0a7e8be","ios":"levelo://app?vid=65dbee6d-5871-47b3-956d-dd10c0a7e8be"},"vehicle_type_id":"4","last_reported":1745324356,"current_range_meters":4000,"station_id":"ce4bh3h2rcd13ifvqdn0","pricing_plan_id":"cebpf4jnsgd1na2vs0mg"},{"bike_id":"14759cd8-6be4-40cd-8d1f-607aca8a9e7c","system_id":"levelo_inurba_marseille","lat":43.29707,"lon":5.36626,"is_reserved":false,"is_disabled":false,"rental_uris":{"android":"levelo://app?vid=14759cd8-6be4-40cd-8d1f-607aca8a9e7c","ios":"levelo://app?vid=14759cd8-6be4-40cd-8d1f-607aca8a9e7c"},"vehicle_type_id":"4","last_reported":1745324356,"current_range_meters":4000,"station_id":"ce4bgn12rcd13ifvqbt0","pricing_plan_id":"cebpf4jnsgd1na2vs0mg"},{"bike_id":"8ebd114f-4827-4dcb-9b9e-895df972f63d","system_id":"levelo_inurba_marseille","lat":43.29276,"lon":5.37449,"is_reserved":false,"is_disabled":false,"rental_uris":{"android":"levelo://app?vid=8ebd114f-4827-4dcb-9b9e-895df972f63d","ios":"levelo://app?vid=8ebd114f-4827-4dcb-9b9e-895df972f63d"},"vehicle_type_id":"4","last_reported":1745324356,"current_range_meters":4000,"station_id":"ce4bgi12rcd13ifvqb70","pricing_plan_id":"cebpf4jnsgd1na2vs0mg"},{"bike_id":"25a64b3d-b020-4b13-9e1c-cb851c5a050e","system_id":"levelo_inurba_marseille","lat":43.29602,"lon":5.38109,"is_reserved":false,"is_disabled":false,"rental_uris":{"android":"levelo://app?vid=25a64b3d-b020-4b13-9e1c-cb851c5a050e","ios":"levelo://app?vid=25a64b3d-b020-4b13-9e1c-cb851c5a050e"},"vehicle_type_id":"4","last_reported":1745324356,"current_range_meters":4000,"station_id":"ce4bgl12rcd13ifvqbo0","pricing_plan_id":"cebpf4jnsgd1na2vs0mg"},{"bike_id":"1c50f2b1-7771-497b-a03b-7b86ec2467f1","system_id":"levelo_inurba_marseille","lat":43.31095,"lon":5.377798,"is_reserved":false,"is_disabled":false,"rental_uris":{"android":"levelo://app?vid=1c50f2b1-7771-497b-a03b-7b86ec2467f1","ios":"levelo://app?vid=1c50f2b1-7771-497b-a03b-7b86ec2467f1"},"vehicle_type_id":"4","last_reported":1745324356,"current_range_meters":4400,"station_id":"","pricing_plan_id":"cebpf4jnsgd1na2vs0mg"},{"bike_id":"b488a510-543e-4959-93ef-246ae2b3d10e","system_id":"levelo_inurba_marseille","lat":43.304296,"lon":5.388943,"is_reserved":false,"is_disabled":false,"rental_uris":{"android":"levelo://app?vid=b488a510-543e-4959-93ef-246ae2b3d10e","ios":"levelo://app?vid=b488a510-543e-4959-93ef-246ae2b3d10e"},"vehicle_type_id":"4","last_reported":1745324356,"current_range_meters":4800,"station_id":"ce4bgh92rcd13ifvqb40","pricing_plan_id":"cebpf4jnsgd1na2vs0mg"},{"bike_id":"08adba7b-eac3-4cfc-9923-2ccf0cc4ffef","system_id":"levelo_inurba_marseille","lat":43.2455,"lon":5.41314,"is_reserved":false,"is_disabled":false,"rental_uris":{"android":"levelo://app?vid=08adba7b-eac3-4cfc-9923-2ccf0cc4ffef","ios":"levelo://app?vid=08adba7b-eac3-4cfc-9923-2ccf0cc4ffef"},"vehicle_type_id":"4","last_reported":1745324356,"current_range_meters":5600,"station_id":"","pricing_plan_id":"cebpf4jnsgd1na2vs0mg"},{"bike_id":"25724e14-14a2-4c65-ad80-c6743a962a25","system_id":"levelo_inurba_marseille","lat":43.294312,"lon":5.386679,"is_reserved":false,"is_disabled":false,"rental_uris":{"android":"levelo://app?vid=25724e14-14a2-4c65-ad80-c6743a962a25","ios":"levelo://app?vid=25724e14-14a2-4c65-ad80-c6743a962a25"},"vehicle_type_id":"4","last_reported":1745324356,"current_range_meters":5600,"station_id":"ce4bh092rcd13ifvqd20","pricing_plan_id":"cebpf4jnsgd1na2vs0mg"},{"bike_id":"9ed3ff81-3b48-4a46-9802-008e96f1630c","system_id":"levelo_inurba_marseille","lat":43.30531,"lon":5.36548,"is_reserved":false,"is_disabled":false,"rental_uris":{"android":"levelo://app?vid=9ed3ff81-3b48-4a46-9802-008e96f1630c","ios":"levelo://app?vid=9ed3ff81-3b48-4a46-9802-008e96f1630c"},"vehicle_type_id":"4","last_reported":1745324356,"current_range_meters":6000,"station_id":"ce4bgs12rcd13ifvqcag","pricing_plan_id":"cebpf4jnsgd1na2vs0mg"},{"bike_id":"2f852e55-13a6-4d23-bf59-dc4c8e974a18","system_id":"levelo_inurba_marseille","lat":43.30148,"lon":5.38085,"is_reserved":false,"is_disabled":false,"rental_uris":{"android":"levelo://app?vid=2f852e55-13a6-4d23-bf59-dc4c8e974a18","ios":"levelo://app?vid=2f852e55-13a6-4d23-bf59-dc4c8e974a18"},"vehicle_type_id":"4","last_reported":1745324356,"current_range_meters":6400,"station_id":"ce4bgjp2rcd13ifvqbh0","pricing_plan_id":"cebpf4jnsgd1na2vs0mg"},{"bike_id":"1ce6e8c2-ed3e-4b66-bda7-38092b3cc27e","system_id":"levelo_inurba_marseille","lat":43.28412,"lon":5.37519,"is_reserved":false,"is_disabled":false,"rental_uris":{"android":"levelo://app?vid=1ce6e8c2-ed3e-4b66-bda7-38092b3cc27e","ios":"levelo://app?vid=1ce6e8c2-ed3e-4b66-bda7-38092b3cc27e"},"vehicle_type_id":"4","last_reported":1745324356,"current_range_meters":6400,"station_id":"ce4bh412rcd13ifvqds0","pricing_plan_id":"cebpf4jnsgd1na2vs0mg"},{"bike_id":"6b52125e-3f68-4058-8a9d-f684b0d13014","system_id":"levelo_inurba_marseille","lat":43.30137,"lon":5.37405,"is_reserved":false,"is_disabled":false,"rental_uris":{"android":"levelo://app?vid=6b52125e-3f68-4058-8a9d-f684b0d13014","ios":"levelo://app?vid=6b52125e-3f68-4058-8a9d-f684b0d13014"},"vehicle_type_id":"4","last_reported":1745324356,"current_range_meters":6400,"station_id":"ce4bgs92rcd13ifvqcc0","pricing_plan_id":"cebpf4jnsgd1na2vs0mg"},{"bike_id":"e65685f8-65d8-4f21-aa29-edd53266b6ee","system_id":"levelo_inurba_marseille","lat":43.30099,"lon":5.39074,"is_reserved":false,"is_disabled":false,"rental_uris":{"android":"levelo://app?vid=e65685f8-65d8-4f21-aa29-edd53266b6ee","ios":"levelo://app?vid=e65685f8-65d8-4f21-aa29-edd53266b6ee"},"vehicle_type_id":"4","last_reported":1745324356,"current_range_meters":6400,"station_id":"ce4bh192rcd13ifvqdb0","pricing_plan_id":"cebpf4jnsgd1na2vs0mg"},{"bike_id":"36bd2fe4-b807-4838-9747-290933a9a932","system_id":"levelo_inurba_marseille","lat":43.23964,"lon":5.36629,"is_reserved":false,"is_disabled":false,"rental_uris":{"android":"levelo://app?vid=36bd2fe4-b807-4838-9747-290933a9a932","ios":"levelo://app?vid=36bd2fe4-b807-4838-9747-290933a9a932"},"vehicle_type_id":"4","last_reported":1745324356,"current_range_meters":6800,"station_id":"ce4bhi12rcd13ifvqfp0","pricing_plan_id":"cebpf4jnsgd1na2vs0mg"},{"bike_id":"68fa5fb9-e517-4fd8-bec4-73e929e189f5","system_id":"levelo_inurba_marseille","lat":43.29623,"lon":5.40592,"is_reserved":false,"is_disabled":false,"rental_uris":{"android":"levelo://app?vid=68fa5fb9-e517-4fd8-bec4-73e929e189f5","ios":"levelo://app?vid=68fa5fb9-e517-4fd8-bec4-73e929e189f5"},"vehicle_type_id":"4","last_reported":1745324356,"current_range_meters":6800,"station_id":"ce4bh0h2rcd13ifvqd60","pricing_plan_id":"cebpf4jnsgd1na2vs0mg"},{"bike_id":"fcc6b14e-79b8-494e-8545-958c3fc5571f","system_id":"levelo_inurba_marseille","lat":43.25119,"lon":5.40332,"is_reserved":false,"is_disabled":false,"rental_uris":{"android":"levelo://app?vid=fcc6b14e-79b8-494e-8545-958c3fc5571f","ios":"levelo://app?vid=fcc6b14e-79b8-494e-8545-958c3fc5571f"},"vehicle_type_id":"4","last_reported":1745324356,"current_range_meters":6800,"station_id":"ce4bhlh2rcd13ifvqgig","pricing_plan_id":"cebpf4jnsgd1na2vs0mg"},{"bike_id":"0f374da6-4c79-48e9-9b11-d4d2448ed2f2","system_id":"levelo_inurba_marseille","lat":43.24072,"lon":5.37761,"is_reserved":false,"is_disabled":false,"rental_uris":{"android":"levelo://app?vid=0f374da6-4c79-48e9-9b11-d4d2448ed2f2","ios":"levelo://app?vid=0f374da6-4c79-48e9-9b11-d4d2448ed2f2"},"vehicle_type_id":"4","last_reported":1745324356,"current_range_meters":6800,"station_id":"ce4bhnp2rcd13ifvqgvg","pricing_plan_id":"cebpf4jnsgd1na2vs0mg"},{"bike_id":"0a144b4a-fc6a-4a53-a602-5298d59f38f0","system_id":"levelo_inurba_marseille","lat":43.32062,"lon":5.41549,"is_reserved":false,"is_disabled":false,"rental_uris":{"android":"levelo://app?vid=0a144b4a-fc6a-4a53-a602-5298d59f38f0","ios":"levelo://app?vid=0a144b4a-fc6a-4a53-a602-5298d59f38f0"},"vehicle_type_id":"4","last_reported":1745324356,"current_range_meters":6800,"station_id":"ce4bhq92rcd13ifvqhkg","pricing_plan_id":"cebpf4jnsgd1na2vs0mg"},{"bike_id":"3fba071c-9742-4b8e-a4b1-7682c7257d41","system_id":"levelo_inurba_marseille","lat":43.31344,"lon":5.36716,"is_reserved":false,"is_disabled":false,"rental_uris":{"android":"levelo://app?vid=3fba071c-9742-4b8e-a4b1-7682c7257d41","ios":"levelo://app?vid=3fba071c-9742-4b8e-a4b1-7682c7257d41"},"vehicle_type_id":"4","last_reported":1745324356,"current_range_meters":7200,"station_id":"ce4bgr92rcd13ifvqc6g","pricing_plan_id":"cebpf4jnsgd1na2vs0mg"},{"bike_id":"e1743966-9138-4d25-b902-9596b7b8672a","system_id":"levelo_inurba_marseille","lat":43.30096,"lon":5.39076,"is_reserved":false,"is_disabled":false,"rental_uris":{"android":"levelo://app?vid=e1743966-9138-4d25-b902-9596b7b8672a","ios":"levelo://app?vid=e1743966-9138-4d25-b902-9596b7b8672a"},"vehicle_type_id":"4","last_reported":1745324356,"current_range_meters":7200,"station_id":"ce4bh192rcd13ifvqdb0","pricing_plan_id":"cebpf4jnsgd1na2vs0mg"},{"bike_id":"74a5b3d6-1083-440b-aa4d-00062bf35f5e","system_id":"levelo_inurba_marseille","lat":43.29923,"lon":5.37467,"is_reserved":false,"is_disabled":false,"rental_uris":{"android":"levelo://app?vid=74a5b3d6-1083-440b-aa4d-00062bf35f5e","ios":"levelo://app?vid=74a5b3d6-1083-440b-aa4d-00062bf35f5e"},"vehicle_type_id":"4","last_reported":1745324356,"current_range_meters":7200,"station_id":"ce4bgjh2rcd13ifvqbg0","pricing_plan_id":"cebpf4jnsgd1na2vs0mg"},{"bike_id":"1ece3f41-ab05-4514-9329-80d3ab9f5a6f","system_id":"levelo_inurba_marseille","lat":43.23152,"lon":5.43707,"is_reserved":false,"is_disabled":false,"rental_uris":{"android":"levelo://app?vid=1ece3f41-ab05-4514-9329-80d3ab9f5a6f","ios":"levelo://app?vid=1ece3f41-ab05-4514-9329-80d3ab9f5a6f"},"vehicle_type_id":"4","last_reported":1745324356,"current_range_meters":7200,"station_id":"ce4bhmp2rcd13ifvqgog","pricing_plan_id":"cebpf4jnsgd1na2vs0mg"},{"bike_id":"bd3c1754-f5f3-4d87-8dc7-96dd2b03d4d2","system_id":"levelo_inurba_marseille","lat":43.33405,"lon":5.40068,"is_reserved":false,"is_disabled":false,"rental_uris":{"android":"levelo://app?vid=bd3c1754-f5f3-4d87-8dc7-96dd2b03d4d2","ios":"levelo://app?vid=bd3c1754-f5f3-4d87-8dc7-96dd2b03d4d2"},"vehicle_type_id":"4","last_reported":1745324356,"current_range_meters":7200,"station_id":"","pricing_plan_id":"cebpf4jnsgd1na2vs0mg"},{"bike_id":"29beceb9-3c9a-4667-985f-f145649b4d55","system_id":"levelo_inurba_marseille","lat":43.24654,"lon":5.38895,"is_reserved":false,"is_disabled":false,"rental_uris":{"android":"levelo://app?vid=29beceb9-3c9a-4667-985f-f145649b4d55","ios":"levelo://app?vid=29beceb9-3c9a-4667-985f-f145649b4d55"},"vehicle_type_id":"4","last_reported":1745324356,"current_range_meters":6800,"station_id":"ce4bhg12rcd13ifvqf60","pricing_plan_id":"cebpf4jnsgd1na2vs0mg"},{"bike_id":"51bb4aa0-d550-423c-ac86-800bae3108f6","system_id":"levelo_inurba_marseille","lat":43.2175,"lon":5.34604,"is_reserved":false,"is_disabled":false,"rental_uris":{"android":"levelo://app?vid=51bb4aa0-d550-423c-ac86-800bae3108f6","ios":"levelo://app?vid=51bb4aa0-d550-423c-ac86-800bae3108f6"},"vehicle_type_id":"4","last_reported":1745324356,"current_range_meters":8000,"station_id":"","pricing_plan_id":"cebpf4jnsgd1na2vs0mg"},{"bike_id":"80349d4c-4a0e-48a3-a927-7fee52468c5c","system_id":"levelo_inurba_marseille","lat":43.32369,"lon":5.36736,"is_reserved":false,"is_disabled":false,"rental_uris":{"android":"levelo://app?vid=80349d4c-4a0e-48a3-a927-7fee52468c5c","ios":"levelo://app?vid=80349d4c-4a0e-48a3-a927-7fee52468c5c"},"vehicle_type_id":"4","last_reported":1745324356,"current_range_meters":8000,"station_id":"ce4bhsh2rcd13ifvqi2g","pricing_plan_id":"cebpf4jnsgd1na2vs0mg"},{"bike_id":"fbc2d1ef-cf25-4d1d-b9b4-8e60f7700db6","system_id":"levelo_inurba_marseille","lat":43.28682,"lon":5.38646,"is_reserved":false,"is_disabled":false,"rental_uris":{"android":"levelo://app?vid=fbc2d1ef-cf25-4d1d-b9b4-8e60f7700db6","ios":"levelo://app?vid=fbc2d1ef-cf25-4d1d-b9b4-8e60f7700db6"},"vehicle_type_id":"4","last_reported":1745324356,"current_range_meters":8000,"station_id":"ce4bh492rcd13ifvqdug","pricing_plan_id":"cebpf4jnsgd1na2vs0mg"},{"bike_id":"22ad8cd8-448d-4f6e-b2fe-740f8d592dd7","system_id":"levelo_inurba_marseille","lat":43.33781,"lon":5.37435,"is_reserved":false,"is_disabled":false,"rental_uris":{"android":"levelo://app?vid=22ad8cd8-448d-4f6e-b2fe-740f8d592dd7","ios":"levelo://app?vid=22ad8cd8-448d-4f6e-b2fe-740f8d592dd7"},"vehicle_type_id":"4","last_reported":1745324356,"current_range_meters":8400,"station_id":"","pricing_plan_id":"cebpf4jnsgd1na2vs0mg"},{"bike_id":"1c755526-7610-4241-9257-348acde561d3","system_id":"levelo_inurba_marseille","lat":43.24858,"lon":5.38204,"is_reserved":false,"is_disabled":false,"rental_uris":{"android":"levelo://app?vid=1c755526-7610-4241-9257-348acde561d3","ios":"levelo://app?vid=1c755526-7610-4241-9257-348acde561d3"},"vehicle_type_id":"4","last_reported":1745324356,"current_range_meters":8400,"station_id":"","pricing_plan_id":"cebpf4jnsgd1na2vs0mg"},{"bike_id":"49a70bb9-d277-4686-b810-afae698caaa7","system_id":"levelo_inurba_marseille","lat":43.2898,"lon":5.37841,"is_reserved":false,"is_disabled":false,"rental_uris":{"android":"levelo://app?vid=49a70bb9-d277-4686-b810-afae698caaa7","ios":"levelo://app?vid=49a70bb9-d277-4686-b810-afae698caaa7"},"vehicle_type_id":"4","last_reported":1745324356,"current_range_meters":8400,"station_id":"ce4bh9p2rcd13ifvqed0","pricing_plan_id":"cebpf4jnsgd1na2vs0mg"},{"bike_id":"4f5ded51-1eaa-475e-ab41-23f8870f8cb1","system_id":"levelo_inurba_marseille","lat":43.299142,"lon":5.381493,"is_reserved":false,"is_disabled":false,"rental_uris":{"android":"levelo://app?vid=4f5ded51-1eaa-475e-ab41-23f8870f8cb1","ios":"levelo://app?vid=4f5ded51-1eaa-475e-ab41-23f8870f8cb1"},"vehicle_type_id":"4","last_reported":1745324356,"current_range_meters":8400,"station_id":"ce4bgj12rcd13ifvqbc0","pricing_plan_id":"cebpf4jnsgd1na2vs0mg"},{"bike_id":"1cabb063-21c4-4355-acc4-c1f2c9f23977","system_id":"levelo_inurba_marseille","lat":43.29514,"lon":5.37518,"is_reserved":false,"is_disabled":false,"rental_uris":{"android":"levelo://app?vid=1cabb063-21c4-4355-acc4-c1f2c9f23977","ios":"levelo://app?vid=1cabb063-21c4-4355-acc4-c1f2c9f23977"},"vehicle_type_id":"4","last_reported":1745324356,"current_range_meters":8400,"station_id":"ce4bgkp2rcd13ifvqbmg","pricing_plan_id":"cebpf4jnsgd1na2vs0mg"},{"bike_id":"e4147707-5426-4f3f-b655-c9b166be32b2","system_id":"levelo_inurba_marseille","lat":43.32051,"lon":5.41574,"is_reserved":false,"is_disabled":false,"rental_uris":{"android":"levelo://app?vid=e4147707-5426-4f3f-b655-c9b166be32b2","ios":"levelo://app?vid=e4147707-5426-4f3f-b655-c9b166be32b2"},"vehicle_type_id":"4","last_reported":1745324356,"current_range_meters":8800,"station_id":"ce4bhq92rcd13ifvqhkg","pricing_plan_id":"cebpf4jnsgd1na2vs0mg"},{"bike_id":"1997f017-1f54-487d-8355-11a4008b8a05","system_id":"levelo_inurba_marseille","lat":43.29902,"lon":5.43674,"is_reserved":false,"is_disabled":false,"rental_uris":{"android":"levelo://app?vid=1997f017-1f54-487d-8355-11a4008b8a05","ios":"levelo://app?vid=1997f017-1f54-487d-8355-11a4008b8a05"},"vehicle_type_id":"4","last_reported":1745324356,"current_range_meters":8400,"station_id":"ce4bhpp2rcd13ifvqhfg","pricing_plan_id":"cebpf4jnsgd1na2vs0mg"},{"bike_id":"19575e9e-3cd0-4fe4-a005-d6c923789dd2","system_id":"levelo_inurba_marseille","lat":43.23145,"lon":5.43708,"is_reserved":false,"is_disabled":false,"rental_uris":{"android":"levelo://app?vid=19575e9e-3cd0-4fe4-a005-d6c923789dd2","ios":"levelo://app?vid=19575e9e-3cd0-4fe4-a005-d6c923789dd2"},"vehicle_type_id":"4","last_reported":1745324356,"current_range_meters":9200,"station_id":"ce4bhmp2rcd13ifvqgog","pricing_plan_id":"cebpf4jnsgd1na2vs0mg"},{"bike_id":"7ec71919-eb1e-4aa1-9b29-5ae167aa25dd","system_id":"levelo_inurba_marseille","lat":43.31387,"lon":5.3672,"is_reserved":false,"is_disabled":false,"rental_uris":{"android":"levelo://app?vid=7ec71919-eb1e-4aa1-9b29-5ae167aa25dd","ios":"levelo://app?vid=7ec71919-eb1e-4aa1-9b29-5ae167aa25dd"},"vehicle_type_id":"4","last_reported":1745324356,"current_range_meters":9200,"station_id":"","pricing_plan_id":"cebpf4jnsgd1na2vs0mg"},{"bike_id":"cb177e2f-9ad1-4b29-9bab-627ac33e9744","system_id":"levelo_inurba_marseille","lat":43.23966,"lon":5.36627,"is_reserved":false,"is_disabled":false,"rental_uris":{"android":"levelo://app?vid=cb177e2f-9ad1-4b29-9bab-627ac33e9744","ios":"levelo://app?vid=cb177e2f-9ad1-4b29-9bab-627ac33e9744"},"vehicle_type_id":"4","last_reported":1745324356,"current_range_meters":9600,"station_id":"ce4bhi12rcd13ifvqfp0","pricing_plan_id":"cebpf4jnsgd1na2vs0mg"},{"bike_id":"fe3ccf40-8d04-4839-8345-e799616f137b","system_id":"levelo_inurba_marseille","lat":43.30588,"lon":5.39344,"is_reserved":false,"is_disabled":false,"rental_uris":{"android":"levelo://app?vid=fe3ccf40-8d04-4839-8345-e799616f137b","ios":"levelo://app?vid=fe3ccf40-8d04-4839-8345-e799616f137b"},"vehicle_type_id":"4","last_reported":1745324356,"current_range_meters":9600,"station_id":"ce4bh0p2rcd13ifvqd80","pricing_plan_id":"cebpf4jnsgd1na2vs0mg"},{"bike_id":"2dc4e79a-33a8-48b0-bf03-f6328f1dc1f6","system_id":"levelo_inurba_marseille","lat":43.32368,"lon":5.3889,"is_reserved":false,"is_disabled":true,"rental_uris":{"android":"levelo://app?vid=2dc4e79a-33a8-48b0-bf03-f6328f1dc1f6","ios":"levelo://app?vid=2dc4e79a-33a8-48b0-bf03-f6328f1dc1f6"},"vehicle_type_id":"4","last_reported":1745324356,"current_range_meters":10000,"station_id":"ce4bhqp2rcd13ifvqhog","pricing_plan_id":"cebpf4jnsgd1na2vs0mg"},{"bike_id":"4047eab8-160f-4c9d-9f2c-425bb4d06f9c","system_id":"levelo_inurba_marseille","lat":43.29037,"lon":5.37562,"is_reserved":false,"is_disabled":false,"rental_uris":{"android":"levelo://app?vid=4047eab8-160f-4c9d-9f2c-425bb4d06f9c","ios":"levelo://app?vid=4047eab8-160f-4c9d-9f2c-425bb4d06f9c"},"vehicle_type_id":"4","last_reported":1745324356,"current_range_meters":10000,"station_id":"ce4bh692rcd13ifvqe90","pricing_plan_id":"cebpf4jnsgd1na2vs0mg"},{"bike_id":"955f167f-2ccf-42a6-9cf1-f55d6cd3e72a","system_id":"levelo_inurba_marseille","lat":43.256305,"lon":5.377316,"is_reserved":false,"is_disabled":false,"rental_uris":{"android":"levelo://app?vid=955f167f-2ccf-42a6-9cf1-f55d6cd3e72a","ios":"levelo://app?vid=955f167f-2ccf-42a6-9cf1-f55d6cd3e72a"},"vehicle_type_id":"4","last_reported":1745324356,"current_range_meters":10000,"station_id":"ce4bhh12rcd13ifvqff0","pricing_plan_id":"cebpf4jnsgd1na2vs0mg"},{"bike_id":"00ddd704-134f-4f1e-8430-f98d20ea048f","system_id":"levelo_inurba_marseille","lat":43.30212,"lon":5.39473,"is_reserved":false,"is_disabled":false,"rental_uris":{"android":"levelo://app?vid=00ddd704-134f-4f1e-8430-f98d20ea048f","ios":"levelo://app?vid=00ddd704-134f-4f1e-8430-f98d20ea048f"},"vehicle_type_id":"4","last_reported":1745324356,"current_range_meters":10800,"station_id":"ce4bh0p2rcd13ifvqd70","pricing_plan_id":"cebpf4jnsgd1na2vs0mg"},{"bike_id":"8ead3045-ec20-442e-ba76-4b488ceaa3e4","system_id":"levelo_inurba_marseille","lat":43.27493,"lon":5.42457,"is_reserved":false,"is_disabled":false,"rental_uris":{"android":"levelo://app?vid=8ead3045-ec20-442e-ba76-4b488ceaa3e4","ios":"levelo://app?vid=8ead3045-ec20-442e-ba76-4b488ceaa3e4"},"vehicle_type_id":"4","last_reported":1745324356,"current_range_meters":10800,"station_id":"ce4bhn92rcd13ifvqgrg","pricing_plan_id":"cebpf4jnsgd1na2vs0mg"},{"bike_id":"1aabe5c9-09ca-44d1-bb3a-8c93e9abfee7","system_id":"levelo_inurba_marseille","lat":43.323506,"lon":5.367528,"is_reserved":false,"is_disabled":false,"rental_uris":{"android":"levelo://app?vid=1aabe5c9-09ca-44d1-bb3a-8c93e9abfee7","ios":"levelo://app?vid=1aabe5c9-09ca-44d1-bb3a-8c93e9abfee7"},"vehicle_type_id":"4","last_reported":1745324356,"current_range_meters":10800,"station_id":"ce4bhsh2rcd13ifvqi2g","pricing_plan_id":"cebpf4jnsgd1na2vs0mg"},{"bike_id":"afc1a72d-f3cd-4039-8f8e-8907957e6ee0","system_id":"levelo_inurba_marseille","lat":43.284088,"lon":5.375041,"is_reserved":false,"is_disabled":false,"rental_uris":{"android":"levelo://app?vid=afc1a72d-f3cd-4039-8f8e-8907957e6ee0","ios":"levelo://app?vid=afc1a72d-f3cd-4039-8f8e-8907957e6ee0"},"vehicle_type_id":"4","last_reported":1745324356,"current_range_meters":10800,"station_id":"ce4bh412rcd13ifvqds0","pricing_plan_id":"cebpf4jnsgd1na2vs0mg"},{"bike_id":"9a0451f9-5c1a-4d78-91cd-f36be7c3ec03","system_id":"levelo_inurba_marseille","lat":43.30523,"lon":5.38434,"is_reserved":false,"is_disabled":false,"rental_uris":{"android":"levelo://app?vid=9a0451f9-5c1a-4d78-91cd-f36be7c3ec03","ios":"levelo://app?vid=9a0451f9-5c1a-4d78-91cd-f36be7c3ec03"},"vehicle_type_id":"4","last_reported":1745324356,"current_range_meters":10800,"station_id":"ce4bgg92rcd13ifvqb30","pricing_plan_id":"cebpf4jnsgd1na2vs0mg"},{"bike_id":"67b1c6d8-8a5e-499b-9198-8c426a28ca39","system_id":"levelo_inurba_marseille","lat":43.30374,"lon":5.42488,"is_reserved":false,"is_disabled":false,"rental_uris":{"android":"levelo://app?vid=67b1c6d8-8a5e-499b-9198-8c426a28ca39","ios":"levelo://app?vid=67b1c6d8-8a5e-499b-9198-8c426a28ca39"},"vehicle_type_id":"4","last_reported":1745324356,"current_range_meters":10800,"station_id":"ce4bhoh2rcd13ifvqh6g","pricing_plan_id":"cebpf4jnsgd1na2vs0mg"},{"bike_id":"65dcedf4-4d41-476d-a6a3-5f7a942f164a","system_id":"levelo_inurba_marseille","lat":43.30548,"lon":5.36713,"is_reserved":false,"is_disabled":false,"rental_uris":{"android":"levelo://app?vid=65dcedf4-4d41-476d-a6a3-5f7a942f164a","ios":"levelo://app?vid=65dcedf4-4d41-476d-a6a3-5f7a942f164a"},"vehicle_type_id":"4","last_reported":1745324356,"current_range_meters":10000,"station_id":"ce4bgrp2rcd13ifvqc9g","pricing_plan_id":"cebpf4jnsgd1na2vs0mg"},{"bike_id":"7ca2acd8-f337-48b6-908a-0b58bccc4014","system_id":"levelo_inurba_marseille","lat":43.28972,"lon":5.37827,"is_reserved":false,"is_disabled":false,"rental_uris":{"android":"levelo://app?vid=7ca2acd8-f337-48b6-908a-0b58bccc4014","ios":"levelo://app?vid=7ca2acd8-f337-48b6-908a-0b58bccc4014"},"vehicle_type_id":"4","last_reported":1745324356,"current_range_meters":11200,"station_id":"ce4bh9p2rcd13ifvqed0","pricing_plan_id":"cebpf4jnsgd1na2vs0mg"},{"bike_id":"389eaf09-67b7-4655-9e40-768e282547d8","system_id":"levelo_inurba_marseille","lat":43.29953,"lon":5.3855,"is_reserved":false,"is_disabled":false,"rental_uris":{"android":"levelo://app?vid=389eaf09-67b7-4655-9e40-768e282547d8","ios":"levelo://app?vid=389eaf09-67b7-4655-9e40-768e282547d8"},"vehicle_type_id":"4","last_reported":1745324356,"current_range_meters":11200,"station_id":"ce4bgj92rcd13ifvqbd0","pricing_plan_id":"cebpf4jnsgd1na2vs0mg"},{"bike_id":"9d710bb8-5c08-43a0-9e2e-2df35a950232","system_id":"levelo_inurba_marseille","lat":43.3054,"lon":5.36701,"is_reserved":false,"is_disabled":false,"rental_uris":{"android":"levelo://app?vid=9d710bb8-5c08-43a0-9e2e-2df35a950232","ios":"levelo://app?vid=9d710bb8-5c08-43a0-9e2e-2df35a950232"},"vehicle_type_id":"4","last_reported":1745324356,"current_range_meters":11200,"station_id":"ce4bgrp2rcd13ifvqc9g","pricing_plan_id":"cebpf4jnsgd1na2vs0mg"},{"bike_id":"16a7c2ef-0296-4083-b051-6b3097c81f32","system_id":"levelo_inurba_marseille","lat":43.29014,"lon":5.38128,"is_reserved":false,"is_disabled":false,"rental_uris":{"android":"levelo://app?vid=16a7c2ef-0296-4083-b051-6b3097c81f32","ios":"levelo://app?vid=16a7c2ef-0296-4083-b051-6b3097c81f32"},"vehicle_type_id":"4","last_reported":1745324356,"current_range_meters":11200,"station_id":"ce4bh4p2rcd13ifvqe1g","pricing_plan_id":"cebpf4jnsgd1na2vs0mg"},{"bike_id":"60cd83f5-5528-4480-9f93-c00dff3b68a2","system_id":"levelo_inurba_marseille","lat":43.32485,"lon":5.36559,"is_reserved":false,"is_disabled":false,"rental_uris":{"android":"levelo://app?vid=60cd83f5-5528-4480-9f93-c00dff3b68a2","ios":"levelo://app?vid=60cd83f5-5528-4480-9f93-c00dff3b68a2"},"vehicle_type_id":"4","last_reported":1745324356,"current_range_meters":10800,"station_id":"ce4bhs12rcd13ifvqhvg","pricing_plan_id":"cebpf4jnsgd1na2vs0mg"},{"bike_id":"6ded7aaa-3a14-4d86-bbe9-e78654bace7a","system_id":"levelo_inurba_marseille","lat":43.292051,"lon":5.393205,"is_reserved":false,"is_disabled":false,"rental_uris":{"android":"levelo://app?vid=6ded7aaa-3a14-4d86-bbe9-e78654bace7a","ios":"levelo://app?vid=6ded7aaa-3a14-4d86-bbe9-e78654bace7a"},"vehicle_type_id":"4","last_reported":1745324356,"current_range_meters":11600,"station_id":"ce4bh192rcd13ifvqdd0","pricing_plan_id":"cebpf4jnsgd1na2vs0mg"},{"bike_id":"35aa3d8b-8aed-4453-8e46-9a8ae642da28","system_id":"levelo_inurba_marseille","lat":43.29015,"lon":5.38146,"is_reserved":false,"is_disabled":false,"rental_uris":{"android":"levelo://app?vid=35aa3d8b-8aed-4453-8e46-9a8ae642da28","ios":"levelo://app?vid=35aa3d8b-8aed-4453-8e46-9a8ae642da28"},"vehicle_type_id":"4","last_reported":1745324356,"current_range_meters":11600,"station_id":"ce4bh4p2rcd13ifvqe1g","pricing_plan_id":"cebpf4jnsgd1na2vs0mg"},{"bike_id":"c4eb86ff-8d6e-4b75-b324-3229770e6b05","system_id":"levelo_inurba_marseille","lat":43.298658,"lon":5.397251,"is_reserved":false,"is_disabled":false,"rental_uris":{"android":"levelo://app?vid=c4eb86ff-8d6e-4b75-b324-3229770e6b05","ios":"levelo://app?vid=c4eb86ff-8d6e-4b75-b324-3229770e6b05"},"vehicle_type_id":"4","last_reported":1745324356,"current_range_meters":11600,"station_id":"ce4bhjp2rcd13ifvqg90","pricing_plan_id":"cebpf4jnsgd1na2vs0mg"},{"bike_id":"b18b6e79-5f34-4d88-9645-99ebc992135e","system_id":"levelo_inurba_marseille","lat":43.28668,"lon":5.38656,"is_reserved":false,"is_disabled":false,"rental_uris":{"android":"levelo://app?vid=b18b6e79-5f34-4d88-9645-99ebc992135e","ios":"levelo://app?vid=b18b6e79-5f34-4d88-9645-99ebc992135e"},"vehicle_type_id":"4","last_reported":1745324356,"current_range_meters":11600,"station_id":"ce4bh492rcd13ifvqdug","pricing_plan_id":"cebpf4jnsgd1na2vs0mg"},{"bike_id":"57805b50-187c-4a26-a066-c00a57187e80","system_id":"levelo_inurba_marseille","lat":43.30314,"lon":5.36902,"is_reserved":false,"is_disabled":true,"rental_uris":{"android":"levelo://app?vid=57805b50-187c-4a26-a066-c00a57187e80","ios":"levelo://app?vid=57805b50-187c-4a26-a066-c00a57187e80"},"vehicle_type_id":"4","last_reported":1745324356,"current_range_meters":12000,"station_id":"ce4bgqh2rcd13ifvqc5g","pricing_plan_id":"cebpf4jnsgd1na2vs0mg"},{"bike_id":"84d53afc-570e-4710-be21-8912352f92df","system_id":"levelo_inurba_marseille","lat":43.309196,"lon":5.368384,"is_reserved":false,"is_disabled":false,"rental_uris":{"android":"levelo://app?vid=84d53afc-570e-4710-be21-8912352f92df","ios":"levelo://app?vid=84d53afc-570e-4710-be21-8912352f92df"},"vehicle_type_id":"4","last_reported":1745324356,"current_range_meters":12000,"station_id":"ce4bgn92rcd13ifvqbvg","pricing_plan_id":"cebpf4jnsgd1na2vs0mg"},{"bike_id":"efd378fb-dbf4-4361-a1fd-e862cfa5c91f","system_id":"levelo_inurba_marseille","lat":43.32563,"lon":5.41449,"is_reserved":false,"is_disabled":false,"rental_uris":{"android":"levelo://app?vid=efd378fb-dbf4-4361-a1fd-e862cfa5c91f","ios":"levelo://app?vid=efd378fb-dbf4-4361-a1fd-e862cfa5c91f"},"vehicle_type_id":"4","last_reported":1745324356,"current_range_meters":12400,"station_id":"ce4bhq12rcd13ifvqhhg","pricing_plan_id":"cebpf4jnsgd1na2vs0mg"},{"bike_id":"12505a0a-b14f-4f59-9be1-55ce43130db1","system_id":"levelo_inurba_marseille","lat":43.29592,"lon":5.38104,"is_reserved":false,"is_disabled":true,"rental_uris":{"android":"levelo://app?vid=12505a0a-b14f-4f59-9be1-55ce43130db1","ios":"levelo://app?vid=12505a0a-b14f-4f59-9be1-55ce43130db1"},"vehicle_type_id":"4","last_reported":1745324356,"current_range_meters":12400,"station_id":"ce4bgl12rcd13ifvqbo0","pricing_plan_id":"cebpf4jnsgd1na2vs0mg"},{"bike_id":"47768a28-4fff-4fc1-b4c4-b5ec8d452deb","system_id":"levelo_inurba_marseille","lat":43.29611,"lon":5.38071,"is_reserved":false,"is_disabled":true,"rental_uris":{"android":"levelo://app?vid=47768a28-4fff-4fc1-b4c4-b5ec8d452deb","ios":"levelo://app?vid=47768a28-4fff-4fc1-b4c4-b5ec8d452deb"},"vehicle_type_id":"4","last_reported":1745324356,"current_range_meters":12400,"station_id":"ce4bgl12rcd13ifvqbo0","pricing_plan_id":"cebpf4jnsgd1na2vs0mg"},{"bike_id":"95948634-5810-48cc-bbaf-9bf6a665133d","system_id":"levelo_inurba_marseille","lat":43.25119,"lon":5.40338,"is_reserved":false,"is_disabled":false,"rental_uris":{"android":"levelo://app?vid=95948634-5810-48cc-bbaf-9bf6a665133d","ios":"levelo://app?vid=95948634-5810-48cc-bbaf-9bf6a665133d"},"vehicle_type_id":"4","last_reported":1745324356,"current_range_meters":12400,"station_id":"ce4bhlh2rcd13ifvqgig","pricing_plan_id":"cebpf4jnsgd1na2vs0mg"},{"bike_id":"b3f739d8-b0e9-4ad8-aef2-e86f685ecacf","system_id":"levelo_inurba_marseille","lat":43.28931,"lon":5.38391,"is_reserved":false,"is_disabled":false,"rental_uris":{"android":"levelo://app?vid=b3f739d8-b0e9-4ad8-aef2-e86f685ecacf","ios":"levelo://app?vid=b3f739d8-b0e9-4ad8-aef2-e86f685ecacf"},"vehicle_type_id":"4","last_reported":1745324356,"current_range_meters":12800,"station_id":"ce4bh612rcd13ifvqe6g","pricing_plan_id":"cebpf4jnsgd1na2vs0mg"},{"bike_id":"f84aeb92-bc88-468c-8e91-798d331a8e11","system_id":"levelo_inurba_marseille","lat":43.32471,"lon":5.36592,"is_reserved":false,"is_disabled":false,"rental_uris":{"android":"levelo://app?vid=f84aeb92-bc88-468c-8e91-798d331a8e11","ios":"levelo://app?vid=f84aeb92-bc88-468c-8e91-798d331a8e11"},"vehicle_type_id":"4","last_reported":1745324356,"current_range_meters":12400,"station_id":"ce4bhs12rcd13ifvqhvg","pricing_plan_id":"cebpf4jnsgd1na2vs0mg"},{"bike_id":"74a60b9c-c1f7-4393-844e-82d3669aacbd","system_id":"levelo_inurba_marseille","lat":43.30464,"lon":5.37915,"is_reserved":false,"is_disabled":false,"rental_uris":{"android":"levelo://app?vid=74a60b9c-c1f7-4393-844e-82d3669aacbd","ios":"levelo://app?vid=74a60b9c-c1f7-4393-844e-82d3669aacbd"},"vehicle_type_id":"4","last_reported":1745324356,"current_range_meters":12800,"station_id":"ce4bgup2rcd13ifvqcn0","pricing_plan_id":"cebpf4jnsgd1na2vs0mg"},{"bike_id":"198bc6a6-de3d-4de7-9813-5f4c26e80e25","system_id":"levelo_inurba_marseille","lat":43.29969,"lon":5.38494,"is_reserved":false,"is_disabled":false,"rental_uris":{"android":"levelo://app?vid=198bc6a6-de3d-4de7-9813-5f4c26e80e25","ios":"levelo://app?vid=198bc6a6-de3d-4de7-9813-5f4c26e80e25"},"vehicle_type_id":"4","last_reported":1745324356,"current_range_meters":12800,"station_id":"ce4bgj92rcd13ifvqbd0","pricing_plan_id":"cebpf4jnsgd1na2vs0mg"},{"bike_id":"f25d8672-7640-4033-8cc4-f80944c4dd44","system_id":"levelo_inurba_marseille","lat":43.2725,"lon":5.40117,"is_reserved":false,"is_disabled":false,"rental_uris":{"android":"levelo://app?vid=f25d8672-7640-4033-8cc4-f80944c4dd44","ios":"levelo://app?vid=f25d8672-7640-4033-8cc4-f80944c4dd44"},"vehicle_type_id":"4","last_reported":1745324356,"current_range_meters":13600,"station_id":"","pricing_plan_id":"cebpf4jnsgd1na2vs0mg"},{"bike_id":"a756bae3-49c1-4d6c-89e8-fcb7b0e7d2e2","system_id":"levelo_inurba_marseille","lat":43.29039,"lon":5.35919,"is_reserved":false,"is_disabled":true,"rental_uris":{"android":"levelo://app?vid=a756bae3-49c1-4d6c-89e8-fcb7b0e7d2e2","ios":"levelo://app?vid=a756bae3-49c1-4d6c-89e8-fcb7b0e7d2e2"},"vehicle_type_id":"4","last_reported":1745324356,"current_range_meters":13600,"station_id":"ce4bha92rcd13ifvqeg0","pricing_plan_id":"cebpf4jnsgd1na2vs0mg"},{"bike_id":"c7e149d0-07ba-4025-ac21-3793f5638d52","system_id":"levelo_inurba_marseille","lat":43.29584,"lon":5.36741,"is_reserved":false,"is_disabled":false,"rental_uris":{"android":"levelo://app?vid=c7e149d0-07ba-4025-ac21-3793f5638d52","ios":"levelo://app?vid=c7e149d0-07ba-4025-ac21-3793f5638d52"},"vehicle_type_id":"4","last_reported":1745324356,"current_range_meters":13600,"station_id":"ce4bgph2rcd13ifvqc2g","pricing_plan_id":"cebpf4jnsgd1na2vs0mg"},{"bike_id":"ebd5f51c-528c-4078-916b-87e982d1153d","system_id":"levelo_inurba_marseille","lat":43.28153,"lon":5.42652,"is_reserved":false,"is_disabled":false,"rental_uris":{"android":"levelo://app?vid=ebd5f51c-528c-4078-916b-87e982d1153d","ios":"levelo://app?vid=ebd5f51c-528c-4078-916b-87e982d1153d"},"vehicle_type_id":"4","last_reported":1745324356,"current_range_meters":13600,"station_id":"ce4bhnh2rcd13ifvqgug","pricing_plan_id":"cebpf4jnsgd1na2vs0mg"},{"bike_id":"9a660840-7433-441f-8ddc-90b6f5bf9414","system_id":"levelo_inurba_marseille","lat":43.28931,"lon":5.3839,"is_reserved":false,"is_disabled":false,"rental_uris":{"android":"levelo://app?vid=9a660840-7433-441f-8ddc-90b6f5bf9414","ios":"levelo://app?vid=9a660840-7433-441f-8ddc-90b6f5bf9414"},"vehicle_type_id":"4","last_reported":1745324356,"current_range_meters":13600,"station_id":"ce4bh612rcd13ifvqe6g","pricing_plan_id":"cebpf4jnsgd1na2vs0mg"},{"bike_id":"41cd4d50-3bdd-4fa7-b5d1-d715f5a540e6","system_id":"levelo_inurba_marseille","lat":43.323614,"lon":5.367704,"is_reserved":false,"is_disabled":false,"rental_uris":{"android":"levelo://app?vid=41cd4d50-3bdd-4fa7-b5d1-d715f5a540e6","ios":"levelo://app?vid=41cd4d50-3bdd-4fa7-b5d1-d715f5a540e6"},"vehicle_type_id":"4","last_reported":1745324356,"current_range_meters":13600,"station_id":"ce4bhsh2rcd13ifvqi2g","pricing_plan_id":"cebpf4jnsgd1na2vs0mg"},{"bike_id":"0451dad5-52a0-4966-be38-b6d6f81ba957","system_id":"levelo_inurba_marseille","lat":43.26208,"lon":5.37443,"is_reserved":false,"is_disabled":false,"rental_uris":{"android":"levelo://app?vid=0451dad5-52a0-4966-be38-b6d6f81ba957","ios":"levelo://app?vid=0451dad5-52a0-4966-be38-b6d6f81ba957"},"vehicle_type_id":"4","last_reported":1745324356,"current_range_meters":14000,"station_id":"ce4bhgp2rcd13ifvqfc0","pricing_plan_id":"cebpf4jnsgd1na2vs0mg"},{"bike_id":"c9c990d9-7e0f-4121-ac03-8d2939e8b7c2","system_id":"levelo_inurba_marseille","lat":43.25578,"lon":5.38249,"is_reserved":false,"is_disabled":false,"rental_uris":{"android":"levelo://app?vid=c9c990d9-7e0f-4121-ac03-8d2939e8b7c2","ios":"levelo://app?vid=c9c990d9-7e0f-4121-ac03-8d2939e8b7c2"},"vehicle_type_id":"4","last_reported":1745324356,"current_range_meters":14000,"station_id":"ce4bhih2rcd13ifvqfs0","pricing_plan_id":"cebpf4jnsgd1na2vs0mg"},{"bike_id":"633b8b80-efa6-4d54-af6b-15fac248dc62","system_id":"levelo_inurba_marseille","lat":43.30535,"lon":5.3655,"is_reserved":false,"is_disabled":false,"rental_uris":{"android":"levelo://app?vid=633b8b80-efa6-4d54-af6b-15fac248dc62","ios":"levelo://app?vid=633b8b80-efa6-4d54-af6b-15fac248dc62"},"vehicle_type_id":"4","last_reported":1745324356,"current_range_meters":14000,"station_id":"ce4bgs12rcd13ifvqcag","pricing_plan_id":"cebpf4jnsgd1na2vs0mg"},{"bike_id":"dad37e73-94ab-4d67-8c03-8c39f49dfa96","system_id":"levelo_inurba_marseille","lat":43.26059,"lon":5.39394,"is_reserved":false,"is_disabled":false,"rental_uris":{"android":"levelo://app?vid=dad37e73-94ab-4d67-8c03-8c39f49dfa96","ios":"levelo://app?vid=dad37e73-94ab-4d67-8c03-8c39f49dfa96"},"vehicle_type_id":"4","last_reported":1745324356,"current_range_meters":14000,"station_id":"ce4bhh92rcd13ifvqfj0","pricing_plan_id":"cebpf4jnsgd1na2vs0mg"},{"bike_id":"122bc2fe-96d7-4b3f-a8c6-233c19b0e703","system_id":"levelo_inurba_marseille","lat":43.30371,"lon":5.42475,"is_reserved":false,"is_disabled":false,"rental_uris":{"android":"levelo://app?vid=122bc2fe-96d7-4b3f-a8c6-233c19b0e703","ios":"levelo://app?vid=122bc2fe-96d7-4b3f-a8c6-233c19b0e703"},"vehicle_type_id":"4","last_reported":1745324356,"current_range_meters":14000,"station_id":"ce4bhoh2rcd13ifvqh6g","pricing_plan_id":"cebpf4jnsgd1na2vs0mg"},{"bike_id":"d6eb0028-803c-43c6-99a1-ac9be08eee82","system_id":"levelo_inurba_marseille","lat":43.27503,"lon":5.42427,"is_reserved":false,"is_disabled":false,"rental_uris":{"android":"levelo://app?vid=d6eb0028-803c-43c6-99a1-ac9be08eee82","ios":"levelo://app?vid=d6eb0028-803c-43c6-99a1-ac9be08eee82"},"vehicle_type_id":"4","last_reported":1745324356,"current_range_meters":14400,"station_id":"ce4bhn92rcd13ifvqgrg","pricing_plan_id":"cebpf4jnsgd1na2vs0mg"},{"bike_id":"013b0bba-3a8e-4176-aec5-9b030be1a006","system_id":"levelo_inurba_marseille","lat":43.31731,"lon":5.37776,"is_reserved":false,"is_disabled":false,"rental_uris":{"android":"levelo://app?vid=013b0bba-3a8e-4176-aec5-9b030be1a006","ios":"levelo://app?vid=013b0bba-3a8e-4176-aec5-9b030be1a006"},"vehicle_type_id":"4","last_reported":1745324356,"current_range_meters":14400,"station_id":"ce4bgth2rcd13ifvqch0","pricing_plan_id":"cebpf4jnsgd1na2vs0mg"},{"bike_id":"528a8e5f-a8aa-483a-bde7-6ff695a300ce","system_id":"levelo_inurba_marseille","lat":43.30888,"lon":5.37191,"is_reserved":false,"is_disabled":false,"rental_uris":{"android":"levelo://app?vid=528a8e5f-a8aa-483a-bde7-6ff695a300ce","ios":"levelo://app?vid=528a8e5f-a8aa-483a-bde7-6ff695a300ce"},"vehicle_type_id":"4","last_reported":1745324356,"current_range_meters":14400,"station_id":"ce4bguh2rcd13ifvqckg","pricing_plan_id":"cebpf4jnsgd1na2vs0mg"},{"bike_id":"a201ef7b-269d-4e05-b34b-06f2e970bbe8","system_id":"levelo_inurba_marseille","lat":43.280405,"lon":5.404481,"is_reserved":false,"is_disabled":false,"rental_uris":{"android":"levelo://app?vid=a201ef7b-269d-4e05-b34b-06f2e970bbe8","ios":"levelo://app?vid=a201ef7b-269d-4e05-b34b-06f2e970bbe8"},"vehicle_type_id":"4","last_reported":1745324356,"current_range_meters":14000,"station_id":"ce4bh8p2rcd13ifvqeb0","pricing_plan_id":"cebpf4jnsgd1na2vs0mg"},{"bike_id":"ce98710d-864d-4822-95df-5551412af500","system_id":"levelo_inurba_marseille","lat":43.281553,"lon":5.426487,"is_reserved":false,"is_disabled":false,"rental_uris":{"android":"levelo://app?vid=ce98710d-864d-4822-95df-5551412af500","ios":"levelo://app?vid=ce98710d-864d-4822-95df-5551412af500"},"vehicle_type_id":"4","last_reported":1745324356,"current_range_meters":14800,"station_id":"ce4bhnh2rcd13ifvqgug","pricing_plan_id":"cebpf4jnsgd1na2vs0mg"},{"bike_id":"d5fa6a7e-ae6f-48cd-8dc8-6ec1473fc099","system_id":"levelo_inurba_marseille","lat":43.31361,"lon":5.36745,"is_reserved":false,"is_disabled":true,"rental_uris":{"android":"levelo://app?vid=d5fa6a7e-ae6f-48cd-8dc8-6ec1473fc099","ios":"levelo://app?vid=d5fa6a7e-ae6f-48cd-8dc8-6ec1473fc099"},"vehicle_type_id":"4","last_reported":1745324356,"current_range_meters":14800,"station_id":"ce4bgr92rcd13ifvqc6g","pricing_plan_id":"cebpf4jnsgd1na2vs0mg"},{"bike_id":"17950683-0b95-415c-b1aa-2d3bb58a8be2","system_id":"levelo_inurba_marseille","lat":43.2572,"lon":5.41114,"is_reserved":false,"is_disabled":false,"rental_uris":{"android":"levelo://app?vid=17950683-0b95-415c-b1aa-2d3bb58a8be2","ios":"levelo://app?vid=17950683-0b95-415c-b1aa-2d3bb58a8be2"},"vehicle_type_id":"4","last_reported":1745324356,"current_range_meters":14800,"station_id":"ce4bhkp2rcd13ifvqgd0","pricing_plan_id":"cebpf4jnsgd1na2vs0mg"},{"bike_id":"35e995c8-1006-4c8c-a755-ca9f3e1b150b","system_id":"levelo_inurba_marseille","lat":43.2737,"lon":5.36257,"is_reserved":false,"is_disabled":false,"rental_uris":{"android":"levelo://app?vid=35e995c8-1006-4c8c-a755-ca9f3e1b150b","ios":"levelo://app?vid=35e995c8-1006-4c8c-a755-ca9f3e1b150b"},"vehicle_type_id":"4","last_reported":1745324356,"current_range_meters":14800,"station_id":"ce4bhbh2rcd13ifvqeo0","pricing_plan_id":"cebpf4jnsgd1na2vs0mg"},{"bike_id":"0ab9d94c-ee92-4922-9993-49d3cbec1064","system_id":"levelo_inurba_marseille","lat":43.30513,"lon":5.36709,"is_reserved":false,"is_disabled":false,"rental_uris":{"android":"levelo://app?vid=0ab9d94c-ee92-4922-9993-49d3cbec1064","ios":"levelo://app?vid=0ab9d94c-ee92-4922-9993-49d3cbec1064"},"vehicle_type_id":"4","last_reported":1745324356,"current_range_meters":14800,"station_id":"ce4bgrp2rcd13ifvqc9g","pricing_plan_id":"cebpf4jnsgd1na2vs0mg"},{"bike_id":"be782758-7590-426b-8864-add5120869d8","system_id":"levelo_inurba_marseille","lat":43.309439,"lon":5.390416,"is_reserved":false,"is_disabled":false,"rental_uris":{"android":"levelo://app?vid=be782758-7590-426b-8864-add5120869d8","ios":"levelo://app?vid=be782758-7590-426b-8864-add5120869d8"},"vehicle_type_id":"4","last_reported":1745324356,"current_range_meters":15200,"station_id":"ce4bgup2rcd13ifvqco0","pricing_plan_id":"cebpf4jnsgd1na2vs0mg"},{"bike_id":"703d36b4-a767-42f2-b169-c9f7ab3e9960","system_id":"levelo_inurba_marseille","lat":43.23154,"lon":5.43701,"is_reserved":false,"is_disabled":false,"rental_uris":{"android":"levelo://app?vid=703d36b4-a767-42f2-b169-c9f7ab3e9960","ios":"levelo://app?vid=703d36b4-a767-42f2-b169-c9f7ab3e9960"},"vehicle_type_id":"4","last_reported":1745324356,"current_range_meters":15200,"station_id":"ce4bhmp2rcd13ifvqgog","pricing_plan_id":"cebpf4jnsgd1na2vs0mg"},{"bike_id":"e24c6dc3-6ce9-447f-9c85-8312d81ce2fb","system_id":"levelo_inurba_marseille","lat":43.2963,"lon":5.40595,"is_reserved":false,"is_disabled":false,"rental_uris":{"android":"levelo://app?vid=e24c6dc3-6ce9-447f-9c85-8312d81ce2fb","ios":"levelo://app?vid=e24c6dc3-6ce9-447f-9c85-8312d81ce2fb"},"vehicle_type_id":"4","last_reported":1745324356,"current_range_meters":15200,"station_id":"ce4bh0h2rcd13ifvqd60","pricing_plan_id":"cebpf4jnsgd1na2vs0mg"},{"bike_id":"9636c664-9bc2-4172-9e5c-a0cdf92a5c73","system_id":"levelo_inurba_marseille","lat":43.29698,"lon":5.36631,"is_reserved":false,"is_disabled":false,"rental_uris":{"android":"levelo://app?vid=9636c664-9bc2-4172-9e5c-a0cdf92a5c73","ios":"levelo://app?vid=9636c664-9bc2-4172-9e5c-a0cdf92a5c73"},"vehicle_type_id":"4","last_reported":1745324356,"current_range_meters":16000,"station_id":"ce4bgn12rcd13ifvqbt0","pricing_plan_id":"cebpf4jnsgd1na2vs0mg"},{"bike_id":"d3512a66-e223-4175-8f43-daca7af3b6c5","system_id":"levelo_inurba_marseille","lat":43.3148,"lon":5.37312,"is_reserved":false,"is_disabled":false,"rental_uris":{"android":"levelo://app?vid=d3512a66-e223-4175-8f43-daca7af3b6c5","ios":"levelo://app?vid=d3512a66-e223-4175-8f43-daca7af3b6c5"},"vehicle_type_id":"4","last_reported":1745324356,"current_range_meters":16000,"station_id":"ce4bgt12rcd13ifvqcd0","pricing_plan_id":"cebpf4jnsgd1na2vs0mg"},{"bike_id":"ded95c3c-4781-4b3e-a8a8-bc7bf2affbf8","system_id":"levelo_inurba_marseille","lat":43.317018,"lon":5.404653,"is_reserved":false,"is_disabled":false,"rental_uris":{"android":"levelo://app?vid=ded95c3c-4781-4b3e-a8a8-bc7bf2affbf8","ios":"levelo://app?vid=ded95c3c-4781-4b3e-a8a8-bc7bf2affbf8"},"vehicle_type_id":"4","last_reported":1745324356,"current_range_meters":16000,"station_id":"ce4bh012rcd13ifvqd00","pricing_plan_id":"cebpf4jnsgd1na2vs0mg"},{"bike_id":"a6b516b4-bd93-4d8e-9cef-63b8a45dea8a","system_id":"levelo_inurba_marseille","lat":43.3135,"lon":5.36729,"is_reserved":false,"is_disabled":false,"rental_uris":{"android":"levelo://app?vid=a6b516b4-bd93-4d8e-9cef-63b8a45dea8a","ios":"levelo://app?vid=a6b516b4-bd93-4d8e-9cef-63b8a45dea8a"},"vehicle_type_id":"4","last_reported":1745324356,"current_range_meters":16000,"station_id":"ce4bgr92rcd13ifvqc6g","pricing_plan_id":"cebpf4jnsgd1na2vs0mg"},{"bike_id":"67aa4d46-851b-4711-855b-fdf81b9868ac","system_id":"levelo_inurba_marseille","lat":43.28377,"lon":5.38621,"is_reserved":false,"is_disabled":false,"rental_uris":{"android":"levelo://app?vid=67aa4d46-851b-4711-855b-fdf81b9868ac","ios":"levelo://app?vid=67aa4d46-851b-4711-855b-fdf81b9868ac"},"vehicle_type_id":"4","last_reported":1745324356,"current_range_meters":16400,"station_id":"ce4bh492rcd13ifvqdvg","pricing_plan_id":"cebpf4jnsgd1na2vs0mg"},{"bike_id":"d4403b44-1cc1-4c05-a9ac-9a218146c50e","system_id":"levelo_inurba_marseille","lat":43.27496,"lon":5.42455,"is_reserved":false,"is_disabled":true,"rental_uris":{"android":"levelo://app?vid=d4403b44-1cc1-4c05-a9ac-9a218146c50e","ios":"levelo://app?vid=d4403b44-1cc1-4c05-a9ac-9a218146c50e"},"vehicle_type_id":"4","last_reported":1745324356,"current_range_meters":16400,"station_id":"ce4bhn92rcd13ifvqgrg","pricing_plan_id":"cebpf4jnsgd1na2vs0mg"},{"bike_id":"bfae20da-3f72-4ccb-98fb-8aabd3108edc","system_id":"levelo_inurba_marseille","lat":43.32461,"lon":5.36555,"is_reserved":false,"is_disabled":false,"rental_uris":{"android":"levelo://app?vid=bfae20da-3f72-4ccb-98fb-8aabd3108edc","ios":"levelo://app?vid=bfae20da-3f72-4ccb-98fb-8aabd3108edc"},"vehicle_type_id":"4","last_reported":1745324356,"current_range_meters":16800,"station_id":"ce4bhs12rcd13ifvqhvg","pricing_plan_id":"cebpf4jnsgd1na2vs0mg"},{"bike_id":"95c2ce24-1934-407e-9568-4cfb539a57e1","system_id":"levelo_inurba_marseille","lat":43.306,"lon":5.37229,"is_reserved":false,"is_disabled":false,"rental_uris":{"android":"levelo://app?vid=95c2ce24-1934-407e-9568-4cfb539a57e1","ios":"levelo://app?vid=95c2ce24-1934-407e-9568-4cfb539a57e1"},"vehicle_type_id":"4","last_reported":1745324356,"current_range_meters":16400,"station_id":"ce4bgqh2rcd13ifvqc4g","pricing_plan_id":"cebpf4jnsgd1na2vs0mg"},{"bike_id":"bc4f211a-a163-4a03-9107-8eacdcc4314d","system_id":"levelo_inurba_marseille","lat":43.23153,"lon":5.43718,"is_reserved":false,"is_disabled":false,"rental_uris":{"android":"levelo://app?vid=bc4f211a-a163-4a03-9107-8eacdcc4314d","ios":"levelo://app?vid=bc4f211a-a163-4a03-9107-8eacdcc4314d"},"vehicle_type_id":"4","last_reported":1745324356,"current_range_meters":16800,"station_id":"ce4bhmp2rcd13ifvqgog","pricing_plan_id":"cebpf4jnsgd1na2vs0mg"},{"bike_id":"f03343c7-8833-4aca-8b22-25c53bb0368e","system_id":"levelo_inurba_marseille","lat":43.30303,"lon":5.39214,"is_reserved":false,"is_disabled":false,"rental_uris":{"android":"levelo://app?vid=f03343c7-8833-4aca-8b22-25c53bb0368e","ios":"levelo://app?vid=f03343c7-8833-4aca-8b22-25c53bb0368e"},"vehicle_type_id":"4","last_reported":1745324356,"current_range_meters":16800,"station_id":"ce4bgkh2rcd13ifvqbk0","pricing_plan_id":"cebpf4jnsgd1na2vs0mg"},{"bike_id":"d9f87885-5a27-4b1c-9bce-09136a85a478","system_id":"levelo_inurba_marseille","lat":43.32486,"lon":5.36573,"is_reserved":false,"is_disabled":false,"rental_uris":{"android":"levelo://app?vid=d9f87885-5a27-4b1c-9bce-09136a85a478","ios":"levelo://app?vid=d9f87885-5a27-4b1c-9bce-09136a85a478"},"vehicle_type_id":"4","last_reported":1745324356,"current_range_meters":16800,"station_id":"ce4bhs12rcd13ifvqhvg","pricing_plan_id":"cebpf4jnsgd1na2vs0mg"},{"bike_id":"eddf388e-8873-45ba-ad33-881fd27c608c","system_id":"levelo_inurba_marseille","lat":43.29288,"lon":5.37433,"is_reserved":false,"is_disabled":true,"rental_uris":{"android":"levelo://app?vid=eddf388e-8873-45ba-ad33-881fd27c608c","ios":"levelo://app?vid=eddf388e-8873-45ba-ad33-881fd27c608c"},"vehicle_type_id":"4","last_reported":1745324356,"current_range_meters":16800,"station_id":"ce4bgi12rcd13ifvqb70","pricing_plan_id":"cebpf4jnsgd1na2vs0mg"},{"bike_id":"bcbf295f-e810-492e-b860-585eb03b6e63","system_id":"levelo_inurba_marseille","lat":43.30094,"lon":5.39071,"is_reserved":false,"is_disabled":false,"rental_uris":{"android":"levelo://app?vid=bcbf295f-e810-492e-b860-585eb03b6e63","ios":"levelo://app?vid=bcbf295f-e810-492e-b860-585eb03b6e63"},"vehicle_type_id":"4","last_reported":1745324356,"current_range_meters":16800,"station_id":"ce4bh192rcd13ifvqdb0","pricing_plan_id":"cebpf4jnsgd1na2vs0mg"},{"bike_id":"c3d133d7-5cf9-49ca-b23d-cfd0b1840d83","system_id":"levelo_inurba_marseille","lat":43.295715,"lon":5.399746,"is_reserved":false,"is_disabled":false,"rental_uris":{"android":"levelo://app?vid=c3d133d7-5cf9-49ca-b23d-cfd0b1840d83","ios":"levelo://app?vid=c3d133d7-5cf9-49ca-b23d-cfd0b1840d83"},"vehicle_type_id":"4","last_reported":1745324356,"current_range_meters":16800,"station_id":"ce4bgup2rcd13ifvqcn0","pricing_plan_id":"cebpf4jnsgd1na2vs0mg"},{"bike_id":"6fdfd6d1-a96c-4b8f-b8d7-2e2af8c87b3c","system_id":"levelo_inurba_marseille","lat":43.33611,"lon":5.41017,"is_reserved":false,"is_disabled":false,"rental_uris":{"android":"levelo://app?vid=6fdfd6d1-a96c-4b8f-b8d7-2e2af8c87b3c","ios":"levelo://app?vid=6fdfd6d1-a96c-4b8f-b8d7-2e2af8c87b3c"},"vehicle_type_id":"4","last_reported":1745324356,"current_range_meters":17200,"station_id":"ce4bhqh2rcd13ifvqhmg","pricing_plan_id":"cebpf4jnsgd1na2vs0mg"},{"bike_id":"7b2dc864-a4e9-468c-9cee-f3075a20977d","system_id":"levelo_inurba_marseille","lat":43.31461,"lon":5.37393,"is_reserved":false,"is_disabled":false,"rental_uris":{"android":"levelo://app?vid=7b2dc864-a4e9-468c-9cee-f3075a20977d","ios":"levelo://app?vid=7b2dc864-a4e9-468c-9cee-f3075a20977d"},"vehicle_type_id":"4","last_reported":1745324356,"current_range_meters":17200,"station_id":"","pricing_plan_id":"cebpf4jnsgd1na2vs0mg"},{"bike_id":"abd226a8-d003-4133-b9d2-b7c952b7ead1","system_id":"levelo_inurba_marseille","lat":43.23085,"lon":5.35436,"is_reserved":false,"is_disabled":false,"rental_uris":{"android":"levelo://app?vid=abd226a8-d003-4133-b9d2-b7c952b7ead1","ios":"levelo://app?vid=abd226a8-d003-4133-b9d2-b7c952b7ead1"},"vehicle_type_id":"4","last_reported":1745324356,"current_range_meters":17200,"station_id":"cpo3342slgdg3j2ifvpg","pricing_plan_id":"cebpf4jnsgd1na2vs0mg"},{"bike_id":"bfeea629-5c6b-43a1-ab34-83cfb7160590","system_id":"levelo_inurba_marseille","lat":43.30458,"lon":5.37907,"is_reserved":false,"is_disabled":false,"rental_uris":{"android":"levelo://app?vid=bfeea629-5c6b-43a1-ab34-83cfb7160590","ios":"levelo://app?vid=bfeea629-5c6b-43a1-ab34-83cfb7160590"},"vehicle_type_id":"4","last_reported":1745324356,"current_range_meters":16800,"station_id":"ce4bgup2rcd13ifvqcn0","pricing_plan_id":"cebpf4jnsgd1na2vs0mg"},{"bike_id":"98176d01-c4bf-4fdf-83d6-6aa3ea2e2a6a","system_id":"levelo_inurba_marseille","lat":43.314538,"lon":5.370493,"is_reserved":false,"is_disabled":false,"rental_uris":{"android":"levelo://app?vid=98176d01-c4bf-4fdf-83d6-6aa3ea2e2a6a","ios":"levelo://app?vid=98176d01-c4bf-4fdf-83d6-6aa3ea2e2a6a"},"vehicle_type_id":"4","last_reported":1745324356,"current_range_meters":17600,"station_id":"","pricing_plan_id":"cebpf4jnsgd1na2vs0mg"},{"bike_id":"86fafcc7-297a-412d-b511-2a1f5ff5f92a","system_id":"levelo_inurba_marseille","lat":43.29081,"lon":5.37171,"is_reserved":false,"is_disabled":false,"rental_uris":{"android":"levelo://app?vid=86fafcc7-297a-412d-b511-2a1f5ff5f92a","ios":"levelo://app?vid=86fafcc7-297a-412d-b511-2a1f5ff5f92a"},"vehicle_type_id":"4","last_reported":1745324356,"current_range_meters":17600,"station_id":"ce4bh5p2rcd13ifvqe4g","pricing_plan_id":"cebpf4jnsgd1na2vs0mg"},{"bike_id":"3720c32b-d9cf-48c6-a0a2-b833bf635b92","system_id":"levelo_inurba_marseille","lat":43.30429,"lon":5.38893,"is_reserved":false,"is_disabled":false,"rental_uris":{"android":"levelo://app?vid=3720c32b-d9cf-48c6-a0a2-b833bf635b92","ios":"levelo://app?vid=3720c32b-d9cf-48c6-a0a2-b833bf635b92"},"vehicle_type_id":"4","last_reported":1745324356,"current_range_meters":17600,"station_id":"ce4bgk12rcd13ifvqbi0","pricing_plan_id":"cebpf4jnsgd1na2vs0mg"},{"bike_id":"1b903b38-38de-4714-9a2c-59836acfa168","system_id":"levelo_inurba_marseille","lat":43.31713,"lon":5.43703,"is_reserved":false,"is_disabled":true,"rental_uris":{"android":"levelo://app?vid=1b903b38-38de-4714-9a2c-59836acfa168","ios":"levelo://app?vid=1b903b38-38de-4714-9a2c-59836acfa168"},"vehicle_type_id":"4","last_reported":1745324356,"current_range_meters":17600,"station_id":"ce4bhp92rcd13ifvqhcg","pricing_plan_id":"cebpf4jnsgd1na2vs0mg"},{"bike_id":"30b3ed6e-2793-4150-bfa6-9a8c5c8baa8d","system_id":"levelo_inurba_marseille","lat":43.33022,"lon":5.39042,"is_reserved":false,"is_disabled":false,"rental_uris":{"android":"levelo://app?vid=30b3ed6e-2793-4150-bfa6-9a8c5c8baa8d","ios":"levelo://app?vid=30b3ed6e-2793-4150-bfa6-9a8c5c8baa8d"},"vehicle_type_id":"4","last_reported":1745324356,"current_range_meters":17200,"station_id":"ce4bhr92rcd13ifvqhrg","pricing_plan_id":"cebpf4jnsgd1na2vs0mg"},{"bike_id":"2df66be9-85c7-4b12-9967-b40e5a6edbe1","system_id":"levelo_inurba_marseille","lat":43.29168,"lon":5.37176,"is_reserved":false,"is_disabled":false,"rental_uris":{"android":"levelo://app?vid=2df66be9-85c7-4b12-9967-b40e5a6edbe1","ios":"levelo://app?vid=2df66be9-85c7-4b12-9967-b40e5a6edbe1"},"vehicle_type_id":"4","last_reported":1745324356,"current_range_meters":18000,"station_id":"ce4bha92rcd13ifvqeh0","pricing_plan_id":"cebpf4jnsgd1na2vs0mg"},{"bike_id":"7f3c9553-a777-49ec-9c36-599f5b638035","system_id":"levelo_inurba_marseille","lat":43.28464,"lon":5.35895,"is_reserved":false,"is_disabled":false,"rental_uris":{"android":"levelo://app?vid=7f3c9553-a777-49ec-9c36-599f5b638035","ios":"levelo://app?vid=7f3c9553-a777-49ec-9c36-599f5b638035"},"vehicle_type_id":"4","last_reported":1745324356,"current_range_meters":18000,"station_id":"ce4bhah2rcd13ifvqei0","pricing_plan_id":"cebpf4jnsgd1na2vs0mg"},{"bike_id":"a886ff6c-343b-4c65-92b5-74f681960283","system_id":"levelo_inurba_marseille","lat":43.3079,"lon":5.37655,"is_reserved":false,"is_disabled":false,"rental_uris":{"android":"levelo://app?vid=a886ff6c-343b-4c65-92b5-74f681960283","ios":"levelo://app?vid=a886ff6c-343b-4c65-92b5-74f681960283"},"vehicle_type_id":"4","last_reported":1745324356,"current_range_meters":18000,"station_id":"ce4bgv92rcd13ifvqcq0","pricing_plan_id":"cebpf4jnsgd1na2vs0mg"},{"bike_id":"cb15f50a-d5cb-4017-b40b-b28b66eacf43","system_id":"levelo_inurba_marseille","lat":43.31231,"lon":5.36844,"is_reserved":false,"is_disabled":false,"rental_uris":{"android":"levelo://app?vid=cb15f50a-d5cb-4017-b40b-b28b66eacf43","ios":"levelo://app?vid=cb15f50a-d5cb-4017-b40b-b28b66eacf43"},"vehicle_type_id":"4","last_reported":1745324356,"current_range_meters":18000,"station_id":"ce4bgl92rcd13ifvqbq0","pricing_plan_id":"cebpf4jnsgd1na2vs0mg"},{"bike_id":"f85e70b3-c5c5-4298-b24c-ed25bbf6a57f","system_id":"levelo_inurba_marseille","lat":43.29986,"lon":5.38504,"is_reserved":false,"is_disabled":false,"rental_uris":{"android":"levelo://app?vid=f85e70b3-c5c5-4298-b24c-ed25bbf6a57f","ios":"levelo://app?vid=f85e70b3-c5c5-4298-b24c-ed25bbf6a57f"},"vehicle_type_id":"4","last_reported":1745324356,"current_range_meters":18000,"station_id":"ce4bgj92rcd13ifvqbd0","pricing_plan_id":"cebpf4jnsgd1na2vs0mg"},{"bike_id":"2b4c99a8-9f0e-4e8d-bf39-2ace93ff3d9d","system_id":"levelo_inurba_marseille","lat":43.22947,"lon":5.35358,"is_reserved":false,"is_disabled":true,"rental_uris":{"android":"levelo://app?vid=2b4c99a8-9f0e-4e8d-bf39-2ace93ff3d9d","ios":"levelo://app?vid=2b4c99a8-9f0e-4e8d-bf39-2ace93ff3d9d"},"vehicle_type_id":"4","last_reported":1745324356,"current_range_meters":18000,"station_id":"cpo3532slgdg3j2ikp40","pricing_plan_id":"cebpf4jnsgd1na2vs0mg"},{"bike_id":"57df9b9b-ff92-497a-8722-e3da848ef4e8","system_id":"levelo_inurba_marseille","lat":43.29623,"lon":5.37171,"is_reserved":false,"is_disabled":false,"rental_uris":{"android":"levelo://app?vid=57df9b9b-ff92-497a-8722-e3da848ef4e8","ios":"levelo://app?vid=57df9b9b-ff92-497a-8722-e3da848ef4e8"},"vehicle_type_id":"4","last_reported":1745324356,"current_range_meters":18000,"station_id":"ce4bgnh2rcd13ifvqc0g","pricing_plan_id":"cebpf4jnsgd1na2vs0mg"},{"bike_id":"d300e6f3-afac-4403-b005-32462d0e8b98","system_id":"levelo_inurba_marseille","lat":43.28973,"lon":5.37826,"is_reserved":false,"is_disabled":false,"rental_uris":{"android":"levelo://app?vid=d300e6f3-afac-4403-b005-32462d0e8b98","ios":"levelo://app?vid=d300e6f3-afac-4403-b005-32462d0e8b98"},"vehicle_type_id":"4","last_reported":1745324356,"current_range_meters":18000,"station_id":"ce4bh9p2rcd13ifvqed0","pricing_plan_id":"cebpf4jnsgd1na2vs0mg"},{"bike_id":"6bfab763-0160-49be-aa49-533e93a2bf0d","system_id":"levelo_inurba_marseille","lat":43.301331,"lon":5.387682,"is_reserved":false,"is_disabled":false,"rental_uris":{"android":"levelo://app?vid=6bfab763-0160-49be-aa49-533e93a2bf0d","ios":"levelo://app?vid=6bfab763-0160-49be-aa49-533e93a2bf0d"},"vehicle_type_id":"4","last_reported":1745324356,"current_range_meters":18800,"station_id":"ce4bgjh2rcd13ifvqbg0","pricing_plan_id":"cebpf4jnsgd1na2vs0mg"},{"bike_id":"6198b9b1-a6de-4cd3-aa89-d6b7fd0983d2","system_id":"levelo_inurba_marseille","lat":43.23957,"lon":5.36638,"is_reserved":false,"is_disabled":false,"rental_uris":{"android":"levelo://app?vid=6198b9b1-a6de-4cd3-aa89-d6b7fd0983d2","ios":"levelo://app?vid=6198b9b1-a6de-4cd3-aa89-d6b7fd0983d2"},"vehicle_type_id":"4","last_reported":1745324356,"current_range_meters":19200,"station_id":"ce4bhi12rcd13ifvqfp0","pricing_plan_id":"cebpf4jnsgd1na2vs0mg"},{"bike_id":"cf08c048-a187-4c85-8e56-1437d90de122","system_id":"levelo_inurba_marseille","lat":43.316833,"lon":5.404733,"is_reserved":false,"is_disabled":false,"rental_uris":{"android":"levelo://app?vid=cf08c048-a187-4c85-8e56-1437d90de122","ios":"levelo://app?vid=cf08c048-a187-4c85-8e56-1437d90de122"},"vehicle_type_id":"4","last_reported":1745324356,"current_range_meters":18800,"station_id":"ce4bh012rcd13ifvqd00","pricing_plan_id":"cebpf4jnsgd1na2vs0mg"},{"bike_id":"c83e935b-fd87-47b2-a778-ed3e19aa9378","system_id":"levelo_inurba_marseille","lat":43.30292,"lon":5.37683,"is_reserved":false,"is_disabled":false,"rental_uris":{"android":"levelo://app?vid=c83e935b-fd87-47b2-a778-ed3e19aa9378","ios":"levelo://app?vid=c83e935b-fd87-47b2-a778-ed3e19aa9378"},"vehicle_type_id":"4","last_reported":1745324356,"current_range_meters":18800,"station_id":"ce4bguh2rcd13ifvqcj0","pricing_plan_id":"cebpf4jnsgd1na2vs0mg"},{"bike_id":"d26aecca-5b94-4bac-9927-82be229216f1","system_id":"levelo_inurba_marseille","lat":43.32108,"lon":5.36802,"is_reserved":false,"is_disabled":false,"rental_uris":{"android":"levelo://app?vid=d26aecca-5b94-4bac-9927-82be229216f1","ios":"levelo://app?vid=d26aecca-5b94-4bac-9927-82be229216f1"},"vehicle_type_id":"4","last_reported":1745324356,"current_range_meters":18800,"station_id":"ce4bhrh2rcd13ifvqhug","pricing_plan_id":"cebpf4jnsgd1na2vs0mg"},{"bike_id":"44eeaccc-4ac2-4618-9928-903c502ff9d3","system_id":"levelo_inurba_marseille","lat":43.29639,"lon":5.38062,"is_reserved":false,"is_disabled":false,"rental_uris":{"android":"levelo://app?vid=44eeaccc-4ac2-4618-9928-903c502ff9d3","ios":"levelo://app?vid=44eeaccc-4ac2-4618-9928-903c502ff9d3"},"vehicle_type_id":"4","last_reported":1745324356,"current_range_meters":18800,"station_id":"ce4bgl12rcd13ifvqbo0","pricing_plan_id":"cebpf4jnsgd1na2vs0mg"},{"bike_id":"691d4967-8242-4f0b-9d11-bf1a891b5481","system_id":"levelo_inurba_marseille","lat":43.27496,"lon":5.42451,"is_reserved":false,"is_disabled":false,"rental_uris":{"android":"levelo://app?vid=691d4967-8242-4f0b-9d11-bf1a891b5481","ios":"levelo://app?vid=691d4967-8242-4f0b-9d11-bf1a891b5481"},"vehicle_type_id":"4","last_reported":1745324356,"current_range_meters":19200,"station_id":"ce4bhn92rcd13ifvqgrg","pricing_plan_id":"cebpf4jnsgd1na2vs0mg"},{"bike_id":"b117bdf4-0f12-4527-9f44-81cc95a57eb1","system_id":"levelo_inurba_marseille","lat":43.30145,"lon":5.38082,"is_reserved":false,"is_disabled":false,"rental_uris":{"android":"levelo://app?vid=b117bdf4-0f12-4527-9f44-81cc95a57eb1","ios":"levelo://app?vid=b117bdf4-0f12-4527-9f44-81cc95a57eb1"},"vehicle_type_id":"4","last_reported":1745324356,"current_range_meters":19200,"station_id":"ce4bgjp2rcd13ifvqbh0","pricing_plan_id":"cebpf4jnsgd1na2vs0mg"},{"bike_id":"427f805e-cfba-4025-b510-ca1d8419f957","system_id":"levelo_inurba_marseille","lat":43.314884,"lon":5.373076,"is_reserved":false,"is_disabled":false,"rental_uris":{"android":"levelo://app?vid=427f805e-cfba-4025-b510-ca1d8419f957","ios":"levelo://app?vid=427f805e-cfba-4025-b510-ca1d8419f957"},"vehicle_type_id":"4","last_reported":1745324356,"current_range_meters":19200,"station_id":"ce4bgt12rcd13ifvqcd0","pricing_plan_id":"cebpf4jnsgd1na2vs0mg"},{"bike_id":"1b7a31de-6f8b-44f3-ac24-0d4a0f66fbb7","system_id":"levelo_inurba_marseille","lat":43.30585,"lon":5.39347,"is_reserved":false,"is_disabled":false,"rental_uris":{"android":"levelo://app?vid=1b7a31de-6f8b-44f3-ac24-0d4a0f66fbb7","ios":"levelo://app?vid=1b7a31de-6f8b-44f3-ac24-0d4a0f66fbb7"},"vehicle_type_id":"4","last_reported":1745324356,"current_range_meters":19200,"station_id":"ce4bh0p2rcd13ifvqd80","pricing_plan_id":"cebpf4jnsgd1na2vs0mg"},{"bike_id":"a695e627-99c1-4948-b2fe-f76965bfb2a0","system_id":"levelo_inurba_marseille","lat":43.21751,"lon":5.34604,"is_reserved":false,"is_disabled":false,"rental_uris":{"android":"levelo://app?vid=a695e627-99c1-4948-b2fe-f76965bfb2a0","ios":"levelo://app?vid=a695e627-99c1-4948-b2fe-f76965bfb2a0"},"vehicle_type_id":"4","last_reported":1745324356,"current_range_meters":19200,"station_id":"","pricing_plan_id":"cebpf4jnsgd1na2vs0mg"},{"bike_id":"84cc6382-570a-48e1-95cf-2056bb88a115","system_id":"levelo_inurba_marseille","lat":43.327437,"lon":5.392083,"is_reserved":false,"is_disabled":false,"rental_uris":{"android":"levelo://app?vid=84cc6382-570a-48e1-95cf-2056bb88a115","ios":"levelo://app?vid=84cc6382-570a-48e1-95cf-2056bb88a115"},"vehicle_type_id":"4","last_reported":1745324356,"current_range_meters":19200,"station_id":"","pricing_plan_id":"cebpf4jnsgd1na2vs0mg"},{"bike_id":"3b823fab-22a8-4c02-9ac2-9d77227daa1a","system_id":"levelo_inurba_marseille","lat":43.25935,"lon":5.40902,"is_reserved":false,"is_disabled":false,"rental_uris":{"android":"levelo://app?vid=3b823fab-22a8-4c02-9ac2-9d77227daa1a","ios":"levelo://app?vid=3b823fab-22a8-4c02-9ac2-9d77227daa1a"},"vehicle_type_id":"4","last_reported":1745324356,"current_range_meters":19200,"station_id":"ce4bhm92rcd13ifvqglg","pricing_plan_id":"cebpf4jnsgd1na2vs0mg"},{"bike_id":"5964a1b2-90d3-4c6b-9582-9d4b80a6d24d","system_id":"levelo_inurba_marseille","lat":43.3211,"lon":5.36771,"is_reserved":false,"is_disabled":false,"rental_uris":{"android":"levelo://app?vid=5964a1b2-90d3-4c6b-9582-9d4b80a6d24d","ios":"levelo://app?vid=5964a1b2-90d3-4c6b-9582-9d4b80a6d24d"},"vehicle_type_id":"4","last_reported":1745324356,"current_range_meters":19600,"station_id":"ce4bhrh2rcd13ifvqhug","pricing_plan_id":"cebpf4jnsgd1na2vs0mg"},{"bike_id":"a1835b16-9e05-4b53-baf5-10eeb04320bb","system_id":"levelo_inurba_marseille","lat":43.28699,"lon":5.37398,"is_reserved":false,"is_disabled":true,"rental_uris":{"android":"levelo://app?vid=a1835b16-9e05-4b53-baf5-10eeb04320bb","ios":"levelo://app?vid=a1835b16-9e05-4b53-baf5-10eeb04320bb"},"vehicle_type_id":"4","last_reported":1745324356,"current_range_meters":19600,"station_id":"ce4bh3p2rcd13ifvqdq0","pricing_plan_id":"cebpf4jnsgd1na2vs0mg"},{"bike_id":"5292f775-aa53-42a8-a3e0-c63e6f16af9d","system_id":"levelo_inurba_marseille","lat":43.31494,"lon":5.37278,"is_reserved":false,"is_disabled":false,"rental_uris":{"android":"levelo://app?vid=5292f775-aa53-42a8-a3e0-c63e6f16af9d","ios":"levelo://app?vid=5292f775-aa53-42a8-a3e0-c63e6f16af9d"},"vehicle_type_id":"4","last_reported":1745324356,"current_range_meters":19600,"station_id":"ce4bgt12rcd13ifvqcd0","pricing_plan_id":"cebpf4jnsgd1na2vs0mg"},{"bike_id":"71b97e0a-4770-45bf-b46a-ce28eb35185c","system_id":"levelo_inurba_marseille","lat":43.28682,"lon":5.38667,"is_reserved":false,"is_disabled":false,"rental_uris":{"android":"levelo://app?vid=71b97e0a-4770-45bf-b46a-ce28eb35185c","ios":"levelo://app?vid=71b97e0a-4770-45bf-b46a-ce28eb35185c"},"vehicle_type_id":"4","last_reported":1745324356,"current_range_meters":19600,"station_id":"ce4bh492rcd13ifvqdug","pricing_plan_id":"cebpf4jnsgd1na2vs0mg"},{"bike_id":"6382d094-23f2-4d1e-9fc5-0b03894a7c4d","system_id":"levelo_inurba_marseille","lat":43.30414,"lon":5.3975,"is_reserved":false,"is_disabled":true,"rental_uris":{"android":"levelo://app?vid=6382d094-23f2-4d1e-9fc5-0b03894a7c4d","ios":"levelo://app?vid=6382d094-23f2-4d1e-9fc5-0b03894a7c4d"},"vehicle_type_id":"4","last_reported":1745324356,"current_range_meters":19600,"station_id":"ce4bh092rcd13ifvqd20","pricing_plan_id":"cebpf4jnsgd1na2vs0mg"},{"bike_id":"1c86c1a3-2ae0-43f2-98b2-bbf4f09bcf2d","system_id":"levelo_inurba_marseille","lat":43.28465,"lon":5.38539,"is_reserved":false,"is_disabled":false,"rental_uris":{"android":"levelo://app?vid=1c86c1a3-2ae0-43f2-98b2-bbf4f09bcf2d","ios":"levelo://app?vid=1c86c1a3-2ae0-43f2-98b2-bbf4f09bcf2d"},"vehicle_type_id":"4","last_reported":1745324356,"current_range_meters":19600,"station_id":"ce4bh8p2rcd13ifvqeb0","pricing_plan_id":"cebpf4jnsgd1na2vs0mg"},{"bike_id":"e526d622-8e31-4692-ae4a-4e5ec0008660","system_id":"levelo_inurba_marseille","lat":43.29635,"lon":5.40604,"is_reserved":false,"is_disabled":false,"rental_uris":{"android":"levelo://app?vid=e526d622-8e31-4692-ae4a-4e5ec0008660","ios":"levelo://app?vid=e526d622-8e31-4692-ae4a-4e5ec0008660"},"vehicle_type_id":"4","last_reported":1745324356,"current_range_meters":19600,"station_id":"ce4bh0h2rcd13ifvqd60","pricing_plan_id":"cebpf4jnsgd1na2vs0mg"},{"bike_id":"85486f4c-39d9-4f1b-85fb-e11771825f95","system_id":"levelo_inurba_marseille","lat":43.30145,"lon":5.37425,"is_reserved":false,"is_disabled":false,"rental_uris":{"android":"levelo://app?vid=85486f4c-39d9-4f1b-85fb-e11771825f95","ios":"levelo://app?vid=85486f4c-39d9-4f1b-85fb-e11771825f95"},"vehicle_type_id":"4","last_reported":1745324356,"current_range_meters":19600,"station_id":"ce4bgs92rcd13ifvqcc0","pricing_plan_id":"cebpf4jnsgd1na2vs0mg"},{"bike_id":"f9edd094-c59c-4d80-96b2-7f66d5afbeb7","system_id":"levelo_inurba_marseille","lat":43.25724,"lon":5.41125,"is_reserved":false,"is_disabled":false,"rental_uris":{"android":"levelo://app?vid=f9edd094-c59c-4d80-96b2-7f66d5afbeb7","ios":"levelo://app?vid=f9edd094-c59c-4d80-96b2-7f66d5afbeb7"},"vehicle_type_id":"4","last_reported":1745324356,"current_range_meters":19600,"station_id":"ce4bhkp2rcd13ifvqgd0","pricing_plan_id":"cebpf4jnsgd1na2vs0mg"},{"bike_id":"819b369d-4fed-4b29-a6b1-6d29cde31d5f","system_id":"levelo_inurba_marseille","lat":43.23967,"lon":5.36638,"is_reserved":false,"is_disabled":false,"rental_uris":{"android":"levelo://app?vid=819b369d-4fed-4b29-a6b1-6d29cde31d5f","ios":"levelo://app?vid=819b369d-4fed-4b29-a6b1-6d29cde31d5f"},"vehicle_type_id":"4","last_reported":1745324356,"current_range_meters":19600,"station_id":"ce4bhi12rcd13ifvqfp0","pricing_plan_id":"cebpf4jnsgd1na2vs0mg"},{"bike_id":"09f5d2a2-6a81-4c3a-9b8d-8cc70c1d91ab","system_id":"levelo_inurba_marseille","lat":43.262,"lon":5.37931,"is_reserved":false,"is_disabled":false,"rental_uris":{"android":"levelo://app?vid=09f5d2a2-6a81-4c3a-9b8d-8cc70c1d91ab","ios":"levelo://app?vid=09f5d2a2-6a81-4c3a-9b8d-8cc70c1d91ab"},"vehicle_type_id":"4","last_reported":1745324356,"current_range_meters":19600,"station_id":"ce4bhjp2rcd13ifvqg90","pricing_plan_id":"cebpf4jnsgd1na2vs0mg"},{"bike_id":"56d8397f-f23b-4685-ac33-ab758c9a9e69","system_id":"levelo_inurba_marseille","lat":43.29457,"lon":5.39755,"is_reserved":false,"is_disabled":false,"rental_uris":{"android":"levelo://app?vid=56d8397f-f23b-4685-ac33-ab758c9a9e69","ios":"levelo://app?vid=56d8397f-f23b-4685-ac33-ab758c9a9e69"},"vehicle_type_id":"4","last_reported":1745324356,"current_range_meters":20000,"station_id":"ce4bh3h2rcd13ifvqdo0","pricing_plan_id":"cebpf4jnsgd1na2vs0mg"},{"bike_id":"efeccc3e-fd5e-4745-bce7-2e7c8b823eaa","system_id":"levelo_inurba_marseille","lat":43.255022,"lon":5.376474,"is_reserved":false,"is_disabled":false,"rental_uris":{"android":"levelo://app?vid=efeccc3e-fd5e-4745-bce7-2e7c8b823eaa","ios":"levelo://app?vid=efeccc3e-fd5e-4745-bce7-2e7c8b823eaa"},"vehicle_type_id":"4","last_reported":1745324356,"current_range_meters":19600,"station_id":"ce4bhh12rcd13ifvqff0","pricing_plan_id":"cebpf4jnsgd1na2vs0mg"},{"bike_id":"50373b17-5e3f-42d2-b52b-4e1279f55e47","system_id":"levelo_inurba_marseille","lat":43.298,"lon":5.38092,"is_reserved":false,"is_disabled":false,"rental_uris":{"android":"levelo://app?vid=50373b17-5e3f-42d2-b52b-4e1279f55e47","ios":"levelo://app?vid=50373b17-5e3f-42d2-b52b-4e1279f55e47"},"vehicle_type_id":"4","last_reported":1745324356,"current_range_meters":20000,"station_id":"ce4bgip2rcd13ifvqbb0","pricing_plan_id":"cebpf4jnsgd1na2vs0mg"},{"bike_id":"c18c8473-d4fc-4762-9578-39d579a9f0bb","system_id":"levelo_inurba_marseille","lat":43.2929,"lon":5.37482,"is_reserved":false,"is_disabled":false,"rental_uris":{"android":"levelo://app?vid=c18c8473-d4fc-4762-9578-39d579a9f0bb","ios":"levelo://app?vid=c18c8473-d4fc-4762-9578-39d579a9f0bb"},"vehicle_type_id":"4","last_reported":1745324356,"current_range_meters":20000,"station_id":"ce4bgi12rcd13ifvqb70","pricing_plan_id":"cebpf4jnsgd1na2vs0mg"},{"bike_id":"e7a535f8-ed78-40de-8cdc-f8a1d2d90b31","system_id":"levelo_inurba_marseille","lat":43.24809,"lon":5.37451,"is_reserved":false,"is_disabled":true,"rental_uris":{"android":"levelo://app?vid=e7a535f8-ed78-40de-8cdc-f8a1d2d90b31","ios":"levelo://app?vid=e7a535f8-ed78-40de-8cdc-f8a1d2d90b31"},"vehicle_type_id":"4","last_reported":1745324356,"current_range_meters":20000,"station_id":"ce4bhgh2rcd13ifvqfb0","pricing_plan_id":"cebpf4jnsgd1na2vs0mg"},{"bike_id":"5d6ce0cf-9f03-41a4-849f-504bf29dfe65","system_id":"levelo_inurba_marseille","lat":43.21753,"lon":5.34601,"is_reserved":false,"is_disabled":false,"rental_uris":{"android":"levelo://app?vid=5d6ce0cf-9f03-41a4-849f-504bf29dfe65","ios":"levelo://app?vid=5d6ce0cf-9f03-41a4-849f-504bf29dfe65"},"vehicle_type_id":"4","last_reported":1745324356,"current_range_meters":20000,"station_id":"st_cvj6r9ubvosntc0bgbag","pricing_plan_id":"cebpf4jnsgd1na2vs0mg"},{"bike_id":"20ede925-27e6-407f-8bf5-4c244f8341b4","system_id":"levelo_inurba_marseille","lat":43.24179,"lon":5.36398,"is_reserved":false,"is_disabled":false,"rental_uris":{"android":"levelo://app?vid=20ede925-27e6-407f-8bf5-4c244f8341b4","ios":"levelo://app?vid=20ede925-27e6-407f-8bf5-4c244f8341b4"},"vehicle_type_id":"4","last_reported":1745324356,"current_range_meters":20400,"station_id":"cpo36qri1sfpv3e86is0","pricing_plan_id":"cebpf4jnsgd1na2vs0mg"},{"bike_id":"b5d609bf-0c9b-49e3-9426-ce02cb8383b8","system_id":"levelo_inurba_marseille","lat":43.341441,"lon":5.409152,"is_reserved":false,"is_disabled":true,"rental_uris":{"android":"levelo://app?vid=b5d609bf-0c9b-49e3-9426-ce02cb8383b8","ios":"levelo://app?vid=b5d609bf-0c9b-49e3-9426-ce02cb8383b8"},"vehicle_type_id":"4","last_reported":1745324356,"current_range_meters":20400,"station_id":"ce4bhqh2rcd13ifvqhlg","pricing_plan_id":"cebpf4jnsgd1na2vs0mg"},{"bike_id":"8ed1d241-5cdb-4e39-b958-43e9cc36b4c0","system_id":"levelo_inurba_marseille","lat":43.29568,"lon":5.37502,"is_reserved":false,"is_disabled":false,"rental_uris":{"android":"levelo://app?vid=8ed1d241-5cdb-4e39-b958-43e9cc36b4c0","ios":"levelo://app?vid=8ed1d241-5cdb-4e39-b958-43e9cc36b4c0"},"vehicle_type_id":"4","last_reported":1745324356,"current_range_meters":20400,"station_id":"ce4bgh92rcd13ifvqb50","pricing_plan_id":"cebpf4jnsgd1na2vs0mg"},{"bike_id":"166cc5ab-1b93-454f-87c1-4b7d11b84389","system_id":"levelo_inurba_marseille","lat":43.29842,"lon":5.36265,"is_reserved":false,"is_disabled":false,"rental_uris":{"android":"levelo://app?vid=166cc5ab-1b93-454f-87c1-4b7d11b84389","ios":"levelo://app?vid=166cc5ab-1b93-454f-87c1-4b7d11b84389"},"vehicle_type_id":"4","last_reported":1745324356,"current_range_meters":20400,"station_id":"ce4bgpp2rcd13ifvqc3g","pricing_plan_id":"cebpf4jnsgd1na2vs0mg"},{"bike_id":"4daf293c-27fa-4fd3-9732-b781377f0dd2","system_id":"levelo_inurba_marseille","lat":43.31533,"lon":5.3803,"is_reserved":false,"is_disabled":true,"rental_uris":{"android":"levelo://app?vid=4daf293c-27fa-4fd3-9732-b781377f0dd2","ios":"levelo://app?vid=4daf293c-27fa-4fd3-9732-b781377f0dd2"},"vehicle_type_id":"4","last_reported":1745324356,"current_range_meters":20400,"station_id":"ce4bhsp2rcd13ifvqi50","pricing_plan_id":"cebpf4jnsgd1na2vs0mg"},{"bike_id":"b43cf201-4686-4981-94c7-f1edbcfab4ea","system_id":"levelo_inurba_marseille","lat":43.2827,"lon":5.35051,"is_reserved":false,"is_disabled":false,"rental_uris":{"android":"levelo://app?vid=b43cf201-4686-4981-94c7-f1edbcfab4ea","ios":"levelo://app?vid=b43cf201-4686-4981-94c7-f1edbcfab4ea"},"vehicle_type_id":"4","last_reported":1745324356,"current_range_meters":20400,"station_id":"ce4bhbp2rcd13ifvqerg","pricing_plan_id":"cebpf4jnsgd1na2vs0mg"},{"bike_id":"34852179-f4c2-4e75-9479-989895fa6c8a","system_id":"levelo_inurba_marseille","lat":43.25007,"lon":5.3893,"is_reserved":false,"is_disabled":false,"rental_uris":{"android":"levelo://app?vid=34852179-f4c2-4e75-9479-989895fa6c8a","ios":"levelo://app?vid=34852179-f4c2-4e75-9479-989895fa6c8a"},"vehicle_type_id":"4","last_reported":1745324356,"current_range_meters":20400,"station_id":"ce4bhgp2rcd13ifvqfd0","pricing_plan_id":"cebpf4jnsgd1na2vs0mg"},{"bike_id":"358b09b8-8e61-479c-b3d4-2c31bc3ad0cf","system_id":"levelo_inurba_marseille","lat":43.29104,"lon":5.3816,"is_reserved":false,"is_disabled":false,"rental_uris":{"android":"levelo://app?vid=358b09b8-8e61-479c-b3d4-2c31bc3ad0cf","ios":"levelo://app?vid=358b09b8-8e61-479c-b3d4-2c31bc3ad0cf"},"vehicle_type_id":"4","last_reported":1745324356,"current_range_meters":20800,"station_id":"ce4bh512rcd13ifvqe2g","pricing_plan_id":"cebpf4jnsgd1na2vs0mg"},{"bike_id":"b7caec16-f957-4c36-a59d-1b4d7d7cee24","system_id":"levelo_inurba_marseille","lat":43.29171,"lon":5.37151,"is_reserved":false,"is_disabled":false,"rental_uris":{"android":"levelo://app?vid=b7caec16-f957-4c36-a59d-1b4d7d7cee24","ios":"levelo://app?vid=b7caec16-f957-4c36-a59d-1b4d7d7cee24"},"vehicle_type_id":"4","last_reported":1745324356,"current_range_meters":20800,"station_id":"ce4bha92rcd13ifvqeh0","pricing_plan_id":"cebpf4jnsgd1na2vs0mg"},{"bike_id":"46374c49-3adc-4c5a-8966-e00f056c0d57","system_id":"levelo_inurba_marseille","lat":43.27846,"lon":5.35442,"is_reserved":false,"is_disabled":false,"rental_uris":{"android":"levelo://app?vid=46374c49-3adc-4c5a-8966-e00f056c0d57","ios":"levelo://app?vid=46374c49-3adc-4c5a-8966-e00f056c0d57"},"vehicle_type_id":"4","last_reported":1745324356,"current_range_meters":20800,"station_id":"","pricing_plan_id":"cebpf4jnsgd1na2vs0mg"},{"bike_id":"214395fd-857a-4a0e-809e-ea5d97671a18","system_id":"levelo_inurba_marseille","lat":43.21191,"lon":5.35077,"is_reserved":false,"is_disabled":false,"rental_uris":{"android":"levelo://app?vid=214395fd-857a-4a0e-809e-ea5d97671a18","ios":"levelo://app?vid=214395fd-857a-4a0e-809e-ea5d97671a18"},"vehicle_type_id":"4","last_reported":1745324356,"current_range_meters":20800,"station_id":"st_cvj6sg6p6f1abm77japg","pricing_plan_id":"cebpf4jnsgd1na2vs0mg"},{"bike_id":"f9dd9794-b14b-4ca6-8acc-42487c6877aa","system_id":"levelo_inurba_marseille","lat":43.21194,"lon":5.35081,"is_reserved":false,"is_disabled":false,"rental_uris":{"android":"levelo://app?vid=f9dd9794-b14b-4ca6-8acc-42487c6877aa","ios":"levelo://app?vid=f9dd9794-b14b-4ca6-8acc-42487c6877aa"},"vehicle_type_id":"4","last_reported":1745324356,"current_range_meters":20800,"station_id":"st_cvj6sg6p6f1abm77japg","pricing_plan_id":"cebpf4jnsgd1na2vs0mg"},{"bike_id":"bf6ca091-b73c-412e-a4b3-02769485dd16","system_id":"levelo_inurba_marseille","lat":43.29631,"lon":5.40602,"is_reserved":false,"is_disabled":false,"rental_uris":{"android":"levelo://app?vid=bf6ca091-b73c-412e-a4b3-02769485dd16","ios":"levelo://app?vid=bf6ca091-b73c-412e-a4b3-02769485dd16"},"vehicle_type_id":"4","last_reported":1745324356,"current_range_meters":20800,"station_id":"ce4bh0h2rcd13ifvqd60","pricing_plan_id":"cebpf4jnsgd1na2vs0mg"},{"bike_id":"5c004ac8-d034-4b2b-b931-a6133c8cbd81","system_id":"levelo_inurba_marseille","lat":43.25855,"lon":5.39898,"is_reserved":false,"is_disabled":false,"rental_uris":{"android":"levelo://app?vid=5c004ac8-d034-4b2b-b931-a6133c8cbd81","ios":"levelo://app?vid=5c004ac8-d034-4b2b-b931-a6133c8cbd81"},"vehicle_type_id":"4","last_reported":1745324356,"current_range_meters":20800,"station_id":"ce4bhl92rcd13ifvqghg","pricing_plan_id":"cebpf4jnsgd1na2vs0mg"},{"bike_id":"72230011-10be-4bc5-b812-e255d2e856f3","system_id":"levelo_inurba_marseille","lat":43.27369,"lon":5.36255,"is_reserved":false,"is_disabled":false,"rental_uris":{"android":"levelo://app?vid=72230011-10be-4bc5-b812-e255d2e856f3","ios":"levelo://app?vid=72230011-10be-4bc5-b812-e255d2e856f3"},"vehicle_type_id":"4","last_reported":1745324356,"current_range_meters":21600,"station_id":"","pricing_plan_id":"cebpf4jnsgd1na2vs0mg"},{"bike_id":"82ece443-e86f-4979-8161-a9e0ea738956","system_id":"levelo_inurba_marseille","lat":43.26788,"lon":5.39425,"is_reserved":false,"is_disabled":false,"rental_uris":{"android":"levelo://app?vid=82ece443-e86f-4979-8161-a9e0ea738956","ios":"levelo://app?vid=82ece443-e86f-4979-8161-a9e0ea738956"},"vehicle_type_id":"4","last_reported":1745324356,"current_range_meters":21600,"station_id":"ce4bhh12rcd13ifvqfg0","pricing_plan_id":"cebpf4jnsgd1na2vs0mg"},{"bike_id":"0a4d248a-6043-453b-97d7-2dc7d9222f40","system_id":"levelo_inurba_marseille","lat":43.31174,"lon":5.38722,"is_reserved":false,"is_disabled":false,"rental_uris":{"android":"levelo://app?vid=0a4d248a-6043-453b-97d7-2dc7d9222f40","ios":"levelo://app?vid=0a4d248a-6043-453b-97d7-2dc7d9222f40"},"vehicle_type_id":"4","last_reported":1745324356,"current_range_meters":20800,"station_id":"ce4bgv12rcd13ifvqcp0","pricing_plan_id":"cebpf4jnsgd1na2vs0mg"},{"bike_id":"08de3a55-a4fc-41fc-b04a-f8893f6c9089","system_id":"levelo_inurba_marseille","lat":43.30873,"lon":5.39631,"is_reserved":false,"is_disabled":false,"rental_uris":{"android":"levelo://app?vid=08de3a55-a4fc-41fc-b04a-f8893f6c9089","ios":"levelo://app?vid=08de3a55-a4fc-41fc-b04a-f8893f6c9089"},"vehicle_type_id":"4","last_reported":1745324356,"current_range_meters":21600,"station_id":"ce4bh012rcd13ifvqcv0","pricing_plan_id":"cebpf4jnsgd1na2vs0mg"},{"bike_id":"057ecee1-8707-4c50-b9f5-50ccc6147b4e","system_id":"levelo_inurba_marseille","lat":43.32365,"lon":5.389,"is_reserved":false,"is_disabled":false,"rental_uris":{"android":"levelo://app?vid=057ecee1-8707-4c50-b9f5-50ccc6147b4e","ios":"levelo://app?vid=057ecee1-8707-4c50-b9f5-50ccc6147b4e"},"vehicle_type_id":"4","last_reported":1745324356,"current_range_meters":21600,"station_id":"ce4bhqp2rcd13ifvqhog","pricing_plan_id":"cebpf4jnsgd1na2vs0mg"},{"bike_id":"ee82d4df-42a9-4d21-a1e4-7d3bdfc18b64","system_id":"levelo_inurba_marseille","lat":43.30539,"lon":5.36698,"is_reserved":false,"is_disabled":false,"rental_uris":{"android":"levelo://app?vid=ee82d4df-42a9-4d21-a1e4-7d3bdfc18b64","ios":"levelo://app?vid=ee82d4df-42a9-4d21-a1e4-7d3bdfc18b64"},"vehicle_type_id":"4","last_reported":1745324356,"current_range_meters":21600,"station_id":"ce4bgrp2rcd13ifvqc9g","pricing_plan_id":"cebpf4jnsgd1na2vs0mg"},{"bike_id":"39d23eeb-296a-4797-bbd4-4ff9e744dcff","system_id":"levelo_inurba_marseille","lat":43.30883,"lon":5.39647,"is_reserved":false,"is_disabled":false,"rental_uris":{"android":"levelo://app?vid=39d23eeb-296a-4797-bbd4-4ff9e744dcff","ios":"levelo://app?vid=39d23eeb-296a-4797-bbd4-4ff9e744dcff"},"vehicle_type_id":"4","last_reported":1745324356,"current_range_meters":22000,"station_id":"ce4bh012rcd13ifvqcv0","pricing_plan_id":"cebpf4jnsgd1na2vs0mg"},{"bike_id":"9d18a2a7-6c35-42d3-a0f2-8976e38d4bd8","system_id":"levelo_inurba_marseille","lat":43.28352,"lon":5.38092,"is_reserved":false,"is_disabled":false,"rental_uris":{"android":"levelo://app?vid=9d18a2a7-6c35-42d3-a0f2-8976e38d4bd8","ios":"levelo://app?vid=9d18a2a7-6c35-42d3-a0f2-8976e38d4bd8"},"vehicle_type_id":"4","last_reported":1745324356,"current_range_meters":22000,"station_id":"ce4bh412rcd13ifvqdr0","pricing_plan_id":"cebpf4jnsgd1na2vs0mg"},{"bike_id":"b5b3f3c2-a68c-460e-9a62-edad71c699f0","system_id":"levelo_inurba_marseille","lat":43.308776,"lon":5.396402,"is_reserved":false,"is_disabled":false,"rental_uris":{"android":"levelo://app?vid=b5b3f3c2-a68c-460e-9a62-edad71c699f0","ios":"levelo://app?vid=b5b3f3c2-a68c-460e-9a62-edad71c699f0"},"vehicle_type_id":"4","last_reported":1745324356,"current_range_meters":22000,"station_id":"ce4bh012rcd13ifvqcv0","pricing_plan_id":"cebpf4jnsgd1na2vs0mg"},{"bike_id":"1810c560-9153-48b2-a93f-5ec4b9db0e13","system_id":"levelo_inurba_marseille","lat":43.2408,"lon":5.37759,"is_reserved":false,"is_disabled":false,"rental_uris":{"android":"levelo://app?vid=1810c560-9153-48b2-a93f-5ec4b9db0e13","ios":"levelo://app?vid=1810c560-9153-48b2-a93f-5ec4b9db0e13"},"vehicle_type_id":"4","last_reported":1745324356,"current_range_meters":22000,"station_id":"ce4bhnp2rcd13ifvqgvg","pricing_plan_id":"cebpf4jnsgd1na2vs0mg"},{"bike_id":"8893bb8f-fbdb-4d0d-932d-b0dc71fee152","system_id":"levelo_inurba_marseille","lat":43.27494,"lon":5.42463,"is_reserved":false,"is_disabled":true,"rental_uris":{"android":"levelo://app?vid=8893bb8f-fbdb-4d0d-932d-b0dc71fee152","ios":"levelo://app?vid=8893bb8f-fbdb-4d0d-932d-b0dc71fee152"},"vehicle_type_id":"4","last_reported":1745324356,"current_range_meters":22000,"station_id":"ce4bhn92rcd13ifvqgrg","pricing_plan_id":"cebpf4jnsgd1na2vs0mg"},{"bike_id":"5125c90c-6869-44c5-8013-e7d8257e6334","system_id":"levelo_inurba_marseille","lat":43.29276,"lon":5.36853,"is_reserved":false,"is_disabled":false,"rental_uris":{"android":"levelo://app?vid=5125c90c-6869-44c5-8013-e7d8257e6334","ios":"levelo://app?vid=5125c90c-6869-44c5-8013-e7d8257e6334"},"vehicle_type_id":"4","last_reported":1745324356,"current_range_meters":22000,"station_id":"ce4bhbp2rcd13ifvqesg","pricing_plan_id":"cebpf4jnsgd1na2vs0mg"},{"bike_id":"c3fbaf4d-68c9-4114-8ac3-3eb82a26ae26","system_id":"levelo_inurba_marseille","lat":43.31334,"lon":5.39693,"is_reserved":false,"is_disabled":false,"rental_uris":{"android":"levelo://app?vid=c3fbaf4d-68c9-4114-8ac3-3eb82a26ae26","ios":"levelo://app?vid=c3fbaf4d-68c9-4114-8ac3-3eb82a26ae26"},"vehicle_type_id":"4","last_reported":1745324356,"current_range_meters":22000,"station_id":"ce4bgvp2rcd13ifvqcu0","pricing_plan_id":"cebpf4jnsgd1na2vs0mg"},{"bike_id":"e19fd26e-a2fe-4a11-b444-584dde1843b8","system_id":"levelo_inurba_marseille","lat":43.304721,"lon":5.40102,"is_reserved":false,"is_disabled":false,"rental_uris":{"android":"levelo://app?vid=e19fd26e-a2fe-4a11-b444-584dde1843b8","ios":"levelo://app?vid=e19fd26e-a2fe-4a11-b444-584dde1843b8"},"vehicle_type_id":"4","last_reported":1745324356,"current_range_meters":22000,"station_id":"ce4bh112rcd13ifvqda0","pricing_plan_id":"cebpf4jnsgd1na2vs0mg"},{"bike_id":"92c6c78a-dd46-4f49-b8d0-bdafb1ba42bb","system_id":"levelo_inurba_marseille","lat":43.2621,"lon":5.37439,"is_reserved":false,"is_disabled":false,"rental_uris":{"android":"levelo://app?vid=92c6c78a-dd46-4f49-b8d0-bdafb1ba42bb","ios":"levelo://app?vid=92c6c78a-dd46-4f49-b8d0-bdafb1ba42bb"},"vehicle_type_id":"4","last_reported":1745324356,"current_range_meters":22000,"station_id":"ce4bhgp2rcd13ifvqfc0","pricing_plan_id":"cebpf4jnsgd1na2vs0mg"},{"bike_id":"08895724-e046-4e0c-b2de-4cbc4bdf316d","system_id":"levelo_inurba_marseille","lat":43.23963,"lon":5.3662,"is_reserved":false,"is_disabled":false,"rental_uris":{"android":"levelo://app?vid=08895724-e046-4e0c-b2de-4cbc4bdf316d","ios":"levelo://app?vid=08895724-e046-4e0c-b2de-4cbc4bdf316d"},"vehicle_type_id":"4","last_reported":1745324356,"current_range_meters":22400,"station_id":"ce4bhi12rcd13ifvqfp0","pricing_plan_id":"cebpf4jnsgd1na2vs0mg"},{"bike_id":"47bb5ca8-1fa7-4077-9344-ccf97fb8cd14","system_id":"levelo_inurba_marseille","lat":43.2927,"lon":5.36858,"is_reserved":false,"is_disabled":false,"rental_uris":{"android":"levelo://app?vid=47bb5ca8-1fa7-4077-9344-ccf97fb8cd14","ios":"levelo://app?vid=47bb5ca8-1fa7-4077-9344-ccf97fb8cd14"},"vehicle_type_id":"4","last_reported":1745324356,"current_range_meters":22400,"station_id":"ce4bhbp2rcd13ifvqesg","pricing_plan_id":"cebpf4jnsgd1na2vs0mg"},{"bike_id":"4ce6133e-626b-4028-8a6e-208edce1a1f9","system_id":"levelo_inurba_marseille","lat":43.29507,"lon":5.37517,"is_reserved":false,"is_disabled":false,"rental_uris":{"android":"levelo://app?vid=4ce6133e-626b-4028-8a6e-208edce1a1f9","ios":"levelo://app?vid=4ce6133e-626b-4028-8a6e-208edce1a1f9"},"vehicle_type_id":"4","last_reported":1745324356,"current_range_meters":22400,"station_id":"ce4bgkp2rcd13ifvqbmg","pricing_plan_id":"cebpf4jnsgd1na2vs0mg"},{"bike_id":"072f7387-c5cc-4266-aadd-ad993e67aaa4","system_id":"levelo_inurba_marseille","lat":43.29723,"lon":5.36586,"is_reserved":false,"is_disabled":false,"rental_uris":{"android":"levelo://app?vid=072f7387-c5cc-4266-aadd-ad993e67aaa4","ios":"levelo://app?vid=072f7387-c5cc-4266-aadd-ad993e67aaa4"},"vehicle_type_id":"4","last_reported":1745324356,"current_range_meters":22400,"station_id":"ce4bgn12rcd13ifvqbt0","pricing_plan_id":"cebpf4jnsgd1na2vs0mg"},{"bike_id":"22dda939-b530-49af-837f-c70a9fe56061","system_id":"levelo_inurba_marseille","lat":43.25821,"lon":5.39428,"is_reserved":false,"is_disabled":false,"rental_uris":{"android":"levelo://app?vid=22dda939-b530-49af-837f-c70a9fe56061","ios":"levelo://app?vid=22dda939-b530-49af-837f-c70a9fe56061"},"vehicle_type_id":"4","last_reported":1745324356,"current_range_meters":22400,"station_id":"ce4bhip2rcd13ifvqft0","pricing_plan_id":"cebpf4jnsgd1na2vs0mg"},{"bike_id":"9aa9e41b-031d-49b6-ad66-07d63ae33ef0","system_id":"levelo_inurba_marseille","lat":43.29277,"lon":5.36842,"is_reserved":false,"is_disabled":false,"rental_uris":{"android":"levelo://app?vid=9aa9e41b-031d-49b6-ad66-07d63ae33ef0","ios":"levelo://app?vid=9aa9e41b-031d-49b6-ad66-07d63ae33ef0"},"vehicle_type_id":"4","last_reported":1745324356,"current_range_meters":22400,"station_id":"ce4bhbp2rcd13ifvqesg","pricing_plan_id":"cebpf4jnsgd1na2vs0mg"},{"bike_id":"df17bd85-460c-491c-ad05-7a91bb512804","system_id":"levelo_inurba_marseille","lat":43.30753,"lon":5.36824,"is_reserved":false,"is_disabled":false,"rental_uris":{"android":"levelo://app?vid=df17bd85-460c-491c-ad05-7a91bb512804","ios":"levelo://app?vid=df17bd85-460c-491c-ad05-7a91bb512804"},"vehicle_type_id":"4","last_reported":1745324356,"current_range_meters":22800,"station_id":"","pricing_plan_id":"cebpf4jnsgd1na2vs0mg"},{"bike_id":"776b8307-40a4-429d-8c7f-e2d6ec516561","system_id":"levelo_inurba_marseille","lat":43.295771,"lon":5.373995,"is_reserved":false,"is_disabled":false,"rental_uris":{"android":"levelo://app?vid=776b8307-40a4-429d-8c7f-e2d6ec516561","ios":"levelo://app?vid=776b8307-40a4-429d-8c7f-e2d6ec516561"},"vehicle_type_id":"4","last_reported":1745324356,"current_range_meters":22800,"station_id":"ce4bhbp2rcd13ifvqesg","pricing_plan_id":"cebpf4jnsgd1na2vs0mg"},{"bike_id":"9b58597c-f4a0-45d2-b0bf-108365796820","system_id":"levelo_inurba_marseille","lat":43.30462,"lon":5.37918,"is_reserved":false,"is_disabled":false,"rental_uris":{"android":"levelo://app?vid=9b58597c-f4a0-45d2-b0bf-108365796820","ios":"levelo://app?vid=9b58597c-f4a0-45d2-b0bf-108365796820"},"vehicle_type_id":"4","last_reported":1745324356,"current_range_meters":22800,"station_id":"ce4bgup2rcd13ifvqcn0","pricing_plan_id":"cebpf4jnsgd1na2vs0mg"},{"bike_id":"ac53aa1e-f721-466d-8818-3eb2cb0365da","system_id":"levelo_inurba_marseille","lat":43.23964,"lon":5.3663,"is_reserved":false,"is_disabled":false,"rental_uris":{"android":"levelo://app?vid=ac53aa1e-f721-466d-8818-3eb2cb0365da","ios":"levelo://app?vid=ac53aa1e-f721-466d-8818-3eb2cb0365da"},"vehicle_type_id":"4","last_reported":1745324356,"current_range_meters":22800,"station_id":"ce4bhi12rcd13ifvqfp0","pricing_plan_id":"cebpf4jnsgd1na2vs0mg"},{"bike_id":"9181a354-49fa-45e3-b5c1-b7dca6746d38","system_id":"levelo_inurba_marseille","lat":43.25941,"lon":5.40906,"is_reserved":false,"is_disabled":false,"rental_uris":{"android":"levelo://app?vid=9181a354-49fa-45e3-b5c1-b7dca6746d38","ios":"levelo://app?vid=9181a354-49fa-45e3-b5c1-b7dca6746d38"},"vehicle_type_id":"4","last_reported":1745324356,"current_range_meters":22800,"station_id":"ce4bhm92rcd13ifvqglg","pricing_plan_id":"cebpf4jnsgd1na2vs0mg"},{"bike_id":"dfd6984a-22b3-4eb5-8aaf-fed204302649","system_id":"levelo_inurba_marseille","lat":43.30542,"lon":5.36538,"is_reserved":false,"is_disabled":false,"rental_uris":{"android":"levelo://app?vid=dfd6984a-22b3-4eb5-8aaf-fed204302649","ios":"levelo://app?vid=dfd6984a-22b3-4eb5-8aaf-fed204302649"},"vehicle_type_id":"4","last_reported":1745324356,"current_range_meters":22800,"station_id":"ce4bgs12rcd13ifvqcag","pricing_plan_id":"cebpf4jnsgd1na2vs0mg"},{"bike_id":"ac1db382-ef8a-4e6d-872b-99760272d17d","system_id":"levelo_inurba_marseille","lat":43.281,"lon":5.37848,"is_reserved":false,"is_disabled":true,"rental_uris":{"android":"levelo://app?vid=ac1db382-ef8a-4e6d-872b-99760272d17d","ios":"levelo://app?vid=ac1db382-ef8a-4e6d-872b-99760272d17d"},"vehicle_type_id":"4","last_reported":1745324356,"current_range_meters":23200,"station_id":"ce4bha12rcd13ifvqee0","pricing_plan_id":"cebpf4jnsgd1na2vs0mg"},{"bike_id":"0703e82f-161a-466f-b723-a02bda57e116","system_id":"levelo_inurba_marseille","lat":43.30122,"lon":5.39847,"is_reserved":false,"is_disabled":false,"rental_uris":{"android":"levelo://app?vid=0703e82f-161a-466f-b723-a02bda57e116","ios":"levelo://app?vid=0703e82f-161a-466f-b723-a02bda57e116"},"vehicle_type_id":"4","last_reported":1745324356,"current_range_meters":23200,"station_id":"ce4bh0h2rcd13ifvqd40","pricing_plan_id":"cebpf4jnsgd1na2vs0mg"},{"bike_id":"c8f89a24-1bc4-403b-bea9-2e1ac6a8e584","system_id":"levelo_inurba_marseille","lat":43.295349,"lon":5.385547,"is_reserved":false,"is_disabled":false,"rental_uris":{"android":"levelo://app?vid=c8f89a24-1bc4-403b-bea9-2e1ac6a8e584","ios":"levelo://app?vid=c8f89a24-1bc4-403b-bea9-2e1ac6a8e584"},"vehicle_type_id":"4","last_reported":1745324356,"current_range_meters":23200,"station_id":"ce4bhh12rcd13ifvqff0","pricing_plan_id":"cebpf4jnsgd1na2vs0mg"},{"bike_id":"0c1f2eb5-2bcc-4d10-a5cc-3ea9acf84b29","system_id":"levelo_inurba_marseille","lat":43.29976,"lon":5.38516,"is_reserved":false,"is_disabled":false,"rental_uris":{"android":"levelo://app?vid=0c1f2eb5-2bcc-4d10-a5cc-3ea9acf84b29","ios":"levelo://app?vid=0c1f2eb5-2bcc-4d10-a5cc-3ea9acf84b29"},"vehicle_type_id":"4","last_reported":1745324356,"current_range_meters":23200,"station_id":"ce4bgj92rcd13ifvqbd0","pricing_plan_id":"cebpf4jnsgd1na2vs0mg"},{"bike_id":"da2d93d1-7369-455a-8bc8-889964f78b55","system_id":"levelo_inurba_marseille","lat":43.30898,"lon":5.37214,"is_reserved":false,"is_disabled":false,"rental_uris":{"android":"levelo://app?vid=da2d93d1-7369-455a-8bc8-889964f78b55","ios":"levelo://app?vid=da2d93d1-7369-455a-8bc8-889964f78b55"},"vehicle_type_id":"4","last_reported":1745324356,"current_range_meters":23200,"station_id":"ce4bguh2rcd13ifvqckg","pricing_plan_id":"cebpf4jnsgd1na2vs0mg"},{"bike_id":"f31af33e-d088-4b1c-9b79-185d8a52bc2a","system_id":"levelo_inurba_marseille","lat":43.26494,"lon":5.39536,"is_reserved":false,"is_disabled":false,"rental_uris":{"android":"levelo://app?vid=f31af33e-d088-4b1c-9b79-185d8a52bc2a","ios":"levelo://app?vid=f31af33e-d088-4b1c-9b79-185d8a52bc2a"},"vehicle_type_id":"4","last_reported":1745324356,"current_range_meters":22800,"station_id":"ce4bhi12rcd13ifvqfq0","pricing_plan_id":"cebpf4jnsgd1na2vs0mg"},{"bike_id":"6a54add4-d908-43cb-b724-01e2ff30850f","system_id":"levelo_inurba_marseille","lat":43.29787,"lon":5.39351,"is_reserved":false,"is_disabled":false,"rental_uris":{"android":"levelo://app?vid=6a54add4-d908-43cb-b724-01e2ff30850f","ios":"levelo://app?vid=6a54add4-d908-43cb-b724-01e2ff30850f"},"vehicle_type_id":"4","last_reported":1745324356,"current_range_meters":23200,"station_id":"chh1huq6cuj3fo74tm60","pricing_plan_id":"cebpf4jnsgd1na2vs0mg"},{"bike_id":"5630f52d-0448-4fa0-94dd-5eaa69c05d03","system_id":"levelo_inurba_marseille","lat":43.27072,"lon":5.42291,"is_reserved":false,"is_disabled":false,"rental_uris":{"android":"levelo://app?vid=5630f52d-0448-4fa0-94dd-5eaa69c05d03","ios":"levelo://app?vid=5630f52d-0448-4fa0-94dd-5eaa69c05d03"},"vehicle_type_id":"4","last_reported":1745324356,"current_range_meters":24000,"station_id":"ce4bhk92rcd13ifvqgb0","pricing_plan_id":"cebpf4jnsgd1na2vs0mg"},{"bike_id":"bf03e054-d8c1-431d-b56f-74a5886bb78b","system_id":"levelo_inurba_marseille","lat":43.32481,"lon":5.36573,"is_reserved":false,"is_disabled":false,"rental_uris":{"android":"levelo://app?vid=bf03e054-d8c1-431d-b56f-74a5886bb78b","ios":"levelo://app?vid=bf03e054-d8c1-431d-b56f-74a5886bb78b"},"vehicle_type_id":"4","last_reported":1745324356,"current_range_meters":24000,"station_id":"ce4bhs12rcd13ifvqhvg","pricing_plan_id":"cebpf4jnsgd1na2vs0mg"},{"bike_id":"7be4e621-9e1a-46c7-9e33-567547fdd6b2","system_id":"levelo_inurba_marseille","lat":43.31494,"lon":5.37309,"is_reserved":false,"is_disabled":false,"rental_uris":{"android":"levelo://app?vid=7be4e621-9e1a-46c7-9e33-567547fdd6b2","ios":"levelo://app?vid=7be4e621-9e1a-46c7-9e33-567547fdd6b2"},"vehicle_type_id":"4","last_reported":1745324356,"current_range_meters":24000,"station_id":"ce4bgt12rcd13ifvqcd0","pricing_plan_id":"cebpf4jnsgd1na2vs0mg"},{"bike_id":"ae53b982-1b47-4927-bbd4-0e2340c281b4","system_id":"levelo_inurba_marseille","lat":43.268055,"lon":5.402656,"is_reserved":false,"is_disabled":false,"rental_uris":{"android":"levelo://app?vid=ae53b982-1b47-4927-bbd4-0e2340c281b4","ios":"levelo://app?vid=ae53b982-1b47-4927-bbd4-0e2340c281b4"},"vehicle_type_id":"4","last_reported":1745324356,"current_range_meters":24000,"station_id":"ce501612rcd8frsf0b60","pricing_plan_id":"cebpf4jnsgd1na2vs0mg"},{"bike_id":"2f7aa600-ad4a-40b4-abaa-c716bc6fa732","system_id":"levelo_inurba_marseille","lat":43.24078,"lon":5.37749,"is_reserved":false,"is_disabled":false,"rental_uris":{"android":"levelo://app?vid=2f7aa600-ad4a-40b4-abaa-c716bc6fa732","ios":"levelo://app?vid=2f7aa600-ad4a-40b4-abaa-c716bc6fa732"},"vehicle_type_id":"4","last_reported":1745324356,"current_range_meters":24000,"station_id":"ce4bhnp2rcd13ifvqgvg","pricing_plan_id":"cebpf4jnsgd1na2vs0mg"},{"bike_id":"3727d92d-c069-44a1-81bf-3d9b02fc37d8","system_id":"levelo_inurba_marseille","lat":43.2623,"lon":5.40454,"is_reserved":false,"is_disabled":false,"rental_uris":{"android":"levelo://app?vid=3727d92d-c069-44a1-81bf-3d9b02fc37d8","ios":"levelo://app?vid=3727d92d-c069-44a1-81bf-3d9b02fc37d8"},"vehicle_type_id":"4","last_reported":1745324356,"current_range_meters":24000,"station_id":"ce4bhmh2rcd13ifvqgmg","pricing_plan_id":"cebpf4jnsgd1na2vs0mg"},{"bike_id":"106bd907-72ad-48fa-9210-d314dbdf3a65","system_id":"levelo_inurba_marseille","lat":43.31348,"lon":5.36723,"is_reserved":false,"is_disabled":false,"rental_uris":{"android":"levelo://app?vid=106bd907-72ad-48fa-9210-d314dbdf3a65","ios":"levelo://app?vid=106bd907-72ad-48fa-9210-d314dbdf3a65"},"vehicle_type_id":"4","last_reported":1745324356,"current_range_meters":24000,"station_id":"ce4bgr92rcd13ifvqc6g","pricing_plan_id":"cebpf4jnsgd1na2vs0mg"},{"bike_id":"f9d12095-164c-44d6-8a4a-a72f6cec38c0","system_id":"levelo_inurba_marseille","lat":43.28032,"lon":5.36946,"is_reserved":false,"is_disabled":false,"rental_uris":{"android":"levelo://app?vid=f9d12095-164c-44d6-8a4a-a72f6cec38c0","ios":"levelo://app?vid=f9d12095-164c-44d6-8a4a-a72f6cec38c0"},"vehicle_type_id":"4","last_reported":1745324356,"current_range_meters":23200,"station_id":"ce4bha12rcd13ifvqef0","pricing_plan_id":"cebpf4jnsgd1na2vs0mg"},{"bike_id":"023130d7-098b-4ab9-ab02-56d4c1e32b0e","system_id":"levelo_inurba_marseille","lat":43.283503,"lon":5.380987,"is_reserved":false,"is_disabled":false,"rental_uris":{"android":"levelo://app?vid=023130d7-098b-4ab9-ab02-56d4c1e32b0e","ios":"levelo://app?vid=023130d7-098b-4ab9-ab02-56d4c1e32b0e"},"vehicle_type_id":"4","last_reported":1745324356,"current_range_meters":24000,"station_id":"ce4bh412rcd13ifvqdr0","pricing_plan_id":"cebpf4jnsgd1na2vs0mg"},{"bike_id":"bc270640-2a96-4c56-a07b-9499f1bfe591","system_id":"levelo_inurba_marseille","lat":43.23069,"lon":5.35472,"is_reserved":false,"is_disabled":false,"rental_uris":{"android":"levelo://app?vid=bc270640-2a96-4c56-a07b-9499f1bfe591","ios":"levelo://app?vid=bc270640-2a96-4c56-a07b-9499f1bfe591"},"vehicle_type_id":"4","last_reported":1745324356,"current_range_meters":24400,"station_id":"cpo3342slgdg3j2ifvpg","pricing_plan_id":"cebpf4jnsgd1na2vs0mg"},{"bike_id":"429059c6-4a58-4d8c-9c62-80798afb3a0f","system_id":"levelo_inurba_marseille","lat":43.29417,"lon":5.38624,"is_reserved":false,"is_disabled":false,"rental_uris":{"android":"levelo://app?vid=429059c6-4a58-4d8c-9c62-80798afb3a0f","ios":"levelo://app?vid=429059c6-4a58-4d8c-9c62-80798afb3a0f"},"vehicle_type_id":"4","last_reported":1745324356,"current_range_meters":24000,"station_id":"ce4bh2h2rcd13ifvqdh0","pricing_plan_id":"cebpf4jnsgd1na2vs0mg"},{"bike_id":"5c16190d-e8dc-424a-a310-ea6c1e6d7450","system_id":"levelo_inurba_marseille","lat":43.2593,"lon":5.40885,"is_reserved":false,"is_disabled":true,"rental_uris":{"android":"levelo://app?vid=5c16190d-e8dc-424a-a310-ea6c1e6d7450","ios":"levelo://app?vid=5c16190d-e8dc-424a-a310-ea6c1e6d7450"},"vehicle_type_id":"4","last_reported":1745324356,"current_range_meters":24400,"station_id":"ce4bhm92rcd13ifvqglg","pricing_plan_id":"cebpf4jnsgd1na2vs0mg"},{"bike_id":"ced85efe-6ea1-41f9-b37d-5368060afe27","system_id":"levelo_inurba_marseille","lat":43.260672,"lon":5.393972,"is_reserved":false,"is_disabled":true,"rental_uris":{"android":"levelo://app?vid=ced85efe-6ea1-41f9-b37d-5368060afe27","ios":"levelo://app?vid=ced85efe-6ea1-41f9-b37d-5368060afe27"},"vehicle_type_id":"4","last_reported":1745324356,"current_range_meters":24400,"station_id":"ce4bhh92rcd13ifvqfj0","pricing_plan_id":"cebpf4jnsgd1na2vs0mg"},{"bike_id":"2f8e3607-4113-484d-a492-d4b0cfa60e37","system_id":"levelo_inurba_marseille","lat":43.3378,"lon":5.37432,"is_reserved":false,"is_disabled":false,"rental_uris":{"android":"levelo://app?vid=2f8e3607-4113-484d-a492-d4b0cfa60e37","ios":"levelo://app?vid=2f8e3607-4113-484d-a492-d4b0cfa60e37"},"vehicle_type_id":"4","last_reported":1745324356,"current_range_meters":24800,"station_id":"","pricing_plan_id":"cebpf4jnsgd1na2vs0mg"},{"bike_id":"f8cb1d15-5d29-4b9c-a575-25a4b4385e54","system_id":"levelo_inurba_marseille","lat":43.28479,"lon":5.38561,"is_reserved":false,"is_disabled":false,"rental_uris":{"android":"levelo://app?vid=f8cb1d15-5d29-4b9c-a575-25a4b4385e54","ios":"levelo://app?vid=f8cb1d15-5d29-4b9c-a575-25a4b4385e54"},"vehicle_type_id":"4","last_reported":1745324356,"current_range_meters":24800,"station_id":"ce4bh8p2rcd13ifvqeb0","pricing_plan_id":"cebpf4jnsgd1na2vs0mg"},