{"last_updated":1692817441,"ttl":30,"version":"2.2","data":{"bikes":[{"bike_id":"f22ca441-4e4e-4660-b824-b2f46943e54d","system_id":"levelo_inurba_marseille","lat":43.31216,"lon":5.3686,"is_reserved":false,"is_disabled":false,"rental_uris":{"android":"levelo://app?vid=f22ca441-4e4e-4660-b824-b2f46943e54d","ios":"levelo://app?vid=f22ca441-4e4e-4660-b824-b2f46943e54d"},"vehicle_type_id":"4","last_reported":1692817442,"current_range_meters":31200,"station_id":"ce4bgl92rcd13ifvqbq0","pricing_plan_id":"free"},{"bike_id":"392cebcb-a644-4cda-a042-14725a38094a","system_id":"levelo_inurba_marseille","lat":43.314811,"lon":5.373104,"is_reserved":false,"is_disabled":false,"rental_uris":{"android":"levelo://app?vid=392cebcb-a644-4cda-a042-14725a38094a","ios":"levelo://app?vid=392cebcb-a644-4cda-a042-14725a38094a"},"vehicle_type_id":"4","last_reported":1692817442,"current_range_meters":16400,"station_id":"ce4bgt12rcd13ifvqcd0","pricing_plan_id":"free"},{"bike_id":"d2be997d-44d2-40a5-bb20-02aeaaf65fa5","system_id":"levelo_inurba_marseille","lat":43.314811,"lon":5.373103,"is_reserved":false,"is_disabled":false,"rental_uris":{"android":"levelo://app?vid=d2be997d-44d2-40a5-bb20-02aeaaf65fa5","ios":"levelo://app?vid=d2be997d-44d2-40a5-bb20-02aeaaf65fa5"},"vehicle_type_id":"4","last_reported":1692817442,"current_range_meters":31200,"station_id":"ce4bgt12rcd13ifvqcd0","pricing_plan_id":"free"},{"bike_id":"e708e1c2-27f3-43cb-8f03-3560e752cb12","system_id":"levelo_inurba_marseille","lat":43.305461,"lon":5.367419,"is_reserved":false,"is_disabled":false,"rental_uris":{"android":"levelo://app?vid=e708e1c2-27f3-43cb-8f03-3560e752cb12","ios":"levelo://app?vid=e708e1c2-27f3-43cb-8f03-3560e752cb12"},"vehicle_type_id":"4","last_reported":1692817442,"current_range_meters":10400,"station_id":"ce4bgrp2rcd13ifvqc9g","pricing_plan_id":"free"},{"bike_id":"9fbe6e18-d192-44c2-98b5-cafb68b41aa4","system_id":"levelo_inurba_marseille","lat":43.30529,"lon":5.36536,"is_reserved":false,"is_disabled":false,"rental_uris":{"android":"levelo://app?vid=9fbe6e18-d192-44c2-98b5-cafb68b41aa4","ios":"levelo://app?vid=9fbe6e18-d192-44c2-98b5-cafb68b41aa4"},"vehicle_type_id":"4","last_reported":1692817442,"current_range_meters":21600,"station_id":"ce4bgs12rcd13ifvqcag","pricing_plan_id":"free"},{"bike_id":"6774f260-113f-4170-bd4e-65309efc6d53","system_id":"levelo_inurba_marseille","lat":43.311125,"lon":5.377624,"is_reserved":false,"is_disabled":false,"rental_uris":{"android":"levelo://app?vid=6774f260-113f-4170-bd4e-65309efc6d53","ios":"levelo://app?vid=6774f260-113f-4170-bd4e-65309efc6d53"},"vehicle_type_id":"4","last_reported":1692817442,"current_range_meters":11600,"station_id":"ce4bgt92rcd13ifvqcg0","pricing_plan_id":"free"},{"bike_id":"874e34a8-80c1-4d79-8e18-aa1bd38adad4","system_id":"levelo_inurba_marseille","lat":43.317065,"lon":5.377313,"is_reserved":false,"is_disabled":false,"rental_uris":{"android":"levelo://app?vid=874e34a8-80c1-4d79-8e18-aa1bd38adad4","ios":"levelo://app?vid=874e34a8-80c1-4d79-8e18-aa1bd38adad4"},"vehicle_type_id":"4","last_reported":1692817442,"current_range_meters":0,"station_id":"ce4bgth2rcd13ifvqch0","pricing_plan_id":"free"},{"bike_id":"4de2ed2b-acb4-42c2-92d6-5c0560b51f7a","system_id":"levelo_inurba_marseille","lat":43.3171,"lon":5.37765,"is_reserved":false,"is_disabled":false,"rental_uris":{"android":"levelo://app?vid=4de2ed2b-acb4-42c2-92d6-5c0560b51f7a","ios":"levelo://app?vid=4de2ed2b-acb4-42c2-92d6-5c0560b51f7a"},"vehicle_type_id":"4","last_reported":1692817442,"current_range_meters":28000,"station_id":"ce4bgth2rcd13ifvqch0","pricing_plan_id":"free"},{"bike_id":"4c39a0f8-5a8f-4cfa-8d5d-8a9e0b59e3a2","system_id":"levelo_inurba_marseille","lat":43.3153,"lon":5.38024,"is_reserved":false,"is_disabled":false,"rental_uris":{"android":"levelo://app?vid=4c39a0f8-5a8f-4cfa-8d5d-8a9e0b59e3a2","ios":"levelo://app?vid=4c39a0f8-5a8f-4cfa-8d5d-8a9e0b59e3a2"},"vehicle_type_id":"4","last_reported":1692817442,"current_range_meters":24400,"station_id":"ce4bhsp2rcd13ifvqi50","pricing_plan_id":"free"},{"bike_id":"f7617620-71e6-4475-8764-3da894290be4","system_id":"levelo_inurba_marseille","lat":43.31527,"lon":5.38026,"is_reserved":false,"is_disabled":false,"rental_uris":{"android":"levelo://app?vid=f7617620-71e6-4475-8764-3da894290be4","ios":"levelo://app?vid=f7617620-71e6-4475-8764-3da894290be4"},"vehicle_type_id":"4","last_reported":1692817442,"current_range_meters":12800,"station_id":"ce4bhsp2rcd13ifvqi50","pricing_plan_id":"free"},{"bike_id":"3d23adab-1204-449e-a30e-1d9440c6f509","system_id":"levelo_inurba_marseille","lat":43.31527,"lon":5.38028,"is_reserved":false,"is_disabled":false,"rental_uris":{"android":"levelo://app?vid=3d23adab-1204-449e-a30e-1d9440c6f509","ios":"levelo://app?vid=3d23adab-1204-449e-a30e-1d9440c6f509"},"vehicle_type_id":"4","last_reported":1692817442,"current_range_meters":6800,"station_id":"ce4bhsp2rcd13ifvqi50","pricing_plan_id":"free"},{"bike_id":"5be708f1-9aa7-489a-b1f6-f4b2c5e6f6d5","system_id":"levelo_inurba_marseille","lat":43.31994,"lon":5.38141,"is_reserved":false,"is_disabled":false,"rental_uris":{"android":"levelo://app?vid=5be708f1-9aa7-489a-b1f6-f4b2c5e6f6d5","ios":"levelo://app?vid=5be708f1-9aa7-489a-b1f6-f4b2c5e6f6d5"},"vehicle_type_id":"4","last_reported":1692817442,"current_range_meters":21600,"station_id":"ce4bhr12rcd13ifvqhpg","pricing_plan_id":"free"},{"bike_id":"3e9f748d-b39e-4288-8442-f56132202fcd","system_id":"levelo_inurba_marseille","lat":43.29938,"lon":5.36551,"is_reserved":false,"is_disabled":false,"rental_uris":{"android":"levelo://app?vid=3e9f748d-b39e-4288-8442-f56132202fcd","ios":"levelo://app?vid=3e9f748d-b39e-4288-8442-f56132202fcd"},"vehicle_type_id":"4","last_reported":1692817442,"current_range_meters":14800,"station_id":"ce4bgm92rcd13ifvqbr0","pricing_plan_id":"free"},{"bike_id":"04959e42-6a35-4990-b546-92c2ebe1de37","system_id":"levelo_inurba_marseille","lat":43.29934,"lon":5.3656,"is_reserved":false,"is_disabled":false,"rental_uris":{"android":"levelo://app?vid=04959e42-6a35-4990-b546-92c2ebe1de37","ios":"levelo://app?vid=04959e42-6a35-4990-b546-92c2ebe1de37"},"vehicle_type_id":"4","last_reported":1692817442,"current_range_meters":2800,"station_id":"ce4bgm92rcd13ifvqbr0","pricing_plan_id":"free"},{"bike_id":"7f0b75a9-6d89-42d3-9de3-d4088a23d35e","system_id":"levelo_inurba_marseille","lat":43.299222,"lon":5.365554,"is_reserved":false,"is_disabled":false,"rental_uris":{"android":"levelo://app?vid=7f0b75a9-6d89-42d3-9de3-d4088a23d35e","ios":"levelo://app?vid=7f0b75a9-6d89-42d3-9de3-d4088a23d35e"},"vehicle_type_id":"4","last_reported":1692817442,"current_range_meters":26400,"station_id":"ce4bgm92rcd13ifvqbr0","pricing_plan_id":"free"},{"bike_id":"95dc9ecf-047e-4c3a-bb12-a5676cb36ad4","system_id":"levelo_inurba_marseille","lat":43.3216,"lon":5.38166,"is_reserved":false,"is_disabled":false,"rental_uris":{"android":"levelo://app?vid=95dc9ecf-047e-4c3a-bb12-a5676cb36ad4","ios":"levelo://app?vid=95dc9ecf-047e-4c3a-bb12-a5676cb36ad4"},"vehicle_type_id":"4","last_reported":1692817442,"current_range_meters":2400,"station_id":"","pricing_plan_id":"free"},{"bike_id":"42989e50-0939-4bae-81b6-53bdbc36ea46","system_id":"levelo_inurba_marseille","lat":43.298529,"lon":5.362802,"is_reserved":false,"is_disabled":false,"rental_uris":{"android":"levelo://app?vid=42989e50-0939-4bae-81b6-53bdbc36ea46","ios":"levelo://app?vid=42989e50-0939-4bae-81b6-53bdbc36ea46"},"vehicle_type_id":"4","last_reported":1692817442,"current_range_meters":1600,"station_id":"","pricing_plan_id":"free"},{"bike_id":"35d71ba4-88c9-4ec0-9691-2776397cdc5a","system_id":"levelo_inurba_marseille","lat":43.298433,"lon":5.362774,"is_reserved":false,"is_disabled":false,"rental_uris":{"android":"levelo://app?vid=35d71ba4-88c9-4ec0-9691-2776397cdc5a","ios":"levelo://app?vid=35d71ba4-88c9-4ec0-9691-2776397cdc5a"},"vehicle_type_id":"4","last_reported":1692817442,"current_range_meters":3200,"station_id":"ce4bgpp2rcd13ifvqc3g","pricing_plan_id":"free"},{"bike_id":"5d85566f-83d8-4064-9870-27fca4c6b679","system_id":"levelo_inurba_marseille","lat":43.298433,"lon":5.362774,"is_reserved":false,"is_disabled":false,"rental_uris":{"android":"levelo://app?vid=5d85566f-83d8-4064-9870-27fca4c6b679","ios":"levelo://app?vid=5d85566f-83d8-4064-9870-27fca4c6b679"},"vehicle_type_id":"4","last_reported":1692817442,"current_range_meters":5600,"station_id":"ce4bgpp2rcd13ifvqc3g","pricing_plan_id":"free"},{"bike_id":"fb5d5268-86b4-41da-b080-5c016d128e97","system_id":"levelo_inurba_marseille","lat":43.298433,"lon":5.362774,"is_reserved":false,"is_disabled":false,"rental_uris":{"android":"levelo://app?vid=fb5d5268-86b4-41da-b080-5c016d128e97","ios":"levelo://app?vid=fb5d5268-86b4-41da-b080-5c016d128e97"},"vehicle_type_id":"4","last_reported":1692817442,"current_range_meters":28800,"station_id":"ce4bgpp2rcd13ifvqc3g","pricing_plan_id":"free"},{"bike_id":"eae3f3cc-c22f-412c-9e96-2a4c6e453722","system_id":"levelo_inurba_marseille","lat":43.298433,"lon":5.362774,"is_reserved":false,"is_disabled":false,"rental_uris":{"android":"levelo://app?vid=eae3f3cc-c22f-412c-9e96-2a4c6e453722","ios":"levelo://app?vid=eae3f3cc-c22f-412c-9e96-2a4c6e453722"},"vehicle_type_id":"4","last_reported":1692817442,"current_range_meters":19200,"station_id":"ce4bgpp2rcd13ifvqc3g","pricing_plan_id":"free"},{"bike_id":"dca7385b-bd68-4ec5-9792-b6b524780e99","system_id":"levelo_inurba_marseille","lat":43.311722,"lon":5.387247,"is_reserved":false,"is_disabled":false,"rental_uris":{"android":"levelo://app?vid=dca7385b-bd68-4ec5-9792-b6b524780e99","ios":"levelo://app?vid=dca7385b-bd68-4ec5-9792-b6b524780e99"},"vehicle_type_id":"4","last_reported":1692817442,"current_range_meters":0,"station_id":"ce4bgv12rcd13ifvqcp0","pricing_plan_id":"free"},{"bike_id":"b885f463-e8c5-42cc-902f-7152167ce1c7","system_id":"levelo_inurba_marseille","lat":43.299243,"lon":5.374807,"is_reserved":false,"is_disabled":false,"rental_uris":{"android":"levelo://app?vid=b885f463-e8c5-42cc-902f-7152167ce1c7","ios":"levelo://app?vid=b885f463-e8c5-42cc-902f-7152167ce1c7"},"vehicle_type_id":"4","last_reported":1692817442,"current_range_meters":31200,"station_id":"ce4bgjh2rcd13ifvqbg0","pricing_plan_id":"free"},{"bike_id":"2f9e2def-2173-4eb4-a460-9a385f59debe","system_id":"levelo_inurba_marseille","lat":43.299243,"lon":5.37481,"is_reserved":false,"is_disabled":false,"rental_uris":{"android":"levelo://app?vid=2f9e2def-2173-4eb4-a460-9a385f59debe","ios":"levelo://app?vid=2f9e2def-2173-4eb4-a460-9a385f59debe"},"vehicle_type_id":"4","last_reported":1692817442,"current_range_meters":31200,"station_id":"ce4bgjh2rcd13ifvqbg0","pricing_plan_id":"free"},{"bike_id":"91fcad65-5649-4b50-a836-41f0d39aed9b","system_id":"levelo_inurba_marseille","lat":43.311722,"lon":5.387247,"is_reserved":false,"is_disabled":false,"rental_uris":{"android":"levelo://app?vid=91fcad65-5649-4b50-a836-41f0d39aed9b","ios":"levelo://app?vid=91fcad65-5649-4b50-a836-41f0d39aed9b"},"vehicle_type_id":"4","last_reported":1692817442,"current_range_meters":4400,"station_id":"ce4bgv12rcd13ifvqcp0","pricing_plan_id":"free"},{"bike_id":"35eec3a1-aa54-4990-8eb4-78e6c0dd24d0","system_id":"levelo_inurba_marseille","lat":43.2991,"lon":5.37511,"is_reserved":false,"is_disabled":false,"rental_uris":{"android":"levelo://app?vid=35eec3a1-aa54-4990-8eb4-78e6c0dd24d0","ios":"levelo://app?vid=35eec3a1-aa54-4990-8eb4-78e6c0dd24d0"},"vehicle_type_id":"4","last_reported":1692817442,"current_range_meters":20400,"station_id":"ce4bgjh2rcd13ifvqbg0","pricing_plan_id":"free"},{"bike_id":"c113ea56-aecc-4f52-854e-1e37d51f7e06","system_id":"levelo_inurba_marseille","lat":43.328371,"lon":5.366909,"is_reserved":false,"is_disabled":false,"rental_uris":{"android":"levelo://app?vid=c113ea56-aecc-4f52-854e-1e37d51f7e06","ios":"levelo://app?vid=c113ea56-aecc-4f52-854e-1e37d51f7e06"},"vehicle_type_id":"4","last_reported":1692817442,"current_range_meters":2400,"station_id":"ce4bhs92rcd13ifvqi0g","pricing_plan_id":"free"},{"bike_id":"ccb77574-c552-4a76-854d-caf067928170","system_id":"levelo_inurba_marseille","lat":43.32823,"lon":5.36685,"is_reserved":false,"is_disabled":false,"rental_uris":{"android":"levelo://app?vid=ccb77574-c552-4a76-854d-caf067928170","ios":"levelo://app?vid=ccb77574-c552-4a76-854d-caf067928170"},"vehicle_type_id":"4","last_reported":1692817442,"current_range_meters":3600,"station_id":"ce4bhs92rcd13ifvqi0g","pricing_plan_id":"free"},{"bike_id":"0db295a5-4a56-4ac0-8c60-4833330367dc","system_id":"levelo_inurba_marseille","lat":43.328371,"lon":5.366909,"is_reserved":false,"is_disabled":false,"rental_uris":{"android":"levelo://app?vid=0db295a5-4a56-4ac0-8c60-4833330367dc","ios":"levelo://app?vid=0db295a5-4a56-4ac0-8c60-4833330367dc"},"vehicle_type_id":"4","last_reported":1692817442,"current_range_meters":21200,"station_id":"ce4bhs92rcd13ifvqi0g","pricing_plan_id":"free"},{"bike_id":"b7ea84e4-6b64-4e56-8609-8ce86fbda2ac","system_id":"levelo_inurba_marseille","lat":43.297163,"lon":5.365866,"is_reserved":false,"is_disabled":false,"rental_uris":{"android":"levelo://app?vid=b7ea84e4-6b64-4e56-8609-8ce86fbda2ac","ios":"levelo://app?vid=b7ea84e4-6b64-4e56-8609-8ce86fbda2ac"},"vehicle_type_id":"4","last_reported":1692817442,"current_range_meters":1200,"station_id":"ce4bgn12rcd13ifvqbt0","pricing_plan_id":"free"},{"bike_id":"dd789220-e7b5-42c1-b9dc-dc4243148021","system_id":"levelo_inurba_marseille","lat":43.297163,"lon":5.365866,"is_reserved":false,"is_disabled":false,"rental_uris":{"android":"levelo://app?vid=dd789220-e7b5-42c1-b9dc-dc4243148021","ios":"levelo://app?vid=dd789220-e7b5-42c1-b9dc-dc4243148021"},"vehicle_type_id":"4","last_reported":1692817442,"current_range_meters":32000,"station_id":"ce4bgn12rcd13ifvqbt0","pricing_plan_id":"free"},{"bike_id":"ad4f5714-80be-4892-bad1-8eace6298dbf","system_id":"levelo_inurba_marseille","lat":43.29779,"lon":5.37406,"is_reserved":false,"is_disabled":false,"rental_uris":{"android":"levelo://app?vid=ad4f5714-80be-4892-bad1-8eace6298dbf","ios":"levelo://app?vid=ad4f5714-80be-4892-bad1-8eace6298dbf"},"vehicle_type_id":"4","last_reported":1692817442,"current_range_meters":1600,"station_id":"","pricing_plan_id":"free"},{"bike_id":"3954f08e-29bd-4025-b919-5c3306e31fd7","system_id":"levelo_inurba_marseille","lat":43.29573,"lon":5.367355,"is_reserved":false,"is_disabled":false,"rental_uris":{"android":"levelo://app?vid=3954f08e-29bd-4025-b919-5c3306e31fd7","ios":"levelo://app?vid=3954f08e-29bd-4025-b919-5c3306e31fd7"},"vehicle_type_id":"4","last_reported":1692817442,"current_range_meters":20800,"station_id":"ce4bgph2rcd13ifvqc2g","pricing_plan_id":"free"},{"bike_id":"d3139180-8ba9-4c91-b6e4-8baae3c22113","system_id":"levelo_inurba_marseille","lat":43.296129,"lon":5.370777,"is_reserved":false,"is_disabled":false,"rental_uris":{"android":"levelo://app?vid=d3139180-8ba9-4c91-b6e4-8baae3c22113","ios":"levelo://app?vid=d3139180-8ba9-4c91-b6e4-8baae3c22113"},"vehicle_type_id":"4","last_reported":1692817442,"current_range_meters":30000,"station_id":"ce4bgnh2rcd13ifvqc0g","pricing_plan_id":"free"},{"bike_id":"585f64cc-34f6-4cdf-8053-2d7451a9c579","system_id":"levelo_inurba_marseille","lat":43.296131,"lon":5.370791,"is_reserved":false,"is_disabled":false,"rental_uris":{"android":"levelo://app?vid=585f64cc-34f6-4cdf-8053-2d7451a9c579","ios":"levelo://app?vid=585f64cc-34f6-4cdf-8053-2d7451a9c579"},"vehicle_type_id":"4","last_reported":1692817442,"current_range_meters":16000,"station_id":"ce4bgnh2rcd13ifvqc0g","pricing_plan_id":"free"},{"bike_id":"bb155e93-116e-494a-9911-2df351c7dae8","system_id":"levelo_inurba_marseille","lat":43.29622,"lon":5.37195,"is_reserved":false,"is_disabled":false,"rental_uris":{"android":"levelo://app?vid=bb155e93-116e-494a-9911-2df351c7dae8","ios":"levelo://app?vid=bb155e93-116e-494a-9911-2df351c7dae8"},"vehicle_type_id":"4","last_reported":1692817442,"current_range_meters":24000,"station_id":"","pricing_plan_id":"free"},{"bike_id":"57fadba7-ebe1-402b-bcbb-8264bad86cb7","system_id":"levelo_inurba_marseille","lat":43.29573,"lon":5.367355,"is_reserved":false,"is_disabled":false,"rental_uris":{"android":"levelo://app?vid=57fadba7-ebe1-402b-bcbb-8264bad86cb7","ios":"levelo://app?vid=57fadba7-ebe1-402b-bcbb-8264bad86cb7"},"vehicle_type_id":"4","last_reported":1692817442,"current_range_meters":31200,"station_id":"ce4bgph2rcd13ifvqc2g","pricing_plan_id":"free"},{"bike_id":"8b8be5ee-46c7-40ce-ad3d-fd5d97abf258","system_id":"levelo_inurba_marseille","lat":43.29573,"lon":5.367355,"is_reserved":false,"is_disabled":false,"rental_uris":{"android":"levelo://app?vid=8b8be5ee-46c7-40ce-ad3d-fd5d97abf258","ios":"levelo://app?vid=8b8be5ee-46c7-40ce-ad3d-fd5d97abf258"},"vehicle_type_id":"4","last_reported":1692817442,"current_range_meters":12400,"station_id":"ce4bgph2rcd13ifvqc2g","pricing_plan_id":"free"},{"bike_id":"5c92b97a-7a5a-4802-a488-5c5c8b582cf6","system_id":"levelo_inurba_marseille","lat":43.299028,"lon":5.381509,"is_reserved":false,"is_disabled":false,"rental_uris":{"android":"levelo://app?vid=5c92b97a-7a5a-4802-a488-5c5c8b582cf6","ios":"levelo://app?vid=5c92b97a-7a5a-4802-a488-5c5c8b582cf6"},"vehicle_type_id":"4","last_reported":1692817442,"current_range_meters":3200,"station_id":"ce4bgj12rcd13ifvqbc0","pricing_plan_id":"free"},{"bike_id":"5a2c7f56-bacf-4a85-9a93-4f0fcef5d966","system_id":"levelo_inurba_marseille","lat":43.30955,"lon":5.39017,"is_reserved":false,"is_disabled":false,"rental_uris":{"android":"levelo://app?vid=5a2c7f56-bacf-4a85-9a93-4f0fcef5d966","ios":"levelo://app?vid=5a2c7f56-bacf-4a85-9a93-4f0fcef5d966"},"vehicle_type_id":"4","last_reported":1692817442,"current_range_meters":0,"station_id":"ce4bgup2rcd13ifvqco0","pricing_plan_id":"free"},{"bike_id":"e76669c7-9a88-4173-9fdc-0397f68d3c61","system_id":"levelo_inurba_marseille","lat":43.299028,"lon":5.381509,"is_reserved":false,"is_disabled":false,"rental_uris":{"android":"levelo://app?vid=e76669c7-9a88-4173-9fdc-0397f68d3c61","ios":"levelo://app?vid=e76669c7-9a88-4173-9fdc-0397f68d3c61"},"vehicle_type_id":"4","last_reported":1692817442,"current_range_meters":30000,"station_id":"ce4bgj12rcd13ifvqbc0","pricing_plan_id":"free"},{"bike_id":"bea973f3-c7f4-4ec1-98f3-89ce6b9e07de","system_id":"levelo_inurba_marseille","lat":43.309589,"lon":5.390258,"is_reserved":false,"is_disabled":false,"rental_uris":{"android":"levelo://app?vid=bea973f3-c7f4-4ec1-98f3-89ce6b9e07de","ios":"levelo://app?vid=bea973f3-c7f4-4ec1-98f3-89ce6b9e07de"},"vehicle_type_id":"4","last_reported":1692817442,"current_range_meters":24400,"station_id":"ce4bgup2rcd13ifvqco0","pricing_plan_id":"free"},{"bike_id":"c768994a-836b-48ac-9a98-40c13ab8d83a","system_id":"levelo_inurba_marseille","lat":43.299028,"lon":5.381509,"is_reserved":false,"is_disabled":false,"rental_uris":{"android":"levelo://app?vid=c768994a-836b-48ac-9a98-40c13ab8d83a","ios":"levelo://app?vid=c768994a-836b-48ac-9a98-40c13ab8d83a"},"vehicle_type_id":"4","last_reported":1692817442,"current_range_meters":1600,"station_id":"ce4bgj12rcd13ifvqbc0","pricing_plan_id":"free"},{"bike_id":"ba6140ed-ef0e-44ed-8658-4f45debd8942","system_id":"levelo_inurba_marseille","lat":43.309589,"lon":5.390258,"is_reserved":false,"is_disabled":false,"rental_uris":{"android":"levelo://app?vid=ba6140ed-ef0e-44ed-8658-4f45debd8942","ios":"levelo://app?vid=ba6140ed-ef0e-44ed-8658-4f45debd8942"},"vehicle_type_id":"4","last_reported":1692817442,"current_range_meters":5600,"station_id":"ce4bgup2rcd13ifvqco0","pricing_plan_id":"free"},{"bike_id":"452fd9f2-65d3-4869-b0ea-1643d7d69270","system_id":"levelo_inurba_marseille","lat":43.309589,"lon":5.390258,"is_reserved":false,"is_disabled":false,"rental_uris":{"android":"levelo://app?vid=452fd9f2-65d3-4869-b0ea-1643d7d69270","ios":"levelo://app?vid=452fd9f2-65d3-4869-b0ea-1643d7d69270"},"vehicle_type_id":"4","last_reported":1692817442,"current_range_meters":6000,"station_id":"ce4bgup2rcd13ifvqco0","pricing_plan_id":"free"},{"bike_id":"2459c62e-4316-498d-9660-71e82de33755","system_id":"levelo_inurba_marseille","lat":43.299028,"lon":5.381509,"is_reserved":false,"is_disabled":false,"rental_uris":{"android":"levelo://app?vid=2459c62e-4316-498d-9660-71e82de33755","ios":"levelo://app?vid=2459c62e-4316-498d-9660-71e82de33755"},"vehicle_type_id":"4","last_reported":1692817442,"current_range_meters":2800,"station_id":"ce4bgj12rcd13ifvqbc0","pricing_plan_id":"free"},{"bike_id":"2c93ce6f-c5e1-4ec9-9941-ebb7469bb8f2","system_id":"levelo_inurba_marseille","lat":43.317557,"lon":5.390173,"is_reserved":false,"is_disabled":false,"rental_uris":{"android":"levelo://app?vid=2c93ce6f-c5e1-4ec9-9941-ebb7469bb8f2","ios":"levelo://app?vid=2c93ce6f-c5e1-4ec9-9941-ebb7469bb8f2"},"vehicle_type_id":"4","last_reported":1692817442,"current_range_meters":31200,"station_id":"ce4bhqp2rcd13ifvqhng","pricing_plan_id":"free"},{"bike_id":"63992ccc-aee3-4601-9278-5f58e0eacd6a","system_id":"levelo_inurba_marseille","lat":43.304274,"lon":5.388873,"is_reserved":false,"is_disabled":false,"rental_uris":{"android":"levelo://app?vid=63992ccc-aee3-4601-9278-5f58e0eacd6a","ios":"levelo://app?vid=63992ccc-aee3-4601-9278-5f58e0eacd6a"},"vehicle_type_id":"4","last_reported":1692817442,"current_range_meters":10800,"station_id":"ce4bgk12rcd13ifvqbi0","pricing_plan_id":"free"},{"bike_id":"ed4f9464-7456-40d3-93a3-76c88b595014","system_id":"levelo_inurba_marseille","lat":43.29575,"lon":5.37517,"is_reserved":false,"is_disabled":false,"rental_uris":{"android":"levelo://app?vid=ed4f9464-7456-40d3-93a3-76c88b595014","ios":"levelo://app?vid=ed4f9464-7456-40d3-93a3-76c88b595014"},"vehicle_type_id":"4","last_reported":1692817442,"current_range_meters":26400,"station_id":"ce4bgh92rcd13ifvqb50","pricing_plan_id":"free"},{"bike_id":"d711162c-da43-4630-9181-e4a75cf39a62","system_id":"levelo_inurba_marseille","lat":43.29785,"lon":5.38115,"is_reserved":false,"is_disabled":false,"rental_uris":{"android":"levelo://app?vid=d711162c-da43-4630-9181-e4a75cf39a62","ios":"levelo://app?vid=d711162c-da43-4630-9181-e4a75cf39a62"},"vehicle_type_id":"4","last_reported":1692817442,"current_range_meters":0,"station_id":"ce4bgip2rcd13ifvqbb0","pricing_plan_id":"free"},{"bike_id":"a4df99ce-0488-49dd-a888-94686f562e88","system_id":"levelo_inurba_marseille","lat":43.29562,"lon":5.37517,"is_reserved":false,"is_disabled":false,"rental_uris":{"android":"levelo://app?vid=a4df99ce-0488-49dd-a888-94686f562e88","ios":"levelo://app?vid=a4df99ce-0488-49dd-a888-94686f562e88"},"vehicle_type_id":"4","last_reported":1692817442,"current_range_meters":27200,"station_id":"ce4bgh92rcd13ifvqb50","pricing_plan_id":"free"},{"bike_id":"c0b114a2-106c-4490-b978-cf333e43861f","system_id":"levelo_inurba_marseille","lat":43.29981,"lon":5.3848,"is_reserved":false,"is_disabled":false,"rental_uris":{"android":"levelo://app?vid=c0b114a2-106c-4490-b978-cf333e43861f","ios":"levelo://app?vid=c0b114a2-106c-4490-b978-cf333e43861f"},"vehicle_type_id":"4","last_reported":1692817442,"current_range_meters":2400,"station_id":"ce4bgj92rcd13ifvqbd0","pricing_plan_id":"free"},{"bike_id":"f1a4a9af-23ea-4a72-af3f-586f167ebeb3","system_id":"levelo_inurba_marseille","lat":43.29766,"lon":5.38128,"is_reserved":false,"is_disabled":false,"rental_uris":{"android":"levelo://app?vid=f1a4a9af-23ea-4a72-af3f-586f167ebeb3","ios":"levelo://app?vid=f1a4a9af-23ea-4a72-af3f-586f167ebeb3"},"vehicle_type_id":"4","last_reported":1692817442,"current_range_meters":29200,"station_id":"ce4bgip2rcd13ifvqbb0","pricing_plan_id":"free"},{"bike_id":"952a19e7-6602-41c3-942f-79cfb514366f","system_id":"levelo_inurba_marseille","lat":43.29745,"lon":5.38111,"is_reserved":false,"is_disabled":false,"rental_uris":{"android":"levelo://app?vid=952a19e7-6602-41c3-942f-79cfb514366f","ios":"levelo://app?vid=952a19e7-6602-41c3-942f-79cfb514366f"},"vehicle_type_id":"4","last_reported":1692817442,"current_range_meters":27600,"station_id":"ce4bgip2rcd13ifvqbb0","pricing_plan_id":"free"},{"bike_id":"329b52da-6179-4119-8885-76b50cbdc2a9","system_id":"levelo_inurba_marseille","lat":43.299707,"lon":5.384859,"is_reserved":false,"is_disabled":false,"rental_uris":{"android":"levelo://app?vid=329b52da-6179-4119-8885-76b50cbdc2a9","ios":"levelo://app?vid=329b52da-6179-4119-8885-76b50cbdc2a9"},"vehicle_type_id":"4","last_reported":1692817442,"current_range_meters":21200,"station_id":"ce4bgj92rcd13ifvqbd0","pricing_plan_id":"free"},{"bike_id":"e478ddb3-0f14-4a2a-85b2-5e489e73675a","system_id":"levelo_inurba_marseille","lat":43.299724,"lon":5.384848,"is_reserved":false,"is_disabled":false,"rental_uris":{"android":"levelo://app?vid=e478ddb3-0f14-4a2a-85b2-5e489e73675a","ios":"levelo://app?vid=e478ddb3-0f14-4a2a-85b2-5e489e73675a"},"vehicle_type_id":"4","last_reported":1692817442,"current_range_meters":14800,"station_id":"ce4bgj92rcd13ifvqbd0","pricing_plan_id":"free"},{"bike_id":"8046b13e-f1ab-4596-8824-24c05a56a5a2","system_id":"levelo_inurba_marseille","lat":43.295279,"lon":5.375048,"is_reserved":false,"is_disabled":false,"rental_uris":{"android":"levelo://app?vid=8046b13e-f1ab-4596-8824-24c05a56a5a2","ios":"levelo://app?vid=8046b13e-f1ab-4596-8824-24c05a56a5a2"},"vehicle_type_id":"4","last_reported":1692817442,"current_range_meters":15600,"station_id":"ce4bgkp2rcd13ifvqbmg","pricing_plan_id":"free"},{"bike_id":"deacb73d-beca-4a9c-ba52-9233800aee1f","system_id":"levelo_inurba_marseille","lat":43.301252,"lon":5.387877,"is_reserved":false,"is_disabled":false,"rental_uris":{"android":"levelo://app?vid=deacb73d-beca-4a9c-ba52-9233800aee1f","ios":"levelo://app?vid=deacb73d-beca-4a9c-ba52-9233800aee1f"},"vehicle_type_id":"4","last_reported":1692817442,"current_range_meters":26000,"station_id":"","pricing_plan_id":"free"},{"bike_id":"00883cd9-a56a-4720-bb55-237d0136a4a1","system_id":"levelo_inurba_marseille","lat":43.32367,"lon":5.388836,"is_reserved":false,"is_disabled":false,"rental_uris":{"android":"levelo://app?vid=00883cd9-a56a-4720-bb55-237d0136a4a1","ios":"levelo://app?vid=00883cd9-a56a-4720-bb55-237d0136a4a1"},"vehicle_type_id":"4","last_reported":1692817442,"current_range_meters":29600,"station_id":"ce4bhqp2rcd13ifvqhog","pricing_plan_id":"free"},{"bike_id":"c5bc3cba-282e-484d-b591-63b5722745ec","system_id":"levelo_inurba_marseille","lat":43.32367,"lon":5.388836,"is_reserved":false,"is_disabled":false,"rental_uris":{"android":"levelo://app?vid=c5bc3cba-282e-484d-b591-63b5722745ec","ios":"levelo://app?vid=c5bc3cba-282e-484d-b591-63b5722745ec"},"vehicle_type_id":"4","last_reported":1692817442,"current_range_meters":9600,"station_id":"ce4bhqp2rcd13ifvqhog","pricing_plan_id":"free"},{"bike_id":"9ef98b34-40e8-4ba6-852b-ce12bd7f59b7","system_id":"levelo_inurba_marseille","lat":43.29602,"lon":5.381084,"is_reserved":false,"is_disabled":false,"rental_uris":{"android":"levelo://app?vid=9ef98b34-40e8-4ba6-852b-ce12bd7f59b7","ios":"levelo://app?vid=9ef98b34-40e8-4ba6-852b-ce12bd7f59b7"},"vehicle_type_id":"4","last_reported":1692817442,"current_range_meters":29200,"station_id":"ce4bgl12rcd13ifvqbo0","pricing_plan_id":"free"},{"bike_id":"7d946f8f-d33b-4f27-b28f-d9f14757330d","system_id":"levelo_inurba_marseille","lat":43.29601,"lon":5.381084,"is_reserved":false,"is_disabled":false,"rental_uris":{"android":"levelo://app?vid=7d946f8f-d33b-4f27-b28f-d9f14757330d","ios":"levelo://app?vid=7d946f8f-d33b-4f27-b28f-d9f14757330d"},"vehicle_type_id":"4","last_reported":1692817442,"current_range_meters":18000,"station_id":"ce4bgl12rcd13ifvqbo0","pricing_plan_id":"free"},{"bike_id":"fa8e9340-8016-4a54-9355-42e5c0a5d2cc","system_id":"levelo_inurba_marseille","lat":43.29602,"lon":5.381084,"is_reserved":false,"is_disabled":false,"rental_uris":{"android":"levelo://app?vid=fa8e9340-8016-4a54-9355-42e5c0a5d2cc","ios":"levelo://app?vid=fa8e9340-8016-4a54-9355-42e5c0a5d2cc"},"vehicle_type_id":"4","last_reported":1692817442,"current_range_meters":10400,"station_id":"ce4bgl12rcd13ifvqbo0","pricing_plan_id":"free"},{"bike_id":"72ad7f1d-081c-4850-a641-d116de677f40","system_id":"levelo_inurba_marseille","lat":43.29602,"lon":5.381084,"is_reserved":false,"is_disabled":false,"rental_uris":{"android":"levelo://app?vid=72ad7f1d-081c-4850-a641-d116de677f40","ios":"levelo://app?vid=72ad7f1d-081c-4850-a641-d116de677f40"},"vehicle_type_id":"4","last_reported":1692817442,"current_range_meters":8800,"station_id":"ce4bgl12rcd13ifvqbo0","pricing_plan_id":"free"},{"bike_id":"e2b1b2a0-f604-4925-be81-b52a85a3ddcc","system_id":"levelo_inurba_marseille","lat":43.29602,"lon":5.381084,"is_reserved":false,"is_disabled":false,"rental_uris":{"android":"levelo://app?vid=e2b1b2a0-f604-4925-be81-b52a85a3ddcc","ios":"levelo://app?vid=e2b1b2a0-f604-4925-be81-b52a85a3ddcc"},"vehicle_type_id":"4","last_reported":1692817442,"current_range_meters":1200,"station_id":"ce4bgl12rcd13ifvqbo0","pricing_plan_id":"free"},{"bike_id":"88f256bb-d624-441d-8897-cb2a80fbfdfb","system_id":"levelo_inurba_marseille","lat":43.29709,"lon":5.38479,"is_reserved":false,"is_disabled":false,"rental_uris":{"android":"levelo://app?vid=88f256bb-d624-441d-8897-cb2a80fbfdfb","ios":"levelo://app?vid=88f256bb-d624-441d-8897-cb2a80fbfdfb"},"vehicle_type_id":"4","last_reported":1692817442,"current_range_meters":0,"station_id":"","pricing_plan_id":"free"},{"bike_id":"5cf45298-f9c7-4ea4-8b5c-ba60eaa43e35","system_id":"levelo_inurba_marseille","lat":43.299717,"lon":5.384845,"is_reserved":false,"is_disabled":false,"rental_uris":{"android":"levelo://app?vid=5cf45298-f9c7-4ea4-8b5c-ba60eaa43e35","ios":"levelo://app?vid=5cf45298-f9c7-4ea4-8b5c-ba60eaa43e35"},"vehicle_type_id":"4","last_reported":1692817442,"current_range_meters":3200,"station_id":"ce4bgj92rcd13ifvqbd0","pricing_plan_id":"free"},{"bike_id":"726b8b9d-7e6c-4b3b-9ead-811f1961927f","system_id":"levelo_inurba_marseille","lat":43.29298,"lon":5.37462,"is_reserved":false,"is_disabled":false,"rental_uris":{"android":"levelo://app?vid=726b8b9d-7e6c-4b3b-9ead-811f1961927f","ios":"levelo://app?vid=726b8b9d-7e6c-4b3b-9ead-811f1961927f"},"vehicle_type_id":"4","last_reported":1692817442,"current_range_meters":19200,"station_id":"","pricing_plan_id":"free"},{"bike_id":"38fef587-7cc5-4800-b069-87b8f296a10a","system_id":"levelo_inurba_marseille","lat":43.293009,"lon":5.374584,"is_reserved":false,"is_disabled":false,"rental_uris":{"android":"levelo://app?vid=38fef587-7cc5-4800-b069-87b8f296a10a","ios":"levelo://app?vid=38fef587-7cc5-4800-b069-87b8f296a10a"},"vehicle_type_id":"4","last_reported":1692817442,"current_range_meters":31200,"station_id":"ce4bgi12rcd13ifvqb70","pricing_plan_id":"free"},{"bike_id":"6d0241da-f34a-47be-8b96-83c9274ff498","system_id":"levelo_inurba_marseille","lat":43.30593,"lon":5.39362,"is_reserved":false,"is_disabled":false,"rental_uris":{"android":"levelo://app?vid=6d0241da-f34a-47be-8b96-83c9274ff498","ios":"levelo://app?vid=6d0241da-f34a-47be-8b96-83c9274ff498"},"vehicle_type_id":"4","last_reported":1692817442,"current_range_meters":26400,"station_id":"ce4bgvp2rcd13ifvqcu0","pricing_plan_id":"free"},{"bike_id":"801e658c-22b6-4860-b168-f3f426fceb08","system_id":"levelo_inurba_marseille","lat":43.29382,"lon":5.37839,"is_reserved":false,"is_disabled":false,"rental_uris":{"android":"levelo://app?vid=801e658c-22b6-4860-b168-f3f426fceb08","ios":"levelo://app?vid=801e658c-22b6-4860-b168-f3f426fceb08"},"vehicle_type_id":"4","last_reported":1692817442,"current_range_meters":4400,"station_id":"","pricing_plan_id":"free"},{"bike_id":"0724f352-a262-45b7-9b71-9a09ff17d945","system_id":"levelo_inurba_marseille","lat":43.30302,"lon":5.39211,"is_reserved":false,"is_disabled":false,"rental_uris":{"android":"levelo://app?vid=0724f352-a262-45b7-9b71-9a09ff17d945","ios":"levelo://app?vid=0724f352-a262-45b7-9b71-9a09ff17d945"},"vehicle_type_id":"4","last_reported":1692817442,"current_range_meters":26000,"station_id":"ce4bgkh2rcd13ifvqbk0","pricing_plan_id":"free"},{"bike_id":"59d4a7cc-c4d8-47e1-a63f-2e26b5d209c3","system_id":"levelo_inurba_marseille","lat":43.2936,"lon":5.37835,"is_reserved":false,"is_disabled":false,"rental_uris":{"android":"levelo://app?vid=59d4a7cc-c4d8-47e1-a63f-2e26b5d209c3","ios":"levelo://app?vid=59d4a7cc-c4d8-47e1-a63f-2e26b5d209c3"},"vehicle_type_id":"4","last_reported":1692817442,"current_range_meters":31200,"station_id":"ce4bgjh2rcd13ifvqbf0","pricing_plan_id":"free"},{"bike_id":"8a3658ce-1cba-4d9c-b806-0783e49410d8","system_id":"levelo_inurba_marseille","lat":43.313271,"lon":5.396896,"is_reserved":false,"is_disabled":false,"rental_uris":{"android":"levelo://app?vid=8a3658ce-1cba-4d9c-b806-0783e49410d8","ios":"levelo://app?vid=8a3658ce-1cba-4d9c-b806-0783e49410d8"},"vehicle_type_id":"4","last_reported":1692817442,"current_range_meters":16400,"station_id":"","pricing_plan_id":"free"},{"bike_id":"76391f75-8a50-4ea1-9c78-2b5222350cc8","system_id":"levelo_inurba_marseille","lat":43.31328,"lon":5.39696,"is_reserved":false,"is_disabled":false,"rental_uris":{"android":"levelo://app?vid=76391f75-8a50-4ea1-9c78-2b5222350cc8","ios":"levelo://app?vid=76391f75-8a50-4ea1-9c78-2b5222350cc8"},"vehicle_type_id":"4","last_reported":1692817442,"current_range_meters":16400,"station_id":"ce4bgvp2rcd13ifvqcu0","pricing_plan_id":"free"},{"bike_id":"0a8eb4be-e8ee-4cb2-b640-32ee98070db2","system_id":"levelo_inurba_marseille","lat":43.313291,"lon":5.396838,"is_reserved":false,"is_disabled":false,"rental_uris":{"android":"levelo://app?vid=0a8eb4be-e8ee-4cb2-b640-32ee98070db2","ios":"levelo://app?vid=0a8eb4be-e8ee-4cb2-b640-32ee98070db2"},"vehicle_type_id":"4","last_reported":1692817442,"current_range_meters":400,"station_id":"ce4bgvp2rcd13ifvqcu0","pricing_plan_id":"free"},{"bike_id":"d4920142-7b43-45d7-9d94-7746f226d8ea","system_id":"levelo_inurba_marseille","lat":43.31327,"lon":5.39698,"is_reserved":false,"is_disabled":false,"rental_uris":{"android":"levelo://app?vid=d4920142-7b43-45d7-9d94-7746f226d8ea","ios":"levelo://app?vid=d4920142-7b43-45d7-9d94-7746f226d8ea"},"vehicle_type_id":"4","last_reported":1692817442,"current_range_meters":12400,"station_id":"ce4bgvp2rcd13ifvqcu0","pricing_plan_id":"free"},{"bike_id":"0539f750-6ac9-4355-b11e-71aa2b1bcca6","system_id":"levelo_inurba_marseille","lat":43.3089,"lon":5.39658,"is_reserved":false,"is_disabled":false,"rental_uris":{"android":"levelo://app?vid=0539f750-6ac9-4355-b11e-71aa2b1bcca6","ios":"levelo://app?vid=0539f750-6ac9-4355-b11e-71aa2b1bcca6"},"vehicle_type_id":"4","last_reported":1692817442,"current_range_meters":19600,"station_id":"ce4bh012rcd13ifvqcv0","pricing_plan_id":"free"},{"bike_id":"a773cf30-2c7c-4b84-b5ec-262db16e45b9","system_id":"levelo_inurba_marseille","lat":43.29529,"lon":5.385581,"is_reserved":false,"is_disabled":false,"rental_uris":{"android":"levelo://app?vid=a773cf30-2c7c-4b84-b5ec-262db16e45b9","ios":"levelo://app?vid=a773cf30-2c7c-4b84-b5ec-262db16e45b9"},"vehicle_type_id":"4","last_reported":1692817442,"current_range_meters":400,"station_id":"ce4bgih2rcd13ifvqba0","pricing_plan_id":"free"},{"bike_id":"e2c968ee-355e-4208-b3cf-db850c6a5a04","system_id":"levelo_inurba_marseille","lat":43.29529,"lon":5.385581,"is_reserved":false,"is_disabled":false,"rental_uris":{"android":"levelo://app?vid=e2c968ee-355e-4208-b3cf-db850c6a5a04","ios":"levelo://app?vid=e2c968ee-355e-4208-b3cf-db850c6a5a04"},"vehicle_type_id":"4","last_reported":1692817442,"current_range_meters":26800,"station_id":"ce4bgih2rcd13ifvqba0","pricing_plan_id":"free"},{"bike_id":"e3d70942-f10d-4cb9-825d-382392d0c69d","system_id":"levelo_inurba_marseille","lat":43.29529,"lon":5.385581,"is_reserved":false,"is_disabled":false,"rental_uris":{"android":"levelo://app?vid=e3d70942-f10d-4cb9-825d-382392d0c69d","ios":"levelo://app?vid=e3d70942-f10d-4cb9-825d-382392d0c69d"},"vehicle_type_id":"4","last_reported":1692817442,"current_range_meters":19600,"station_id":"ce4bgih2rcd13ifvqba0","pricing_plan_id":"free"},{"bike_id":"6c766f25-82b6-44fe-bb4c-33a59797f371","system_id":"levelo_inurba_marseille","lat":43.290779,"lon":5.371482,"is_reserved":false,"is_disabled":false,"rental_uris":{"android":"levelo://app?vid=6c766f25-82b6-44fe-bb4c-33a59797f371","ios":"levelo://app?vid=6c766f25-82b6-44fe-bb4c-33a59797f371"},"vehicle_type_id":"4","last_reported":1692817442,"current_range_meters":4800,"station_id":"ce4bh5p2rcd13ifvqe4g","pricing_plan_id":"free"},{"bike_id":"a4b45973-ecc1-476c-9155-4adeb68458b5","system_id":"levelo_inurba_marseille","lat":43.302008,"lon":5.394694,"is_reserved":false,"is_disabled":false,"rental_uris":{"android":"levelo://app?vid=a4b45973-ecc1-476c-9155-4adeb68458b5","ios":"levelo://app?vid=a4b45973-ecc1-476c-9155-4adeb68458b5"},"vehicle_type_id":"4","last_reported":1692817442,"current_range_meters":20000,"station_id":"ce4bh0p2rcd13ifvqd70","pricing_plan_id":"free"},{"bike_id":"39b5b5cf-86ef-48ea-a176-58e554756417","system_id":"levelo_inurba_marseille","lat":43.30206,"lon":5.39465,"is_reserved":false,"is_disabled":false,"rental_uris":{"android":"levelo://app?vid=39b5b5cf-86ef-48ea-a176-58e554756417","ios":"levelo://app?vid=39b5b5cf-86ef-48ea-a176-58e554756417"},"vehicle_type_id":"4","last_reported":1692817442,"current_range_meters":31200,"station_id":"ce4bh0p2rcd13ifvqd70","pricing_plan_id":"free"},{"bike_id":"26778253-0383-4f79-90f2-75465e7df71a","system_id":"levelo_inurba_marseille","lat":43.302008,"lon":5.394694,"is_reserved":false,"is_disabled":false,"rental_uris":{"android":"levelo://app?vid=26778253-0383-4f79-90f2-75465e7df71a","ios":"levelo://app?vid=26778253-0383-4f79-90f2-75465e7df71a"},"vehicle_type_id":"4","last_reported":1692817442,"current_range_meters":2800,"station_id":"ce4bh0p2rcd13ifvqd70","pricing_plan_id":"free"},{"bike_id":"e05c833f-d62d-44d2-831d-9c3d65f01869","system_id":"levelo_inurba_marseille","lat":43.294162,"lon":5.386292,"is_reserved":false,"is_disabled":false,"rental_uris":{"android":"levelo://app?vid=e05c833f-d62d-44d2-831d-9c3d65f01869","ios":"levelo://app?vid=e05c833f-d62d-44d2-831d-9c3d65f01869"},"vehicle_type_id":"4","last_reported":1692817442,"current_range_meters":0,"station_id":"ce4bh2h2rcd13ifvqdh0","pricing_plan_id":"free"},{"bike_id":"8cba447e-79b0-4499-b4eb-527232c130ed","system_id":"levelo_inurba_marseille","lat":43.294153,"lon":5.386305,"is_reserved":false,"is_disabled":false,"rental_uris":{"android":"levelo://app?vid=8cba447e-79b0-4499-b4eb-527232c130ed","ios":"levelo://app?vid=8cba447e-79b0-4499-b4eb-527232c130ed"},"vehicle_type_id":"4","last_reported":1692817442,"current_range_meters":0,"station_id":"ce4bh2h2rcd13ifvqdh0","pricing_plan_id":"free"},{"bike_id":"369227df-e5f1-4787-8715-3d735f3d8cf0","system_id":"levelo_inurba_marseille","lat":43.29418,"lon":5.38628,"is_reserved":false,"is_disabled":false,"rental_uris":{"android":"levelo://app?vid=369227df-e5f1-4787-8715-3d735f3d8cf0","ios":"levelo://app?vid=369227df-e5f1-4787-8715-3d735f3d8cf0"},"vehicle_type_id":"4","last_reported":1692817442,"current_range_meters":1600,"station_id":"ce4bh2h2rcd13ifvqdh0","pricing_plan_id":"free"},{"bike_id":"60c5f8ff-3a5b-46b7-ad6f-7094e0aae981","system_id":"levelo_inurba_marseille","lat":43.294162,"lon":5.386292,"is_reserved":false,"is_disabled":false,"rental_uris":{"android":"levelo://app?vid=60c5f8ff-3a5b-46b7-ad6f-7094e0aae981","ios":"levelo://app?vid=60c5f8ff-3a5b-46b7-ad6f-7094e0aae981"},"vehicle_type_id":"4","last_reported":1692817442,"current_range_meters":14800,"station_id":"ce4bh2h2rcd13ifvqdh0","pricing_plan_id":"free"},{"bike_id":"8242bb46-fc48-48ce-ac30-1a3ee571ba78","system_id":"levelo_inurba_marseille","lat":43.29084,"lon":5.35587,"is_reserved":false,"is_disabled":false,"rental_uris":{"android":"levelo://app?vid=8242bb46-fc48-48ce-ac30-1a3ee571ba78","ios":"levelo://app?vid=8242bb46-fc48-48ce-ac30-1a3ee571ba78"},"vehicle_type_id":"4","last_reported":1692817442,"current_range_meters":12800,"station_id":"","pricing_plan_id":"free"},{"bike_id":"24ac350e-45cc-4a1a-89d5-dc3fe05dfcb1","system_id":"levelo_inurba_marseille","lat":43.294162,"lon":5.386292,"is_reserved":false,"is_disabled":false,"rental_uris":{"android":"levelo://app?vid=24ac350e-45cc-4a1a-89d5-dc3fe05dfcb1","ios":"levelo://app?vid=24ac350e-45cc-4a1a-89d5-dc3fe05dfcb1"},"vehicle_type_id":"4","last_reported":1692817442,"current_range_meters":7600,"station_id":"ce4bh2h2rcd13ifvqdh0","pricing_plan_id":"free"},{"bike_id":"77b5d898-8200-456b-b7b5-7f132a8bea2e","system_id":"levelo_inurba_marseille","lat":43.29417,"lon":5.38636,"is_reserved":false,"is_disabled":false,"rental_uris":{"android":"levelo://app?vid=77b5d898-8200-456b-b7b5-7f132a8bea2e","ios":"levelo://app?vid=77b5d898-8200-456b-b7b5-7f132a8bea2e"},"vehicle_type_id":"4","last_reported":1692817442,"current_range_meters":12400,"station_id":"ce4bh2h2rcd13ifvqdh0","pricing_plan_id":"free"},{"bike_id":"a7b086f4-a27e-4c8e-8d21-af94f0541052","system_id":"levelo_inurba_marseille","lat":43.294153,"lon":5.386305,"is_reserved":false,"is_disabled":false,"rental_uris":{"android":"levelo://app?vid=a7b086f4-a27e-4c8e-8d21-af94f0541052","ios":"levelo://app?vid=a7b086f4-a27e-4c8e-8d21-af94f0541052"},"vehicle_type_id":"4","last_reported":1692817442,"current_range_meters":16400,"station_id":"ce4bh2h2rcd13ifvqdh0","pricing_plan_id":"free"},{"bike_id":"bb9d49d7-52a5-4302-b4bd-28396b570c2e","system_id":"levelo_inurba_marseille","lat":43.294162,"lon":5.386292,"is_reserved":false,"is_disabled":false,"rental_uris":{"android":"levelo://app?vid=bb9d49d7-52a5-4302-b4bd-28396b570c2e","ios":"levelo://app?vid=bb9d49d7-52a5-4302-b4bd-28396b570c2e"},"vehicle_type_id":"4","last_reported":1692817442,"current_range_meters":6800,"station_id":"ce4bh2h2rcd13ifvqdh0","pricing_plan_id":"free"},{"bike_id":"7b500f02-83d9-47ba-ac21-26ebad6d99af","system_id":"levelo_inurba_marseille","lat":43.289184,"lon":5.366408,"is_reserved":false,"is_disabled":false,"rental_uris":{"android":"levelo://app?vid=7b500f02-83d9-47ba-ac21-26ebad6d99af","ios":"levelo://app?vid=7b500f02-83d9-47ba-ac21-26ebad6d99af"},"vehicle_type_id":"4","last_reported":1692817442,"current_range_meters":24400,"station_id":"ce4bhap2rcd13ifvqek0","pricing_plan_id":"free"},{"bike_id":"5280603c-33ab-46e0-b0f1-31b83089c05f","system_id":"levelo_inurba_marseille","lat":43.28935,"lon":5.36636,"is_reserved":false,"is_disabled":false,"rental_uris":{"android":"levelo://app?vid=5280603c-33ab-46e0-b0f1-31b83089c05f","ios":"levelo://app?vid=5280603c-33ab-46e0-b0f1-31b83089c05f"},"vehicle_type_id":"4","last_reported":1692817442,"current_range_meters":29200,"station_id":"","pricing_plan_id":"free"},{"bike_id":"0ceab5df-5f33-4255-9934-41db4d144254","system_id":"levelo_inurba_marseille","lat":43.289184,"lon":5.366408,"is_reserved":false,"is_disabled":false,"rental_uris":{"android":"levelo://app?vid=0ceab5df-5f33-4255-9934-41db4d144254","ios":"levelo://app?vid=0ceab5df-5f33-4255-9934-41db4d144254"},"vehicle_type_id":"4","last_reported":1692817442,"current_range_meters":5200,"station_id":"ce4bhap2rcd13ifvqek0","pricing_plan_id":"free"},{"bike_id":"eb551e4a-c420-4ed2-b3fd-7d32788c2f50","system_id":"levelo_inurba_marseille","lat":43.292644,"lon":5.384257,"is_reserved":false,"is_disabled":false,"rental_uris":{"android":"levelo://app?vid=eb551e4a-c420-4ed2-b3fd-7d32788c2f50","ios":"levelo://app?vid=eb551e4a-c420-4ed2-b3fd-7d32788c2f50"},"vehicle_type_id":"4","last_reported":1692817442,"current_range_meters":12400,"station_id":"ce4bh692rcd13ifvqea0","pricing_plan_id":"free"},{"bike_id":"536a9760-ca25-471b-a56f-01579376e264","system_id":"levelo_inurba_marseille","lat":43.292642,"lon":5.384254,"is_reserved":false,"is_disabled":false,"rental_uris":{"android":"levelo://app?vid=536a9760-ca25-471b-a56f-01579376e264","ios":"levelo://app?vid=536a9760-ca25-471b-a56f-01579376e264"},"vehicle_type_id":"4","last_reported":1692817442,"current_range_meters":28800,"station_id":"ce4bh692rcd13ifvqea0","pricing_plan_id":"free"},{"bike_id":"423aae19-16dc-4e05-ac6d-ea1fa8eb4809","system_id":"levelo_inurba_marseille","lat":43.292642,"lon":5.384254,"is_reserved":false,"is_disabled":false,"rental_uris":{"android":"levelo://app?vid=423aae19-16dc-4e05-ac6d-ea1fa8eb4809","ios":"levelo://app?vid=423aae19-16dc-4e05-ac6d-ea1fa8eb4809"},"vehicle_type_id":"4","last_reported":1692817442,"current_range_meters":15200,"station_id":"ce4bh692rcd13ifvqea0","pricing_plan_id":"free"},{"bike_id":"a7f79234-87a4-4390-aefd-c31698a1e108","system_id":"levelo_inurba_marseille","lat":43.292644,"lon":5.384257,"is_reserved":false,"is_disabled":false,"rental_uris":{"android":"levelo://app?vid=a7f79234-87a4-4390-aefd-c31698a1e108","ios":"levelo://app?vid=a7f79234-87a4-4390-aefd-c31698a1e108"},"vehicle_type_id":"4","last_reported":1692817442,"current_range_meters":1600,"station_id":"ce4bh692rcd13ifvqea0","pricing_plan_id":"free"},{"bike_id":"8b5407dc-76c6-42e6-acb1-a14613aa9544","system_id":"levelo_inurba_marseille","lat":43.292644,"lon":5.384257,"is_reserved":false,"is_disabled":false,"rental_uris":{"android":"levelo://app?vid=8b5407dc-76c6-42e6-acb1-a14613aa9544","ios":"levelo://app?vid=8b5407dc-76c6-42e6-acb1-a14613aa9544"},"vehicle_type_id":"4","last_reported":1692817442,"current_range_meters":1600,"station_id":"ce4bh692rcd13ifvqea0","pricing_plan_id":"free"},{"bike_id":"237c1187-0b1e-4a6a-83f3-89fcb0ea5cea","system_id":"levelo_inurba_marseille","lat":43.292641,"lon":5.384387,"is_reserved":false,"is_disabled":false,"rental_uris":{"android":"levelo://app?vid=237c1187-0b1e-4a6a-83f3-89fcb0ea5cea","ios":"levelo://app?vid=237c1187-0b1e-4a6a-83f3-89fcb0ea5cea"},"vehicle_type_id":"4","last_reported":1692817442,"current_range_meters":0,"station_id":"ce4bgt92rcd13ifvqcg0","pricing_plan_id":"free"},{"bike_id":"de6936ea-33de-4a2d-83c6-19a2b561af95","system_id":"levelo_inurba_marseille","lat":43.292644,"lon":5.384257,"is_reserved":false,"is_disabled":false,"rental_uris":{"android":"levelo://app?vid=de6936ea-33de-4a2d-83c6-19a2b561af95","ios":"levelo://app?vid=de6936ea-33de-4a2d-83c6-19a2b561af95"},"vehicle_type_id":"4","last_reported":1692817442,"current_range_meters":23200,"station_id":"ce4bh692rcd13ifvqea0","pricing_plan_id":"free"},{"bike_id":"165a796c-a566-411e-b065-ae6f88409351","system_id":"levelo_inurba_marseille","lat":43.33033,"lon":5.38901,"is_reserved":false,"is_disabled":false,"rental_uris":{"android":"levelo://app?vid=165a796c-a566-411e-b065-ae6f88409351","ios":"levelo://app?vid=165a796c-a566-411e-b065-ae6f88409351"},"vehicle_type_id":"4","last_reported":1692817442,"current_range_meters":31200,"station_id":"ce4bhr92rcd13ifvqhrg","pricing_plan_id":"free"},{"bike_id":"c6bd1d09-1d84-4a37-938f-0d68f2b85c20","system_id":"levelo_inurba_marseille","lat":43.292642,"lon":5.384254,"is_reserved":false,"is_disabled":false,"rental_uris":{"android":"levelo://app?vid=c6bd1d09-1d84-4a37-938f-0d68f2b85c20","ios":"levelo://app?vid=c6bd1d09-1d84-4a37-938f-0d68f2b85c20"},"vehicle_type_id":"4","last_reported":1692817442,"current_range_meters":2400,"station_id":"ce4bh692rcd13ifvqea0","pricing_plan_id":"free"},{"bike_id":"d2bd3742-3e08-44a6-a7a5-56c4f25fd205","system_id":"levelo_inurba_marseille","lat":43.292642,"lon":5.384254,"is_reserved":false,"is_disabled":false,"rental_uris":{"android":"levelo://app?vid=d2bd3742-3e08-44a6-a7a5-56c4f25fd205","ios":"levelo://app?vid=d2bd3742-3e08-44a6-a7a5-56c4f25fd205"},"vehicle_type_id":"4","last_reported":1692817442,"current_range_meters":24000,"station_id":"ce4bh692rcd13ifvqea0","pricing_plan_id":"free"},{"bike_id":"60f8c30e-f3a5-4c06-86cf-922ec0b99bbc","system_id":"levelo_inurba_marseille","lat":43.29261,"lon":5.38455,"is_reserved":false,"is_disabled":false,"rental_uris":{"android":"levelo://app?vid=60f8c30e-f3a5-4c06-86cf-922ec0b99bbc","ios":"levelo://app?vid=60f8c30e-f3a5-4c06-86cf-922ec0b99bbc"},"vehicle_type_id":"4","last_reported":1692817442,"current_range_meters":0,"station_id":"ce4bh692rcd13ifvqea0","pricing_plan_id":"free"},{"bike_id":"ff79aee5-52c1-4a8e-b6fb-663c3135d24b","system_id":"levelo_inurba_marseille","lat":43.292642,"lon":5.384254,"is_reserved":false,"is_disabled":false,"rental_uris":{"android":"levelo://app?vid=ff79aee5-52c1-4a8e-b6fb-663c3135d24b","ios":"levelo://app?vid=ff79aee5-52c1-4a8e-b6fb-663c3135d24b"},"vehicle_type_id":"4","last_reported":1692817442,"current_range_meters":400,"station_id":"ce4bh692rcd13ifvqea0","pricing_plan_id":"free"},{"bike_id":"10884dd5-a883-448d-886b-35abd42e3a54","system_id":"levelo_inurba_marseille","lat":43.3304,"lon":5.38915,"is_reserved":false,"is_disabled":false,"rental_uris":{"android":"levelo://app?vid=10884dd5-a883-448d-886b-35abd42e3a54","ios":"levelo://app?vid=10884dd5-a883-448d-886b-35abd42e3a54"},"vehicle_type_id":"4","last_reported":1692817442,"current_range_meters":2800,"station_id":"ce4bhr92rcd13ifvqhrg","pricing_plan_id":"free"},{"bike_id":"1c07e25f-84db-4513-bedb-11b97c6ec9b6","system_id":"levelo_inurba_marseille","lat":43.33039,"lon":5.38917,"is_reserved":false,"is_disabled":false,"rental_uris":{"android":"levelo://app?vid=1c07e25f-84db-4513-bedb-11b97c6ec9b6","ios":"levelo://app?vid=1c07e25f-84db-4513-bedb-11b97c6ec9b6"},"vehicle_type_id":"4","last_reported":1692817442,"current_range_meters":6800,"station_id":"ce4bhr92rcd13ifvqhrg","pricing_plan_id":"free"},{"bike_id":"33a74228-ed2d-4fd0-bf1b-8fb5bd373a96","system_id":"levelo_inurba_marseille","lat":43.33039,"lon":5.38917,"is_reserved":false,"is_disabled":false,"rental_uris":{"android":"levelo://app?vid=33a74228-ed2d-4fd0-bf1b-8fb5bd373a96","ios":"levelo://app?vid=33a74228-ed2d-4fd0-bf1b-8fb5bd373a96"},"vehicle_type_id":"4","last_reported":1692817442,"current_range_meters":30800,"station_id":"ce4bhr92rcd13ifvqhrg","pricing_plan_id":"free"},{"bike_id":"cde08171-d87e-45a5-a8d0-c519ab926fc6","system_id":"levelo_inurba_marseille","lat":43.3304,"lon":5.38917,"is_reserved":false,"is_disabled":false,"rental_uris":{"android":"levelo://app?vid=cde08171-d87e-45a5-a8d0-c519ab926fc6","ios":"levelo://app?vid=cde08171-d87e-45a5-a8d0-c519ab926fc6"},"vehicle_type_id":"4","last_reported":1692817442,"current_range_meters":800,"station_id":"ce4bhr92rcd13ifvqhrg","pricing_plan_id":"free"},{"bike_id":"5f4f9907-0787-4bf8-8a56-fcaa0a043375","system_id":"levelo_inurba_marseille","lat":43.33041,"lon":5.38916,"is_reserved":false,"is_disabled":false,"rental_uris":{"android":"levelo://app?vid=5f4f9907-0787-4bf8-8a56-fcaa0a043375","ios":"levelo://app?vid=5f4f9907-0787-4bf8-8a56-fcaa0a043375"},"vehicle_type_id":"4","last_reported":1692817442,"current_range_meters":20000,"station_id":"ce4bhr92rcd13ifvqhrg","pricing_plan_id":"free"},{"bike_id":"d7190fce-6914-49ed-b3f4-19a46d8636c9","system_id":"levelo_inurba_marseille","lat":43.33043,"lon":5.38913,"is_reserved":false,"is_disabled":false,"rental_uris":{"android":"levelo://app?vid=d7190fce-6914-49ed-b3f4-19a46d8636c9","ios":"levelo://app?vid=d7190fce-6914-49ed-b3f4-19a46d8636c9"},"vehicle_type_id":"4","last_reported":1692817442,"current_range_meters":29200,"station_id":"ce4bhr92rcd13ifvqhrg","pricing_plan_id":"free"},{"bike_id":"929ba268-49f5-40ff-9f1c-f4fab1c80d69","system_id":"levelo_inurba_marseille","lat":43.33044,"lon":5.38912,"is_reserved":false,"is_disabled":false,"rental_uris":{"android":"levelo://app?vid=929ba268-49f5-40ff-9f1c-f4fab1c80d69","ios":"levelo://app?vid=929ba268-49f5-40ff-9f1c-f4fab1c80d69"},"vehicle_type_id":"4","last_reported":1692817442,"current_range_meters":24800,"station_id":"ce4bhr92rcd13ifvqhrg","pricing_plan_id":"free"},{"bike_id":"976e26a9-5952-4647-bc1e-fd70a26c3487","system_id":"levelo_inurba_marseille","lat":43.3304,"lon":5.38919,"is_reserved":false,"is_disabled":false,"rental_uris":{"android":"levelo://app?vid=976e26a9-5952-4647-bc1e-fd70a26c3487","ios":"levelo://app?vid=976e26a9-5952-4647-bc1e-fd70a26c3487"},"vehicle_type_id":"4","last_reported":1692817442,"current_range_meters":23600,"station_id":"ce4bhr92rcd13ifvqhrg","pricing_plan_id":"free"},{"bike_id":"780c0f6d-397c-48bd-b61b-7f4437de1a33","system_id":"levelo_inurba_marseille","lat":43.33034,"lon":5.38928,"is_reserved":false,"is_disabled":false,"rental_uris":{"android":"levelo://app?vid=780c0f6d-397c-48bd-b61b-7f4437de1a33","ios":"levelo://app?vid=780c0f6d-397c-48bd-b61b-7f4437de1a33"},"vehicle_type_id":"4","last_reported":1692817442,"current_range_meters":10000,"station_id":"ce4bhr92rcd13ifvqhrg","pricing_plan_id":"free"},{"bike_id":"81bdd50f-e2c9-4875-93b8-ce66b1f39ff9","system_id":"levelo_inurba_marseille","lat":43.33041,"lon":5.38918,"is_reserved":false,"is_disabled":false,"rental_uris":{"android":"levelo://app?vid=81bdd50f-e2c9-4875-93b8-ce66b1f39ff9","ios":"levelo://app?vid=81bdd50f-e2c9-4875-93b8-ce66b1f39ff9"},"vehicle_type_id":"4","last_reported":1692817442,"current_range_meters":13200,"station_id":"ce4bhr92rcd13ifvqhrg","pricing_plan_id":"free"},{"bike_id":"8b9f9b54-2e03-4d4e-bfd8-a7cfda03648a","system_id":"levelo_inurba_marseille","lat":43.33041,"lon":5.38918,"is_reserved":false,"is_disabled":false,"rental_uris":{"android":"levelo://app?vid=8b9f9b54-2e03-4d4e-bfd8-a7cfda03648a","ios":"levelo://app?vid=8b9f9b54-2e03-4d4e-bfd8-a7cfda03648a"},"vehicle_type_id":"4","last_reported":1692817442,"current_range_meters":26400,"station_id":"ce4bhr92rcd13ifvqhrg","pricing_plan_id":"free"},{"bike_id":"73e30c8d-1fec-42fa-994e-db63cd20ad16","system_id":"levelo_inurba_marseille","lat":43.33042,"lon":5.38921,"is_reserved":false,"is_disabled":false,"rental_uris":{"android":"levelo://app?vid=73e30c8d-1fec-42fa-994e-db63cd20ad16","ios":"levelo://app?vid=73e30c8d-1fec-42fa-994e-db63cd20ad16"},"vehicle_type_id":"4","last_reported":1692817442,"current_range_meters":24000,"station_id":"ce4bhr92rcd13ifvqhrg","pricing_plan_id":"free"},{"bike_id":"883002d6-96d7-4961-a7c4-8d902095e50b","system_id":"levelo_inurba_marseille","lat":43.33043,"lon":5.38921,"is_reserved":false,"is_disabled":false,"rental_uris":{"android":"levelo://app?vid=883002d6-96d7-4961-a7c4-8d902095e50b","ios":"levelo://app?vid=883002d6-96d7-4961-a7c4-8d902095e50b"},"vehicle_type_id":"4","last_reported":1692817442,"current_range_meters":0,"station_id":"ce4bhr92rcd13ifvqhrg","pricing_plan_id":"free"},{"bike_id":"0e8b3233-f3fd-4878-9e2e-bb8b2a804dd9","system_id":"levelo_inurba_marseille","lat":43.297815,"lon":5.393548,"is_reserved":false,"is_disabled":false,"rental_uris":{"android":"levelo://app?vid=0e8b3233-f3fd-4878-9e2e-bb8b2a804dd9","ios":"levelo://app?vid=0e8b3233-f3fd-4878-9e2e-bb8b2a804dd9"},"vehicle_type_id":"4","last_reported":1692817442,"current_range_meters":400,"station_id":"chh1huq6cuj3fo74tm60","pricing_plan_id":"free"},{"bike_id":"4def7089-5114-4593-b022-fac9d4d5154a","system_id":"levelo_inurba_marseille","lat":43.297815,"lon":5.393548,"is_reserved":false,"is_disabled":false,"rental_uris":{"android":"levelo://app?vid=4def7089-5114-4593-b022-fac9d4d5154a","ios":"levelo://app?vid=4def7089-5114-4593-b022-fac9d4d5154a"},"vehicle_type_id":"4","last_reported":1692817442,"current_range_meters":0,"station_id":"chh1huq6cuj3fo74tm60","pricing_plan_id":"free"},{"bike_id":"8dde016a-e96e-4c0e-bfe8-c7da7f76c8b4","system_id":"levelo_inurba_marseille","lat":43.289741,"lon":5.378306,"is_reserved":false,"is_disabled":false,"rental_uris":{"android":"levelo://app?vid=8dde016a-e96e-4c0e-bfe8-c7da7f76c8b4","ios":"levelo://app?vid=8dde016a-e96e-4c0e-bfe8-c7da7f76c8b4"},"vehicle_type_id":"4","last_reported":1692817442,"current_range_meters":27200,"station_id":"ce4bh9p2rcd13ifvqed0","pricing_plan_id":"free"},{"bike_id":"9963edc3-20ea-47fd-9db0-55362f92e51a","system_id":"levelo_inurba_marseille","lat":43.28856,"lon":5.358371,"is_reserved":false,"is_disabled":false,"rental_uris":{"android":"levelo://app?vid=9963edc3-20ea-47fd-9db0-55362f92e51a","ios":"levelo://app?vid=9963edc3-20ea-47fd-9db0-55362f92e51a"},"vehicle_type_id":"4","last_reported":1692817442,"current_range_meters":18400,"station_id":"ce4bhb12rcd13ifvqem0","pricing_plan_id":"free"},{"bike_id":"24a0106b-338f-4c82-97af-9e9c8d6de438","system_id":"levelo_inurba_marseille","lat":43.33788,"lon":5.37414,"is_reserved":false,"is_disabled":false,"rental_uris":{"android":"levelo://app?vid=24a0106b-338f-4c82-97af-9e9c8d6de438","ios":"levelo://app?vid=24a0106b-338f-4c82-97af-9e9c8d6de438"},"vehicle_type_id":"4","last_reported":1692817442,"current_range_meters":24000,"station_id":"","pricing_plan_id":"free"},{"bike_id":"4410cd36-818f-4a6a-8103-fdc07f268c64","system_id":"levelo_inurba_marseille","lat":43.286961,"lon":5.373785,"is_reserved":false,"is_disabled":false,"rental_uris":{"android":"levelo://app?vid=4410cd36-818f-4a6a-8103-fdc07f268c64","ios":"levelo://app?vid=4410cd36-818f-4a6a-8103-fdc07f268c64"},"vehicle_type_id":"4","last_reported":1692817442,"current_range_meters":8000,"station_id":"ce4bh3p2rcd13ifvqdq0","pricing_plan_id":"free"},{"bike_id":"c6299992-8419-41d6-bea9-8bd854b897e7","system_id":"levelo_inurba_marseille","lat":43.286961,"lon":5.373785,"is_reserved":false,"is_disabled":false,"rental_uris":{"android":"levelo://app?vid=c6299992-8419-41d6-bea9-8bd854b897e7","ios":"levelo://app?vid=c6299992-8419-41d6-bea9-8bd854b897e7"},"vehicle_type_id":"4","last_reported":1692817442,"current_range_meters":29600,"station_id":"ce4bh3p2rcd13ifvqdq0","pricing_plan_id":"free"},{"bike_id":"cb999581-2d46-4542-8fb6-e52c0f490f37","system_id":"levelo_inurba_marseille","lat":43.28661,"lon":5.3636,"is_reserved":false,"is_disabled":false,"rental_uris":{"android":"levelo://app?vid=cb999581-2d46-4542-8fb6-e52c0f490f37","ios":"levelo://app?vid=cb999581-2d46-4542-8fb6-e52c0f490f37"},"vehicle_type_id":"4","last_reported":1692817442,"current_range_meters":0,"station_id":"ce4bhah2rcd13ifvqej0","pricing_plan_id":"free"},{"bike_id":"75199276-b705-4ad7-b6a9-49aeaa84628a","system_id":"levelo_inurba_marseille","lat":43.286591,"lon":5.363346,"is_reserved":false,"is_disabled":false,"rental_uris":{"android":"levelo://app?vid=75199276-b705-4ad7-b6a9-49aeaa84628a","ios":"levelo://app?vid=75199276-b705-4ad7-b6a9-49aeaa84628a"},"vehicle_type_id":"4","last_reported":1692817442,"current_range_meters":29600,"station_id":"ce4bhah2rcd13ifvqej0","pricing_plan_id":"free"},{"bike_id":"53a651e4-f9a0-490b-961c-6794b69ef1c3","system_id":"levelo_inurba_marseille","lat":43.286039,"lon":5.370679,"is_reserved":false,"is_disabled":false,"rental_uris":{"android":"levelo://app?vid=53a651e4-f9a0-490b-961c-6794b69ef1c3","ios":"levelo://app?vid=53a651e4-f9a0-490b-961c-6794b69ef1c3"},"vehicle_type_id":"4","last_reported":1692817442,"current_range_meters":0,"station_id":"ce4bht12rcd13ifvqi60","pricing_plan_id":"free"},{"bike_id":"11c23f52-7244-4c49-ae7b-39b3c5e7ac06","system_id":"levelo_inurba_marseille","lat":43.290345,"lon":5.38646,"is_reserved":false,"is_disabled":false,"rental_uris":{"android":"levelo://app?vid=11c23f52-7244-4c49-ae7b-39b3c5e7ac06","ios":"levelo://app?vid=11c23f52-7244-4c49-ae7b-39b3c5e7ac06"},"vehicle_type_id":"4","last_reported":1692817442,"current_range_meters":31200,"station_id":"ce4bh4p2rcd13ifvqe0g","pricing_plan_id":"free"},{"bike_id":"a3a63b76-ccbc-4af9-a3f0-6c964a187ea6","system_id":"levelo_inurba_marseille","lat":43.290345,"lon":5.38646,"is_reserved":false,"is_disabled":false,"rental_uris":{"android":"levelo://app?vid=a3a63b76-ccbc-4af9-a3f0-6c964a187ea6","ios":"levelo://app?vid=a3a63b76-ccbc-4af9-a3f0-6c964a187ea6"},"vehicle_type_id":"4","last_reported":1692817442,"current_range_meters":27600,"station_id":"ce4bh4p2rcd13ifvqe0g","pricing_plan_id":"free"},{"bike_id":"f9d9095c-5840-4087-b061-c23980cbdb3a","system_id":"levelo_inurba_marseille","lat":43.286039,"lon":5.370679,"is_reserved":false,"is_disabled":false,"rental_uris":{"android":"levelo://app?vid=f9d9095c-5840-4087-b061-c23980cbdb3a","ios":"levelo://app?vid=f9d9095c-5840-4087-b061-c23980cbdb3a"},"vehicle_type_id":"4","last_reported":1692817442,"current_range_meters":3200,"station_id":"ce4bht12rcd13ifvqi60","pricing_plan_id":"free"},{"bike_id":"a841dc3d-b93e-4791-9d19-f6f8da61a418","system_id":"levelo_inurba_marseille","lat":43.287184,"lon":5.37937,"is_reserved":false,"is_disabled":false,"rental_uris":{"android":"levelo://app?vid=a841dc3d-b93e-4791-9d19-f6f8da61a418","ios":"levelo://app?vid=a841dc3d-b93e-4791-9d19-f6f8da61a418"},"vehicle_type_id":"4","last_reported":1692817442,"current_range_meters":5200,"station_id":"ce4bh9p2rcd13ifvqec0","pricing_plan_id":"free"},{"bike_id":"3ce2981d-c113-4791-a8a6-4847cbfc889f","system_id":"levelo_inurba_marseille","lat":43.287184,"lon":5.37937,"is_reserved":false,"is_disabled":false,"rental_uris":{"android":"levelo://app?vid=3ce2981d-c113-4791-a8a6-4847cbfc889f","ios":"levelo://app?vid=3ce2981d-c113-4791-a8a6-4847cbfc889f"},"vehicle_type_id":"4","last_reported":1692817442,"current_range_meters":11200,"station_id":"ce4bh9p2rcd13ifvqec0","pricing_plan_id":"free"},{"bike_id":"ed672746-6680-4ce4-b3be-87d5ddc85636","system_id":"levelo_inurba_marseille","lat":43.287184,"lon":5.37937,"is_reserved":false,"is_disabled":false,"rental_uris":{"android":"levelo://app?vid=ed672746-6680-4ce4-b3be-87d5ddc85636","ios":"levelo://app?vid=ed672746-6680-4ce4-b3be-87d5ddc85636"},"vehicle_type_id":"4","last_reported":1692817442,"current_range_meters":400,"station_id":"ce4bh9p2rcd13ifvqec0","pricing_plan_id":"free"},{"bike_id":"e1409725-97a6-4fd4-b8fe-262a612698fa","system_id":"levelo_inurba_marseille","lat":43.287185,"lon":5.379373,"is_reserved":false,"is_disabled":false,"rental_uris":{"android":"levelo://app?vid=e1409725-97a6-4fd4-b8fe-262a612698fa","ios":"levelo://app?vid=e1409725-97a6-4fd4-b8fe-262a612698fa"},"vehicle_type_id":"4","last_reported":1692817442,"current_range_meters":10400,"station_id":"ce4bh9p2rcd13ifvqec0","pricing_plan_id":"free"},{"bike_id":"90245427-c278-473f-91af-6bc05bc7764a","system_id":"levelo_inurba_marseille","lat":43.316517,"lon":5.404375,"is_reserved":false,"is_disabled":false,"rental_uris":{"android":"levelo://app?vid=90245427-c278-473f-91af-6bc05bc7764a","ios":"levelo://app?vid=90245427-c278-473f-91af-6bc05bc7764a"},"vehicle_type_id":"4","last_reported":1692817442,"current_range_meters":5200,"station_id":"ce4bh012rcd13ifvqd00","pricing_plan_id":"free"},{"bike_id":"7da9e437-1e79-4b5f-9ab0-65254ac17dd7","system_id":"levelo_inurba_marseille","lat":43.31646,"lon":5.40439,"is_reserved":false,"is_disabled":false,"rental_uris":{"android":"levelo://app?vid=7da9e437-1e79-4b5f-9ab0-65254ac17dd7","ios":"levelo://app?vid=7da9e437-1e79-4b5f-9ab0-65254ac17dd7"},"vehicle_type_id":"4","last_reported":1692817442,"current_range_meters":26400,"station_id":"ce4bh012rcd13ifvqd00","pricing_plan_id":"free"},{"bike_id":"e7c14ae8-023a-4f80-97f8-c53892eab8a6","system_id":"levelo_inurba_marseille","lat":43.31647,"lon":5.4044,"is_reserved":false,"is_disabled":false,"rental_uris":{"android":"levelo://app?vid=e7c14ae8-023a-4f80-97f8-c53892eab8a6","ios":"levelo://app?vid=e7c14ae8-023a-4f80-97f8-c53892eab8a6"},"vehicle_type_id":"4","last_reported":1692817442,"current_range_meters":22800,"station_id":"ce4bh012rcd13ifvqd00","pricing_plan_id":"free"},{"bike_id":"88d36210-04ca-4956-8ee0-9934783744ce","system_id":"levelo_inurba_marseille","lat":43.284534,"lon":5.358662,"is_reserved":false,"is_disabled":false,"rental_uris":{"android":"levelo://app?vid=88d36210-04ca-4956-8ee0-9934783744ce","ios":"levelo://app?vid=88d36210-04ca-4956-8ee0-9934783744ce"},"vehicle_type_id":"4","last_reported":1692817442,"current_range_meters":20400,"station_id":"ce4bhah2rcd13ifvqei0","pricing_plan_id":"free"},{"bike_id":"2363d3b5-6c15-401a-a59c-ee80bd4af927","system_id":"levelo_inurba_marseille","lat":43.28415,"lon":5.37522,"is_reserved":false,"is_disabled":false,"rental_uris":{"android":"levelo://app?vid=2363d3b5-6c15-401a-a59c-ee80bd4af927","ios":"levelo://app?vid=2363d3b5-6c15-401a-a59c-ee80bd4af927"},"vehicle_type_id":"4","last_reported":1692817442,"current_range_meters":4400,"station_id":"ce4bh412rcd13ifvqds0","pricing_plan_id":"free"},{"bike_id":"0a3b171d-1e68-4659-9fd6-77748129c5de","system_id":"levelo_inurba_marseille","lat":43.28403,"lon":5.37509,"is_reserved":false,"is_disabled":false,"rental_uris":{"android":"levelo://app?vid=0a3b171d-1e68-4659-9fd6-77748129c5de","ios":"levelo://app?vid=0a3b171d-1e68-4659-9fd6-77748129c5de"},"vehicle_type_id":"4","last_reported":1692817442,"current_range_meters":26400,"station_id":"ce4bh412rcd13ifvqds0","pricing_plan_id":"free"},{"bike_id":"32efc84e-d045-45ff-98a5-db1e17f0a808","system_id":"levelo_inurba_marseille","lat":43.286595,"lon":5.386795,"is_reserved":false,"is_disabled":false,"rental_uris":{"android":"levelo://app?vid=32efc84e-d045-45ff-98a5-db1e17f0a808","ios":"levelo://app?vid=32efc84e-d045-45ff-98a5-db1e17f0a808"},"vehicle_type_id":"4","last_reported":1692817442,"current_range_meters":3600,"station_id":"ce4bh492rcd13ifvqdug","pricing_plan_id":"free"},{"bike_id":"01151a8e-9ab0-466a-b02f-daa6b7b2e605","system_id":"levelo_inurba_marseille","lat":43.286595,"lon":5.386795,"is_reserved":false,"is_disabled":false,"rental_uris":{"android":"levelo://app?vid=01151a8e-9ab0-466a-b02f-daa6b7b2e605","ios":"levelo://app?vid=01151a8e-9ab0-466a-b02f-daa6b7b2e605"},"vehicle_type_id":"4","last_reported":1692817442,"current_range_meters":0,"station_id":"ce4bh492rcd13ifvqdug","pricing_plan_id":"free"},{"bike_id":"6df1089c-f6c0-4ac0-9ea4-408307359d25","system_id":"levelo_inurba_marseille","lat":43.286595,"lon":5.386795,"is_reserved":false,"is_disabled":false,"rental_uris":{"android":"levelo://app?vid=6df1089c-f6c0-4ac0-9ea4-408307359d25","ios":"levelo://app?vid=6df1089c-f6c0-4ac0-9ea4-408307359d25"},"vehicle_type_id":"4","last_reported":1692817442,"current_range_meters":0,"station_id":"ce4bh492rcd13ifvqdug","pricing_plan_id":"free"},{"bike_id":"20d8a268-b475-49c5-b641-35addf9e2fa5","system_id":"levelo_inurba_marseille","lat":43.31889,"lon":5.40727,"is_reserved":false,"is_disabled":false,"rental_uris":{"android":"levelo://app?vid=20d8a268-b475-49c5-b641-35addf9e2fa5","ios":"levelo://app?vid=20d8a268-b475-49c5-b641-35addf9e2fa5"},"vehicle_type_id":"4","last_reported":1692817442,"current_range_meters":0,"station_id":"","pricing_plan_id":"free"},{"bike_id":"e54ac8bf-03e6-4445-b501-5f2a8496318b","system_id":"levelo_inurba_marseille","lat":43.33717,"lon":5.391857,"is_reserved":false,"is_disabled":false,"rental_uris":{"android":"levelo://app?vid=e54ac8bf-03e6-4445-b501-5f2a8496318b","ios":"levelo://app?vid=e54ac8bf-03e6-4445-b501-5f2a8496318b"},"vehicle_type_id":"4","last_reported":1692817442,"current_range_meters":22000,"station_id":"ce4bhr92rcd13ifvqhsg","pricing_plan_id":"free"},{"bike_id":"73407d5d-ae91-461c-8582-bbf0e6e1ffea","system_id":"levelo_inurba_marseille","lat":43.33721,"lon":5.39185,"is_reserved":false,"is_disabled":false,"rental_uris":{"android":"levelo://app?vid=73407d5d-ae91-461c-8582-bbf0e6e1ffea","ios":"levelo://app?vid=73407d5d-ae91-461c-8582-bbf0e6e1ffea"},"vehicle_type_id":"4","last_reported":1692817442,"current_range_meters":0,"station_id":"ce4bhr92rcd13ifvqhsg","pricing_plan_id":"free"},{"bike_id":"64e0816f-7559-4b31-bdff-f1f4407da309","system_id":"levelo_inurba_marseille","lat":43.323464,"lon":5.406297,"is_reserved":false,"is_disabled":false,"rental_uris":{"android":"levelo://app?vid=64e0816f-7559-4b31-bdff-f1f4407da309","ios":"levelo://app?vid=64e0816f-7559-4b31-bdff-f1f4407da309"},"vehicle_type_id":"4","last_reported":1692817442,"current_range_meters":30400,"station_id":"ce4bhq92rcd13ifvqhjg","pricing_plan_id":"free"},{"bike_id":"657c5190-949d-4223-8bba-4ae233e88798","system_id":"levelo_inurba_marseille","lat":43.33727,"lon":5.39182,"is_reserved":false,"is_disabled":false,"rental_uris":{"android":"levelo://app?vid=657c5190-949d-4223-8bba-4ae233e88798","ios":"levelo://app?vid=657c5190-949d-4223-8bba-4ae233e88798"},"vehicle_type_id":"4","last_reported":1692817442,"current_range_meters":8000,"station_id":"ce4bhr92rcd13ifvqhsg","pricing_plan_id":"free"},{"bike_id":"81207e02-e329-4cea-9b6c-33ba9c0267d2","system_id":"levelo_inurba_marseille","lat":43.284793,"lon":5.384113,"is_reserved":false,"is_disabled":false,"rental_uris":{"android":"levelo://app?vid=81207e02-e329-4cea-9b6c-33ba9c0267d2","ios":"levelo://app?vid=81207e02-e329-4cea-9b6c-33ba9c0267d2"},"vehicle_type_id":"4","last_reported":1692817442,"current_range_meters":31200,"station_id":"ce4bh512rcd13ifvqe3g","pricing_plan_id":"free"},{"bike_id":"b5f8546e-da75-4390-9b9e-d5719e759bd0","system_id":"levelo_inurba_marseille","lat":43.29796,"lon":5.40402,"is_reserved":false,"is_disabled":false,"rental_uris":{"android":"levelo://app?vid=b5f8546e-da75-4390-9b9e-d5719e759bd0","ios":"levelo://app?vid=b5f8546e-da75-4390-9b9e-d5719e759bd0"},"vehicle_type_id":"4","last_reported":1692817442,"current_range_meters":0,"station_id":"ce4bh112rcd13ifvqd90","pricing_plan_id":"free"},{"bike_id":"f436ccfc-c8dc-4308-837d-7f9a906a4f69","system_id":"levelo_inurba_marseille","lat":43.283498,"lon":5.380948,"is_reserved":false,"is_disabled":false,"rental_uris":{"android":"levelo://app?vid=f436ccfc-c8dc-4308-837d-7f9a906a4f69","ios":"levelo://app?vid=f436ccfc-c8dc-4308-837d-7f9a906a4f69"},"vehicle_type_id":"4","last_reported":1692817442,"current_range_meters":12000,"station_id":"ce4bh412rcd13ifvqdr0","pricing_plan_id":"free"},{"bike_id":"96a4c01a-ae2b-4f71-afc1-86f0400137f0","system_id":"levelo_inurba_marseille","lat":43.283498,"lon":5.380948,"is_reserved":false,"is_disabled":false,"rental_uris":{"android":"levelo://app?vid=96a4c01a-ae2b-4f71-afc1-86f0400137f0","ios":"levelo://app?vid=96a4c01a-ae2b-4f71-afc1-86f0400137f0"},"vehicle_type_id":"4","last_reported":1692817442,"current_range_meters":16400,"station_id":"ce4bh412rcd13ifvqdr0","pricing_plan_id":"free"},{"bike_id":"012a586a-f0c8-4fcc-80aa-c3d617d5fcde","system_id":"levelo_inurba_marseille","lat":43.283498,"lon":5.380948,"is_reserved":false,"is_disabled":false,"rental_uris":{"android":"levelo://app?vid=012a586a-f0c8-4fcc-80aa-c3d617d5fcde","ios":"levelo://app?vid=012a586a-f0c8-4fcc-80aa-c3d617d5fcde"},"vehicle_type_id":"4","last_reported":1692817442,"current_range_meters":6000,"station_id":"ce4bh412rcd13ifvqdr0","pricing_plan_id":"free"},{"bike_id":"2ea73967-988f-4f1a-aa76-7f33a11c4098","system_id":"levelo_inurba_marseille","lat":43.3067,"lon":5.40881,"is_reserved":false,"is_disabled":false,"rental_uris":{"android":"levelo://app?vid=2ea73967-988f-4f1a-aa76-7f33a11c4098","ios":"levelo://app?vid=2ea73967-988f-4f1a-aa76-7f33a11c4098"},"vehicle_type_id":"4","last_reported":1692817442,"current_range_meters":13200,"station_id":"","pricing_plan_id":"free"},{"bike_id":"157d30b7-9b81-4c67-af6e-208784d673c8","system_id":"levelo_inurba_marseille","lat":43.28423,"lon":5.34992,"is_reserved":false,"is_disabled":false,"rental_uris":{"android":"levelo://app?vid=157d30b7-9b81-4c67-af6e-208784d673c8","ios":"levelo://app?vid=157d30b7-9b81-4c67-af6e-208784d673c8"},"vehicle_type_id":"4","last_reported":1692817442,"current_range_meters":31200,"station_id":"ce4bhbh2rcd13ifvqepg","pricing_plan_id":"free"},{"bike_id":"cdb79983-85d8-42a6-a767-91785f431dab","system_id":"levelo_inurba_marseille","lat":43.28321,"lon":5.35222,"is_reserved":false,"is_disabled":false,"rental_uris":{"android":"levelo://app?vid=cdb79983-85d8-42a6-a767-91785f431dab","ios":"levelo://app?vid=cdb79983-85d8-42a6-a767-91785f431dab"},"vehicle_type_id":"4","last_reported":1692817442,"current_range_meters":18000,"station_id":"","pricing_plan_id":"free"},{"bike_id":"f50aca5f-cf5b-4020-925f-826a2e34874f","system_id":"levelo_inurba_marseille","lat":43.289363,"lon":5.396322,"is_reserved":false,"is_disabled":false,"rental_uris":{"android":"levelo://app?vid=f50aca5f-cf5b-4020-925f-826a2e34874f","ios":"levelo://app?vid=f50aca5f-cf5b-4020-925f-826a2e34874f"},"vehicle_type_id":"4","last_reported":1692817442,"current_range_meters":31200,"station_id":"ce4bh3h2rcd13ifvqdn0","pricing_plan_id":"free"},{"bike_id":"79ae07f7-3d9b-456b-927e-8e880eafedba","system_id":"levelo_inurba_marseille","lat":43.32572,"lon":5.40673,"is_reserved":false,"is_disabled":false,"rental_uris":{"android":"levelo://app?vid=79ae07f7-3d9b-456b-927e-8e880eafedba","ios":"levelo://app?vid=79ae07f7-3d9b-456b-927e-8e880eafedba"},"vehicle_type_id":"4","last_reported":1692817442,"current_range_meters":400,"station_id":"","pricing_plan_id":"free"},{"bike_id":"098067c0-cd09-4bc5-b0e4-3557a24cb6ab","system_id":"levelo_inurba_marseille","lat":43.292724,"lon":5.401131,"is_reserved":false,"is_disabled":false,"rental_uris":{"android":"levelo://app?vid=098067c0-cd09-4bc5-b0e4-3557a24cb6ab","ios":"levelo://app?vid=098067c0-cd09-4bc5-b0e4-3557a24cb6ab"},"vehicle_type_id":"4","last_reported":1692817442,"current_range_meters":15600,"station_id":"ce4bh312rcd13ifvqdk0","pricing_plan_id":"free"},{"bike_id":"88940920-727e-47f8-bee6-24feedff1167","system_id":"levelo_inurba_marseille","lat":43.282754,"lon":5.350519,"is_reserved":false,"is_disabled":false,"rental_uris":{"android":"levelo://app?vid=88940920-727e-47f8-bee6-24feedff1167","ios":"levelo://app?vid=88940920-727e-47f8-bee6-24feedff1167"},"vehicle_type_id":"4","last_reported":1692817442,"current_range_meters":29600,"station_id":"ce4bhbp2rcd13ifvqerg","pricing_plan_id":"free"},{"bike_id":"b3d83be6-485e-424f-942c-9ee8b49c11bf","system_id":"levelo_inurba_marseille","lat":43.292724,"lon":5.401131,"is_reserved":false,"is_disabled":false,"rental_uris":{"android":"levelo://app?vid=b3d83be6-485e-424f-942c-9ee8b49c11bf","ios":"levelo://app?vid=b3d83be6-485e-424f-942c-9ee8b49c11bf"},"vehicle_type_id":"4","last_reported":1692817442,"current_range_meters":7600,"station_id":"ce4bh312rcd13ifvqdk0","pricing_plan_id":"free"},{"bike_id":"5373b607-6f85-4da7-bde3-0d7b652ecac2","system_id":"levelo_inurba_marseille","lat":43.28039,"lon":5.369297,"is_reserved":false,"is_disabled":false,"rental_uris":{"android":"levelo://app?vid=5373b607-6f85-4da7-bde3-0d7b652ecac2","ios":"levelo://app?vid=5373b607-6f85-4da7-bde3-0d7b652ecac2"},"vehicle_type_id":"4","last_reported":1692817442,"current_range_meters":16400,"station_id":"ce4bha12rcd13ifvqef0","pricing_plan_id":"free"},{"bike_id":"aae03959-a3f5-4ef6-a05f-9a6a80419b3e","system_id":"levelo_inurba_marseille","lat":43.28039,"lon":5.369297,"is_reserved":false,"is_disabled":false,"rental_uris":{"android":"levelo://app?vid=aae03959-a3f5-4ef6-a05f-9a6a80419b3e","ios":"levelo://app?vid=aae03959-a3f5-4ef6-a05f-9a6a80419b3e"},"vehicle_type_id":"4","last_reported":1692817442,"current_range_meters":17200,"station_id":"ce4bha12rcd13ifvqef0","pricing_plan_id":"free"},{"bike_id":"9f46cfde-4f76-4076-bade-5765c2d3d473","system_id":"levelo_inurba_marseille","lat":43.28039,"lon":5.369297,"is_reserved":false,"is_disabled":false,"rental_uris":{"android":"levelo://app?vid=9f46cfde-4f76-4076-bade-5765c2d3d473","ios":"levelo://app?vid=9f46cfde-4f76-4076-bade-5765c2d3d473"},"vehicle_type_id":"4","last_reported":1692817442,"current_range_meters":31200,"station_id":"ce4bha12rcd13ifvqef0","pricing_plan_id":"free"},{"bike_id":"340b15e3-a4a0-49c9-bff5-c416c659dcd8","system_id":"levelo_inurba_marseille","lat":43.32531,"lon":5.40879,"is_reserved":false,"is_disabled":false,"rental_uris":{"android":"levelo://app?vid=340b15e3-a4a0-49c9-bff5-c416c659dcd8","ios":"levelo://app?vid=340b15e3-a4a0-49c9-bff5-c416c659dcd8"},"vehicle_type_id":"4","last_reported":1692817442,"current_range_meters":27600,"station_id":"","pricing_plan_id":"free"},{"bike_id":"170e5c4b-c212-4afc-86b8-2cc267d0acf4","system_id":"levelo_inurba_marseille","lat":43.326605,"lon":5.409903,"is_reserved":false,"is_disabled":false,"rental_uris":{"android":"levelo://app?vid=170e5c4b-c212-4afc-86b8-2cc267d0acf4","ios":"levelo://app?vid=170e5c4b-c212-4afc-86b8-2cc267d0acf4"},"vehicle_type_id":"4","last_reported":1692817442,"current_range_meters":400,"station_id":"ce4bhpp2rcd13ifvqhgg","pricing_plan_id":"free"},{"bike_id":"55f4e64b-5a90-4cc6-82b8-f296f3f44b77","system_id":"levelo_inurba_marseille","lat":43.287091,"lon":5.400047,"is_reserved":false,"is_disabled":false,"rental_uris":{"android":"levelo://app?vid=55f4e64b-5a90-4cc6-82b8-f296f3f44b77","ios":"levelo://app?vid=55f4e64b-5a90-4cc6-82b8-f296f3f44b77"},"vehicle_type_id":"4","last_reported":1692817442,"current_range_meters":19200,"station_id":"","pricing_plan_id":"free"},{"bike_id":"1f5e3677-0282-4548-848b-20a341456899","system_id":"levelo_inurba_marseille","lat":43.32044,"lon":5.41532,"is_reserved":false,"is_disabled":false,"rental_uris":{"android":"levelo://app?vid=1f5e3677-0282-4548-848b-20a341456899","ios":"levelo://app?vid=1f5e3677-0282-4548-848b-20a341456899"},"vehicle_type_id":"4","last_reported":1692817442,"current_range_meters":14400,"station_id":"ce4bhq92rcd13ifvqhkg","pricing_plan_id":"free"},{"bike_id":"a0a0fc11-0993-4b38-9635-10fee00c1b23","system_id":"levelo_inurba_marseille","lat":43.320045,"lon":5.415046,"is_reserved":false,"is_disabled":false,"rental_uris":{"android":"levelo://app?vid=a0a0fc11-0993-4b38-9635-10fee00c1b23","ios":"levelo://app?vid=a0a0fc11-0993-4b38-9635-10fee00c1b23"},"vehicle_type_id":"4","last_reported":1692817442,"current_range_meters":31200,"station_id":"ce4bhq92rcd13ifvqhkg","pricing_plan_id":"free"},{"bike_id":"e85807de-5e0e-463d-a9f0-c8a8f6a61d70","system_id":"levelo_inurba_marseille","lat":43.320045,"lon":5.415048,"is_reserved":false,"is_disabled":false,"rental_uris":{"android":"levelo://app?vid=e85807de-5e0e-463d-a9f0-c8a8f6a61d70","ios":"levelo://app?vid=e85807de-5e0e-463d-a9f0-c8a8f6a61d70"},"vehicle_type_id":"4","last_reported":1692817442,"current_range_meters":17600,"station_id":"ce4bhq92rcd13ifvqhkg","pricing_plan_id":"free"},{"bike_id":"c327718a-8fe6-4791-a349-aba0f8f94e82","system_id":"levelo_inurba_marseille","lat":43.279742,"lon":5.38744,"is_reserved":false,"is_disabled":false,"rental_uris":{"android":"levelo://app?vid=c327718a-8fe6-4791-a349-aba0f8f94e82","ios":"levelo://app?vid=c327718a-8fe6-4791-a349-aba0f8f94e82"},"vehicle_type_id":"4","last_reported":1692817442,"current_range_meters":25200,"station_id":"ce4bhg12rcd13ifvqf80","pricing_plan_id":"free"},{"bike_id":"0911c30e-625e-4b79-b259-b6b8b1f02e9f","system_id":"levelo_inurba_marseille","lat":43.3204,"lon":5.41564,"is_reserved":false,"is_disabled":false,"rental_uris":{"android":"levelo://app?vid=0911c30e-625e-4b79-b259-b6b8b1f02e9f","ios":"levelo://app?vid=0911c30e-625e-4b79-b259-b6b8b1f02e9f"},"vehicle_type_id":"4","last_reported":1692817442,"current_range_meters":20000,"station_id":"ce4bhq92rcd13ifvqhkg","pricing_plan_id":"free"},{"bike_id":"4753502f-3868-4b19-9875-d3e533b02670","system_id":"levelo_inurba_marseille","lat":43.320045,"lon":5.415048,"is_reserved":false,"is_disabled":false,"rental_uris":{"android":"levelo://app?vid=4753502f-3868-4b19-9875-d3e533b02670","ios":"levelo://app?vid=4753502f-3868-4b19-9875-d3e533b02670"},"vehicle_type_id":"4","last_reported":1692817442,"current_range_meters":31600,"station_id":"ce4bhq92rcd13ifvqhkg","pricing_plan_id":"free"},{"bike_id":"adbf4df7-09e8-4024-970b-c34938d8ce20","system_id":"levelo_inurba_marseille","lat":43.292571,"lon":5.409107,"is_reserved":false,"is_disabled":false,"rental_uris":{"android":"levelo://app?vid=adbf4df7-09e8-4024-970b-c34938d8ce20","ios":"levelo://app?vid=adbf4df7-09e8-4024-970b-c34938d8ce20"},"vehicle_type_id":"4","last_reported":1692817442,"current_range_meters":6800,"station_id":"ce4bh192rcd13ifvqdc0","pricing_plan_id":"free"},{"bike_id":"2401fef6-ff58-4b44-bcb2-709397b13d33","system_id":"levelo_inurba_marseille","lat":43.292569,"lon":5.409107,"is_reserved":false,"is_disabled":false,"rental_uris":{"android":"levelo://app?vid=2401fef6-ff58-4b44-bcb2-709397b13d33","ios":"levelo://app?vid=2401fef6-ff58-4b44-bcb2-709397b13d33"},"vehicle_type_id":"4","last_reported":1692817442,"current_range_meters":800,"station_id":"ce4bh192rcd13ifvqdc0","pricing_plan_id":"free"},{"bike_id":"179e1b1a-49c2-4ac7-a169-2a52645a29b9","system_id":"levelo_inurba_marseille","lat":43.292569,"lon":5.409107,"is_reserved":false,"is_disabled":false,"rental_uris":{"android":"levelo://app?vid=179e1b1a-49c2-4ac7-a169-2a52645a29b9","ios":"levelo://app?vid=179e1b1a-49c2-4ac7-a169-2a52645a29b9"},"vehicle_type_id":"4","last_reported":1692817442,"current_range_meters":3200,"station_id":"ce4bh192rcd13ifvqdc0","pricing_plan_id":"free"},{"bike_id":"91bcd023-ed5f-4c9b-9a3e-0ddc21f39e52","system_id":"levelo_inurba_marseille","lat":43.32545,"lon":5.41439,"is_reserved":false,"is_disabled":false,"rental_uris":{"android":"levelo://app?vid=91bcd023-ed5f-4c9b-9a3e-0ddc21f39e52","ios":"levelo://app?vid=91bcd023-ed5f-4c9b-9a3e-0ddc21f39e52"},"vehicle_type_id":"4","last_reported":1692817442,"current_range_meters":29600,"station_id":"ce4bhq12rcd13ifvqhhg","pricing_plan_id":"free"},{"bike_id":"045850f6-c2c8-4cdc-a661-c08d43503440","system_id":"levelo_inurba_marseille","lat":43.276179,"lon":5.361009,"is_reserved":false,"is_disabled":false,"rental_uris":{"android":"levelo://app?vid=045850f6-c2c8-4cdc-a661-c08d43503440","ios":"levelo://app?vid=045850f6-c2c8-4cdc-a661-c08d43503440"},"vehicle_type_id":"4","last_reported":1692817442,"current_range_meters":30800,"station_id":"ce4bgj92rcd13ifvqbe0","pricing_plan_id":"free"},{"bike_id":"a66fab84-1054-4d10-b896-1cb540e8ef43","system_id":"levelo_inurba_marseille","lat":43.27613,"lon":5.36105,"is_reserved":false,"is_disabled":false,"rental_uris":{"android":"levelo://app?vid=a66fab84-1054-4d10-b896-1cb540e8ef43","ios":"levelo://app?vid=a66fab84-1054-4d10-b896-1cb540e8ef43"},"vehicle_type_id":"4","last_reported":1692817442,"current_range_meters":24000,"station_id":"ce4bgj92rcd13ifvqbe0","pricing_plan_id":"free"},{"bike_id":"149166df-6d73-4924-a474-c1c2f4978495","system_id":"levelo_inurba_marseille","lat":43.303837,"lon":5.418724,"is_reserved":false,"is_disabled":false,"rental_uris":{"android":"levelo://app?vid=149166df-6d73-4924-a474-c1c2f4978495","ios":"levelo://app?vid=149166df-6d73-4924-a474-c1c2f4978495"},"vehicle_type_id":"4","last_reported":1692817442,"current_range_meters":16400,"station_id":"ce4bhop2rcd13ifvqh7g","pricing_plan_id":"free"},{"bike_id":"a5573e10-92d8-4678-b79d-209a1032e528","system_id":"levelo_inurba_marseille","lat":43.275625,"lon":5.384392,"is_reserved":false,"is_disabled":false,"rental_uris":{"android":"levelo://app?vid=a5573e10-92d8-4678-b79d-209a1032e528","ios":"levelo://app?vid=a5573e10-92d8-4678-b79d-209a1032e528"},"vehicle_type_id":"4","last_reported":1692817442,"current_range_meters":29200,"station_id":"ce4bhh92rcd13ifvqfi0","pricing_plan_id":"free"},{"bike_id":"ddc5d367-bfbc-4e5b-aade-7d09c01f89eb","system_id":"levelo_inurba_marseille","lat":43.275625,"lon":5.384392,"is_reserved":false,"is_disabled":false,"rental_uris":{"android":"levelo://app?vid=ddc5d367-bfbc-4e5b-aade-7d09c01f89eb","ios":"levelo://app?vid=ddc5d367-bfbc-4e5b-aade-7d09c01f89eb"},"vehicle_type_id":"4","last_reported":1692817442,"current_range_meters":8000,"station_id":"ce4bhh92rcd13ifvqfi0","pricing_plan_id":"free"},{"bike_id":"cafd1c84-e04b-4ec7-ab12-7b52206fd558","system_id":"levelo_inurba_marseille","lat":43.275625,"lon":5.384392,"is_reserved":false,"is_disabled":false,"rental_uris":{"android":"levelo://app?vid=cafd1c84-e04b-4ec7-ab12-7b52206fd558","ios":"levelo://app?vid=cafd1c84-e04b-4ec7-ab12-7b52206fd558"},"vehicle_type_id":"4","last_reported":1692817442,"current_range_meters":29200,"station_id":"ce4bhh92rcd13ifvqfi0","pricing_plan_id":"free"},{"bike_id":"9278726e-fbb6-4d1c-afd8-9bbbcc5e3810","system_id":"levelo_inurba_marseille","lat":43.33608,"lon":5.41032,"is_reserved":false,"is_disabled":false,"rental_uris":{"android":"levelo://app?vid=9278726e-fbb6-4d1c-afd8-9bbbcc5e3810","ios":"levelo://app?vid=9278726e-fbb6-4d1c-afd8-9bbbcc5e3810"},"vehicle_type_id":"4","last_reported":1692817442,"current_range_meters":18000,"station_id":"ce4bhqh2rcd13ifvqhmg","pricing_plan_id":"free"},{"bike_id":"2c002134-e4d2-41d1-b436-28e8e2ea24ca","system_id":"levelo_inurba_marseille","lat":43.276771,"lon":5.388799,"is_reserved":false,"is_disabled":false,"rental_uris":{"android":"levelo://app?vid=2c002134-e4d2-41d1-b436-28e8e2ea24ca","ios":"levelo://app?vid=2c002134-e4d2-41d1-b436-28e8e2ea24ca"},"vehicle_type_id":"4","last_reported":1692817442,"current_range_meters":28400,"station_id":"ce4bhi12rcd13ifvqfo0","pricing_plan_id":"free"},{"bike_id":"c71fee8e-1bb0-425b-b038-a4f4aa512937","system_id":"levelo_inurba_marseille","lat":43.27876,"lon":5.39503,"is_reserved":false,"is_disabled":false,"rental_uris":{"android":"levelo://app?vid=c71fee8e-1bb0-425b-b038-a4f4aa512937","ios":"levelo://app?vid=c71fee8e-1bb0-425b-b038-a4f4aa512937"},"vehicle_type_id":"4","last_reported":1692817442,"current_range_meters":17600,"station_id":"","pricing_plan_id":"free"},{"bike_id":"c0412187-9a3c-4f8b-a5fc-e9c109a0ffc3","system_id":"levelo_inurba_marseille","lat":43.317121,"lon":5.423936,"is_reserved":false,"is_disabled":false,"rental_uris":{"android":"levelo://app?vid=c0412187-9a3c-4f8b-a5fc-e9c109a0ffc3","ios":"levelo://app?vid=c0412187-9a3c-4f8b-a5fc-e9c109a0ffc3"},"vehicle_type_id":"4","last_reported":1692817442,"current_range_meters":27600,"station_id":"ce4bhp92rcd13ifvqhbg","pricing_plan_id":"free"},{"bike_id":"2d570018-88c2-42f1-a389-bd0792879b52","system_id":"levelo_inurba_marseille","lat":43.317121,"lon":5.423936,"is_reserved":false,"is_disabled":false,"rental_uris":{"android":"levelo://app?vid=2d570018-88c2-42f1-a389-bd0792879b52","ios":"levelo://app?vid=2d570018-88c2-42f1-a389-bd0792879b52"},"vehicle_type_id":"4","last_reported":1692817442,"current_range_meters":25600,"station_id":"ce4bhp92rcd13ifvqhbg","pricing_plan_id":"free"},{"bike_id":"192d4625-0e1c-4fc7-8114-be8c86b70435","system_id":"levelo_inurba_marseille","lat":43.317121,"lon":5.423936,"is_reserved":false,"is_disabled":false,"rental_uris":{"android":"levelo://app?vid=192d4625-0e1c-4fc7-8114-be8c86b70435","ios":"levelo://app?vid=192d4625-0e1c-4fc7-8114-be8c86b70435"},"vehicle_type_id":"4","last_reported":1692817442,"current_range_meters":31600,"station_id":"ce4bhp92rcd13ifvqhbg","pricing_plan_id":"free"},{"bike_id":"68ba469f-be14-4681-ab6b-ec1f210a0650","system_id":"levelo_inurba_marseille","lat":43.317121,"lon":5.423936,"is_reserved":false,"is_disabled":false,"rental_uris":{"android":"levelo://app?vid=68ba469f-be14-4681-ab6b-ec1f210a0650","ios":"levelo://app?vid=68ba469f-be14-4681-ab6b-ec1f210a0650"},"vehicle_type_id":"4","last_reported":1692817442,"current_range_meters":26400,"station_id":"ce4bhp92rcd13ifvqhbg","pricing_plan_id":"free"},{"bike_id":"d53415c5-c8a5-4594-9a0d-79106882a428","system_id":"levelo_inurba_marseille","lat":43.27778,"lon":5.39952,"is_reserved":false,"is_disabled":false,"rental_uris":{"android":"levelo://app?vid=d53415c5-c8a5-4594-9a0d-79106882a428","ios":"levelo://app?vid=d53415c5-c8a5-4594-9a0d-79106882a428"},"vehicle_type_id":"4","last_reported":1692817442,"current_range_meters":24400,"station_id":"","pricing_plan_id":"free"},{"bike_id":"4baa0c5e-0a7b-4c4f-9e2d-be7b74f5766f","system_id":"levelo_inurba_marseille","lat":43.304096,"lon":5.425385,"is_reserved":false,"is_disabled":false,"rental_uris":{"android":"levelo://app?vid=4baa0c5e-0a7b-4c4f-9e2d-be7b74f5766f","ios":"levelo://app?vid=4baa0c5e-0a7b-4c4f-9e2d-be7b74f5766f"},"vehicle_type_id":"4","last_reported":1692817442,"current_range_meters":25200,"station_id":"ce4bhoh2rcd13ifvqh6g","pricing_plan_id":"free"},{"bike_id":"03c1730a-f589-413d-967f-429de4cb5f96","system_id":"levelo_inurba_marseille","lat":43.295523,"lon":5.422926,"is_reserved":false,"is_disabled":false,"rental_uris":{"android":"levelo://app?vid=03c1730a-f589-413d-967f-429de4cb5f96","ios":"levelo://app?vid=03c1730a-f589-413d-967f-429de4cb5f96"},"vehicle_type_id":"4","last_reported":1692817442,"current_range_meters":20400,"station_id":"ce4bhph2rcd13ifvqhdg","pricing_plan_id":"free"},{"bike_id":"ae269419-a88f-4e55-b535-5679b5c40386","system_id":"levelo_inurba_marseille","lat":43.295523,"lon":5.422926,"is_reserved":false,"is_disabled":false,"rental_uris":{"android":"levelo://app?vid=ae269419-a88f-4e55-b535-5679b5c40386","ios":"levelo://app?vid=ae269419-a88f-4e55-b535-5679b5c40386"},"vehicle_type_id":"4","last_reported":1692817442,"current_range_meters":28000,"station_id":"ce4bhph2rcd13ifvqhdg","pricing_plan_id":"free"},{"bike_id":"5c5d9781-5a0f-4c4a-a037-96bcf432fc75","system_id":"levelo_inurba_marseille","lat":43.295511,"lon":5.422926,"is_reserved":false,"is_disabled":false,"rental_uris":{"android":"levelo://app?vid=5c5d9781-5a0f-4c4a-a037-96bcf432fc75","ios":"levelo://app?vid=5c5d9781-5a0f-4c4a-a037-96bcf432fc75"},"vehicle_type_id":"4","last_reported":1692817442,"current_range_meters":24000,"station_id":"ce4bhph2rcd13ifvqhdg","pricing_plan_id":"free"},{"bike_id":"9e3092de-cb30-4c97-96a4-c26552645611","system_id":"levelo_inurba_marseille","lat":43.295511,"lon":5.422926,"is_reserved":false,"is_disabled":false,"rental_uris":{"android":"levelo://app?vid=9e3092de-cb30-4c97-96a4-c26552645611","ios":"levelo://app?vid=9e3092de-cb30-4c97-96a4-c26552645611"},"vehicle_type_id":"4","last_reported":1692817442,"current_range_meters":20800,"station_id":"ce4bhph2rcd13ifvqhdg","pricing_plan_id":"free"},{"bike_id":"055a57a2-270d-40c0-9b0b-4ec1d55c96e9","system_id":"levelo_inurba_marseille","lat":43.295523,"lon":5.422926,"is_reserved":false,"is_disabled":false,"rental_uris":{"android":"levelo://app?vid=055a57a2-270d-40c0-9b0b-4ec1d55c96e9","ios":"levelo://app?vid=055a57a2-270d-40c0-9b0b-4ec1d55c96e9"},"vehicle_type_id":"4","last_reported":1692817442,"current_range_meters":30800,"station_id":"ce4bhph2rcd13ifvqhdg","pricing_plan_id":"free"},{"bike_id":"08ac63c9-4d8d-4ccb-b6e2-3e0e8bccb16a","system_id":"levelo_inurba_marseille","lat":43.295511,"lon":5.422926,"is_reserved":false,"is_disabled":false,"rental_uris":{"android":"levelo://app?vid=08ac63c9-4d8d-4ccb-b6e2-3e0e8bccb16a","ios":"levelo://app?vid=08ac63c9-4d8d-4ccb-b6e2-3e0e8bccb16a"},"vehicle_type_id":"4","last_reported":1692817442,"current_range_meters":14000,"station_id":"ce4bhph2rcd13ifvqhdg","pricing_plan_id":"free"},{"bike_id":"4a667469-6834-4e22-9d2a-0948fca40440","system_id":"levelo_inurba_marseille","lat":43.295511,"lon":5.422926,"is_reserved":false,"is_disabled":false,"rental_uris":{"android":"levelo://app?vid=4a667469-6834-4e22-9d2a-0948fca40440","ios":"levelo://app?vid=4a667469-6834-4e22-9d2a-0948fca40440"},"vehicle_type_id":"4","last_reported":1692817442,"current_range_meters":20000,"station_id":"ce4bhph2rcd13ifvqhdg","pricing_plan_id":"free"},{"bike_id":"e22fb6b1-1102-45c4-b677-2748d772b8de","system_id":"levelo_inurba_marseille","lat":43.295511,"lon":5.422926,"is_reserved":false,"is_disabled":false,"rental_uris":{"android":"levelo://app?vid=e22fb6b1-1102-45c4-b677-2748d772b8de","ios":"levelo://app?vid=e22fb6b1-1102-45c4-b677-2748d772b8de"},"vehicle_type_id":"4","last_reported":1692817442,"current_range_meters":25600,"station_id":"ce4bhph2rcd13ifvqhdg","pricing_plan_id":"free"},{"bike_id":"ea32736e-db8d-49c8-8782-6a4d278e246f","system_id":"levelo_inurba_marseille","lat":43.295511,"lon":5.422926,"is_reserved":false,"is_disabled":false,"rental_uris":{"android":"levelo://app?vid=ea32736e-db8d-49c8-8782-6a4d278e246f","ios":"levelo://app?vid=ea32736e-db8d-49c8-8782-6a4d278e246f"},"vehicle_type_id":"4","last_reported":1692817442,"current_range_meters":11200,"station_id":"ce4bhph2rcd13ifvqhdg","pricing_plan_id":"free"},{"bike_id":"b77f4653-6ff1-4bb3-a6d0-44d57a7086f4","system_id":"levelo_inurba_marseille","lat":43.295511,"lon":5.422926,"is_reserved":false,"is_disabled":false,"rental_uris":{"android":"levelo://app?vid=b77f4653-6ff1-4bb3-a6d0-44d57a7086f4","ios":"levelo://app?vid=b77f4653-6ff1-4bb3-a6d0-44d57a7086f4"},"vehicle_type_id":"4","last_reported":1692817442,"current_range_meters":16800,"station_id":"ce4bhph2rcd13ifvqhdg","pricing_plan_id":"free"},{"bike_id":"19e5f079-f8d5-4648-b396-d3f2a0f43f27","system_id":"levelo_inurba_marseille","lat":43.278128,"lon":5.407195,"is_reserved":false,"is_disabled":false,"rental_uris":{"android":"levelo://app?vid=19e5f079-f8d5-4648-b396-d3f2a0f43f27","ios":"levelo://app?vid=19e5f079-f8d5-4648-b396-d3f2a0f43f27"},"vehicle_type_id":"4","last_reported":1692817442,"current_range_meters":0,"station_id":"ce4bhnh2rcd13ifvqgtg","pricing_plan_id":"free"},{"bike_id":"3f3e3bce-b02c-499d-8411-dbe75a81e180","system_id":"levelo_inurba_marseille","lat":43.278128,"lon":5.407195,"is_reserved":false,"is_disabled":false,"rental_uris":{"android":"levelo://app?vid=3f3e3bce-b02c-499d-8411-dbe75a81e180","ios":"levelo://app?vid=3f3e3bce-b02c-499d-8411-dbe75a81e180"},"vehicle_type_id":"4","last_reported":1692817442,"current_range_meters":19200,"station_id":"ce4bhnh2rcd13ifvqgtg","pricing_plan_id":"free"},{"bike_id":"d8fbdebc-c38c-4b1e-a62b-12b25799ef7a","system_id":"levelo_inurba_marseille","lat":43.278128,"lon":5.407195,"is_reserved":false,"is_disabled":false,"rental_uris":{"android":"levelo://app?vid=d8fbdebc-c38c-4b1e-a62b-12b25799ef7a","ios":"levelo://app?vid=d8fbdebc-c38c-4b1e-a62b-12b25799ef7a"},"vehicle_type_id":"4","last_reported":1692817442,"current_range_meters":12400,"station_id":"ce4bhnh2rcd13ifvqgtg","pricing_plan_id":"free"},{"bike_id":"ca5cc94a-91b9-42e6-bda6-d99fdfe0ef27","system_id":"levelo_inurba_marseille","lat":43.27943,"lon":5.41048,"is_reserved":false,"is_disabled":false,"rental_uris":{"android":"levelo://app?vid=ca5cc94a-91b9-42e6-bda6-d99fdfe0ef27","ios":"levelo://app?vid=ca5cc94a-91b9-42e6-bda6-d99fdfe0ef27"},"vehicle_type_id":"4","last_reported":1692817442,"current_range_meters":800,"station_id":"ce4bhnp2rcd13ifvqh0g","pricing_plan_id":"free"},{"bike_id":"d1428418-dc83-426c-86a1-22018454bb66","system_id":"levelo_inurba_marseille","lat":43.2668,"lon":5.38271,"is_reserved":false,"is_disabled":false,"rental_uris":{"android":"levelo://app?vid=d1428418-dc83-426c-86a1-22018454bb66","ios":"levelo://app?vid=d1428418-dc83-426c-86a1-22018454bb66"},"vehicle_type_id":"4","last_reported":1692817442,"current_range_meters":12400,"station_id":"ce4bhg92rcd13ifvqf90","pricing_plan_id":"free"},{"bike_id":"6e3ab586-a51c-4e6f-80fa-0b2ff07afb5e","system_id":"levelo_inurba_marseille","lat":43.2709,"lon":5.40031,"is_reserved":false,"is_disabled":false,"rental_uris":{"android":"levelo://app?vid=6e3ab586-a51c-4e6f-80fa-0b2ff07afb5e","ios":"levelo://app?vid=6e3ab586-a51c-4e6f-80fa-0b2ff07afb5e"},"vehicle_type_id":"4","last_reported":1692817442,"current_range_meters":17600,"station_id":"","pricing_plan_id":"free"},{"bike_id":"84094fc1-c123-4394-bc30-f6ac0858517b","system_id":"levelo_inurba_marseille","lat":43.27996,"lon":5.416624,"is_reserved":false,"is_disabled":false,"rental_uris":{"android":"levelo://app?vid=84094fc1-c123-4394-bc30-f6ac0858517b","ios":"levelo://app?vid=84094fc1-c123-4394-bc30-f6ac0858517b"},"vehicle_type_id":"4","last_reported":1692817442,"current_range_meters":400,"station_id":"ce4bho12rcd13ifvqh1g","pricing_plan_id":"free"},{"bike_id":"2a516b72-11ca-4897-90d1-2c4a039c2d37","system_id":"levelo_inurba_marseille","lat":43.26788,"lon":5.39419,"is_reserved":false,"is_disabled":false,"rental_uris":{"android":"levelo://app?vid=2a516b72-11ca-4897-90d1-2c4a039c2d37","ios":"levelo://app?vid=2a516b72-11ca-4897-90d1-2c4a039c2d37"},"vehicle_type_id":"4","last_reported":1692817442,"current_range_meters":27600,"station_id":"ce4bhh12rcd13ifvqfg0","pricing_plan_id":"free"},{"bike_id":"6074037c-1d54-4d7a-a095-133ee16c208d","system_id":"levelo_inurba_marseille","lat":43.267966,"lon":5.393976,"is_reserved":false,"is_disabled":false,"rental_uris":{"android":"levelo://app?vid=6074037c-1d54-4d7a-a095-133ee16c208d","ios":"levelo://app?vid=6074037c-1d54-4d7a-a095-133ee16c208d"},"vehicle_type_id":"4","last_reported":1692817442,"current_range_meters":0,"station_id":"ce4bhh12rcd13ifvqfg0","pricing_plan_id":"free"},{"bike_id":"782d7df7-20b6-4e7b-85c8-d410d3b16cdd","system_id":"levelo_inurba_marseille","lat":43.269388,"lon":5.402609,"is_reserved":false,"is_disabled":false,"rental_uris":{"android":"levelo://app?vid=782d7df7-20b6-4e7b-85c8-d410d3b16cdd","ios":"levelo://app?vid=782d7df7-20b6-4e7b-85c8-d410d3b16cdd"},"vehicle_type_id":"4","last_reported":1692817442,"current_range_meters":21600,"station_id":"","pricing_plan_id":"free"},{"bike_id":"b929a262-6c5f-48c8-81d5-aa03c1b4a37c","system_id":"levelo_inurba_marseille","lat":43.26197,"lon":5.37439,"is_reserved":false,"is_disabled":false,"rental_uris":{"android":"levelo://app?vid=b929a262-6c5f-48c8-81d5-aa03c1b4a37c","ios":"levelo://app?vid=b929a262-6c5f-48c8-81d5-aa03c1b4a37c"},"vehicle_type_id":"4","last_reported":1692817442,"current_range_meters":23200,"station_id":"","pricing_plan_id":"free"},{"bike_id":"533a2e42-32a0-4783-8345-1a03957ec5aa","system_id":"levelo_inurba_marseille","lat":43.26197,"lon":5.3744,"is_reserved":false,"is_disabled":false,"rental_uris":{"android":"levelo://app?vid=533a2e42-32a0-4783-8345-1a03957ec5aa","ios":"levelo://app?vid=533a2e42-32a0-4783-8345-1a03957ec5aa"},"vehicle_type_id":"4","last_reported":1692817442,"current_range_meters":7600,"station_id":"","pricing_plan_id":"free"},{"bike_id":"2abd92dd-c711-4c21-b13a-3fe1e759cde2","system_id":"levelo_inurba_marseille","lat":43.26195,"lon":5.37437,"is_reserved":false,"is_disabled":false,"rental_uris":{"android":"levelo://app?vid=2abd92dd-c711-4c21-b13a-3fe1e759cde2","ios":"levelo://app?vid=2abd92dd-c711-4c21-b13a-3fe1e759cde2"},"vehicle_type_id":"4","last_reported":1692817442,"current_range_meters":24400,"station_id":"","pricing_plan_id":"free"},{"bike_id":"fd871611-78a3-44e8-b8ea-2aaab5f67078","system_id":"levelo_inurba_marseille","lat":43.26194,"lon":5.37439,"is_reserved":false,"is_disabled":false,"rental_uris":{"android":"levelo://app?vid=fd871611-78a3-44e8-b8ea-2aaab5f67078","ios":"levelo://app?vid=fd871611-78a3-44e8-b8ea-2aaab5f67078"},"vehicle_type_id":"4","last_reported":1692817442,"current_range_meters":25200,"station_id":"","pricing_plan_id":"free"},{"bike_id":"7c34497e-8a9d-4a63-a93e-263d5da6c6cb","system_id":"levelo_inurba_marseille","lat":43.26194,"lon":5.3744,"is_reserved":false,"is_disabled":false,"rental_uris":{"android":"levelo://app?vid=7c34497e-8a9d-4a63-a93e-263d5da6c6cb","ios":"levelo://app?vid=7c34497e-8a9d-4a63-a93e-263d5da6c6cb"},"vehicle_type_id":"4","last_reported":1692817442,"current_range_meters":19600,"station_id":"","pricing_plan_id":"free"},{"bike_id":"4b15cf00-fabb-4bb5-b636-bc027e00868c","system_id":"levelo_inurba_marseille","lat":43.26194,"lon":5.3744,"is_reserved":false,"is_disabled":false,"rental_uris":{"android":"levelo://app?vid=4b15cf00-fabb-4bb5-b636-bc027e00868c","ios":"levelo://app?vid=4b15cf00-fabb-4bb5-b636-bc027e00868c"},"vehicle_type_id":"4","last_reported":1692817442,"current_range_meters":21200,"station_id":"","pricing_plan_id":"free"},{"bike_id":"0d9f8705-5d8e-455b-a395-c0ee6fb27320","system_id":"levelo_inurba_marseille","lat":43.26194,"lon":5.37442,"is_reserved":false,"is_disabled":false,"rental_uris":{"android":"levelo://app?vid=0d9f8705-5d8e-455b-a395-c0ee6fb27320","ios":"levelo://app?vid=0d9f8705-5d8e-455b-a395-c0ee6fb27320"},"vehicle_type_id":"4","last_reported":1692817442,"current_range_meters":13600,"station_id":"","pricing_plan_id":"free"},{"bike_id":"0c088409-ae42-4703-9f1e-1cf55024e01e","system_id":"levelo_inurba_marseille","lat":43.26193,"lon":5.37441,"is_reserved":false,"is_disabled":false,"rental_uris":{"android":"levelo://app?vid=0c088409-ae42-4703-9f1e-1cf55024e01e","ios":"levelo://app?vid=0c088409-ae42-4703-9f1e-1cf55024e01e"},"vehicle_type_id":"4","last_reported":1692817442,"current_range_meters":6800,"station_id":"","pricing_plan_id":"free"},{"bike_id":"a66d4037-d071-41c5-8e9c-864a8f15cbfe","system_id":"levelo_inurba_marseille","lat":43.26193,"lon":5.37442,"is_reserved":false,"is_disabled":false,"rental_uris":{"android":"levelo://app?vid=a66d4037-d071-41c5-8e9c-864a8f15cbfe","ios":"levelo://app?vid=a66d4037-d071-41c5-8e9c-864a8f15cbfe"},"vehicle_type_id":"4","last_reported":1692817442,"current_range_meters":0,"station_id":"","pricing_plan_id":"free"},{"bike_id":"1fbc8067-ced3-4834-a57b-c1f9f1f9f448","system_id":"levelo_inurba_marseille","lat":43.26191,"lon":5.37442,"is_reserved":false,"is_disabled":false,"rental_uris":{"android":"levelo://app?vid=1fbc8067-ced3-4834-a57b-c1f9f1f9f448","ios":"levelo://app?vid=1fbc8067-ced3-4834-a57b-c1f9f1f9f448"},"vehicle_type_id":"4","last_reported":1692817442,"current_range_meters":5200,"station_id":"","pricing_plan_id":"free"},{"bike_id":"3b2b55b6-8d90-41fa-b576-2aa8d3fbf587","system_id":"levelo_inurba_marseille","lat":43.2619,"lon":5.37435,"is_reserved":false,"is_disabled":false,"rental_uris":{"android":"levelo://app?vid=3b2b55b6-8d90-41fa-b576-2aa8d3fbf587","ios":"levelo://app?vid=3b2b55b6-8d90-41fa-b576-2aa8d3fbf587"},