{"last_updated":1704398852,"ttl":30,"version":"2.2","data":{"bikes":[{"bike_id":"d131011c-dec3-4507-b0d4-5aac847d1d78","system_id":"levelo_inurba_marseille","lat":43.313391,"lon":5.36706,"is_reserved":false,"is_disabled":false,"rental_uris":{"android":"levelo://app?vid=d131011c-dec3-4507-b0d4-5aac847d1d78","ios":"levelo://app?vid=d131011c-dec3-4507-b0d4-5aac847d1d78"},"vehicle_type_id":"4","last_reported":1704398852,"current_range_meters":17200,"station_id":"ce4bgr92rcd13ifvqc6g","pricing_plan_id":"free"},{"bike_id":"cebc195a-8bdb-4b31-b040-5374d251d4a8","system_id":"levelo_inurba_marseille","lat":43.312239,"lon":5.368562,"is_reserved":false,"is_disabled":false,"rental_uris":{"android":"levelo://app?vid=cebc195a-8bdb-4b31-b040-5374d251d4a8","ios":"levelo://app?vid=cebc195a-8bdb-4b31-b040-5374d251d4a8"},"vehicle_type_id":"4","last_reported":1704398852,"current_range_meters":25200,"station_id":"ce4bgl92rcd13ifvqbq0","pricing_plan_id":"free"},{"bike_id":"53c6de25-625c-4b59-9787-d78550753d7a","system_id":"levelo_inurba_marseille","lat":43.314811,"lon":5.373103,"is_reserved":false,"is_disabled":false,"rental_uris":{"android":"levelo://app?vid=53c6de25-625c-4b59-9787-d78550753d7a","ios":"levelo://app?vid=53c6de25-625c-4b59-9787-d78550753d7a"},"vehicle_type_id":"4","last_reported":1704398852,"current_range_meters":0,"station_id":"ce4bgt12rcd13ifvqcd0","pricing_plan_id":"free"},{"bike_id":"f9935742-5c07-4451-a2ce-3912f1510a1a","system_id":"levelo_inurba_marseille","lat":43.309076,"lon":5.368465,"is_reserved":false,"is_disabled":false,"rental_uris":{"android":"levelo://app?vid=f9935742-5c07-4451-a2ce-3912f1510a1a","ios":"levelo://app?vid=f9935742-5c07-4451-a2ce-3912f1510a1a"},"vehicle_type_id":"4","last_reported":1704398852,"current_range_meters":28000,"station_id":"ce4bgn92rcd13ifvqbvg","pricing_plan_id":"free"},{"bike_id":"4573ad02-fe87-446b-a714-a0405b396b0f","system_id":"levelo_inurba_marseille","lat":43.305979,"lon":5.372132,"is_reserved":false,"is_disabled":false,"rental_uris":{"android":"levelo://app?vid=4573ad02-fe87-446b-a714-a0405b396b0f","ios":"levelo://app?vid=4573ad02-fe87-446b-a714-a0405b396b0f"},"vehicle_type_id":"4","last_reported":1704398852,"current_range_meters":0,"station_id":"ce4bgqh2rcd13ifvqc4g","pricing_plan_id":"free"},{"bike_id":"8f20fd1d-4b5f-4b10-8a6e-fe021223b97b","system_id":"levelo_inurba_marseille","lat":43.308333,"lon":5.376598,"is_reserved":false,"is_disabled":false,"rental_uris":{"android":"levelo://app?vid=8f20fd1d-4b5f-4b10-8a6e-fe021223b97b","ios":"levelo://app?vid=8f20fd1d-4b5f-4b10-8a6e-fe021223b97b"},"vehicle_type_id":"4","last_reported":1704398852,"current_range_meters":7600,"station_id":"","pricing_plan_id":"free"},{"bike_id":"c4e90871-bb94-4085-82dc-ccbd997a22ca","system_id":"levelo_inurba_marseille","lat":43.315213,"lon":5.379017,"is_reserved":false,"is_disabled":false,"rental_uris":{"android":"levelo://app?vid=c4e90871-bb94-4085-82dc-ccbd997a22ca","ios":"levelo://app?vid=c4e90871-bb94-4085-82dc-ccbd997a22ca"},"vehicle_type_id":"4","last_reported":1704398852,"current_range_meters":17600,"station_id":"","pricing_plan_id":"free"},{"bike_id":"d39c659a-cd7d-43ea-b9ea-6d252e69286b","system_id":"levelo_inurba_marseille","lat":43.30304,"lon":5.368987,"is_reserved":false,"is_disabled":false,"rental_uris":{"android":"levelo://app?vid=d39c659a-cd7d-43ea-b9ea-6d252e69286b","ios":"levelo://app?vid=d39c659a-cd7d-43ea-b9ea-6d252e69286b"},"vehicle_type_id":"4","last_reported":1704398852,"current_range_meters":30000,"station_id":"ce4bgqh2rcd13ifvqc5g","pricing_plan_id":"free"},{"bike_id":"c7ff076d-b4eb-4122-98b6-bc8f0825dcd5","system_id":"levelo_inurba_marseille","lat":43.30304,"lon":5.368987,"is_reserved":false,"is_disabled":false,"rental_uris":{"android":"levelo://app?vid=c7ff076d-b4eb-4122-98b6-bc8f0825dcd5","ios":"levelo://app?vid=c7ff076d-b4eb-4122-98b6-bc8f0825dcd5"},"vehicle_type_id":"4","last_reported":1704398852,"current_range_meters":17600,"station_id":"ce4bgqh2rcd13ifvqc5g","pricing_plan_id":"free"},{"bike_id":"b2f736b9-5add-4644-b351-74e3e3aa3500","system_id":"levelo_inurba_marseille","lat":43.31539,"lon":5.38024,"is_reserved":false,"is_disabled":false,"rental_uris":{"android":"levelo://app?vid=b2f736b9-5add-4644-b351-74e3e3aa3500","ios":"levelo://app?vid=b2f736b9-5add-4644-b351-74e3e3aa3500"},"vehicle_type_id":"4","last_reported":1704398852,"current_range_meters":22400,"station_id":"ce4bhsp2rcd13ifvqi50","pricing_plan_id":"free"},{"bike_id":"70a8893a-1c64-4cfe-b230-39dd4aad18b8","system_id":"levelo_inurba_marseille","lat":43.301939,"lon":5.366286,"is_reserved":false,"is_disabled":false,"rental_uris":{"android":"levelo://app?vid=70a8893a-1c64-4cfe-b230-39dd4aad18b8","ios":"levelo://app?vid=70a8893a-1c64-4cfe-b230-39dd4aad18b8"},"vehicle_type_id":"4","last_reported":1704398852,"current_range_meters":28400,"station_id":"ce4bgrh2rcd13ifvqc8g","pricing_plan_id":"free"},{"bike_id":"0183d854-f6cf-42f1-8ccb-2542cedac4d3","system_id":"levelo_inurba_marseille","lat":43.304606,"lon":5.379026,"is_reserved":false,"is_disabled":false,"rental_uris":{"android":"levelo://app?vid=0183d854-f6cf-42f1-8ccb-2542cedac4d3","ios":"levelo://app?vid=0183d854-f6cf-42f1-8ccb-2542cedac4d3"},"vehicle_type_id":"4","last_reported":1704398852,"current_range_meters":12000,"station_id":"ce4bgup2rcd13ifvqcn0","pricing_plan_id":"free"},{"bike_id":"275c26d3-ae78-4dfd-8ae5-9ea38bca16b8","system_id":"levelo_inurba_marseille","lat":43.313722,"lon":5.38323,"is_reserved":false,"is_disabled":false,"rental_uris":{"android":"levelo://app?vid=275c26d3-ae78-4dfd-8ae5-9ea38bca16b8","ios":"levelo://app?vid=275c26d3-ae78-4dfd-8ae5-9ea38bca16b8"},"vehicle_type_id":"4","last_reported":1704398852,"current_range_meters":0,"station_id":"","pricing_plan_id":"free"},{"bike_id":"50058cf5-75f3-42a4-8672-f2e8f199e8ee","system_id":"levelo_inurba_marseille","lat":43.304606,"lon":5.379026,"is_reserved":false,"is_disabled":false,"rental_uris":{"android":"levelo://app?vid=50058cf5-75f3-42a4-8672-f2e8f199e8ee","ios":"levelo://app?vid=50058cf5-75f3-42a4-8672-f2e8f199e8ee"},"vehicle_type_id":"4","last_reported":1704398852,"current_range_meters":8400,"station_id":"ce4bgup2rcd13ifvqcn0","pricing_plan_id":"free"},{"bike_id":"16ea5f48-dbdb-43db-8a5d-9c12a1294194","system_id":"levelo_inurba_marseille","lat":43.324771,"lon":5.36557,"is_reserved":false,"is_disabled":false,"rental_uris":{"android":"levelo://app?vid=16ea5f48-dbdb-43db-8a5d-9c12a1294194","ios":"levelo://app?vid=16ea5f48-dbdb-43db-8a5d-9c12a1294194"},"vehicle_type_id":"4","last_reported":1704398852,"current_range_meters":25600,"station_id":"ce4bhs12rcd13ifvqhvg","pricing_plan_id":"free"},{"bike_id":"d7dea04c-b16e-44ab-89dd-805311b9280c","system_id":"levelo_inurba_marseille","lat":43.319929,"lon":5.381401,"is_reserved":false,"is_disabled":false,"rental_uris":{"android":"levelo://app?vid=d7dea04c-b16e-44ab-89dd-805311b9280c","ios":"levelo://app?vid=d7dea04c-b16e-44ab-89dd-805311b9280c"},"vehicle_type_id":"4","last_reported":1704398852,"current_range_meters":28800,"station_id":"ce4bhr12rcd13ifvqhpg","pricing_plan_id":"free"},{"bike_id":"a8f66612-75a3-4ac8-abc1-61ed5d7e6452","system_id":"levelo_inurba_marseille","lat":43.32001,"lon":5.38147,"is_reserved":false,"is_disabled":false,"rental_uris":{"android":"levelo://app?vid=a8f66612-75a3-4ac8-abc1-61ed5d7e6452","ios":"levelo://app?vid=a8f66612-75a3-4ac8-abc1-61ed5d7e6452"},"vehicle_type_id":"4","last_reported":1704398852,"current_range_meters":0,"station_id":"ce4bhr12rcd13ifvqhpg","pricing_plan_id":"free"},{"bike_id":"f1339662-51db-4ceb-9d62-c7891632b9a2","system_id":"levelo_inurba_marseille","lat":43.31998,"lon":5.38153,"is_reserved":false,"is_disabled":false,"rental_uris":{"android":"levelo://app?vid=f1339662-51db-4ceb-9d62-c7891632b9a2","ios":"levelo://app?vid=f1339662-51db-4ceb-9d62-c7891632b9a2"},"vehicle_type_id":"4","last_reported":1704398852,"current_range_meters":30000,"station_id":"ce4bhr12rcd13ifvqhpg","pricing_plan_id":"free"},{"bike_id":"870a058e-5d3d-4309-9a3a-c25322695360","system_id":"levelo_inurba_marseille","lat":43.32003,"lon":5.38153,"is_reserved":false,"is_disabled":false,"rental_uris":{"android":"levelo://app?vid=870a058e-5d3d-4309-9a3a-c25322695360","ios":"levelo://app?vid=870a058e-5d3d-4309-9a3a-c25322695360"},"vehicle_type_id":"4","last_reported":1704398852,"current_range_meters":7600,"station_id":"ce4bhr12rcd13ifvqhpg","pricing_plan_id":"free"},{"bike_id":"e4e97c3a-21dd-481b-802d-cce9979f17ed","system_id":"levelo_inurba_marseille","lat":43.31999,"lon":5.38161,"is_reserved":false,"is_disabled":false,"rental_uris":{"android":"levelo://app?vid=e4e97c3a-21dd-481b-802d-cce9979f17ed","ios":"levelo://app?vid=e4e97c3a-21dd-481b-802d-cce9979f17ed"},"vehicle_type_id":"4","last_reported":1704398852,"current_range_meters":8000,"station_id":"ce4bhr12rcd13ifvqhpg","pricing_plan_id":"free"},{"bike_id":"ef6aa804-79f3-4f8a-aa93-904f0117c587","system_id":"levelo_inurba_marseille","lat":43.313713,"lon":5.384997,"is_reserved":false,"is_disabled":false,"rental_uris":{"android":"levelo://app?vid=ef6aa804-79f3-4f8a-aa93-904f0117c587","ios":"levelo://app?vid=ef6aa804-79f3-4f8a-aa93-904f0117c587"},"vehicle_type_id":"4","last_reported":1704398852,"current_range_meters":0,"station_id":"ce4bgt92rcd13ifvqcf0","pricing_plan_id":"free"},{"bike_id":"17504bde-947a-4cd6-98b3-9a4c66aca99b","system_id":"levelo_inurba_marseille","lat":43.313827,"lon":5.385007,"is_reserved":false,"is_disabled":false,"rental_uris":{"android":"levelo://app?vid=17504bde-947a-4cd6-98b3-9a4c66aca99b","ios":"levelo://app?vid=17504bde-947a-4cd6-98b3-9a4c66aca99b"},"vehicle_type_id":"4","last_reported":1704398852,"current_range_meters":12400,"station_id":"ce4bgt92rcd13ifvqcf0","pricing_plan_id":"free"},{"bike_id":"51b7da03-674c-4377-a62e-6b60d1d96ace","system_id":"levelo_inurba_marseille","lat":43.299724,"lon":5.371829,"is_reserved":false,"is_disabled":false,"rental_uris":{"android":"levelo://app?vid=51b7da03-674c-4377-a62e-6b60d1d96ace","ios":"levelo://app?vid=51b7da03-674c-4377-a62e-6b60d1d96ace"},"vehicle_type_id":"4","last_reported":1704398852,"current_range_meters":26000,"station_id":"ce4bgr92rcd13ifvqc7g","pricing_plan_id":"free"},{"bike_id":"ccb15be2-893e-41e6-8e03-ca9d80ffe2ed","system_id":"levelo_inurba_marseille","lat":43.299724,"lon":5.371829,"is_reserved":false,"is_disabled":false,"rental_uris":{"android":"levelo://app?vid=ccb15be2-893e-41e6-8e03-ca9d80ffe2ed","ios":"levelo://app?vid=ccb15be2-893e-41e6-8e03-ca9d80ffe2ed"},"vehicle_type_id":"4","last_reported":1704398852,"current_range_meters":800,"station_id":"ce4bgr92rcd13ifvqc7g","pricing_plan_id":"free"},{"bike_id":"b22604ec-0c4b-41b4-a20e-38add68f7682","system_id":"levelo_inurba_marseille","lat":43.325668,"lon":5.374779,"is_reserved":false,"is_disabled":false,"rental_uris":{"android":"levelo://app?vid=b22604ec-0c4b-41b4-a20e-38add68f7682","ios":"levelo://app?vid=b22604ec-0c4b-41b4-a20e-38add68f7682"},"vehicle_type_id":"4","last_reported":1704398852,"current_range_meters":21200,"station_id":"","pricing_plan_id":"free"},{"bike_id":"d9e7b2c9-3fe5-4642-84bc-fbb3e5d6faec","system_id":"levelo_inurba_marseille","lat":43.324771,"lon":5.36557,"is_reserved":false,"is_disabled":false,"rental_uris":{"android":"levelo://app?vid=d9e7b2c9-3fe5-4642-84bc-fbb3e5d6faec","ios":"levelo://app?vid=d9e7b2c9-3fe5-4642-84bc-fbb3e5d6faec"},"vehicle_type_id":"4","last_reported":1704398852,"current_range_meters":17600,"station_id":"ce4bhs12rcd13ifvqhvg","pricing_plan_id":"free"},{"bike_id":"d14af2e2-5621-4def-b468-51ae44a34e58","system_id":"levelo_inurba_marseille","lat":43.305364,"lon":5.384119,"is_reserved":false,"is_disabled":false,"rental_uris":{"android":"levelo://app?vid=d14af2e2-5621-4def-b468-51ae44a34e58","ios":"levelo://app?vid=d14af2e2-5621-4def-b468-51ae44a34e58"},"vehicle_type_id":"4","last_reported":1704398852,"current_range_meters":17600,"station_id":"ce4bgg92rcd13ifvqb30","pricing_plan_id":"free"},{"bike_id":"726a78aa-50e6-4a10-a636-ca78b91b589b","system_id":"levelo_inurba_marseille","lat":43.299243,"lon":5.374807,"is_reserved":false,"is_disabled":false,"rental_uris":{"android":"levelo://app?vid=726a78aa-50e6-4a10-a636-ca78b91b589b","ios":"levelo://app?vid=726a78aa-50e6-4a10-a636-ca78b91b589b"},"vehicle_type_id":"4","last_reported":1704398852,"current_range_meters":21600,"station_id":"ce4bgjh2rcd13ifvqbg0","pricing_plan_id":"free"},{"bike_id":"921e099e-9cf7-40ea-bb4e-f7b3d50d3bd5","system_id":"levelo_inurba_marseille","lat":43.311722,"lon":5.387247,"is_reserved":false,"is_disabled":false,"rental_uris":{"android":"levelo://app?vid=921e099e-9cf7-40ea-bb4e-f7b3d50d3bd5","ios":"levelo://app?vid=921e099e-9cf7-40ea-bb4e-f7b3d50d3bd5"},"vehicle_type_id":"4","last_reported":1704398852,"current_range_meters":800,"station_id":"ce4bgv12rcd13ifvqcp0","pricing_plan_id":"free"},{"bike_id":"05ba3612-e5cb-47f3-bcdd-1fda00e4f9e8","system_id":"levelo_inurba_marseille","lat":43.299243,"lon":5.37481,"is_reserved":false,"is_disabled":false,"rental_uris":{"android":"levelo://app?vid=05ba3612-e5cb-47f3-bcdd-1fda00e4f9e8","ios":"levelo://app?vid=05ba3612-e5cb-47f3-bcdd-1fda00e4f9e8"},"vehicle_type_id":"4","last_reported":1704398852,"current_range_meters":18000,"station_id":"ce4bgjh2rcd13ifvqbg0","pricing_plan_id":"free"},{"bike_id":"42417447-5269-42ab-b331-b7ee94937d8f","system_id":"levelo_inurba_marseille","lat":43.311722,"lon":5.387247,"is_reserved":false,"is_disabled":false,"rental_uris":{"android":"levelo://app?vid=42417447-5269-42ab-b331-b7ee94937d8f","ios":"levelo://app?vid=42417447-5269-42ab-b331-b7ee94937d8f"},"vehicle_type_id":"4","last_reported":1704398852,"current_range_meters":17600,"station_id":"ce4bgv12rcd13ifvqcp0","pricing_plan_id":"free"},{"bike_id":"6c146d87-b3cb-4393-a6d7-3ec3c3d00c74","system_id":"levelo_inurba_marseille","lat":43.311722,"lon":5.387247,"is_reserved":false,"is_disabled":false,"rental_uris":{"android":"levelo://app?vid=6c146d87-b3cb-4393-a6d7-3ec3c3d00c74","ios":"levelo://app?vid=6c146d87-b3cb-4393-a6d7-3ec3c3d00c74"},"vehicle_type_id":"4","last_reported":1704398852,"current_range_meters":0,"station_id":"ce4bgv12rcd13ifvqcp0","pricing_plan_id":"free"},{"bike_id":"105f7b03-6a98-4998-ac5b-3a82c5178c26","system_id":"levelo_inurba_marseille","lat":43.311722,"lon":5.387247,"is_reserved":false,"is_disabled":false,"rental_uris":{"android":"levelo://app?vid=105f7b03-6a98-4998-ac5b-3a82c5178c26","ios":"levelo://app?vid=105f7b03-6a98-4998-ac5b-3a82c5178c26"},"vehicle_type_id":"4","last_reported":1704398852,"current_range_meters":25600,"station_id":"ce4bgv12rcd13ifvqcp0","pricing_plan_id":"free"},{"bike_id":"7846546a-d651-4694-aa1d-d40ded5067ca","system_id":"levelo_inurba_marseille","lat":43.311678,"lon":5.387207,"is_reserved":false,"is_disabled":false,"rental_uris":{"android":"levelo://app?vid=7846546a-d651-4694-aa1d-d40ded5067ca","ios":"levelo://app?vid=7846546a-d651-4694-aa1d-d40ded5067ca"},"vehicle_type_id":"4","last_reported":1704398852,"current_range_meters":20800,"station_id":"","pricing_plan_id":"free"},{"bike_id":"0bc7ad39-3608-4c43-89ec-85133441f01f","system_id":"levelo_inurba_marseille","lat":43.322872,"lon":5.382756,"is_reserved":false,"is_disabled":false,"rental_uris":{"android":"levelo://app?vid=0bc7ad39-3608-4c43-89ec-85133441f01f","ios":"levelo://app?vid=0bc7ad39-3608-4c43-89ec-85133441f01f"},"vehicle_type_id":"4","last_reported":1704398852,"current_range_meters":14800,"station_id":"ce4bhr12rcd13ifvqhqg","pricing_plan_id":"free"},{"bike_id":"f53e7a9d-7ee6-4428-85bd-3db5d7cc3975","system_id":"levelo_inurba_marseille","lat":43.322872,"lon":5.382756,"is_reserved":false,"is_disabled":false,"rental_uris":{"android":"levelo://app?vid=f53e7a9d-7ee6-4428-85bd-3db5d7cc3975","ios":"levelo://app?vid=f53e7a9d-7ee6-4428-85bd-3db5d7cc3975"},"vehicle_type_id":"4","last_reported":1704398852,"current_range_meters":31600,"station_id":"ce4bhr12rcd13ifvqhqg","pricing_plan_id":"free"},{"bike_id":"4c685cb6-62c0-4268-8ed5-b01f21429f68","system_id":"levelo_inurba_marseille","lat":43.322872,"lon":5.382756,"is_reserved":false,"is_disabled":false,"rental_uris":{"android":"levelo://app?vid=4c685cb6-62c0-4268-8ed5-b01f21429f68","ios":"levelo://app?vid=4c685cb6-62c0-4268-8ed5-b01f21429f68"},"vehicle_type_id":"4","last_reported":1704398852,"current_range_meters":12000,"station_id":"ce4bhr12rcd13ifvqhqg","pricing_plan_id":"free"},{"bike_id":"7e69bdeb-fe69-4483-8ee7-88c81ad264d9","system_id":"levelo_inurba_marseille","lat":43.322872,"lon":5.382756,"is_reserved":false,"is_disabled":false,"rental_uris":{"android":"levelo://app?vid=7e69bdeb-fe69-4483-8ee7-88c81ad264d9","ios":"levelo://app?vid=7e69bdeb-fe69-4483-8ee7-88c81ad264d9"},"vehicle_type_id":"4","last_reported":1704398852,"current_range_meters":27200,"station_id":"ce4bhr12rcd13ifvqhqg","pricing_plan_id":"free"},{"bike_id":"a6953f89-b867-47c2-a99f-949ca50d8a77","system_id":"levelo_inurba_marseille","lat":43.32825,"lon":5.36675,"is_reserved":false,"is_disabled":false,"rental_uris":{"android":"levelo://app?vid=a6953f89-b867-47c2-a99f-949ca50d8a77","ios":"levelo://app?vid=a6953f89-b867-47c2-a99f-949ca50d8a77"},"vehicle_type_id":"4","last_reported":1704398852,"current_range_meters":16000,"station_id":"ce4bhs92rcd13ifvqi0g","pricing_plan_id":"free"},{"bike_id":"1bb80286-6712-4d1f-985b-6846055ae321","system_id":"levelo_inurba_marseille","lat":43.328371,"lon":5.366909,"is_reserved":false,"is_disabled":false,"rental_uris":{"android":"levelo://app?vid=1bb80286-6712-4d1f-985b-6846055ae321","ios":"levelo://app?vid=1bb80286-6712-4d1f-985b-6846055ae321"},"vehicle_type_id":"4","last_reported":1704398852,"current_range_meters":0,"station_id":"ce4bhs92rcd13ifvqi0g","pricing_plan_id":"free"},{"bike_id":"40547a36-645f-4cc6-8bf9-232a8ea96bf6","system_id":"levelo_inurba_marseille","lat":43.328371,"lon":5.366909,"is_reserved":false,"is_disabled":false,"rental_uris":{"android":"levelo://app?vid=40547a36-645f-4cc6-8bf9-232a8ea96bf6","ios":"levelo://app?vid=40547a36-645f-4cc6-8bf9-232a8ea96bf6"},"vehicle_type_id":"4","last_reported":1704398852,"current_range_meters":8400,"station_id":"ce4bhs92rcd13ifvqi0g","pricing_plan_id":"free"},{"bike_id":"80bbfa94-3ee9-4de7-b681-88f4d29824bb","system_id":"levelo_inurba_marseille","lat":43.328371,"lon":5.366909,"is_reserved":false,"is_disabled":false,"rental_uris":{"android":"levelo://app?vid=80bbfa94-3ee9-4de7-b681-88f4d29824bb","ios":"levelo://app?vid=80bbfa94-3ee9-4de7-b681-88f4d29824bb"},"vehicle_type_id":"4","last_reported":1704398852,"current_range_meters":7600,"station_id":"ce4bhs92rcd13ifvqi0g","pricing_plan_id":"free"},{"bike_id":"95e60a05-c3f6-42d6-b8d8-8e09a3364abf","system_id":"levelo_inurba_marseille","lat":43.328371,"lon":5.366909,"is_reserved":false,"is_disabled":false,"rental_uris":{"android":"levelo://app?vid=95e60a05-c3f6-42d6-b8d8-8e09a3364abf","ios":"levelo://app?vid=95e60a05-c3f6-42d6-b8d8-8e09a3364abf"},"vehicle_type_id":"4","last_reported":1704398852,"current_range_meters":11600,"station_id":"ce4bhs92rcd13ifvqi0g","pricing_plan_id":"free"},{"bike_id":"4d6cbba3-2e55-4f7b-870f-2fed43f3ec1c","system_id":"levelo_inurba_marseille","lat":43.328351,"lon":5.366918,"is_reserved":false,"is_disabled":false,"rental_uris":{"android":"levelo://app?vid=4d6cbba3-2e55-4f7b-870f-2fed43f3ec1c","ios":"levelo://app?vid=4d6cbba3-2e55-4f7b-870f-2fed43f3ec1c"},"vehicle_type_id":"4","last_reported":1704398852,"current_range_meters":14800,"station_id":"ce4bhs92rcd13ifvqi0g","pricing_plan_id":"free"},{"bike_id":"271926b7-8aa7-4f0d-83d0-8c7da756178a","system_id":"levelo_inurba_marseille","lat":43.297163,"lon":5.365866,"is_reserved":false,"is_disabled":false,"rental_uris":{"android":"levelo://app?vid=271926b7-8aa7-4f0d-83d0-8c7da756178a","ios":"levelo://app?vid=271926b7-8aa7-4f0d-83d0-8c7da756178a"},"vehicle_type_id":"4","last_reported":1704398852,"current_range_meters":19200,"station_id":"ce4bgn12rcd13ifvqbt0","pricing_plan_id":"free"},{"bike_id":"370cccf7-c9ba-46c2-819b-c8e8cacc4c21","system_id":"levelo_inurba_marseille","lat":43.3277,"lon":5.37458,"is_reserved":false,"is_disabled":false,"rental_uris":{"android":"levelo://app?vid=370cccf7-c9ba-46c2-819b-c8e8cacc4c21","ios":"levelo://app?vid=370cccf7-c9ba-46c2-819b-c8e8cacc4c21"},"vehicle_type_id":"4","last_reported":1704398852,"current_range_meters":0,"station_id":"","pricing_plan_id":"free"},{"bike_id":"832b4af6-b563-4bcc-8f80-12f869ca9060","system_id":"levelo_inurba_marseille","lat":43.2968,"lon":5.37291,"is_reserved":false,"is_disabled":false,"rental_uris":{"android":"levelo://app?vid=832b4af6-b563-4bcc-8f80-12f869ca9060","ios":"levelo://app?vid=832b4af6-b563-4bcc-8f80-12f869ca9060"},"vehicle_type_id":"4","last_reported":1704398852,"current_range_meters":30400,"station_id":"ce4bgk12rcd13ifvqbj0","pricing_plan_id":"free"},{"bike_id":"d3661675-ef34-4363-8f5c-3f830c1dd761","system_id":"levelo_inurba_marseille","lat":43.296058,"lon":5.367829,"is_reserved":false,"is_disabled":false,"rental_uris":{"android":"levelo://app?vid=d3661675-ef34-4363-8f5c-3f830c1dd761","ios":"levelo://app?vid=d3661675-ef34-4363-8f5c-3f830c1dd761"},"vehicle_type_id":"4","last_reported":1704398852,"current_range_meters":20400,"station_id":"","pricing_plan_id":"free"},{"bike_id":"9fbe7ef1-022b-458b-a5a6-c03245fd3b37","system_id":"levelo_inurba_marseille","lat":43.296131,"lon":5.370791,"is_reserved":false,"is_disabled":false,"rental_uris":{"android":"levelo://app?vid=9fbe7ef1-022b-458b-a5a6-c03245fd3b37","ios":"levelo://app?vid=9fbe7ef1-022b-458b-a5a6-c03245fd3b37"},"vehicle_type_id":"4","last_reported":1704398852,"current_range_meters":16800,"station_id":"ce4bgnh2rcd13ifvqc0g","pricing_plan_id":"free"},{"bike_id":"42672ba1-1b6e-4b97-8e9f-22a1eb2cb4dc","system_id":"levelo_inurba_marseille","lat":43.30947,"lon":5.3903,"is_reserved":false,"is_disabled":false,"rental_uris":{"android":"levelo://app?vid=42672ba1-1b6e-4b97-8e9f-22a1eb2cb4dc","ios":"levelo://app?vid=42672ba1-1b6e-4b97-8e9f-22a1eb2cb4dc"},"vehicle_type_id":"4","last_reported":1704398852,"current_range_meters":12800,"station_id":"ce4bgup2rcd13ifvqco0","pricing_plan_id":"free"},{"bike_id":"c664ed23-66cd-4f59-82bd-7dce38df3ba3","system_id":"levelo_inurba_marseille","lat":43.299028,"lon":5.381509,"is_reserved":false,"is_disabled":false,"rental_uris":{"android":"levelo://app?vid=c664ed23-66cd-4f59-82bd-7dce38df3ba3","ios":"levelo://app?vid=c664ed23-66cd-4f59-82bd-7dce38df3ba3"},"vehicle_type_id":"4","last_reported":1704398852,"current_range_meters":27600,"station_id":"ce4bgj12rcd13ifvqbc0","pricing_plan_id":"free"},{"bike_id":"5364ff76-1469-4e41-a001-3ec425a93233","system_id":"levelo_inurba_marseille","lat":43.317557,"lon":5.390173,"is_reserved":false,"is_disabled":false,"rental_uris":{"android":"levelo://app?vid=5364ff76-1469-4e41-a001-3ec425a93233","ios":"levelo://app?vid=5364ff76-1469-4e41-a001-3ec425a93233"},"vehicle_type_id":"4","last_reported":1704398852,"current_range_meters":28800,"station_id":"ce4bhqp2rcd13ifvqhng","pricing_plan_id":"free"},{"bike_id":"32f55a70-26bb-4c9d-ab0d-1dbf86e36421","system_id":"levelo_inurba_marseille","lat":43.298037,"lon":5.381066,"is_reserved":false,"is_disabled":false,"rental_uris":{"android":"levelo://app?vid=32f55a70-26bb-4c9d-ab0d-1dbf86e36421","ios":"levelo://app?vid=32f55a70-26bb-4c9d-ab0d-1dbf86e36421"},"vehicle_type_id":"4","last_reported":1704398852,"current_range_meters":4400,"station_id":"ce4bgip2rcd13ifvqbb0","pricing_plan_id":"free"},{"bike_id":"cb8cd837-28ff-4a76-93f3-5b8672a1734c","system_id":"levelo_inurba_marseille","lat":43.295699,"lon":5.374921,"is_reserved":false,"is_disabled":false,"rental_uris":{"android":"levelo://app?vid=cb8cd837-28ff-4a76-93f3-5b8672a1734c","ios":"levelo://app?vid=cb8cd837-28ff-4a76-93f3-5b8672a1734c"},"vehicle_type_id":"4","last_reported":1704398852,"current_range_meters":19600,"station_id":"","pricing_plan_id":"free"},{"bike_id":"d60802d6-4f47-444a-b234-883690eec05b","system_id":"levelo_inurba_marseille","lat":43.33062,"lon":5.3627,"is_reserved":false,"is_disabled":false,"rental_uris":{"android":"levelo://app?vid=d60802d6-4f47-444a-b234-883690eec05b","ios":"levelo://app?vid=d60802d6-4f47-444a-b234-883690eec05b"},"vehicle_type_id":"4","last_reported":1704398852,"current_range_meters":6800,"station_id":"","pricing_plan_id":"free"},{"bike_id":"25c07937-f4ed-4cbf-8d6f-351c57451056","system_id":"levelo_inurba_marseille","lat":43.296067,"lon":5.377109,"is_reserved":false,"is_disabled":false,"rental_uris":{"android":"levelo://app?vid=25c07937-f4ed-4cbf-8d6f-351c57451056","ios":"levelo://app?vid=25c07937-f4ed-4cbf-8d6f-351c57451056"},"vehicle_type_id":"4","last_reported":1704398852,"current_range_meters":0,"station_id":"ce4bgi92rcd13ifvqb90","pricing_plan_id":"free"},{"bike_id":"06aaed28-9ae8-43d4-acb1-262cb306e806","system_id":"levelo_inurba_marseille","lat":43.299707,"lon":5.384859,"is_reserved":false,"is_disabled":false,"rental_uris":{"android":"levelo://app?vid=06aaed28-9ae8-43d4-acb1-262cb306e806","ios":"levelo://app?vid=06aaed28-9ae8-43d4-acb1-262cb306e806"},"vehicle_type_id":"4","last_reported":1704398852,"current_range_meters":3200,"station_id":"ce4bgj92rcd13ifvqbd0","pricing_plan_id":"free"},{"bike_id":"dfc9a2c4-44a9-46ef-a391-a31dd3f04c3e","system_id":"levelo_inurba_marseille","lat":43.299724,"lon":5.384848,"is_reserved":false,"is_disabled":false,"rental_uris":{"android":"levelo://app?vid=dfc9a2c4-44a9-46ef-a391-a31dd3f04c3e","ios":"levelo://app?vid=dfc9a2c4-44a9-46ef-a391-a31dd3f04c3e"},"vehicle_type_id":"4","last_reported":1704398852,"current_range_meters":14400,"station_id":"ce4bgj92rcd13ifvqbd0","pricing_plan_id":"free"},{"bike_id":"e0021f43-de18-4772-bbd0-459c38734811","system_id":"levelo_inurba_marseille","lat":43.323631,"lon":5.38882,"is_reserved":false,"is_disabled":false,"rental_uris":{"android":"levelo://app?vid=e0021f43-de18-4772-bbd0-459c38734811","ios":"levelo://app?vid=e0021f43-de18-4772-bbd0-459c38734811"},"vehicle_type_id":"4","last_reported":1704398852,"current_range_meters":8400,"station_id":"ce4bhqp2rcd13ifvqhog","pricing_plan_id":"free"},{"bike_id":"8ed459c4-85ef-4f4f-808a-25f768d2eb94","system_id":"levelo_inurba_marseille","lat":43.32367,"lon":5.388836,"is_reserved":false,"is_disabled":false,"rental_uris":{"android":"levelo://app?vid=8ed459c4-85ef-4f4f-808a-25f768d2eb94","ios":"levelo://app?vid=8ed459c4-85ef-4f4f-808a-25f768d2eb94"},"vehicle_type_id":"4","last_reported":1704398852,"current_range_meters":8000,"station_id":"ce4bhqp2rcd13ifvqhog","pricing_plan_id":"free"},{"bike_id":"028a5017-6131-443f-a7fc-80671ad627e9","system_id":"levelo_inurba_marseille","lat":43.32367,"lon":5.388836,"is_reserved":false,"is_disabled":false,"rental_uris":{"android":"levelo://app?vid=028a5017-6131-443f-a7fc-80671ad627e9","ios":"levelo://app?vid=028a5017-6131-443f-a7fc-80671ad627e9"},"vehicle_type_id":"4","last_reported":1704398852,"current_range_meters":20800,"station_id":"ce4bhqp2rcd13ifvqhog","pricing_plan_id":"free"},{"bike_id":"be9c1b29-dd49-4092-8512-c48ccaf9229e","system_id":"levelo_inurba_marseille","lat":43.293259,"lon":5.371586,"is_reserved":false,"is_disabled":false,"rental_uris":{"android":"levelo://app?vid=be9c1b29-dd49-4092-8512-c48ccaf9229e","ios":"levelo://app?vid=be9c1b29-dd49-4092-8512-c48ccaf9229e"},"vehicle_type_id":"4","last_reported":1704398852,"current_range_meters":16000,"station_id":"ce4bgh92rcd13ifvqb40","pricing_plan_id":"free"},{"bike_id":"fc549c6e-f5a4-4dbf-8a1e-dcc24b3d8754","system_id":"levelo_inurba_marseille","lat":43.292749,"lon":5.368402,"is_reserved":false,"is_disabled":false,"rental_uris":{"android":"levelo://app?vid=fc549c6e-f5a4-4dbf-8a1e-dcc24b3d8754","ios":"levelo://app?vid=fc549c6e-f5a4-4dbf-8a1e-dcc24b3d8754"},"vehicle_type_id":"4","last_reported":1704398852,"current_range_meters":8800,"station_id":"ce4bhbp2rcd13ifvqesg","pricing_plan_id":"free"},{"bike_id":"022b9adc-7b52-4e73-921e-89cfc53bdd44","system_id":"levelo_inurba_marseille","lat":43.292749,"lon":5.368402,"is_reserved":false,"is_disabled":false,"rental_uris":{"android":"levelo://app?vid=022b9adc-7b52-4e73-921e-89cfc53bdd44","ios":"levelo://app?vid=022b9adc-7b52-4e73-921e-89cfc53bdd44"},"vehicle_type_id":"4","last_reported":1704398852,"current_range_meters":0,"station_id":"ce4bhbp2rcd13ifvqesg","pricing_plan_id":"free"},{"bike_id":"69c8ad45-a664-4080-90e1-a51d45160154","system_id":"levelo_inurba_marseille","lat":43.293009,"lon":5.374584,"is_reserved":false,"is_disabled":false,"rental_uris":{"android":"levelo://app?vid=69c8ad45-a664-4080-90e1-a51d45160154","ios":"levelo://app?vid=69c8ad45-a664-4080-90e1-a51d45160154"},"vehicle_type_id":"4","last_reported":1704398852,"current_range_meters":0,"station_id":"ce4bgi12rcd13ifvqb70","pricing_plan_id":"free"},{"bike_id":"a9a6fe28-f415-4337-a3a4-5cf75b83c2be","system_id":"levelo_inurba_marseille","lat":43.293009,"lon":5.374584,"is_reserved":false,"is_disabled":false,"rental_uris":{"android":"levelo://app?vid=a9a6fe28-f415-4337-a3a4-5cf75b83c2be","ios":"levelo://app?vid=a9a6fe28-f415-4337-a3a4-5cf75b83c2be"},"vehicle_type_id":"4","last_reported":1704398852,"current_range_meters":28000,"station_id":"ce4bgi12rcd13ifvqb70","pricing_plan_id":"free"},{"bike_id":"ea2aed60-0892-471d-9d8a-47ad75047836","system_id":"levelo_inurba_marseille","lat":43.305994,"lon":5.393687,"is_reserved":false,"is_disabled":false,"rental_uris":{"android":"levelo://app?vid=ea2aed60-0892-471d-9d8a-47ad75047836","ios":"levelo://app?vid=ea2aed60-0892-471d-9d8a-47ad75047836"},"vehicle_type_id":"4","last_reported":1704398852,"current_range_meters":2800,"station_id":"ce4bh0p2rcd13ifvqd80","pricing_plan_id":"free"},{"bike_id":"73d52e0f-bc97-459b-bf94-c7d1045abcb8","system_id":"levelo_inurba_marseille","lat":43.302992,"lon":5.392136,"is_reserved":false,"is_disabled":false,"rental_uris":{"android":"levelo://app?vid=73d52e0f-bc97-459b-bf94-c7d1045abcb8","ios":"levelo://app?vid=73d52e0f-bc97-459b-bf94-c7d1045abcb8"},"vehicle_type_id":"4","last_reported":1704398852,"current_range_meters":17600,"station_id":"ce4bgkh2rcd13ifvqbk0","pricing_plan_id":"free"},{"bike_id":"203f240e-e49d-45b1-87e4-e58c58706000","system_id":"levelo_inurba_marseille","lat":43.2936,"lon":5.37835,"is_reserved":false,"is_disabled":false,"rental_uris":{"android":"levelo://app?vid=203f240e-e49d-45b1-87e4-e58c58706000","ios":"levelo://app?vid=203f240e-e49d-45b1-87e4-e58c58706000"},"vehicle_type_id":"4","last_reported":1704398852,"current_range_meters":24800,"station_id":"ce4bgjh2rcd13ifvqbf0","pricing_plan_id":"free"},{"bike_id":"b4aeb742-c8da-4fce-ba7f-2e107ffc2b2b","system_id":"levelo_inurba_marseille","lat":43.303002,"lon":5.392142,"is_reserved":false,"is_disabled":false,"rental_uris":{"android":"levelo://app?vid=b4aeb742-c8da-4fce-ba7f-2e107ffc2b2b","ios":"levelo://app?vid=b4aeb742-c8da-4fce-ba7f-2e107ffc2b2b"},"vehicle_type_id":"4","last_reported":1704398852,"current_range_meters":20400,"station_id":"ce4bgkh2rcd13ifvqbk0","pricing_plan_id":"free"},{"bike_id":"3ce33d4f-7591-481c-b379-4f4bfaf5279b","system_id":"levelo_inurba_marseille","lat":43.291675,"lon":5.371583,"is_reserved":false,"is_disabled":false,"rental_uris":{"android":"levelo://app?vid=3ce33d4f-7591-481c-b379-4f4bfaf5279b","ios":"levelo://app?vid=3ce33d4f-7591-481c-b379-4f4bfaf5279b"},"vehicle_type_id":"4","last_reported":1704398852,"current_range_meters":19600,"station_id":"ce4bha92rcd13ifvqeh0","pricing_plan_id":"free"},{"bike_id":"b3f8a61a-364d-4f0e-ad6f-9906372f2dbf","system_id":"levelo_inurba_marseille","lat":43.291671,"lon":5.371575,"is_reserved":false,"is_disabled":false,"rental_uris":{"android":"levelo://app?vid=b3f8a61a-364d-4f0e-ad6f-9906372f2dbf","ios":"levelo://app?vid=b3f8a61a-364d-4f0e-ad6f-9906372f2dbf"},"vehicle_type_id":"4","last_reported":1704398852,"current_range_meters":27600,"station_id":"ce4bha92rcd13ifvqeh0","pricing_plan_id":"free"},{"bike_id":"d012e41d-0735-464b-80f5-6300e9bd1f76","system_id":"levelo_inurba_marseille","lat":43.29872,"lon":5.38907,"is_reserved":false,"is_disabled":false,"rental_uris":{"android":"levelo://app?vid=d012e41d-0735-464b-80f5-6300e9bd1f76","ios":"levelo://app?vid=d012e41d-0735-464b-80f5-6300e9bd1f76"},"vehicle_type_id":"4","last_reported":1704398852,"current_range_meters":15200,"station_id":"","pricing_plan_id":"free"},{"bike_id":"74cfa131-7ff6-4ea6-a5e0-3feb6166db52","system_id":"levelo_inurba_marseille","lat":43.30883,"lon":5.3963,"is_reserved":false,"is_disabled":false,"rental_uris":{"android":"levelo://app?vid=74cfa131-7ff6-4ea6-a5e0-3feb6166db52","ios":"levelo://app?vid=74cfa131-7ff6-4ea6-a5e0-3feb6166db52"},"vehicle_type_id":"4","last_reported":1704398852,"current_range_meters":8800,"station_id":"ce4bh012rcd13ifvqcv0","pricing_plan_id":"free"},{"bike_id":"31374201-e7bc-46e6-aaab-97b2318c8d02","system_id":"levelo_inurba_marseille","lat":43.30887,"lon":5.39633,"is_reserved":false,"is_disabled":false,"rental_uris":{"android":"levelo://app?vid=31374201-e7bc-46e6-aaab-97b2318c8d02","ios":"levelo://app?vid=31374201-e7bc-46e6-aaab-97b2318c8d02"},"vehicle_type_id":"4","last_reported":1704398852,"current_range_meters":13200,"station_id":"ce4bh012rcd13ifvqcv0","pricing_plan_id":"free"},{"bike_id":"50958556-5743-43a2-bf6e-a96f7c88d7a3","system_id":"levelo_inurba_marseille","lat":43.309038,"lon":5.396546,"is_reserved":false,"is_disabled":false,"rental_uris":{"android":"levelo://app?vid=50958556-5743-43a2-bf6e-a96f7c88d7a3","ios":"levelo://app?vid=50958556-5743-43a2-bf6e-a96f7c88d7a3"},"vehicle_type_id":"4","last_reported":1704398852,"current_range_meters":11200,"station_id":"ce4bh012rcd13ifvqcv0","pricing_plan_id":"free"},{"bike_id":"a30ab2b9-d1da-4d38-9e85-f0d4ef57bea0","system_id":"levelo_inurba_marseille","lat":43.308803,"lon":5.396359,"is_reserved":false,"is_disabled":false,"rental_uris":{"android":"levelo://app?vid=a30ab2b9-d1da-4d38-9e85-f0d4ef57bea0","ios":"levelo://app?vid=a30ab2b9-d1da-4d38-9e85-f0d4ef57bea0"},"vehicle_type_id":"4","last_reported":1704398852,"current_range_meters":20400,"station_id":"ce4bh012rcd13ifvqcv0","pricing_plan_id":"free"},{"bike_id":"b4e7c387-7b82-4788-9c3b-dd60a0d6bec8","system_id":"levelo_inurba_marseille","lat":43.313291,"lon":5.396838,"is_reserved":false,"is_disabled":false,"rental_uris":{"android":"levelo://app?vid=b4e7c387-7b82-4788-9c3b-dd60a0d6bec8","ios":"levelo://app?vid=b4e7c387-7b82-4788-9c3b-dd60a0d6bec8"},"vehicle_type_id":"4","last_reported":1704398852,"current_range_meters":400,"station_id":"ce4bgvp2rcd13ifvqcu0","pricing_plan_id":"free"},{"bike_id":"6e6aea2e-6746-425e-ae3f-e73f5c833249","system_id":"levelo_inurba_marseille","lat":43.313291,"lon":5.396838,"is_reserved":false,"is_disabled":false,"rental_uris":{"android":"levelo://app?vid=6e6aea2e-6746-425e-ae3f-e73f5c833249","ios":"levelo://app?vid=6e6aea2e-6746-425e-ae3f-e73f5c833249"},"vehicle_type_id":"4","last_reported":1704398852,"current_range_meters":30400,"station_id":"ce4bgvp2rcd13ifvqcu0","pricing_plan_id":"free"},{"bike_id":"1bb5b44e-8135-4eed-8e0d-96b161fbe2e7","system_id":"levelo_inurba_marseille","lat":43.30888,"lon":5.39642,"is_reserved":false,"is_disabled":false,"rental_uris":{"android":"levelo://app?vid=1bb5b44e-8135-4eed-8e0d-96b161fbe2e7","ios":"levelo://app?vid=1bb5b44e-8135-4eed-8e0d-96b161fbe2e7"},"vehicle_type_id":"4","last_reported":1704398852,"current_range_meters":20000,"station_id":"ce4bh012rcd13ifvqcv0","pricing_plan_id":"free"},{"bike_id":"ff5b9743-d87c-46c3-b94b-957aa3927e6c","system_id":"levelo_inurba_marseille","lat":43.313291,"lon":5.396838,"is_reserved":false,"is_disabled":false,"rental_uris":{"android":"levelo://app?vid=ff5b9743-d87c-46c3-b94b-957aa3927e6c","ios":"levelo://app?vid=ff5b9743-d87c-46c3-b94b-957aa3927e6c"},"vehicle_type_id":"4","last_reported":1704398852,"current_range_meters":1200,"station_id":"ce4bgvp2rcd13ifvqcu0","pricing_plan_id":"free"},{"bike_id":"76cd2679-6a3d-4a00-8fe2-53d47fffa510","system_id":"levelo_inurba_marseille","lat":43.30886,"lon":5.39645,"is_reserved":false,"is_disabled":false,"rental_uris":{"android":"levelo://app?vid=76cd2679-6a3d-4a00-8fe2-53d47fffa510","ios":"levelo://app?vid=76cd2679-6a3d-4a00-8fe2-53d47fffa510"},"vehicle_type_id":"4","last_reported":1704398852,"current_range_meters":9600,"station_id":"ce4bh012rcd13ifvqcv0","pricing_plan_id":"free"},{"bike_id":"a753388a-0e85-430d-8610-c9b31a3b5a6d","system_id":"levelo_inurba_marseille","lat":43.308808,"lon":5.396442,"is_reserved":false,"is_disabled":false,"rental_uris":{"android":"levelo://app?vid=a753388a-0e85-430d-8610-c9b31a3b5a6d","ios":"levelo://app?vid=a753388a-0e85-430d-8610-c9b31a3b5a6d"},"vehicle_type_id":"4","last_reported":1704398852,"current_range_meters":0,"station_id":"ce4bh012rcd13ifvqcv0","pricing_plan_id":"free"},{"bike_id":"5ebab81c-726c-4c7d-adb4-882019490576","system_id":"levelo_inurba_marseille","lat":43.313291,"lon":5.396838,"is_reserved":false,"is_disabled":false,"rental_uris":{"android":"levelo://app?vid=5ebab81c-726c-4c7d-adb4-882019490576","ios":"levelo://app?vid=5ebab81c-726c-4c7d-adb4-882019490576"},"vehicle_type_id":"4","last_reported":1704398852,"current_range_meters":31600,"station_id":"ce4bgvp2rcd13ifvqcu0","pricing_plan_id":"free"},{"bike_id":"a1d4d6a9-131c-4e2d-8a0e-6c2a2e0e9747","system_id":"levelo_inurba_marseille","lat":43.313291,"lon":5.396838,"is_reserved":false,"is_disabled":false,"rental_uris":{"android":"levelo://app?vid=a1d4d6a9-131c-4e2d-8a0e-6c2a2e0e9747","ios":"levelo://app?vid=a1d4d6a9-131c-4e2d-8a0e-6c2a2e0e9747"},"vehicle_type_id":"4","last_reported":1704398852,"current_range_meters":17200,"station_id":"ce4bgvp2rcd13ifvqcu0","pricing_plan_id":"free"},{"bike_id":"11ebe11d-5eb5-4ea1-b905-a6590a77e53b","system_id":"levelo_inurba_marseille","lat":43.313291,"lon":5.396838,"is_reserved":false,"is_disabled":false,"rental_uris":{"android":"levelo://app?vid=11ebe11d-5eb5-4ea1-b905-a6590a77e53b","ios":"levelo://app?vid=11ebe11d-5eb5-4ea1-b905-a6590a77e53b"},"vehicle_type_id":"4","last_reported":1704398852,"current_range_meters":23200,"station_id":"ce4bgvp2rcd13ifvqcu0","pricing_plan_id":"free"},{"bike_id":"6ef6db72-779e-4209-a286-2dda96846da5","system_id":"levelo_inurba_marseille","lat":43.313291,"lon":5.396838,"is_reserved":false,"is_disabled":false,"rental_uris":{"android":"levelo://app?vid=6ef6db72-779e-4209-a286-2dda96846da5","ios":"levelo://app?vid=6ef6db72-779e-4209-a286-2dda96846da5"},"vehicle_type_id":"4","last_reported":1704398852,"current_range_meters":21600,"station_id":"ce4bgvp2rcd13ifvqcu0","pricing_plan_id":"free"},{"bike_id":"2cb51d75-dfe3-4a5c-947b-af5d8eeff06a","system_id":"levelo_inurba_marseille","lat":43.30891,"lon":5.39654,"is_reserved":false,"is_disabled":false,"rental_uris":{"android":"levelo://app?vid=2cb51d75-dfe3-4a5c-947b-af5d8eeff06a","ios":"levelo://app?vid=2cb51d75-dfe3-4a5c-947b-af5d8eeff06a"},"vehicle_type_id":"4","last_reported":1704398852,"current_range_meters":9600,"station_id":"ce4bh012rcd13ifvqcv0","pricing_plan_id":"free"},{"bike_id":"b464643a-c732-4be2-b5d7-c577a6f9d3f1","system_id":"levelo_inurba_marseille","lat":43.308879,"lon":5.396533,"is_reserved":false,"is_disabled":false,"rental_uris":{"android":"levelo://app?vid=b464643a-c732-4be2-b5d7-c577a6f9d3f1","ios":"levelo://app?vid=b464643a-c732-4be2-b5d7-c577a6f9d3f1"},"vehicle_type_id":"4","last_reported":1704398852,"current_range_meters":5600,"station_id":"ce4bh012rcd13ifvqcv0","pricing_plan_id":"free"},{"bike_id":"66d8f7ad-719a-499d-acd6-21d9f9724ee3","system_id":"levelo_inurba_marseille","lat":43.30893,"lon":5.39655,"is_reserved":false,"is_disabled":false,"rental_uris":{"android":"levelo://app?vid=66d8f7ad-719a-499d-acd6-21d9f9724ee3","ios":"levelo://app?vid=66d8f7ad-719a-499d-acd6-21d9f9724ee3"},"vehicle_type_id":"4","last_reported":1704398852,"current_range_meters":10800,"station_id":"ce4bh012rcd13ifvqcv0","pricing_plan_id":"free"},{"bike_id":"44c5b18d-8732-446c-ad56-79dbaafca2a1","system_id":"levelo_inurba_marseille","lat":43.30893,"lon":5.39657,"is_reserved":false,"is_disabled":false,"rental_uris":{"android":"levelo://app?vid=44c5b18d-8732-446c-ad56-79dbaafca2a1","ios":"levelo://app?vid=44c5b18d-8732-446c-ad56-79dbaafca2a1"},"vehicle_type_id":"4","last_reported":1704398852,"current_range_meters":5600,"station_id":"ce4bh012rcd13ifvqcv0","pricing_plan_id":"free"},{"bike_id":"d870183d-edd2-443b-8023-0ed33540355a","system_id":"levelo_inurba_marseille","lat":43.30879,"lon":5.39655,"is_reserved":false,"is_disabled":false,"rental_uris":{"android":"levelo://app?vid=d870183d-edd2-443b-8023-0ed33540355a","ios":"levelo://app?vid=d870183d-edd2-443b-8023-0ed33540355a"},"vehicle_type_id":"4","last_reported":1704398852,"current_range_meters":13200,"station_id":"ce4bh012rcd13ifvqcv0","pricing_plan_id":"free"},{"bike_id":"60402076-3dd7-42a7-9787-cacc0b50dd51","system_id":"levelo_inurba_marseille","lat":43.29529,"lon":5.385581,"is_reserved":false,"is_disabled":false,"rental_uris":{"android":"levelo://app?vid=60402076-3dd7-42a7-9787-cacc0b50dd51","ios":"levelo://app?vid=60402076-3dd7-42a7-9787-cacc0b50dd51"},"vehicle_type_id":"4","last_reported":1704398852,"current_range_meters":11600,"station_id":"ce4bgih2rcd13ifvqba0","pricing_plan_id":"free"},{"bike_id":"e9b200a5-474d-4ebb-924c-ab839f6acab0","system_id":"levelo_inurba_marseille","lat":43.295169,"lon":5.390426,"is_reserved":false,"is_disabled":false,"rental_uris":{"android":"levelo://app?vid=e9b200a5-474d-4ebb-924c-ab839f6acab0","ios":"levelo://app?vid=e9b200a5-474d-4ebb-924c-ab839f6acab0"},"vehicle_type_id":"4","last_reported":1704398852,"current_range_meters":30000,"station_id":"ce4bh3p2rcd13ifvqdp0","pricing_plan_id":"free"},{"bike_id":"e6ca969b-0f70-4d96-9e33-9d689627e3cc","system_id":"levelo_inurba_marseille","lat":43.29529,"lon":5.385581,"is_reserved":false,"is_disabled":false,"rental_uris":{"android":"levelo://app?vid=e6ca969b-0f70-4d96-9e33-9d689627e3cc","ios":"levelo://app?vid=e6ca969b-0f70-4d96-9e33-9d689627e3cc"},"vehicle_type_id":"4","last_reported":1704398852,"current_range_meters":18000,"station_id":"ce4bgih2rcd13ifvqba0","pricing_plan_id":"free"},{"bike_id":"4a9311c4-4db5-4367-b1f7-d435bd185033","system_id":"levelo_inurba_marseille","lat":43.33273,"lon":5.37989,"is_reserved":false,"is_disabled":false,"rental_uris":{"android":"levelo://app?vid=4a9311c4-4db5-4367-b1f7-d435bd185033","ios":"levelo://app?vid=4a9311c4-4db5-4367-b1f7-d435bd185033"},"vehicle_type_id":"4","last_reported":1704398852,"current_range_meters":5200,"station_id":"","pricing_plan_id":"free"},{"bike_id":"4aa0a5ad-eba7-4e82-b2a5-2f7802007493","system_id":"levelo_inurba_marseille","lat":43.290779,"lon":5.371482,"is_reserved":false,"is_disabled":false,"rental_uris":{"android":"levelo://app?vid=4aa0a5ad-eba7-4e82-b2a5-2f7802007493","ios":"levelo://app?vid=4aa0a5ad-eba7-4e82-b2a5-2f7802007493"},"vehicle_type_id":"4","last_reported":1704398852,"current_range_meters":28400,"station_id":"ce4bh5p2rcd13ifvqe4g","pricing_plan_id":"free"},{"bike_id":"76f490b9-6c2c-4064-a731-7ba094367ab7","system_id":"levelo_inurba_marseille","lat":43.302008,"lon":5.394694,"is_reserved":false,"is_disabled":false,"rental_uris":{"android":"levelo://app?vid=76f490b9-6c2c-4064-a731-7ba094367ab7","ios":"levelo://app?vid=76f490b9-6c2c-4064-a731-7ba094367ab7"},"vehicle_type_id":"4","last_reported":1704398852,"current_range_meters":4000,"station_id":"ce4bh0p2rcd13ifvqd70","pricing_plan_id":"free"},{"bike_id":"1a9292c6-0966-405a-9d3a-a4b1fa85c0bc","system_id":"levelo_inurba_marseille","lat":43.290327,"lon":5.375711,"is_reserved":false,"is_disabled":false,"rental_uris":{"android":"levelo://app?vid=1a9292c6-0966-405a-9d3a-a4b1fa85c0bc","ios":"levelo://app?vid=1a9292c6-0966-405a-9d3a-a4b1fa85c0bc"},"vehicle_type_id":"4","last_reported":1704398852,"current_range_meters":16400,"station_id":"ce4bh692rcd13ifvqe90","pricing_plan_id":"free"},{"bike_id":"09fc4bf2-d35e-4f4f-b566-9e94f094b5d4","system_id":"levelo_inurba_marseille","lat":43.290327,"lon":5.375711,"is_reserved":false,"is_disabled":false,"rental_uris":{"android":"levelo://app?vid=09fc4bf2-d35e-4f4f-b566-9e94f094b5d4","ios":"levelo://app?vid=09fc4bf2-d35e-4f4f-b566-9e94f094b5d4"},"vehicle_type_id":"4","last_reported":1704398852,"current_range_meters":9600,"station_id":"ce4bh692rcd13ifvqe90","pricing_plan_id":"free"},{"bike_id":"84be1412-4344-417d-a123-8dc06e51e835","system_id":"levelo_inurba_marseille","lat":43.294162,"lon":5.386292,"is_reserved":false,"is_disabled":false,"rental_uris":{"android":"levelo://app?vid=84be1412-4344-417d-a123-8dc06e51e835","ios":"levelo://app?vid=84be1412-4344-417d-a123-8dc06e51e835"},"vehicle_type_id":"4","last_reported":1704398852,"current_range_meters":5600,"station_id":"ce4bh2h2rcd13ifvqdh0","pricing_plan_id":"free"},{"bike_id":"ed20085d-2acf-42bf-b4cc-3e8dda4ec94b","system_id":"levelo_inurba_marseille","lat":43.294153,"lon":5.386305,"is_reserved":false,"is_disabled":false,"rental_uris":{"android":"levelo://app?vid=ed20085d-2acf-42bf-b4cc-3e8dda4ec94b","ios":"levelo://app?vid=ed20085d-2acf-42bf-b4cc-3e8dda4ec94b"},"vehicle_type_id":"4","last_reported":1704398852,"current_range_meters":24400,"station_id":"ce4bh2h2rcd13ifvqdh0","pricing_plan_id":"free"},{"bike_id":"8e9c12a8-de2b-426f-b84d-d80d883be573","system_id":"levelo_inurba_marseille","lat":43.289468,"lon":5.363719,"is_reserved":false,"is_disabled":false,"rental_uris":{"android":"levelo://app?vid=8e9c12a8-de2b-426f-b84d-d80d883be573","ios":"levelo://app?vid=8e9c12a8-de2b-426f-b84d-d80d883be573"},"vehicle_type_id":"4","last_reported":1704398852,"current_range_meters":8800,"station_id":"ce4bhc92rcd13ifvqetg","pricing_plan_id":"free"},{"bike_id":"c0b15bd0-af90-4456-82c6-49d00714295c","system_id":"levelo_inurba_marseille","lat":43.289468,"lon":5.363719,"is_reserved":false,"is_disabled":false,"rental_uris":{"android":"levelo://app?vid=c0b15bd0-af90-4456-82c6-49d00714295c","ios":"levelo://app?vid=c0b15bd0-af90-4456-82c6-49d00714295c"},"vehicle_type_id":"4","last_reported":1704398852,"current_range_meters":29600,"station_id":"ce4bhc92rcd13ifvqetg","pricing_plan_id":"free"},{"bike_id":"cf9f069a-6d9a-402d-9d53-a97a6f5605c6","system_id":"levelo_inurba_marseille","lat":43.290995,"lon":5.381361,"is_reserved":false,"is_disabled":false,"rental_uris":{"android":"levelo://app?vid=cf9f069a-6d9a-402d-9d53-a97a6f5605c6","ios":"levelo://app?vid=cf9f069a-6d9a-402d-9d53-a97a6f5605c6"},"vehicle_type_id":"4","last_reported":1704398852,"current_range_meters":0,"station_id":"ce4bh512rcd13ifvqe2g","pricing_plan_id":"free"},{"bike_id":"fa9a02d2-ce30-4d10-931a-db570cd54e98","system_id":"levelo_inurba_marseille","lat":43.290995,"lon":5.381361,"is_reserved":false,"is_disabled":false,"rental_uris":{"android":"levelo://app?vid=fa9a02d2-ce30-4d10-931a-db570cd54e98","ios":"levelo://app?vid=fa9a02d2-ce30-4d10-931a-db570cd54e98"},"vehicle_type_id":"4","last_reported":1704398852,"current_range_meters":11200,"station_id":"ce4bh512rcd13ifvqe2g","pricing_plan_id":"free"},{"bike_id":"533383c5-3a7d-4aca-8d64-c0de21c5f8f9","system_id":"levelo_inurba_marseille","lat":43.290995,"lon":5.381361,"is_reserved":false,"is_disabled":false,"rental_uris":{"android":"levelo://app?vid=533383c5-3a7d-4aca-8d64-c0de21c5f8f9","ios":"levelo://app?vid=533383c5-3a7d-4aca-8d64-c0de21c5f8f9"},"vehicle_type_id":"4","last_reported":1704398852,"current_range_meters":26400,"station_id":"ce4bh512rcd13ifvqe2g","pricing_plan_id":"free"},{"bike_id":"dc75d7c3-19ec-4531-95b9-93e0de663e34","system_id":"levelo_inurba_marseille","lat":43.29788,"lon":5.39329,"is_reserved":false,"is_disabled":false,"rental_uris":{"android":"levelo://app?vid=dc75d7c3-19ec-4531-95b9-93e0de663e34","ios":"levelo://app?vid=dc75d7c3-19ec-4531-95b9-93e0de663e34"},"vehicle_type_id":"4","last_reported":1704398852,"current_range_meters":13600,"station_id":"chh1huq6cuj3fo74tm60","pricing_plan_id":"free"},{"bike_id":"e0645ca8-39c6-4745-bc29-134fbb1ea40f","system_id":"levelo_inurba_marseille","lat":43.290995,"lon":5.381361,"is_reserved":false,"is_disabled":false,"rental_uris":{"android":"levelo://app?vid=e0645ca8-39c6-4745-bc29-134fbb1ea40f","ios":"levelo://app?vid=e0645ca8-39c6-4745-bc29-134fbb1ea40f"},"vehicle_type_id":"4","last_reported":1704398852,"current_range_meters":8800,"station_id":"ce4bh512rcd13ifvqe2g","pricing_plan_id":"free"},{"bike_id":"a023d84b-11ca-49dd-9d6c-50372e788579","system_id":"levelo_inurba_marseille","lat":43.330442,"lon":5.389148,"is_reserved":false,"is_disabled":false,"rental_uris":{"android":"levelo://app?vid=a023d84b-11ca-49dd-9d6c-50372e788579","ios":"levelo://app?vid=a023d84b-11ca-49dd-9d6c-50372e788579"},"vehicle_type_id":"4","last_reported":1704398852,"current_range_meters":13200,"station_id":"ce4bhr92rcd13ifvqhrg","pricing_plan_id":"free"},{"bike_id":"7da19f74-ba7f-4bc9-841b-f11c963d1d8f","system_id":"levelo_inurba_marseille","lat":43.330442,"lon":5.389148,"is_reserved":false,"is_disabled":false,"rental_uris":{"android":"levelo://app?vid=7da19f74-ba7f-4bc9-841b-f11c963d1d8f","ios":"levelo://app?vid=7da19f74-ba7f-4bc9-841b-f11c963d1d8f"},"vehicle_type_id":"4","last_reported":1704398852,"current_range_meters":3200,"station_id":"ce4bhr92rcd13ifvqhrg","pricing_plan_id":"free"},{"bike_id":"e0bb97d7-f4db-49ab-a03c-a788a7e9f091","system_id":"levelo_inurba_marseille","lat":43.330442,"lon":5.389148,"is_reserved":false,"is_disabled":false,"rental_uris":{"android":"levelo://app?vid=e0bb97d7-f4db-49ab-a03c-a788a7e9f091","ios":"levelo://app?vid=e0bb97d7-f4db-49ab-a03c-a788a7e9f091"},"vehicle_type_id":"4","last_reported":1704398852,"current_range_meters":14000,"station_id":"ce4bhr92rcd13ifvqhrg","pricing_plan_id":"free"},{"bike_id":"a4544299-4117-4ba4-98ad-2dcd1cebe1e8","system_id":"levelo_inurba_marseille","lat":43.330442,"lon":5.389148,"is_reserved":false,"is_disabled":false,"rental_uris":{"android":"levelo://app?vid=a4544299-4117-4ba4-98ad-2dcd1cebe1e8","ios":"levelo://app?vid=a4544299-4117-4ba4-98ad-2dcd1cebe1e8"},"vehicle_type_id":"4","last_reported":1704398852,"current_range_meters":19200,"station_id":"ce4bhr92rcd13ifvqhrg","pricing_plan_id":"free"},{"bike_id":"a45508dc-3e20-4dc2-a3f2-c48092cac22d","system_id":"levelo_inurba_marseille","lat":43.330442,"lon":5.389148,"is_reserved":false,"is_disabled":false,"rental_uris":{"android":"levelo://app?vid=a45508dc-3e20-4dc2-a3f2-c48092cac22d","ios":"levelo://app?vid=a45508dc-3e20-4dc2-a3f2-c48092cac22d"},"vehicle_type_id":"4","last_reported":1704398852,"current_range_meters":30000,"station_id":"ce4bhr92rcd13ifvqhrg","pricing_plan_id":"free"},{"bike_id":"b4dc5f58-d698-47e4-9d04-a65a1aac924a","system_id":"levelo_inurba_marseille","lat":43.330442,"lon":5.389148,"is_reserved":false,"is_disabled":false,"rental_uris":{"android":"levelo://app?vid=b4dc5f58-d698-47e4-9d04-a65a1aac924a","ios":"levelo://app?vid=b4dc5f58-d698-47e4-9d04-a65a1aac924a"},"vehicle_type_id":"4","last_reported":1704398852,"current_range_meters":7600,"station_id":"ce4bhr92rcd13ifvqhrg","pricing_plan_id":"free"},{"bike_id":"3537c72e-affb-4603-a0d4-44c57db301e5","system_id":"levelo_inurba_marseille","lat":43.330442,"lon":5.389148,"is_reserved":false,"is_disabled":false,"rental_uris":{"android":"levelo://app?vid=3537c72e-affb-4603-a0d4-44c57db301e5","ios":"levelo://app?vid=3537c72e-affb-4603-a0d4-44c57db301e5"},"vehicle_type_id":"4","last_reported":1704398852,"current_range_meters":25200,"station_id":"ce4bhr92rcd13ifvqhrg","pricing_plan_id":"free"},{"bike_id":"8c57c651-ec6c-4f7a-8a47-747504242619","system_id":"levelo_inurba_marseille","lat":43.2901,"lon":5.381269,"is_reserved":false,"is_disabled":false,"rental_uris":{"android":"levelo://app?vid=8c57c651-ec6c-4f7a-8a47-747504242619","ios":"levelo://app?vid=8c57c651-ec6c-4f7a-8a47-747504242619"},"vehicle_type_id":"4","last_reported":1704398852,"current_range_meters":5600,"station_id":"ce4bh4p2rcd13ifvqe1g","pricing_plan_id":"free"},{"bike_id":"c0779735-56dc-49f1-8cb5-90ae1dcffbe4","system_id":"levelo_inurba_marseille","lat":43.2901,"lon":5.381269,"is_reserved":false,"is_disabled":false,"rental_uris":{"android":"levelo://app?vid=c0779735-56dc-49f1-8cb5-90ae1dcffbe4","ios":"levelo://app?vid=c0779735-56dc-49f1-8cb5-90ae1dcffbe4"},"vehicle_type_id":"4","last_reported":1704398852,"current_range_meters":3200,"station_id":"ce4bh4p2rcd13ifvqe1g","pricing_plan_id":"free"},{"bike_id":"fd2aaf73-cf25-443b-bfc7-7e669aeecf2a","system_id":"levelo_inurba_marseille","lat":43.2901,"lon":5.381269,"is_reserved":false,"is_disabled":false,"rental_uris":{"android":"levelo://app?vid=fd2aaf73-cf25-443b-bfc7-7e669aeecf2a","ios":"levelo://app?vid=fd2aaf73-cf25-443b-bfc7-7e669aeecf2a"},"vehicle_type_id":"4","last_reported":1704398852,"current_range_meters":4800,"station_id":"ce4bh4p2rcd13ifvqe1g","pricing_plan_id":"free"},{"bike_id":"8984a67e-df9a-4e9c-ba56-7e3b312c7d69","system_id":"levelo_inurba_marseille","lat":43.28856,"lon":5.358371,"is_reserved":false,"is_disabled":false,"rental_uris":{"android":"levelo://app?vid=8984a67e-df9a-4e9c-ba56-7e3b312c7d69","ios":"levelo://app?vid=8984a67e-df9a-4e9c-ba56-7e3b312c7d69"},"vehicle_type_id":"4","last_reported":1704398852,"current_range_meters":30400,"station_id":"ce4bhb12rcd13ifvqem0","pricing_plan_id":"free"},{"bike_id":"9c1b0148-8d75-4d47-a70e-457918051f4c","system_id":"levelo_inurba_marseille","lat":43.290094,"lon":5.381264,"is_reserved":false,"is_disabled":false,"rental_uris":{"android":"levelo://app?vid=9c1b0148-8d75-4d47-a70e-457918051f4c","ios":"levelo://app?vid=9c1b0148-8d75-4d47-a70e-457918051f4c"},"vehicle_type_id":"4","last_reported":1704398852,"current_range_meters":25600,"station_id":"ce4bh4p2rcd13ifvqe1g","pricing_plan_id":"free"},{"bike_id":"b1f85b16-0aa9-4f72-8f1e-5042af9339aa","system_id":"levelo_inurba_marseille","lat":43.289184,"lon":5.366408,"is_reserved":false,"is_disabled":false,"rental_uris":{"android":"levelo://app?vid=b1f85b16-0aa9-4f72-8f1e-5042af9339aa","ios":"levelo://app?vid=b1f85b16-0aa9-4f72-8f1e-5042af9339aa"},"vehicle_type_id":"4","last_reported":1704398852,"current_range_meters":0,"station_id":"ce4bhap2rcd13ifvqek0","pricing_plan_id":"free"},{"bike_id":"60e47e3a-4a46-4efb-b8d0-aaf684a8a536","system_id":"levelo_inurba_marseille","lat":43.30642,"lon":5.401031,"is_reserved":false,"is_disabled":false,"rental_uris":{"android":"levelo://app?vid=60e47e3a-4a46-4efb-b8d0-aaf684a8a536","ios":"levelo://app?vid=60e47e3a-4a46-4efb-b8d0-aaf684a8a536"},"vehicle_type_id":"4","last_reported":1704398852,"current_range_meters":16800,"station_id":"ce4bh112rcd13ifvqda0","pricing_plan_id":"free"},{"bike_id":"a38cb2cd-211a-406b-a45d-b2390548c22c","system_id":"levelo_inurba_marseille","lat":43.33755,"lon":5.37478,"is_reserved":false,"is_disabled":false,"rental_uris":{"android":"levelo://app?vid=a38cb2cd-211a-406b-a45d-b2390548c22c","ios":"levelo://app?vid=a38cb2cd-211a-406b-a45d-b2390548c22c"},"vehicle_type_id":"4","last_reported":1704398852,"current_range_meters":24800,"station_id":"","pricing_plan_id":"free"},{"bike_id":"b428d52f-c3e8-437e-a53e-70748dcc3d20","system_id":"levelo_inurba_marseille","lat":43.306412,"lon":5.401035,"is_reserved":false,"is_disabled":false,"rental_uris":{"android":"levelo://app?vid=b428d52f-c3e8-437e-a53e-70748dcc3d20","ios":"levelo://app?vid=b428d52f-c3e8-437e-a53e-70748dcc3d20"},"vehicle_type_id":"4","last_reported":1704398852,"current_range_meters":11200,"station_id":"ce4bh112rcd13ifvqda0","pricing_plan_id":"free"},{"bike_id":"b452f7e8-ed22-45d9-8724-60c770f6087b","system_id":"levelo_inurba_marseille","lat":43.33769,"lon":5.374223,"is_reserved":false,"is_disabled":false,"rental_uris":{"android":"levelo://app?vid=b452f7e8-ed22-45d9-8724-60c770f6087b","ios":"levelo://app?vid=b452f7e8-ed22-45d9-8724-60c770f6087b"},"vehicle_type_id":"4","last_reported":1704398852,"current_range_meters":29600,"station_id":"","pricing_plan_id":"free"},{"bike_id":"38de82ba-9a22-4d1d-b18c-123321c3e8fe","system_id":"levelo_inurba_marseille","lat":43.33765,"lon":5.37485,"is_reserved":false,"is_disabled":false,"rental_uris":{"android":"levelo://app?vid=38de82ba-9a22-4d1d-b18c-123321c3e8fe","ios":"levelo://app?vid=38de82ba-9a22-4d1d-b18c-123321c3e8fe"},"vehicle_type_id":"4","last_reported":1704398852,"current_range_meters":27600,"station_id":"","pricing_plan_id":"free"},{"bike_id":"9a8a63b6-943a-4d16-a805-79155e156ea3","system_id":"levelo_inurba_marseille","lat":43.30137,"lon":5.39862,"is_reserved":false,"is_disabled":false,"rental_uris":{"android":"levelo://app?vid=9a8a63b6-943a-4d16-a805-79155e156ea3","ios":"levelo://app?vid=9a8a63b6-943a-4d16-a805-79155e156ea3"},"vehicle_type_id":"4","last_reported":1704398852,"current_range_meters":19200,"station_id":"ce4bh0h2rcd13ifvqd40","pricing_plan_id":"free"},{"bike_id":"eddd2156-b53c-4cd1-be86-d7bac8f04065","system_id":"levelo_inurba_marseille","lat":43.3014,"lon":5.39867,"is_reserved":false,"is_disabled":false,"rental_uris":{"android":"levelo://app?vid=eddd2156-b53c-4cd1-be86-d7bac8f04065","ios":"levelo://app?vid=eddd2156-b53c-4cd1-be86-d7bac8f04065"},"vehicle_type_id":"4","last_reported":1704398852,"current_range_meters":11600,"station_id":"ce4bh0h2rcd13ifvqd40","pricing_plan_id":"free"},{"bike_id":"e8f6bf26-a321-4661-919a-84e2c6e4277f","system_id":"levelo_inurba_marseille","lat":43.28727,"lon":5.36078,"is_reserved":false,"is_disabled":false,"rental_uris":{"android":"levelo://app?vid=e8f6bf26-a321-4661-919a-84e2c6e4277f","ios":"levelo://app?vid=e8f6bf26-a321-4661-919a-84e2c6e4277f"},"vehicle_type_id":"4","last_reported":1704398852,"current_range_meters":4000,"station_id":"cki0cbj6b192h4jlfktg","pricing_plan_id":"free"},{"bike_id":"91f047d9-5543-43fb-992f-dcaca5f05d0a","system_id":"levelo_inurba_marseille","lat":43.28727,"lon":5.36078,"is_reserved":false,"is_disabled":false,"rental_uris":{"android":"levelo://app?vid=91f047d9-5543-43fb-992f-dcaca5f05d0a","ios":"levelo://app?vid=91f047d9-5543-43fb-992f-dcaca5f05d0a"},"vehicle_type_id":"4","last_reported":1704398852,"current_range_meters":21600,"station_id":"cki0cbj6b192h4jlfktg","pricing_plan_id":"free"},{"bike_id":"e68e8b33-eb11-4b9d-a5c9-6babad66f539","system_id":"levelo_inurba_marseille","lat":43.28727,"lon":5.36078,"is_reserved":false,"is_disabled":false,"rental_uris":{"android":"levelo://app?vid=e68e8b33-eb11-4b9d-a5c9-6babad66f539","ios":"levelo://app?vid=e68e8b33-eb11-4b9d-a5c9-6babad66f539"},"vehicle_type_id":"4","last_reported":1704398852,"current_range_meters":26800,"station_id":"cki0cbj6b192h4jlfktg","pricing_plan_id":"free"},{"bike_id":"bc31ec8c-1bd2-44a6-a5a3-18703ab7909f","system_id":"levelo_inurba_marseille","lat":43.28727,"lon":5.36078,"is_reserved":false,"is_disabled":false,"rental_uris":{"android":"levelo://app?vid=bc31ec8c-1bd2-44a6-a5a3-18703ab7909f","ios":"levelo://app?vid=bc31ec8c-1bd2-44a6-a5a3-18703ab7909f"},"vehicle_type_id":"4","last_reported":1704398852,"current_range_meters":28400,"station_id":"cki0cbj6b192h4jlfktg","pricing_plan_id":"free"},{"bike_id":"4274818b-f38d-425f-b32e-71037e60ba1b","system_id":"levelo_inurba_marseille","lat":43.286591,"lon":5.363346,"is_reserved":false,"is_disabled":false,"rental_uris":{"android":"levelo://app?vid=4274818b-f38d-425f-b32e-71037e60ba1b","ios":"levelo://app?vid=4274818b-f38d-425f-b32e-71037e60ba1b"},"vehicle_type_id":"4","last_reported":1704398852,"current_range_meters":0,"station_id":"ce4bhah2rcd13ifvqej0","pricing_plan_id":"free"},{"bike_id":"21f0dbd3-ed15-4679-be11-09eb89480f1e","system_id":"levelo_inurba_marseille","lat":43.298681,"lon":5.397225,"is_reserved":false,"is_disabled":false,"rental_uris":{"android":"levelo://app?vid=21f0dbd3-ed15-4679-be11-09eb89480f1e","ios":"levelo://app?vid=21f0dbd3-ed15-4679-be11-09eb89480f1e"},"vehicle_type_id":"4","last_reported":1704398852,"current_range_meters":6000,"station_id":"ce4bh0h2rcd13ifvqd50","pricing_plan_id":"free"},{"bike_id":"cfc5d20c-e68d-4511-b4b7-1a84e959c9ad","system_id":"levelo_inurba_marseille","lat":43.286591,"lon":5.363346,"is_reserved":false,"is_disabled":false,"rental_uris":{"android":"levelo://app?vid=cfc5d20c-e68d-4511-b4b7-1a84e959c9ad","ios":"levelo://app?vid=cfc5d20c-e68d-4511-b4b7-1a84e959c9ad"},"vehicle_type_id":"4","last_reported":1704398852,"current_range_meters":31200,"station_id":"ce4bhah2rcd13ifvqej0","pricing_plan_id":"free"},{"bike_id":"94189ce7-0758-4323-8fbe-afa24e005335","system_id":"levelo_inurba_marseille","lat":43.286961,"lon":5.373785,"is_reserved":false,"is_disabled":false,"rental_uris":{"android":"levelo://app?vid=94189ce7-0758-4323-8fbe-afa24e005335","ios":"levelo://app?vid=94189ce7-0758-4323-8fbe-afa24e005335"},"vehicle_type_id":"4","last_reported":1704398852,"current_range_meters":800,"station_id":"ce4bh3p2rcd13ifvqdq0","pricing_plan_id":"free"},{"bike_id":"77f8a728-a701-4754-a5ef-a42cc1e6e28d","system_id":"levelo_inurba_marseille","lat":43.286591,"lon":5.363346,"is_reserved":false,"is_disabled":false,"rental_uris":{"android":"levelo://app?vid=77f8a728-a701-4754-a5ef-a42cc1e6e28d","ios":"levelo://app?vid=77f8a728-a701-4754-a5ef-a42cc1e6e28d"},"vehicle_type_id":"4","last_reported":1704398852,"current_range_meters":2000,"station_id":"ce4bhah2rcd13ifvqej0","pricing_plan_id":"free"},{"bike_id":"47812b97-1b00-46b7-8ee4-88199cb6cb7b","system_id":"levelo_inurba_marseille","lat":43.290345,"lon":5.38646,"is_reserved":false,"is_disabled":false,"rental_uris":{"android":"levelo://app?vid=47812b97-1b00-46b7-8ee4-88199cb6cb7b","ios":"levelo://app?vid=47812b97-1b00-46b7-8ee4-88199cb6cb7b"},"vehicle_type_id":"4","last_reported":1704398852,"current_range_meters":31200,"station_id":"ce4bh4p2rcd13ifvqe0g","pricing_plan_id":"free"},{"bike_id":"1bb56f2c-c2e7-432f-ac33-bb78aa08c4aa","system_id":"levelo_inurba_marseille","lat":43.290345,"lon":5.38646,"is_reserved":false,"is_disabled":false,"rental_uris":{"android":"levelo://app?vid=1bb56f2c-c2e7-432f-ac33-bb78aa08c4aa","ios":"levelo://app?vid=1bb56f2c-c2e7-432f-ac33-bb78aa08c4aa"},"vehicle_type_id":"4","last_reported":1704398852,"current_range_meters":29600,"station_id":"ce4bh4p2rcd13ifvqe0g","pricing_plan_id":"free"},{"bike_id":"2dfc78c4-bde6-40bb-b9dd-346600f91667","system_id":"levelo_inurba_marseille","lat":43.290345,"lon":5.38646,"is_reserved":false,"is_disabled":false,"rental_uris":{"android":"levelo://app?vid=2dfc78c4-bde6-40bb-b9dd-346600f91667","ios":"levelo://app?vid=2dfc78c4-bde6-40bb-b9dd-346600f91667"},"vehicle_type_id":"4","last_reported":1704398852,"current_range_meters":12800,"station_id":"ce4bh4p2rcd13ifvqe0g","pricing_plan_id":"free"},{"bike_id":"3e88ab37-e587-49ef-a3c4-3cd4aecaf977","system_id":"levelo_inurba_marseille","lat":43.290345,"lon":5.38646,"is_reserved":false,"is_disabled":false,"rental_uris":{"android":"levelo://app?vid=3e88ab37-e587-49ef-a3c4-3cd4aecaf977","ios":"levelo://app?vid=3e88ab37-e587-49ef-a3c4-3cd4aecaf977"},"vehicle_type_id":"4","last_reported":1704398852,"current_range_meters":18000,"station_id":"ce4bh4p2rcd13ifvqe0g","pricing_plan_id":"free"},{"bike_id":"be00269d-fb13-4481-ae38-9ac9f9b029bb","system_id":"levelo_inurba_marseille","lat":43.29034,"lon":5.3866,"is_reserved":false,"is_disabled":false,"rental_uris":{"android":"levelo://app?vid=be00269d-fb13-4481-ae38-9ac9f9b029bb","ios":"levelo://app?vid=be00269d-fb13-4481-ae38-9ac9f9b029bb"},"vehicle_type_id":"4","last_reported":1704398852,"current_range_meters":20800,"station_id":"ce4bh4p2rcd13ifvqe0g","pricing_plan_id":"free"},{"bike_id":"7efe1fb2-9731-4d90-b910-75feec8a738c","system_id":"levelo_inurba_marseille","lat":43.302759,"lon":5.400793,"is_reserved":false,"is_disabled":false,"rental_uris":{"android":"levelo://app?vid=7efe1fb2-9731-4d90-b910-75feec8a738c","ios":"levelo://app?vid=7efe1fb2-9731-4d90-b910-75feec8a738c"},"vehicle_type_id":"4","last_reported":1704398852,"current_range_meters":26800,"station_id":"ce4bgvh2rcd13ifvqcs0","pricing_plan_id":"free"},{"bike_id":"18c6059e-432e-429f-bdb2-66ffd314ddbd","system_id":"levelo_inurba_marseille","lat":43.287184,"lon":5.37937,"is_reserved":false,"is_disabled":false,"rental_uris":{"android":"levelo://app?vid=18c6059e-432e-429f-bdb2-66ffd314ddbd","ios":"levelo://app?vid=18c6059e-432e-429f-bdb2-66ffd314ddbd"},"vehicle_type_id":"4","last_reported":1704398852,"current_range_meters":0,"station_id":"ce4bh9p2rcd13ifvqec0","pricing_plan_id":"free"},{"bike_id":"ac5a3a51-b28a-494f-aa4e-7b756f4b8359","system_id":"levelo_inurba_marseille","lat":43.291994,"lon":5.392907,"is_reserved":false,"is_disabled":false,"rental_uris":{"android":"levelo://app?vid=ac5a3a51-b28a-494f-aa4e-7b756f4b8359","ios":"levelo://app?vid=ac5a3a51-b28a-494f-aa4e-7b756f4b8359"},"vehicle_type_id":"4","last_reported":1704398852,"current_range_meters":2800,"station_id":"ce4bh192rcd13ifvqdd0","pricing_plan_id":"free"},{"bike_id":"c17f655e-f237-4cc9-bcd0-3cf9dbfa7379","system_id":"levelo_inurba_marseille","lat":43.291994,"lon":5.392907,"is_reserved":false,"is_disabled":false,"rental_uris":{"android":"levelo://app?vid=c17f655e-f237-4cc9-bcd0-3cf9dbfa7379","ios":"levelo://app?vid=c17f655e-f237-4cc9-bcd0-3cf9dbfa7379"},"vehicle_type_id":"4","last_reported":1704398852,"current_range_meters":22400,"station_id":"ce4bh192rcd13ifvqdd0","pricing_plan_id":"free"},{"bike_id":"cf02d1ff-8e3c-4af0-87f2-3aed46071fef","system_id":"levelo_inurba_marseille","lat":43.291994,"lon":5.392907,"is_reserved":false,"is_disabled":false,"rental_uris":{"android":"levelo://app?vid=cf02d1ff-8e3c-4af0-87f2-3aed46071fef","ios":"levelo://app?vid=cf02d1ff-8e3c-4af0-87f2-3aed46071fef"},"vehicle_type_id":"4","last_reported":1704398852,"current_range_meters":23600,"station_id":"ce4bh192rcd13ifvqdd0","pricing_plan_id":"free"},{"bike_id":"dc2a9c7f-047e-4c66-a9de-ecff820bf99b","system_id":"levelo_inurba_marseille","lat":43.28472,"lon":5.35881,"is_reserved":false,"is_disabled":false,"rental_uris":{"android":"levelo://app?vid=dc2a9c7f-047e-4c66-a9de-ecff820bf99b","ios":"levelo://app?vid=dc2a9c7f-047e-4c66-a9de-ecff820bf99b"},"vehicle_type_id":"4","last_reported":1704398852,"current_range_meters":0,"station_id":"ce4bhah2rcd13ifvqei0","pricing_plan_id":"free"},{"bike_id":"42123108-1de1-4581-88a4-002ed41b8771","system_id":"levelo_inurba_marseille","lat":43.283998,"lon":5.375062,"is_reserved":false,"is_disabled":false,"rental_uris":{"android":"levelo://app?vid=42123108-1de1-4581-88a4-002ed41b8771","ios":"levelo://app?vid=42123108-1de1-4581-88a4-002ed41b8771"},"vehicle_type_id":"4","last_reported":1704398852,"current_range_meters":11200,"station_id":"ce4bh412rcd13ifvqds0","pricing_plan_id":"free"},{"bike_id":"3f2d67b5-1b70-4dca-a662-d18b710194fe","system_id":"levelo_inurba_marseille","lat":43.29841,"lon":5.40201,"is_reserved":false,"is_disabled":false,"rental_uris":{"android":"levelo://app?vid=3f2d67b5-1b70-4dca-a662-d18b710194fe","ios":"levelo://app?vid=3f2d67b5-1b70-4dca-a662-d18b710194fe"},"vehicle_type_id":"4","last_reported":1704398852,"current_range_meters":11600,"station_id":"","pricing_plan_id":"free"},{"bike_id":"41354722-05e0-49cd-9e07-2abcd9e87c1c","system_id":"levelo_inurba_marseille","lat":43.283998,"lon":5.375062,"is_reserved":false,"is_disabled":false,"rental_uris":{"android":"levelo://app?vid=41354722-05e0-49cd-9e07-2abcd9e87c1c","ios":"levelo://app?vid=41354722-05e0-49cd-9e07-2abcd9e87c1c"},"vehicle_type_id":"4","last_reported":1704398852,"current_range_meters":21200,"station_id":"ce4bh412rcd13ifvqds0","pricing_plan_id":"free"},{"bike_id":"acc693d8-08a2-4ff7-9d20-89e89d9170f6","system_id":"levelo_inurba_marseille","lat":43.283998,"lon":5.375062,"is_reserved":false,"is_disabled":false,"rental_uris":{"android":"levelo://app?vid=acc693d8-08a2-4ff7-9d20-89e89d9170f6","ios":"levelo://app?vid=acc693d8-08a2-4ff7-9d20-89e89d9170f6"},"vehicle_type_id":"4","last_reported":1704398852,"current_range_meters":11600,"station_id":"ce4bh412rcd13ifvqds0","pricing_plan_id":"free"},{"bike_id":"f2e6e3eb-ffa9-4b77-9582-9a471f01ac0a","system_id":"levelo_inurba_marseille","lat":43.284047,"lon":5.375177,"is_reserved":false,"is_disabled":false,"rental_uris":{"android":"levelo://app?vid=f2e6e3eb-ffa9-4b77-9582-9a471f01ac0a","ios":"levelo://app?vid=f2e6e3eb-ffa9-4b77-9582-9a471f01ac0a"},"vehicle_type_id":"4","last_reported":1704398852,"current_range_meters":22000,"station_id":"ce4bh412rcd13ifvqds0","pricing_plan_id":"free"},{"bike_id":"8ae0a585-6388-4c3c-be4e-6a32dc022a5f","system_id":"levelo_inurba_marseille","lat":43.283998,"lon":5.375062,"is_reserved":false,"is_disabled":false,"rental_uris":{"android":"levelo://app?vid=8ae0a585-6388-4c3c-be4e-6a32dc022a5f","ios":"levelo://app?vid=8ae0a585-6388-4c3c-be4e-6a32dc022a5f"},"vehicle_type_id":"4","last_reported":1704398852,"current_range_meters":28400,"station_id":"ce4bh412rcd13ifvqds0","pricing_plan_id":"free"},{"bike_id":"e4b34a4c-2e83-4a04-9972-89446407f991","system_id":"levelo_inurba_marseille","lat":43.283998,"lon":5.375062,"is_reserved":false,"is_disabled":false,"rental_uris":{"android":"levelo://app?vid=e4b34a4c-2e83-4a04-9972-89446407f991","ios":"levelo://app?vid=e4b34a4c-2e83-4a04-9972-89446407f991"},"vehicle_type_id":"4","last_reported":1704398852,"current_range_meters":400,"station_id":"ce4bh412rcd13ifvqds0","pricing_plan_id":"free"},{"bike_id":"a4073dcf-86d5-4e5c-a12d-6de5153114ee","system_id":"levelo_inurba_marseille","lat":43.33717,"lon":5.391857,"is_reserved":false,"is_disabled":false,"rental_uris":{"android":"levelo://app?vid=a4073dcf-86d5-4e5c-a12d-6de5153114ee","ios":"levelo://app?vid=a4073dcf-86d5-4e5c-a12d-6de5153114ee"},"vehicle_type_id":"4","last_reported":1704398852,"current_range_meters":26400,"station_id":"ce4bhr92rcd13ifvqhsg","pricing_plan_id":"free"},{"bike_id":"56e24654-72a8-4bfb-aec7-7f7d2edfe4a4","system_id":"levelo_inurba_marseille","lat":43.284793,"lon":5.384113,"is_reserved":false,"is_disabled":false,"rental_uris":{"android":"levelo://app?vid=56e24654-72a8-4bfb-aec7-7f7d2edfe4a4","ios":"levelo://app?vid=56e24654-72a8-4bfb-aec7-7f7d2edfe4a4"},"vehicle_type_id":"4","last_reported":1704398852,"current_range_meters":12800,"station_id":"ce4bh512rcd13ifvqe3g","pricing_plan_id":"free"},{"bike_id":"a7f2aa66-394d-403b-a5cc-3905453aa144","system_id":"levelo_inurba_marseille","lat":43.29795,"lon":5.404086,"is_reserved":false,"is_disabled":false,"rental_uris":{"android":"levelo://app?vid=a7f2aa66-394d-403b-a5cc-3905453aa144","ios":"levelo://app?vid=a7f2aa66-394d-403b-a5cc-3905453aa144"},"vehicle_type_id":"4","last_reported":1704398852,"current_range_meters":31200,"station_id":"ce4bh112rcd13ifvqd90","pricing_plan_id":"free"},{"bike_id":"4e3e7e5d-1baa-4f54-b5c3-c7bcccdae4cb","system_id":"levelo_inurba_marseille","lat":43.284787,"lon":5.384116,"is_reserved":false,"is_disabled":false,"rental_uris":{"android":"levelo://app?vid=4e3e7e5d-1baa-4f54-b5c3-c7bcccdae4cb","ios":"levelo://app?vid=4e3e7e5d-1baa-4f54-b5c3-c7bcccdae4cb"},"vehicle_type_id":"4","last_reported":1704398852,"current_range_meters":1600,"station_id":"ce4bh512rcd13ifvqe3g","pricing_plan_id":"free"},{"bike_id":"e90f6af7-e35a-4b60-a629-ceb8a0fa27ce","system_id":"levelo_inurba_marseille","lat":43.288501,"lon":5.393087,"is_reserved":false,"is_disabled":false,"rental_uris":{"android":"levelo://app?vid=e90f6af7-e35a-4b60-a629-ceb8a0fa27ce","ios":"levelo://app?vid=e90f6af7-e35a-4b60-a629-ceb8a0fa27ce"},"vehicle_type_id":"4","last_reported":1704398852,"current_range_meters":14800,"station_id":"ce4bh2p2rcd13ifvqdi0","pricing_plan_id":"free"},{"bike_id":"cfa4b69c-ae8d-4310-83fe-799c1b5c4922","system_id":"levelo_inurba_marseille","lat":43.283494,"lon":5.380945,"is_reserved":false,"is_disabled":false,"rental_uris":{"android":"levelo://app?vid=cfa4b69c-ae8d-4310-83fe-799c1b5c4922","ios":"levelo://app?vid=cfa4b69c-ae8d-4310-83fe-799c1b5c4922"},"vehicle_type_id":"4","last_reported":1704398852,"current_range_meters":6800,"station_id":"ce4bh412rcd13ifvqdr0","pricing_plan_id":"free"},{"bike_id":"c60d2147-e9df-4a5d-a980-f89eb1a1f011","system_id":"levelo_inurba_marseille","lat":43.283494,"lon":5.380945,"is_reserved":false,"is_disabled":false,"rental_uris":{"android":"levelo://app?vid=c60d2147-e9df-4a5d-a980-f89eb1a1f011","ios":"levelo://app?vid=c60d2147-e9df-4a5d-a980-f89eb1a1f011"},"vehicle_type_id":"4","last_reported":1704398852,"current_range_meters":9600,"station_id":"ce4bh412rcd13ifvqdr0","pricing_plan_id":"free"},{"bike_id":"af7d2541-38b6-468a-8a6b-c0a40b5ff026","system_id":"levelo_inurba_marseille","lat":43.283494,"lon":5.380945,"is_reserved":false,"is_disabled":false,"rental_uris":{"android":"levelo://app?vid=af7d2541-38b6-468a-8a6b-c0a40b5ff026","ios":"levelo://app?vid=af7d2541-38b6-468a-8a6b-c0a40b5ff026"},"vehicle_type_id":"4","last_reported":1704398852,"current_range_meters":23600,"station_id":"ce4bh412rcd13ifvqdr0","pricing_plan_id":"free"},{"bike_id":"85e184fa-ad87-4c80-a6fb-d14e27d1c18d","system_id":"levelo_inurba_marseille","lat":43.282744,"lon":5.350533,"is_reserved":false,"is_disabled":false,"rental_uris":{"android":"levelo://app?vid=85e184fa-ad87-4c80-a6fb-d14e27d1c18d","ios":"levelo://app?vid=85e184fa-ad87-4c80-a6fb-d14e27d1c18d"},"vehicle_type_id":"4","last_reported":1704398852,"current_range_meters":10800,"station_id":"ce4bhbp2rcd13ifvqerg","pricing_plan_id":"free"},{"bike_id":"6bf949b3-2d96-4862-ab03-74f5254642c9","system_id":"levelo_inurba_marseille","lat":43.282744,"lon":5.350533,"is_reserved":false,"is_disabled":false,"rental_uris":{"android":"levelo://app?vid=6bf949b3-2d96-4862-ab03-74f5254642c9","ios":"levelo://app?vid=6bf949b3-2d96-4862-ab03-74f5254642c9"},"vehicle_type_id":"4","last_reported":1704398852,"current_range_meters":17200,"station_id":"ce4bhbp2rcd13ifvqerg","pricing_plan_id":"free"},{"bike_id":"293f67da-9b88-43c8-89bc-eb6dec83a3ff","system_id":"levelo_inurba_marseille","lat":43.282744,"lon":5.350533,"is_reserved":false,"is_disabled":false,"rental_uris":{"android":"levelo://app?vid=293f67da-9b88-43c8-89bc-eb6dec83a3ff","ios":"levelo://app?vid=293f67da-9b88-43c8-89bc-eb6dec83a3ff"},"vehicle_type_id":"4","last_reported":1704398852,"current_range_meters":27600,"station_id":"ce4bhbp2rcd13ifvqerg","pricing_plan_id":"free"},{"bike_id":"5162c687-fb89-4ad6-b278-29e8599528e0","system_id":"levelo_inurba_marseille","lat":43.280382,"lon":5.369291,"is_reserved":false,"is_disabled":false,"rental_uris":{"android":"levelo://app?vid=5162c687-fb89-4ad6-b278-29e8599528e0","ios":"levelo://app?vid=5162c687-fb89-4ad6-b278-29e8599528e0"},"vehicle_type_id":"4","last_reported":1704398852,"current_range_meters":21200,"station_id":"ce4bha12rcd13ifvqef0","pricing_plan_id":"free"},{"bike_id":"1e512842-e678-47b1-b3ed-8ae67f067268","system_id":"levelo_inurba_marseille","lat":43.280295,"lon":5.36941,"is_reserved":false,"is_disabled":false,"rental_uris":{"android":"levelo://app?vid=1e512842-e678-47b1-b3ed-8ae67f067268","ios":"levelo://app?vid=1e512842-e678-47b1-b3ed-8ae67f067268"},"vehicle_type_id":"4","last_reported":1704398852,"current_range_meters":3200,"station_id":"ce4bha12rcd13ifvqef0","pricing_plan_id":"free"},{"bike_id":"e957b630-88a7-4894-ae05-45ec7eb47400","system_id":"levelo_inurba_marseille","lat":43.296263,"lon":5.40601,"is_reserved":false,"is_disabled":false,"rental_uris":{"android":"levelo://app?vid=e957b630-88a7-4894-ae05-45ec7eb47400","ios":"levelo://app?vid=e957b630-88a7-4894-ae05-45ec7eb47400"},"vehicle_type_id":"4","last_reported":1704398852,"current_range_meters":19600,"station_id":"ce4bh0h2rcd13ifvqd60","pricing_plan_id":"free"},{"bike_id":"d9b2d1f4-d239-4125-b824-752019b8b854","system_id":"levelo_inurba_marseille","lat":43.296263,"lon":5.40601,"is_reserved":false,"is_disabled":false,"rental_uris":{"android":"levelo://app?vid=d9b2d1f4-d239-4125-b824-752019b8b854","ios":"levelo://app?vid=d9b2d1f4-d239-4125-b824-752019b8b854"},"vehicle_type_id":"4","last_reported":1704398852,"current_range_meters":0,"station_id":"ce4bh0h2rcd13ifvqd60","pricing_plan_id":"free"},{"bike_id":"9acae8c5-8533-4506-af76-9bff47318092","system_id":"levelo_inurba_marseille","lat":43.281044,"lon":5.378308,"is_reserved":false,"is_disabled":false,"rental_uris":{"android":"levelo://app?vid=9acae8c5-8533-4506-af76-9bff47318092","ios":"levelo://app?vid=9acae8c5-8533-4506-af76-9bff47318092"},"vehicle_type_id":"4","last_reported":1704398852,"current_range_meters":10800,"station_id":"ce4bha12rcd13ifvqee0","pricing_plan_id":"free"},{"bike_id":"87dfbe24-3e8e-4291-b222-9fa7b3b23b5b","system_id":"levelo_inurba_marseille","lat":43.296263,"lon":5.40601,"is_reserved":false,"is_disabled":false,"rental_uris":{"android":"levelo://app?vid=87dfbe24-3e8e-4291-b222-9fa7b3b23b5b","ios":"levelo://app?vid=87dfbe24-3e8e-4291-b222-9fa7b3b23b5b"},"vehicle_type_id":"4","last_reported":1704398852,"current_range_meters":17600,"station_id":"ce4bh0h2rcd13ifvqd60","pricing_plan_id":"free"},{"bike_id":"8e8a673b-ba1f-4504-b2cf-6c1a9f1f0bcf","system_id":"levelo_inurba_marseille","lat":43.284462,"lon":5.392121,"is_reserved":false,"is_disabled":false,"rental_uris":{"android":"levelo://app?vid=8e8a673b-ba1f-4504-b2cf-6c1a9f1f0bcf","ios":"levelo://app?vid=8e8a673b-ba1f-4504-b2cf-6c1a9f1f0bcf"},"vehicle_type_id":"4","last_reported":1704398852,"current_range_meters":7200,"station_id":"ce4bhoh2rcd13ifvqh5g","pricing_plan_id":"free"},{"bike_id":"935b155d-d107-45c0-b00f-0bfaccb8ed83","system_id":"levelo_inurba_marseille","lat":43.284462,"lon":5.392121,"is_reserved":false,"is_disabled":false,"rental_uris":{"android":"levelo://app?vid=935b155d-d107-45c0-b00f-0bfaccb8ed83","ios":"levelo://app?vid=935b155d-d107-45c0-b00f-0bfaccb8ed83"},"vehicle_type_id":"4","last_reported":1704398852,"current_range_meters":15200,"station_id":"ce4bhoh2rcd13ifvqh5g","pricing_plan_id":"free"},{"bike_id":"16afe946-ff9b-4dac-9f94-ced498dff0fb","system_id":"levelo_inurba_marseille","lat":43.284462,"lon":5.392121,"is_reserved":false,"is_disabled":false,"rental_uris":{"android":"levelo://app?vid=16afe946-ff9b-4dac-9f94-ced498dff0fb","ios":"levelo://app?vid=16afe946-ff9b-4dac-9f94-ced498dff0fb"},"vehicle_type_id":"4","last_reported":1704398852,"current_range_meters":8000,"station_id":"ce4bhoh2rcd13ifvqh5g","pricing_plan_id":"free"},{"bike_id":"6fe6461c-75fb-448d-bafa-b1b41ac5c0a0","system_id":"levelo_inurba_marseille","lat":43.28574,"lon":5.3949,"is_reserved":false,"is_disabled":false,"rental_uris":{"android":"levelo://app?vid=6fe6461c-75fb-448d-bafa-b1b41ac5c0a0","ios":"levelo://app?vid=6fe6461c-75fb-448d-bafa-b1b41ac5c0a0"},"vehicle_type_id":"4","last_reported":1704398852,"current_range_meters":9200,"station_id":"ce4bh292rcd13ifvqdg0","pricing_plan_id":"free"},{"bike_id":"bfcac061-05e4-4c13-b145-9ecd3204a4d5","system_id":"levelo_inurba_marseille","lat":43.285742,"lon":5.395004,"is_reserved":false,"is_disabled":false,"rental_uris":{"android":"levelo://app?vid=bfcac061-05e4-4c13-b145-9ecd3204a4d5","ios":"levelo://app?vid=bfcac061-05e4-4c13-b145-9ecd3204a4d5"},"vehicle_type_id":"4","last_reported":1704398852,"current_range_meters":8000,"station_id":"ce4bh292rcd13ifvqdg0","pricing_plan_id":"free"},{"bike_id":"aa4dea84-3662-4565-8c9a-09915cc31f4c","system_id":"levelo_inurba_marseille","lat":43.28573,"lon":5.394992,"is_reserved":false,"is_disabled":false,"rental_uris":{"android":"levelo://app?vid=aa4dea84-3662-4565-8c9a-09915cc31f4c","ios":"levelo://app?vid=aa4dea84-3662-4565-8c9a-09915cc31f4c"},"vehicle_type_id":"4","last_reported":1704398852,"current_range_meters":29200,"station_id":"ce4bh292rcd13ifvqdg0","pricing_plan_id":"free"},{"bike_id":"dec5cb90-cffa-4158-8cb3-98bdbb77d46a","system_id":"levelo_inurba_marseille","lat":43.304188,"lon":5.412904,"is_reserved":false,"is_disabled":false,"rental_uris":{"android":"levelo://app?vid=dec5cb90-cffa-4158-8cb3-98bdbb77d46a","ios":"levelo://app?vid=dec5cb90-cffa-4158-8cb3-98bdbb77d46a"},"vehicle_type_id":"4","last_reported":1704398852,"current_range_meters":2800,"station_id":"ce4bhop2rcd13ifvqh8g","pricing_plan_id":"free"},{"bike_id":"42face0d-71c5-429b-a725-6733e624beff","system_id":"levelo_inurba_marseille","lat":43.304188,"lon":5.412904,"is_reserved":false,"is_disabled":false,"rental_uris":{"android":"levelo://app?vid=42face0d-71c5-429b-a725-6733e624beff","ios":"levelo://app?vid=42face0d-71c5-429b-a725-6733e624beff"},"vehicle_type_id":"4","last_reported":1704398852,"current_range_meters":16800,"station_id":"ce4bhop2rcd13ifvqh8g","pricing_plan_id":"free"},{"bike_id":"504fe98b-b144-48fd-bf41-b2ae8e95acbe","system_id":"levelo_inurba_marseille","lat":43.304188,"lon":5.412904,"is_reserved":false,"is_disabled":false,"rental_uris":{"android":"levelo://app?vid=504fe98b-b144-48fd-bf41-b2ae8e95acbe","ios":"levelo://app?vid=504fe98b-b144-48fd-bf41-b2ae8e95acbe"},"vehicle_type_id":"4","last_reported":1704398852,"current_range_meters":16400,"station_id":"ce4bhop2rcd13ifvqh8g","pricing_plan_id":"free"},{"bike_id":"bc03c173-0b29-49ca-adb1-76ffdd58b021","system_id":"levelo_inurba_marseille","lat":43.287154,"lon":5.399979,"is_reserved":false,"is_disabled":false,"rental_uris":{"android":"levelo://app?vid=bc03c173-0b29-49ca-adb1-76ffdd58b021","ios":"levelo://app?vid=bc03c173-0b29-49ca-adb1-76ffdd58b021"},"vehicle_type_id":"4","last_reported":1704398852,"current_range_meters":12000,"station_id":"ce4bho92rcd13ifvqh3g","pricing_plan_id":"free"},{"bike_id":"641ad07e-e4f4-4c35-b836-7044ea9004d5","system_id":"levelo_inurba_marseille","lat":43.287154,"lon":5.399979,"is_reserved":false,"is_disabled":false,"rental_uris":{"android":"levelo://app?vid=641ad07e-e4f4-4c35-b836-7044ea9004d5","ios":"levelo://app?vid=641ad07e-e4f4-4c35-b836-7044ea9004d5"},"vehicle_type_id":"4","last_reported":1704398852,"current_range_meters":25200,"station_id":"ce4bho92rcd13ifvqh3g","pricing_plan_id":"free"},{"bike_id":"38d7b7f1-b419-4969-a2c3-4140cdfe5b3c","system_id":"levelo_inurba_marseille","lat":43.287154,"lon":5.399979,"is_reserved":false,"is_disabled":false,"rental_uris":{"android":"levelo://app?vid=38d7b7f1-b419-4969-a2c3-4140cdfe5b3c","ios":"levelo://app?vid=38d7b7f1-b419-4969-a2c3-4140cdfe5b3c"},"vehicle_type_id":"4","last_reported":1704398852,"current_range_meters":7200,"station_id":"ce4bho92rcd13ifvqh3g","pricing_plan_id":"free"},{"bike_id":"b7a7ac94-892a-476b-879c-78e657117ae6","system_id":"levelo_inurba_marseille","lat":43.287154,"lon":5.399979,"is_reserved":false,"is_disabled":false,"rental_uris":{"android":"levelo://app?vid=b7a7ac94-892a-476b-879c-78e657117ae6","ios":"levelo://app?vid=b7a7ac94-892a-476b-879c-78e657117ae6"},"vehicle_type_id":"4","last_reported":1704398852,"current_range_meters":11600,"station_id":"ce4bho92rcd13ifvqh3g","pricing_plan_id":"free"},{"bike_id":"17f7d508-5bc1-419c-929a-6544186a4109","system_id":"levelo_inurba_marseille","lat":43.28698,"lon":5.39981,"is_reserved":false,"is_disabled":false,"rental_uris":{"android":"levelo://app?vid=17f7d508-5bc1-419c-929a-6544186a4109","ios":"levelo://app?vid=17f7d508-5bc1-419c-929a-6544186a4109"},"vehicle_type_id":"4","last_reported":1704398852,"current_range_meters":24000,"station_id":"ce4bho92rcd13ifvqh3g","pricing_plan_id":"free"},{"bike_id":"0243d95c-00a2-4674-9bce-3c006e9e0812","system_id":"levelo_inurba_marseille","lat":43.287154,"lon":5.399979,"is_reserved":false,"is_disabled":false,"rental_uris":{"android":"levelo://app?vid=0243d95c-00a2-4674-9bce-3c006e9e0812","ios":"levelo://app?vid=0243d95c-00a2-4674-9bce-3c006e9e0812"},"vehicle_type_id":"4","last_reported":1704398852,"current_range_meters":31200,"station_id":"ce4bho92rcd13ifvqh3g","pricing_plan_id":"free"},{"bike_id":"08155ff4-c214-4001-92ed-097b8cffce39","system_id":"levelo_inurba_marseille","lat":43.320045,"lon":5.415046,"is_reserved":false,"is_disabled":false,"rental_uris":{"android":"levelo://app?vid=08155ff4-c214-4001-92ed-097b8cffce39","ios":"levelo://app?vid=08155ff4-c214-4001-92ed-097b8cffce39"},"vehicle_type_id":"4","last_reported":1704398852,"current_range_meters":21600,"station_id":"ce4bhq92rcd13ifvqhkg","pricing_plan_id":"free"},{"bike_id":"50a2065a-fe18-4aa2-ad97-f81cc06b5fd2","system_id":"levelo_inurba_marseille","lat":43.320045,"lon":5.415048,"is_reserved":false,"is_disabled":false,"rental_uris":{"android":"levelo://app?vid=50a2065a-fe18-4aa2-ad97-f81cc06b5fd2","ios":"levelo://app?vid=50a2065a-fe18-4aa2-ad97-f81cc06b5fd2"},"vehicle_type_id":"4","last_reported":1704398852,"current_range_meters":23200,"station_id":"ce4bhq92rcd13ifvqhkg","pricing_plan_id":"free"},{"bike_id":"628b292e-043f-4834-9e12-e1d8a7d4533a","system_id":"levelo_inurba_marseille","lat":43.279678,"lon":5.387302,"is_reserved":false,"is_disabled":false,"rental_uris":{"android":"levelo://app?vid=628b292e-043f-4834-9e12-e1d8a7d4533a","ios":"levelo://app?vid=628b292e-043f-4834-9e12-e1d8a7d4533a"},"vehicle_type_id":"4","last_reported":1704398852,"current_range_meters":0,"station_id":"ce4bhg12rcd13ifvqf80","pricing_plan_id":"free"},{"bike_id":"ca80aa51-e76a-4435-b4a0-2c6ed02bfabc","system_id":"levelo_inurba_marseille","lat":43.320045,"lon":5.415046,"is_reserved":false,"is_disabled":false,"rental_uris":{"android":"levelo://app?vid=ca80aa51-e76a-4435-b4a0-2c6ed02bfabc","ios":"levelo://app?vid=ca80aa51-e76a-4435-b4a0-2c6ed02bfabc"},"vehicle_type_id":"4","last_reported":1704398852,"current_range_meters":24400,"station_id":"ce4bhq92rcd13ifvqhkg","pricing_plan_id":"free"},{"bike_id":"dc19599c-7008-4ee2-ab5e-72acec6650f4","system_id":"levelo_inurba_marseille","lat":43.292571,"lon":5.409107,"is_reserved":false,"is_disabled":false,"rental_uris":{"android":"levelo://app?vid=dc19599c-7008-4ee2-ab5e-72acec6650f4","ios":"levelo://app?vid=dc19599c-7008-4ee2-ab5e-72acec6650f4"},"vehicle_type_id":"4","last_reported":1704398852,"current_range_meters":4000,"station_id":"ce4bh192rcd13ifvqdc0","pricing_plan_id":"free"},{"bike_id":"cae3c3ae-103b-46a0-8a34-edd370a57287","system_id":"levelo_inurba_marseille","lat":43.292571,"lon":5.409107,"is_reserved":false,"is_disabled":false,"rental_uris":{"android":"levelo://app?vid=cae3c3ae-103b-46a0-8a34-edd370a57287","ios":"levelo://app?vid=cae3c3ae-103b-46a0-8a34-edd370a57287"},"vehicle_type_id":"4","last_reported":1704398852,"current_range_meters":14400,"station_id":"ce4bh192rcd13ifvqdc0","pricing_plan_id":"free"},{"bike_id":"d3f25bcc-da64-44bb-8495-bf854b2f447f","system_id":"levelo_inurba_marseille","lat":43.324356,"lon":5.416552,"is_reserved":false,"is_disabled":false,"rental_uris":{"android":"levelo://app?vid=d3f25bcc-da64-44bb-8495-bf854b2f447f","ios":"levelo://app?vid=d3f25bcc-da64-44bb-8495-bf854b2f447f"},"vehicle_type_id":"4","last_reported":1704398852,"current_range_meters":16400,"station_id":"","pricing_plan_id":"free"},{"bike_id":"70d43b24-a3bc-40d7-9264-c30eed0c2ed8","system_id":"levelo_inurba_marseille","lat":43.280784,"lon":5.396622,"is_reserved":false,"is_disabled":false,"rental_uris":{"android":"levelo://app?vid=70d43b24-a3bc-40d7-9264-c30eed0c2ed8","ios":"levelo://app?vid=70d43b24-a3bc-40d7-9264-c30eed0c2ed8"},"vehicle_type_id":"4","last_reported":1704398852,"current_range_meters":17200,"station_id":"ce4bho12rcd13ifvqh2g","pricing_plan_id":"free"},{"bike_id":"0892d35a-7e73-4e98-9820-6b31b73793f5","system_id":"levelo_inurba_marseille","lat":43.303837,"lon":5.418724,"is_reserved":false,"is_disabled":false,"rental_uris":{"android":"levelo://app?vid=0892d35a-7e73-4e98-9820-6b31b73793f5","ios":"levelo://app?vid=0892d35a-7e73-4e98-9820-6b31b73793f5"},"vehicle_type_id":"4","last_reported":1704398852,"current_range_meters":23600,"station_id":"ce4bhop2rcd13ifvqh7g","pricing_plan_id":"free"},{"bike_id":"a1344053-79b6-4eb6-ba49-b844c62f8799","system_id":"levelo_inurba_marseille","lat":43.278401,"lon":5.392152,"is_reserved":false,"is_disabled":false,"rental_uris":{"android":"levelo://app?vid=a1344053-79b6-4eb6-ba49-b844c62f8799","ios":"levelo://app?vid=a1344053-79b6-4eb6-ba49-b844c62f8799"},"vehicle_type_id":"4","last_reported":1704398852,"current_range_meters":800,"station_id":"ce4bhjp2rcd13ifvqga0","pricing_plan_id":"free"},{"bike_id":"d6397dd0-cbd5-4bf2-a6b9-5825b78c6a77","system_id":"levelo_inurba_marseille","lat":43.278399,"lon":5.392139,"is_reserved":false,"is_disabled":false,"rental_uris":{"android":"levelo://app?vid=d6397dd0-cbd5-4bf2-a6b9-5825b78c6a77","ios":"levelo://app?vid=d6397dd0-cbd5-4bf2-a6b9-5825b78c6a77"},"vehicle_type_id":"4","last_reported":1704398852,"current_range_meters":7200,"station_id":"ce4bhjp2rcd13ifvqga0","pricing_plan_id":"free"},{"bike_id":"4968d964-3344-4faa-ab99-7ab716c4dba7","system_id":"levelo_inurba_marseille","lat":43.278401,"lon":5.392152,"is_reserved":false,"is_disabled":false,"rental_uris":{"android":"levelo://app?vid=4968d964-3344-4faa-ab99-7ab716c4dba7","ios":"levelo://app?vid=4968d964-3344-4faa-ab99-7ab716c4dba7"},"vehicle_type_id":"4","last_reported":1704398852,"current_range_meters":25200,"station_id":"ce4bhjp2rcd13ifvqga0","pricing_plan_id":"free"},{"bike_id":"1a7ca003-801f-4e65-8066-36f4d36a2fc1","system_id":"levelo_inurba_marseille","lat":43.278401,"lon":5.392152,"is_reserved":false,"is_disabled":false,"rental_uris":{"android":"levelo://app?vid=1a7ca003-801f-4e65-8066-36f4d36a2fc1","ios":"levelo://app?vid=1a7ca003-801f-4e65-8066-36f4d36a2fc1"},"vehicle_type_id":"4","last_reported":1704398852,"current_range_meters":0,"station_id":"ce4bhjp2rcd13ifvqga0","pricing_plan_id":"free"},{"bike_id":"2e2e63a3-06de-46e5-8cf1-0a39fbc00d03","system_id":"levelo_inurba_marseille","lat":43.278401,"lon":5.392152,"is_reserved":false,"is_disabled":false,"rental_uris":{"android":"levelo://app?vid=2e2e63a3-06de-46e5-8cf1-0a39fbc00d03","ios":"levelo://app?vid=2e2e63a3-06de-46e5-8cf1-0a39fbc00d03"},"vehicle_type_id":"4","last_reported":1704398852,"current_range_meters":10800,"station_id":"ce4bhjp2rcd13ifvqga0","pricing_plan_id":"free"},{"bike_id":"dc339e64-d45c-4bb3-ba68-df97fef85478","system_id":"levelo_inurba_marseille","lat":43.278401,"lon":5.392152,"is_reserved":false,"is_disabled":false,"rental_uris":{"android":"levelo://app?vid=dc339e64-d45c-4bb3-ba68-df97fef85478","ios":"levelo://app?vid=dc339e64-d45c-4bb3-ba68-df97fef85478"},"vehicle_type_id":"4","last_reported":1704398852,"current_range_meters":2400,"station_id":"ce4bhjp2rcd13ifvqga0","pricing_plan_id":"free"},{"bike_id":"96bfd399-d550-4e66-8c85-b2a41c3af510","system_id":"levelo_inurba_marseille","lat":43.275625,"lon":5.384392,"is_reserved":false,"is_disabled":false,"rental_uris":{"android":"levelo://app?vid=96bfd399-d550-4e66-8c85-b2a41c3af510","ios":"levelo://app?vid=96bfd399-d550-4e66-8c85-b2a41c3af510"},"vehicle_type_id":"4","last_reported":1704398852,"current_range_meters":5200,"station_id":"ce4bhh92rcd13ifvqfi0","pricing_plan_id":"free"},{"bike_id":"498cf589-2e0d-4fd1-a30c-2d0dba323d29","system_id":"levelo_inurba_marseille","lat":43.243884,"lon":5.370737,"is_reserved":false,"is_disabled":false,"rental_uris":{"android":"levelo://app?vid=498cf589-2e0d-4fd1-a30c-2d0dba323d29","ios":"levelo://app?vid=498cf589-2e0d-4fd1-a30c-2d0dba323d29"},"vehicle_type_id":"4","last_reported":1704398852,"current_range_meters":13600,"station_id":"ce4bhhh2rcd13ifvqfk0","pricing_plan_id":"free"},{"bike_id":"e82dba32-8ac3-4579-a22c-f4be09f00003","system_id":"levelo_inurba_marseille","lat":43.276769,"lon":5.388787,"is_reserved":false,"is_disabled":false,"rental_uris":{"android":"levelo://app?vid=e82dba32-8ac3-4579-a22c-f4be09f00003","ios":"levelo://app?vid=e82dba32-8ac3-4579-a22c-f4be09f00003"},"vehicle_type_id":"4","last_reported":1704398852,"current_range_meters":24400,"station_id":"ce4bhi12rcd13ifvqfo0","pricing_plan_id":"free"},{"bike_id":"4f0711dd-915f-4271-b28b-c5a497837f1d","system_id":"levelo_inurba_marseille","lat":43.317121,"lon":5.423936,"is_reserved":false,"is_disabled":false,"rental_uris":{"android":"levelo://app?vid=4f0711dd-915f-4271-b28b-c5a497837f1d","ios":"levelo://app?vid=4f0711dd-915f-4271-b28b-c5a497837f1d"},"vehicle_type_id":"4","last_reported":1704398852,"current_range_meters":24400,"station_id":"ce4bhp92rcd13ifvqhbg","pricing_plan_id":"free"},{"bike_id":"7e20e46a-cb6e-4167-bfe5-1fdd3fcf844f","system_id":"levelo_inurba_marseille","lat":43.317144,"lon":5.424038,"is_reserved":false,"is_disabled":false,"rental_uris":{"android":"levelo://app?vid=7e20e46a-cb6e-4167-bfe5-1fdd3fcf844f","ios":"levelo://app?vid=7e20e46a-cb6e-4167-bfe5-1fdd3fcf844f"},"vehicle_type_id":"4","last_reported":1704398852,"current_range_meters":0,"station_id":"ce4bhp92rcd13ifvqhbg","pricing_plan_id":"free"},{"bike_id":"f12f333c-9fc5-4d9b-912e-fb8cff393886","system_id":"levelo_inurba_marseille","lat":43.274103,"lon":5.394016,"is_reserved":false,"is_disabled":false,"rental_uris":{"android":"levelo://app?vid=f12f333c-9fc5-4d9b-912e-fb8cff393886","ios":"levelo://app?vid=f12f333c-9fc5-4d9b-912e-fb8cff393886"},"vehicle_type_id":"4","last_reported":1704398852,"current_range_meters":22400,"station_id":"ce4bhdp2rcd13ifvqf20","pricing_plan_id":"free"},{"bike_id":"e4df5537-a9e9-48a8-adbd-53881e526380","system_id":"levelo_inurba_marseille","lat":43.273129,"lon":5.390725,"is_reserved":false,"is_disabled":false,"rental_uris":{"android":"levelo://app?vid=e4df5537-a9e9-48a8-adbd-53881e526380","ios":"levelo://app?vid=e4df5537-a9e9-48a8-adbd-53881e526380"},"vehicle_type_id":"4","last_reported":1704398852,"current_range_meters":20000,"station_id":"ce4bhgp2rcd13ifvqfe0","pricing_plan_id":"free"},{"bike_id":"39bf6d68-a59a-43c6-b737-fcbd19a9b1ee","system_id":"levelo_inurba_marseille","lat":43.274099,"lon":5.394019,"is_reserved":false,"is_disabled":false,"rental_uris":{"android":"levelo://app?vid=39bf6d68-a59a-43c6-b737-fcbd19a9b1ee","ios":"levelo://app?vid=39bf6d68-a59a-43c6-b737-fcbd19a9b1ee"},"vehicle_type_id":"4","last_reported":1704398852,"current_range_meters":22000,"station_id":"ce4bhdp2rcd13ifvqf20","pricing_plan_id":"free"},{"bike_id":"0da002aa-e94e-4088-bfa7-721f81141552","system_id":"levelo_inurba_marseille","lat":43.304096,"lon":5.425385,"is_reserved":false,"is_disabled":false,"rental_uris":{"android":"levelo://app?vid=0da002aa-e94e-4088-bfa7-721f81141552","ios":"levelo://app?vid=0da002aa-e94e-4088-bfa7-721f81141552"},"vehicle_type_id":"4","last_reported":1704398852,"current_range_meters":21600,"station_id":"ce4bhoh2rcd13ifvqh6g","pricing_plan_id":"free"},{"bike_id":"b15bf62a-b098-415b-99c2-f75370f251fa","system_id":"levelo_inurba_marseille","lat":43.295511,"lon":5.422926,"is_reserved":false,"is_disabled":false,"rental_uris":{"android":"levelo://app?vid=b15bf62a-b098-415b-99c2-f75370f251fa","ios":"levelo://app?vid=b15bf62a-b098-415b-99c2-f75370f251fa"},"vehicle_type_id":"4","last_reported":1704398852,"current_range_meters":6400,"station_id":"ce4bhph2rcd13ifvqhdg","pricing_plan_id":"free"},{"bike_id":"73af8d5c-f512-4ab5-b9eb-03c462f5bd8d","system_id":"levelo_inurba_marseille","lat":43.295511,"lon":5.422926,"is_reserved":false,"is_disabled":false,"rental_uris":{"android":"levelo://app?vid=73af8d5c-f512-4ab5-b9eb-03c462f5bd8d","ios":"levelo://app?vid=73af8d5c-f512-4ab5-b9eb-03c462f5bd8d"},"vehicle_type_id":"4","last_reported":1704398852,"current_range_meters":6000,"station_id":"ce4bhph2rcd13ifvqhdg","pricing_plan_id":"free"},{"bike_id":"551af9f4-6a9b-4035-9c1f-9fbcfbeead6a","system_id":"levelo_inurba_marseille","lat":43.278128,"lon":5.407195,"is_reserved":false,"is_disabled":false,"rental_uris":{"android":"levelo://app?vid=551af9f4-6a9b-4035-9c1f-9fbcfbeead6a","ios":"levelo://app?vid=551af9f4-6a9b-4035-9c1f-9fbcfbeead6a"},"vehicle_type_id":"4","last_reported":1704398852,"current_range_meters":13200,"station_id":"ce4bhnh2rcd13ifvqgtg","pricing_plan_id":"free"},{"bike_id":"ecfa10e8-387e-4c32-a9eb-75e424080620","system_id":"levelo_inurba_marseille","lat":43.279465,"lon":5.410561,"is_reserved":false,"is_disabled":false,"rental_uris":{"android":"levelo://app?vid=ecfa10e8-387e-4c32-a9eb-75e424080620","ios":"levelo://app?vid=ecfa10e8-387e-4c32-a9eb-75e424080620"},"vehicle_type_id":"4","last_reported":1704398852,"current_range_meters":17200,"station_id":"ce4bhnp2rcd13ifvqh0g","pricing_plan_id":"free"},{"bike_id":"284fc3a0-0537-488a-b1ae-4a8d2e1b6424","system_id":"levelo_inurba_marseille","lat":43.279465,"lon":5.410561,"is_reserved":false,"is_disabled":false,"rental_uris":{"android":"levelo://app?vid=284fc3a0-0537-488a-b1ae-4a8d2e1b6424","ios":"levelo://app?vid=284fc3a0-0537-488a-b1ae-4a8d2e1b6424"},"vehicle_type_id":"4","last_reported":1704398852,"current_range_meters":2000,"station_id":"ce4bhnp2rcd13ifvqh0g","pricing_plan_id":"free"},{"bike_id":"c1bb1649-3fed-4cff-805e-e8819a2c6dec","system_id":"levelo_inurba_marseille","lat":43.269319,"lon":5.389397,"is_reserved":false,"is_disabled":false,"rental_uris":{"android":"levelo://app?vid=c1bb1649-3fed-4cff-805e-e8819a2c6dec","ios":"levelo://app?vid=c1bb1649-3fed-4cff-805e-e8819a2c6dec"},"vehicle_type_id":"4","last_reported":1704398852,"current_range_meters":8400,"station_id":"ce4bhhh2rcd13ifvqfl0","pricing_plan_id":"free"},{"bike_id":"efd959c6-aa55-4971-8e4b-58f77f7bb6f8","system_id":"levelo_inurba_marseille","lat":43.26681,"lon":5.382694,"is_reserved":false,"is_disabled":false,"rental_uris":{"android":"levelo://app?vid=efd959c6-aa55-4971-8e4b-58f77f7bb6f8","ios":"levelo://app?vid=efd959c6-aa55-4971-8e4b-58f77f7bb6f8"},"vehicle_type_id":"4","last_reported":1704398852,"current_range_meters":30800,"station_id":"ce4bhg92rcd13ifvqf90","pricing_plan_id":"free"},{"bike_id":"5437da83-a874-4c89-9bea-6c2a5072d3bb","system_id":"levelo_inurba_marseille","lat":43.26681,"lon":5.382694,"is_reserved":false,"is_disabled":false,"rental_uris":{"android":"levelo://app?vid=5437da83-a874-4c89-9bea-6c2a5072d3bb","ios":"levelo://app?vid=5437da83-a874-4c89-9bea-6c2a5072d3bb"},"vehicle_type_id":"4","last_reported":1704398852,"current_range_meters":16000,"station_id":"ce4bhg92rcd13ifvqf90","pricing_plan_id":"free"},{"bike_id":"57c2863b-fe62-479d-99f5-0a42f036d04d","system_id":"levelo_inurba_marseille","lat":43.27996,"lon":5.416624,"is_reserved":false,"is_disabled":false,"rental_uris":{"android":"levelo://app?vid=57c2863b-fe62-479d-99f5-0a42f036d04d","ios":"levelo://app?vid=57c2863b-fe62-479d-99f5-0a42f036d04d"},"vehicle_type_id":"4","last_reported":1704398852,"current_range_meters":13600,"station_id":"ce4bho12rcd13ifvqh1g","pricing_plan_id":"free"},{"bike_id":"8c30aad9-c429-4590-82a2-78dd2df0f6dc","system_id":"levelo_inurba_marseille","lat":43.308051,"lon":5.43527,"is_reserved":false,"is_disabled":false,"rental_uris":{"android":"levelo://app?vid=8c30aad9-c429-4590-82a2-78dd2df0f6dc","ios":"levelo://app?vid=8c30aad9-c429-4590-82a2-78dd2df0f6dc"},"vehicle_type_id":"4","last_reported":1704398852,"current_range_meters":31200,"station_id":"ce4bhph2rcd13ifvqheg","pricing_plan_id":"free"},{"bike_id":"271d62ff-1be7-47c9-9fcd-0d2d4386dfb9","system_id":"levelo_inurba_marseille","lat":43.26944,"lon":5.40259,"is_reserved":false,"is_disabled":false,"rental_uris":{"android":"levelo://app?vid=271d62ff-1be7-47c9-9fcd-0d2d4386dfb9","ios":"levelo://app?vid=271d62ff-1be7-47c9-9fcd-0d2d4386dfb9"},"vehicle_type_id":"4","last_reported":1704398852,"current_range_meters":8800,"station_id":"cjm6bp8fraef2m0cb0m0","pricing_plan_id":"free"},{"bike_id":"6ded9338-5e61-42b7-a58c-c7d92ad324b4","system_id":"levelo_inurba_marseille","lat":43.27182,"lon":5.40978,"is_reserved":false,"is_disabled":false,"rental_uris":{"android":"levelo://app?vid=6ded9338-5e61-42b7-a58c-c7d92ad324b4","ios":"levelo://app?vid=6ded9338-5e61-42b7-a58c-c7d92ad324b4"},"vehicle_type_id":"4","last_reported":1704398852,"current_range_meters":0,"station_id":"ce4bhl12rcd13ifvqgf0","pricing_plan_id":"free"},{"bike_id":"0d102da3-fd59-40f5-977c-de2ac98eb30d","system_id":"levelo_inurba_marseille","lat":43.271388,"lon":5.409269,"is_reserved":false,"is_disabled":false,"rental_uris":{"android":"levelo://app?vid=0d102da3-fd59-40f5-977c-de2ac98eb30d","ios":"levelo://app?vid=0d102da3-fd59-40f5-977c-de2ac98eb30d"},"vehicle_type_id":"4","last_reported":1704398852,"current_range_meters":7200,"station_id":"ce4bhl12rcd13ifvqgf0","pricing_plan_id":"free"},{"bike_id":"364704e7-b155-406c-976a-bc0438f041ee","system_id":"levelo_inurba_marseille","lat":43.27173,"lon":5.40988,"is_reserved":false,"is_disabled":false,"rental_uris":{"android":"levelo://app?vid=364704e7-b155-406c-976a-bc0438f041ee","ios":"levelo://app?vid=364704e7-b155-406c-976a-bc0438f041ee"},"vehicle_type_id":"4","last_reported":1704398852,"current_range_meters":0,"station_id":"ce4bhl12rcd13ifvqgf0","pricing_plan_id":"free"},{"bike_id":"24bdd6dc-bef3-4595-9e07-20613bf0fa19","system_id":"levelo_inurba_marseille","lat":43.27171,"lon":5.40994,"is_reserved":false,"is_disabled":false,"rental_uris":{"android":"levelo://app?vid=24bdd6dc-bef3-4595-9e07-20613bf0fa19","ios":"levelo://app?vid=24bdd6dc-bef3-4595-9e07-20613bf0fa19"},