{"last_updated":1725908820,"ttl":30,"version":"2.2","data":{"bikes":[{"bike_id":"850baa3c-4ff7-4720-aa12-6e0031a154b0","system_id":"levelo_inurba_marseille","lat":43.313391,"lon":5.36706,"is_reserved":false,"is_disabled":false,"rental_uris":{"android":"levelo://app?vid=850baa3c-4ff7-4720-aa12-6e0031a154b0","ios":"levelo://app?vid=850baa3c-4ff7-4720-aa12-6e0031a154b0"},"vehicle_type_id":"4","last_reported":1725908820,"current_range_meters":13200,"station_id":"ce4bgr92rcd13ifvqc6g","pricing_plan_id":"cebpf4jnsgd1na2vs0mg"},{"bike_id":"4342aca6-27c1-4a92-b828-b4afe70c50a1","system_id":"levelo_inurba_marseille","lat":43.312239,"lon":5.368562,"is_reserved":false,"is_disabled":false,"rental_uris":{"android":"levelo://app?vid=4342aca6-27c1-4a92-b828-b4afe70c50a1","ios":"levelo://app?vid=4342aca6-27c1-4a92-b828-b4afe70c50a1"},"vehicle_type_id":"4","last_reported":1725908820,"current_range_meters":26000,"station_id":"ce4bgl92rcd13ifvqbq0","pricing_plan_id":"cebpf4jnsgd1na2vs0mg"},{"bike_id":"265b2e6b-85de-47f0-9b0e-3a77f1e5ca0d","system_id":"levelo_inurba_marseille","lat":43.312239,"lon":5.368562,"is_reserved":false,"is_disabled":false,"rental_uris":{"android":"levelo://app?vid=265b2e6b-85de-47f0-9b0e-3a77f1e5ca0d","ios":"levelo://app?vid=265b2e6b-85de-47f0-9b0e-3a77f1e5ca0d"},"vehicle_type_id":"4","last_reported":1725908820,"current_range_meters":10000,"station_id":"ce4bgl92rcd13ifvqbq0","pricing_plan_id":"cebpf4jnsgd1na2vs0mg"},{"bike_id":"20d6f657-cd11-4e6e-ba1a-1c5cd5ba7d25","system_id":"levelo_inurba_marseille","lat":43.312239,"lon":5.368562,"is_reserved":false,"is_disabled":false,"rental_uris":{"android":"levelo://app?vid=20d6f657-cd11-4e6e-ba1a-1c5cd5ba7d25","ios":"levelo://app?vid=20d6f657-cd11-4e6e-ba1a-1c5cd5ba7d25"},"vehicle_type_id":"4","last_reported":1725908820,"current_range_meters":7600,"station_id":"ce4bgl92rcd13ifvqbq0","pricing_plan_id":"cebpf4jnsgd1na2vs0mg"},{"bike_id":"ed65bf36-10a8-424b-a0f7-56060a40d047","system_id":"levelo_inurba_marseille","lat":43.309076,"lon":5.368465,"is_reserved":false,"is_disabled":false,"rental_uris":{"android":"levelo://app?vid=ed65bf36-10a8-424b-a0f7-56060a40d047","ios":"levelo://app?vid=ed65bf36-10a8-424b-a0f7-56060a40d047"},"vehicle_type_id":"4","last_reported":1725908820,"current_range_meters":15600,"station_id":"ce4bgn92rcd13ifvqbvg","pricing_plan_id":"cebpf4jnsgd1na2vs0mg"},{"bike_id":"a86898d0-c933-4951-9ddf-af171ec9191d","system_id":"levelo_inurba_marseille","lat":43.30903,"lon":5.36848,"is_reserved":false,"is_disabled":false,"rental_uris":{"android":"levelo://app?vid=a86898d0-c933-4951-9ddf-af171ec9191d","ios":"levelo://app?vid=a86898d0-c933-4951-9ddf-af171ec9191d"},"vehicle_type_id":"4","last_reported":1725908820,"current_range_meters":0,"station_id":"ce4bgn92rcd13ifvqbvg","pricing_plan_id":"cebpf4jnsgd1na2vs0mg"},{"bike_id":"b19b75c2-d24a-4d4b-842e-31c693f563f6","system_id":"levelo_inurba_marseille","lat":43.314811,"lon":5.373103,"is_reserved":false,"is_disabled":false,"rental_uris":{"android":"levelo://app?vid=b19b75c2-d24a-4d4b-842e-31c693f563f6","ios":"levelo://app?vid=b19b75c2-d24a-4d4b-842e-31c693f563f6"},"vehicle_type_id":"4","last_reported":1725908820,"current_range_meters":10000,"station_id":"ce4bgt12rcd13ifvqcd0","pricing_plan_id":"cebpf4jnsgd1na2vs0mg"},{"bike_id":"55278680-5d5f-46ab-9a5b-b02f8959194a","system_id":"levelo_inurba_marseille","lat":43.314811,"lon":5.373104,"is_reserved":false,"is_disabled":false,"rental_uris":{"android":"levelo://app?vid=55278680-5d5f-46ab-9a5b-b02f8959194a","ios":"levelo://app?vid=55278680-5d5f-46ab-9a5b-b02f8959194a"},"vehicle_type_id":"4","last_reported":1725908820,"current_range_meters":28000,"station_id":"ce4bgt12rcd13ifvqcd0","pricing_plan_id":"cebpf4jnsgd1na2vs0mg"},{"bike_id":"b5b7c1b8-03e1-4047-9b4c-4168fc73093f","system_id":"levelo_inurba_marseille","lat":43.314811,"lon":5.373103,"is_reserved":false,"is_disabled":false,"rental_uris":{"android":"levelo://app?vid=b5b7c1b8-03e1-4047-9b4c-4168fc73093f","ios":"levelo://app?vid=b5b7c1b8-03e1-4047-9b4c-4168fc73093f"},"vehicle_type_id":"4","last_reported":1725908820,"current_range_meters":400,"station_id":"ce4bgt12rcd13ifvqcd0","pricing_plan_id":"cebpf4jnsgd1na2vs0mg"},{"bike_id":"41d7c63c-a157-447b-b898-9f746148a0e5","system_id":"levelo_inurba_marseille","lat":43.314811,"lon":5.373103,"is_reserved":false,"is_disabled":false,"rental_uris":{"android":"levelo://app?vid=41d7c63c-a157-447b-b898-9f746148a0e5","ios":"levelo://app?vid=41d7c63c-a157-447b-b898-9f746148a0e5"},"vehicle_type_id":"4","last_reported":1725908820,"current_range_meters":8400,"station_id":"ce4bgt12rcd13ifvqcd0","pricing_plan_id":"cebpf4jnsgd1na2vs0mg"},{"bike_id":"55c7e210-de76-4ba2-ab45-72a372a5f933","system_id":"levelo_inurba_marseille","lat":43.314811,"lon":5.373103,"is_reserved":false,"is_disabled":false,"rental_uris":{"android":"levelo://app?vid=55c7e210-de76-4ba2-ab45-72a372a5f933","ios":"levelo://app?vid=55c7e210-de76-4ba2-ab45-72a372a5f933"},"vehicle_type_id":"4","last_reported":1725908820,"current_range_meters":4800,"station_id":"ce4bgt12rcd13ifvqcd0","pricing_plan_id":"cebpf4jnsgd1na2vs0mg"},{"bike_id":"adb46aa9-5f58-4d43-8c4e-80c28acd8057","system_id":"levelo_inurba_marseille","lat":43.314811,"lon":5.373104,"is_reserved":false,"is_disabled":false,"rental_uris":{"android":"levelo://app?vid=adb46aa9-5f58-4d43-8c4e-80c28acd8057","ios":"levelo://app?vid=adb46aa9-5f58-4d43-8c4e-80c28acd8057"},"vehicle_type_id":"4","last_reported":1725908820,"current_range_meters":4400,"station_id":"ce4bgt12rcd13ifvqcd0","pricing_plan_id":"cebpf4jnsgd1na2vs0mg"},{"bike_id":"1ee9573f-56a6-45bd-9f05-8b653f40e172","system_id":"levelo_inurba_marseille","lat":43.309039,"lon":5.371797,"is_reserved":false,"is_disabled":false,"rental_uris":{"android":"levelo://app?vid=1ee9573f-56a6-45bd-9f05-8b653f40e172","ios":"levelo://app?vid=1ee9573f-56a6-45bd-9f05-8b653f40e172"},"vehicle_type_id":"4","last_reported":1725908820,"current_range_meters":27600,"station_id":"ce4bguh2rcd13ifvqckg","pricing_plan_id":"cebpf4jnsgd1na2vs0mg"},{"bike_id":"c7c4070f-9afb-4c34-bdb6-9039969f1a71","system_id":"levelo_inurba_marseille","lat":43.305307,"lon":5.367203,"is_reserved":false,"is_disabled":false,"rental_uris":{"android":"levelo://app?vid=c7c4070f-9afb-4c34-bdb6-9039969f1a71","ios":"levelo://app?vid=c7c4070f-9afb-4c34-bdb6-9039969f1a71"},"vehicle_type_id":"4","last_reported":1725908820,"current_range_meters":25600,"station_id":"ce4bgrp2rcd13ifvqc9g","pricing_plan_id":"cebpf4jnsgd1na2vs0mg"},{"bike_id":"d296f858-600d-40b1-b3ea-f62b907da2fa","system_id":"levelo_inurba_marseille","lat":43.305989,"lon":5.37225,"is_reserved":false,"is_disabled":false,"rental_uris":{"android":"levelo://app?vid=d296f858-600d-40b1-b3ea-f62b907da2fa","ios":"levelo://app?vid=d296f858-600d-40b1-b3ea-f62b907da2fa"},"vehicle_type_id":"4","last_reported":1725908820,"current_range_meters":16800,"station_id":"ce4bgqh2rcd13ifvqc4g","pricing_plan_id":"cebpf4jnsgd1na2vs0mg"},{"bike_id":"bba36534-6715-4e89-b02a-dd27d4dd9ef0","system_id":"levelo_inurba_marseille","lat":43.30594,"lon":5.37215,"is_reserved":false,"is_disabled":false,"rental_uris":{"android":"levelo://app?vid=bba36534-6715-4e89-b02a-dd27d4dd9ef0","ios":"levelo://app?vid=bba36534-6715-4e89-b02a-dd27d4dd9ef0"},"vehicle_type_id":"4","last_reported":1725908820,"current_range_meters":7200,"station_id":"ce4bgqh2rcd13ifvqc4g","pricing_plan_id":"cebpf4jnsgd1na2vs0mg"},{"bike_id":"4a5f3a60-4045-4b26-96e4-1b474814d040","system_id":"levelo_inurba_marseille","lat":43.305989,"lon":5.37225,"is_reserved":false,"is_disabled":false,"rental_uris":{"android":"levelo://app?vid=4a5f3a60-4045-4b26-96e4-1b474814d040","ios":"levelo://app?vid=4a5f3a60-4045-4b26-96e4-1b474814d040"},"vehicle_type_id":"4","last_reported":1725908820,"current_range_meters":11600,"station_id":"ce4bgqh2rcd13ifvqc4g","pricing_plan_id":"cebpf4jnsgd1na2vs0mg"},{"bike_id":"7b13964c-199d-4ac3-a2c5-cc1fe3d25456","system_id":"levelo_inurba_marseille","lat":43.311125,"lon":5.377624,"is_reserved":false,"is_disabled":false,"rental_uris":{"android":"levelo://app?vid=7b13964c-199d-4ac3-a2c5-cc1fe3d25456","ios":"levelo://app?vid=7b13964c-199d-4ac3-a2c5-cc1fe3d25456"},"vehicle_type_id":"4","last_reported":1725908820,"current_range_meters":4400,"station_id":"ce4bgt92rcd13ifvqcg0","pricing_plan_id":"cebpf4jnsgd1na2vs0mg"},{"bike_id":"3e56eae6-eb67-4be3-9be8-eccb154556f3","system_id":"levelo_inurba_marseille","lat":43.305368,"lon":5.367343,"is_reserved":false,"is_disabled":false,"rental_uris":{"android":"levelo://app?vid=3e56eae6-eb67-4be3-9be8-eccb154556f3","ios":"levelo://app?vid=3e56eae6-eb67-4be3-9be8-eccb154556f3"},"vehicle_type_id":"4","last_reported":1725908820,"current_range_meters":10000,"station_id":"ce4bgrp2rcd13ifvqc9g","pricing_plan_id":"cebpf4jnsgd1na2vs0mg"},{"bike_id":"707836f5-d462-4d5d-8589-be83bf7b5402","system_id":"levelo_inurba_marseille","lat":43.311125,"lon":5.377624,"is_reserved":false,"is_disabled":false,"rental_uris":{"android":"levelo://app?vid=707836f5-d462-4d5d-8589-be83bf7b5402","ios":"levelo://app?vid=707836f5-d462-4d5d-8589-be83bf7b5402"},"vehicle_type_id":"4","last_reported":1725908820,"current_range_meters":26400,"station_id":"ce4bgt92rcd13ifvqcg0","pricing_plan_id":"cebpf4jnsgd1na2vs0mg"},{"bike_id":"8d0c7e40-6e2c-41cf-af94-7818bd476cb2","system_id":"levelo_inurba_marseille","lat":43.307945,"lon":5.376487,"is_reserved":false,"is_disabled":false,"rental_uris":{"android":"levelo://app?vid=8d0c7e40-6e2c-41cf-af94-7818bd476cb2","ios":"levelo://app?vid=8d0c7e40-6e2c-41cf-af94-7818bd476cb2"},"vehicle_type_id":"4","last_reported":1725908820,"current_range_meters":32000,"station_id":"ce4bgv92rcd13ifvqcq0","pricing_plan_id":"cebpf4jnsgd1na2vs0mg"},{"bike_id":"1acedf35-c68b-40a5-a88b-0700d054616d","system_id":"levelo_inurba_marseille","lat":43.307945,"lon":5.376487,"is_reserved":false,"is_disabled":false,"rental_uris":{"android":"levelo://app?vid=1acedf35-c68b-40a5-a88b-0700d054616d","ios":"levelo://app?vid=1acedf35-c68b-40a5-a88b-0700d054616d"},"vehicle_type_id":"4","last_reported":1725908820,"current_range_meters":20400,"station_id":"ce4bgv92rcd13ifvqcq0","pricing_plan_id":"cebpf4jnsgd1na2vs0mg"},{"bike_id":"0cdc1616-ac07-417c-843b-3d2b82dee010","system_id":"levelo_inurba_marseille","lat":43.307945,"lon":5.376487,"is_reserved":false,"is_disabled":false,"rental_uris":{"android":"levelo://app?vid=0cdc1616-ac07-417c-843b-3d2b82dee010","ios":"levelo://app?vid=0cdc1616-ac07-417c-843b-3d2b82dee010"},"vehicle_type_id":"4","last_reported":1725908820,"current_range_meters":18800,"station_id":"ce4bgv92rcd13ifvqcq0","pricing_plan_id":"cebpf4jnsgd1na2vs0mg"},{"bike_id":"e43610db-3270-4b29-a1df-ed6609b8457a","system_id":"levelo_inurba_marseille","lat":43.307945,"lon":5.376487,"is_reserved":false,"is_disabled":false,"rental_uris":{"android":"levelo://app?vid=e43610db-3270-4b29-a1df-ed6609b8457a","ios":"levelo://app?vid=e43610db-3270-4b29-a1df-ed6609b8457a"},"vehicle_type_id":"4","last_reported":1725908820,"current_range_meters":18400,"station_id":"ce4bgv92rcd13ifvqcq0","pricing_plan_id":"cebpf4jnsgd1na2vs0mg"},{"bike_id":"3644f1ea-f54b-45fa-9142-e7776249b7c8","system_id":"levelo_inurba_marseille","lat":43.307945,"lon":5.376487,"is_reserved":false,"is_disabled":false,"rental_uris":{"android":"levelo://app?vid=3644f1ea-f54b-45fa-9142-e7776249b7c8","ios":"levelo://app?vid=3644f1ea-f54b-45fa-9142-e7776249b7c8"},"vehicle_type_id":"4","last_reported":1725908820,"current_range_meters":27600,"station_id":"ce4bgv92rcd13ifvqcq0","pricing_plan_id":"cebpf4jnsgd1na2vs0mg"},{"bike_id":"3d7eab35-33f4-4855-aabe-5ab6054c1497","system_id":"levelo_inurba_marseille","lat":43.31161,"lon":5.37987,"is_reserved":false,"is_disabled":false,"rental_uris":{"android":"levelo://app?vid=3d7eab35-33f4-4855-aabe-5ab6054c1497","ios":"levelo://app?vid=3d7eab35-33f4-4855-aabe-5ab6054c1497"},"vehicle_type_id":"4","last_reported":1725908820,"current_range_meters":22800,"station_id":"","pricing_plan_id":"cebpf4jnsgd1na2vs0mg"},{"bike_id":"ed29ec64-09e9-4f9c-8476-5ae39163795d","system_id":"levelo_inurba_marseille","lat":43.30304,"lon":5.368987,"is_reserved":false,"is_disabled":false,"rental_uris":{"android":"levelo://app?vid=ed29ec64-09e9-4f9c-8476-5ae39163795d","ios":"levelo://app?vid=ed29ec64-09e9-4f9c-8476-5ae39163795d"},"vehicle_type_id":"4","last_reported":1725908820,"current_range_meters":26800,"station_id":"ce4bgqh2rcd13ifvqc5g","pricing_plan_id":"cebpf4jnsgd1na2vs0mg"},{"bike_id":"5e388ab5-469c-447c-bf15-b2ec42ac9570","system_id":"levelo_inurba_marseille","lat":43.31065,"lon":5.3813,"is_reserved":false,"is_disabled":false,"rental_uris":{"android":"levelo://app?vid=5e388ab5-469c-447c-bf15-b2ec42ac9570","ios":"levelo://app?vid=5e388ab5-469c-447c-bf15-b2ec42ac9570"},"vehicle_type_id":"4","last_reported":1725908820,"current_range_meters":0,"station_id":"","pricing_plan_id":"cebpf4jnsgd1na2vs0mg"},{"bike_id":"818042ef-be53-4045-aa81-cc8f941ffa84","system_id":"levelo_inurba_marseille","lat":43.301939,"lon":5.366286,"is_reserved":false,"is_disabled":false,"rental_uris":{"android":"levelo://app?vid=818042ef-be53-4045-aa81-cc8f941ffa84","ios":"levelo://app?vid=818042ef-be53-4045-aa81-cc8f941ffa84"},"vehicle_type_id":"4","last_reported":1725908820,"current_range_meters":24800,"station_id":"ce4bgrh2rcd13ifvqc8g","pricing_plan_id":"cebpf4jnsgd1na2vs0mg"},{"bike_id":"ab74a612-1982-4af1-8b0c-777930ec972a","system_id":"levelo_inurba_marseille","lat":43.308012,"lon":5.381511,"is_reserved":false,"is_disabled":false,"rental_uris":{"android":"levelo://app?vid=ab74a612-1982-4af1-8b0c-777930ec972a","ios":"levelo://app?vid=ab74a612-1982-4af1-8b0c-777930ec972a"},"vehicle_type_id":"4","last_reported":1725908820,"current_range_meters":6400,"station_id":"ce4bgt12rcd13ifvqce0","pricing_plan_id":"cebpf4jnsgd1na2vs0mg"},{"bike_id":"32822bbc-54eb-46e1-9c21-b487064a0e33","system_id":"levelo_inurba_marseille","lat":43.30813,"lon":5.38155,"is_reserved":false,"is_disabled":false,"rental_uris":{"android":"levelo://app?vid=32822bbc-54eb-46e1-9c21-b487064a0e33","ios":"levelo://app?vid=32822bbc-54eb-46e1-9c21-b487064a0e33"},"vehicle_type_id":"4","last_reported":1725908820,"current_range_meters":0,"station_id":"ce4bgt12rcd13ifvqce0","pricing_plan_id":"cebpf4jnsgd1na2vs0mg"},{"bike_id":"0766797f-3b55-4e88-9c2e-357828d35b01","system_id":"levelo_inurba_marseille","lat":43.308012,"lon":5.381511,"is_reserved":false,"is_disabled":false,"rental_uris":{"android":"levelo://app?vid=0766797f-3b55-4e88-9c2e-357828d35b01","ios":"levelo://app?vid=0766797f-3b55-4e88-9c2e-357828d35b01"},"vehicle_type_id":"4","last_reported":1725908820,"current_range_meters":24800,"station_id":"ce4bgt12rcd13ifvqce0","pricing_plan_id":"cebpf4jnsgd1na2vs0mg"},{"bike_id":"ff51df6f-e0e8-47d4-b27c-7552f5bfefdf","system_id":"levelo_inurba_marseille","lat":43.308012,"lon":5.381511,"is_reserved":false,"is_disabled":false,"rental_uris":{"android":"levelo://app?vid=ff51df6f-e0e8-47d4-b27c-7552f5bfefdf","ios":"levelo://app?vid=ff51df6f-e0e8-47d4-b27c-7552f5bfefdf"},"vehicle_type_id":"4","last_reported":1725908820,"current_range_meters":13200,"station_id":"ce4bgt12rcd13ifvqce0","pricing_plan_id":"cebpf4jnsgd1na2vs0mg"},{"bike_id":"de1969ed-4ff8-4bac-8d46-a9643311c536","system_id":"levelo_inurba_marseille","lat":43.308012,"lon":5.381511,"is_reserved":false,"is_disabled":false,"rental_uris":{"android":"levelo://app?vid=de1969ed-4ff8-4bac-8d46-a9643311c536","ios":"levelo://app?vid=de1969ed-4ff8-4bac-8d46-a9643311c536"},"vehicle_type_id":"4","last_reported":1725908820,"current_range_meters":13600,"station_id":"ce4bgt12rcd13ifvqce0","pricing_plan_id":"cebpf4jnsgd1na2vs0mg"},{"bike_id":"76bb8c95-7e10-4b05-bf54-94e57374340e","system_id":"levelo_inurba_marseille","lat":43.304606,"lon":5.379026,"is_reserved":false,"is_disabled":false,"rental_uris":{"android":"levelo://app?vid=76bb8c95-7e10-4b05-bf54-94e57374340e","ios":"levelo://app?vid=76bb8c95-7e10-4b05-bf54-94e57374340e"},"vehicle_type_id":"4","last_reported":1725908820,"current_range_meters":26000,"station_id":"ce4bgup2rcd13ifvqcn0","pricing_plan_id":"cebpf4jnsgd1na2vs0mg"},{"bike_id":"c3d07832-0ae6-41d6-a2e2-26dc42fda731","system_id":"levelo_inurba_marseille","lat":43.304606,"lon":5.379026,"is_reserved":false,"is_disabled":false,"rental_uris":{"android":"levelo://app?vid=c3d07832-0ae6-41d6-a2e2-26dc42fda731","ios":"levelo://app?vid=c3d07832-0ae6-41d6-a2e2-26dc42fda731"},"vehicle_type_id":"4","last_reported":1725908820,"current_range_meters":3200,"station_id":"ce4bgup2rcd13ifvqcn0","pricing_plan_id":"cebpf4jnsgd1na2vs0mg"},{"bike_id":"0780a667-9e50-47fd-9f64-89501c5c1eac","system_id":"levelo_inurba_marseille","lat":43.310804,"lon":5.38359,"is_reserved":false,"is_disabled":false,"rental_uris":{"android":"levelo://app?vid=0780a667-9e50-47fd-9f64-89501c5c1eac","ios":"levelo://app?vid=0780a667-9e50-47fd-9f64-89501c5c1eac"},"vehicle_type_id":"4","last_reported":1725908820,"current_range_meters":18800,"station_id":"ce4bgv92rcd13ifvqcr0","pricing_plan_id":"cebpf4jnsgd1na2vs0mg"},{"bike_id":"d45cdb34-981b-4044-88f6-09045dc25c51","system_id":"levelo_inurba_marseille","lat":43.310804,"lon":5.38359,"is_reserved":false,"is_disabled":false,"rental_uris":{"android":"levelo://app?vid=d45cdb34-981b-4044-88f6-09045dc25c51","ios":"levelo://app?vid=d45cdb34-981b-4044-88f6-09045dc25c51"},"vehicle_type_id":"4","last_reported":1725908820,"current_range_meters":5200,"station_id":"ce4bgv92rcd13ifvqcr0","pricing_plan_id":"cebpf4jnsgd1na2vs0mg"},{"bike_id":"e5dca4ea-7bd4-4030-86af-a84d2b314d00","system_id":"levelo_inurba_marseille","lat":43.301429,"lon":5.37413,"is_reserved":false,"is_disabled":false,"rental_uris":{"android":"levelo://app?vid=e5dca4ea-7bd4-4030-86af-a84d2b314d00","ios":"levelo://app?vid=e5dca4ea-7bd4-4030-86af-a84d2b314d00"},"vehicle_type_id":"4","last_reported":1725908820,"current_range_meters":2400,"station_id":"ce4bgs92rcd13ifvqcc0","pricing_plan_id":"cebpf4jnsgd1na2vs0mg"},{"bike_id":"9e9e7b1b-64ff-4924-9935-53086eddaa14","system_id":"levelo_inurba_marseille","lat":43.31636,"lon":5.38365,"is_reserved":false,"is_disabled":false,"rental_uris":{"android":"levelo://app?vid=9e9e7b1b-64ff-4924-9935-53086eddaa14","ios":"levelo://app?vid=9e9e7b1b-64ff-4924-9935-53086eddaa14"},"vehicle_type_id":"4","last_reported":1725908820,"current_range_meters":29200,"station_id":"","pricing_plan_id":"cebpf4jnsgd1na2vs0mg"},{"bike_id":"52e98e2e-e1b9-4379-a018-6a51295701f1","system_id":"levelo_inurba_marseille","lat":43.319935,"lon":5.381699,"is_reserved":false,"is_disabled":false,"rental_uris":{"android":"levelo://app?vid=52e98e2e-e1b9-4379-a018-6a51295701f1","ios":"levelo://app?vid=52e98e2e-e1b9-4379-a018-6a51295701f1"},"vehicle_type_id":"4","last_reported":1725908820,"current_range_meters":9200,"station_id":"ce4bhr12rcd13ifvqhpg","pricing_plan_id":"cebpf4jnsgd1na2vs0mg"},{"bike_id":"df91cdf1-c97a-4f2a-bb37-6780eb5bf2b4","system_id":"levelo_inurba_marseille","lat":43.319935,"lon":5.381699,"is_reserved":false,"is_disabled":false,"rental_uris":{"android":"levelo://app?vid=df91cdf1-c97a-4f2a-bb37-6780eb5bf2b4","ios":"levelo://app?vid=df91cdf1-c97a-4f2a-bb37-6780eb5bf2b4"},"vehicle_type_id":"4","last_reported":1725908820,"current_range_meters":12800,"station_id":"ce4bhr12rcd13ifvqhpg","pricing_plan_id":"cebpf4jnsgd1na2vs0mg"},{"bike_id":"a86740ff-1fca-4a6f-997a-9947df6d0b19","system_id":"levelo_inurba_marseille","lat":43.319935,"lon":5.381699,"is_reserved":false,"is_disabled":false,"rental_uris":{"android":"levelo://app?vid=a86740ff-1fca-4a6f-997a-9947df6d0b19","ios":"levelo://app?vid=a86740ff-1fca-4a6f-997a-9947df6d0b19"},"vehicle_type_id":"4","last_reported":1725908820,"current_range_meters":4000,"station_id":"ce4bhr12rcd13ifvqhpg","pricing_plan_id":"cebpf4jnsgd1na2vs0mg"},{"bike_id":"ba917ef5-0897-4735-9656-53596def4bfc","system_id":"levelo_inurba_marseille","lat":43.299724,"lon":5.371829,"is_reserved":false,"is_disabled":false,"rental_uris":{"android":"levelo://app?vid=ba917ef5-0897-4735-9656-53596def4bfc","ios":"levelo://app?vid=ba917ef5-0897-4735-9656-53596def4bfc"},"vehicle_type_id":"4","last_reported":1725908820,"current_range_meters":1600,"station_id":"ce4bgr92rcd13ifvqc7g","pricing_plan_id":"cebpf4jnsgd1na2vs0mg"},{"bike_id":"aa82732f-c89d-47d2-b1a7-124cbacbb738","system_id":"levelo_inurba_marseille","lat":43.305364,"lon":5.384119,"is_reserved":false,"is_disabled":false,"rental_uris":{"android":"levelo://app?vid=aa82732f-c89d-47d2-b1a7-124cbacbb738","ios":"levelo://app?vid=aa82732f-c89d-47d2-b1a7-124cbacbb738"},"vehicle_type_id":"4","last_reported":1725908820,"current_range_meters":23600,"station_id":"ce4bgg92rcd13ifvqb30","pricing_plan_id":"cebpf4jnsgd1na2vs0mg"},{"bike_id":"6a6f0e08-eb7a-4889-b24a-25f1bf4007e1","system_id":"levelo_inurba_marseille","lat":43.29855,"lon":5.36291,"is_reserved":false,"is_disabled":false,"rental_uris":{"android":"levelo://app?vid=6a6f0e08-eb7a-4889-b24a-25f1bf4007e1","ios":"levelo://app?vid=6a6f0e08-eb7a-4889-b24a-25f1bf4007e1"},"vehicle_type_id":"4","last_reported":1725908820,"current_range_meters":0,"station_id":"ce4bgpp2rcd13ifvqc3g","pricing_plan_id":"cebpf4jnsgd1na2vs0mg"},{"bike_id":"645d55f8-6336-4ca2-b9d0-309fc5b57db2","system_id":"levelo_inurba_marseille","lat":43.305364,"lon":5.384119,"is_reserved":false,"is_disabled":false,"rental_uris":{"android":"levelo://app?vid=645d55f8-6336-4ca2-b9d0-309fc5b57db2","ios":"levelo://app?vid=645d55f8-6336-4ca2-b9d0-309fc5b57db2"},"vehicle_type_id":"4","last_reported":1725908820,"current_range_meters":0,"station_id":"ce4bgg92rcd13ifvqb30","pricing_plan_id":"cebpf4jnsgd1na2vs0mg"},{"bike_id":"e6401459-30ea-45bd-9712-c46b40afb053","system_id":"levelo_inurba_marseille","lat":43.305364,"lon":5.384119,"is_reserved":false,"is_disabled":false,"rental_uris":{"android":"levelo://app?vid=e6401459-30ea-45bd-9712-c46b40afb053","ios":"levelo://app?vid=e6401459-30ea-45bd-9712-c46b40afb053"},"vehicle_type_id":"4","last_reported":1725908820,"current_range_meters":0,"station_id":"ce4bgg92rcd13ifvqb30","pricing_plan_id":"cebpf4jnsgd1na2vs0mg"},{"bike_id":"1b86f6c5-8283-4ea1-aeb9-fd52e1832574","system_id":"levelo_inurba_marseille","lat":43.305364,"lon":5.384119,"is_reserved":false,"is_disabled":false,"rental_uris":{"android":"levelo://app?vid=1b86f6c5-8283-4ea1-aeb9-fd52e1832574","ios":"levelo://app?vid=1b86f6c5-8283-4ea1-aeb9-fd52e1832574"},"vehicle_type_id":"4","last_reported":1725908820,"current_range_meters":15200,"station_id":"ce4bgg92rcd13ifvqb30","pricing_plan_id":"cebpf4jnsgd1na2vs0mg"},{"bike_id":"56afc45a-21e3-4158-acb6-7b74495edd25","system_id":"levelo_inurba_marseille","lat":43.30532,"lon":5.38427,"is_reserved":false,"is_disabled":false,"rental_uris":{"android":"levelo://app?vid=56afc45a-21e3-4158-acb6-7b74495edd25","ios":"levelo://app?vid=56afc45a-21e3-4158-acb6-7b74495edd25"},"vehicle_type_id":"4","last_reported":1725908820,"current_range_meters":0,"station_id":"ce4bgg92rcd13ifvqb30","pricing_plan_id":"cebpf4jnsgd1na2vs0mg"},{"bike_id":"6bf010ad-ef74-4596-b474-a7e2d22d68a8","system_id":"levelo_inurba_marseille","lat":43.299243,"lon":5.37481,"is_reserved":false,"is_disabled":false,"rental_uris":{"android":"levelo://app?vid=6bf010ad-ef74-4596-b474-a7e2d22d68a8","ios":"levelo://app?vid=6bf010ad-ef74-4596-b474-a7e2d22d68a8"},"vehicle_type_id":"4","last_reported":1725908820,"current_range_meters":28800,"station_id":"ce4bgjh2rcd13ifvqbg0","pricing_plan_id":"cebpf4jnsgd1na2vs0mg"},{"bike_id":"9fe61805-18c3-4f91-80eb-eb76cf95e09c","system_id":"levelo_inurba_marseille","lat":43.299243,"lon":5.374807,"is_reserved":false,"is_disabled":false,"rental_uris":{"android":"levelo://app?vid=9fe61805-18c3-4f91-80eb-eb76cf95e09c","ios":"levelo://app?vid=9fe61805-18c3-4f91-80eb-eb76cf95e09c"},"vehicle_type_id":"4","last_reported":1725908820,"current_range_meters":4800,"station_id":"ce4bgjh2rcd13ifvqbg0","pricing_plan_id":"cebpf4jnsgd1na2vs0mg"},{"bike_id":"47d3a71a-1f0a-4d51-b9cb-9a5c5d91529d","system_id":"levelo_inurba_marseille","lat":43.311722,"lon":5.387247,"is_reserved":false,"is_disabled":false,"rental_uris":{"android":"levelo://app?vid=47d3a71a-1f0a-4d51-b9cb-9a5c5d91529d","ios":"levelo://app?vid=47d3a71a-1f0a-4d51-b9cb-9a5c5d91529d"},"vehicle_type_id":"4","last_reported":1725908820,"current_range_meters":2400,"station_id":"ce4bgv12rcd13ifvqcp0","pricing_plan_id":"cebpf4jnsgd1na2vs0mg"},{"bike_id":"9f6118f6-82e2-42e1-adcd-cfbf54187131","system_id":"levelo_inurba_marseille","lat":43.311722,"lon":5.387247,"is_reserved":false,"is_disabled":false,"rental_uris":{"android":"levelo://app?vid=9f6118f6-82e2-42e1-adcd-cfbf54187131","ios":"levelo://app?vid=9f6118f6-82e2-42e1-adcd-cfbf54187131"},"vehicle_type_id":"4","last_reported":1725908820,"current_range_meters":17200,"station_id":"ce4bgv12rcd13ifvqcp0","pricing_plan_id":"cebpf4jnsgd1na2vs0mg"},{"bike_id":"46631d22-3b93-45e2-8e8e-14ef69e4ed60","system_id":"levelo_inurba_marseille","lat":43.305364,"lon":5.384119,"is_reserved":false,"is_disabled":false,"rental_uris":{"android":"levelo://app?vid=46631d22-3b93-45e2-8e8e-14ef69e4ed60","ios":"levelo://app?vid=46631d22-3b93-45e2-8e8e-14ef69e4ed60"},"vehicle_type_id":"4","last_reported":1725908820,"current_range_meters":28400,"station_id":"ce4bgg92rcd13ifvqb30","pricing_plan_id":"cebpf4jnsgd1na2vs0mg"},{"bike_id":"9063ded9-91b9-4892-b8b4-b147e38539f2","system_id":"levelo_inurba_marseille","lat":43.31168,"lon":5.3872,"is_reserved":false,"is_disabled":false,"rental_uris":{"android":"levelo://app?vid=9063ded9-91b9-4892-b8b4-b147e38539f2","ios":"levelo://app?vid=9063ded9-91b9-4892-b8b4-b147e38539f2"},"vehicle_type_id":"4","last_reported":1725908820,"current_range_meters":12400,"station_id":"ce4bgv12rcd13ifvqcp0","pricing_plan_id":"cebpf4jnsgd1na2vs0mg"},{"bike_id":"31ddb5d3-78dd-4529-9266-9785da7147b0","system_id":"levelo_inurba_marseille","lat":43.311722,"lon":5.387247,"is_reserved":false,"is_disabled":false,"rental_uris":{"android":"levelo://app?vid=31ddb5d3-78dd-4529-9266-9785da7147b0","ios":"levelo://app?vid=31ddb5d3-78dd-4529-9266-9785da7147b0"},"vehicle_type_id":"4","last_reported":1725908820,"current_range_meters":26000,"station_id":"ce4bgv12rcd13ifvqcp0","pricing_plan_id":"cebpf4jnsgd1na2vs0mg"},{"bike_id":"f6a3c218-12ae-4ae4-b66e-ec4c0b2ebb1e","system_id":"levelo_inurba_marseille","lat":43.311722,"lon":5.387247,"is_reserved":false,"is_disabled":false,"rental_uris":{"android":"levelo://app?vid=f6a3c218-12ae-4ae4-b66e-ec4c0b2ebb1e","ios":"levelo://app?vid=f6a3c218-12ae-4ae4-b66e-ec4c0b2ebb1e"},"vehicle_type_id":"4","last_reported":1725908820,"current_range_meters":22000,"station_id":"ce4bgv12rcd13ifvqcp0","pricing_plan_id":"cebpf4jnsgd1na2vs0mg"},{"bike_id":"4ca20910-70d4-414c-9254-b3d9f0629027","system_id":"levelo_inurba_marseille","lat":43.311722,"lon":5.387247,"is_reserved":false,"is_disabled":false,"rental_uris":{"android":"levelo://app?vid=4ca20910-70d4-414c-9254-b3d9f0629027","ios":"levelo://app?vid=4ca20910-70d4-414c-9254-b3d9f0629027"},"vehicle_type_id":"4","last_reported":1725908820,"current_range_meters":18400,"station_id":"ce4bgv12rcd13ifvqcp0","pricing_plan_id":"cebpf4jnsgd1na2vs0mg"},{"bike_id":"0be2f1aa-08d0-4b7a-a461-e7e188ed249d","system_id":"levelo_inurba_marseille","lat":43.311722,"lon":5.387247,"is_reserved":false,"is_disabled":false,"rental_uris":{"android":"levelo://app?vid=0be2f1aa-08d0-4b7a-a461-e7e188ed249d","ios":"levelo://app?vid=0be2f1aa-08d0-4b7a-a461-e7e188ed249d"},"vehicle_type_id":"4","last_reported":1725908820,"current_range_meters":15600,"station_id":"ce4bgv12rcd13ifvqcp0","pricing_plan_id":"cebpf4jnsgd1na2vs0mg"},{"bike_id":"bc7d9694-6beb-4661-9598-ebb278f83b4b","system_id":"levelo_inurba_marseille","lat":43.32285,"lon":5.38258,"is_reserved":false,"is_disabled":false,"rental_uris":{"android":"levelo://app?vid=bc7d9694-6beb-4661-9598-ebb278f83b4b","ios":"levelo://app?vid=bc7d9694-6beb-4661-9598-ebb278f83b4b"},"vehicle_type_id":"4","last_reported":1725908820,"current_range_meters":30400,"station_id":"ce4bhr12rcd13ifvqhqg","pricing_plan_id":"cebpf4jnsgd1na2vs0mg"},{"bike_id":"e92128e1-9c4e-4b5e-8475-f4834ef1ca90","system_id":"levelo_inurba_marseille","lat":43.322905,"lon":5.382617,"is_reserved":false,"is_disabled":false,"rental_uris":{"android":"levelo://app?vid=e92128e1-9c4e-4b5e-8475-f4834ef1ca90","ios":"levelo://app?vid=e92128e1-9c4e-4b5e-8475-f4834ef1ca90"},"vehicle_type_id":"4","last_reported":1725908820,"current_range_meters":24400,"station_id":"ce4bhr12rcd13ifvqhqg","pricing_plan_id":"cebpf4jnsgd1na2vs0mg"},{"bike_id":"e57c6050-55dd-4a7b-a30f-05f7abef2f6b","system_id":"levelo_inurba_marseille","lat":43.322872,"lon":5.382756,"is_reserved":false,"is_disabled":false,"rental_uris":{"android":"levelo://app?vid=e57c6050-55dd-4a7b-a30f-05f7abef2f6b","ios":"levelo://app?vid=e57c6050-55dd-4a7b-a30f-05f7abef2f6b"},"vehicle_type_id":"4","last_reported":1725908820,"current_range_meters":20400,"station_id":"ce4bhr12rcd13ifvqhqg","pricing_plan_id":"cebpf4jnsgd1na2vs0mg"},{"bike_id":"34813d65-4aaa-40d7-9ccb-c4aa0b5d199f","system_id":"levelo_inurba_marseille","lat":43.322872,"lon":5.382756,"is_reserved":false,"is_disabled":false,"rental_uris":{"android":"levelo://app?vid=34813d65-4aaa-40d7-9ccb-c4aa0b5d199f","ios":"levelo://app?vid=34813d65-4aaa-40d7-9ccb-c4aa0b5d199f"},"vehicle_type_id":"4","last_reported":1725908820,"current_range_meters":31600,"station_id":"ce4bhr12rcd13ifvqhqg","pricing_plan_id":"cebpf4jnsgd1na2vs0mg"},{"bike_id":"83a17ab0-8e75-4386-be72-e04fb515cf54","system_id":"levelo_inurba_marseille","lat":43.322872,"lon":5.382756,"is_reserved":false,"is_disabled":false,"rental_uris":{"android":"levelo://app?vid=83a17ab0-8e75-4386-be72-e04fb515cf54","ios":"levelo://app?vid=83a17ab0-8e75-4386-be72-e04fb515cf54"},"vehicle_type_id":"4","last_reported":1725908820,"current_range_meters":14800,"station_id":"ce4bhr12rcd13ifvqhqg","pricing_plan_id":"cebpf4jnsgd1na2vs0mg"},{"bike_id":"3d96f58d-148a-4dae-ac34-ed96f64bee81","system_id":"levelo_inurba_marseille","lat":43.322927,"lon":5.38266,"is_reserved":false,"is_disabled":false,"rental_uris":{"android":"levelo://app?vid=3d96f58d-148a-4dae-ac34-ed96f64bee81","ios":"levelo://app?vid=3d96f58d-148a-4dae-ac34-ed96f64bee81"},"vehicle_type_id":"4","last_reported":1725908820,"current_range_meters":8000,"station_id":"ce4bhr12rcd13ifvqhqg","pricing_plan_id":"cebpf4jnsgd1na2vs0mg"},{"bike_id":"cce2cbc3-b0de-444c-b3af-a67a62d9c011","system_id":"levelo_inurba_marseille","lat":43.32294,"lon":5.38268,"is_reserved":false,"is_disabled":false,"rental_uris":{"android":"levelo://app?vid=cce2cbc3-b0de-444c-b3af-a67a62d9c011","ios":"levelo://app?vid=cce2cbc3-b0de-444c-b3af-a67a62d9c011"},"vehicle_type_id":"4","last_reported":1725908820,"current_range_meters":29200,"station_id":"ce4bhr12rcd13ifvqhqg","pricing_plan_id":"cebpf4jnsgd1na2vs0mg"},{"bike_id":"e8dbf825-2423-4190-abfa-7d8cec3f4a72","system_id":"levelo_inurba_marseille","lat":43.322872,"lon":5.382756,"is_reserved":false,"is_disabled":false,"rental_uris":{"android":"levelo://app?vid=e8dbf825-2423-4190-abfa-7d8cec3f4a72","ios":"levelo://app?vid=e8dbf825-2423-4190-abfa-7d8cec3f4a72"},"vehicle_type_id":"4","last_reported":1725908820,"current_range_meters":31600,"station_id":"ce4bhr12rcd13ifvqhqg","pricing_plan_id":"cebpf4jnsgd1na2vs0mg"},{"bike_id":"7965264e-d548-4a1e-b464-82432833ab8e","system_id":"levelo_inurba_marseille","lat":43.32287,"lon":5.38278,"is_reserved":false,"is_disabled":false,"rental_uris":{"android":"levelo://app?vid=7965264e-d548-4a1e-b464-82432833ab8e","ios":"levelo://app?vid=7965264e-d548-4a1e-b464-82432833ab8e"},"vehicle_type_id":"4","last_reported":1725908820,"current_range_meters":1600,"station_id":"ce4bhr12rcd13ifvqhqg","pricing_plan_id":"cebpf4jnsgd1na2vs0mg"},{"bike_id":"fedb6f27-1de1-4f22-89cc-18a3690d200b","system_id":"levelo_inurba_marseille","lat":43.322872,"lon":5.382756,"is_reserved":false,"is_disabled":false,"rental_uris":{"android":"levelo://app?vid=fedb6f27-1de1-4f22-89cc-18a3690d200b","ios":"levelo://app?vid=fedb6f27-1de1-4f22-89cc-18a3690d200b"},"vehicle_type_id":"4","last_reported":1725908820,"current_range_meters":31200,"station_id":"ce4bhr12rcd13ifvqhqg","pricing_plan_id":"cebpf4jnsgd1na2vs0mg"},{"bike_id":"bd5ae5e0-5564-4541-94fc-ca0a05fd7fbd","system_id":"levelo_inurba_marseille","lat":43.322872,"lon":5.382756,"is_reserved":false,"is_disabled":false,"rental_uris":{"android":"levelo://app?vid=bd5ae5e0-5564-4541-94fc-ca0a05fd7fbd","ios":"levelo://app?vid=bd5ae5e0-5564-4541-94fc-ca0a05fd7fbd"},"vehicle_type_id":"4","last_reported":1725908820,"current_range_meters":31600,"station_id":"ce4bhr12rcd13ifvqhqg","pricing_plan_id":"cebpf4jnsgd1na2vs0mg"},{"bike_id":"c883b54a-09a8-4c3b-ad3f-9dbdd1429f8c","system_id":"levelo_inurba_marseille","lat":43.322872,"lon":5.382756,"is_reserved":false,"is_disabled":false,"rental_uris":{"android":"levelo://app?vid=c883b54a-09a8-4c3b-ad3f-9dbdd1429f8c","ios":"levelo://app?vid=c883b54a-09a8-4c3b-ad3f-9dbdd1429f8c"},"vehicle_type_id":"4","last_reported":1725908820,"current_range_meters":18800,"station_id":"ce4bhr12rcd13ifvqhqg","pricing_plan_id":"cebpf4jnsgd1na2vs0mg"},{"bike_id":"6bb3d3e0-c433-41e6-88cc-9abe7522eafb","system_id":"levelo_inurba_marseille","lat":43.2975,"lon":5.36369,"is_reserved":false,"is_disabled":false,"rental_uris":{"android":"levelo://app?vid=6bb3d3e0-c433-41e6-88cc-9abe7522eafb","ios":"levelo://app?vid=6bb3d3e0-c433-41e6-88cc-9abe7522eafb"},"vehicle_type_id":"4","last_reported":1725908820,"current_range_meters":28800,"station_id":"","pricing_plan_id":"cebpf4jnsgd1na2vs0mg"},{"bike_id":"ca265b37-6679-4ccb-874c-def9e4e4e23a","system_id":"levelo_inurba_marseille","lat":43.2968,"lon":5.37291,"is_reserved":false,"is_disabled":false,"rental_uris":{"android":"levelo://app?vid=ca265b37-6679-4ccb-874c-def9e4e4e23a","ios":"levelo://app?vid=ca265b37-6679-4ccb-874c-def9e4e4e23a"},"vehicle_type_id":"4","last_reported":1725908820,"current_range_meters":15600,"station_id":"ce4bgk12rcd13ifvqbj0","pricing_plan_id":"cebpf4jnsgd1na2vs0mg"},{"bike_id":"bc838d5b-cd5d-4283-8a33-be5a6e4c4a56","system_id":"levelo_inurba_marseille","lat":43.2968,"lon":5.37291,"is_reserved":false,"is_disabled":false,"rental_uris":{"android":"levelo://app?vid=bc838d5b-cd5d-4283-8a33-be5a6e4c4a56","ios":"levelo://app?vid=bc838d5b-cd5d-4283-8a33-be5a6e4c4a56"},"vehicle_type_id":"4","last_reported":1725908820,"current_range_meters":29200,"station_id":"ce4bgk12rcd13ifvqbj0","pricing_plan_id":"cebpf4jnsgd1na2vs0mg"},{"bike_id":"4d4c9a93-6e44-4026-a935-81edf78dff62","system_id":"levelo_inurba_marseille","lat":43.296131,"lon":5.370791,"is_reserved":false,"is_disabled":false,"rental_uris":{"android":"levelo://app?vid=4d4c9a93-6e44-4026-a935-81edf78dff62","ios":"levelo://app?vid=4d4c9a93-6e44-4026-a935-81edf78dff62"},"vehicle_type_id":"4","last_reported":1725908820,"current_range_meters":5200,"station_id":"ce4bgnh2rcd13ifvqc0g","pricing_plan_id":"cebpf4jnsgd1na2vs0mg"},{"bike_id":"11b98439-34da-4dd7-b3d9-4e11d7a9dff0","system_id":"levelo_inurba_marseille","lat":43.296131,"lon":5.370791,"is_reserved":false,"is_disabled":false,"rental_uris":{"android":"levelo://app?vid=11b98439-34da-4dd7-b3d9-4e11d7a9dff0","ios":"levelo://app?vid=11b98439-34da-4dd7-b3d9-4e11d7a9dff0"},"vehicle_type_id":"4","last_reported":1725908820,"current_range_meters":12000,"station_id":"ce4bgnh2rcd13ifvqc0g","pricing_plan_id":"cebpf4jnsgd1na2vs0mg"},{"bike_id":"eb92cee8-8900-4ea5-b2e5-d767445e1777","system_id":"levelo_inurba_marseille","lat":43.29573,"lon":5.367355,"is_reserved":false,"is_disabled":false,"rental_uris":{"android":"levelo://app?vid=eb92cee8-8900-4ea5-b2e5-d767445e1777","ios":"levelo://app?vid=eb92cee8-8900-4ea5-b2e5-d767445e1777"},"vehicle_type_id":"4","last_reported":1725908820,"current_range_meters":13600,"station_id":"ce4bgph2rcd13ifvqc2g","pricing_plan_id":"cebpf4jnsgd1na2vs0mg"},{"bike_id":"9d246f6b-a9d7-4da1-84f3-582ab5b945cd","system_id":"levelo_inurba_marseille","lat":43.296921,"lon":5.376579,"is_reserved":false,"is_disabled":false,"rental_uris":{"android":"levelo://app?vid=9d246f6b-a9d7-4da1-84f3-582ab5b945cd","ios":"levelo://app?vid=9d246f6b-a9d7-4da1-84f3-582ab5b945cd"},"vehicle_type_id":"4","last_reported":1725908820,"current_range_meters":400,"station_id":"ce4bgkh2rcd13ifvqbl0","pricing_plan_id":"cebpf4jnsgd1na2vs0mg"},{"bike_id":"2c9b68fe-723f-4465-8e42-8147230c8f9e","system_id":"levelo_inurba_marseille","lat":43.299028,"lon":5.381509,"is_reserved":false,"is_disabled":false,"rental_uris":{"android":"levelo://app?vid=2c9b68fe-723f-4465-8e42-8147230c8f9e","ios":"levelo://app?vid=2c9b68fe-723f-4465-8e42-8147230c8f9e"},"vehicle_type_id":"4","last_reported":1725908820,"current_range_meters":13600,"station_id":"ce4bgj12rcd13ifvqbc0","pricing_plan_id":"cebpf4jnsgd1na2vs0mg"},{"bike_id":"9a0f18c0-38aa-426f-91bb-0f1e247b47a2","system_id":"levelo_inurba_marseille","lat":43.299028,"lon":5.381509,"is_reserved":false,"is_disabled":false,"rental_uris":{"android":"levelo://app?vid=9a0f18c0-38aa-426f-91bb-0f1e247b47a2","ios":"levelo://app?vid=9a0f18c0-38aa-426f-91bb-0f1e247b47a2"},"vehicle_type_id":"4","last_reported":1725908820,"current_range_meters":26400,"station_id":"ce4bgj12rcd13ifvqbc0","pricing_plan_id":"cebpf4jnsgd1na2vs0mg"},{"bike_id":"9842dea3-0ad0-4d8a-be71-c8352100ef02","system_id":"levelo_inurba_marseille","lat":43.296921,"lon":5.376579,"is_reserved":false,"is_disabled":false,"rental_uris":{"android":"levelo://app?vid=9842dea3-0ad0-4d8a-be71-c8352100ef02","ios":"levelo://app?vid=9842dea3-0ad0-4d8a-be71-c8352100ef02"},"vehicle_type_id":"4","last_reported":1725908820,"current_range_meters":18000,"station_id":"ce4bgkh2rcd13ifvqbl0","pricing_plan_id":"cebpf4jnsgd1na2vs0mg"},{"bike_id":"6b6e64a3-a870-4825-9981-579cf1de1494","system_id":"levelo_inurba_marseille","lat":43.299028,"lon":5.381509,"is_reserved":false,"is_disabled":false,"rental_uris":{"android":"levelo://app?vid=6b6e64a3-a870-4825-9981-579cf1de1494","ios":"levelo://app?vid=6b6e64a3-a870-4825-9981-579cf1de1494"},"vehicle_type_id":"4","last_reported":1725908820,"current_range_meters":22800,"station_id":"ce4bgj12rcd13ifvqbc0","pricing_plan_id":"cebpf4jnsgd1na2vs0mg"},{"bike_id":"2cf98790-26f6-4aa9-82d0-f0e6c290738a","system_id":"levelo_inurba_marseille","lat":43.317557,"lon":5.390173,"is_reserved":false,"is_disabled":false,"rental_uris":{"android":"levelo://app?vid=2cf98790-26f6-4aa9-82d0-f0e6c290738a","ios":"levelo://app?vid=2cf98790-26f6-4aa9-82d0-f0e6c290738a"},"vehicle_type_id":"4","last_reported":1725908820,"current_range_meters":0,"station_id":"ce4bhqp2rcd13ifvqhng","pricing_plan_id":"cebpf4jnsgd1na2vs0mg"},{"bike_id":"bfb70a11-9c63-424a-8059-a165ea2da443","system_id":"levelo_inurba_marseille","lat":43.31758,"lon":5.39011,"is_reserved":false,"is_disabled":false,"rental_uris":{"android":"levelo://app?vid=bfb70a11-9c63-424a-8059-a165ea2da443","ios":"levelo://app?vid=bfb70a11-9c63-424a-8059-a165ea2da443"},"vehicle_type_id":"4","last_reported":1725908820,"current_range_meters":20400,"station_id":"ce4bhqp2rcd13ifvqhng","pricing_plan_id":"cebpf4jnsgd1na2vs0mg"},{"bike_id":"7da48e77-1a22-4c7e-a9dc-6f60aefa4f34","system_id":"levelo_inurba_marseille","lat":43.317557,"lon":5.390173,"is_reserved":false,"is_disabled":false,"rental_uris":{"android":"levelo://app?vid=7da48e77-1a22-4c7e-a9dc-6f60aefa4f34","ios":"levelo://app?vid=7da48e77-1a22-4c7e-a9dc-6f60aefa4f34"},"vehicle_type_id":"4","last_reported":1725908820,"current_range_meters":31200,"station_id":"ce4bhqp2rcd13ifvqhng","pricing_plan_id":"cebpf4jnsgd1na2vs0mg"},{"bike_id":"071d5887-132e-4401-8ffb-8567f8b67c31","system_id":"levelo_inurba_marseille","lat":43.317557,"lon":5.390173,"is_reserved":false,"is_disabled":false,"rental_uris":{"android":"levelo://app?vid=071d5887-132e-4401-8ffb-8567f8b67c31","ios":"levelo://app?vid=071d5887-132e-4401-8ffb-8567f8b67c31"},"vehicle_type_id":"4","last_reported":1725908820,"current_range_meters":9200,"station_id":"ce4bhqp2rcd13ifvqhng","pricing_plan_id":"cebpf4jnsgd1na2vs0mg"},{"bike_id":"962fc77d-e054-4dec-b79e-7600e522b672","system_id":"levelo_inurba_marseille","lat":43.317557,"lon":5.390173,"is_reserved":false,"is_disabled":false,"rental_uris":{"android":"levelo://app?vid=962fc77d-e054-4dec-b79e-7600e522b672","ios":"levelo://app?vid=962fc77d-e054-4dec-b79e-7600e522b672"},"vehicle_type_id":"4","last_reported":1725908820,"current_range_meters":19600,"station_id":"ce4bhqp2rcd13ifvqhng","pricing_plan_id":"cebpf4jnsgd1na2vs0mg"},{"bike_id":"82b8d6a9-34d6-4add-b029-1fc2325ea092","system_id":"levelo_inurba_marseille","lat":43.317557,"lon":5.390173,"is_reserved":false,"is_disabled":false,"rental_uris":{"android":"levelo://app?vid=82b8d6a9-34d6-4add-b029-1fc2325ea092","ios":"levelo://app?vid=82b8d6a9-34d6-4add-b029-1fc2325ea092"},"vehicle_type_id":"4","last_reported":1725908820,"current_range_meters":10400,"station_id":"ce4bhqp2rcd13ifvqhng","pricing_plan_id":"cebpf4jnsgd1na2vs0mg"},{"bike_id":"964e4a45-8764-4cc6-995a-a25fb2c66f48","system_id":"levelo_inurba_marseille","lat":43.317557,"lon":5.390173,"is_reserved":false,"is_disabled":false,"rental_uris":{"android":"levelo://app?vid=964e4a45-8764-4cc6-995a-a25fb2c66f48","ios":"levelo://app?vid=964e4a45-8764-4cc6-995a-a25fb2c66f48"},"vehicle_type_id":"4","last_reported":1725908820,"current_range_meters":28000,"station_id":"ce4bhqp2rcd13ifvqhng","pricing_plan_id":"cebpf4jnsgd1na2vs0mg"},{"bike_id":"469f3b55-d927-45a9-af43-27e44ef3cacc","system_id":"levelo_inurba_marseille","lat":43.31755,"lon":5.39016,"is_reserved":false,"is_disabled":false,"rental_uris":{"android":"levelo://app?vid=469f3b55-d927-45a9-af43-27e44ef3cacc","ios":"levelo://app?vid=469f3b55-d927-45a9-af43-27e44ef3cacc"},"vehicle_type_id":"4","last_reported":1725908820,"current_range_meters":9600,"station_id":"ce4bhqp2rcd13ifvqhng","pricing_plan_id":"cebpf4jnsgd1na2vs0mg"},{"bike_id":"4d43ce63-2f86-4521-b911-0b32c647877d","system_id":"levelo_inurba_marseille","lat":43.317557,"lon":5.390173,"is_reserved":false,"is_disabled":false,"rental_uris":{"android":"levelo://app?vid=4d43ce63-2f86-4521-b911-0b32c647877d","ios":"levelo://app?vid=4d43ce63-2f86-4521-b911-0b32c647877d"},"vehicle_type_id":"4","last_reported":1725908820,"current_range_meters":18800,"station_id":"ce4bhqp2rcd13ifvqhng","pricing_plan_id":"cebpf4jnsgd1na2vs0mg"},{"bike_id":"1859df57-cb64-40ba-a99b-0252eadc8088","system_id":"levelo_inurba_marseille","lat":43.3176,"lon":5.39016,"is_reserved":false,"is_disabled":false,"rental_uris":{"android":"levelo://app?vid=1859df57-cb64-40ba-a99b-0252eadc8088","ios":"levelo://app?vid=1859df57-cb64-40ba-a99b-0252eadc8088"},"vehicle_type_id":"4","last_reported":1725908820,"current_range_meters":23600,"station_id":"ce4bhqp2rcd13ifvqhng","pricing_plan_id":"cebpf4jnsgd1na2vs0mg"},{"bike_id":"c1720d9a-96a0-468a-976b-f5a413c4466f","system_id":"levelo_inurba_marseille","lat":43.317557,"lon":5.390173,"is_reserved":false,"is_disabled":false,"rental_uris":{"android":"levelo://app?vid=c1720d9a-96a0-468a-976b-f5a413c4466f","ios":"levelo://app?vid=c1720d9a-96a0-468a-976b-f5a413c4466f"},"vehicle_type_id":"4","last_reported":1725908820,"current_range_meters":9200,"station_id":"ce4bhqp2rcd13ifvqhng","pricing_plan_id":"cebpf4jnsgd1na2vs0mg"},{"bike_id":"f76c6a89-1cfc-4a47-8f3c-e0d036bfaffe","system_id":"levelo_inurba_marseille","lat":43.317557,"lon":5.390173,"is_reserved":false,"is_disabled":false,"rental_uris":{"android":"levelo://app?vid=f76c6a89-1cfc-4a47-8f3c-e0d036bfaffe","ios":"levelo://app?vid=f76c6a89-1cfc-4a47-8f3c-e0d036bfaffe"},"vehicle_type_id":"4","last_reported":1725908820,"current_range_meters":24800,"station_id":"ce4bhqp2rcd13ifvqhng","pricing_plan_id":"cebpf4jnsgd1na2vs0mg"},{"bike_id":"01cc83f9-9650-4e9d-8a3b-a55632f27eca","system_id":"levelo_inurba_marseille","lat":43.317557,"lon":5.390173,"is_reserved":false,"is_disabled":false,"rental_uris":{"android":"levelo://app?vid=01cc83f9-9650-4e9d-8a3b-a55632f27eca","ios":"levelo://app?vid=01cc83f9-9650-4e9d-8a3b-a55632f27eca"},"vehicle_type_id":"4","last_reported":1725908820,"current_range_meters":14800,"station_id":"ce4bhqp2rcd13ifvqhng","pricing_plan_id":"cebpf4jnsgd1na2vs0mg"},{"bike_id":"ff50a1b3-e84d-4e81-b7e8-122b6fd58d91","system_id":"levelo_inurba_marseille","lat":43.317557,"lon":5.390173,"is_reserved":false,"is_disabled":false,"rental_uris":{"android":"levelo://app?vid=ff50a1b3-e84d-4e81-b7e8-122b6fd58d91","ios":"levelo://app?vid=ff50a1b3-e84d-4e81-b7e8-122b6fd58d91"},"vehicle_type_id":"4","last_reported":1725908820,"current_range_meters":6800,"station_id":"ce4bhqp2rcd13ifvqhng","pricing_plan_id":"cebpf4jnsgd1na2vs0mg"},{"bike_id":"726b5e0a-f6df-45ed-8c82-e10efd5fe19b","system_id":"levelo_inurba_marseille","lat":43.317557,"lon":5.390173,"is_reserved":false,"is_disabled":false,"rental_uris":{"android":"levelo://app?vid=726b5e0a-f6df-45ed-8c82-e10efd5fe19b","ios":"levelo://app?vid=726b5e0a-f6df-45ed-8c82-e10efd5fe19b"},"vehicle_type_id":"4","last_reported":1725908820,"current_range_meters":17600,"station_id":"ce4bhqp2rcd13ifvqhng","pricing_plan_id":"cebpf4jnsgd1na2vs0mg"},{"bike_id":"006dfba6-d4e5-48b0-9c1a-60dd346cf114","system_id":"levelo_inurba_marseille","lat":43.317557,"lon":5.390173,"is_reserved":false,"is_disabled":false,"rental_uris":{"android":"levelo://app?vid=006dfba6-d4e5-48b0-9c1a-60dd346cf114","ios":"levelo://app?vid=006dfba6-d4e5-48b0-9c1a-60dd346cf114"},"vehicle_type_id":"4","last_reported":1725908820,"current_range_meters":1200,"station_id":"ce4bhqp2rcd13ifvqhng","pricing_plan_id":"cebpf4jnsgd1na2vs0mg"},{"bike_id":"9bfc7f83-9a3b-48db-89bc-7ba54061be6c","system_id":"levelo_inurba_marseille","lat":43.317557,"lon":5.390173,"is_reserved":false,"is_disabled":false,"rental_uris":{"android":"levelo://app?vid=9bfc7f83-9a3b-48db-89bc-7ba54061be6c","ios":"levelo://app?vid=9bfc7f83-9a3b-48db-89bc-7ba54061be6c"},"vehicle_type_id":"4","last_reported":1725908820,"current_range_meters":30800,"station_id":"ce4bhqp2rcd13ifvqhng","pricing_plan_id":"cebpf4jnsgd1na2vs0mg"},{"bike_id":"caa8aae7-c6bb-4728-9f4f-3149e84000d9","system_id":"levelo_inurba_marseille","lat":43.31762,"lon":5.3903,"is_reserved":false,"is_disabled":false,"rental_uris":{"android":"levelo://app?vid=caa8aae7-c6bb-4728-9f4f-3149e84000d9","ios":"levelo://app?vid=caa8aae7-c6bb-4728-9f4f-3149e84000d9"},"vehicle_type_id":"4","last_reported":1725908820,"current_range_meters":18400,"station_id":"ce4bhqp2rcd13ifvqhng","pricing_plan_id":"cebpf4jnsgd1na2vs0mg"},{"bike_id":"383797c6-bd37-4f67-81ad-d5bced8d80ac","system_id":"levelo_inurba_marseille","lat":43.298037,"lon":5.381066,"is_reserved":false,"is_disabled":false,"rental_uris":{"android":"levelo://app?vid=383797c6-bd37-4f67-81ad-d5bced8d80ac","ios":"levelo://app?vid=383797c6-bd37-4f67-81ad-d5bced8d80ac"},"vehicle_type_id":"4","last_reported":1725908820,"current_range_meters":7600,"station_id":"ce4bgip2rcd13ifvqbb0","pricing_plan_id":"cebpf4jnsgd1na2vs0mg"},{"bike_id":"e1865e16-dfa0-4e27-94b3-a79d09edd87c","system_id":"levelo_inurba_marseille","lat":43.30444,"lon":5.38888,"is_reserved":false,"is_disabled":false,"rental_uris":{"android":"levelo://app?vid=e1865e16-dfa0-4e27-94b3-a79d09edd87c","ios":"levelo://app?vid=e1865e16-dfa0-4e27-94b3-a79d09edd87c"},"vehicle_type_id":"4","last_reported":1725908820,"current_range_meters":23600,"station_id":"ce4bgk12rcd13ifvqbi0","pricing_plan_id":"cebpf4jnsgd1na2vs0mg"},{"bike_id":"390dd774-62c2-4be5-8f78-3211a8421236","system_id":"levelo_inurba_marseille","lat":43.3043,"lon":5.38885,"is_reserved":false,"is_disabled":false,"rental_uris":{"android":"levelo://app?vid=390dd774-62c2-4be5-8f78-3211a8421236","ios":"levelo://app?vid=390dd774-62c2-4be5-8f78-3211a8421236"},"vehicle_type_id":"4","last_reported":1725908820,"current_range_meters":31600,"station_id":"ce4bgk12rcd13ifvqbi0","pricing_plan_id":"cebpf4jnsgd1na2vs0mg"},{"bike_id":"2442196d-1504-4399-8122-acce3bab2a8d","system_id":"levelo_inurba_marseille","lat":43.30425,"lon":5.38885,"is_reserved":false,"is_disabled":false,"rental_uris":{"android":"levelo://app?vid=2442196d-1504-4399-8122-acce3bab2a8d","ios":"levelo://app?vid=2442196d-1504-4399-8122-acce3bab2a8d"},"vehicle_type_id":"4","last_reported":1725908820,"current_range_meters":14400,"station_id":"","pricing_plan_id":"cebpf4jnsgd1na2vs0mg"},{"bike_id":"5af7c326-41c7-41db-8342-d4b4a7c88aad","system_id":"levelo_inurba_marseille","lat":43.298037,"lon":5.381066,"is_reserved":false,"is_disabled":false,"rental_uris":{"android":"levelo://app?vid=5af7c326-41c7-41db-8342-d4b4a7c88aad","ios":"levelo://app?vid=5af7c326-41c7-41db-8342-d4b4a7c88aad"},"vehicle_type_id":"4","last_reported":1725908820,"current_range_meters":28400,"station_id":"ce4bgip2rcd13ifvqbb0","pricing_plan_id":"cebpf4jnsgd1na2vs0mg"},{"bike_id":"0dcc723c-2ec5-4715-815a-5456b0737d94","system_id":"levelo_inurba_marseille","lat":43.295748,"lon":5.37522,"is_reserved":false,"is_disabled":false,"rental_uris":{"android":"levelo://app?vid=0dcc723c-2ec5-4715-815a-5456b0737d94","ios":"levelo://app?vid=0dcc723c-2ec5-4715-815a-5456b0737d94"},"vehicle_type_id":"4","last_reported":1725908820,"current_range_meters":0,"station_id":"ce4bgh92rcd13ifvqb50","pricing_plan_id":"cebpf4jnsgd1na2vs0mg"},{"bike_id":"cf2ac370-fbeb-4963-aa82-3a640cb8d577","system_id":"levelo_inurba_marseille","lat":43.296263,"lon":5.377094,"is_reserved":false,"is_disabled":false,"rental_uris":{"android":"levelo://app?vid=cf2ac370-fbeb-4963-aa82-3a640cb8d577","ios":"levelo://app?vid=cf2ac370-fbeb-4963-aa82-3a640cb8d577"},"vehicle_type_id":"4","last_reported":1725908820,"current_range_meters":16800,"station_id":"ce4bgi92rcd13ifvqb90","pricing_plan_id":"cebpf4jnsgd1na2vs0mg"},{"bike_id":"d49f114d-af84-44cb-bf9a-46bebc0aeda6","system_id":"levelo_inurba_marseille","lat":43.296277,"lon":5.377108,"is_reserved":false,"is_disabled":false,"rental_uris":{"android":"levelo://app?vid=d49f114d-af84-44cb-bf9a-46bebc0aeda6","ios":"levelo://app?vid=d49f114d-af84-44cb-bf9a-46bebc0aeda6"},"vehicle_type_id":"4","last_reported":1725908820,"current_range_meters":10400,"station_id":"ce4bgi92rcd13ifvqb90","pricing_plan_id":"cebpf4jnsgd1na2vs0mg"},{"bike_id":"a41cb07c-51a9-4ffa-9608-bbde584522ac","system_id":"levelo_inurba_marseille","lat":43.296277,"lon":5.377108,"is_reserved":false,"is_disabled":false,"rental_uris":{"android":"levelo://app?vid=a41cb07c-51a9-4ffa-9608-bbde584522ac","ios":"levelo://app?vid=a41cb07c-51a9-4ffa-9608-bbde584522ac"},"vehicle_type_id":"4","last_reported":1725908820,"current_range_meters":22400,"station_id":"ce4bgi92rcd13ifvqb90","pricing_plan_id":"cebpf4jnsgd1na2vs0mg"},{"bike_id":"a440afca-1bcf-47f9-8144-5a44aa21840a","system_id":"levelo_inurba_marseille","lat":43.296263,"lon":5.377094,"is_reserved":false,"is_disabled":false,"rental_uris":{"android":"levelo://app?vid=a440afca-1bcf-47f9-8144-5a44aa21840a","ios":"levelo://app?vid=a440afca-1bcf-47f9-8144-5a44aa21840a"},"vehicle_type_id":"4","last_reported":1725908820,"current_range_meters":14400,"station_id":"ce4bgi92rcd13ifvqb90","pricing_plan_id":"cebpf4jnsgd1na2vs0mg"},{"bike_id":"4998c1b4-a1e1-49c5-8d81-6b7e92a058e3","system_id":"levelo_inurba_marseille","lat":43.30418,"lon":5.38897,"is_reserved":false,"is_disabled":false,"rental_uris":{"android":"levelo://app?vid=4998c1b4-a1e1-49c5-8d81-6b7e92a058e3","ios":"levelo://app?vid=4998c1b4-a1e1-49c5-8d81-6b7e92a058e3"},"vehicle_type_id":"4","last_reported":1725908820,"current_range_meters":31600,"station_id":"ce4bgk12rcd13ifvqbi0","pricing_plan_id":"cebpf4jnsgd1na2vs0mg"},{"bike_id":"2bc3310b-dacd-42e8-a66d-09471e0599f7","system_id":"levelo_inurba_marseille","lat":43.304278,"lon":5.388868,"is_reserved":false,"is_disabled":false,"rental_uris":{"android":"levelo://app?vid=2bc3310b-dacd-42e8-a66d-09471e0599f7","ios":"levelo://app?vid=2bc3310b-dacd-42e8-a66d-09471e0599f7"},"vehicle_type_id":"4","last_reported":1725908820,"current_range_meters":27200,"station_id":"ce4bgk12rcd13ifvqbi0","pricing_plan_id":"cebpf4jnsgd1na2vs0mg"},{"bike_id":"db5832f1-2f31-4f97-b79f-a761eee9d76b","system_id":"levelo_inurba_marseille","lat":43.299724,"lon":5.384848,"is_reserved":false,"is_disabled":false,"rental_uris":{"android":"levelo://app?vid=db5832f1-2f31-4f97-b79f-a761eee9d76b","ios":"levelo://app?vid=db5832f1-2f31-4f97-b79f-a761eee9d76b"},"vehicle_type_id":"4","last_reported":1725908820,"current_range_meters":18400,"station_id":"ce4bgj92rcd13ifvqbd0","pricing_plan_id":"cebpf4jnsgd1na2vs0mg"},{"bike_id":"5ea343c1-6d26-4c6e-800f-714fa3c1e2de","system_id":"levelo_inurba_marseille","lat":43.305994,"lon":5.393687,"is_reserved":false,"is_disabled":false,"rental_uris":{"android":"levelo://app?vid=5ea343c1-6d26-4c6e-800f-714fa3c1e2de","ios":"levelo://app?vid=5ea343c1-6d26-4c6e-800f-714fa3c1e2de"},"vehicle_type_id":"4","last_reported":1725908820,"current_range_meters":4000,"station_id":"ce4bh0p2rcd13ifvqd80","pricing_plan_id":"cebpf4jnsgd1na2vs0mg"},{"bike_id":"0f1aee4e-0433-4b9b-8256-139bdfd970eb","system_id":"levelo_inurba_marseille","lat":43.32367,"lon":5.388836,"is_reserved":false,"is_disabled":false,"rental_uris":{"android":"levelo://app?vid=0f1aee4e-0433-4b9b-8256-139bdfd970eb","ios":"levelo://app?vid=0f1aee4e-0433-4b9b-8256-139bdfd970eb"},"vehicle_type_id":"4","last_reported":1725908820,"current_range_meters":24400,"station_id":"ce4bhqp2rcd13ifvqhog","pricing_plan_id":"cebpf4jnsgd1na2vs0mg"},{"bike_id":"7b3be378-99cc-485f-beb1-ad89c32e25ab","system_id":"levelo_inurba_marseille","lat":43.32367,"lon":5.38883,"is_reserved":false,"is_disabled":false,"rental_uris":{"android":"levelo://app?vid=7b3be378-99cc-485f-beb1-ad89c32e25ab","ios":"levelo://app?vid=7b3be378-99cc-485f-beb1-ad89c32e25ab"},"vehicle_type_id":"4","last_reported":1725908820,"current_range_meters":8800,"station_id":"ce4bhqp2rcd13ifvqhog","pricing_plan_id":"cebpf4jnsgd1na2vs0mg"},{"bike_id":"35edce4e-d766-46a4-8225-dbd1585f3b66","system_id":"levelo_inurba_marseille","lat":43.32367,"lon":5.388836,"is_reserved":false,"is_disabled":false,"rental_uris":{"android":"levelo://app?vid=35edce4e-d766-46a4-8225-dbd1585f3b66","ios":"levelo://app?vid=35edce4e-d766-46a4-8225-dbd1585f3b66"},"vehicle_type_id":"4","last_reported":1725908820,"current_range_meters":16400,"station_id":"ce4bhqp2rcd13ifvqhog","pricing_plan_id":"cebpf4jnsgd1na2vs0mg"},{"bike_id":"d46255ba-c505-4d65-9a11-b745c4469e04","system_id":"levelo_inurba_marseille","lat":43.32367,"lon":5.388836,"is_reserved":false,"is_disabled":false,"rental_uris":{"android":"levelo://app?vid=d46255ba-c505-4d65-9a11-b745c4469e04","ios":"levelo://app?vid=d46255ba-c505-4d65-9a11-b745c4469e04"},"vehicle_type_id":"4","last_reported":1725908820,"current_range_meters":0,"station_id":"ce4bhqp2rcd13ifvqhog","pricing_plan_id":"cebpf4jnsgd1na2vs0mg"},{"bike_id":"e70ee1bb-a26e-4052-9540-28721896adb2","system_id":"levelo_inurba_marseille","lat":43.32366,"lon":5.38885,"is_reserved":false,"is_disabled":false,"rental_uris":{"android":"levelo://app?vid=e70ee1bb-a26e-4052-9540-28721896adb2","ios":"levelo://app?vid=e70ee1bb-a26e-4052-9540-28721896adb2"},"vehicle_type_id":"4","last_reported":1725908820,"current_range_meters":4400,"station_id":"ce4bhqp2rcd13ifvqhog","pricing_plan_id":"cebpf4jnsgd1na2vs0mg"},{"bike_id":"b975319d-6416-4db1-9e62-7e7fbac1d44e","system_id":"levelo_inurba_marseille","lat":43.32367,"lon":5.388836,"is_reserved":false,"is_disabled":false,"rental_uris":{"android":"levelo://app?vid=b975319d-6416-4db1-9e62-7e7fbac1d44e","ios":"levelo://app?vid=b975319d-6416-4db1-9e62-7e7fbac1d44e"},"vehicle_type_id":"4","last_reported":1725908820,"current_range_meters":800,"station_id":"ce4bhqp2rcd13ifvqhog","pricing_plan_id":"cebpf4jnsgd1na2vs0mg"},{"bike_id":"0a7cfa17-d7c4-4d24-979d-9c6062a81b39","system_id":"levelo_inurba_marseille","lat":43.32367,"lon":5.388836,"is_reserved":false,"is_disabled":false,"rental_uris":{"android":"levelo://app?vid=0a7cfa17-d7c4-4d24-979d-9c6062a81b39","ios":"levelo://app?vid=0a7cfa17-d7c4-4d24-979d-9c6062a81b39"},"vehicle_type_id":"4","last_reported":1725908820,"current_range_meters":20000,"station_id":"ce4bhqp2rcd13ifvqhog","pricing_plan_id":"cebpf4jnsgd1na2vs0mg"},{"bike_id":"2c86e902-eca6-4fe5-88cf-41ff27469b4d","system_id":"levelo_inurba_marseille","lat":43.32367,"lon":5.388836,"is_reserved":false,"is_disabled":false,"rental_uris":{"android":"levelo://app?vid=2c86e902-eca6-4fe5-88cf-41ff27469b4d","ios":"levelo://app?vid=2c86e902-eca6-4fe5-88cf-41ff27469b4d"},"vehicle_type_id":"4","last_reported":1725908820,"current_range_meters":28000,"station_id":"ce4bhqp2rcd13ifvqhog","pricing_plan_id":"cebpf4jnsgd1na2vs0mg"},{"bike_id":"19925d1e-e182-41c6-b5c7-a118e779ff7b","system_id":"levelo_inurba_marseille","lat":43.32367,"lon":5.388836,"is_reserved":false,"is_disabled":false,"rental_uris":{"android":"levelo://app?vid=19925d1e-e182-41c6-b5c7-a118e779ff7b","ios":"levelo://app?vid=19925d1e-e182-41c6-b5c7-a118e779ff7b"},"vehicle_type_id":"4","last_reported":1725908820,"current_range_meters":23200,"station_id":"ce4bhqp2rcd13ifvqhog","pricing_plan_id":"cebpf4jnsgd1na2vs0mg"},{"bike_id":"108d1419-1067-4312-940e-7a1ca6dd2098","system_id":"levelo_inurba_marseille","lat":43.32367,"lon":5.388836,"is_reserved":false,"is_disabled":false,"rental_uris":{"android":"levelo://app?vid=108d1419-1067-4312-940e-7a1ca6dd2098","ios":"levelo://app?vid=108d1419-1067-4312-940e-7a1ca6dd2098"},"vehicle_type_id":"4","last_reported":1725908820,"current_range_meters":17600,"station_id":"ce4bhqp2rcd13ifvqhog","pricing_plan_id":"cebpf4jnsgd1na2vs0mg"},{"bike_id":"393a23e2-a248-4a81-8d18-99f86620f075","system_id":"levelo_inurba_marseille","lat":43.32367,"lon":5.388836,"is_reserved":false,"is_disabled":false,"rental_uris":{"android":"levelo://app?vid=393a23e2-a248-4a81-8d18-99f86620f075","ios":"levelo://app?vid=393a23e2-a248-4a81-8d18-99f86620f075"},"vehicle_type_id":"4","last_reported":1725908820,"current_range_meters":31200,"station_id":"ce4bhqp2rcd13ifvqhog","pricing_plan_id":"cebpf4jnsgd1na2vs0mg"},{"bike_id":"956c348e-0be6-48da-adfd-089f36ca5259","system_id":"levelo_inurba_marseille","lat":43.32367,"lon":5.388836,"is_reserved":false,"is_disabled":false,"rental_uris":{"android":"levelo://app?vid=956c348e-0be6-48da-adfd-089f36ca5259","ios":"levelo://app?vid=956c348e-0be6-48da-adfd-089f36ca5259"},"vehicle_type_id":"4","last_reported":1725908820,"current_range_meters":22000,"station_id":"ce4bhqp2rcd13ifvqhog","pricing_plan_id":"cebpf4jnsgd1na2vs0mg"},{"bike_id":"70c3fdbb-b49d-48cc-bfa5-d35424b6711b","system_id":"levelo_inurba_marseille","lat":43.29602,"lon":5.381084,"is_reserved":false,"is_disabled":false,"rental_uris":{"android":"levelo://app?vid=70c3fdbb-b49d-48cc-bfa5-d35424b6711b","ios":"levelo://app?vid=70c3fdbb-b49d-48cc-bfa5-d35424b6711b"},"vehicle_type_id":"4","last_reported":1725908820,"current_range_meters":31200,"station_id":"ce4bgl12rcd13ifvqbo0","pricing_plan_id":"cebpf4jnsgd1na2vs0mg"},{"bike_id":"5ad86fd0-de56-4da1-8eff-844e8c9eeb22","system_id":"levelo_inurba_marseille","lat":43.3237,"lon":5.38926,"is_reserved":false,"is_disabled":false,"rental_uris":{"android":"levelo://app?vid=5ad86fd0-de56-4da1-8eff-844e8c9eeb22","ios":"levelo://app?vid=5ad86fd0-de56-4da1-8eff-844e8c9eeb22"},"vehicle_type_id":"4","last_reported":1725908820,"current_range_meters":16800,"station_id":"","pricing_plan_id":"cebpf4jnsgd1na2vs0mg"},{"bike_id":"9b2c8580-989c-40bd-86a6-208a33f0fed9","system_id":"levelo_inurba_marseille","lat":43.29602,"lon":5.381084,"is_reserved":false,"is_disabled":false,"rental_uris":{"android":"levelo://app?vid=9b2c8580-989c-40bd-86a6-208a33f0fed9","ios":"levelo://app?vid=9b2c8580-989c-40bd-86a6-208a33f0fed9"},"vehicle_type_id":"4","last_reported":1725908820,"current_range_meters":24000,"station_id":"ce4bgl12rcd13ifvqbo0","pricing_plan_id":"cebpf4jnsgd1na2vs0mg"},{"bike_id":"963cbd33-150a-4bbf-97fa-3baf96726694","system_id":"levelo_inurba_marseille","lat":43.292749,"lon":5.368402,"is_reserved":false,"is_disabled":false,"rental_uris":{"android":"levelo://app?vid=963cbd33-150a-4bbf-97fa-3baf96726694","ios":"levelo://app?vid=963cbd33-150a-4bbf-97fa-3baf96726694"},"vehicle_type_id":"4","last_reported":1725908820,"current_range_meters":0,"station_id":"ce4bhbp2rcd13ifvqesg","pricing_plan_id":"cebpf4jnsgd1na2vs0mg"},{"bike_id":"8e447e97-f646-44e8-bbd4-fb9e8872b9c6","system_id":"levelo_inurba_marseille","lat":43.29281,"lon":5.36856,"is_reserved":false,"is_disabled":false,"rental_uris":{"android":"levelo://app?vid=8e447e97-f646-44e8-bbd4-fb9e8872b9c6","ios":"levelo://app?vid=8e447e97-f646-44e8-bbd4-fb9e8872b9c6"},"vehicle_type_id":"4","last_reported":1725908820,"current_range_meters":0,"station_id":"ce4bhbp2rcd13ifvqesg","pricing_plan_id":"cebpf4jnsgd1na2vs0mg"},{"bike_id":"485a28f3-9b06-482e-ab0e-200bc1acd3a2","system_id":"levelo_inurba_marseille","lat":43.30603,"lon":5.39341,"is_reserved":false,"is_disabled":false,"rental_uris":{"android":"levelo://app?vid=485a28f3-9b06-482e-ab0e-200bc1acd3a2","ios":"levelo://app?vid=485a28f3-9b06-482e-ab0e-200bc1acd3a2"},"vehicle_type_id":"4","last_reported":1725908820,"current_range_meters":6400,"station_id":"ce4bh0p2rcd13ifvqd80","pricing_plan_id":"cebpf4jnsgd1na2vs0mg"},{"bike_id":"dc9abbbc-1f93-4d5f-8224-afe2747f07e9","system_id":"levelo_inurba_marseille","lat":43.293009,"lon":5.374584,"is_reserved":false,"is_disabled":false,"rental_uris":{"android":"levelo://app?vid=dc9abbbc-1f93-4d5f-8224-afe2747f07e9","ios":"levelo://app?vid=dc9abbbc-1f93-4d5f-8224-afe2747f07e9"},"vehicle_type_id":"4","last_reported":1725908820,"current_range_meters":1200,"station_id":"ce4bgi12rcd13ifvqb70","pricing_plan_id":"cebpf4jnsgd1na2vs0mg"},{"bike_id":"9ff691f6-4cca-452f-9d41-fc1ba17f855e","system_id":"levelo_inurba_marseille","lat":43.305994,"lon":5.393687,"is_reserved":false,"is_disabled":false,"rental_uris":{"android":"levelo://app?vid=9ff691f6-4cca-452f-9d41-fc1ba17f855e","ios":"levelo://app?vid=9ff691f6-4cca-452f-9d41-fc1ba17f855e"},"vehicle_type_id":"4","last_reported":1725908820,"current_range_meters":28800,"station_id":"ce4bh0p2rcd13ifvqd80","pricing_plan_id":"cebpf4jnsgd1na2vs0mg"},{"bike_id":"a5a8a082-0d38-4696-9855-ca690a4a4785","system_id":"levelo_inurba_marseille","lat":43.30594,"lon":5.39353,"is_reserved":false,"is_disabled":false,"rental_uris":{"android":"levelo://app?vid=a5a8a082-0d38-4696-9855-ca690a4a4785","ios":"levelo://app?vid=a5a8a082-0d38-4696-9855-ca690a4a4785"},"vehicle_type_id":"4","last_reported":1725908820,"current_range_meters":800,"station_id":"ce4bh0p2rcd13ifvqd80","pricing_plan_id":"cebpf4jnsgd1na2vs0mg"},{"bike_id":"7b44e583-1256-4614-95ef-7ec3997b298f","system_id":"levelo_inurba_marseille","lat":43.30085,"lon":5.390856,"is_reserved":false,"is_disabled":false,"rental_uris":{"android":"levelo://app?vid=7b44e583-1256-4614-95ef-7ec3997b298f","ios":"levelo://app?vid=7b44e583-1256-4614-95ef-7ec3997b298f"},"vehicle_type_id":"4","last_reported":1725908820,"current_range_meters":31600,"station_id":"ce4bh192rcd13ifvqdb0","pricing_plan_id":"cebpf4jnsgd1na2vs0mg"},{"bike_id":"9d9e88e0-7d8a-4ea3-aab5-59a866beddf8","system_id":"levelo_inurba_marseille","lat":43.30602,"lon":5.39361,"is_reserved":false,"is_disabled":false,"rental_uris":{"android":"levelo://app?vid=9d9e88e0-7d8a-4ea3-aab5-59a866beddf8","ios":"levelo://app?vid=9d9e88e0-7d8a-4ea3-aab5-59a866beddf8"},"vehicle_type_id":"4","last_reported":1725908820,"current_range_meters":24400,"station_id":"ce4bh0p2rcd13ifvqd80","pricing_plan_id":"cebpf4jnsgd1na2vs0mg"},{"bike_id":"bdd3a71b-b3f5-4372-9950-1c95d0a8562b","system_id":"levelo_inurba_marseille","lat":43.305994,"lon":5.393687,"is_reserved":false,"is_disabled":false,"rental_uris":{"android":"levelo://app?vid=bdd3a71b-b3f5-4372-9950-1c95d0a8562b","ios":"levelo://app?vid=bdd3a71b-b3f5-4372-9950-1c95d0a8562b"},"vehicle_type_id":"4","last_reported":1725908820,"current_range_meters":22400,"station_id":"ce4bh0p2rcd13ifvqd80","pricing_plan_id":"cebpf4jnsgd1na2vs0mg"},{"bike_id":"321df28f-9918-464b-91ef-d0b3cfa5e3d0","system_id":"levelo_inurba_marseille","lat":43.30596,"lon":5.393584,"is_reserved":false,"is_disabled":false,"rental_uris":{"android":"levelo://app?vid=321df28f-9918-464b-91ef-d0b3cfa5e3d0","ios":"levelo://app?vid=321df28f-9918-464b-91ef-d0b3cfa5e3d0"},"vehicle_type_id":"4","last_reported":1725908820,"current_range_meters":22400,"station_id":"ce4bh0p2rcd13ifvqd80","pricing_plan_id":"cebpf4jnsgd1na2vs0mg"},{"bike_id":"4978933b-8592-46d4-9db3-8ff26c6050a9","system_id":"levelo_inurba_marseille","lat":43.293009,"lon":5.374584,"is_reserved":false,"is_disabled":false,"rental_uris":{"android":"levelo://app?vid=4978933b-8592-46d4-9db3-8ff26c6050a9","ios":"levelo://app?vid=4978933b-8592-46d4-9db3-8ff26c6050a9"},"vehicle_type_id":"4","last_reported":1725908820,"current_range_meters":4400,"station_id":"ce4bgi12rcd13ifvqb70","pricing_plan_id":"cebpf4jnsgd1na2vs0mg"},{"bike_id":"23a27ced-fd4a-41c9-8c66-eb31ba9c8258","system_id":"levelo_inurba_marseille","lat":43.30591,"lon":5.39364,"is_reserved":false,"is_disabled":false,"rental_uris":{"android":"levelo://app?vid=23a27ced-fd4a-41c9-8c66-eb31ba9c8258","ios":"levelo://app?vid=23a27ced-fd4a-41c9-8c66-eb31ba9c8258"},"vehicle_type_id":"4","last_reported":1725908820,"current_range_meters":20400,"station_id":"ce4bh0p2rcd13ifvqd80","pricing_plan_id":"cebpf4jnsgd1na2vs0mg"},{"bike_id":"156c3f0d-0d02-4e70-82b1-cc12249c31dd","system_id":"levelo_inurba_marseille","lat":43.293009,"lon":5.374584,"is_reserved":false,"is_disabled":false,"rental_uris":{"android":"levelo://app?vid=156c3f0d-0d02-4e70-82b1-cc12249c31dd","ios":"levelo://app?vid=156c3f0d-0d02-4e70-82b1-cc12249c31dd"},"vehicle_type_id":"4","last_reported":1725908820,"current_range_meters":24000,"station_id":"ce4bgi12rcd13ifvqb70","pricing_plan_id":"cebpf4jnsgd1na2vs0mg"},{"bike_id":"eeff4d8b-888c-4bf2-977d-347e84c1b044","system_id":"levelo_inurba_marseille","lat":43.293009,"lon":5.374584,"is_reserved":false,"is_disabled":false,"rental_uris":{"android":"levelo://app?vid=eeff4d8b-888c-4bf2-977d-347e84c1b044","ios":"levelo://app?vid=eeff4d8b-888c-4bf2-977d-347e84c1b044"},"vehicle_type_id":"4","last_reported":1725908820,"current_range_meters":4000,"station_id":"ce4bgi12rcd13ifvqb70","pricing_plan_id":"cebpf4jnsgd1na2vs0mg"},{"bike_id":"9cb2c375-b70d-4e70-9de2-11c0bd963fd6","system_id":"levelo_inurba_marseille","lat":43.2936,"lon":5.37835,"is_reserved":false,"is_disabled":false,"rental_uris":{"android":"levelo://app?vid=9cb2c375-b70d-4e70-9de2-11c0bd963fd6","ios":"levelo://app?vid=9cb2c375-b70d-4e70-9de2-11c0bd963fd6"},"vehicle_type_id":"4","last_reported":1725908820,"current_range_meters":3600,"station_id":"ce4bgjh2rcd13ifvqbf0","pricing_plan_id":"cebpf4jnsgd1na2vs0mg"},{"bike_id":"d01c2cf6-47f9-44c2-9417-f764291fbd74","system_id":"levelo_inurba_marseille","lat":43.29375,"lon":5.37851,"is_reserved":false,"is_disabled":false,"rental_uris":{"android":"levelo://app?vid=d01c2cf6-47f9-44c2-9417-f764291fbd74","ios":"levelo://app?vid=d01c2cf6-47f9-44c2-9417-f764291fbd74"},"vehicle_type_id":"4","last_reported":1725908820,"current_range_meters":31200,"station_id":"ce4bgjh2rcd13ifvqbf0","pricing_plan_id":"cebpf4jnsgd1na2vs0mg"},{"bike_id":"820712dd-e0a5-42b8-9ec0-0fd1f092474d","system_id":"levelo_inurba_marseille","lat":43.2937,"lon":5.37857,"is_reserved":false,"is_disabled":false,"rental_uris":{"android":"levelo://app?vid=820712dd-e0a5-42b8-9ec0-0fd1f092474d","ios":"levelo://app?vid=820712dd-e0a5-42b8-9ec0-0fd1f092474d"},"vehicle_type_id":"4","last_reported":1725908820,"current_range_meters":0,"station_id":"ce4bgjh2rcd13ifvqbf0","pricing_plan_id":"cebpf4jnsgd1na2vs0mg"},{"bike_id":"6f95e893-3c5e-4976-ae7a-77ae21476b98","system_id":"levelo_inurba_marseille","lat":43.2936,"lon":5.37835,"is_reserved":false,"is_disabled":false,"rental_uris":{"android":"levelo://app?vid=6f95e893-3c5e-4976-ae7a-77ae21476b98","ios":"levelo://app?vid=6f95e893-3c5e-4976-ae7a-77ae21476b98"},"vehicle_type_id":"4","last_reported":1725908820,"current_range_meters":16400,"station_id":"ce4bgjh2rcd13ifvqbf0","pricing_plan_id":"cebpf4jnsgd1na2vs0mg"},{"bike_id":"28c06f07-3bee-4d8d-9ba0-8d05f7e28c36","system_id":"levelo_inurba_marseille","lat":43.30085,"lon":5.390856,"is_reserved":false,"is_disabled":false,"rental_uris":{"android":"levelo://app?vid=28c06f07-3bee-4d8d-9ba0-8d05f7e28c36","ios":"levelo://app?vid=28c06f07-3bee-4d8d-9ba0-8d05f7e28c36"},"vehicle_type_id":"4","last_reported":1725908820,"current_range_meters":0,"station_id":"ce4bh192rcd13ifvqdb0","pricing_plan_id":"cebpf4jnsgd1na2vs0mg"},{"bike_id":"bc4cb401-432d-4c2c-a7fb-4f381d9c2208","system_id":"levelo_inurba_marseille","lat":43.29232,"lon":5.36054,"is_reserved":false,"is_disabled":false,"rental_uris":{"android":"levelo://app?vid=bc4cb401-432d-4c2c-a7fb-4f381d9c2208","ios":"levelo://app?vid=bc4cb401-432d-4c2c-a7fb-4f381d9c2208"},"vehicle_type_id":"4","last_reported":1725908820,"current_range_meters":0,"station_id":"ce4bhbh2rcd13ifvqeqg","pricing_plan_id":"cebpf4jnsgd1na2vs0mg"},{"bike_id":"0cd3a53f-8326-41dc-bd9f-f1f0998db0b5","system_id":"levelo_inurba_marseille","lat":43.29227,"lon":5.36077,"is_reserved":false,"is_disabled":false,"rental_uris":{"android":"levelo://app?vid=0cd3a53f-8326-41dc-bd9f-f1f0998db0b5","ios":"levelo://app?vid=0cd3a53f-8326-41dc-bd9f-f1f0998db0b5"},"vehicle_type_id":"4","last_reported":1725908820,"current_range_meters":30400,"station_id":"ce4bhbh2rcd13ifvqeqg","pricing_plan_id":"cebpf4jnsgd1na2vs0mg"},{"bike_id":"8ffa495e-27c4-46d8-8299-10ac929c89a7","system_id":"levelo_inurba_marseille","lat":43.29227,"lon":5.36069,"is_reserved":false,"is_disabled":false,"rental_uris":{"android":"levelo://app?vid=8ffa495e-27c4-46d8-8299-10ac929c89a7","ios":"levelo://app?vid=8ffa495e-27c4-46d8-8299-10ac929c89a7"},"vehicle_type_id":"4","last_reported":1725908820,"current_range_meters":31200,"station_id":"ce4bhbh2rcd13ifvqeqg","pricing_plan_id":"cebpf4jnsgd1na2vs0mg"},{"bike_id":"55a71dd9-02c9-4034-8bf7-54c6c0868358","system_id":"levelo_inurba_marseille","lat":43.300852,"lon":5.390859,"is_reserved":false,"is_disabled":false,"rental_uris":{"android":"levelo://app?vid=55a71dd9-02c9-4034-8bf7-54c6c0868358","ios":"levelo://app?vid=55a71dd9-02c9-4034-8bf7-54c6c0868358"},"vehicle_type_id":"4","last_reported":1725908820,"current_range_meters":16000,"station_id":"ce4bh192rcd13ifvqdb0","pricing_plan_id":"cebpf4jnsgd1na2vs0mg"},{"bike_id":"03276b07-b412-498a-91a0-ea267aaeccff","system_id":"levelo_inurba_marseille","lat":43.292242,"lon":5.360561,"is_reserved":false,"is_disabled":false,"rental_uris":{"android":"levelo://app?vid=03276b07-b412-498a-91a0-ea267aaeccff","ios":"levelo://app?vid=03276b07-b412-498a-91a0-ea267aaeccff"},"vehicle_type_id":"4","last_reported":1725908820,"current_range_meters":30400,"station_id":"ce4bhbh2rcd13ifvqeqg","pricing_plan_id":"cebpf4jnsgd1na2vs0mg"},{"bike_id":"80025bb9-0e4d-4e0e-b69d-73546dc7036e","system_id":"levelo_inurba_marseille","lat":43.292234,"lon":5.360481,"is_reserved":false,"is_disabled":false,"rental_uris":{"android":"levelo://app?vid=80025bb9-0e4d-4e0e-b69d-73546dc7036e","ios":"levelo://app?vid=80025bb9-0e4d-4e0e-b69d-73546dc7036e"},"vehicle_type_id":"4","last_reported":1725908820,"current_range_meters":30400,"station_id":"ce4bhbh2rcd13ifvqeqg","pricing_plan_id":"cebpf4jnsgd1na2vs0mg"},{"bike_id":"9eda2226-f9f5-426f-888b-b7c8447d9ae0","system_id":"levelo_inurba_marseille","lat":43.298764,"lon":5.388973,"is_reserved":false,"is_disabled":false,"rental_uris":{"android":"levelo://app?vid=9eda2226-f9f5-426f-888b-b7c8447d9ae0","ios":"levelo://app?vid=9eda2226-f9f5-426f-888b-b7c8447d9ae0"},"vehicle_type_id":"4","last_reported":1725908820,"current_range_meters":29600,"station_id":"ce4bh392rcd13ifvqdl0","pricing_plan_id":"cebpf4jnsgd1na2vs0mg"},{"bike_id":"b71ea7d5-ce89-425f-a60e-ef2da9c1a45d","system_id":"levelo_inurba_marseille","lat":43.291675,"lon":5.371583,"is_reserved":false,"is_disabled":false,"rental_uris":{"android":"levelo://app?vid=b71ea7d5-ce89-425f-a60e-ef2da9c1a45d","ios":"levelo://app?vid=b71ea7d5-ce89-425f-a60e-ef2da9c1a45d"},"vehicle_type_id":"4","last_reported":1725908820,"current_range_meters":1200,"station_id":"ce4bha92rcd13ifvqeh0","pricing_plan_id":"cebpf4jnsgd1na2vs0mg"},{"bike_id":"9b0defec-51bd-46fb-8aba-e6810d60f6da","system_id":"levelo_inurba_marseille","lat":43.291671,"lon":5.371575,"is_reserved":false,"is_disabled":false,"rental_uris":{"android":"levelo://app?vid=9b0defec-51bd-46fb-8aba-e6810d60f6da","ios":"levelo://app?vid=9b0defec-51bd-46fb-8aba-e6810d60f6da"},"vehicle_type_id":"4","last_reported":1725908820,"current_range_meters":0,"station_id":"ce4bha92rcd13ifvqeh0","pricing_plan_id":"cebpf4jnsgd1na2vs0mg"},{"bike_id":"cacc9077-5c3a-414e-84d5-dc28e127f72e","system_id":"levelo_inurba_marseille","lat":43.291671,"lon":5.371575,"is_reserved":false,"is_disabled":false,"rental_uris":{"android":"levelo://app?vid=cacc9077-5c3a-414e-84d5-dc28e127f72e","ios":"levelo://app?vid=cacc9077-5c3a-414e-84d5-dc28e127f72e"},"vehicle_type_id":"4","last_reported":1725908820,"current_range_meters":12000,"station_id":"ce4bha92rcd13ifvqeh0","pricing_plan_id":"cebpf4jnsgd1na2vs0mg"},{"bike_id":"21f6cb3c-01fd-436d-88ba-802488b93b50","system_id":"levelo_inurba_marseille","lat":43.293,"lon":5.35573,"is_reserved":false,"is_disabled":false,"rental_uris":{"android":"levelo://app?vid=21f6cb3c-01fd-436d-88ba-802488b93b50","ios":"levelo://app?vid=21f6cb3c-01fd-436d-88ba-802488b93b50"},"vehicle_type_id":"4","last_reported":1725908820,"current_range_meters":18000,"station_id":"","pricing_plan_id":"cebpf4jnsgd1na2vs0mg"},{"bike_id":"4f63fb2d-8823-4a67-8fd8-55c2bc8660ee","system_id":"levelo_inurba_marseille","lat":43.298764,"lon":5.388973,"is_reserved":false,"is_disabled":false,"rental_uris":{"android":"levelo://app?vid=4f63fb2d-8823-4a67-8fd8-55c2bc8660ee","ios":"levelo://app?vid=4f63fb2d-8823-4a67-8fd8-55c2bc8660ee"},"vehicle_type_id":"4","last_reported":1725908820,"current_range_meters":31200,"station_id":"ce4bh392rcd13ifvqdl0","pricing_plan_id":"cebpf4jnsgd1na2vs0mg"},{"bike_id":"43d319ce-4a1c-4413-bead-75c39d01df9a","system_id":"levelo_inurba_marseille","lat":43.309047,"lon":5.396551,"is_reserved":false,"is_disabled":false,"rental_uris":{"android":"levelo://app?vid=43d319ce-4a1c-4413-bead-75c39d01df9a","ios":"levelo://app?vid=43d319ce-4a1c-4413-bead-75c39d01df9a"},"vehicle_type_id":"4","last_reported":1725908820,"current_range_meters":2400,"station_id":"ce4bh012rcd13ifvqcv0","pricing_plan_id":"cebpf4jnsgd1na2vs0mg"},{"bike_id":"ccf5f123-415a-4562-b3f6-32d78ee464c6","system_id":"levelo_inurba_marseille","lat":43.308804,"lon":5.396344,"is_reserved":false,"is_disabled":false,"rental_uris":{"android":"levelo://app?vid=ccf5f123-415a-4562-b3f6-32d78ee464c6","ios":"levelo://app?vid=ccf5f123-415a-4562-b3f6-32d78ee464c6"},"vehicle_type_id":"4","last_reported":1725908820,"current_range_meters":28400,"station_id":"ce4bh012rcd13ifvqcv0","pricing_plan_id":"cebpf4jnsgd1na2vs0mg"},{"bike_id":"4df24a40-9725-4970-8591-6e3e7b3b72aa","system_id":"levelo_inurba_marseille","lat":43.29197,"lon":5.35798,"is_reserved":false,"is_disabled":false,"rental_uris":{"android":"levelo://app?vid=4df24a40-9725-4970-8591-6e3e7b3b72aa","ios":"levelo://app?vid=4df24a40-9725-4970-8591-6e3e7b3b72aa"},"vehicle_type_id":"4","last_reported":1725908820,"current_range_meters":30000,"station_id":"ce4bhb12rcd13ifvqel0","pricing_plan_id":"cebpf4jnsgd1na2vs0mg"},{"bike_id":"1cf9f304-b46f-4d91-b14e-2255fc0c224a","system_id":"levelo_inurba_marseille","lat":43.309047,"lon":5.396551,"is_reserved":false,"is_disabled":false,"rental_uris":{"android":"levelo://app?vid=1cf9f304-b46f-4d91-b14e-2255fc0c224a","ios":"levelo://app?vid=1cf9f304-b46f-4d91-b14e-2255fc0c224a"},"vehicle_type_id":"4","last_reported":1725908820,"current_range_meters":31200,"station_id":"ce4bh012rcd13ifvqcv0","pricing_plan_id":"cebpf4jnsgd1na2vs0mg"},{"bike_id":"060127ec-2bf1-4722-91e2-3df22c7e29df","system_id":"levelo_inurba_marseille","lat":43.292005,"lon":5.357875,"is_reserved":false,"is_disabled":false,"rental_uris":{"android":"levelo://app?vid=060127ec-2bf1-4722-91e2-3df22c7e29df","ios":"levelo://app?vid=060127ec-2bf1-4722-91e2-3df22c7e29df"},"vehicle_type_id":"4","last_reported":1725908820,"current_range_meters":6000,"station_id":"ce4bhb12rcd13ifvqel0","pricing_plan_id":"cebpf4jnsgd1na2vs0mg"},{"bike_id":"00d45466-de37-462d-90a1-c2507bb28324","system_id":"levelo_inurba_marseille","lat":43.30886,"lon":5.39639,"is_reserved":false,"is_disabled":false,"rental_uris":{"android":"levelo://app?vid=00d45466-de37-462d-90a1-c2507bb28324","ios":"levelo://app?vid=00d45466-de37-462d-90a1-c2507bb28324"},"vehicle_type_id":"4","last_reported":1725908820,"current_range_meters":0,"station_id":"ce4bh012rcd13ifvqcv0","pricing_plan_id":"cebpf4jnsgd1na2vs0mg"},{"bike_id":"1195016a-0aec-483b-babe-89543e65e856","system_id":"levelo_inurba_marseille","lat":43.313291,"lon":5.396838,"is_reserved":false,"is_disabled":false,"rental_uris":{"android":"levelo://app?vid=1195016a-0aec-483b-babe-89543e65e856","ios":"levelo://app?vid=1195016a-0aec-483b-babe-89543e65e856"},"vehicle_type_id":"4","last_reported":1725908820,"current_range_meters":14400,"station_id":"ce4bgvp2rcd13ifvqcu0","pricing_plan_id":"cebpf4jnsgd1na2vs0mg"},{"bike_id":"ab237a72-d593-4889-85b9-6e4917923528","system_id":"levelo_inurba_marseille","lat":43.309038,"lon":5.396546,"is_reserved":false,"is_disabled":false,"rental_uris":{"android":"levelo://app?vid=ab237a72-d593-4889-85b9-6e4917923528","ios":"levelo://app?vid=ab237a72-d593-4889-85b9-6e4917923528"},"vehicle_type_id":"4","last_reported":1725908820,"current_range_meters":8800,"station_id":"ce4bh012rcd13ifvqcv0","pricing_plan_id":"cebpf4jnsgd1na2vs0mg"},{"bike_id":"ddc3d42e-dc49-4e9b-ad87-79e3bc124803","system_id":"levelo_inurba_marseille","lat":43.313291,"lon":5.396838,"is_reserved":false,"is_disabled":false,"rental_uris":{"android":"levelo://app?vid=ddc3d42e-dc49-4e9b-ad87-79e3bc124803","ios":"levelo://app?vid=ddc3d42e-dc49-4e9b-ad87-79e3bc124803"},"vehicle_type_id":"4","last_reported":1725908820,"current_range_meters":22000,"station_id":"ce4bgvp2rcd13ifvqcu0","pricing_plan_id":"cebpf4jnsgd1na2vs0mg"},{"bike_id":"95a715e6-e9ba-4639-b3a5-a552eafda4ad","system_id":"levelo_inurba_marseille","lat":43.309038,"lon":5.396546,"is_reserved":false,"is_disabled":false,"rental_uris":{"android":"levelo://app?vid=95a715e6-e9ba-4639-b3a5-a552eafda4ad","ios":"levelo://app?vid=95a715e6-e9ba-4639-b3a5-a552eafda4ad"},"vehicle_type_id":"4","last_reported":1725908820,"current_range_meters":8000,"station_id":"ce4bh012rcd13ifvqcv0","pricing_plan_id":"cebpf4jnsgd1na2vs0mg"},{"bike_id":"abd94e29-e652-463e-a7a4-4d460cfcdfd6","system_id":"levelo_inurba_marseille","lat":43.313291,"lon":5.396838,"is_reserved":false,"is_disabled":false,"rental_uris":{"android":"levelo://app?vid=abd94e29-e652-463e-a7a4-4d460cfcdfd6","ios":"levelo://app?vid=abd94e29-e652-463e-a7a4-4d460cfcdfd6"},"vehicle_type_id":"4","last_reported":1725908820,"current_range_meters":9600,"station_id":"ce4bgvp2rcd13ifvqcu0","pricing_plan_id":"cebpf4jnsgd1na2vs0mg"},{"bike_id":"38dd96ca-bd50-4deb-8679-139b247573f4","system_id":"levelo_inurba_marseille","lat":43.309047,"lon":5.396551,"is_reserved":false,"is_disabled":false,"rental_uris":{"android":"levelo://app?vid=38dd96ca-bd50-4deb-8679-139b247573f4","ios":"levelo://app?vid=38dd96ca-bd50-4deb-8679-139b247573f4"},"vehicle_type_id":"4","last_reported":1725908820,"current_range_meters":3200,"station_id":"ce4bh012rcd13ifvqcv0","pricing_plan_id":"cebpf4jnsgd1na2vs0mg"},{"bike_id":"9f73c277-f893-4f91-8000-7042e46ea863","system_id":"levelo_inurba_marseille","lat":43.309038,"lon":5.396546,"is_reserved":false,"is_disabled":false,"rental_uris":{"android":"levelo://app?vid=9f73c277-f893-4f91-8000-7042e46ea863","ios":"levelo://app?vid=9f73c277-f893-4f91-8000-7042e46ea863"},"vehicle_type_id":"4","last_reported":1725908820,"current_range_meters":31200,"station_id":"ce4bh012rcd13ifvqcv0","pricing_plan_id":"cebpf4jnsgd1na2vs0mg"},{"bike_id":"a68cc047-b987-4541-b2aa-8d17469bbe14","system_id":"levelo_inurba_marseille","lat":43.313291,"lon":5.396838,"is_reserved":false,"is_disabled":false,"rental_uris":{"android":"levelo://app?vid=a68cc047-b987-4541-b2aa-8d17469bbe14","ios":"levelo://app?vid=a68cc047-b987-4541-b2aa-8d17469bbe14"},"vehicle_type_id":"4","last_reported":1725908820,"current_range_meters":5600,"station_id":"ce4bgvp2rcd13ifvqcu0","pricing_plan_id":"cebpf4jnsgd1na2vs0mg"},{"bike_id":"17122fb1-14c8-4cfe-a08d-8ba98d09f8d6","system_id":"levelo_inurba_marseille","lat":43.309038,"lon":5.396546,"is_reserved":false,"is_disabled":false,"rental_uris":{"android":"levelo://app?vid=17122fb1-14c8-4cfe-a08d-8ba98d09f8d6","ios":"levelo://app?vid=17122fb1-14c8-4cfe-a08d-8ba98d09f8d6"},"vehicle_type_id":"4","last_reported":1725908820,"current_range_meters":3200,"station_id":"ce4bh012rcd13ifvqcv0","pricing_plan_id":"cebpf4jnsgd1na2vs0mg"},{"bike_id":"130869cc-0de2-4a0d-bb4c-7eca4a5c7cfc","system_id":"levelo_inurba_marseille","lat":43.31322,"lon":5.39697,"is_reserved":false,"is_disabled":false,"rental_uris":{"android":"levelo://app?vid=130869cc-0de2-4a0d-bb4c-7eca4a5c7cfc","ios":"levelo://app?vid=130869cc-0de2-4a0d-bb4c-7eca4a5c7cfc"},"vehicle_type_id":"4","last_reported":1725908820,"current_range_meters":0,"station_id":"ce4bgvp2rcd13ifvqcu0","pricing_plan_id":"cebpf4jnsgd1na2vs0mg"},{"bike_id":"162dd85d-dbd8-4faf-b657-a5ecea3bfe6f","system_id":"levelo_inurba_marseille","lat":43.308855,"lon":5.3965,"is_reserved":false,"is_disabled":false,"rental_uris":{"android":"levelo://app?vid=162dd85d-dbd8-4faf-b657-a5ecea3bfe6f","ios":"levelo://app?vid=162dd85d-dbd8-4faf-b657-a5ecea3bfe6f"},"vehicle_type_id":"4","last_reported":1725908820,"current_range_meters":0,"station_id":"ce4bh012rcd13ifvqcv0","pricing_plan_id":"cebpf4jnsgd1na2vs0mg"},{"bike_id":"d20b5c66-11fe-4bd4-8752-d5345677bf8f","system_id":"levelo_inurba_marseille","lat":43.309038,"lon":5.396546,"is_reserved":false,"is_disabled":false,"rental_uris":{"android":"levelo://app?vid=d20b5c66-11fe-4bd4-8752-d5345677bf8f","ios":"levelo://app?vid=d20b5c66-11fe-4bd4-8752-d5345677bf8f"},"vehicle_type_id":"4","last_reported":1725908820,"current_range_meters":1200,"station_id":"ce4bh012rcd13ifvqcv0","pricing_plan_id":"cebpf4jnsgd1na2vs0mg"},{"bike_id":"ae88a741-7eec-4997-bb37-9da9c056f683","system_id":"levelo_inurba_marseille","lat":43.313291,"lon":5.396838,"is_reserved":false,"is_disabled":false,"rental_uris":{"android":"levelo://app?vid=ae88a741-7eec-4997-bb37-9da9c056f683","ios":"levelo://app?vid=ae88a741-7eec-4997-bb37-9da9c056f683"},"vehicle_type_id":"4","last_reported":1725908820,"current_range_meters":27600,"station_id":"ce4bgvp2rcd13ifvqcu0","pricing_plan_id":"cebpf4jnsgd1na2vs0mg"},{"bike_id":"c1d51d78-f465-4098-8312-390947159d68","system_id":"levelo_inurba_marseille","lat":43.309047,"lon":5.396551,"is_reserved":false,"is_disabled":false,"rental_uris":{"android":"levelo://app?vid=c1d51d78-f465-4098-8312-390947159d68","ios":"levelo://app?vid=c1d51d78-f465-4098-8312-390947159d68"},"vehicle_type_id":"4","last_reported":1725908820,"current_range_meters":23600,"station_id":"ce4bh012rcd13ifvqcv0","pricing_plan_id":"cebpf4jnsgd1na2vs0mg"},{"bike_id":"c7418fd7-a84f-4568-ad45-196fe3a00d6d","system_id":"levelo_inurba_marseille","lat":43.29529,"lon":5.385581,"is_reserved":false,"is_disabled":false,"rental_uris":{"android":"levelo://app?vid=c7418fd7-a84f-4568-ad45-196fe3a00d6d","ios":"levelo://app?vid=c7418fd7-a84f-4568-ad45-196fe3a00d6d"},"vehicle_type_id":"4","last_reported":1725908820,"current_range_meters":24800,"station_id":"ce4bgih2rcd13ifvqba0","pricing_plan_id":"cebpf4jnsgd1na2vs0mg"},{"bike_id":"f3377649-edf0-42b7-a128-f90e16c35f96","system_id":"levelo_inurba_marseille","lat":43.29529,"lon":5.385581,"is_reserved":false,"is_disabled":false,"rental_uris":{"android":"levelo://app?vid=f3377649-edf0-42b7-a128-f90e16c35f96","ios":"levelo://app?vid=f3377649-edf0-42b7-a128-f90e16c35f96"},"vehicle_type_id":"4","last_reported":1725908820,"current_range_meters":31200,"station_id":"ce4bgih2rcd13ifvqba0","pricing_plan_id":"cebpf4jnsgd1na2vs0mg"},{"bike_id":"8476d9d4-e4e4-4d57-bbfc-f67fab4fbf59","system_id":"levelo_inurba_marseille","lat":43.309038,"lon":5.396546,"is_reserved":false,"is_disabled":false,"rental_uris":{"android":"levelo://app?vid=8476d9d4-e4e4-4d57-bbfc-f67fab4fbf59","ios":"levelo://app?vid=8476d9d4-e4e4-4d57-bbfc-f67fab4fbf59"},"vehicle_type_id":"4","last_reported":1725908820,"current_range_meters":16400,"station_id":"ce4bh012rcd13ifvqcv0","pricing_plan_id":"cebpf4jnsgd1na2vs0mg"},{"bike_id":"3e40144f-6ec9-4833-8fb3-23864c934719","system_id":"levelo_inurba_marseille","lat":43.29529,"lon":5.385581,"is_reserved":false,"is_disabled":false,"rental_uris":{"android":"levelo://app?vid=3e40144f-6ec9-4833-8fb3-23864c934719","ios":"levelo://app?vid=3e40144f-6ec9-4833-8fb3-23864c934719"},"vehicle_type_id":"4","last_reported":1725908820,"current_range_meters":30800,"station_id":"ce4bgih2rcd13ifvqba0","pricing_plan_id":"cebpf4jnsgd1na2vs0mg"},{"bike_id":"e686f240-fe01-4d3e-a00d-0d4ccd78f9b1","system_id":"levelo_inurba_marseille","lat":43.309038,"lon":5.396546,"is_reserved":false,"is_disabled":false,"rental_uris":{"android":"levelo://app?vid=e686f240-fe01-4d3e-a00d-0d4ccd78f9b1","ios":"levelo://app?vid=e686f240-fe01-4d3e-a00d-0d4ccd78f9b1"},"vehicle_type_id":"4","last_reported":1725908820,"current_range_meters":20000,"station_id":"ce4bh012rcd13ifvqcv0","pricing_plan_id":"cebpf4jnsgd1na2vs0mg"},{"bike_id":"ff1a965d-6587-4016-a665-057a8c9bbb45","system_id":"levelo_inurba_marseille","lat":43.309047,"lon":5.396551,"is_reserved":false,"is_disabled":false,"rental_uris":{"android":"levelo://app?vid=ff1a965d-6587-4016-a665-057a8c9bbb45","ios":"levelo://app?vid=ff1a965d-6587-4016-a665-057a8c9bbb45"},"vehicle_type_id":"4","last_reported":1725908820,"current_range_meters":31200,"station_id":"ce4bh012rcd13ifvqcv0","pricing_plan_id":"cebpf4jnsgd1na2vs0mg"},{"bike_id":"bd0d60c4-6807-4cc7-8b4f-a6119e3969ec","system_id":"levelo_inurba_marseille","lat":43.309038,"lon":5.396546,"is_reserved":false,"is_disabled":false,"rental_uris":{"android":"levelo://app?vid=bd0d60c4-6807-4cc7-8b4f-a6119e3969ec","ios":"levelo://app?vid=bd0d60c4-6807-4cc7-8b4f-a6119e3969ec"},"vehicle_type_id":"4","last_reported":1725908820,"current_range_meters":15200,"station_id":"ce4bh012rcd13ifvqcv0","pricing_plan_id":"cebpf4jnsgd1na2vs0mg"},{"bike_id":"90388a16-6d7f-46d9-a024-0464b92ab1fe","system_id":"levelo_inurba_marseille","lat":43.309047,"lon":5.396551,"is_reserved":false,"is_disabled":false,"rental_uris":{"android":"levelo://app?vid=90388a16-6d7f-46d9-a024-0464b92ab1fe","ios":"levelo://app?vid=90388a16-6d7f-46d9-a024-0464b92ab1fe"},"vehicle_type_id":"4","last_reported":1725908820,"current_range_meters":26800,"station_id":"ce4bh012rcd13ifvqcv0","pricing_plan_id":"cebpf4jnsgd1na2vs0mg"},{"bike_id":"e57583dd-4282-4bed-ab85-7113df3b0183","system_id":"levelo_inurba_marseille","lat":43.29529,"lon":5.385581,"is_reserved":false,"is_disabled":false,"rental_uris":{"android":"levelo://app?vid=e57583dd-4282-4bed-ab85-7113df3b0183","ios":"levelo://app?vid=e57583dd-4282-4bed-ab85-7113df3b0183"},"vehicle_type_id":"4","last_reported":1725908820,"current_range_meters":20000,"station_id":"ce4bgih2rcd13ifvqba0","pricing_plan_id":"cebpf4jnsgd1na2vs0mg"},{"bike_id":"f3bfff28-cfa2-4f93-8b1d-5d53a28fdd09","system_id":"levelo_inurba_marseille","lat":43.290779,"lon":5.371482,"is_reserved":false,"is_disabled":false,"rental_uris":{"android":"levelo://app?vid=f3bfff28-cfa2-4f93-8b1d-5d53a28fdd09","ios":"levelo://app?vid=f3bfff28-cfa2-4f93-8b1d-5d53a28fdd09"},"vehicle_type_id":"4","last_reported":1725908820,"current_range_meters":1200,"station_id":"ce4bh5p2rcd13ifvqe4g","pricing_plan_id":"cebpf4jnsgd1na2vs0mg"},{"bike_id":"3995180f-aa27-4dca-ba06-e41ed54bb74a","system_id":"levelo_inurba_marseille","lat":43.290779,"lon":5.371482,"is_reserved":false,"is_disabled":false,"rental_uris":{"android":"levelo://app?vid=3995180f-aa27-4dca-ba06-e41ed54bb74a","ios":"levelo://app?vid=3995180f-aa27-4dca-ba06-e41ed54bb74a"},"vehicle_type_id":"4","last_reported":1725908820,"current_range_meters":6800,"station_id":"ce4bh5p2rcd13ifvqe4g","pricing_plan_id":"cebpf4jnsgd1na2vs0mg"},{"bike_id":"508b0475-6059-4af4-9332-b40690c358e8","system_id":"levelo_inurba_marseille","lat":43.30225,"lon":5.39478,"is_reserved":false,"is_disabled":false,"rental_uris":{"android":"levelo://app?vid=508b0475-6059-4af4-9332-b40690c358e8","ios":"levelo://app?vid=508b0475-6059-4af4-9332-b40690c358e8"},"vehicle_type_id":"4","last_reported":1725908820,"current_range_meters":22800,"station_id":"","pricing_plan_id":"cebpf4jnsgd1na2vs0mg"},{"bike_id":"0f549ef5-4404-4b37-84eb-b763aad2bfd6","system_id":"levelo_inurba_marseille","lat":43.290426,"lon":5.359124,"is_reserved":false,"is_disabled":false,"rental_uris":{"android":"levelo://app?vid=0f549ef5-4404-4b37-84eb-b763aad2bfd6","ios":"levelo://app?vid=0f549ef5-4404-4b37-84eb-b763aad2bfd6"},"vehicle_type_id":"4","last_reported":1725908820,"current_range_meters":31200,"station_id":"ce4bha92rcd13ifvqeg0","pricing_plan_id":"cebpf4jnsgd1na2vs0mg"},{"bike_id":"aade8b62-02ed-4ee2-8a84-9d1252fa88be","system_id":"levelo_inurba_marseille","lat":43.29042,"lon":5.35911,"is_reserved":false,"is_disabled":false,"rental_uris":{"android":"levelo://app?vid=aade8b62-02ed-4ee2-8a84-9d1252fa88be","ios":"levelo://app?vid=aade8b62-02ed-4ee2-8a84-9d1252fa88be"},"vehicle_type_id":"4","last_reported":1725908820,"current_range_meters":400,"station_id":"ce4bha92rcd13ifvqeg0","pricing_plan_id":"cebpf4jnsgd1na2vs0mg"},{"bike_id":"7dee4bbc-277b-4412-bcbc-fbf3b27a53cf","system_id":"levelo_inurba_marseille","lat":43.289184,"lon":5.366408,"is_reserved":false,"is_disabled":false,"rental_uris":{"android":"levelo://app?vid=7dee4bbc-277b-4412-bcbc-fbf3b27a53cf","ios":"levelo://app?vid=7dee4bbc-277b-4412-bcbc-fbf3b27a53cf"},"vehicle_type_id":"4","last_reported":1725908820,"current_range_meters":31200,"station_id":"ce4bhap2rcd13ifvqek0","pricing_plan_id":"cebpf4jnsgd1na2vs0mg"},{"bike_id":"d88ac6bc-75d8-43bf-8e5c-56a77dbe1148","system_id":"levelo_inurba_marseille","lat":43.289184,"lon":5.366408,"is_reserved":false,"is_disabled":false,"rental_uris":{"android":"levelo://app?vid=d88ac6bc-75d8-43bf-8e5c-56a77dbe1148","ios":"levelo://app?vid=d88ac6bc-75d8-43bf-8e5c-56a77dbe1148"},"vehicle_type_id":"4","last_reported":1725908820,"current_range_meters":31200,"station_id":"ce4bhap2rcd13ifvqek0","pricing_plan_id":"cebpf4jnsgd1na2vs0mg"},{"bike_id":"da1a2149-d9b5-4665-acab-d42950e01235","system_id":"levelo_inurba_marseille","lat":43.28952,"lon":5.36642,"is_reserved":false,"is_disabled":false,"rental_uris":{"android":"levelo://app?vid=da1a2149-d9b5-4665-acab-d42950e01235","ios":"levelo://app?vid=da1a2149-d9b5-4665-acab-d42950e01235"},"vehicle_type_id":"4","last_reported":1725908820,"current_range_meters":29600,"station_id":"ce4bhap2rcd13ifvqek0","pricing_plan_id":"cebpf4jnsgd1na2vs0mg"},{"bike_id":"2fdf4534-3a7e-4481-878f-f9d59d17e306","system_id":"levelo_inurba_marseille","lat":43.294153,"lon":5.386305,"is_reserved":false,"is_disabled":false,"rental_uris":{"android":"levelo://app?vid=2fdf4534-3a7e-4481-878f-f9d59d17e306","ios":"levelo://app?vid=2fdf4534-3a7e-4481-878f-f9d59d17e306"},"vehicle_type_id":"4","last_reported":1725908820,"current_range_meters":10800,"station_id":"ce4bh2h2rcd13ifvqdh0","pricing_plan_id":"cebpf4jnsgd1na2vs0mg"},{"bike_id":"0481fb49-5464-4bf9-a459-ee5c0a88c1f8","system_id":"levelo_inurba_marseille","lat":43.289184,"lon":5.366408,"is_reserved":false,"is_disabled":false,"rental_uris":{"android":"levelo://app?vid=0481fb49-5464-4bf9-a459-ee5c0a88c1f8","ios":"levelo://app?vid=0481fb49-5464-4bf9-a459-ee5c0a88c1f8"},"vehicle_type_id":"4","last_reported":1725908820,"current_range_meters":16000,"station_id":"ce4bhap2rcd13ifvqek0","pricing_plan_id":"cebpf4jnsgd1na2vs0mg"},{"bike_id":"c5066eb2-df30-492d-af2e-9bab3f2b560e","system_id":"levelo_inurba_marseille","lat":43.294153,"lon":5.386305,"is_reserved":false,"is_disabled":false,"rental_uris":{"android":"levelo://app?vid=c5066eb2-df30-492d-af2e-9bab3f2b560e","ios":"levelo://app?vid=c5066eb2-df30-492d-af2e-9bab3f2b560e"},"vehicle_type_id":"4","last_reported":1725908820,"current_range_meters":4000,"station_id":"ce4bh2h2rcd13ifvqdh0","pricing_plan_id":"cebpf4jnsgd1na2vs0mg"},{"bike_id":"951a6de5-4b04-4864-a33b-ed679737c82f","system_id":"levelo_inurba_marseille","lat":43.294162,"lon":5.386292,"is_reserved":false,"is_disabled":false,"rental_uris":{"android":"levelo://app?vid=951a6de5-4b04-4864-a33b-ed679737c82f","ios":"levelo://app?vid=951a6de5-4b04-4864-a33b-ed679737c82f"},"vehicle_type_id":"4","last_reported":1725908820,"current_range_meters":25200,"station_id":"ce4bh2h2rcd13ifvqdh0","pricing_plan_id":"cebpf4jnsgd1na2vs0mg"},{"bike_id":"baefeeee-9191-43f6-aa5b-ebcdd85b8594","system_id":"levelo_inurba_marseille","lat":43.294153,"lon":5.386305,"is_reserved":false,"is_disabled":false,"rental_uris":{"android":"levelo://app?vid=baefeeee-9191-43f6-aa5b-ebcdd85b8594","ios":"levelo://app?vid=baefeeee-9191-43f6-aa5b-ebcdd85b8594"},"vehicle_type_id":"4","last_reported":1725908820,"current_range_meters":12800,"station_id":"ce4bh2h2rcd13ifvqdh0","pricing_plan_id":"cebpf4jnsgd1na2vs0mg"},{"bike_id":"cbe779b5-8a13-4972-a0af-7be1cbd3c8e2","system_id":"levelo_inurba_marseille","lat":43.294153,"lon":5.386305,"is_reserved":false,"is_disabled":false,"rental_uris":{"android":"levelo://app?vid=cbe779b5-8a13-4972-a0af-7be1cbd3c8e2","ios":"levelo://app?vid=cbe779b5-8a13-4972-a0af-7be1cbd3c8e2"},"vehicle_type_id":"4","last_reported":1725908820,"current_range_meters":400,"station_id":"ce4bh2h2rcd13ifvqdh0","pricing_plan_id":"cebpf4jnsgd1na2vs0mg"},{"bike_id":"4f59ca26-dea6-4c12-b6b9-bac84836d8ce","system_id":"levelo_inurba_marseille","lat":43.294153,"lon":5.386305,"is_reserved":false,"is_disabled":false,"rental_uris":{"android":"levelo://app?vid=4f59ca26-dea6-4c12-b6b9-bac84836d8ce","ios":"levelo://app?vid=4f59ca26-dea6-4c12-b6b9-bac84836d8ce"},"vehicle_type_id":"4","last_reported":1725908820,"current_range_meters":18000,"station_id":"ce4bh2h2rcd13ifvqdh0","pricing_plan_id":"cebpf4jnsgd1na2vs0mg"},{"bike_id":"c75dddaf-4e8d-43d8-bf02-69909107e821","system_id":"levelo_inurba_marseille","lat":43.28945,"lon":5.3663,"is_reserved":false,"is_disabled":false,"rental_uris":{"android":"levelo://app?vid=c75dddaf-4e8d-43d8-bf02-69909107e821","ios":"levelo://app?vid=c75dddaf-4e8d-43d8-bf02-69909107e821"},"vehicle_type_id":"4","last_reported":1725908820,"current_range_meters":31200,"station_id":"ce4bhap2rcd13ifvqek0","pricing_plan_id":"cebpf4jnsgd1na2vs0mg"},{"bike_id":"d271dedf-3c0e-481e-a52c-7eb697a1f6b6","system_id":"levelo_inurba_marseille","lat":43.294162,"lon":5.386292,"is_reserved":false,"is_disabled":false,"rental_uris":{"android":"levelo://app?vid=d271dedf-3c0e-481e-a52c-7eb697a1f6b6","ios":"levelo://app?vid=d271dedf-3c0e-481e-a52c-7eb697a1f6b6"},"vehicle_type_id":"4","last_reported":1725908820,"current_range_meters":0,"station_id":"ce4bh2h2rcd13ifvqdh0","pricing_plan_id":"cebpf4jnsgd1na2vs0mg"},{"bike_id":"6997861d-c98e-4673-aa71-fd2901e4245c","system_id":"levelo_inurba_marseille","lat":43.289184,"lon":5.366408,"is_reserved":false,"is_disabled":false,"rental_uris":{"android":"levelo://app?vid=6997861d-c98e-4673-aa71-fd2901e4245c","ios":"levelo://app?vid=6997861d-c98e-4673-aa71-fd2901e4245c"},"vehicle_type_id":"4","last_reported":1725908820,"current_range_meters":1600,"station_id":"ce4bhap2rcd13ifvqek0","pricing_plan_id":"cebpf4jnsgd1na2vs0mg"},{"bike_id":"820d2a28-2144-412d-baff-eae0238042c9","system_id":"levelo_inurba_marseille","lat":43.294162,"lon":5.386292,"is_reserved":false,"is_disabled":false,"rental_uris":{"android":"levelo://app?vid=820d2a28-2144-412d-baff-eae0238042c9","ios":"levelo://app?vid=820d2a28-2144-412d-baff-eae0238042c9"},"vehicle_type_id":"4","last_reported":1725908820,"current_range_meters":22400,"station_id":"ce4bh2h2rcd13ifvqdh0","pricing_plan_id":"cebpf4jnsgd1na2vs0mg"},{"bike_id":"c846e09c-576c-4fac-8232-ceb51d278372","system_id":"levelo_inurba_marseille","lat":43.289184,"lon":5.366408,"is_reserved":false,"is_disabled":false,"rental_uris":{"android":"levelo://app?vid=c846e09c-576c-4fac-8232-ceb51d278372","ios":"levelo://app?vid=c846e09c-576c-4fac-8232-ceb51d278372"},"vehicle_type_id":"4","last_reported":1725908820,"current_range_meters":26800,"station_id":"ce4bhap2rcd13ifvqek0","pricing_plan_id":"cebpf4jnsgd1na2vs0mg"},{"bike_id":"469bcd3e-2a1f-4f89-b18d-735779afd4f3","system_id":"levelo_inurba_marseille","lat":43.289468,"lon":5.363719,"is_reserved":false,"is_disabled":false,"rental_uris":{"android":"levelo://app?vid=469bcd3e-2a1f-4f89-b18d-735779afd4f3","ios":"levelo://app?vid=469bcd3e-2a1f-4f89-b18d-735779afd4f3"},"vehicle_type_id":"4","last_reported":1725908820,"current_range_meters":8400,"station_id":"ce4bhc92rcd13ifvqetg","pricing_plan_id":"cebpf4jnsgd1na2vs0mg"},{"bike_id":"b11f8821-ece3-4661-99c6-993b2323cd51","system_id":"levelo_inurba_marseille","lat":43.289468,"lon":5.363719,"is_reserved":false,"is_disabled":false,"rental_uris":{"android":"levelo://app?vid=b11f8821-ece3-4661-99c6-993b2323cd51","ios":"levelo://app?vid=b11f8821-ece3-4661-99c6-993b2323cd51"},"vehicle_type_id":"4","last_reported":1725908820,"current_range_meters":25600,"station_id":"ce4bhc92rcd13ifvqetg","pricing_plan_id":"cebpf4jnsgd1na2vs0mg"},{"bike_id":"3b9c9710-ffad-4625-ab8a-dcb14f3244c4","system_id":"levelo_inurba_marseille","lat":43.289401,"lon":5.36407,"is_reserved":false,"is_disabled":false,"rental_uris":{"android":"levelo://app?vid=3b9c9710-ffad-4625-ab8a-dcb14f3244c4","ios":"levelo://app?vid=3b9c9710-ffad-4625-ab8a-dcb14f3244c4"},"vehicle_type_id":"4","last_reported":1725908820,"current_range_meters":30800,"station_id":"ce4bhc92rcd13ifvqetg","pricing_plan_id":"cebpf4jnsgd1na2vs0mg"},{"bike_id":"402f9362-15ad-4cbe-a203-bd60c9b99cf9","system_id":"levelo_inurba_marseille","lat":43.289468,"lon":5.363719,"is_reserved":false,"is_disabled":false,"rental_uris":{"android":"levelo://app?vid=402f9362-15ad-4cbe-a203-bd60c9b99cf9","ios":"levelo://app?vid=402f9362-15ad-4cbe-a203-bd60c9b99cf9"},"vehicle_type_id":"4","last_reported":1725908820,"current_range_meters":20400,"station_id":"ce4bhc92rcd13ifvqetg","pricing_plan_id":"cebpf4jnsgd1na2vs0mg"},{"bike_id":"818cb5e5-ccf2-4c06-a17b-bfff77631d13","system_id":"levelo_inurba_marseille","lat":43.289391,"lon":5.364011,"is_reserved":false,"is_disabled":false,"rental_uris":{"android":"levelo://app?vid=818cb5e5-ccf2-4c06-a17b-bfff77631d13","ios":"levelo://app?vid=818cb5e5-ccf2-4c06-a17b-bfff77631d13"},"vehicle_type_id":"4","last_reported":1725908820,"current_range_meters":0,"station_id":"ce4bhc92rcd13ifvqetg","pricing_plan_id":"cebpf4jnsgd1na2vs0mg"},{"bike_id":"20ce2c78-dff4-4e4e-9a2c-8a9db1da4719","system_id":"levelo_inurba_marseille","lat":43.289468,"lon":5.363719,"is_reserved":false,"is_disabled":false,"rental_uris":{"android":"levelo://app?vid=20ce2c78-dff4-4e4e-9a2c-8a9db1da4719","ios":"levelo://app?vid=20ce2c78-dff4-4e4e-9a2c-8a9db1da4719"},"vehicle_type_id":"4","last_reported":1725908820,"current_range_meters":28400,"station_id":"ce4bhc92rcd13ifvqetg","pricing_plan_id":"cebpf4jnsgd1na2vs0mg"},{"bike_id":"0a78f5f4-7b3c-43c8-bb46-3c5859e2ecd8","system_id":"levelo_inurba_marseille","lat":43.294153,"lon":5.386305,"is_reserved":false,"is_disabled":false,"rental_uris":{"android":"levelo://app?vid=0a78f5f4-7b3c-43c8-bb46-3c5859e2ecd8","ios":"levelo://app?vid=0a78f5f4-7b3c-43c8-bb46-3c5859e2ecd8"},"vehicle_type_id":"4","last_reported":1725908820,"current_range_meters":4000,"station_id":"ce4bh2h2rcd13ifvqdh0","pricing_plan_id":"cebpf4jnsgd1na2vs0mg"},{"bike_id":"eda5f06c-9d6d-46ab-ba40-09d287ca29c9","system_id":"levelo_inurba_marseille","lat":43.292644,"lon":5.384257,"is_reserved":false,"is_disabled":false,"rental_uris":{"android":"levelo://app?vid=eda5f06c-9d6d-46ab-ba40-09d287ca29c9","ios":"levelo://app?vid=eda5f06c-9d6d-46ab-ba40-09d287ca29c9"},"vehicle_type_id":"4","last_reported":1725908820,"current_range_meters":6800,"station_id":"ce4bh692rcd13ifvqea0","pricing_plan_id":"cebpf4jnsgd1na2vs0mg"},{"bike_id":"84c1f282-3e1d-4873-ad81-9b7ca593f456","system_id":"levelo_inurba_marseille","lat":43.292642,"lon":5.384254,"is_reserved":false,"is_disabled":false,"rental_uris":{"android":"levelo://app?vid=84c1f282-3e1d-4873-ad81-9b7ca593f456","ios":"levelo://app?vid=84c1f282-3e1d-4873-ad81-9b7ca593f456"},