{"last_updated":1736590127,"ttl":60,"version":"2.2","data":{"bikes":[{"bike_id":"b0cfe6a2-901d-436f-a381-c7dbb59df959","system_id":"levelo_inurba_marseille","lat":43.30465,"lon":5.37904,"is_reserved":false,"is_disabled":false,"rental_uris":{"android":"levelo://app?vid=b0cfe6a2-901d-436f-a381-c7dbb59df959","ios":"levelo://app?vid=b0cfe6a2-901d-436f-a381-c7dbb59df959"},"vehicle_type_id":"4","last_reported":1736590127,"current_range_meters":27600,"station_id":"ce4bgup2rcd13ifvqcn0","pricing_plan_id":"cebpf4jnsgd1na2vs0mg"},{"bike_id":"b2a58974-0854-4591-946a-72bee04c7c07","system_id":"levelo_inurba_marseille","lat":43.27939,"lon":5.41046,"is_reserved":false,"is_disabled":true,"rental_uris":{"android":"levelo://app?vid=b2a58974-0854-4591-946a-72bee04c7c07","ios":"levelo://app?vid=b2a58974-0854-4591-946a-72bee04c7c07"},"vehicle_type_id":"4","last_reported":1736590127,"current_range_meters":1600,"station_id":"ce4bhnp2rcd13ifvqh0g","pricing_plan_id":"cebpf4jnsgd1na2vs0mg"},{"bike_id":"af944dcf-8df5-460d-85c3-d2aa030e4527","system_id":"levelo_inurba_marseille","lat":43.29371,"lon":5.37846,"is_reserved":false,"is_disabled":false,"rental_uris":{"android":"levelo://app?vid=af944dcf-8df5-460d-85c3-d2aa030e4527","ios":"levelo://app?vid=af944dcf-8df5-460d-85c3-d2aa030e4527"},"vehicle_type_id":"4","last_reported":1736590127,"current_range_meters":21600,"station_id":"ce4bgjh2rcd13ifvqbf0","pricing_plan_id":"cebpf4jnsgd1na2vs0mg"},{"bike_id":"02fa8d23-b641-466a-8661-f76f63fb8c6e","system_id":"levelo_inurba_marseille","lat":43.31528,"lon":5.38032,"is_reserved":false,"is_disabled":false,"rental_uris":{"android":"levelo://app?vid=02fa8d23-b641-466a-8661-f76f63fb8c6e","ios":"levelo://app?vid=02fa8d23-b641-466a-8661-f76f63fb8c6e"},"vehicle_type_id":"4","last_reported":1736590127,"current_range_meters":38800,"station_id":"ce4bhsp2rcd13ifvqi50","pricing_plan_id":"cebpf4jnsgd1na2vs0mg"},{"bike_id":"0fe425bb-f9c2-47cb-b4cc-f55ce66357e3","system_id":"levelo_inurba_marseille","lat":43.24066,"lon":5.37789,"is_reserved":false,"is_disabled":false,"rental_uris":{"android":"levelo://app?vid=0fe425bb-f9c2-47cb-b4cc-f55ce66357e3","ios":"levelo://app?vid=0fe425bb-f9c2-47cb-b4cc-f55ce66357e3"},"vehicle_type_id":"4","last_reported":1736590127,"current_range_meters":38800,"station_id":"ce4bhnp2rcd13ifvqgvg","pricing_plan_id":"cebpf4jnsgd1na2vs0mg"},{"bike_id":"a444a04d-7a75-4bb0-b921-23a4f692b157","system_id":"levelo_inurba_marseille","lat":43.24652,"lon":5.3891,"is_reserved":false,"is_disabled":false,"rental_uris":{"android":"levelo://app?vid=a444a04d-7a75-4bb0-b921-23a4f692b157","ios":"levelo://app?vid=a444a04d-7a75-4bb0-b921-23a4f692b157"},"vehicle_type_id":"4","last_reported":1736590127,"current_range_meters":19200,"station_id":"ce4bhg12rcd13ifvqf60","pricing_plan_id":"cebpf4jnsgd1na2vs0mg"},{"bike_id":"a030469b-b6c7-44f8-a571-2be84259efb2","system_id":"levelo_inurba_marseille","lat":43.32054,"lon":5.41542,"is_reserved":false,"is_disabled":false,"rental_uris":{"android":"levelo://app?vid=a030469b-b6c7-44f8-a571-2be84259efb2","ios":"levelo://app?vid=a030469b-b6c7-44f8-a571-2be84259efb2"},"vehicle_type_id":"4","last_reported":1736590127,"current_range_meters":38400,"station_id":"ce4bhq92rcd13ifvqhkg","pricing_plan_id":"cebpf4jnsgd1na2vs0mg"},{"bike_id":"42b2945a-873e-44b2-ae60-3504061c9f79","system_id":"levelo_inurba_marseille","lat":43.28272,"lon":5.35086,"is_reserved":false,"is_disabled":false,"rental_uris":{"android":"levelo://app?vid=42b2945a-873e-44b2-ae60-3504061c9f79","ios":"levelo://app?vid=42b2945a-873e-44b2-ae60-3504061c9f79"},"vehicle_type_id":"4","last_reported":1736590127,"current_range_meters":11600,"station_id":"ce4bhbp2rcd13ifvqerg","pricing_plan_id":"cebpf4jnsgd1na2vs0mg"},{"bike_id":"f15101c1-c879-4795-84df-c1859d335ba4","system_id":"levelo_inurba_marseille","lat":43.29837,"lon":5.36264,"is_reserved":false,"is_disabled":false,"rental_uris":{"android":"levelo://app?vid=f15101c1-c879-4795-84df-c1859d335ba4","ios":"levelo://app?vid=f15101c1-c879-4795-84df-c1859d335ba4"},"vehicle_type_id":"4","last_reported":1736590127,"current_range_meters":33600,"station_id":"ce4bgpp2rcd13ifvqc3g","pricing_plan_id":"cebpf4jnsgd1na2vs0mg"},{"bike_id":"734f6fc6-efc0-4eb8-8a70-0965ca2ed925","system_id":"levelo_inurba_marseille","lat":43.26671,"lon":5.38289,"is_reserved":false,"is_disabled":false,"rental_uris":{"android":"levelo://app?vid=734f6fc6-efc0-4eb8-8a70-0965ca2ed925","ios":"levelo://app?vid=734f6fc6-efc0-4eb8-8a70-0965ca2ed925"},"vehicle_type_id":"4","last_reported":1736590127,"current_range_meters":36400,"station_id":"ce4bhg92rcd13ifvqf90","pricing_plan_id":"cebpf4jnsgd1na2vs0mg"},{"bike_id":"12dd0fcd-80fc-479f-931f-8583fac5c5f4","system_id":"levelo_inurba_marseille","lat":43.29302,"lon":5.37457,"is_reserved":false,"is_disabled":false,"rental_uris":{"android":"levelo://app?vid=12dd0fcd-80fc-479f-931f-8583fac5c5f4","ios":"levelo://app?vid=12dd0fcd-80fc-479f-931f-8583fac5c5f4"},"vehicle_type_id":"4","last_reported":1736590127,"current_range_meters":37600,"station_id":"ce4bgi12rcd13ifvqb70","pricing_plan_id":"cebpf4jnsgd1na2vs0mg"},{"bike_id":"144c4fde-fdb0-49f5-9343-10f4c9bc6a9e","system_id":"levelo_inurba_marseille","lat":43.30219,"lon":5.39469,"is_reserved":false,"is_disabled":false,"rental_uris":{"android":"levelo://app?vid=144c4fde-fdb0-49f5-9343-10f4c9bc6a9e","ios":"levelo://app?vid=144c4fde-fdb0-49f5-9343-10f4c9bc6a9e"},"vehicle_type_id":"4","last_reported":1736590127,"current_range_meters":20400,"station_id":"ce4bh0p2rcd13ifvqd70","pricing_plan_id":"cebpf4jnsgd1na2vs0mg"},{"bike_id":"f27315e5-5b6e-4c1c-bf3c-bb19556d13a1","system_id":"levelo_inurba_marseille","lat":43.33608,"lon":5.41023,"is_reserved":false,"is_disabled":false,"rental_uris":{"android":"levelo://app?vid=f27315e5-5b6e-4c1c-bf3c-bb19556d13a1","ios":"levelo://app?vid=f27315e5-5b6e-4c1c-bf3c-bb19556d13a1"},"vehicle_type_id":"4","last_reported":1736590127,"current_range_meters":38800,"station_id":"ce4bhqh2rcd13ifvqhmg","pricing_plan_id":"cebpf4jnsgd1na2vs0mg"},{"bike_id":"dcd2f866-f8e1-4768-9798-a4003046bd66","system_id":"levelo_inurba_marseille","lat":43.27835,"lon":5.39196,"is_reserved":false,"is_disabled":false,"rental_uris":{"android":"levelo://app?vid=dcd2f866-f8e1-4768-9798-a4003046bd66","ios":"levelo://app?vid=dcd2f866-f8e1-4768-9798-a4003046bd66"},"vehicle_type_id":"4","last_reported":1736590127,"current_range_meters":14400,"station_id":"ce4bhjp2rcd13ifvqga0","pricing_plan_id":"cebpf4jnsgd1na2vs0mg"},{"bike_id":"853d56cd-3451-4764-beab-a40e85523b05","system_id":"levelo_inurba_marseille","lat":43.246483,"lon":5.389046,"is_reserved":false,"is_disabled":false,"rental_uris":{"android":"levelo://app?vid=853d56cd-3451-4764-beab-a40e85523b05","ios":"levelo://app?vid=853d56cd-3451-4764-beab-a40e85523b05"},"vehicle_type_id":"4","last_reported":1736590127,"current_range_meters":5600,"station_id":"ce4bhg12rcd13ifvqf60","pricing_plan_id":"cebpf4jnsgd1na2vs0mg"},{"bike_id":"e9f99034-2c34-4d9b-bada-c6fd257a3315","system_id":"levelo_inurba_marseille","lat":43.30436,"lon":5.39746,"is_reserved":false,"is_disabled":false,"rental_uris":{"android":"levelo://app?vid=e9f99034-2c34-4d9b-bada-c6fd257a3315","ios":"levelo://app?vid=e9f99034-2c34-4d9b-bada-c6fd257a3315"},"vehicle_type_id":"4","last_reported":1736590127,"current_range_meters":25200,"station_id":"ce4bh092rcd13ifvqd20","pricing_plan_id":"cebpf4jnsgd1na2vs0mg"},{"bike_id":"a2ed5c1c-6f81-4098-bebd-b9a738410ca2","system_id":"levelo_inurba_marseille","lat":43.31899,"lon":5.40727,"is_reserved":false,"is_disabled":false,"rental_uris":{"android":"levelo://app?vid=a2ed5c1c-6f81-4098-bebd-b9a738410ca2","ios":"levelo://app?vid=a2ed5c1c-6f81-4098-bebd-b9a738410ca2"},"vehicle_type_id":"4","last_reported":1736590127,"current_range_meters":30400,"station_id":"ce4bhq12rcd13ifvqhig","pricing_plan_id":"cebpf4jnsgd1na2vs0mg"},{"bike_id":"004c2ac5-7f25-4e48-8a80-9a02537f6ba6","system_id":"levelo_inurba_marseille","lat":43.32103,"lon":5.3681,"is_reserved":false,"is_disabled":false,"rental_uris":{"android":"levelo://app?vid=004c2ac5-7f25-4e48-8a80-9a02537f6ba6","ios":"levelo://app?vid=004c2ac5-7f25-4e48-8a80-9a02537f6ba6"},"vehicle_type_id":"4","last_reported":1736590127,"current_range_meters":30800,"station_id":"ce4bhrh2rcd13ifvqhug","pricing_plan_id":"cebpf4jnsgd1na2vs0mg"},{"bike_id":"6a8dc65c-8c47-4239-8815-8efa2acdc338","system_id":"levelo_inurba_marseille","lat":43.28001,"lon":5.41693,"is_reserved":false,"is_disabled":true,"rental_uris":{"android":"levelo://app?vid=6a8dc65c-8c47-4239-8815-8efa2acdc338","ios":"levelo://app?vid=6a8dc65c-8c47-4239-8815-8efa2acdc338"},"vehicle_type_id":"4","last_reported":1736590127,"current_range_meters":11200,"station_id":"ce4bho12rcd13ifvqh1g","pricing_plan_id":"cebpf4jnsgd1na2vs0mg"},{"bike_id":"2f457c0c-5283-4f66-b319-69a87ce07d89","system_id":"levelo_inurba_marseille","lat":43.250095,"lon":5.389214,"is_reserved":false,"is_disabled":false,"rental_uris":{"android":"levelo://app?vid=2f457c0c-5283-4f66-b319-69a87ce07d89","ios":"levelo://app?vid=2f457c0c-5283-4f66-b319-69a87ce07d89"},"vehicle_type_id":"4","last_reported":1736590127,"current_range_meters":31200,"station_id":"ce4bhgp2rcd13ifvqfd0","pricing_plan_id":"cebpf4jnsgd1na2vs0mg"},{"bike_id":"86cd1141-6e96-4c04-94b3-22ca752a46a1","system_id":"levelo_inurba_marseille","lat":43.23191,"lon":5.40008,"is_reserved":false,"is_disabled":false,"rental_uris":{"android":"levelo://app?vid=86cd1141-6e96-4c04-94b3-22ca752a46a1","ios":"levelo://app?vid=86cd1141-6e96-4c04-94b3-22ca752a46a1"},"vehicle_type_id":"4","last_reported":1736590127,"current_range_meters":25200,"station_id":"ce4bhn12rcd13ifvqgqg","pricing_plan_id":"cebpf4jnsgd1na2vs0mg"},{"bike_id":"ba43f1cb-442f-415b-aaf2-ab3a50e56056","system_id":"levelo_inurba_marseille","lat":43.23958,"lon":5.36636,"is_reserved":false,"is_disabled":false,"rental_uris":{"android":"levelo://app?vid=ba43f1cb-442f-415b-aaf2-ab3a50e56056","ios":"levelo://app?vid=ba43f1cb-442f-415b-aaf2-ab3a50e56056"},"vehicle_type_id":"4","last_reported":1736590127,"current_range_meters":10000,"station_id":"ce4bhi12rcd13ifvqfp0","pricing_plan_id":"cebpf4jnsgd1na2vs0mg"},{"bike_id":"50bd41a2-4134-4514-bd21-8188f8f923aa","system_id":"levelo_inurba_marseille","lat":43.286917,"lon":5.399993,"is_reserved":false,"is_disabled":true,"rental_uris":{"android":"levelo://app?vid=50bd41a2-4134-4514-bd21-8188f8f923aa","ios":"levelo://app?vid=50bd41a2-4134-4514-bd21-8188f8f923aa"},"vehicle_type_id":"4","last_reported":1736590127,"current_range_meters":0,"station_id":"ce4bho92rcd13ifvqh3g","pricing_plan_id":"cebpf4jnsgd1na2vs0mg"},{"bike_id":"c1dea8eb-dedb-48c3-82b9-ba4d059a0755","system_id":"levelo_inurba_marseille","lat":43.2656,"lon":5.37296,"is_reserved":false,"is_disabled":true,"rental_uris":{"android":"levelo://app?vid=c1dea8eb-dedb-48c3-82b9-ba4d059a0755","ios":"levelo://app?vid=c1dea8eb-dedb-48c3-82b9-ba4d059a0755"},"vehicle_type_id":"4","last_reported":1736590127,"current_range_meters":9600,"station_id":"ce4bhg12rcd13ifvqf70","pricing_plan_id":"cebpf4jnsgd1na2vs0mg"},{"bike_id":"666c0c92-428a-4f95-8531-2a4d6f4a5bb0","system_id":"levelo_inurba_marseille","lat":43.2467,"lon":5.38172,"is_reserved":false,"is_disabled":false,"rental_uris":{"android":"levelo://app?vid=666c0c92-428a-4f95-8531-2a4d6f4a5bb0","ios":"levelo://app?vid=666c0c92-428a-4f95-8531-2a4d6f4a5bb0"},"vehicle_type_id":"4","last_reported":1736590127,"current_range_meters":8800,"station_id":"ce4bhih2rcd13ifvqfr0","pricing_plan_id":"cebpf4jnsgd1na2vs0mg"},{"bike_id":"3e35ef7b-3237-4c6e-a7b1-693543e13672","system_id":"levelo_inurba_marseille","lat":43.24651,"lon":5.38904,"is_reserved":false,"is_disabled":false,"rental_uris":{"android":"levelo://app?vid=3e35ef7b-3237-4c6e-a7b1-693543e13672","ios":"levelo://app?vid=3e35ef7b-3237-4c6e-a7b1-693543e13672"},"vehicle_type_id":"4","last_reported":1736590127,"current_range_meters":29600,"station_id":"ce4bhg12rcd13ifvqf60","pricing_plan_id":"cebpf4jnsgd1na2vs0mg"},{"bike_id":"7d7ab368-2e64-4821-85fb-ce6f430b2ae3","system_id":"levelo_inurba_marseille","lat":43.28998,"lon":5.35626,"is_reserved":false,"is_disabled":false,"rental_uris":{"android":"levelo://app?vid=7d7ab368-2e64-4821-85fb-ce6f430b2ae3","ios":"levelo://app?vid=7d7ab368-2e64-4821-85fb-ce6f430b2ae3"},"vehicle_type_id":"4","last_reported":1736590127,"current_range_meters":38800,"station_id":"ce4bhb92rcd13ifvqen0","pricing_plan_id":"cebpf4jnsgd1na2vs0mg"},{"bike_id":"1eb49a6c-7a05-4783-afbf-1ed612e3daef","system_id":"levelo_inurba_marseille","lat":43.30085,"lon":5.39068,"is_reserved":false,"is_disabled":false,"rental_uris":{"android":"levelo://app?vid=1eb49a6c-7a05-4783-afbf-1ed612e3daef","ios":"levelo://app?vid=1eb49a6c-7a05-4783-afbf-1ed612e3daef"},"vehicle_type_id":"4","last_reported":1736590127,"current_range_meters":32400,"station_id":"ce4bh192rcd13ifvqdb0","pricing_plan_id":"cebpf4jnsgd1na2vs0mg"},{"bike_id":"dcb2126a-d21d-4ccc-8dd5-f93c643abd4d","system_id":"levelo_inurba_marseille","lat":43.29483,"lon":5.37869,"is_reserved":false,"is_disabled":false,"rental_uris":{"android":"levelo://app?vid=dcb2126a-d21d-4ccc-8dd5-f93c643abd4d","ios":"levelo://app?vid=dcb2126a-d21d-4ccc-8dd5-f93c643abd4d"},"vehicle_type_id":"4","last_reported":1736590127,"current_range_meters":8800,"station_id":"","pricing_plan_id":"cebpf4jnsgd1na2vs0mg"},{"bike_id":"40aa582d-815a-4ab4-b49f-d3b3d622ee04","system_id":"levelo_inurba_marseille","lat":43.23053,"lon":5.35495,"is_reserved":false,"is_disabled":false,"rental_uris":{"android":"levelo://app?vid=40aa582d-815a-4ab4-b49f-d3b3d622ee04","ios":"levelo://app?vid=40aa582d-815a-4ab4-b49f-d3b3d622ee04"},"vehicle_type_id":"4","last_reported":1736590127,"current_range_meters":38800,"station_id":"cpo3342slgdg3j2ifvpg","pricing_plan_id":"cebpf4jnsgd1na2vs0mg"},{"bike_id":"6b750947-fb43-40e2-9931-495446cc2b3f","system_id":"levelo_inurba_marseille","lat":43.22921,"lon":5.35377,"is_reserved":false,"is_disabled":false,"rental_uris":{"android":"levelo://app?vid=6b750947-fb43-40e2-9931-495446cc2b3f","ios":"levelo://app?vid=6b750947-fb43-40e2-9931-495446cc2b3f"},"vehicle_type_id":"4","last_reported":1736590127,"current_range_meters":38000,"station_id":"cpo3532slgdg3j2ikp40","pricing_plan_id":"cebpf4jnsgd1na2vs0mg"},{"bike_id":"c8e997c0-8580-4d0f-8d9f-0766596381e1","system_id":"levelo_inurba_marseille","lat":43.34033,"lon":5.37523,"is_reserved":false,"is_disabled":false,"rental_uris":{"android":"levelo://app?vid=c8e997c0-8580-4d0f-8d9f-0766596381e1","ios":"levelo://app?vid=c8e997c0-8580-4d0f-8d9f-0766596381e1"},"vehicle_type_id":"4","last_reported":1736590127,"current_range_meters":6800,"station_id":"","pricing_plan_id":"cebpf4jnsgd1na2vs0mg"},{"bike_id":"1f5ef9f6-050f-4f79-a9ce-badba66ed461","system_id":"levelo_inurba_marseille","lat":43.28597,"lon":5.40052,"is_reserved":false,"is_disabled":false,"rental_uris":{"android":"levelo://app?vid=1f5ef9f6-050f-4f79-a9ce-badba66ed461","ios":"levelo://app?vid=1f5ef9f6-050f-4f79-a9ce-badba66ed461"},"vehicle_type_id":"4","last_reported":1736590127,"current_range_meters":22800,"station_id":"","pricing_plan_id":"cebpf4jnsgd1na2vs0mg"},{"bike_id":"2dc62668-e201-47ab-9a79-bbc1fdaf76ba","system_id":"levelo_inurba_marseille","lat":43.29622,"lon":5.37173,"is_reserved":false,"is_disabled":false,"rental_uris":{"android":"levelo://app?vid=2dc62668-e201-47ab-9a79-bbc1fdaf76ba","ios":"levelo://app?vid=2dc62668-e201-47ab-9a79-bbc1fdaf76ba"},"vehicle_type_id":"4","last_reported":1736590127,"current_range_meters":14000,"station_id":"ce4bgnh2rcd13ifvqc0g","pricing_plan_id":"cebpf4jnsgd1na2vs0mg"},{"bike_id":"b8f1ef47-ea59-480f-9b42-5d3fc8e4715f","system_id":"levelo_inurba_marseille","lat":43.30586,"lon":5.39358,"is_reserved":false,"is_disabled":false,"rental_uris":{"android":"levelo://app?vid=b8f1ef47-ea59-480f-9b42-5d3fc8e4715f","ios":"levelo://app?vid=b8f1ef47-ea59-480f-9b42-5d3fc8e4715f"},"vehicle_type_id":"4","last_reported":1736590127,"current_range_meters":34800,"station_id":"ce4bh0p2rcd13ifvqd80","pricing_plan_id":"cebpf4jnsgd1na2vs0mg"},{"bike_id":"6d907632-b7a4-409f-98d5-031bae93ab87","system_id":"levelo_inurba_marseille","lat":43.23962,"lon":5.36635,"is_reserved":false,"is_disabled":false,"rental_uris":{"android":"levelo://app?vid=6d907632-b7a4-409f-98d5-031bae93ab87","ios":"levelo://app?vid=6d907632-b7a4-409f-98d5-031bae93ab87"},"vehicle_type_id":"4","last_reported":1736590127,"current_range_meters":37600,"station_id":"ce4bhi12rcd13ifvqfp0","pricing_plan_id":"cebpf4jnsgd1na2vs0mg"},{"bike_id":"88616361-1489-4f66-a775-5cbc817323d9","system_id":"levelo_inurba_marseille","lat":43.29186,"lon":5.35821,"is_reserved":false,"is_disabled":false,"rental_uris":{"android":"levelo://app?vid=88616361-1489-4f66-a775-5cbc817323d9","ios":"levelo://app?vid=88616361-1489-4f66-a775-5cbc817323d9"},"vehicle_type_id":"4","last_reported":1736590127,"current_range_meters":15200,"station_id":"ce4bhb12rcd13ifvqel0","pricing_plan_id":"cebpf4jnsgd1na2vs0mg"},{"bike_id":"eb9b2df2-fdc1-4d66-abed-6bda4748c4f1","system_id":"levelo_inurba_marseille","lat":43.26216,"lon":5.37937,"is_reserved":false,"is_disabled":false,"rental_uris":{"android":"levelo://app?vid=eb9b2df2-fdc1-4d66-abed-6bda4748c4f1","ios":"levelo://app?vid=eb9b2df2-fdc1-4d66-abed-6bda4748c4f1"},"vehicle_type_id":"4","last_reported":1736590127,"current_range_meters":28000,"station_id":"ce4bhjp2rcd13ifvqg90","pricing_plan_id":"cebpf4jnsgd1na2vs0mg"},{"bike_id":"756acf7b-5e79-461a-9a9d-14e00e8d684f","system_id":"levelo_inurba_marseille","lat":43.3047,"lon":5.37923,"is_reserved":false,"is_disabled":true,"rental_uris":{"android":"levelo://app?vid=756acf7b-5e79-461a-9a9d-14e00e8d684f","ios":"levelo://app?vid=756acf7b-5e79-461a-9a9d-14e00e8d684f"},"vehicle_type_id":"4","last_reported":1736590127,"current_range_meters":35600,"station_id":"ce4bgup2rcd13ifvqcn0","pricing_plan_id":"cebpf4jnsgd1na2vs0mg"},{"bike_id":"4e36486e-78ed-45f0-99d4-e2d2e858abb4","system_id":"levelo_inurba_marseille","lat":43.28942,"lon":5.39621,"is_reserved":false,"is_disabled":false,"rental_uris":{"android":"levelo://app?vid=4e36486e-78ed-45f0-99d4-e2d2e858abb4","ios":"levelo://app?vid=4e36486e-78ed-45f0-99d4-e2d2e858abb4"},"vehicle_type_id":"4","last_reported":1736590127,"current_range_meters":38800,"station_id":"ce4bh3h2rcd13ifvqdn0","pricing_plan_id":"cebpf4jnsgd1na2vs0mg"},{"bike_id":"6b764e8c-1a43-46a3-97d7-14881c8e848c","system_id":"levelo_inurba_marseille","lat":43.25838,"lon":5.39428,"is_reserved":false,"is_disabled":false,"rental_uris":{"android":"levelo://app?vid=6b764e8c-1a43-46a3-97d7-14881c8e848c","ios":"levelo://app?vid=6b764e8c-1a43-46a3-97d7-14881c8e848c"},"vehicle_type_id":"4","last_reported":1736590127,"current_range_meters":38800,"station_id":"ce4bhip2rcd13ifvqft0","pricing_plan_id":"cebpf4jnsgd1na2vs0mg"},{"bike_id":"d8327471-e10e-4e1d-a46b-c43156fc0620","system_id":"levelo_inurba_marseille","lat":43.267821,"lon":5.394221,"is_reserved":false,"is_disabled":true,"rental_uris":{"android":"levelo://app?vid=d8327471-e10e-4e1d-a46b-c43156fc0620","ios":"levelo://app?vid=d8327471-e10e-4e1d-a46b-c43156fc0620"},"vehicle_type_id":"4","last_reported":1736590127,"current_range_meters":0,"station_id":"ce4bhh12rcd13ifvqfg0","pricing_plan_id":"cebpf4jnsgd1na2vs0mg"},{"bike_id":"f404313a-b453-4ed2-9cf2-f503539db699","system_id":"levelo_inurba_marseille","lat":43.27994,"lon":5.40006,"is_reserved":false,"is_disabled":true,"rental_uris":{"android":"levelo://app?vid=f404313a-b453-4ed2-9cf2-f503539db699","ios":"levelo://app?vid=f404313a-b453-4ed2-9cf2-f503539db699"},"vehicle_type_id":"4","last_reported":1736590127,"current_range_meters":1200,"station_id":"ce4bho92rcd13ifvqh4g","pricing_plan_id":"cebpf4jnsgd1na2vs0mg"},{"bike_id":"7c95ead1-0411-47ae-af1d-0a79d0113085","system_id":"levelo_inurba_marseille","lat":43.29563,"lon":5.37557,"is_reserved":false,"is_disabled":false,"rental_uris":{"android":"levelo://app?vid=7c95ead1-0411-47ae-af1d-0a79d0113085","ios":"levelo://app?vid=7c95ead1-0411-47ae-af1d-0a79d0113085"},"vehicle_type_id":"4","last_reported":1736590127,"current_range_meters":36000,"station_id":"ce4bgh92rcd13ifvqb50","pricing_plan_id":"cebpf4jnsgd1na2vs0mg"},{"bike_id":"30939121-9a78-4dc0-8657-1687fd38d990","system_id":"levelo_inurba_marseille","lat":43.2962,"lon":5.37181,"is_reserved":false,"is_disabled":false,"rental_uris":{"android":"levelo://app?vid=30939121-9a78-4dc0-8657-1687fd38d990","ios":"levelo://app?vid=30939121-9a78-4dc0-8657-1687fd38d990"},"vehicle_type_id":"4","last_reported":1736590127,"current_range_meters":38800,"station_id":"ce4bgnh2rcd13ifvqc0g","pricing_plan_id":"cebpf4jnsgd1na2vs0mg"},{"bike_id":"b8a70a4d-0bda-4b8b-9e34-99ec66f6e055","system_id":"levelo_inurba_marseille","lat":43.27946,"lon":5.38686,"is_reserved":false,"is_disabled":true,"rental_uris":{"android":"levelo://app?vid=b8a70a4d-0bda-4b8b-9e34-99ec66f6e055","ios":"levelo://app?vid=b8a70a4d-0bda-4b8b-9e34-99ec66f6e055"},"vehicle_type_id":"4","last_reported":1736590127,"current_range_meters":17200,"station_id":"","pricing_plan_id":"cebpf4jnsgd1na2vs0mg"},{"bike_id":"205b7d5c-f249-493e-95ba-aef9f33766e7","system_id":"levelo_inurba_marseille","lat":43.24069,"lon":5.37735,"is_reserved":false,"is_disabled":false,"rental_uris":{"android":"levelo://app?vid=205b7d5c-f249-493e-95ba-aef9f33766e7","ios":"levelo://app?vid=205b7d5c-f249-493e-95ba-aef9f33766e7"},"vehicle_type_id":"4","last_reported":1736590127,"current_range_meters":32000,"station_id":"ce4bhnp2rcd13ifvqgvg","pricing_plan_id":"cebpf4jnsgd1na2vs0mg"},{"bike_id":"33c7b867-f1b9-4199-ae1c-f33dfdb8ef10","system_id":"levelo_inurba_marseille","lat":43.26787,"lon":5.39413,"is_reserved":false,"is_disabled":false,"rental_uris":{"android":"levelo://app?vid=33c7b867-f1b9-4199-ae1c-f33dfdb8ef10","ios":"levelo://app?vid=33c7b867-f1b9-4199-ae1c-f33dfdb8ef10"},"vehicle_type_id":"4","last_reported":1736590127,"current_range_meters":32800,"station_id":"ce4bhh12rcd13ifvqfg0","pricing_plan_id":"cebpf4jnsgd1na2vs0mg"},{"bike_id":"fd75e0f0-43a1-460e-8161-6f4563840366","system_id":"levelo_inurba_marseille","lat":43.304434,"lon":5.39777,"is_reserved":false,"is_disabled":false,"rental_uris":{"android":"levelo://app?vid=fd75e0f0-43a1-460e-8161-6f4563840366","ios":"levelo://app?vid=fd75e0f0-43a1-460e-8161-6f4563840366"},"vehicle_type_id":"4","last_reported":1736590127,"current_range_meters":14400,"station_id":"ce4bh092rcd13ifvqd20","pricing_plan_id":"cebpf4jnsgd1na2vs0mg"},{"bike_id":"426ee80e-06b0-4d0f-86a5-ea8ad64aaa11","system_id":"levelo_inurba_marseille","lat":43.28916,"lon":5.43794,"is_reserved":false,"is_disabled":false,"rental_uris":{"android":"levelo://app?vid=426ee80e-06b0-4d0f-86a5-ea8ad64aaa11","ios":"levelo://app?vid=426ee80e-06b0-4d0f-86a5-ea8ad64aaa11"},"vehicle_type_id":"4","last_reported":1736590127,"current_range_meters":18000,"station_id":"","pricing_plan_id":"cebpf4jnsgd1na2vs0mg"},{"bike_id":"c3c3c519-d934-4f4d-b02b-f001da30b0e5","system_id":"levelo_inurba_marseille","lat":43.29716,"lon":5.37701,"is_reserved":false,"is_disabled":false,"rental_uris":{"android":"levelo://app?vid=c3c3c519-d934-4f4d-b02b-f001da30b0e5","ios":"levelo://app?vid=c3c3c519-d934-4f4d-b02b-f001da30b0e5"},"vehicle_type_id":"4","last_reported":1736590127,"current_range_meters":28400,"station_id":"ce4bgkh2rcd13ifvqbl0","pricing_plan_id":"cebpf4jnsgd1na2vs0mg"},{"bike_id":"b27cc99f-6b66-4ab0-833d-ef1cae10794f","system_id":"levelo_inurba_marseille","lat":43.25865,"lon":5.399069,"is_reserved":false,"is_disabled":false,"rental_uris":{"android":"levelo://app?vid=b27cc99f-6b66-4ab0-833d-ef1cae10794f","ios":"levelo://app?vid=b27cc99f-6b66-4ab0-833d-ef1cae10794f"},"vehicle_type_id":"4","last_reported":1736590127,"current_range_meters":38800,"station_id":"ce4bhl92rcd13ifvqghg","pricing_plan_id":"cebpf4jnsgd1na2vs0mg"},{"bike_id":"4f638041-6f13-4939-b29d-204074bc4394","system_id":"levelo_inurba_marseille","lat":43.30135,"lon":5.38782,"is_reserved":false,"is_disabled":false,"rental_uris":{"android":"levelo://app?vid=4f638041-6f13-4939-b29d-204074bc4394","ios":"levelo://app?vid=4f638041-6f13-4939-b29d-204074bc4394"},"vehicle_type_id":"4","last_reported":1736590127,"current_range_meters":25600,"station_id":"ce4bghh2rcd13ifvqb60","pricing_plan_id":"cebpf4jnsgd1na2vs0mg"},{"bike_id":"64e22768-79ef-4593-847f-a621c4893945","system_id":"levelo_inurba_marseille","lat":43.31518,"lon":5.38038,"is_reserved":false,"is_disabled":false,"rental_uris":{"android":"levelo://app?vid=64e22768-79ef-4593-847f-a621c4893945","ios":"levelo://app?vid=64e22768-79ef-4593-847f-a621c4893945"},"vehicle_type_id":"4","last_reported":1736590127,"current_range_meters":38800,"station_id":"ce4bhsp2rcd13ifvqi50","pricing_plan_id":"cebpf4jnsgd1na2vs0mg"},{"bike_id":"f4dbc556-58b0-4dfd-be99-18a51c032520","system_id":"levelo_inurba_marseille","lat":43.24138,"lon":5.39675,"is_reserved":false,"is_disabled":true,"rental_uris":{"android":"levelo://app?vid=f4dbc556-58b0-4dfd-be99-18a51c032520","ios":"levelo://app?vid=f4dbc556-58b0-4dfd-be99-18a51c032520"},"vehicle_type_id":"4","last_reported":1736590127,"current_range_meters":38400,"station_id":"ce4bhn12rcd13ifvqgpg","pricing_plan_id":"cebpf4jnsgd1na2vs0mg"},{"bike_id":"110be5f4-57da-4c52-956c-2a570fcc323e","system_id":"levelo_inurba_marseille","lat":43.301,"lon":5.39086,"is_reserved":false,"is_disabled":false,"rental_uris":{"android":"levelo://app?vid=110be5f4-57da-4c52-956c-2a570fcc323e","ios":"levelo://app?vid=110be5f4-57da-4c52-956c-2a570fcc323e"},"vehicle_type_id":"4","last_reported":1736590127,"current_range_meters":38800,"station_id":"ce4bh192rcd13ifvqdb0","pricing_plan_id":"cebpf4jnsgd1na2vs0mg"},{"bike_id":"d2916d76-3bbb-46d8-809e-46d373125475","system_id":"levelo_inurba_marseille","lat":43.28425,"lon":5.35006,"is_reserved":false,"is_disabled":false,"rental_uris":{"android":"levelo://app?vid=d2916d76-3bbb-46d8-809e-46d373125475","ios":"levelo://app?vid=d2916d76-3bbb-46d8-809e-46d373125475"},"vehicle_type_id":"4","last_reported":1736590127,"current_range_meters":38800,"station_id":"ce4bhbh2rcd13ifvqepg","pricing_plan_id":"cebpf4jnsgd1na2vs0mg"},{"bike_id":"a33b957c-7199-4899-bc6a-186fc7413efd","system_id":"levelo_inurba_marseille","lat":43.270536,"lon":5.40273,"is_reserved":false,"is_disabled":false,"rental_uris":{"android":"levelo://app?vid=a33b957c-7199-4899-bc6a-186fc7413efd","ios":"levelo://app?vid=a33b957c-7199-4899-bc6a-186fc7413efd"},"vehicle_type_id":"4","last_reported":1736590127,"current_range_meters":26800,"station_id":"ce4bhk92rcd13ifvqgc0","pricing_plan_id":"cebpf4jnsgd1na2vs0mg"},{"bike_id":"f118e424-6b03-4824-828f-9ebd6aab85c0","system_id":"levelo_inurba_marseille","lat":43.30171,"lon":5.38085,"is_reserved":false,"is_disabled":false,"rental_uris":{"android":"levelo://app?vid=f118e424-6b03-4824-828f-9ebd6aab85c0","ios":"levelo://app?vid=f118e424-6b03-4824-828f-9ebd6aab85c0"},"vehicle_type_id":"4","last_reported":1736590127,"current_range_meters":38800,"station_id":"ce4bgjp2rcd13ifvqbh0","pricing_plan_id":"cebpf4jnsgd1na2vs0mg"},{"bike_id":"6d025489-7802-4410-a414-f6512b91ef4d","system_id":"levelo_inurba_marseille","lat":43.26778,"lon":5.39453,"is_reserved":false,"is_disabled":false,"rental_uris":{"android":"levelo://app?vid=6d025489-7802-4410-a414-f6512b91ef4d","ios":"levelo://app?vid=6d025489-7802-4410-a414-f6512b91ef4d"},"vehicle_type_id":"4","last_reported":1736590127,"current_range_meters":38800,"station_id":"ce4bhh12rcd13ifvqfg0","pricing_plan_id":"cebpf4jnsgd1na2vs0mg"},{"bike_id":"c288978b-67c0-4f36-9730-1b779f239c88","system_id":"levelo_inurba_marseille","lat":43.31345,"lon":5.36715,"is_reserved":false,"is_disabled":false,"rental_uris":{"android":"levelo://app?vid=c288978b-67c0-4f36-9730-1b779f239c88","ios":"levelo://app?vid=c288978b-67c0-4f36-9730-1b779f239c88"},"vehicle_type_id":"4","last_reported":1736590127,"current_range_meters":38800,"station_id":"ce4bgr92rcd13ifvqc6g","pricing_plan_id":"cebpf4jnsgd1na2vs0mg"},{"bike_id":"80609ff8-7d7d-4ae2-9159-aea837c7c52b","system_id":"levelo_inurba_marseille","lat":43.23956,"lon":5.36657,"is_reserved":false,"is_disabled":false,"rental_uris":{"android":"levelo://app?vid=80609ff8-7d7d-4ae2-9159-aea837c7c52b","ios":"levelo://app?vid=80609ff8-7d7d-4ae2-9159-aea837c7c52b"},"vehicle_type_id":"4","last_reported":1736590127,"current_range_meters":11200,"station_id":"ce4bhi12rcd13ifvqfp0","pricing_plan_id":"cebpf4jnsgd1na2vs0mg"},{"bike_id":"a54e3103-dd05-4edc-b802-d77e205514d2","system_id":"levelo_inurba_marseille","lat":43.2552,"lon":5.37666,"is_reserved":false,"is_disabled":false,"rental_uris":{"android":"levelo://app?vid=a54e3103-dd05-4edc-b802-d77e205514d2","ios":"levelo://app?vid=a54e3103-dd05-4edc-b802-d77e205514d2"},"vehicle_type_id":"4","last_reported":1736590127,"current_range_meters":26000,"station_id":"ce4bhh12rcd13ifvqff0","pricing_plan_id":"cebpf4jnsgd1na2vs0mg"},{"bike_id":"b9c29697-3fdb-4aa8-a91b-22e7a560929f","system_id":"levelo_inurba_marseille","lat":43.31535,"lon":5.38028,"is_reserved":false,"is_disabled":false,"rental_uris":{"android":"levelo://app?vid=b9c29697-3fdb-4aa8-a91b-22e7a560929f","ios":"levelo://app?vid=b9c29697-3fdb-4aa8-a91b-22e7a560929f"},"vehicle_type_id":"4","last_reported":1736590127,"current_range_meters":28000,"station_id":"ce4bhsp2rcd13ifvqi50","pricing_plan_id":"cebpf4jnsgd1na2vs0mg"},{"bike_id":"3bb438c9-9719-48cb-bca5-888cc0d3d4a2","system_id":"levelo_inurba_marseille","lat":43.30422,"lon":5.3976,"is_reserved":false,"is_disabled":false,"rental_uris":{"android":"levelo://app?vid=3bb438c9-9719-48cb-bca5-888cc0d3d4a2","ios":"levelo://app?vid=3bb438c9-9719-48cb-bca5-888cc0d3d4a2"},"vehicle_type_id":"4","last_reported":1736590127,"current_range_meters":8400,"station_id":"ce4bh092rcd13ifvqd20","pricing_plan_id":"cebpf4jnsgd1na2vs0mg"},{"bike_id":"5edb9b21-4917-4f45-9961-6635931db922","system_id":"levelo_inurba_marseille","lat":43.229296,"lon":5.353803,"is_reserved":false,"is_disabled":false,"rental_uris":{"android":"levelo://app?vid=5edb9b21-4917-4f45-9961-6635931db922","ios":"levelo://app?vid=5edb9b21-4917-4f45-9961-6635931db922"},"vehicle_type_id":"4","last_reported":1736590127,"current_range_meters":38800,"station_id":"cpo3532slgdg3j2ikp40","pricing_plan_id":"cebpf4jnsgd1na2vs0mg"},{"bike_id":"baf74963-7d44-43cf-b2a2-efc3c98b4e82","system_id":"levelo_inurba_marseille","lat":43.27434,"lon":5.39409,"is_reserved":false,"is_disabled":false,"rental_uris":{"android":"levelo://app?vid=baf74963-7d44-43cf-b2a2-efc3c98b4e82","ios":"levelo://app?vid=baf74963-7d44-43cf-b2a2-efc3c98b4e82"},"vehicle_type_id":"4","last_reported":1736590127,"current_range_meters":31200,"station_id":"ce4bhdp2rcd13ifvqf20","pricing_plan_id":"cebpf4jnsgd1na2vs0mg"},{"bike_id":"4c7cf13b-e312-4df0-a15c-7ecf1526d206","system_id":"levelo_inurba_marseille","lat":43.3118,"lon":5.38718,"is_reserved":false,"is_disabled":false,"rental_uris":{"android":"levelo://app?vid=4c7cf13b-e312-4df0-a15c-7ecf1526d206","ios":"levelo://app?vid=4c7cf13b-e312-4df0-a15c-7ecf1526d206"},"vehicle_type_id":"4","last_reported":1736590127,"current_range_meters":25600,"station_id":"ce4bgv12rcd13ifvqcp0","pricing_plan_id":"cebpf4jnsgd1na2vs0mg"},{"bike_id":"816f16d8-6ff0-4785-861d-d7f867697579","system_id":"levelo_inurba_marseille","lat":43.31527,"lon":5.38046,"is_reserved":false,"is_disabled":false,"rental_uris":{"android":"levelo://app?vid=816f16d8-6ff0-4785-861d-d7f867697579","ios":"levelo://app?vid=816f16d8-6ff0-4785-861d-d7f867697579"},"vehicle_type_id":"4","last_reported":1736590127,"current_range_meters":38800,"station_id":"ce4bhsp2rcd13ifvqi50","pricing_plan_id":"cebpf4jnsgd1na2vs0mg"},{"bike_id":"7f297130-5859-40f6-8adb-5ad46eabf70c","system_id":"levelo_inurba_marseille","lat":43.30889,"lon":5.39672,"is_reserved":false,"is_disabled":false,"rental_uris":{"android":"levelo://app?vid=7f297130-5859-40f6-8adb-5ad46eabf70c","ios":"levelo://app?vid=7f297130-5859-40f6-8adb-5ad46eabf70c"},"vehicle_type_id":"4","last_reported":1736590127,"current_range_meters":26800,"station_id":"ce4bh012rcd13ifvqcv0","pricing_plan_id":"cebpf4jnsgd1na2vs0mg"},{"bike_id":"9174c272-cc8a-4a21-b3da-b387c4b1cd08","system_id":"levelo_inurba_marseille","lat":43.24551,"lon":5.39525,"is_reserved":false,"is_disabled":false,"rental_uris":{"android":"levelo://app?vid=9174c272-cc8a-4a21-b3da-b387c4b1cd08","ios":"levelo://app?vid=9174c272-cc8a-4a21-b3da-b387c4b1cd08"},"vehicle_type_id":"4","last_reported":1736590127,"current_range_meters":3200,"station_id":"ce4bhlp2rcd13ifvqgjg","pricing_plan_id":"cebpf4jnsgd1na2vs0mg"},{"bike_id":"7b9cf42a-0b63-4429-ba11-ff3acd526613","system_id":"levelo_inurba_marseille","lat":43.30099,"lon":5.38097,"is_reserved":false,"is_disabled":false,"rental_uris":{"android":"levelo://app?vid=7b9cf42a-0b63-4429-ba11-ff3acd526613","ios":"levelo://app?vid=7b9cf42a-0b63-4429-ba11-ff3acd526613"},"vehicle_type_id":"4","last_reported":1736590127,"current_range_meters":38000,"station_id":"ce4bgjp2rcd13ifvqbh0","pricing_plan_id":"cebpf4jnsgd1na2vs0mg"},{"bike_id":"cc81c8eb-c607-42db-ae74-942a3fa5b173","system_id":"levelo_inurba_marseille","lat":43.30089,"lon":5.39087,"is_reserved":false,"is_disabled":false,"rental_uris":{"android":"levelo://app?vid=cc81c8eb-c607-42db-ae74-942a3fa5b173","ios":"levelo://app?vid=cc81c8eb-c607-42db-ae74-942a3fa5b173"},"vehicle_type_id":"4","last_reported":1736590127,"current_range_meters":32000,"station_id":"ce4bh192rcd13ifvqdb0","pricing_plan_id":"cebpf4jnsgd1na2vs0mg"},{"bike_id":"534c6702-dfa1-401b-970b-2ac69bdd882a","system_id":"levelo_inurba_marseille","lat":43.24067,"lon":5.37758,"is_reserved":false,"is_disabled":false,"rental_uris":{"android":"levelo://app?vid=534c6702-dfa1-401b-970b-2ac69bdd882a","ios":"levelo://app?vid=534c6702-dfa1-401b-970b-2ac69bdd882a"},"vehicle_type_id":"4","last_reported":1736590127,"current_range_meters":29600,"station_id":"ce4bhnp2rcd13ifvqgvg","pricing_plan_id":"cebpf4jnsgd1na2vs0mg"},{"bike_id":"066fc890-cce1-4b7e-a941-320c51e991c9","system_id":"levelo_inurba_marseille","lat":43.23955,"lon":5.36669,"is_reserved":false,"is_disabled":false,"rental_uris":{"android":"levelo://app?vid=066fc890-cce1-4b7e-a941-320c51e991c9","ios":"levelo://app?vid=066fc890-cce1-4b7e-a941-320c51e991c9"},"vehicle_type_id":"4","last_reported":1736590127,"current_range_meters":22800,"station_id":"ce4bhi12rcd13ifvqfp0","pricing_plan_id":"cebpf4jnsgd1na2vs0mg"},{"bike_id":"5f50eb76-c20c-4230-926b-27928bb7844b","system_id":"levelo_inurba_marseille","lat":43.2922,"lon":5.35818,"is_reserved":false,"is_disabled":false,"rental_uris":{"android":"levelo://app?vid=5f50eb76-c20c-4230-926b-27928bb7844b","ios":"levelo://app?vid=5f50eb76-c20c-4230-926b-27928bb7844b"},"vehicle_type_id":"4","last_reported":1736590127,"current_range_meters":34000,"station_id":"ce4bhb12rcd13ifvqel0","pricing_plan_id":"cebpf4jnsgd1na2vs0mg"},{"bike_id":"b1cd05bd-cc6d-452b-8b8c-f24ee7fb627f","system_id":"levelo_inurba_marseille","lat":43.25824,"lon":5.39422,"is_reserved":false,"is_disabled":false,"rental_uris":{"android":"levelo://app?vid=b1cd05bd-cc6d-452b-8b8c-f24ee7fb627f","ios":"levelo://app?vid=b1cd05bd-cc6d-452b-8b8c-f24ee7fb627f"},"vehicle_type_id":"4","last_reported":1736590127,"current_range_meters":32400,"station_id":"ce4bhip2rcd13ifvqft0","pricing_plan_id":"cebpf4jnsgd1na2vs0mg"},{"bike_id":"a119acd4-84e7-400b-8d96-80ee09f8be7c","system_id":"levelo_inurba_marseille","lat":43.24676,"lon":5.38158,"is_reserved":false,"is_disabled":false,"rental_uris":{"android":"levelo://app?vid=a119acd4-84e7-400b-8d96-80ee09f8be7c","ios":"levelo://app?vid=a119acd4-84e7-400b-8d96-80ee09f8be7c"},"vehicle_type_id":"4","last_reported":1736590127,"current_range_meters":6800,"station_id":"ce4bhih2rcd13ifvqfr0","pricing_plan_id":"cebpf4jnsgd1na2vs0mg"},{"bike_id":"48a49ad3-6e00-46b9-bb3f-9b85d132143b","system_id":"levelo_inurba_marseille","lat":43.30484,"lon":5.37946,"is_reserved":false,"is_disabled":false,"rental_uris":{"android":"levelo://app?vid=48a49ad3-6e00-46b9-bb3f-9b85d132143b","ios":"levelo://app?vid=48a49ad3-6e00-46b9-bb3f-9b85d132143b"},"vehicle_type_id":"4","last_reported":1736590127,"current_range_meters":33600,"station_id":"ce4bgs12rcd13ifvqcag","pricing_plan_id":"cebpf4jnsgd1na2vs0mg"},{"bike_id":"f7248333-c3ea-4047-84a5-689947d7b51f","system_id":"levelo_inurba_marseille","lat":43.29958,"lon":5.41354,"is_reserved":false,"is_disabled":false,"rental_uris":{"android":"levelo://app?vid=f7248333-c3ea-4047-84a5-689947d7b51f","ios":"levelo://app?vid=f7248333-c3ea-4047-84a5-689947d7b51f"},"vehicle_type_id":"4","last_reported":1736590127,"current_range_meters":38000,"station_id":"ce4bhp12rcd13ifvqh9g","pricing_plan_id":"cebpf4jnsgd1na2vs0mg"},{"bike_id":"2c9dd628-c688-4c37-b6d2-d665ced3ed71","system_id":"levelo_inurba_marseille","lat":43.25026,"lon":5.38904,"is_reserved":false,"is_disabled":false,"rental_uris":{"android":"levelo://app?vid=2c9dd628-c688-4c37-b6d2-d665ced3ed71","ios":"levelo://app?vid=2c9dd628-c688-4c37-b6d2-d665ced3ed71"},"vehicle_type_id":"4","last_reported":1736590127,"current_range_meters":38400,"station_id":"ce4bhgp2rcd13ifvqfd0","pricing_plan_id":"cebpf4jnsgd1na2vs0mg"},{"bike_id":"471bf253-796f-4272-a47b-069ce2ba791e","system_id":"levelo_inurba_marseille","lat":43.30086,"lon":5.39073,"is_reserved":false,"is_disabled":false,"rental_uris":{"android":"levelo://app?vid=471bf253-796f-4272-a47b-069ce2ba791e","ios":"levelo://app?vid=471bf253-796f-4272-a47b-069ce2ba791e"},"vehicle_type_id":"4","last_reported":1736590127,"current_range_meters":38800,"station_id":"ce4bh192rcd13ifvqdb0","pricing_plan_id":"cebpf4jnsgd1na2vs0mg"},{"bike_id":"85077f2d-96d6-4799-acc0-68a7354da011","system_id":"levelo_inurba_marseille","lat":43.25483,"lon":5.37661,"is_reserved":false,"is_disabled":false,"rental_uris":{"android":"levelo://app?vid=85077f2d-96d6-4799-acc0-68a7354da011","ios":"levelo://app?vid=85077f2d-96d6-4799-acc0-68a7354da011"},"vehicle_type_id":"4","last_reported":1736590127,"current_range_meters":33200,"station_id":"ce4bhh12rcd13ifvqff0","pricing_plan_id":"cebpf4jnsgd1na2vs0mg"},{"bike_id":"f7f49bc2-5a70-438d-ab6f-26cbacc54252","system_id":"levelo_inurba_marseille","lat":43.29617,"lon":5.37208,"is_reserved":false,"is_disabled":false,"rental_uris":{"android":"levelo://app?vid=f7f49bc2-5a70-438d-ab6f-26cbacc54252","ios":"levelo://app?vid=f7f49bc2-5a70-438d-ab6f-26cbacc54252"},"vehicle_type_id":"4","last_reported":1736590127,"current_range_meters":35200,"station_id":"ce4bgnh2rcd13ifvqc0g","pricing_plan_id":"cebpf4jnsgd1na2vs0mg"},{"bike_id":"6f5d218f-db1a-4b96-bcf2-b235eea71c2f","system_id":"levelo_inurba_marseille","lat":43.25502,"lon":5.3767,"is_reserved":false,"is_disabled":false,"rental_uris":{"android":"levelo://app?vid=6f5d218f-db1a-4b96-bcf2-b235eea71c2f","ios":"levelo://app?vid=6f5d218f-db1a-4b96-bcf2-b235eea71c2f"},"vehicle_type_id":"4","last_reported":1736590127,"current_range_meters":5600,"station_id":"ce4bhh12rcd13ifvqff0","pricing_plan_id":"cebpf4jnsgd1na2vs0mg"},{"bike_id":"3f1a410c-75b3-4fcf-9b9e-0fc219391bbd","system_id":"levelo_inurba_marseille","lat":43.27843,"lon":5.39205,"is_reserved":false,"is_disabled":false,"rental_uris":{"android":"levelo://app?vid=3f1a410c-75b3-4fcf-9b9e-0fc219391bbd","ios":"levelo://app?vid=3f1a410c-75b3-4fcf-9b9e-0fc219391bbd"},"vehicle_type_id":"4","last_reported":1736590127,"current_range_meters":18000,"station_id":"ce4bhjp2rcd13ifvqga0","pricing_plan_id":"cebpf4jnsgd1na2vs0mg"},{"bike_id":"c71cf0d0-c0a2-4a1f-9fb8-82f5043a6871","system_id":"levelo_inurba_marseille","lat":43.29614,"lon":5.37151,"is_reserved":false,"is_disabled":false,"rental_uris":{"android":"levelo://app?vid=c71cf0d0-c0a2-4a1f-9fb8-82f5043a6871","ios":"levelo://app?vid=c71cf0d0-c0a2-4a1f-9fb8-82f5043a6871"},"vehicle_type_id":"4","last_reported":1736590127,"current_range_meters":24000,"station_id":"ce4bgnh2rcd13ifvqc0g","pricing_plan_id":"cebpf4jnsgd1na2vs0mg"},{"bike_id":"10365879-1263-494b-962f-8ad20baa0824","system_id":"levelo_inurba_marseille","lat":43.24999,"lon":5.38924,"is_reserved":false,"is_disabled":false,"rental_uris":{"android":"levelo://app?vid=10365879-1263-494b-962f-8ad20baa0824","ios":"levelo://app?vid=10365879-1263-494b-962f-8ad20baa0824"},"vehicle_type_id":"4","last_reported":1736590127,"current_range_meters":31200,"station_id":"ce4bhgp2rcd13ifvqfd0","pricing_plan_id":"cebpf4jnsgd1na2vs0mg"},{"bike_id":"b9a625c6-f08a-486a-84db-1663d9d856a4","system_id":"levelo_inurba_marseille","lat":43.2958,"lon":5.3751,"is_reserved":false,"is_disabled":false,"rental_uris":{"android":"levelo://app?vid=b9a625c6-f08a-486a-84db-1663d9d856a4","ios":"levelo://app?vid=b9a625c6-f08a-486a-84db-1663d9d856a4"},"vehicle_type_id":"4","last_reported":1736590127,"current_range_meters":25200,"station_id":"ce4bgh92rcd13ifvqb50","pricing_plan_id":"cebpf4jnsgd1na2vs0mg"},{"bike_id":"cdd589a6-cc5d-48f2-9993-8953777bdc8d","system_id":"levelo_inurba_marseille","lat":43.29226,"lon":5.36077,"is_reserved":false,"is_disabled":false,"rental_uris":{"android":"levelo://app?vid=cdd589a6-cc5d-48f2-9993-8953777bdc8d","ios":"levelo://app?vid=cdd589a6-cc5d-48f2-9993-8953777bdc8d"},"vehicle_type_id":"4","last_reported":1736590127,"current_range_meters":33600,"station_id":"ce4bhbh2rcd13ifvqeqg","pricing_plan_id":"cebpf4jnsgd1na2vs0mg"},{"bike_id":"7e9a745e-c82d-4677-a3f0-c081269f42e9","system_id":"levelo_inurba_marseille","lat":43.28999,"lon":5.35613,"is_reserved":false,"is_disabled":true,"rental_uris":{"android":"levelo://app?vid=7e9a745e-c82d-4677-a3f0-c081269f42e9","ios":"levelo://app?vid=7e9a745e-c82d-4677-a3f0-c081269f42e9"},"vehicle_type_id":"4","last_reported":1736590127,"current_range_meters":27600,"station_id":"ce4bhb92rcd13ifvqen0","pricing_plan_id":"cebpf4jnsgd1na2vs0mg"},{"bike_id":"e28483d1-4b50-47d3-8f68-bbbc48a67024","system_id":"levelo_inurba_marseille","lat":43.29035,"lon":5.37164,"is_reserved":false,"is_disabled":true,"rental_uris":{"android":"levelo://app?vid=e28483d1-4b50-47d3-8f68-bbbc48a67024","ios":"levelo://app?vid=e28483d1-4b50-47d3-8f68-bbbc48a67024"},"vehicle_type_id":"4","last_reported":1736590127,"current_range_meters":28400,"station_id":"ce4bh5p2rcd13ifvqe4g","pricing_plan_id":"cebpf4jnsgd1na2vs0mg"},{"bike_id":"c32c43a6-d2d5-4532-a3c2-ee08d2590d0f","system_id":"levelo_inurba_marseille","lat":43.26678,"lon":5.38281,"is_reserved":false,"is_disabled":false,"rental_uris":{"android":"levelo://app?vid=c32c43a6-d2d5-4532-a3c2-ee08d2590d0f","ios":"levelo://app?vid=c32c43a6-d2d5-4532-a3c2-ee08d2590d0f"},"vehicle_type_id":"4","last_reported":1736590127,"current_range_meters":26800,"station_id":"ce4bhg92rcd13ifvqf90","pricing_plan_id":"cebpf4jnsgd1na2vs0mg"},{"bike_id":"bc2ecfb6-7911-4f67-9761-2fa9eb95f393","system_id":"levelo_inurba_marseille","lat":43.29688,"lon":5.37694,"is_reserved":false,"is_disabled":false,"rental_uris":{"android":"levelo://app?vid=bc2ecfb6-7911-4f67-9761-2fa9eb95f393","ios":"levelo://app?vid=bc2ecfb6-7911-4f67-9761-2fa9eb95f393"},"vehicle_type_id":"4","last_reported":1736590127,"current_range_meters":37600,"station_id":"ce4bgkh2rcd13ifvqbl0","pricing_plan_id":"cebpf4jnsgd1na2vs0mg"},{"bike_id":"0e6c105a-6c00-4e22-84a8-4c0e0da6a411","system_id":"levelo_inurba_marseille","lat":43.26024,"lon":5.37559,"is_reserved":false,"is_disabled":false,"rental_uris":{"android":"levelo://app?vid=0e6c105a-6c00-4e22-84a8-4c0e0da6a411","ios":"levelo://app?vid=0e6c105a-6c00-4e22-84a8-4c0e0da6a411"},"vehicle_type_id":"4","last_reported":1736590127,"current_range_meters":21600,"station_id":"ce4bhgh2rcd13ifvqfa0","pricing_plan_id":"cebpf4jnsgd1na2vs0mg"},{"bike_id":"4a2e933d-8137-45bf-98fe-44a5d22dd120","system_id":"levelo_inurba_marseille","lat":43.29195,"lon":5.35812,"is_reserved":false,"is_disabled":false,"rental_uris":{"android":"levelo://app?vid=4a2e933d-8137-45bf-98fe-44a5d22dd120","ios":"levelo://app?vid=4a2e933d-8137-45bf-98fe-44a5d22dd120"},"vehicle_type_id":"4","last_reported":1736590127,"current_range_meters":12800,"station_id":"ce4bhb12rcd13ifvqel0","pricing_plan_id":"cebpf4jnsgd1na2vs0mg"},{"bike_id":"00ce025b-3337-4565-8d1c-47adff4217d7","system_id":"levelo_inurba_marseille","lat":43.24556,"lon":5.39536,"is_reserved":false,"is_disabled":false,"rental_uris":{"android":"levelo://app?vid=00ce025b-3337-4565-8d1c-47adff4217d7","ios":"levelo://app?vid=00ce025b-3337-4565-8d1c-47adff4217d7"},"vehicle_type_id":"4","last_reported":1736590127,"current_range_meters":38400,"station_id":"ce4bhlp2rcd13ifvqgjg","pricing_plan_id":"cebpf4jnsgd1na2vs0mg"},{"bike_id":"b984475e-70f5-478d-a365-e48ebf91675f","system_id":"levelo_inurba_marseille","lat":43.29541,"lon":5.38568,"is_reserved":false,"is_disabled":true,"rental_uris":{"android":"levelo://app?vid=b984475e-70f5-478d-a365-e48ebf91675f","ios":"levelo://app?vid=b984475e-70f5-478d-a365-e48ebf91675f"},"vehicle_type_id":"4","last_reported":1736590127,"current_range_meters":0,"station_id":"ce4bgih2rcd13ifvqba0","pricing_plan_id":"cebpf4jnsgd1na2vs0mg"},{"bike_id":"e2cf5614-606d-46e0-bba1-511a39a5ccf3","system_id":"levelo_inurba_marseille","lat":43.30919,"lon":5.40159,"is_reserved":false,"is_disabled":false,"rental_uris":{"android":"levelo://app?vid=e2cf5614-606d-46e0-bba1-511a39a5ccf3","ios":"levelo://app?vid=e2cf5614-606d-46e0-bba1-511a39a5ccf3"},"vehicle_type_id":"4","last_reported":1736590127,"current_range_meters":36400,"station_id":"ce4bgvp2rcd13ifvqct0","pricing_plan_id":"cebpf4jnsgd1na2vs0mg"},{"bike_id":"f34fc04b-b351-4ac8-a47c-a2006c27444b","system_id":"levelo_inurba_marseille","lat":43.31524,"lon":5.3804,"is_reserved":false,"is_disabled":true,"rental_uris":{"android":"levelo://app?vid=f34fc04b-b351-4ac8-a47c-a2006c27444b","ios":"levelo://app?vid=f34fc04b-b351-4ac8-a47c-a2006c27444b"},"vehicle_type_id":"4","last_reported":1736590127,"current_range_meters":26000,"station_id":"ce4bhsp2rcd13ifvqi50","pricing_plan_id":"cebpf4jnsgd1na2vs0mg"},{"bike_id":"57470373-fa92-49f6-ab59-dce961733e68","system_id":"levelo_inurba_marseille","lat":43.29728,"lon":5.37682,"is_reserved":false,"is_disabled":false,"rental_uris":{"android":"levelo://app?vid=57470373-fa92-49f6-ab59-dce961733e68","ios":"levelo://app?vid=57470373-fa92-49f6-ab59-dce961733e68"},"vehicle_type_id":"4","last_reported":1736590127,"current_range_meters":38800,"station_id":"ce4bgkh2rcd13ifvqbl0","pricing_plan_id":"cebpf4jnsgd1na2vs0mg"},{"bike_id":"11e44c56-62a9-4c68-9a67-ca1cf255933f","system_id":"levelo_inurba_marseille","lat":43.2749,"lon":5.42464,"is_reserved":false,"is_disabled":false,"rental_uris":{"android":"levelo://app?vid=11e44c56-62a9-4c68-9a67-ca1cf255933f","ios":"levelo://app?vid=11e44c56-62a9-4c68-9a67-ca1cf255933f"},"vehicle_type_id":"4","last_reported":1736590127,"current_range_meters":26000,"station_id":"ce4bhn92rcd13ifvqgrg","pricing_plan_id":"cebpf4jnsgd1na2vs0mg"},{"bike_id":"35c79811-5d1a-4758-a3bd-5cdf0d2ebc11","system_id":"levelo_inurba_marseille","lat":43.29813,"lon":5.38095,"is_reserved":false,"is_disabled":false,"rental_uris":{"android":"levelo://app?vid=35c79811-5d1a-4758-a3bd-5cdf0d2ebc11","ios":"levelo://app?vid=35c79811-5d1a-4758-a3bd-5cdf0d2ebc11"},"vehicle_type_id":"4","last_reported":1736590127,"current_range_meters":38400,"station_id":"ce4bgip2rcd13ifvqbb0","pricing_plan_id":"cebpf4jnsgd1na2vs0mg"},{"bike_id":"22c8b933-4f59-48f8-bf50-fbb6be2a027b","system_id":"levelo_inurba_marseille","lat":43.29378,"lon":5.37834,"is_reserved":false,"is_disabled":false,"rental_uris":{"android":"levelo://app?vid=22c8b933-4f59-48f8-bf50-fbb6be2a027b","ios":"levelo://app?vid=22c8b933-4f59-48f8-bf50-fbb6be2a027b"},"vehicle_type_id":"4","last_reported":1736590127,"current_range_meters":25200,"station_id":"ce4bgjh2rcd13ifvqbf0","pricing_plan_id":"cebpf4jnsgd1na2vs0mg"},{"bike_id":"07b8b9a3-a564-434b-90a6-202790eb4cd3","system_id":"levelo_inurba_marseille","lat":43.30529,"lon":5.36547,"is_reserved":false,"is_disabled":false,"rental_uris":{"android":"levelo://app?vid=07b8b9a3-a564-434b-90a6-202790eb4cd3","ios":"levelo://app?vid=07b8b9a3-a564-434b-90a6-202790eb4cd3"},"vehicle_type_id":"4","last_reported":1736590127,"current_range_meters":38800,"station_id":"ce4bgs12rcd13ifvqcag","pricing_plan_id":"cebpf4jnsgd1na2vs0mg"},{"bike_id":"a4674f3a-adca-4e30-813f-54fdfa0d5549","system_id":"levelo_inurba_marseille","lat":43.27053,"lon":5.40261,"is_reserved":false,"is_disabled":false,"rental_uris":{"android":"levelo://app?vid=a4674f3a-adca-4e30-813f-54fdfa0d5549","ios":"levelo://app?vid=a4674f3a-adca-4e30-813f-54fdfa0d5549"},"vehicle_type_id":"4","last_reported":1736590127,"current_range_meters":30000,"station_id":"ce4bhk92rcd13ifvqgc0","pricing_plan_id":"cebpf4jnsgd1na2vs0mg"},{"bike_id":"feb4f829-1d07-48b1-8bd9-fb8859e4baa4","system_id":"levelo_inurba_marseille","lat":43.29113,"lon":5.38146,"is_reserved":false,"is_disabled":true,"rental_uris":{"android":"levelo://app?vid=feb4f829-1d07-48b1-8bd9-fb8859e4baa4","ios":"levelo://app?vid=feb4f829-1d07-48b1-8bd9-fb8859e4baa4"},"vehicle_type_id":"4","last_reported":1736590127,"current_range_meters":17600,"station_id":"ce4bh512rcd13ifvqe2g","pricing_plan_id":"cebpf4jnsgd1na2vs0mg"},{"bike_id":"694391e6-2ee6-49b9-b392-010f2ade836e","system_id":"levelo_inurba_marseille","lat":43.24076,"lon":5.37758,"is_reserved":false,"is_disabled":false,"rental_uris":{"android":"levelo://app?vid=694391e6-2ee6-49b9-b392-010f2ade836e","ios":"levelo://app?vid=694391e6-2ee6-49b9-b392-010f2ade836e"},"vehicle_type_id":"4","last_reported":1736590127,"current_range_meters":27200,"station_id":"ce4bhnp2rcd13ifvqgvg","pricing_plan_id":"cebpf4jnsgd1na2vs0mg"},{"bike_id":"ef239ef4-54b0-4e78-998b-292c0e843285","system_id":"levelo_inurba_marseille","lat":43.28933,"lon":5.36642,"is_reserved":false,"is_disabled":false,"rental_uris":{"android":"levelo://app?vid=ef239ef4-54b0-4e78-998b-292c0e843285","ios":"levelo://app?vid=ef239ef4-54b0-4e78-998b-292c0e843285"},"vehicle_type_id":"4","last_reported":1736590127,"current_range_meters":24800,"station_id":"ce4bhap2rcd13ifvqek0","pricing_plan_id":"cebpf4jnsgd1na2vs0mg"},{"bike_id":"1ff4d6af-d168-4206-80a1-8f85ab0c0a00","system_id":"levelo_inurba_marseille","lat":43.2586,"lon":5.39945,"is_reserved":false,"is_disabled":true,"rental_uris":{"android":"levelo://app?vid=1ff4d6af-d168-4206-80a1-8f85ab0c0a00","ios":"levelo://app?vid=1ff4d6af-d168-4206-80a1-8f85ab0c0a00"},"vehicle_type_id":"4","last_reported":1736590127,"current_range_meters":18800,"station_id":"ce4bhl92rcd13ifvqghg","pricing_plan_id":"cebpf4jnsgd1na2vs0mg"},{"bike_id":"20c58da9-9f57-44b7-842a-e002e8b58fea","system_id":"levelo_inurba_marseille","lat":43.3042,"lon":5.39743,"is_reserved":false,"is_disabled":false,"rental_uris":{"android":"levelo://app?vid=20c58da9-9f57-44b7-842a-e002e8b58fea","ios":"levelo://app?vid=20c58da9-9f57-44b7-842a-e002e8b58fea"},"vehicle_type_id":"4","last_reported":1736590127,"current_range_meters":30800,"station_id":"ce4bh092rcd13ifvqd20","pricing_plan_id":"cebpf4jnsgd1na2vs0mg"},{"bike_id":"1d174f3c-56fd-4bd2-841f-15687ff97534","system_id":"levelo_inurba_marseille","lat":43.30134,"lon":5.39887,"is_reserved":false,"is_disabled":true,"rental_uris":{"android":"levelo://app?vid=1d174f3c-56fd-4bd2-841f-15687ff97534","ios":"levelo://app?vid=1d174f3c-56fd-4bd2-841f-15687ff97534"},"vehicle_type_id":"4","last_reported":1736590127,"current_range_meters":0,"station_id":"ce4bh0h2rcd13ifvqd40","pricing_plan_id":"cebpf4jnsgd1na2vs0mg"},{"bike_id":"4568528e-2291-42f6-a522-cc5b2e288658","system_id":"levelo_inurba_marseille","lat":43.2963,"lon":5.37712,"is_reserved":false,"is_disabled":false,"rental_uris":{"android":"levelo://app?vid=4568528e-2291-42f6-a522-cc5b2e288658","ios":"levelo://app?vid=4568528e-2291-42f6-a522-cc5b2e288658"},"vehicle_type_id":"4","last_reported":1736590127,"current_range_meters":35200,"station_id":"ce4bgi92rcd13ifvqb90","pricing_plan_id":"cebpf4jnsgd1na2vs0mg"},{"bike_id":"6d3d6abc-fcc3-4022-a1ec-5eeec13350b2","system_id":"levelo_inurba_marseille","lat":43.27495,"lon":5.42458,"is_reserved":false,"is_disabled":false,"rental_uris":{"android":"levelo://app?vid=6d3d6abc-fcc3-4022-a1ec-5eeec13350b2","ios":"levelo://app?vid=6d3d6abc-fcc3-4022-a1ec-5eeec13350b2"},"vehicle_type_id":"4","last_reported":1736590127,"current_range_meters":34000,"station_id":"ce4bhn92rcd13ifvqgrg","pricing_plan_id":"cebpf4jnsgd1na2vs0mg"},{"bike_id":"fed5eb1a-abda-4070-aa40-ce49d22d0407","system_id":"levelo_inurba_marseille","lat":43.30567,"lon":5.36528,"is_reserved":false,"is_disabled":false,"rental_uris":{"android":"levelo://app?vid=fed5eb1a-abda-4070-aa40-ce49d22d0407","ios":"levelo://app?vid=fed5eb1a-abda-4070-aa40-ce49d22d0407"},"vehicle_type_id":"4","last_reported":1736590127,"current_range_meters":17200,"station_id":"ce4bgs12rcd13ifvqcag","pricing_plan_id":"cebpf4jnsgd1na2vs0mg"},{"bike_id":"2b4cffb3-77ea-48e3-baee-701d676c1001","system_id":"levelo_inurba_marseille","lat":43.26074,"lon":5.38718,"is_reserved":false,"is_disabled":false,"rental_uris":{"android":"levelo://app?vid=2b4cffb3-77ea-48e3-baee-701d676c1001","ios":"levelo://app?vid=2b4cffb3-77ea-48e3-baee-701d676c1001"},"vehicle_type_id":"4","last_reported":1736590127,"current_range_meters":8000,"station_id":"","pricing_plan_id":"cebpf4jnsgd1na2vs0mg"},{"bike_id":"10f7d31a-ef8d-4e8a-acbf-8aa9a8c72143","system_id":"levelo_inurba_marseille","lat":43.24399,"lon":5.37086,"is_reserved":false,"is_disabled":false,"rental_uris":{"android":"levelo://app?vid=10f7d31a-ef8d-4e8a-acbf-8aa9a8c72143","ios":"levelo://app?vid=10f7d31a-ef8d-4e8a-acbf-8aa9a8c72143"},"vehicle_type_id":"4","last_reported":1736590127,"current_range_meters":18800,"station_id":"ce4bhhh2rcd13ifvqfk0","pricing_plan_id":"cebpf4jnsgd1na2vs0mg"},{"bike_id":"229a4a9e-a4d6-48f4-a974-2872d0fec353","system_id":"levelo_inurba_marseille","lat":43.26197,"lon":5.37464,"is_reserved":false,"is_disabled":false,"rental_uris":{"android":"levelo://app?vid=229a4a9e-a4d6-48f4-a974-2872d0fec353","ios":"levelo://app?vid=229a4a9e-a4d6-48f4-a974-2872d0fec353"},"vehicle_type_id":"4","last_reported":1736590127,"current_range_meters":25200,"station_id":"ce4bhgp2rcd13ifvqfc0","pricing_plan_id":"cebpf4jnsgd1na2vs0mg"},{"bike_id":"f0c080b7-cc84-4ae6-b5d3-19e354905365","system_id":"levelo_inurba_marseille","lat":43.29022,"lon":5.38137,"is_reserved":false,"is_disabled":false,"rental_uris":{"android":"levelo://app?vid=f0c080b7-cc84-4ae6-b5d3-19e354905365","ios":"levelo://app?vid=f0c080b7-cc84-4ae6-b5d3-19e354905365"},"vehicle_type_id":"4","last_reported":1736590127,"current_range_meters":36800,"station_id":"ce4bh4p2rcd13ifvqe1g","pricing_plan_id":"cebpf4jnsgd1na2vs0mg"},{"bike_id":"379d4bef-014e-41cb-9639-d72b0f382065","system_id":"levelo_inurba_marseille","lat":43.29619,"lon":5.37173,"is_reserved":false,"is_disabled":false,"rental_uris":{"android":"levelo://app?vid=379d4bef-014e-41cb-9639-d72b0f382065","ios":"levelo://app?vid=379d4bef-014e-41cb-9639-d72b0f382065"},"vehicle_type_id":"4","last_reported":1736590127,"current_range_meters":29600,"station_id":"ce4bgnh2rcd13ifvqc0g","pricing_plan_id":"cebpf4jnsgd1na2vs0mg"},{"bike_id":"ae29e0de-7b5a-45d6-ace3-313c5e88010a","system_id":"levelo_inurba_marseille","lat":43.28001,"lon":5.41666,"is_reserved":false,"is_disabled":true,"rental_uris":{"android":"levelo://app?vid=ae29e0de-7b5a-45d6-ace3-313c5e88010a","ios":"levelo://app?vid=ae29e0de-7b5a-45d6-ace3-313c5e88010a"},"vehicle_type_id":"4","last_reported":1736590127,"current_range_meters":1200,"station_id":"ce4bho12rcd13ifvqh1g","pricing_plan_id":"cebpf4jnsgd1na2vs0mg"},{"bike_id":"931d873d-7c0f-44bb-bab3-92c6d2a6e163","system_id":"levelo_inurba_marseille","lat":43.27668,"lon":5.38892,"is_reserved":false,"is_disabled":false,"rental_uris":{"android":"levelo://app?vid=931d873d-7c0f-44bb-bab3-92c6d2a6e163","ios":"levelo://app?vid=931d873d-7c0f-44bb-bab3-92c6d2a6e163"},"vehicle_type_id":"4","last_reported":1736590127,"current_range_meters":36400,"station_id":"ce4bhi12rcd13ifvqfo0","pricing_plan_id":"cebpf4jnsgd1na2vs0mg"},{"bike_id":"572f0254-11cf-4ef2-b3f9-66737ed8298a","system_id":"levelo_inurba_marseille","lat":43.28422,"lon":5.34995,"is_reserved":false,"is_disabled":true,"rental_uris":{"android":"levelo://app?vid=572f0254-11cf-4ef2-b3f9-66737ed8298a","ios":"levelo://app?vid=572f0254-11cf-4ef2-b3f9-66737ed8298a"},"vehicle_type_id":"4","last_reported":1736590127,"current_range_meters":0,"station_id":"ce4bhbh2rcd13ifvqepg","pricing_plan_id":"cebpf4jnsgd1na2vs0mg"},{"bike_id":"6292a855-cdaa-436c-a7d2-9513eaeb906b","system_id":"levelo_inurba_marseille","lat":43.29618,"lon":5.37155,"is_reserved":false,"is_disabled":false,"rental_uris":{"android":"levelo://app?vid=6292a855-cdaa-436c-a7d2-9513eaeb906b","ios":"levelo://app?vid=6292a855-cdaa-436c-a7d2-9513eaeb906b"},"vehicle_type_id":"4","last_reported":1736590127,"current_range_meters":17600,"station_id":"ce4bgnh2rcd13ifvqc0g","pricing_plan_id":"cebpf4jnsgd1na2vs0mg"},{"bike_id":"24bd131f-fceb-4ce6-b6f3-2cc044254956","system_id":"levelo_inurba_marseille","lat":43.29037,"lon":5.399593,"is_reserved":false,"is_disabled":false,"rental_uris":{"android":"levelo://app?vid=24bd131f-fceb-4ce6-b6f3-2cc044254956","ios":"levelo://app?vid=24bd131f-fceb-4ce6-b6f3-2cc044254956"},"vehicle_type_id":"4","last_reported":1736590127,"current_range_meters":37600,"station_id":"ce4bh392rcd13ifvqdm0","pricing_plan_id":"cebpf4jnsgd1na2vs0mg"},{"bike_id":"4b5c9b1c-dcf2-4768-8a96-8c2f98fb5ee5","system_id":"levelo_inurba_marseille","lat":43.23153,"lon":5.43711,"is_reserved":false,"is_disabled":false,"rental_uris":{"android":"levelo://app?vid=4b5c9b1c-dcf2-4768-8a96-8c2f98fb5ee5","ios":"levelo://app?vid=4b5c9b1c-dcf2-4768-8a96-8c2f98fb5ee5"},"vehicle_type_id":"4","last_reported":1736590127,"current_range_meters":36800,"station_id":"ce4bhmp2rcd13ifvqgog","pricing_plan_id":"cebpf4jnsgd1na2vs0mg"},{"bike_id":"eb257bb1-3fa7-4167-b1f7-63e7c0f4d074","system_id":"levelo_inurba_marseille","lat":43.23197,"lon":5.3555,"is_reserved":false,"is_disabled":false,"rental_uris":{"android":"levelo://app?vid=eb257bb1-3fa7-4167-b1f7-63e7c0f4d074","ios":"levelo://app?vid=eb257bb1-3fa7-4167-b1f7-63e7c0f4d074"},"vehicle_type_id":"4","last_reported":1736590127,"current_range_meters":30000,"station_id":"ce4bhu92rcd13ifvqi70","pricing_plan_id":"cebpf4jnsgd1na2vs0mg"},{"bike_id":"c86df6dc-be10-4b6f-aed3-e8e53e5fc2a4","system_id":"levelo_inurba_marseille","lat":43.27972,"lon":5.38741,"is_reserved":false,"is_disabled":false,"rental_uris":{"android":"levelo://app?vid=c86df6dc-be10-4b6f-aed3-e8e53e5fc2a4","ios":"levelo://app?vid=c86df6dc-be10-4b6f-aed3-e8e53e5fc2a4"},"vehicle_type_id":"4","last_reported":1736590127,"current_range_meters":32800,"station_id":"ce4bhg12rcd13ifvqf80","pricing_plan_id":"cebpf4jnsgd1na2vs0mg"},{"bike_id":"3e0dda11-bd29-4a47-a000-9730555dbb4f","system_id":"levelo_inurba_marseille","lat":43.24066,"lon":5.37755,"is_reserved":false,"is_disabled":false,"rental_uris":{"android":"levelo://app?vid=3e0dda11-bd29-4a47-a000-9730555dbb4f","ios":"levelo://app?vid=3e0dda11-bd29-4a47-a000-9730555dbb4f"},"vehicle_type_id":"4","last_reported":1736590127,"current_range_meters":38400,"station_id":"ce4bhnp2rcd13ifvqgvg","pricing_plan_id":"cebpf4jnsgd1na2vs0mg"},{"bike_id":"61754fba-3376-4768-8c7c-511ea5daf5e6","system_id":"levelo_inurba_marseille","lat":43.314435,"lon":5.373752,"is_reserved":false,"is_disabled":true,"rental_uris":{"android":"levelo://app?vid=61754fba-3376-4768-8c7c-511ea5daf5e6","ios":"levelo://app?vid=61754fba-3376-4768-8c7c-511ea5daf5e6"},"vehicle_type_id":"4","last_reported":1736590127,"current_range_meters":2000,"station_id":"","pricing_plan_id":"cebpf4jnsgd1na2vs0mg"},{"bike_id":"038048d3-67d1-430a-8aa7-0f86138d73a8","system_id":"levelo_inurba_marseille","lat":43.2973,"lon":5.37693,"is_reserved":false,"is_disabled":false,"rental_uris":{"android":"levelo://app?vid=038048d3-67d1-430a-8aa7-0f86138d73a8","ios":"levelo://app?vid=038048d3-67d1-430a-8aa7-0f86138d73a8"},"vehicle_type_id":"4","last_reported":1736590127,"current_range_meters":16000,"station_id":"ce4bgkh2rcd13ifvqbl0","pricing_plan_id":"cebpf4jnsgd1na2vs0mg"},{"bike_id":"30653996-9326-4bca-864c-21ac92f61041","system_id":"levelo_inurba_marseille","lat":43.24643,"lon":5.38906,"is_reserved":false,"is_disabled":false,"rental_uris":{"android":"levelo://app?vid=30653996-9326-4bca-864c-21ac92f61041","ios":"levelo://app?vid=30653996-9326-4bca-864c-21ac92f61041"},"vehicle_type_id":"4","last_reported":1736590127,"current_range_meters":33200,"station_id":"ce4bhg12rcd13ifvqf60","pricing_plan_id":"cebpf4jnsgd1na2vs0mg"},{"bike_id":"bed24a32-106d-49f4-8d2d-17f021b9dbe6","system_id":"levelo_inurba_marseille","lat":43.274969,"lon":5.424531,"is_reserved":false,"is_disabled":true,"rental_uris":{"android":"levelo://app?vid=bed24a32-106d-49f4-8d2d-17f021b9dbe6","ios":"levelo://app?vid=bed24a32-106d-49f4-8d2d-17f021b9dbe6"},"vehicle_type_id":"4","last_reported":1736590127,"current_range_meters":800,"station_id":"ce4bhn92rcd13ifvqgrg","pricing_plan_id":"cebpf4jnsgd1na2vs0mg"},{"bike_id":"a4de5071-dd1c-452c-a877-311a543c6eda","system_id":"levelo_inurba_marseille","lat":43.231534,"lon":5.437067,"is_reserved":false,"is_disabled":false,"rental_uris":{"android":"levelo://app?vid=a4de5071-dd1c-452c-a877-311a543c6eda","ios":"levelo://app?vid=a4de5071-dd1c-452c-a877-311a543c6eda"},"vehicle_type_id":"4","last_reported":1736590127,"current_range_meters":28400,"station_id":"ce4bhmp2rcd13ifvqgog","pricing_plan_id":"cebpf4jnsgd1na2vs0mg"},{"bike_id":"5158be52-4db1-4ea0-8941-d7d3b1734014","system_id":"levelo_inurba_marseille","lat":43.28485,"lon":5.38417,"is_reserved":false,"is_disabled":false,"rental_uris":{"android":"levelo://app?vid=5158be52-4db1-4ea0-8941-d7d3b1734014","ios":"levelo://app?vid=5158be52-4db1-4ea0-8941-d7d3b1734014"},"vehicle_type_id":"4","last_reported":1736590127,"current_range_meters":28000,"station_id":"ce4bh512rcd13ifvqe3g","pricing_plan_id":"cebpf4jnsgd1na2vs0mg"},{"bike_id":"51098504-36bc-46da-bc89-d62c2a5ea627","system_id":"levelo_inurba_marseille","lat":43.29409,"lon":5.38628,"is_reserved":false,"is_disabled":true,"rental_uris":{"android":"levelo://app?vid=51098504-36bc-46da-bc89-d62c2a5ea627","ios":"levelo://app?vid=51098504-36bc-46da-bc89-d62c2a5ea627"},"vehicle_type_id":"4","last_reported":1736590127,"current_range_meters":400,"station_id":"ce4bh2h2rcd13ifvqdh0","pricing_plan_id":"cebpf4jnsgd1na2vs0mg"},{"bike_id":"4d0fce21-800c-42f9-847f-9baafc74bda7","system_id":"levelo_inurba_marseille","lat":43.2744,"lon":5.39397,"is_reserved":false,"is_disabled":false,"rental_uris":{"android":"levelo://app?vid=4d0fce21-800c-42f9-847f-9baafc74bda7","ios":"levelo://app?vid=4d0fce21-800c-42f9-847f-9baafc74bda7"},"vehicle_type_id":"4","last_reported":1736590127,"current_range_meters":35600,"station_id":"ce4bhdp2rcd13ifvqf20","pricing_plan_id":"cebpf4jnsgd1na2vs0mg"},{"bike_id":"b704bf42-2bc7-4506-b669-8ca7a3330fef","system_id":"levelo_inurba_marseille","lat":43.28152,"lon":5.42629,"is_reserved":false,"is_disabled":true,"rental_uris":{"android":"levelo://app?vid=b704bf42-2bc7-4506-b669-8ca7a3330fef","ios":"levelo://app?vid=b704bf42-2bc7-4506-b669-8ca7a3330fef"},"vehicle_type_id":"4","last_reported":1736590127,"current_range_meters":32800,"station_id":"ce4bhnh2rcd13ifvqgug","pricing_plan_id":"cebpf4jnsgd1na2vs0mg"},{"bike_id":"68f135fc-4bd4-4724-b03e-262958a6d5dd","system_id":"levelo_inurba_marseille","lat":43.3374,"lon":5.37448,"is_reserved":false,"is_disabled":false,"rental_uris":{"android":"levelo://app?vid=68f135fc-4bd4-4724-b03e-262958a6d5dd","ios":"levelo://app?vid=68f135fc-4bd4-4724-b03e-262958a6d5dd"},"vehicle_type_id":"4","last_reported":1736590127,"current_range_meters":38000,"station_id":"","pricing_plan_id":"cebpf4jnsgd1na2vs0mg"},{"bike_id":"fc409626-cf3b-4f65-bf74-11f59f5d8632","system_id":"levelo_inurba_marseille","lat":43.28662,"lon":5.3636,"is_reserved":false,"is_disabled":false,"rental_uris":{"android":"levelo://app?vid=fc409626-cf3b-4f65-bf74-11f59f5d8632","ios":"levelo://app?vid=fc409626-cf3b-4f65-bf74-11f59f5d8632"},"vehicle_type_id":"4","last_reported":1736590127,"current_range_meters":38800,"station_id":"ce4bhah2rcd13ifvqej0","pricing_plan_id":"cebpf4jnsgd1na2vs0mg"},{"bike_id":"1987856f-76cd-431b-a3f6-7cd1fa990954","system_id":"levelo_inurba_marseille","lat":43.29039,"lon":5.39987,"is_reserved":false,"is_disabled":false,"rental_uris":{"android":"levelo://app?vid=1987856f-76cd-431b-a3f6-7cd1fa990954","ios":"levelo://app?vid=1987856f-76cd-431b-a3f6-7cd1fa990954"},"vehicle_type_id":"4","last_reported":1736590127,"current_range_meters":38400,"station_id":"ce4bh392rcd13ifvqdm0","pricing_plan_id":"cebpf4jnsgd1na2vs0mg"},{"bike_id":"ede473a8-4ad3-4177-9dfc-dc40ae6098e2","system_id":"levelo_inurba_marseille","lat":43.246468,"lon":5.381742,"is_reserved":false,"is_disabled":false,"rental_uris":{"android":"levelo://app?vid=ede473a8-4ad3-4177-9dfc-dc40ae6098e2","ios":"levelo://app?vid=ede473a8-4ad3-4177-9dfc-dc40ae6098e2"},"vehicle_type_id":"4","last_reported":1736590127,"current_range_meters":8000,"station_id":"ce4bhih2rcd13ifvqfr0","pricing_plan_id":"cebpf4jnsgd1na2vs0mg"},{"bike_id":"f62a7ed4-7c80-4ed8-9568-a4dea62069d1","system_id":"levelo_inurba_marseille","lat":43.28087,"lon":5.3966,"is_reserved":false,"is_disabled":true,"rental_uris":{"android":"levelo://app?vid=f62a7ed4-7c80-4ed8-9568-a4dea62069d1","ios":"levelo://app?vid=f62a7ed4-7c80-4ed8-9568-a4dea62069d1"},"vehicle_type_id":"4","last_reported":1736590127,"current_range_meters":37600,"station_id":"ce4bho12rcd13ifvqh2g","pricing_plan_id":"cebpf4jnsgd1na2vs0mg"},{"bike_id":"e2744ec8-2f1a-4025-9ec0-6a07f5db3fc4","system_id":"levelo_inurba_marseille","lat":43.254982,"lon":5.376497,"is_reserved":false,"is_disabled":false,"rental_uris":{"android":"levelo://app?vid=e2744ec8-2f1a-4025-9ec0-6a07f5db3fc4","ios":"levelo://app?vid=e2744ec8-2f1a-4025-9ec0-6a07f5db3fc4"},"vehicle_type_id":"4","last_reported":1736590127,"current_range_meters":38800,"station_id":"ce4bhh12rcd13ifvqff0","pricing_plan_id":"cebpf4jnsgd1na2vs0mg"},{"bike_id":"cc759f92-165c-46f7-84dc-07726493697c","system_id":"levelo_inurba_marseille","lat":43.28076,"lon":5.39661,"is_reserved":false,"is_disabled":false,"rental_uris":{"android":"levelo://app?vid=cc759f92-165c-46f7-84dc-07726493697c","ios":"levelo://app?vid=cc759f92-165c-46f7-84dc-07726493697c"},"vehicle_type_id":"4","last_reported":1736590127,"current_range_meters":28400,"station_id":"ce4bho12rcd13ifvqh2g","pricing_plan_id":"cebpf4jnsgd1na2vs0mg"},{"bike_id":"9c413fb1-8955-4528-ba15-78d41b7bda61","system_id":"levelo_inurba_marseille","lat":43.28727,"lon":5.36085,"is_reserved":false,"is_disabled":false,"rental_uris":{"android":"levelo://app?vid=9c413fb1-8955-4528-ba15-78d41b7bda61","ios":"levelo://app?vid=9c413fb1-8955-4528-ba15-78d41b7bda61"},"vehicle_type_id":"4","last_reported":1736590127,"current_range_meters":38800,"station_id":"cki0cbj6b192h4jlfktg","pricing_plan_id":"cebpf4jnsgd1na2vs0mg"},{"bike_id":"a8cd9a05-2718-49a4-a64d-be4b79dacd42","system_id":"levelo_inurba_marseille","lat":43.27206,"lon":5.392,"is_reserved":false,"is_disabled":false,"rental_uris":{"android":"levelo://app?vid=a8cd9a05-2718-49a4-a64d-be4b79dacd42","ios":"levelo://app?vid=a8cd9a05-2718-49a4-a64d-be4b79dacd42"},"vehicle_type_id":"4","last_reported":1736590127,"current_range_meters":38800,"station_id":"ce4bhhp2rcd13ifvqfm0","pricing_plan_id":"cebpf4jnsgd1na2vs0mg"},{"bike_id":"c60f5105-31fe-4a50-8f42-f74bab4bd149","system_id":"levelo_inurba_marseille","lat":43.29621,"lon":5.3717,"is_reserved":false,"is_disabled":false,"rental_uris":{"android":"levelo://app?vid=c60f5105-31fe-4a50-8f42-f74bab4bd149","ios":"levelo://app?vid=c60f5105-31fe-4a50-8f42-f74bab4bd149"},"vehicle_type_id":"4","last_reported":1736590127,"current_range_meters":32000,"station_id":"ce4bgnh2rcd13ifvqc0g","pricing_plan_id":"cebpf4jnsgd1na2vs0mg"},{"bike_id":"22b3f247-bf1f-493d-8d75-89304a76ad0b","system_id":"levelo_inurba_marseille","lat":43.27498,"lon":5.42461,"is_reserved":false,"is_disabled":false,"rental_uris":{"android":"levelo://app?vid=22b3f247-bf1f-493d-8d75-89304a76ad0b","ios":"levelo://app?vid=22b3f247-bf1f-493d-8d75-89304a76ad0b"},"vehicle_type_id":"4","last_reported":1736590127,"current_range_meters":33200,"station_id":"ce4bhn92rcd13ifvqgrg","pricing_plan_id":"cebpf4jnsgd1na2vs0mg"},{"bike_id":"e6f7d7e2-d224-4aea-aab6-683e10be3675","system_id":"levelo_inurba_marseille","lat":43.2885,"lon":5.35853,"is_reserved":false,"is_disabled":false,"rental_uris":{"android":"levelo://app?vid=e6f7d7e2-d224-4aea-aab6-683e10be3675","ios":"levelo://app?vid=e6f7d7e2-d224-4aea-aab6-683e10be3675"},"vehicle_type_id":"4","last_reported":1736590127,"current_range_meters":36000,"station_id":"ce4bhb12rcd13ifvqem0","pricing_plan_id":"cebpf4jnsgd1na2vs0mg"},{"bike_id":"46b4f480-a748-4a90-b282-57ccf8807476","system_id":"levelo_inurba_marseille","lat":43.30633,"lon":5.40069,"is_reserved":false,"is_disabled":false,"rental_uris":{"android":"levelo://app?vid=46b4f480-a748-4a90-b282-57ccf8807476","ios":"levelo://app?vid=46b4f480-a748-4a90-b282-57ccf8807476"},"vehicle_type_id":"4","last_reported":1736590127,"current_range_meters":7200,"station_id":"ce4bh112rcd13ifvqda0","pricing_plan_id":"cebpf4jnsgd1na2vs0mg"},{"bike_id":"94378ab3-662a-42af-879e-4385d9be5343","system_id":"levelo_inurba_marseille","lat":43.31118,"lon":5.37776,"is_reserved":false,"is_disabled":false,"rental_uris":{"android":"levelo://app?vid=94378ab3-662a-42af-879e-4385d9be5343","ios":"levelo://app?vid=94378ab3-662a-42af-879e-4385d9be5343"},"vehicle_type_id":"4","last_reported":1736590127,"current_range_meters":38800,"station_id":"ce4bgt92rcd13ifvqcg0","pricing_plan_id":"cebpf4jnsgd1na2vs0mg"},{"bike_id":"1e2223a2-c032-49e7-8dbf-982df86a0520","system_id":"levelo_inurba_marseille","lat":43.22923,"lon":5.35386,"is_reserved":false,"is_disabled":false,"rental_uris":{"android":"levelo://app?vid=1e2223a2-c032-49e7-8dbf-982df86a0520","ios":"levelo://app?vid=1e2223a2-c032-49e7-8dbf-982df86a0520"},"vehicle_type_id":"4","last_reported":1736590127,"current_range_meters":28800,"station_id":"cpo3532slgdg3j2ikp40","pricing_plan_id":"cebpf4jnsgd1na2vs0mg"},{"bike_id":"ce953325-97b5-41b7-8d76-df6f1a233491","system_id":"levelo_inurba_marseille","lat":43.29635,"lon":5.37162,"is_reserved":false,"is_disabled":false,"rental_uris":{"android":"levelo://app?vid=ce953325-97b5-41b7-8d76-df6f1a233491","ios":"levelo://app?vid=ce953325-97b5-41b7-8d76-df6f1a233491"},"vehicle_type_id":"4","last_reported":1736590127,"current_range_meters":39200,"station_id":"ce4bgnh2rcd13ifvqc0g","pricing_plan_id":"cebpf4jnsgd1na2vs0mg"},{"bike_id":"aa8ac0ca-89b2-472c-abe3-0a86d5057c87","system_id":"levelo_inurba_marseille","lat":43.26061,"lon":5.39393,"is_reserved":false,"is_disabled":false,"rental_uris":{"android":"levelo://app?vid=aa8ac0ca-89b2-472c-abe3-0a86d5057c87","ios":"levelo://app?vid=aa8ac0ca-89b2-472c-abe3-0a86d5057c87"},"vehicle_type_id":"4","last_reported":1736590127,"current_range_meters":6400,"station_id":"ce4bhh92rcd13ifvqfj0","pricing_plan_id":"cebpf4jnsgd1na2vs0mg"},{"bike_id":"5f2cf356-122a-4d24-85ba-e38bc4612223","system_id":"levelo_inurba_marseille","lat":43.25576,"lon":5.38257,"is_reserved":false,"is_disabled":true,"rental_uris":{"android":"levelo://app?vid=5f2cf356-122a-4d24-85ba-e38bc4612223","ios":"levelo://app?vid=5f2cf356-122a-4d24-85ba-e38bc4612223"},"vehicle_type_id":"4","last_reported":1736590127,"current_range_meters":33600,"station_id":"ce4bhih2rcd13ifvqfs0","pricing_plan_id":"cebpf4jnsgd1na2vs0mg"},{"bike_id":"be8a233f-ad85-41b2-af03-bfa1e3033438","system_id":"levelo_inurba_marseille","lat":43.23197,"lon":5.35549,"is_reserved":false,"is_disabled":false,"rental_uris":{"android":"levelo://app?vid=be8a233f-ad85-41b2-af03-bfa1e3033438","ios":"levelo://app?vid=be8a233f-ad85-41b2-af03-bfa1e3033438"},"vehicle_type_id":"4","last_reported":1736590127,"current_range_meters":20000,"station_id":"ce4bhu92rcd13ifvqi70","pricing_plan_id":"cebpf4jnsgd1na2vs0mg"},{"bike_id":"d7284d59-0fa0-4e55-88c3-9102035d8a99","system_id":"levelo_inurba_marseille","lat":43.30248,"lon":5.40073,"is_reserved":false,"is_disabled":true,"rental_uris":{"android":"levelo://app?vid=d7284d59-0fa0-4e55-88c3-9102035d8a99","ios":"levelo://app?vid=d7284d59-0fa0-4e55-88c3-9102035d8a99"},"vehicle_type_id":"4","last_reported":1736590127,"current_range_meters":9600,"station_id":"ce4bgvh2rcd13ifvqcs0","pricing_plan_id":"cebpf4jnsgd1na2vs0mg"},{"bike_id":"6f217313-e82a-4ced-ad03-cd53b8b45ef1","system_id":"levelo_inurba_marseille","lat":43.29959,"lon":5.37145,"is_reserved":false,"is_disabled":false,"rental_uris":{"android":"levelo://app?vid=6f217313-e82a-4ced-ad03-cd53b8b45ef1","ios":"levelo://app?vid=6f217313-e82a-4ced-ad03-cd53b8b45ef1"},"vehicle_type_id":"4","last_reported":1736590127,"current_range_meters":26000,"station_id":"ce4bgr92rcd13ifvqc7g","pricing_plan_id":"cebpf4jnsgd1na2vs0mg"},{"bike_id":"049cc9e4-2f8e-4d46-986b-fac77d19d852","system_id":"levelo_inurba_marseille","lat":43.30548,"lon":5.36549,"is_reserved":false,"is_disabled":false,"rental_uris":{"android":"levelo://app?vid=049cc9e4-2f8e-4d46-986b-fac77d19d852","ios":"levelo://app?vid=049cc9e4-2f8e-4d46-986b-fac77d19d852"},"vehicle_type_id":"4","last_reported":1736590127,"current_range_meters":38800,"station_id":"ce4bgs12rcd13ifvqcag","pricing_plan_id":"cebpf4jnsgd1na2vs0mg"},{"bike_id":"57f5a8a9-f2e5-4673-966d-ca04b8d8c8e6","system_id":"levelo_inurba_marseille","lat":43.3111,"lon":5.37773,"is_reserved":false,"is_disabled":true,"rental_uris":{"android":"levelo://app?vid=57f5a8a9-f2e5-4673-966d-ca04b8d8c8e6","ios":"levelo://app?vid=57f5a8a9-f2e5-4673-966d-ca04b8d8c8e6"},"vehicle_type_id":"4","last_reported":1736590127,"current_range_meters":7200,"station_id":"ce4bgt92rcd13ifvqcg0","pricing_plan_id":"cebpf4jnsgd1na2vs0mg"},{"bike_id":"85427a88-99f5-4856-b496-8ef79c1ec2f5","system_id":"levelo_inurba_marseille","lat":43.24678,"lon":5.38184,"is_reserved":false,"is_disabled":false,"rental_uris":{"android":"levelo://app?vid=85427a88-99f5-4856-b496-8ef79c1ec2f5","ios":"levelo://app?vid=85427a88-99f5-4856-b496-8ef79c1ec2f5"},"vehicle_type_id":"4","last_reported":1736590127,"current_range_meters":34800,"station_id":"ce4bhih2rcd13ifvqfr0","pricing_plan_id":"cebpf4jnsgd1na2vs0mg"},{"bike_id":"ee609d1c-9502-4854-a56d-b2b801a29790","system_id":"levelo_inurba_marseille","lat":43.28572,"lon":5.39505,"is_reserved":false,"is_disabled":false,"rental_uris":{"android":"levelo://app?vid=ee609d1c-9502-4854-a56d-b2b801a29790","ios":"levelo://app?vid=ee609d1c-9502-4854-a56d-b2b801a29790"},"vehicle_type_id":"4","last_reported":1736590127,"current_range_meters":36800,"station_id":"ce4bh292rcd13ifvqdg0","pricing_plan_id":"cebpf4jnsgd1na2vs0mg"},{"bike_id":"43999325-7ee1-4c20-a9de-3d2bca30e415","system_id":"levelo_inurba_marseille","lat":43.24077,"lon":5.37728,"is_reserved":false,"is_disabled":false,"rental_uris":{"android":"levelo://app?vid=43999325-7ee1-4c20-a9de-3d2bca30e415","ios":"levelo://app?vid=43999325-7ee1-4c20-a9de-3d2bca30e415"},"vehicle_type_id":"4","last_reported":1736590127,"current_range_meters":20400,"station_id":"ce4bhnp2rcd13ifvqgvg","pricing_plan_id":"cebpf4jnsgd1na2vs0mg"},{"bike_id":"91291e8f-d824-472a-8638-bad6f379f32e","system_id":"levelo_inurba_marseille","lat":43.30506,"lon":5.38091,"is_reserved":false,"is_disabled":false,"rental_uris":{"android":"levelo://app?vid=91291e8f-d824-472a-8638-bad6f379f32e","ios":"levelo://app?vid=91291e8f-d824-472a-8638-bad6f379f32e"},"vehicle_type_id":"4","last_reported":1736590127,"current_range_meters":34800,"station_id":"","pricing_plan_id":"cebpf4jnsgd1na2vs0mg"},{"bike_id":"4f4f1e3e-7c74-4289-99f8-67d870186b87","system_id":"levelo_inurba_marseille","lat":43.276756,"lon":5.389,"is_reserved":false,"is_disabled":false,"rental_uris":{"android":"levelo://app?vid=4f4f1e3e-7c74-4289-99f8-67d870186b87","ios":"levelo://app?vid=4f4f1e3e-7c74-4289-99f8-67d870186b87"},"vehicle_type_id":"4","last_reported":1736590127,"current_range_meters":37600,"station_id":"ce4bhi12rcd13ifvqfo0","pricing_plan_id":"cebpf4jnsgd1na2vs0mg"},{"bike_id":"ad28bd53-1c8c-44ea-9a1c-1e5a5b2498fe","system_id":"levelo_inurba_marseille","lat":43.2417,"lon":5.36402,"is_reserved":false,"is_disabled":false,"rental_uris":{"android":"levelo://app?vid=ad28bd53-1c8c-44ea-9a1c-1e5a5b2498fe","ios":"levelo://app?vid=ad28bd53-1c8c-44ea-9a1c-1e5a5b2498fe"},"vehicle_type_id":"4","last_reported":1736590127,"current_range_meters":7200,"station_id":"cpo36qri1sfpv3e86is0","pricing_plan_id":"cebpf4jnsgd1na2vs0mg"},{"bike_id":"e000c602-e61c-4736-8987-5ffa6e318e7a","system_id":"levelo_inurba_marseille","lat":43.27998,"lon":5.40013,"is_reserved":false,"is_disabled":false,"rental_uris":{"android":"levelo://app?vid=e000c602-e61c-4736-8987-5ffa6e318e7a","ios":"levelo://app?vid=e000c602-e61c-4736-8987-5ffa6e318e7a"},"vehicle_type_id":"4","last_reported":1736590127,"current_range_meters":10800,"station_id":"ce4bho92rcd13ifvqh4g","pricing_plan_id":"cebpf4jnsgd1na2vs0mg"},{"bike_id":"99f9f5e1-c5aa-43d4-a0cd-fae92ca03749","system_id":"levelo_inurba_marseille","lat":43.30149,"lon":5.38067,"is_reserved":false,"is_disabled":false,"rental_uris":{"android":"levelo://app?vid=99f9f5e1-c5aa-43d4-a0cd-fae92ca03749","ios":"levelo://app?vid=99f9f5e1-c5aa-43d4-a0cd-fae92ca03749"},"vehicle_type_id":"4","last_reported":1736590127,"current_range_meters":32400,"station_id":"ce4bgjp2rcd13ifvqbh0","pricing_plan_id":"cebpf4jnsgd1na2vs0mg"},{"bike_id":"ddbb6c22-ce6c-4a2b-9053-6349e4af3c9a","system_id":"levelo_inurba_marseille","lat":43.25856,"lon":5.39897,"is_reserved":false,"is_disabled":false,"rental_uris":{"android":"levelo://app?vid=ddbb6c22-ce6c-4a2b-9053-6349e4af3c9a","ios":"levelo://app?vid=ddbb6c22-ce6c-4a2b-9053-6349e4af3c9a"},"vehicle_type_id":"4","last_reported":1736590127,"current_range_meters":37600,"station_id":"ce4bhl92rcd13ifvqghg","pricing_plan_id":"cebpf4jnsgd1na2vs0mg"},{"bike_id":"b40cbb82-b14f-4980-8256-9069a45d9975","system_id":"levelo_inurba_marseille","lat":43.2894,"lon":5.396253,"is_reserved":false,"is_disabled":false,"rental_uris":{"android":"levelo://app?vid=b40cbb82-b14f-4980-8256-9069a45d9975","ios":"levelo://app?vid=b40cbb82-b14f-4980-8256-9069a45d9975"},"vehicle_type_id":"4","last_reported":1736590127,"current_range_meters":35600,"station_id":"ce4bh3h2rcd13ifvqdn0","pricing_plan_id":"cebpf4jnsgd1na2vs0mg"},{"bike_id":"edc2e534-d1c4-4d9c-a67c-87dfaa1de669","system_id":"levelo_inurba_marseille","lat":43.28613,"lon":5.35111,"is_reserved":false,"is_disabled":false,"rental_uris":{"android":"levelo://app?vid=edc2e534-d1c4-4d9c-a67c-87dfaa1de669","ios":"levelo://app?vid=edc2e534-d1c4-4d9c-a67c-87dfaa1de669"},"vehicle_type_id":"4","last_reported":1736590127,"current_range_meters":38800,"station_id":"ce4bhch2rcd13ifvqeug","pricing_plan_id":"cebpf4jnsgd1na2vs0mg"},{"bike_id":"a992414e-6779-4531-ad35-5c0544f4123b","system_id":"levelo_inurba_marseille","lat":43.27839,"lon":5.39209,"is_reserved":false,"is_disabled":false,"rental_uris":{"android":"levelo://app?vid=a992414e-6779-4531-ad35-5c0544f4123b","ios":"levelo://app?vid=a992414e-6779-4531-ad35-5c0544f4123b"},"vehicle_type_id":"4","last_reported":1736590127,"current_range_meters":20000,"station_id":"ce4bhjp2rcd13ifvqga0","pricing_plan_id":"cebpf4jnsgd1na2vs0mg"},{"bike_id":"792dda9c-3b53-4221-9448-a56d1531897b","system_id":"levelo_inurba_marseille","lat":43.30091,"lon":5.39073,"is_reserved":false,"is_disabled":false,"rental_uris":{"android":"levelo://app?vid=792dda9c-3b53-4221-9448-a56d1531897b","ios":"levelo://app?vid=792dda9c-3b53-4221-9448-a56d1531897b"},"vehicle_type_id":"4","last_reported":1736590127,"current_range_meters":24000,"station_id":"ce4bh192rcd13ifvqdb0","pricing_plan_id":"cebpf4jnsgd1na2vs0mg"},{"bike_id":"8b88170d-e695-4530-8583-a66b3ec41a93","system_id":"levelo_inurba_marseille","lat":43.33621,"lon":5.41038,"is_reserved":false,"is_disabled":true,"rental_uris":{"android":"levelo://app?vid=8b88170d-e695-4530-8583-a66b3ec41a93","ios":"levelo://app?vid=8b88170d-e695-4530-8583-a66b3ec41a93"},"vehicle_type_id":"4","last_reported":1736590127,"current_range_meters":12000,"station_id":"ce4bhqh2rcd13ifvqhmg","pricing_plan_id":"cebpf4jnsgd1na2vs0mg"},{"bike_id":"3a16c1ee-f720-45eb-bdaf-ae71c9e16faf","system_id":"levelo_inurba_marseille","lat":43.32536,"lon":5.41479,"is_reserved":false,"is_disabled":false,"rental_uris":{"android":"levelo://app?vid=3a16c1ee-f720-45eb-bdaf-ae71c9e16faf","ios":"levelo://app?vid=3a16c1ee-f720-45eb-bdaf-ae71c9e16faf"},"vehicle_type_id":"4","last_reported":1736590127,"current_range_meters":38000,"station_id":"ce4bhq12rcd13ifvqhhg","pricing_plan_id":"cebpf4jnsgd1na2vs0mg"},{"bike_id":"b8acbba0-a715-4ced-a2aa-0517db10ac9d","system_id":"levelo_inurba_marseille","lat":43.229235,"lon":5.353687,"is_reserved":false,"is_disabled":true,"rental_uris":{"android":"levelo://app?vid=b8acbba0-a715-4ced-a2aa-0517db10ac9d","ios":"levelo://app?vid=b8acbba0-a715-4ced-a2aa-0517db10ac9d"},"vehicle_type_id":"4","last_reported":1736590127,"current_range_meters":36800,"station_id":"cpo3532slgdg3j2ikp40","pricing_plan_id":"cebpf4jnsgd1na2vs0mg"},{"bike_id":"93eae98b-5ccf-4ee7-9d96-0e4060f411f2","system_id":"levelo_inurba_marseille","lat":43.23976,"lon":5.36666,"is_reserved":false,"is_disabled":false,"rental_uris":{"android":"levelo://app?vid=93eae98b-5ccf-4ee7-9d96-0e4060f411f2","ios":"levelo://app?vid=93eae98b-5ccf-4ee7-9d96-0e4060f411f2"},"vehicle_type_id":"4","last_reported":1736590127,"current_range_meters":28400,"station_id":"ce4bhi12rcd13ifvqfp0","pricing_plan_id":"cebpf4jnsgd1na2vs0mg"},{"bike_id":"10805d30-f651-42fc-83dc-af6ada96f984","system_id":"levelo_inurba_marseille","lat":43.23189,"lon":5.39983,"is_reserved":false,"is_disabled":false,"rental_uris":{"android":"levelo://app?vid=10805d30-f651-42fc-83dc-af6ada96f984","ios":"levelo://app?vid=10805d30-f651-42fc-83dc-af6ada96f984"},"vehicle_type_id":"4","last_reported":1736590127,"current_range_meters":16800,"station_id":"ce4bhn12rcd13ifvqgqg","pricing_plan_id":"cebpf4jnsgd1na2vs0mg"},{"bike_id":"492eaeaa-12ec-45d5-becd-2f0b35e16c8d","system_id":"levelo_inurba_marseille","lat":43.24166,"lon":5.36396,"is_reserved":false,"is_disabled":false,"rental_uris":{"android":"levelo://app?vid=492eaeaa-12ec-45d5-becd-2f0b35e16c8d","ios":"levelo://app?vid=492eaeaa-12ec-45d5-becd-2f0b35e16c8d"},"vehicle_type_id":"4","last_reported":1736590127,"current_range_meters":9600,"station_id":"cpo36qri1sfpv3e86is0","pricing_plan_id":"cebpf4jnsgd1na2vs0mg"},{"bike_id":"68445e9b-6042-4b3d-9a2c-ffb5cbef45f5","system_id":"levelo_inurba_marseille","lat":43.25577,"lon":5.38223,"is_reserved":false,"is_disabled":false,"rental_uris":{"android":"levelo://app?vid=68445e9b-6042-4b3d-9a2c-ffb5cbef45f5","ios":"levelo://app?vid=68445e9b-6042-4b3d-9a2c-ffb5cbef45f5"},"vehicle_type_id":"4","last_reported":1736590127,"current_range_meters":31200,"station_id":"ce4bhih2rcd13ifvqfs0","pricing_plan_id":"cebpf4jnsgd1na2vs0mg"},{"bike_id":"377730c6-0336-4c78-9c46-cdee41ff19a9","system_id":"levelo_inurba_marseille","lat":43.28046,"lon":5.41131,"is_reserved":false,"is_disabled":true,"rental_uris":{"android":"levelo://app?vid=377730c6-0336-4c78-9c46-cdee41ff19a9","ios":"levelo://app?vid=377730c6-0336-4c78-9c46-cdee41ff19a9"},"vehicle_type_id":"4","last_reported":1736590127,"current_range_meters":1600,"station_id":"","pricing_plan_id":"cebpf4jnsgd1na2vs0mg"},{"bike_id":"054cd636-1c92-4b02-9f52-65bb09761079","system_id":"levelo_inurba_marseille","lat":43.27621,"lon":5.36113,"is_reserved":false,"is_disabled":true,"rental_uris":{"android":"levelo://app?vid=054cd636-1c92-4b02-9f52-65bb09761079","ios":"levelo://app?vid=054cd636-1c92-4b02-9f52-65bb09761079"},"vehicle_type_id":"4","last_reported":1736590127,"current_range_meters":37600,"station_id":"ce4bgj92rcd13ifvqbe0","pricing_plan_id":"cebpf4jnsgd1na2vs0mg"},{"bike_id":"266859f2-18fe-482a-8c9f-5bdad982c716","system_id":"levelo_inurba_marseille","lat":43.28051,"lon":5.41119,"is_reserved":false,"is_disabled":true,"rental_uris":{"android":"levelo://app?vid=266859f2-18fe-482a-8c9f-5bdad982c716","ios":"levelo://app?vid=266859f2-18fe-482a-8c9f-5bdad982c716"},"vehicle_type_id":"4","last_reported":1736590127,"current_range_meters":0,"station_id":"","pricing_plan_id":"cebpf4jnsgd1na2vs0mg"},{"bike_id":"fd01bc8c-af59-4352-a996-47a66c3328f9","system_id":"levelo_inurba_marseille","lat":43.29909,"lon":5.38153,"is_reserved":false,"is_disabled":true,"rental_uris":{"android":"levelo://app?vid=fd01bc8c-af59-4352-a996-47a66c3328f9","ios":"levelo://app?vid=fd01bc8c-af59-4352-a996-47a66c3328f9"},"vehicle_type_id":"4","last_reported":1736590127,"current_range_meters":38800,"station_id":"ce4bgj12rcd13ifvqbc0","pricing_plan_id":"cebpf4jnsgd1na2vs0mg"},{"bike_id":"947af22a-a795-4776-9a77-96172f7d110a","system_id":"levelo_inurba_marseille","lat":43.29013,"lon":5.35611,"is_reserved":false,"is_disabled":false,"rental_uris":{"android":"levelo://app?vid=947af22a-a795-4776-9a77-96172f7d110a","ios":"levelo://app?vid=947af22a-a795-4776-9a77-96172f7d110a"},"vehicle_type_id":"4","last_reported":1736590127,"current_range_meters":29600,"station_id":"ce4bhb92rcd13ifvqen0","pricing_plan_id":"cebpf4jnsgd1na2vs0mg"},{"bike_id":"9839f5ea-54d5-4db4-a7e0-a6a0e4da3e66","system_id":"levelo_inurba_marseille","lat":43.28934,"lon":5.36642,"is_reserved":false,"is_disabled":false,"rental_uris":{"android":"levelo://app?vid=9839f5ea-54d5-4db4-a7e0-a6a0e4da3e66","ios":"levelo://app?vid=9839f5ea-54d5-4db4-a7e0-a6a0e4da3e66"},"vehicle_type_id":"4","last_reported":1736590127,"current_range_meters":18000,"station_id":"ce4bhap2rcd13ifvqek0","pricing_plan_id":"cebpf4jnsgd1na2vs0mg"},{"bike_id":"017a4be0-f9e7-4dbd-8d5b-f9c069e4153a","system_id":"levelo_inurba_marseille","lat":43.2656,"lon":5.37295,"is_reserved":false,"is_disabled":false,"rental_uris":{"android":"levelo://app?vid=017a4be0-f9e7-4dbd-8d5b-f9c069e4153a","ios":"levelo://app?vid=017a4be0-f9e7-4dbd-8d5b-f9c069e4153a"},"vehicle_type_id":"4","last_reported":1736590127,"current_range_meters":6000,"station_id":"ce4bhg12rcd13ifvqf70","pricing_plan_id":"cebpf4jnsgd1na2vs0mg"},{"bike_id":"21397f9d-a72d-4419-82a0-4e89ff1e2a56","system_id":"levelo_inurba_marseille","lat":43.27985,"lon":5.38683,"is_reserved":false,"is_disabled":false,"rental_uris":{"android":"levelo://app?vid=21397f9d-a72d-4419-82a0-4e89ff1e2a56","ios":"levelo://app?vid=21397f9d-a72d-4419-82a0-4e89ff1e2a56"},"vehicle_type_id":"4","last_reported":1736590127,"current_range_meters":38400,"station_id":"ce4bhg12rcd13ifvqf80","pricing_plan_id":"cebpf4jnsgd1na2vs0mg"},{"bike_id":"f3eda479-fbc7-483b-af70-e98c73814492","system_id":"levelo_inurba_marseille","lat":43.28837,"lon":5.35828,"is_reserved":false,"is_disabled":false,"rental_uris":{"android":"levelo://app?vid=f3eda479-fbc7-483b-af70-e98c73814492","ios":"levelo://app?vid=f3eda479-fbc7-483b-af70-e98c73814492"},"vehicle_type_id":"4","last_reported":1736590127,"current_range_meters":36000,"station_id":"ce4bhb12rcd13ifvqem0","pricing_plan_id":"cebpf4jnsgd1na2vs0mg"},{"bike_id":"e53ac43a-53d3-47b2-af6c-16783631ac47","system_id":"levelo_inurba_marseille","lat":43.28,"lon":5.40016,"is_reserved":false,"is_disabled":false,"rental_uris":{"android":"levelo://app?vid=e53ac43a-53d3-47b2-af6c-16783631ac47","ios":"levelo://app?vid=e53ac43a-53d3-47b2-af6c-16783631ac47"},"vehicle_type_id":"4","last_reported":1736590127,"current_range_meters":38800,"station_id":"ce4bho92rcd13ifvqh4g","pricing_plan_id":"cebpf4jnsgd1na2vs0mg"},{"bike_id":"458a1f53-80d3-4da8-b10b-261d3a24c0a6","system_id":"levelo_inurba_marseille","lat":43.31366,"lon":5.38516,"is_reserved":false,"is_disabled":false,"rental_uris":{"android":"levelo://app?vid=458a1f53-80d3-4da8-b10b-261d3a24c0a6","ios":"levelo://app?vid=458a1f53-80d3-4da8-b10b-261d3a24c0a6"},"vehicle_type_id":"4","last_reported":1736590127,"current_range_meters":38800,"station_id":"ce4bgt92rcd13ifvqcf0","pricing_plan_id":"cebpf4jnsgd1na2vs0mg"},{"bike_id":"fa2ca9db-1b78-4239-b60c-fb8c4e90b039","system_id":"levelo_inurba_marseille","lat":43.25494,"lon":5.37654,"is_reserved":false,"is_disabled":false,"rental_uris":{"android":"levelo://app?vid=fa2ca9db-1b78-4239-b60c-fb8c4e90b039","ios":"levelo://app?vid=fa2ca9db-1b78-4239-b60c-fb8c4e90b039"},"vehicle_type_id":"4","last_reported":1736590127,"current_range_meters":16400,"station_id":"ce4bhh12rcd13ifvqff0","pricing_plan_id":"cebpf4jnsgd1na2vs0mg"},{"bike_id":"c8aef9ab-ffaf-4274-a001-16a43e134b7d","system_id":"levelo_inurba_marseille","lat":43.30849,"lon":5.37812,"is_reserved":false,"is_disabled":false,"rental_uris":{"android":"levelo://app?vid=c8aef9ab-ffaf-4274-a001-16a43e134b7d","ios":"levelo://app?vid=c8aef9ab-ffaf-4274-a001-16a43e134b7d"},"vehicle_type_id":"4","last_reported":1736590127,"current_range_meters":30800,"station_id":"","pricing_plan_id":"cebpf4jnsgd1na2vs0mg"},{"bike_id":"e1cf2823-1b48-4a2a-a96a-bbc41e753ad0","system_id":"levelo_inurba_marseille","lat":43.2585,"lon":5.3991,"is_reserved":false,"is_disabled":false,"rental_uris":{"android":"levelo://app?vid=e1cf2823-1b48-4a2a-a96a-bbc41e753ad0","ios":"levelo://app?vid=e1cf2823-1b48-4a2a-a96a-bbc41e753ad0"},"vehicle_type_id":"4","last_reported":1736590127,"current_range_meters":33200,"station_id":"ce4bhl92rcd13ifvqghg","pricing_plan_id":"cebpf4jnsgd1na2vs0mg"},{"bike_id":"b1be3830-f7c4-4c44-9fd2-9b15b083505e","system_id":"levelo_inurba_marseille","lat":43.29623,"lon":5.37173,"is_reserved":false,"is_disabled":false,"rental_uris":{"android":"levelo://app?vid=b1be3830-f7c4-4c44-9fd2-9b15b083505e","ios":"levelo://app?vid=b1be3830-f7c4-4c44-9fd2-9b15b083505e"},"vehicle_type_id":"4","last_reported":1736590127,"current_range_meters":36800,"station_id":"ce4bgnh2rcd13ifvqc0g","pricing_plan_id":"cebpf4jnsgd1na2vs0mg"},{"bike_id":"7e1aa8be-c5d8-4762-b051-e4859be99d9c","system_id":"levelo_inurba_marseille","lat":43.24643,"lon":5.38892,"is_reserved":false,"is_disabled":false,"rental_uris":{"android":"levelo://app?vid=7e1aa8be-c5d8-4762-b051-e4859be99d9c","ios":"levelo://app?vid=7e1aa8be-c5d8-4762-b051-e4859be99d9c"},"vehicle_type_id":"4","last_reported":1736590127,"current_range_meters":11600,"station_id":"ce4bhg12rcd13ifvqf60","pricing_plan_id":"cebpf4jnsgd1na2vs0mg"},{"bike_id":"7ccafb6c-07ef-49dc-a484-9ffb5a09714f","system_id":"levelo_inurba_marseille","lat":43.29007,"lon":5.35612,"is_reserved":false,"is_disabled":false,"rental_uris":{"android":"levelo://app?vid=7ccafb6c-07ef-49dc-a484-9ffb5a09714f","ios":"levelo://app?vid=7ccafb6c-07ef-49dc-a484-9ffb5a09714f"},"vehicle_type_id":"4","last_reported":1736590127,"current_range_meters":38800,"station_id":"ce4bhb92rcd13ifvqen0","pricing_plan_id":"cebpf4jnsgd1na2vs0mg"},{"bike_id":"76deb0ec-8bc2-4fc8-aac7-058f86fff530","system_id":"levelo_inurba_marseille","lat":43.32064,"lon":5.41535,"is_reserved":false,"is_disabled":false,"rental_uris":{"android":"levelo://app?vid=76deb0ec-8bc2-4fc8-aac7-058f86fff530","ios":"levelo://app?vid=76deb0ec-8bc2-4fc8-aac7-058f86fff530"},"vehicle_type_id":"4","last_reported":1736590127,"current_range_meters":39200,"station_id":"ce4bhq92rcd13ifvqhkg","pricing_plan_id":"cebpf4jnsgd1na2vs0mg"},{"bike_id":"e309e83a-80bd-4316-93a1-0ec9285580e3","system_id":"levelo_inurba_marseille","lat":43.28969,"lon":5.3783,"is_reserved":false,"is_disabled":false,"rental_uris":{"android":"levelo://app?vid=e309e83a-80bd-4316-93a1-0ec9285580e3","ios":"levelo://app?vid=e309e83a-80bd-4316-93a1-0ec9285580e3"},"vehicle_type_id":"4","last_reported":1736590127,"current_range_meters":38800,"station_id":"ce4bh9p2rcd13ifvqed0","pricing_plan_id":"cebpf4jnsgd1na2vs0mg"},{"bike_id":"36caa306-dd7e-4372-97da-77125b7d0771","system_id":"levelo_inurba_marseille","lat":43.29796,"lon":5.38101,"is_reserved":false,"is_disabled":false,"rental_uris":{"android":"levelo://app?vid=36caa306-dd7e-4372-97da-77125b7d0771","ios":"levelo://app?vid=36caa306-dd7e-4372-97da-77125b7d0771"},"vehicle_type_id":"4","last_reported":1736590127,"current_range_meters":22400,"station_id":"ce4bgip2rcd13ifvqbb0","pricing_plan_id":"cebpf4jnsgd1na2vs0mg"},{"bike_id":"cfbaf99c-c14a-433d-9b69-8289fb3cd1c5","system_id":"levelo_inurba_marseille","lat":43.269389,"lon":5.402573,"is_reserved":false,"is_disabled":false,"rental_uris":{"android":"levelo://app?vid=cfbaf99c-c14a-433d-9b69-8289fb3cd1c5","ios":"levelo://app?vid=cfbaf99c-c14a-433d-9b69-8289fb3cd1c5"},"vehicle_type_id":"4","last_reported":1736590127,"current_range_meters":38800,"station_id":"cjm6bp8fraef2m0cb0m0","pricing_plan_id":"cebpf4jnsgd1na2vs0mg"},{"bike_id":"b9619dd7-91f7-432e-b0ef-695b4d3f299d","system_id":"levelo_inurba_marseille","lat":43.31996,"lon":5.38154,"is_reserved":false,"is_disabled":false,"rental_uris":{"android":"levelo://app?vid=b9619dd7-91f7-432e-b0ef-695b4d3f299d","ios":"levelo://app?vid=b9619dd7-91f7-432e-b0ef-695b4d3f299d"},"vehicle_type_id":"4","last_reported":1736590127,"current_range_meters":38800,"station_id":"ce4bhr12rcd13ifvqhpg","pricing_plan_id":"cebpf4jnsgd1na2vs0mg"},{"bike_id":"ada73a19-195c-43d9-b6df-26a14256e824","system_id":"levelo_inurba_marseille","lat":43.29024,"lon":5.38652,"is_reserved":false,"is_disabled":true,"rental_uris":{"android":"levelo://app?vid=ada73a19-195c-43d9-b6df-26a14256e824","ios":"levelo://app?vid=ada73a19-195c-43d9-b6df-26a14256e824"},"vehicle_type_id":"4","last_reported":1736590127,"current_range_meters":7200,"station_id":"ce4bh4p2rcd13ifvqe0g","pricing_plan_id":"cebpf4jnsgd1na2vs0mg"},{"bike_id":"5d9eed08-78e2-4a38-a095-72f7217e17dd","system_id":"levelo_inurba_marseille","lat":43.30473,"lon":5.37902,"is_reserved":false,"is_disabled":false,"rental_uris":{"android":"levelo://app?vid=5d9eed08-78e2-4a38-a095-72f7217e17dd","ios":"levelo://app?vid=5d9eed08-78e2-4a38-a095-72f7217e17dd"},"vehicle_type_id":"4","last_reported":1736590127,"current_range_meters":38800,"station_id":"ce4bgup2rcd13ifvqcn0","pricing_plan_id":"cebpf4jnsgd1na2vs0mg"},{"bike_id":"5429a343-1ad7-4e39-8dc6-4ebb4ca54736","system_id":"levelo_inurba_marseille","lat":43.31189,"lon":5.38728,"is_reserved":false,"is_disabled":false,"rental_uris":{"android":"levelo://app?vid=5429a343-1ad7-4e39-8dc6-4ebb4ca54736","ios":"levelo://app?vid=5429a343-1ad7-4e39-8dc6-4ebb4ca54736"},"vehicle_type_id":"4","last_reported":1736590127,"current_range_meters":24400,"station_id":"ce4bgv12rcd13ifvqcp0","pricing_plan_id":"cebpf4jnsgd1na2vs0mg"},{"bike_id":"bf0c30dd-5ec2-4ac6-9687-86d9dfededf5","system_id":"levelo_inurba_marseille","lat":43.29625,"lon":5.37713,"is_reserved":false,"is_disabled":false,"rental_uris":{"android":"levelo://app?vid=bf0c30dd-5ec2-4ac6-9687-86d9dfededf5","ios":"levelo://app?vid=bf0c30dd-5ec2-4ac6-9687-86d9dfededf5"},"vehicle_type_id":"4","last_reported":1736590127,"current_range_meters":28000,"station_id":"ce4bgi92rcd13ifvqb90","pricing_plan_id":"cebpf4jnsgd1na2vs0mg"},{"bike_id":"ca2450e7-5c66-4bdc-b528-943118702b91","system_id":"levelo_inurba_marseille","lat":43.337218,"lon":5.3919,"is_reserved":false,"is_disabled":false,"rental_uris":{"android":"levelo://app?vid=ca2450e7-5c66-4bdc-b528-943118702b91","ios":"levelo://app?vid=ca2450e7-5c66-4bdc-b528-943118702b91"},"vehicle_type_id":"4","last_reported":1736590127,"current_range_meters":38800,"station_id":"ce4bhr92rcd13ifvqhsg","pricing_plan_id":"cebpf4jnsgd1na2vs0mg"},{"bike_id":"9417f5e2-fd0d-41fb-a081-845b7126b20e","system_id":"levelo_inurba_marseille","lat":43.28839,"lon":5.35835,"is_reserved":false,"is_disabled":false,"rental_uris":{"android":"levelo://app?vid=9417f5e2-fd0d-41fb-a081-845b7126b20e","ios":"levelo://app?vid=9417f5e2-fd0d-41fb-a081-845b7126b20e"},"vehicle_type_id":"4","last_reported":1736590127,"current_range_meters":38400,"station_id":"ce4bhb12rcd13ifvqem0","pricing_plan_id":"cebpf4jnsgd1na2vs0mg"},{"bike_id":"ddc765c0-6f4c-4149-9e86-23bfa6eb5809","system_id":"levelo_inurba_marseille","lat":43.31076,"lon":5.38354,"is_reserved":false,"is_disabled":false,"rental_uris":{"android":"levelo://app?vid=ddc765c0-6f4c-4149-9e86-23bfa6eb5809","ios":"levelo://app?vid=ddc765c0-6f4c-4149-9e86-23bfa6eb5809"},"vehicle_type_id":"4","last_reported":1736590127,"current_range_meters":30800,"station_id":"ce4bgv92rcd13ifvqcr0","pricing_plan_id":"cebpf4jnsgd1na2vs0mg"},{"bike_id":"4af3a782-dbfb-473f-be57-9bd5096d0368","system_id":"levelo_inurba_marseille","lat":43.30154,"lon":5.38086,"is_reserved":false,"is_disabled":false,"rental_uris":{"android":"levelo://app?vid=4af3a782-dbfb-473f-be57-9bd5096d0368","ios":"levelo://app?vid=4af3a782-dbfb-473f-be57-9bd5096d0368"},"vehicle_type_id":"4","last_reported":1736590127,"current_range_meters":19200,"station_id":"ce4bgjp2rcd13ifvqbh0","pricing_plan_id":"cebpf4jnsgd1na2vs0mg"},{"bike_id":"829ddfbe-8cdb-4dcc-abde-9acf8693e400","system_id":"levelo_inurba_marseille","lat":43.30479,"lon":5.37904,"is_reserved":false,"is_disabled":false,"rental_uris":{"android":"levelo://app?vid=829ddfbe-8cdb-4dcc-abde-9acf8693e400","ios":"levelo://app?vid=829ddfbe-8cdb-4dcc-abde-9acf8693e400"},"vehicle_type_id":"4","last_reported":1736590127,"current_range_meters":35200,"station_id":"ce4bgup2rcd13ifvqcn0","pricing_plan_id":"cebpf4jnsgd1na2vs0mg"},{"bike_id":"a5363611-b409-4b82-872f-bcbdcc80ff67","system_id":"levelo_inurba_marseille","lat":43.23149,"lon":5.43702,"is_reserved":false,"is_disabled":false,"rental_uris":{"android":"levelo://app?vid=a5363611-b409-4b82-872f-bcbdcc80ff67","ios":"levelo://app?vid=a5363611-b409-4b82-872f-bcbdcc80ff67"},"vehicle_type_id":"4","last_reported":1736590127,"current_range_meters":19600,"station_id":"ce4bhmp2rcd13ifvqgog","pricing_plan_id":"cebpf4jnsgd1na2vs0mg"},{"bike_id":"b3cb95fb-9c38-4961-8032-9e7e1343adcd","system_id":"levelo_inurba_marseille","lat":43.32364,"lon":5.38891,"is_reserved":false,"is_disabled":false,"rental_uris":{"android":"levelo://app?vid=b3cb95fb-9c38-4961-8032-9e7e1343adcd","ios":"levelo://app?vid=b3cb95fb-9c38-4961-8032-9e7e1343adcd"},"vehicle_type_id":"4","last_reported":1736590127,"current_range_meters":24000,"station_id":"ce4bhqp2rcd13ifvqhog","pricing_plan_id":"cebpf4jnsgd1na2vs0mg"},{"bike_id":"6fdecff2-2545-405f-8c66-4d246590b289","system_id":"levelo_inurba_marseille","lat":43.24167,"lon":5.36392,"is_reserved":false,"is_disabled":false,"rental_uris":{"android":"levelo://app?vid=6fdecff2-2545-405f-8c66-4d246590b289","ios":"levelo://app?vid=6fdecff2-2545-405f-8c66-4d246590b289"},"vehicle_type_id":"4","last_reported":1736590127,"current_range_meters":10000,"station_id":"cpo36qri1sfpv3e86is0","pricing_plan_id":"cebpf4jnsgd1na2vs0mg"},{"bike_id":"0bf41908-d988-4252-9b22-29c7186471a1","system_id":"levelo_inurba_marseille","lat":43.29547,"lon":5.42279,"is_reserved":false,"is_disabled":false,"rental_uris":{"android":"levelo://app?vid=0bf41908-d988-4252-9b22-29c7186471a1","ios":"levelo://app?vid=0bf41908-d988-4252-9b22-29c7186471a1"},"vehicle_type_id":"4","last_reported":1736590127,"current_range_meters":22000,"station_id":"ce4bhph2rcd13ifvqhdg","pricing_plan_id":"cebpf4jnsgd1na2vs0mg"},{"bike_id":"3fb7ac9d-2147-4466-81d7-8c9bdd44c22f","system_id":"levelo_inurba_marseille","lat":43.290371,"lon":5.399905,"is_reserved":false,"is_disabled":false,"rental_uris":{"android":"levelo://app?vid=3fb7ac9d-2147-4466-81d7-8c9bdd44c22f","ios":"levelo://app?vid=3fb7ac9d-2147-4466-81d7-8c9bdd44c22f"},"vehicle_type_id":"4","last_reported":1736590127,"current_range_meters":38800,"station_id":"ce4bh392rcd13ifvqdm0","pricing_plan_id":"cebpf4jnsgd1na2vs0mg"},{"bike_id":"a180c550-fd24-485b-ac45-e47eb7dddb5d","system_id":"levelo_inurba_marseille","lat":43.29053,"lon":5.39969,"is_reserved":false,"is_disabled":false,"rental_uris":{"android":"levelo://app?vid=a180c550-fd24-485b-ac45-e47eb7dddb5d","ios":"levelo://app?vid=a180c550-fd24-485b-ac45-e47eb7dddb5d"},"vehicle_type_id":"4","last_reported":1736590127,"current_range_meters":32400,"station_id":"ce4bh392rcd13ifvqdm0","pricing_plan_id":"cebpf4jnsgd1na2vs0mg"},{"bike_id":"52063d9f-ff5c-4b23-ba42-040054c1dc6f","system_id":"levelo_inurba_marseille","lat":43.27992,"lon":5.41664,"is_reserved":false,"is_disabled":false,"rental_uris":{"android":"levelo://app?vid=52063d9f-ff5c-4b23-ba42-040054c1dc6f","ios":"levelo://app?vid=52063d9f-ff5c-4b23-ba42-040054c1dc6f"},"vehicle_type_id":"4","last_reported":1736590127,"current_range_meters":33200,"station_id":"ce4bho12rcd13ifvqh1g","pricing_plan_id":"cebpf4jnsgd1na2vs0mg"},