{"last_updated":1777489672,"ttl":60,"version":"2.2","data":{"bikes":[{"bike_id":"de6e5dfe-8114-4c2e-8b2a-9489517f930f","system_id":"levelo_inurba_marseille","lat":43.28258,"lon":5.3506,"is_reserved":false,"is_disabled":false,"rental_uris":{"android":"levelo://app?vid=de6e5dfe-8114-4c2e-8b2a-9489517f930f","ios":"levelo://app?vid=de6e5dfe-8114-4c2e-8b2a-9489517f930f"},"vehicle_type_id":"4","last_reported":1777489673,"current_range_meters":2800,"station_id":"ce4bhbp2rcd13ifvqerg","pricing_plan_id":"cebpf4jnsgd1na2vs0mg"},{"bike_id":"a859fb19-9ceb-4049-857a-ef18ae52d6f5","system_id":"levelo_inurba_marseille","lat":43.33174,"lon":5.37662,"is_reserved":false,"is_disabled":false,"rental_uris":{"android":"levelo://app?vid=a859fb19-9ceb-4049-857a-ef18ae52d6f5","ios":"levelo://app?vid=a859fb19-9ceb-4049-857a-ef18ae52d6f5"},"vehicle_type_id":"4","last_reported":1777489673,"current_range_meters":2800,"station_id":"st_d46cu089ee8s73dldbu0","pricing_plan_id":"cebpf4jnsgd1na2vs0mg"},{"bike_id":"4541a58b-5803-4873-8531-8182c7674429","system_id":"levelo_inurba_marseille","lat":43.28487,"lon":5.48368,"is_reserved":false,"is_disabled":false,"rental_uris":{"android":"levelo://app?vid=4541a58b-5803-4873-8531-8182c7674429","ios":"levelo://app?vid=4541a58b-5803-4873-8531-8182c7674429"},"vehicle_type_id":"4","last_reported":1777489673,"current_range_meters":2800,"station_id":"st_d3svhcjqgbts73a3dn0g","pricing_plan_id":"cebpf4jnsgd1na2vs0mg"},{"bike_id":"2e124115-278c-4187-83a7-48493fe01781","system_id":"levelo_inurba_marseille","lat":43.29713,"lon":5.37706,"is_reserved":false,"is_disabled":false,"rental_uris":{"android":"levelo://app?vid=2e124115-278c-4187-83a7-48493fe01781","ios":"levelo://app?vid=2e124115-278c-4187-83a7-48493fe01781"},"vehicle_type_id":"4","last_reported":1777489673,"current_range_meters":2800,"station_id":"ce4bgkh2rcd13ifvqbl0","pricing_plan_id":"cebpf4jnsgd1na2vs0mg"},{"bike_id":"b08ac4f2-0503-4f90-93a9-45a50c47999d","system_id":"levelo_inurba_marseille","lat":43.30548,"lon":5.36707,"is_reserved":false,"is_disabled":false,"rental_uris":{"android":"levelo://app?vid=b08ac4f2-0503-4f90-93a9-45a50c47999d","ios":"levelo://app?vid=b08ac4f2-0503-4f90-93a9-45a50c47999d"},"vehicle_type_id":"4","last_reported":1777489673,"current_range_meters":2800,"station_id":"ce4bgrp2rcd13ifvqc9g","pricing_plan_id":"cebpf4jnsgd1na2vs0mg"},{"bike_id":"8922d9cc-4538-437c-ba00-894a5788fff7","system_id":"levelo_inurba_marseille","lat":43.225311,"lon":5.348342,"is_reserved":false,"is_disabled":true,"rental_uris":{"android":"levelo://app?vid=8922d9cc-4538-437c-ba00-894a5788fff7","ios":"levelo://app?vid=8922d9cc-4538-437c-ba00-894a5788fff7"},"vehicle_type_id":"4","last_reported":1777489673,"current_range_meters":2800,"station_id":"st_cvj5dfep6f1abm77gieg","pricing_plan_id":"cebpf4jnsgd1na2vs0mg"},{"bike_id":"c4fa3070-9209-4a1d-b0c3-70d759d10ff5","system_id":"levelo_inurba_marseille","lat":43.2417,"lon":5.39728,"is_reserved":false,"is_disabled":false,"rental_uris":{"android":"levelo://app?vid=c4fa3070-9209-4a1d-b0c3-70d759d10ff5","ios":"levelo://app?vid=c4fa3070-9209-4a1d-b0c3-70d759d10ff5"},"vehicle_type_id":"4","last_reported":1777489673,"current_range_meters":2800,"station_id":"ce4bhn12rcd13ifvqgpg","pricing_plan_id":"cebpf4jnsgd1na2vs0mg"},{"bike_id":"92e8ebd6-e5e3-4cff-97b2-4365c036f8a9","system_id":"levelo_inurba_marseille","lat":43.29016,"lon":5.38646,"is_reserved":false,"is_disabled":false,"rental_uris":{"android":"levelo://app?vid=92e8ebd6-e5e3-4cff-97b2-4365c036f8a9","ios":"levelo://app?vid=92e8ebd6-e5e3-4cff-97b2-4365c036f8a9"},"vehicle_type_id":"4","last_reported":1777489673,"current_range_meters":2800,"station_id":"ce4bh4p2rcd13ifvqe0g","pricing_plan_id":"cebpf4jnsgd1na2vs0mg"},{"bike_id":"1c28d351-cb39-469d-9299-02130efdbcdd","system_id":"levelo_inurba_marseille","lat":43.28421,"lon":5.34985,"is_reserved":false,"is_disabled":true,"rental_uris":{"android":"levelo://app?vid=1c28d351-cb39-469d-9299-02130efdbcdd","ios":"levelo://app?vid=1c28d351-cb39-469d-9299-02130efdbcdd"},"vehicle_type_id":"4","last_reported":1777489673,"current_range_meters":2800,"station_id":"ce4bhbh2rcd13ifvqepg","pricing_plan_id":"cebpf4jnsgd1na2vs0mg"},{"bike_id":"86b5ef88-1a63-4cb9-9c52-07baadd3790f","system_id":"levelo_inurba_marseille","lat":43.31116,"lon":5.37766,"is_reserved":false,"is_disabled":false,"rental_uris":{"android":"levelo://app?vid=86b5ef88-1a63-4cb9-9c52-07baadd3790f","ios":"levelo://app?vid=86b5ef88-1a63-4cb9-9c52-07baadd3790f"},"vehicle_type_id":"4","last_reported":1777489673,"current_range_meters":2800,"station_id":"ce4bgt92rcd13ifvqcg0","pricing_plan_id":"cebpf4jnsgd1na2vs0mg"},{"bike_id":"e116e98a-e7c1-4e2d-9ae3-1a759c33b548","system_id":"levelo_inurba_marseille","lat":43.337444,"lon":5.374475,"is_reserved":false,"is_disabled":false,"rental_uris":{"android":"levelo://app?vid=e116e98a-e7c1-4e2d-9ae3-1a759c33b548","ios":"levelo://app?vid=e116e98a-e7c1-4e2d-9ae3-1a759c33b548"},"vehicle_type_id":"4","last_reported":1777489673,"current_range_meters":3200,"station_id":"ce4bgop2rcd13ifvqc1g","pricing_plan_id":"cebpf4jnsgd1na2vs0mg"},{"bike_id":"46e4d4b5-dd0d-42c8-bc46-afad128a1bef","system_id":"levelo_inurba_marseille","lat":43.29777,"lon":5.39361,"is_reserved":false,"is_disabled":false,"rental_uris":{"android":"levelo://app?vid=46e4d4b5-dd0d-42c8-bc46-afad128a1bef","ios":"levelo://app?vid=46e4d4b5-dd0d-42c8-bc46-afad128a1bef"},"vehicle_type_id":"4","last_reported":1777489673,"current_range_meters":3200,"station_id":"chh1huq6cuj3fo74tm60","pricing_plan_id":"cebpf4jnsgd1na2vs0mg"},{"bike_id":"85ad20bd-7865-4503-a42d-2afeb4fe7f81","system_id":"levelo_inurba_marseille","lat":43.28412,"lon":5.37526,"is_reserved":false,"is_disabled":false,"rental_uris":{"android":"levelo://app?vid=85ad20bd-7865-4503-a42d-2afeb4fe7f81","ios":"levelo://app?vid=85ad20bd-7865-4503-a42d-2afeb4fe7f81"},"vehicle_type_id":"4","last_reported":1777489673,"current_range_meters":3200,"station_id":"ce4bh412rcd13ifvqds0","pricing_plan_id":"cebpf4jnsgd1na2vs0mg"},{"bike_id":"e2605e88-9f7b-49cc-8a63-119a038d9512","system_id":"levelo_inurba_marseille","lat":43.25625,"lon":5.38564,"is_reserved":false,"is_disabled":false,"rental_uris":{"android":"levelo://app?vid=e2605e88-9f7b-49cc-8a63-119a038d9512","ios":"levelo://app?vid=e2605e88-9f7b-49cc-8a63-119a038d9512"},"vehicle_type_id":"4","last_reported":1777489673,"current_range_meters":3200,"station_id":"","pricing_plan_id":"cebpf4jnsgd1na2vs0mg"},{"bike_id":"2074c9d5-8f2f-4fd6-aa0e-44c6d0979899","system_id":"levelo_inurba_marseille","lat":43.2951,"lon":5.3936,"is_reserved":false,"is_disabled":true,"rental_uris":{"android":"levelo://app?vid=2074c9d5-8f2f-4fd6-aa0e-44c6d0979899","ios":"levelo://app?vid=2074c9d5-8f2f-4fd6-aa0e-44c6d0979899"},"vehicle_type_id":"4","last_reported":1777489673,"current_range_meters":3200,"station_id":"ce4bh292rcd13ifvqdf0","pricing_plan_id":"cebpf4jnsgd1na2vs0mg"},{"bike_id":"0a5d1767-9589-44ef-a4c6-f150a9a295a6","system_id":"levelo_inurba_marseille","lat":43.23968,"lon":5.36644,"is_reserved":false,"is_disabled":false,"rental_uris":{"android":"levelo://app?vid=0a5d1767-9589-44ef-a4c6-f150a9a295a6","ios":"levelo://app?vid=0a5d1767-9589-44ef-a4c6-f150a9a295a6"},"vehicle_type_id":"4","last_reported":1777489673,"current_range_meters":3200,"station_id":"ce4bhi12rcd13ifvqfp0","pricing_plan_id":"cebpf4jnsgd1na2vs0mg"},{"bike_id":"9ab20f65-81b1-4b77-be82-24ce50324242","system_id":"levelo_inurba_marseille","lat":43.28705,"lon":5.37945,"is_reserved":false,"is_disabled":false,"rental_uris":{"android":"levelo://app?vid=9ab20f65-81b1-4b77-be82-24ce50324242","ios":"levelo://app?vid=9ab20f65-81b1-4b77-be82-24ce50324242"},"vehicle_type_id":"4","last_reported":1777489673,"current_range_meters":3200,"station_id":"ce4bh9p2rcd13ifvqec0","pricing_plan_id":"cebpf4jnsgd1na2vs0mg"},{"bike_id":"76907408-a8ff-4688-9cbf-66e48bb415e8","system_id":"levelo_inurba_marseille","lat":43.28728,"lon":5.46688,"is_reserved":false,"is_disabled":false,"rental_uris":{"android":"levelo://app?vid=76907408-a8ff-4688-9cbf-66e48bb415e8","ios":"levelo://app?vid=76907408-a8ff-4688-9cbf-66e48bb415e8"},"vehicle_type_id":"4","last_reported":1777489673,"current_range_meters":3200,"station_id":"st_d6tc3vkotcvc738tfjhg","pricing_plan_id":"cebpf4jnsgd1na2vs0mg"},{"bike_id":"9087a029-3792-4d95-bab1-f70d1a6c3adc","system_id":"levelo_inurba_marseille","lat":43.27588,"lon":5.3841,"is_reserved":false,"is_disabled":false,"rental_uris":{"android":"levelo://app?vid=9087a029-3792-4d95-bab1-f70d1a6c3adc","ios":"levelo://app?vid=9087a029-3792-4d95-bab1-f70d1a6c3adc"},"vehicle_type_id":"4","last_reported":1777489673,"current_range_meters":3200,"station_id":"ce4bhh92rcd13ifvqfi0","pricing_plan_id":"cebpf4jnsgd1na2vs0mg"},{"bike_id":"118f6320-4bb5-4d78-8e35-0d993dff10a0","system_id":"levelo_inurba_marseille","lat":43.29363,"lon":5.38178,"is_reserved":false,"is_disabled":false,"rental_uris":{"android":"levelo://app?vid=118f6320-4bb5-4d78-8e35-0d993dff10a0","ios":"levelo://app?vid=118f6320-4bb5-4d78-8e35-0d993dff10a0"},"vehicle_type_id":"4","last_reported":1777489673,"current_range_meters":3200,"station_id":"","pricing_plan_id":"cebpf4jnsgd1na2vs0mg"},{"bike_id":"3a98801f-3f13-4b13-b415-fe1b58f8c4c7","system_id":"levelo_inurba_marseille","lat":43.299326,"lon":5.36554,"is_reserved":false,"is_disabled":false,"rental_uris":{"android":"levelo://app?vid=3a98801f-3f13-4b13-b415-fe1b58f8c4c7","ios":"levelo://app?vid=3a98801f-3f13-4b13-b415-fe1b58f8c4c7"},"vehicle_type_id":"4","last_reported":1777489673,"current_range_meters":3200,"station_id":"ce4bgm92rcd13ifvqbr0","pricing_plan_id":"cebpf4jnsgd1na2vs0mg"},{"bike_id":"5367fafd-42a5-4c52-bd35-5d85953af91c","system_id":"levelo_inurba_marseille","lat":43.3145,"lon":5.37379,"is_reserved":false,"is_disabled":true,"rental_uris":{"android":"levelo://app?vid=5367fafd-42a5-4c52-bd35-5d85953af91c","ios":"levelo://app?vid=5367fafd-42a5-4c52-bd35-5d85953af91c"},"vehicle_type_id":"4","last_reported":1777489673,"current_range_meters":3600,"station_id":"","pricing_plan_id":"cebpf4jnsgd1na2vs0mg"},{"bike_id":"ca7e766e-0c22-4bb4-9391-ff9b9db52725","system_id":"levelo_inurba_marseille","lat":43.28228,"lon":5.40576,"is_reserved":false,"is_disabled":false,"rental_uris":{"android":"levelo://app?vid=ca7e766e-0c22-4bb4-9391-ff9b9db52725","ios":"levelo://app?vid=ca7e766e-0c22-4bb4-9391-ff9b9db52725"},"vehicle_type_id":"4","last_reported":1777489673,"current_range_meters":3600,"station_id":"","pricing_plan_id":"cebpf4jnsgd1na2vs0mg"},{"bike_id":"6e5b6dae-47c2-4560-a34e-9c7316bfef54","system_id":"levelo_inurba_marseille","lat":43.28443,"lon":5.39218,"is_reserved":false,"is_disabled":true,"rental_uris":{"android":"levelo://app?vid=6e5b6dae-47c2-4560-a34e-9c7316bfef54","ios":"levelo://app?vid=6e5b6dae-47c2-4560-a34e-9c7316bfef54"},"vehicle_type_id":"4","last_reported":1777489673,"current_range_meters":3600,"station_id":"ce4bhoh2rcd13ifvqh5g","pricing_plan_id":"cebpf4jnsgd1na2vs0mg"},{"bike_id":"f0a4817e-bd1c-4e40-9f1c-842ddb83aad4","system_id":"levelo_inurba_marseille","lat":43.31516,"lon":5.40314,"is_reserved":false,"is_disabled":false,"rental_uris":{"android":"levelo://app?vid=f0a4817e-bd1c-4e40-9f1c-842ddb83aad4","ios":"levelo://app?vid=f0a4817e-bd1c-4e40-9f1c-842ddb83aad4"},"vehicle_type_id":"4","last_reported":1777489673,"current_range_meters":3600,"station_id":"","pricing_plan_id":"cebpf4jnsgd1na2vs0mg"},{"bike_id":"a87e8ea0-b8ae-426c-8a48-2c59a7d9ad9f","system_id":"levelo_inurba_marseille","lat":43.31115,"lon":5.37747,"is_reserved":false,"is_disabled":false,"rental_uris":{"android":"levelo://app?vid=a87e8ea0-b8ae-426c-8a48-2c59a7d9ad9f","ios":"levelo://app?vid=a87e8ea0-b8ae-426c-8a48-2c59a7d9ad9f"},"vehicle_type_id":"4","last_reported":1777489673,"current_range_meters":3600,"station_id":"ce4bgt92rcd13ifvqcg0","pricing_plan_id":"cebpf4jnsgd1na2vs0mg"},{"bike_id":"50a1f081-776d-4a88-b642-0e609c4a126c","system_id":"levelo_inurba_marseille","lat":43.2681,"lon":5.40261,"is_reserved":false,"is_disabled":false,"rental_uris":{"android":"levelo://app?vid=50a1f081-776d-4a88-b642-0e609c4a126c","ios":"levelo://app?vid=50a1f081-776d-4a88-b642-0e609c4a126c"},"vehicle_type_id":"4","last_reported":1777489673,"current_range_meters":3600,"station_id":"ce501612rcd8frsf0b60","pricing_plan_id":"cebpf4jnsgd1na2vs0mg"},{"bike_id":"0e41769c-9d9b-4423-aa00-14c4aa5a17a1","system_id":"levelo_inurba_marseille","lat":43.29855,"lon":5.38937,"is_reserved":false,"is_disabled":false,"rental_uris":{"android":"levelo://app?vid=0e41769c-9d9b-4423-aa00-14c4aa5a17a1","ios":"levelo://app?vid=0e41769c-9d9b-4423-aa00-14c4aa5a17a1"},"vehicle_type_id":"4","last_reported":1777489673,"current_range_meters":3600,"station_id":"ce4bh392rcd13ifvqdl0","pricing_plan_id":"cebpf4jnsgd1na2vs0mg"},{"bike_id":"f425cb49-af79-47f0-87cf-25bf80b4bc2e","system_id":"levelo_inurba_marseille","lat":43.29851,"lon":5.36279,"is_reserved":false,"is_disabled":false,"rental_uris":{"android":"levelo://app?vid=f425cb49-af79-47f0-87cf-25bf80b4bc2e","ios":"levelo://app?vid=f425cb49-af79-47f0-87cf-25bf80b4bc2e"},"vehicle_type_id":"4","last_reported":1777489673,"current_range_meters":3600,"station_id":"ce4bgpp2rcd13ifvqc3g","pricing_plan_id":"cebpf4jnsgd1na2vs0mg"},{"bike_id":"43fdb549-43c4-4e83-9216-7de77072648d","system_id":"levelo_inurba_marseille","lat":43.29272,"lon":5.38362,"is_reserved":false,"is_disabled":false,"rental_uris":{"android":"levelo://app?vid=43fdb549-43c4-4e83-9216-7de77072648d","ios":"levelo://app?vid=43fdb549-43c4-4e83-9216-7de77072648d"},"vehicle_type_id":"4","last_reported":1777489673,"current_range_meters":3600,"station_id":"","pricing_plan_id":"cebpf4jnsgd1na2vs0mg"},{"bike_id":"618839e8-4376-41c4-a02a-00f7f2aebd8c","system_id":"levelo_inurba_marseille","lat":43.24396,"lon":5.37029,"is_reserved":false,"is_disabled":false,"rental_uris":{"android":"levelo://app?vid=618839e8-4376-41c4-a02a-00f7f2aebd8c","ios":"levelo://app?vid=618839e8-4376-41c4-a02a-00f7f2aebd8c"},"vehicle_type_id":"4","last_reported":1777489673,"current_range_meters":3600,"station_id":"ce4bhhh2rcd13ifvqfk0","pricing_plan_id":"cebpf4jnsgd1na2vs0mg"},{"bike_id":"b7019470-9900-4e6a-bf6c-132fbfb62dcf","system_id":"levelo_inurba_marseille","lat":43.28037,"lon":5.36947,"is_reserved":false,"is_disabled":false,"rental_uris":{"android":"levelo://app?vid=b7019470-9900-4e6a-bf6c-132fbfb62dcf","ios":"levelo://app?vid=b7019470-9900-4e6a-bf6c-132fbfb62dcf"},"vehicle_type_id":"4","last_reported":1777489673,"current_range_meters":3600,"station_id":"ce4bha12rcd13ifvqef0","pricing_plan_id":"cebpf4jnsgd1na2vs0mg"},{"bike_id":"982a7aa6-258a-41ee-a06e-c10b1bad2c5b","system_id":"levelo_inurba_marseille","lat":43.3148,"lon":5.37309,"is_reserved":false,"is_disabled":false,"rental_uris":{"android":"levelo://app?vid=982a7aa6-258a-41ee-a06e-c10b1bad2c5b","ios":"levelo://app?vid=982a7aa6-258a-41ee-a06e-c10b1bad2c5b"},"vehicle_type_id":"4","last_reported":1777489673,"current_range_meters":3600,"station_id":"ce4bgt12rcd13ifvqcd0","pricing_plan_id":"cebpf4jnsgd1na2vs0mg"},{"bike_id":"44f386cd-fb8c-4dd1-ba3e-d08827e51f54","system_id":"levelo_inurba_marseille","lat":43.30648,"lon":5.40074,"is_reserved":false,"is_disabled":false,"rental_uris":{"android":"levelo://app?vid=44f386cd-fb8c-4dd1-ba3e-d08827e51f54","ios":"levelo://app?vid=44f386cd-fb8c-4dd1-ba3e-d08827e51f54"},"vehicle_type_id":"4","last_reported":1777489673,"current_range_meters":3600,"station_id":"ce4bh112rcd13ifvqda0","pricing_plan_id":"cebpf4jnsgd1na2vs0mg"},{"bike_id":"b9c0ca4a-61af-4a0b-994f-7b554a71a91c","system_id":"levelo_inurba_marseille","lat":43.3245,"lon":5.36636,"is_reserved":false,"is_disabled":false,"rental_uris":{"android":"levelo://app?vid=b9c0ca4a-61af-4a0b-994f-7b554a71a91c","ios":"levelo://app?vid=b9c0ca4a-61af-4a0b-994f-7b554a71a91c"},"vehicle_type_id":"4","last_reported":1777489673,"current_range_meters":4000,"station_id":"","pricing_plan_id":"cebpf4jnsgd1na2vs0mg"},{"bike_id":"908322c8-e4c7-4811-84fd-7cebfe3663d8","system_id":"levelo_inurba_marseille","lat":43.29003,"lon":5.35609,"is_reserved":false,"is_disabled":false,"rental_uris":{"android":"levelo://app?vid=908322c8-e4c7-4811-84fd-7cebfe3663d8","ios":"levelo://app?vid=908322c8-e4c7-4811-84fd-7cebfe3663d8"},"vehicle_type_id":"4","last_reported":1777489673,"current_range_meters":4000,"station_id":"ce4bhb92rcd13ifvqen0","pricing_plan_id":"cebpf4jnsgd1na2vs0mg"},{"bike_id":"145c254e-4088-4fef-87dc-d9bee17d760f","system_id":"levelo_inurba_marseille","lat":43.32105,"lon":5.36778,"is_reserved":false,"is_disabled":false,"rental_uris":{"android":"levelo://app?vid=145c254e-4088-4fef-87dc-d9bee17d760f","ios":"levelo://app?vid=145c254e-4088-4fef-87dc-d9bee17d760f"},"vehicle_type_id":"4","last_reported":1777489673,"current_range_meters":4000,"station_id":"ce4bhrh2rcd13ifvqhug","pricing_plan_id":"cebpf4jnsgd1na2vs0mg"},{"bike_id":"d3404d02-baf8-4a3c-9224-14862f2efdd2","system_id":"levelo_inurba_marseille","lat":43.30141,"lon":5.38771,"is_reserved":false,"is_disabled":false,"rental_uris":{"android":"levelo://app?vid=d3404d02-baf8-4a3c-9224-14862f2efdd2","ios":"levelo://app?vid=d3404d02-baf8-4a3c-9224-14862f2efdd2"},"vehicle_type_id":"4","last_reported":1777489673,"current_range_meters":4000,"station_id":"ce4bghh2rcd13ifvqb60","pricing_plan_id":"cebpf4jnsgd1na2vs0mg"},{"bike_id":"ab77c4e2-603c-4705-b6e1-db6c20b6606d","system_id":"levelo_inurba_marseille","lat":43.29588,"lon":5.38106,"is_reserved":false,"is_disabled":false,"rental_uris":{"android":"levelo://app?vid=ab77c4e2-603c-4705-b6e1-db6c20b6606d","ios":"levelo://app?vid=ab77c4e2-603c-4705-b6e1-db6c20b6606d"},"vehicle_type_id":"4","last_reported":1777489673,"current_range_meters":4000,"station_id":"ce4bgl12rcd13ifvqbo0","pricing_plan_id":"cebpf4jnsgd1na2vs0mg"},{"bike_id":"18fd75f9-171d-4ca7-8a0f-bfafa82e5173","system_id":"levelo_inurba_marseille","lat":43.30143,"lon":5.39866,"is_reserved":false,"is_disabled":false,"rental_uris":{"android":"levelo://app?vid=18fd75f9-171d-4ca7-8a0f-bfafa82e5173","ios":"levelo://app?vid=18fd75f9-171d-4ca7-8a0f-bfafa82e5173"},"vehicle_type_id":"4","last_reported":1777489673,"current_range_meters":4000,"station_id":"ce4bh0h2rcd13ifvqd40","pricing_plan_id":"cebpf4jnsgd1na2vs0mg"},{"bike_id":"63d5b6a0-ed94-4b4e-9888-42d6126f278c","system_id":"levelo_inurba_marseille","lat":43.29371,"lon":5.37841,"is_reserved":false,"is_disabled":false,"rental_uris":{"android":"levelo://app?vid=63d5b6a0-ed94-4b4e-9888-42d6126f278c","ios":"levelo://app?vid=63d5b6a0-ed94-4b4e-9888-42d6126f278c"},"vehicle_type_id":"4","last_reported":1777489673,"current_range_meters":4000,"station_id":"ce4bgjh2rcd13ifvqbf0","pricing_plan_id":"cebpf4jnsgd1na2vs0mg"},{"bike_id":"3b35c6c3-3153-4af0-ad1e-eea34ac25f71","system_id":"levelo_inurba_marseille","lat":43.29296,"lon":5.37171,"is_reserved":false,"is_disabled":false,"rental_uris":{"android":"levelo://app?vid=3b35c6c3-3153-4af0-ad1e-eea34ac25f71","ios":"levelo://app?vid=3b35c6c3-3153-4af0-ad1e-eea34ac25f71"},"vehicle_type_id":"4","last_reported":1777489673,"current_range_meters":4000,"station_id":"ce4bgh92rcd13ifvqb40","pricing_plan_id":"cebpf4jnsgd1na2vs0mg"},{"bike_id":"9aab4da1-f681-40a8-80e7-c2475f46a76c","system_id":"levelo_inurba_marseille","lat":43.22928,"lon":5.3539,"is_reserved":false,"is_disabled":false,"rental_uris":{"android":"levelo://app?vid=9aab4da1-f681-40a8-80e7-c2475f46a76c","ios":"levelo://app?vid=9aab4da1-f681-40a8-80e7-c2475f46a76c"},"vehicle_type_id":"4","last_reported":1777489673,"current_range_meters":4000,"station_id":"cpo3532slgdg3j2ikp40","pricing_plan_id":"cebpf4jnsgd1na2vs0mg"},{"bike_id":"4efd232b-ef39-490c-93c2-48999f105f2e","system_id":"levelo_inurba_marseille","lat":43.24702,"lon":5.40096,"is_reserved":false,"is_disabled":false,"rental_uris":{"android":"levelo://app?vid=4efd232b-ef39-490c-93c2-48999f105f2e","ios":"levelo://app?vid=4efd232b-ef39-490c-93c2-48999f105f2e"},"vehicle_type_id":"4","last_reported":1777489673,"current_range_meters":4000,"station_id":"","pricing_plan_id":"cebpf4jnsgd1na2vs0mg"},{"bike_id":"cacb57a1-3c1b-4ebc-ba4d-bcc718a04e84","system_id":"levelo_inurba_marseille","lat":43.297913,"lon":5.381102,"is_reserved":false,"is_disabled":false,"rental_uris":{"android":"levelo://app?vid=cacb57a1-3c1b-4ebc-ba4d-bcc718a04e84","ios":"levelo://app?vid=cacb57a1-3c1b-4ebc-ba4d-bcc718a04e84"},"vehicle_type_id":"4","last_reported":1777489673,"current_range_meters":4000,"station_id":"ce4bgip2rcd13ifvqbb0","pricing_plan_id":"cebpf4jnsgd1na2vs0mg"},{"bike_id":"10283cec-2a56-4704-8094-9e65b518efa6","system_id":"levelo_inurba_marseille","lat":43.30604,"lon":5.39348,"is_reserved":false,"is_disabled":false,"rental_uris":{"android":"levelo://app?vid=10283cec-2a56-4704-8094-9e65b518efa6","ios":"levelo://app?vid=10283cec-2a56-4704-8094-9e65b518efa6"},"vehicle_type_id":"4","last_reported":1777489673,"current_range_meters":4000,"station_id":"ce4bh0p2rcd13ifvqd80","pricing_plan_id":"cebpf4jnsgd1na2vs0mg"},{"bike_id":"1d78446e-045e-4762-9c7d-382930134a83","system_id":"levelo_inurba_marseille","lat":43.24808,"lon":5.37454,"is_reserved":false,"is_disabled":false,"rental_uris":{"android":"levelo://app?vid=1d78446e-045e-4762-9c7d-382930134a83","ios":"levelo://app?vid=1d78446e-045e-4762-9c7d-382930134a83"},"vehicle_type_id":"4","last_reported":1777489673,"current_range_meters":4000,"station_id":"ce4bhgh2rcd13ifvqfb0","pricing_plan_id":"cebpf4jnsgd1na2vs0mg"},{"bike_id":"5dcad831-c798-4f57-862e-8847ba27791f","system_id":"levelo_inurba_marseille","lat":43.28069,"lon":5.37896,"is_reserved":false,"is_disabled":false,"rental_uris":{"android":"levelo://app?vid=5dcad831-c798-4f57-862e-8847ba27791f","ios":"levelo://app?vid=5dcad831-c798-4f57-862e-8847ba27791f"},"vehicle_type_id":"4","last_reported":1777489673,"current_range_meters":4000,"station_id":"","pricing_plan_id":"cebpf4jnsgd1na2vs0mg"},{"bike_id":"0ff431dc-70bf-4cab-b3ce-d25abdb07342","system_id":"levelo_inurba_marseille","lat":43.297148,"lon":5.366031,"is_reserved":false,"is_disabled":false,"rental_uris":{"android":"levelo://app?vid=0ff431dc-70bf-4cab-b3ce-d25abdb07342","ios":"levelo://app?vid=0ff431dc-70bf-4cab-b3ce-d25abdb07342"},"vehicle_type_id":"4","last_reported":1777489673,"current_range_meters":4400,"station_id":"ce4bgn12rcd13ifvqbt0","pricing_plan_id":"cebpf4jnsgd1na2vs0mg"},{"bike_id":"c53b0575-4201-44a3-8e35-94bea536841a","system_id":"levelo_inurba_marseille","lat":43.29724,"lon":5.37701,"is_reserved":false,"is_disabled":true,"rental_uris":{"android":"levelo://app?vid=c53b0575-4201-44a3-8e35-94bea536841a","ios":"levelo://app?vid=c53b0575-4201-44a3-8e35-94bea536841a"},"vehicle_type_id":"4","last_reported":1777489673,"current_range_meters":4400,"station_id":"ce4bgkh2rcd13ifvqbl0","pricing_plan_id":"cebpf4jnsgd1na2vs0mg"},{"bike_id":"21fa33d0-28a0-4e0a-9999-8d9d767ac49c","system_id":"levelo_inurba_marseille","lat":43.2705,"lon":5.38637,"is_reserved":false,"is_disabled":false,"rental_uris":{"android":"levelo://app?vid=21fa33d0-28a0-4e0a-9999-8d9d767ac49c","ios":"levelo://app?vid=21fa33d0-28a0-4e0a-9999-8d9d767ac49c"},"vehicle_type_id":"4","last_reported":1777489673,"current_range_meters":4400,"station_id":"","pricing_plan_id":"cebpf4jnsgd1na2vs0mg"},{"bike_id":"c78e1e9d-1be1-4abc-ab57-89ce24e6aafd","system_id":"levelo_inurba_marseille","lat":43.28617,"lon":5.35108,"is_reserved":false,"is_disabled":false,"rental_uris":{"android":"levelo://app?vid=c78e1e9d-1be1-4abc-ab57-89ce24e6aafd","ios":"levelo://app?vid=c78e1e9d-1be1-4abc-ab57-89ce24e6aafd"},"vehicle_type_id":"4","last_reported":1777489673,"current_range_meters":4400,"station_id":"ce4bhch2rcd13ifvqeug","pricing_plan_id":"cebpf4jnsgd1na2vs0mg"},{"bike_id":"e03a9553-f014-4591-84d1-bb481db182e5","system_id":"levelo_inurba_marseille","lat":43.28702,"lon":5.46683,"is_reserved":false,"is_disabled":false,"rental_uris":{"android":"levelo://app?vid=e03a9553-f014-4591-84d1-bb481db182e5","ios":"levelo://app?vid=e03a9553-f014-4591-84d1-bb481db182e5"},"vehicle_type_id":"4","last_reported":1777489673,"current_range_meters":4400,"station_id":"st_d6tc3vkotcvc738tfjhg","pricing_plan_id":"cebpf4jnsgd1na2vs0mg"},{"bike_id":"6ce1fbf6-aa33-457e-92f8-add9d9043d49","system_id":"levelo_inurba_marseille","lat":43.28078,"lon":5.38215,"is_reserved":false,"is_disabled":false,"rental_uris":{"android":"levelo://app?vid=6ce1fbf6-aa33-457e-92f8-add9d9043d49","ios":"levelo://app?vid=6ce1fbf6-aa33-457e-92f8-add9d9043d49"},"vehicle_type_id":"4","last_reported":1777489673,"current_range_meters":4400,"station_id":"","pricing_plan_id":"cebpf4jnsgd1na2vs0mg"},{"bike_id":"ef3a68ef-5b94-411a-921f-f7cda00ffdfc","system_id":"levelo_inurba_marseille","lat":43.29473,"lon":5.39004,"is_reserved":false,"is_disabled":false,"rental_uris":{"android":"levelo://app?vid=ef3a68ef-5b94-411a-921f-f7cda00ffdfc","ios":"levelo://app?vid=ef3a68ef-5b94-411a-921f-f7cda00ffdfc"},"vehicle_type_id":"4","last_reported":1777489673,"current_range_meters":4400,"station_id":"","pricing_plan_id":"cebpf4jnsgd1na2vs0mg"},{"bike_id":"e08b3358-9331-4057-bf0e-0517bf375bf2","system_id":"levelo_inurba_marseille","lat":43.28706,"lon":5.37401,"is_reserved":false,"is_disabled":false,"rental_uris":{"android":"levelo://app?vid=e08b3358-9331-4057-bf0e-0517bf375bf2","ios":"levelo://app?vid=e08b3358-9331-4057-bf0e-0517bf375bf2"},"vehicle_type_id":"4","last_reported":1777489673,"current_range_meters":4400,"station_id":"ce4bh3p2rcd13ifvqdq0","pricing_plan_id":"cebpf4jnsgd1na2vs0mg"},{"bike_id":"88b4713e-2992-45c9-b2b3-b1742811d2f6","system_id":"levelo_inurba_marseille","lat":43.293107,"lon":5.371841,"is_reserved":false,"is_disabled":false,"rental_uris":{"android":"levelo://app?vid=88b4713e-2992-45c9-b2b3-b1742811d2f6","ios":"levelo://app?vid=88b4713e-2992-45c9-b2b3-b1742811d2f6"},"vehicle_type_id":"4","last_reported":1777489673,"current_range_meters":4400,"station_id":"ce4bgh92rcd13ifvqb40","pricing_plan_id":"cebpf4jnsgd1na2vs0mg"},{"bike_id":"807205ce-6052-40d6-b313-389559a42347","system_id":"levelo_inurba_marseille","lat":43.28841,"lon":5.39316,"is_reserved":false,"is_disabled":false,"rental_uris":{"android":"levelo://app?vid=807205ce-6052-40d6-b313-389559a42347","ios":"levelo://app?vid=807205ce-6052-40d6-b313-389559a42347"},"vehicle_type_id":"4","last_reported":1777489673,"current_range_meters":4800,"station_id":"ce4bh2p2rcd13ifvqdi0","pricing_plan_id":"cebpf4jnsgd1na2vs0mg"},{"bike_id":"857100cb-01bf-4b1a-a137-d994308ad307","system_id":"levelo_inurba_marseille","lat":43.2954,"lon":5.39019,"is_reserved":false,"is_disabled":false,"rental_uris":{"android":"levelo://app?vid=857100cb-01bf-4b1a-a137-d994308ad307","ios":"levelo://app?vid=857100cb-01bf-4b1a-a137-d994308ad307"},"vehicle_type_id":"4","last_reported":1777489673,"current_range_meters":4800,"station_id":"ce4bh3p2rcd13ifvqdp0","pricing_plan_id":"cebpf4jnsgd1na2vs0mg"},{"bike_id":"ea26fbb8-1fe9-45fd-86a8-020ce9ce5f0e","system_id":"levelo_inurba_marseille","lat":43.27108,"lon":5.39129,"is_reserved":false,"is_disabled":false,"rental_uris":{"android":"levelo://app?vid=ea26fbb8-1fe9-45fd-86a8-020ce9ce5f0e","ios":"levelo://app?vid=ea26fbb8-1fe9-45fd-86a8-020ce9ce5f0e"},"vehicle_type_id":"4","last_reported":1777489673,"current_range_meters":4800,"station_id":"","pricing_plan_id":"cebpf4jnsgd1na2vs0mg"},{"bike_id":"f11e3633-986d-40f4-8b5f-6b5e41220dfc","system_id":"levelo_inurba_marseille","lat":43.31877,"lon":5.36809,"is_reserved":false,"is_disabled":false,"rental_uris":{"android":"levelo://app?vid=f11e3633-986d-40f4-8b5f-6b5e41220dfc","ios":"levelo://app?vid=f11e3633-986d-40f4-8b5f-6b5e41220dfc"},"vehicle_type_id":"4","last_reported":1777489673,"current_range_meters":4800,"station_id":"st_d6o2h0d0559c73evc1b0","pricing_plan_id":"cebpf4jnsgd1na2vs0mg"},{"bike_id":"bc272b97-9377-4755-9819-4e33baf3df0f","system_id":"levelo_inurba_marseille","lat":43.280014,"lon":5.399989,"is_reserved":false,"is_disabled":false,"rental_uris":{"android":"levelo://app?vid=bc272b97-9377-4755-9819-4e33baf3df0f","ios":"levelo://app?vid=bc272b97-9377-4755-9819-4e33baf3df0f"},"vehicle_type_id":"4","last_reported":1777489673,"current_range_meters":4800,"station_id":"ce4bho92rcd13ifvqh4g","pricing_plan_id":"cebpf4jnsgd1na2vs0mg"},{"bike_id":"1132fbdf-d3e2-4de2-bcb2-c2fe9eae3094","system_id":"levelo_inurba_marseille","lat":43.28068,"lon":5.39663,"is_reserved":false,"is_disabled":false,"rental_uris":{"android":"levelo://app?vid=1132fbdf-d3e2-4de2-bcb2-c2fe9eae3094","ios":"levelo://app?vid=1132fbdf-d3e2-4de2-bcb2-c2fe9eae3094"},"vehicle_type_id":"4","last_reported":1777489673,"current_range_meters":4800,"station_id":"ce4bho12rcd13ifvqh2g","pricing_plan_id":"cebpf4jnsgd1na2vs0mg"},{"bike_id":"3f81cf33-1162-4053-95f1-8e014eda8041","system_id":"levelo_inurba_marseille","lat":43.30234,"lon":5.40067,"is_reserved":false,"is_disabled":false,"rental_uris":{"android":"levelo://app?vid=3f81cf33-1162-4053-95f1-8e014eda8041","ios":"levelo://app?vid=3f81cf33-1162-4053-95f1-8e014eda8041"},"vehicle_type_id":"4","last_reported":1777489673,"current_range_meters":4800,"station_id":"ce4bgvh2rcd13ifvqcs0","pricing_plan_id":"cebpf4jnsgd1na2vs0mg"},{"bike_id":"ea36c9e8-58b8-4f79-a3ce-b396281d3b24","system_id":"levelo_inurba_marseille","lat":43.305074,"lon":5.380769,"is_reserved":false,"is_disabled":false,"rental_uris":{"android":"levelo://app?vid=ea36c9e8-58b8-4f79-a3ce-b396281d3b24","ios":"levelo://app?vid=ea36c9e8-58b8-4f79-a3ce-b396281d3b24"},"vehicle_type_id":"4","last_reported":1777489673,"current_range_meters":4800,"station_id":"","pricing_plan_id":"cebpf4jnsgd1na2vs0mg"},{"bike_id":"17fb4360-213e-4468-a39b-533ba987696c","system_id":"levelo_inurba_marseille","lat":43.30135,"lon":5.39845,"is_reserved":false,"is_disabled":false,"rental_uris":{"android":"levelo://app?vid=17fb4360-213e-4468-a39b-533ba987696c","ios":"levelo://app?vid=17fb4360-213e-4468-a39b-533ba987696c"},"vehicle_type_id":"4","last_reported":1777489673,"current_range_meters":5600,"station_id":"ce4bh0h2rcd13ifvqd40","pricing_plan_id":"cebpf4jnsgd1na2vs0mg"},{"bike_id":"de127ff3-4dbd-40a5-926e-7a6862dbaee1","system_id":"levelo_inurba_marseille","lat":43.24474,"lon":5.42529,"is_reserved":false,"is_disabled":false,"rental_uris":{"android":"levelo://app?vid=de127ff3-4dbd-40a5-926e-7a6862dbaee1","ios":"levelo://app?vid=de127ff3-4dbd-40a5-926e-7a6862dbaee1"},"vehicle_type_id":"4","last_reported":1777489673,"current_range_meters":5600,"station_id":"st_d4a3vfp97mjs738cd8kg","pricing_plan_id":"cebpf4jnsgd1na2vs0mg"},{"bike_id":"d241d553-19ca-4f32-b75c-2772d3d1d639","system_id":"levelo_inurba_marseille","lat":43.28693,"lon":5.374,"is_reserved":false,"is_disabled":false,"rental_uris":{"android":"levelo://app?vid=d241d553-19ca-4f32-b75c-2772d3d1d639","ios":"levelo://app?vid=d241d553-19ca-4f32-b75c-2772d3d1d639"},"vehicle_type_id":"4","last_reported":1777489673,"current_range_meters":5600,"station_id":"ce4bh3p2rcd13ifvqdq0","pricing_plan_id":"cebpf4jnsgd1na2vs0mg"},{"bike_id":"d4d191c1-1e42-44ce-acaa-f4fdd3a7ce8e","system_id":"levelo_inurba_marseille","lat":43.28526,"lon":5.38483,"is_reserved":false,"is_disabled":false,"rental_uris":{"android":"levelo://app?vid=d4d191c1-1e42-44ce-acaa-f4fdd3a7ce8e","ios":"levelo://app?vid=d4d191c1-1e42-44ce-acaa-f4fdd3a7ce8e"},"vehicle_type_id":"4","last_reported":1777489673,"current_range_meters":5600,"station_id":"","pricing_plan_id":"cebpf4jnsgd1na2vs0mg"},{"bike_id":"36a88428-e754-4363-93d1-89cd7a8e2550","system_id":"levelo_inurba_marseille","lat":43.29206,"lon":5.386,"is_reserved":false,"is_disabled":false,"rental_uris":{"android":"levelo://app?vid=36a88428-e754-4363-93d1-89cd7a8e2550","ios":"levelo://app?vid=36a88428-e754-4363-93d1-89cd7a8e2550"},"vehicle_type_id":"4","last_reported":1777489673,"current_range_meters":5600,"station_id":"","pricing_plan_id":"cebpf4jnsgd1na2vs0mg"},{"bike_id":"ddc87c06-835e-4736-a60f-3618cba8ff0b","system_id":"levelo_inurba_marseille","lat":43.31278,"lon":5.40156,"is_reserved":false,"is_disabled":false,"rental_uris":{"android":"levelo://app?vid=ddc87c06-835e-4736-a60f-3618cba8ff0b","ios":"levelo://app?vid=ddc87c06-835e-4736-a60f-3618cba8ff0b"},"vehicle_type_id":"4","last_reported":1777489673,"current_range_meters":5600,"station_id":"ce4bh092rcd13ifvqd30","pricing_plan_id":"cebpf4jnsgd1na2vs0mg"},{"bike_id":"8e424c68-d3a2-4227-b591-2cf44d3026ef","system_id":"levelo_inurba_marseille","lat":43.29914,"lon":5.37483,"is_reserved":false,"is_disabled":false,"rental_uris":{"android":"levelo://app?vid=8e424c68-d3a2-4227-b591-2cf44d3026ef","ios":"levelo://app?vid=8e424c68-d3a2-4227-b591-2cf44d3026ef"},"vehicle_type_id":"4","last_reported":1777489673,"current_range_meters":5600,"station_id":"ce4bgjh2rcd13ifvqbg0","pricing_plan_id":"cebpf4jnsgd1na2vs0mg"},{"bike_id":"d594e29e-b660-48b0-a5d6-39c63fdfb6da","system_id":"levelo_inurba_marseille","lat":43.28435,"lon":5.39191,"is_reserved":false,"is_disabled":false,"rental_uris":{"android":"levelo://app?vid=d594e29e-b660-48b0-a5d6-39c63fdfb6da","ios":"levelo://app?vid=d594e29e-b660-48b0-a5d6-39c63fdfb6da"},"vehicle_type_id":"4","last_reported":1777489673,"current_range_meters":5600,"station_id":"ce4bhoh2rcd13ifvqh5g","pricing_plan_id":"cebpf4jnsgd1na2vs0mg"},{"bike_id":"cdecdba8-0440-4e27-8f88-2f26c7919ff8","system_id":"levelo_inurba_marseille","lat":43.2851,"lon":5.37134,"is_reserved":false,"is_disabled":false,"rental_uris":{"android":"levelo://app?vid=cdecdba8-0440-4e27-8f88-2f26c7919ff8","ios":"levelo://app?vid=cdecdba8-0440-4e27-8f88-2f26c7919ff8"},"vehicle_type_id":"4","last_reported":1777489673,"current_range_meters":5600,"station_id":"","pricing_plan_id":"cebpf4jnsgd1na2vs0mg"},{"bike_id":"fc2bd838-71b1-45c3-a0a7-44fcf685e7c1","system_id":"levelo_inurba_marseille","lat":43.29535,"lon":5.38545,"is_reserved":false,"is_disabled":false,"rental_uris":{"android":"levelo://app?vid=fc2bd838-71b1-45c3-a0a7-44fcf685e7c1","ios":"levelo://app?vid=fc2bd838-71b1-45c3-a0a7-44fcf685e7c1"},"vehicle_type_id":"4","last_reported":1777489673,"current_range_meters":5600,"station_id":"ce4bgih2rcd13ifvqba0","pricing_plan_id":"cebpf4jnsgd1na2vs0mg"},{"bike_id":"0b68c8dc-741a-48da-823d-02ffd3bef2ee","system_id":"levelo_inurba_marseille","lat":43.31282,"lon":5.40171,"is_reserved":false,"is_disabled":false,"rental_uris":{"android":"levelo://app?vid=0b68c8dc-741a-48da-823d-02ffd3bef2ee","ios":"levelo://app?vid=0b68c8dc-741a-48da-823d-02ffd3bef2ee"},"vehicle_type_id":"4","last_reported":1777489673,"current_range_meters":5600,"station_id":"ce4bh092rcd13ifvqd30","pricing_plan_id":"cebpf4jnsgd1na2vs0mg"},{"bike_id":"34f79ee3-0315-4628-b92d-415ca46576e9","system_id":"levelo_inurba_marseille","lat":43.24682,"lon":5.38151,"is_reserved":false,"is_disabled":false,"rental_uris":{"android":"levelo://app?vid=34f79ee3-0315-4628-b92d-415ca46576e9","ios":"levelo://app?vid=34f79ee3-0315-4628-b92d-415ca46576e9"},"vehicle_type_id":"4","last_reported":1777489673,"current_range_meters":5600,"station_id":"ce4bhih2rcd13ifvqfr0","pricing_plan_id":"cebpf4jnsgd1na2vs0mg"},{"bike_id":"594e28b7-3c2e-4ac0-9d7f-b01f68a7bc97","system_id":"levelo_inurba_marseille","lat":43.28492,"lon":5.3854,"is_reserved":false,"is_disabled":false,"rental_uris":{"android":"levelo://app?vid=594e28b7-3c2e-4ac0-9d7f-b01f68a7bc97","ios":"levelo://app?vid=594e28b7-3c2e-4ac0-9d7f-b01f68a7bc97"},"vehicle_type_id":"4","last_reported":1777489673,"current_range_meters":5600,"station_id":"ce4bh8p2rcd13ifvqeb0","pricing_plan_id":"cebpf4jnsgd1na2vs0mg"},{"bike_id":"394390a5-66ae-4443-97f3-ca8c96028a7a","system_id":"levelo_inurba_marseille","lat":43.29542,"lon":5.38539,"is_reserved":false,"is_disabled":false,"rental_uris":{"android":"levelo://app?vid=394390a5-66ae-4443-97f3-ca8c96028a7a","ios":"levelo://app?vid=394390a5-66ae-4443-97f3-ca8c96028a7a"},"vehicle_type_id":"4","last_reported":1777489673,"current_range_meters":5600,"station_id":"ce4bgih2rcd13ifvqba0","pricing_plan_id":"cebpf4jnsgd1na2vs0mg"},{"bike_id":"23fc9cb0-3eac-43a7-8890-d5d9d85dfc3c","system_id":"levelo_inurba_marseille","lat":43.29024,"lon":5.38629,"is_reserved":false,"is_disabled":false,"rental_uris":{"android":"levelo://app?vid=23fc9cb0-3eac-43a7-8890-d5d9d85dfc3c","ios":"levelo://app?vid=23fc9cb0-3eac-43a7-8890-d5d9d85dfc3c"},"vehicle_type_id":"4","last_reported":1777489673,"current_range_meters":5600,"station_id":"ce4bh4p2rcd13ifvqe0g","pricing_plan_id":"cebpf4jnsgd1na2vs0mg"},{"bike_id":"39c090b7-9a74-4e0c-add2-1000b75cfa22","system_id":"levelo_inurba_marseille","lat":43.25819,"lon":5.39449,"is_reserved":false,"is_disabled":false,"rental_uris":{"android":"levelo://app?vid=39c090b7-9a74-4e0c-add2-1000b75cfa22","ios":"levelo://app?vid=39c090b7-9a74-4e0c-add2-1000b75cfa22"},"vehicle_type_id":"4","last_reported":1777489673,"current_range_meters":5600,"station_id":"ce4bhip2rcd13ifvqft0","pricing_plan_id":"cebpf4jnsgd1na2vs0mg"},{"bike_id":"4a6e6396-5ef9-4e02-befe-28d9d3170066","system_id":"levelo_inurba_marseille","lat":43.3111,"lon":5.37779,"is_reserved":false,"is_disabled":false,"rental_uris":{"android":"levelo://app?vid=4a6e6396-5ef9-4e02-befe-28d9d3170066","ios":"levelo://app?vid=4a6e6396-5ef9-4e02-befe-28d9d3170066"},"vehicle_type_id":"4","last_reported":1777489673,"current_range_meters":5600,"station_id":"ce4bgt92rcd13ifvqcg0","pricing_plan_id":"cebpf4jnsgd1na2vs0mg"},{"bike_id":"4a73686a-2bbf-42e8-8bbf-53907833fffc","system_id":"levelo_inurba_marseille","lat":43.30928,"lon":5.4016,"is_reserved":false,"is_disabled":false,"rental_uris":{"android":"levelo://app?vid=4a73686a-2bbf-42e8-8bbf-53907833fffc","ios":"levelo://app?vid=4a73686a-2bbf-42e8-8bbf-53907833fffc"},"vehicle_type_id":"4","last_reported":1777489673,"current_range_meters":5600,"station_id":"ce4bgvp2rcd13ifvqct0","pricing_plan_id":"cebpf4jnsgd1na2vs0mg"},{"bike_id":"04181aec-463b-4e18-aabd-f126c815c2dd","system_id":"levelo_inurba_marseille","lat":43.2119,"lon":5.35076,"is_reserved":false,"is_disabled":false,"rental_uris":{"android":"levelo://app?vid=04181aec-463b-4e18-aabd-f126c815c2dd","ios":"levelo://app?vid=04181aec-463b-4e18-aabd-f126c815c2dd"},"vehicle_type_id":"4","last_reported":1777489673,"current_range_meters":5600,"station_id":"st_cvj6sg6p6f1abm77japg","pricing_plan_id":"cebpf4jnsgd1na2vs0mg"},{"bike_id":"d7ff4366-a2b4-446e-ba29-d062b2256f1c","system_id":"levelo_inurba_marseille","lat":43.29908,"lon":5.43661,"is_reserved":false,"is_disabled":false,"rental_uris":{"android":"levelo://app?vid=d7ff4366-a2b4-446e-ba29-d062b2256f1c","ios":"levelo://app?vid=d7ff4366-a2b4-446e-ba29-d062b2256f1c"},"vehicle_type_id":"4","last_reported":1777489673,"current_range_meters":5600,"station_id":"ce4bhpp2rcd13ifvqhfg","pricing_plan_id":"cebpf4jnsgd1na2vs0mg"},{"bike_id":"1d7dff05-984a-4268-92ae-e479f7157596","system_id":"levelo_inurba_marseille","lat":43.28266,"lon":5.35088,"is_reserved":false,"is_disabled":false,"rental_uris":{"android":"levelo://app?vid=1d7dff05-984a-4268-92ae-e479f7157596","ios":"levelo://app?vid=1d7dff05-984a-4268-92ae-e479f7157596"},"vehicle_type_id":"4","last_reported":1777489673,"current_range_meters":6000,"station_id":"ce4bhbp2rcd13ifvqerg","pricing_plan_id":"cebpf4jnsgd1na2vs0mg"},{"bike_id":"d95faafa-3229-49af-ac36-99c740ad799d","system_id":"levelo_inurba_marseille","lat":43.29539,"lon":5.39034,"is_reserved":false,"is_disabled":false,"rental_uris":{"android":"levelo://app?vid=d95faafa-3229-49af-ac36-99c740ad799d","ios":"levelo://app?vid=d95faafa-3229-49af-ac36-99c740ad799d"},"vehicle_type_id":"4","last_reported":1777489673,"current_range_meters":6000,"station_id":"ce4bh3p2rcd13ifvqdp0","pricing_plan_id":"cebpf4jnsgd1na2vs0mg"},{"bike_id":"83a82950-3efb-4a04-9eb7-13259ab970cf","system_id":"levelo_inurba_marseille","lat":43.28475,"lon":5.35875,"is_reserved":false,"is_disabled":false,"rental_uris":{"android":"levelo://app?vid=83a82950-3efb-4a04-9eb7-13259ab970cf","ios":"levelo://app?vid=83a82950-3efb-4a04-9eb7-13259ab970cf"},"vehicle_type_id":"4","last_reported":1777489673,"current_range_meters":6000,"station_id":"ce4bhah2rcd13ifvqei0","pricing_plan_id":"cebpf4jnsgd1na2vs0mg"},{"bike_id":"dabb6558-388e-43f3-9124-582e742ee3c8","system_id":"levelo_inurba_marseille","lat":43.31989,"lon":5.36756,"is_reserved":false,"is_disabled":false,"rental_uris":{"android":"levelo://app?vid=dabb6558-388e-43f3-9124-582e742ee3c8","ios":"levelo://app?vid=dabb6558-388e-43f3-9124-582e742ee3c8"},"vehicle_type_id":"4","last_reported":1777489673,"current_range_meters":6000,"station_id":"","pricing_plan_id":"cebpf4jnsgd1na2vs0mg"},{"bike_id":"f6dce53f-7018-47f9-bfd2-251ba4be96ae","system_id":"levelo_inurba_marseille","lat":43.26374,"lon":5.4107,"is_reserved":false,"is_disabled":false,"rental_uris":{"android":"levelo://app?vid=f6dce53f-7018-47f9-bfd2-251ba4be96ae","ios":"levelo://app?vid=f6dce53f-7018-47f9-bfd2-251ba4be96ae"},"vehicle_type_id":"4","last_reported":1777489673,"current_range_meters":6000,"station_id":"st_d4e5ca6na9uc73bfl5fg","pricing_plan_id":"cebpf4jnsgd1na2vs0mg"},{"bike_id":"e1d26622-7491-4fdf-a6f0-77cbc7cac2ef","system_id":"levelo_inurba_marseille","lat":43.24165,"lon":5.36403,"is_reserved":false,"is_disabled":false,"rental_uris":{"android":"levelo://app?vid=e1d26622-7491-4fdf-a6f0-77cbc7cac2ef","ios":"levelo://app?vid=e1d26622-7491-4fdf-a6f0-77cbc7cac2ef"},"vehicle_type_id":"4","last_reported":1777489673,"current_range_meters":6000,"station_id":"cpo36qri1sfpv3e86is0","pricing_plan_id":"cebpf4jnsgd1na2vs0mg"},{"bike_id":"19a45054-3739-4fe6-8ae3-4a9a95098d1b","system_id":"levelo_inurba_marseille","lat":43.28077,"lon":5.3965,"is_reserved":false,"is_disabled":false,"rental_uris":{"android":"levelo://app?vid=19a45054-3739-4fe6-8ae3-4a9a95098d1b","ios":"levelo://app?vid=19a45054-3739-4fe6-8ae3-4a9a95098d1b"},"vehicle_type_id":"4","last_reported":1777489673,"current_range_meters":6000,"station_id":"ce4bho12rcd13ifvqh2g","pricing_plan_id":"cebpf4jnsgd1na2vs0mg"},{"bike_id":"c5d87c94-f8c8-47f4-ae84-ea0b6e6ae165","system_id":"levelo_inurba_marseille","lat":43.26286,"lon":5.38906,"is_reserved":false,"is_disabled":false,"rental_uris":{"android":"levelo://app?vid=c5d87c94-f8c8-47f4-ae84-ea0b6e6ae165","ios":"levelo://app?vid=c5d87c94-f8c8-47f4-ae84-ea0b6e6ae165"},"vehicle_type_id":"4","last_reported":1777489673,"current_range_meters":6000,"station_id":"","pricing_plan_id":"cebpf4jnsgd1na2vs0mg"},{"bike_id":"2d7bdd72-68e3-41ff-90f6-07f34c1f9e23","system_id":"levelo_inurba_marseille","lat":43.29445,"lon":5.38311,"is_reserved":false,"is_disabled":false,"rental_uris":{"android":"levelo://app?vid=2d7bdd72-68e3-41ff-90f6-07f34c1f9e23","ios":"levelo://app?vid=2d7bdd72-68e3-41ff-90f6-07f34c1f9e23"},"vehicle_type_id":"4","last_reported":1777489673,"current_range_meters":6000,"station_id":"","pricing_plan_id":"cebpf4jnsgd1na2vs0mg"},{"bike_id":"5f4360fa-9be3-4759-a27f-c7197cedd7e1","system_id":"levelo_inurba_marseille","lat":43.29794,"lon":5.39869,"is_reserved":false,"is_disabled":false,"rental_uris":{"android":"levelo://app?vid=5f4360fa-9be3-4759-a27f-c7197cedd7e1","ios":"levelo://app?vid=5f4360fa-9be3-4759-a27f-c7197cedd7e1"},"vehicle_type_id":"4","last_reported":1777489673,"current_range_meters":6000,"station_id":"","pricing_plan_id":"cebpf4jnsgd1na2vs0mg"},{"bike_id":"9cdd601e-c9b9-487f-9cae-fbd145d3460a","system_id":"levelo_inurba_marseille","lat":43.28848,"lon":5.35799,"is_reserved":false,"is_disabled":false,"rental_uris":{"android":"levelo://app?vid=9cdd601e-c9b9-487f-9cae-fbd145d3460a","ios":"levelo://app?vid=9cdd601e-c9b9-487f-9cae-fbd145d3460a"},"vehicle_type_id":"4","last_reported":1777489673,"current_range_meters":6000,"station_id":"ce4bhb12rcd13ifvqem0","pricing_plan_id":"cebpf4jnsgd1na2vs0mg"},{"bike_id":"122e5988-fefc-42b8-b1c4-10a7027c974e","system_id":"levelo_inurba_marseille","lat":43.25111,"lon":5.40323,"is_reserved":false,"is_disabled":false,"rental_uris":{"android":"levelo://app?vid=122e5988-fefc-42b8-b1c4-10a7027c974e","ios":"levelo://app?vid=122e5988-fefc-42b8-b1c4-10a7027c974e"},"vehicle_type_id":"4","last_reported":1777489673,"current_range_meters":6000,"station_id":"ce4bhlh2rcd13ifvqgig","pricing_plan_id":"cebpf4jnsgd1na2vs0mg"},{"bike_id":"c46d8a22-772b-40f4-a01d-512476bc1bbf","system_id":"levelo_inurba_marseille","lat":43.24929,"lon":5.40505,"is_reserved":false,"is_disabled":false,"rental_uris":{"android":"levelo://app?vid=c46d8a22-772b-40f4-a01d-512476bc1bbf","ios":"levelo://app?vid=c46d8a22-772b-40f4-a01d-512476bc1bbf"},"vehicle_type_id":"4","last_reported":1777489673,"current_range_meters":6000,"station_id":"st_d2ngiaodas8pm72gd1h0","pricing_plan_id":"cebpf4jnsgd1na2vs0mg"},{"bike_id":"a4d0ae16-ce00-44a6-838e-ae14c8f76f9d","system_id":"levelo_inurba_marseille","lat":43.30598,"lon":5.39333,"is_reserved":false,"is_disabled":false,"rental_uris":{"android":"levelo://app?vid=a4d0ae16-ce00-44a6-838e-ae14c8f76f9d","ios":"levelo://app?vid=a4d0ae16-ce00-44a6-838e-ae14c8f76f9d"},"vehicle_type_id":"4","last_reported":1777489673,"current_range_meters":6000,"station_id":"ce4bh0p2rcd13ifvqd80","pricing_plan_id":"cebpf4jnsgd1na2vs0mg"},{"bike_id":"41207e06-ef8d-482d-b208-4a670a4d8770","system_id":"levelo_inurba_marseille","lat":43.28347,"lon":5.38104,"is_reserved":false,"is_disabled":false,"rental_uris":{"android":"levelo://app?vid=41207e06-ef8d-482d-b208-4a670a4d8770","ios":"levelo://app?vid=41207e06-ef8d-482d-b208-4a670a4d8770"},"vehicle_type_id":"4","last_reported":1777489673,"current_range_meters":6000,"station_id":"ce4bh412rcd13ifvqdr0","pricing_plan_id":"cebpf4jnsgd1na2vs0mg"},{"bike_id":"550b61bf-024e-4f9e-9492-2a8f7afeae1e","system_id":"levelo_inurba_marseille","lat":43.30855,"lon":5.40476,"is_reserved":false,"is_disabled":false,"rental_uris":{"android":"levelo://app?vid=550b61bf-024e-4f9e-9492-2a8f7afeae1e","ios":"levelo://app?vid=550b61bf-024e-4f9e-9492-2a8f7afeae1e"},"vehicle_type_id":"4","last_reported":1777489673,"current_range_meters":6000,"station_id":"","pricing_plan_id":"cebpf4jnsgd1na2vs0mg"},{"bike_id":"55bac593-352e-4642-8639-19fe2b8d6c00","system_id":"levelo_inurba_marseille","lat":43.27658,"lon":5.35844,"is_reserved":false,"is_disabled":false,"rental_uris":{"android":"levelo://app?vid=55bac593-352e-4642-8639-19fe2b8d6c00","ios":"levelo://app?vid=55bac593-352e-4642-8639-19fe2b8d6c00"},"vehicle_type_id":"4","last_reported":1777489673,"current_range_meters":6000,"station_id":"","pricing_plan_id":"cebpf4jnsgd1na2vs0mg"},{"bike_id":"2b3bec62-ebad-4b81-b4d1-75f129177f13","system_id":"levelo_inurba_marseille","lat":43.286673,"lon":5.386694,"is_reserved":false,"is_disabled":false,"rental_uris":{"android":"levelo://app?vid=2b3bec62-ebad-4b81-b4d1-75f129177f13","ios":"levelo://app?vid=2b3bec62-ebad-4b81-b4d1-75f129177f13"},"vehicle_type_id":"4","last_reported":1777489673,"current_range_meters":6000,"station_id":"ce4bh492rcd13ifvqdug","pricing_plan_id":"cebpf4jnsgd1na2vs0mg"},{"bike_id":"9a859507-8be6-48d0-b50b-2a4aa35502e5","system_id":"levelo_inurba_marseille","lat":43.27175,"lon":5.40985,"is_reserved":false,"is_disabled":false,"rental_uris":{"android":"levelo://app?vid=9a859507-8be6-48d0-b50b-2a4aa35502e5","ios":"levelo://app?vid=9a859507-8be6-48d0-b50b-2a4aa35502e5"},"vehicle_type_id":"4","last_reported":1777489673,"current_range_meters":6000,"station_id":"","pricing_plan_id":"cebpf4jnsgd1na2vs0mg"},{"bike_id":"8a8f5d1b-ebe3-41d2-94bd-27037a7f30bc","system_id":"levelo_inurba_marseille","lat":43.28874,"lon":5.39293,"is_reserved":false,"is_disabled":false,"rental_uris":{"android":"levelo://app?vid=8a8f5d1b-ebe3-41d2-94bd-27037a7f30bc","ios":"levelo://app?vid=8a8f5d1b-ebe3-41d2-94bd-27037a7f30bc"},"vehicle_type_id":"4","last_reported":1777489673,"current_range_meters":6000,"station_id":"ce4bh2p2rcd13ifvqdi0","pricing_plan_id":"cebpf4jnsgd1na2vs0mg"},{"bike_id":"bbe33052-5831-449c-93c2-858b8d468f20","system_id":"levelo_inurba_marseille","lat":43.26941,"lon":5.40256,"is_reserved":false,"is_disabled":false,"rental_uris":{"android":"levelo://app?vid=bbe33052-5831-449c-93c2-858b8d468f20","ios":"levelo://app?vid=bbe33052-5831-449c-93c2-858b8d468f20"},"vehicle_type_id":"4","last_reported":1777489673,"current_range_meters":6000,"station_id":"cjm6bp8fraef2m0cb0m0","pricing_plan_id":"cebpf4jnsgd1na2vs0mg"},{"bike_id":"d302fe8c-81e3-4cb8-a87e-47ec3aa912b5","system_id":"levelo_inurba_marseille","lat":43.33599,"lon":5.41037,"is_reserved":false,"is_disabled":false,"rental_uris":{"android":"levelo://app?vid=d302fe8c-81e3-4cb8-a87e-47ec3aa912b5","ios":"levelo://app?vid=d302fe8c-81e3-4cb8-a87e-47ec3aa912b5"},"vehicle_type_id":"4","last_reported":1777489673,"current_range_meters":6000,"station_id":"ce4bhqh2rcd13ifvqhmg","pricing_plan_id":"cebpf4jnsgd1na2vs0mg"},{"bike_id":"f0398846-44e6-4cbc-b3e8-b01250712719","system_id":"levelo_inurba_marseille","lat":43.286652,"lon":5.363458,"is_reserved":false,"is_disabled":false,"rental_uris":{"android":"levelo://app?vid=f0398846-44e6-4cbc-b3e8-b01250712719","ios":"levelo://app?vid=f0398846-44e6-4cbc-b3e8-b01250712719"},"vehicle_type_id":"4","last_reported":1777489673,"current_range_meters":6000,"station_id":"ce4bhah2rcd13ifvqej0","pricing_plan_id":"cebpf4jnsgd1na2vs0mg"},{"bike_id":"84edf01a-240b-4317-a42c-63233383f7b0","system_id":"levelo_inurba_marseille","lat":43.2879,"lon":5.35729,"is_reserved":false,"is_disabled":false,"rental_uris":{"android":"levelo://app?vid=84edf01a-240b-4317-a42c-63233383f7b0","ios":"levelo://app?vid=84edf01a-240b-4317-a42c-63233383f7b0"},"vehicle_type_id":"4","last_reported":1777489673,"current_range_meters":6000,"station_id":"","pricing_plan_id":"cebpf4jnsgd1na2vs0mg"},{"bike_id":"dfcd70fc-6f79-4ade-bdb7-67f2a52de739","system_id":"levelo_inurba_marseille","lat":43.26059,"lon":5.3941,"is_reserved":false,"is_disabled":false,"rental_uris":{"android":"levelo://app?vid=dfcd70fc-6f79-4ade-bdb7-67f2a52de739","ios":"levelo://app?vid=dfcd70fc-6f79-4ade-bdb7-67f2a52de739"},"vehicle_type_id":"4","last_reported":1777489673,"current_range_meters":6000,"station_id":"ce4bhh92rcd13ifvqfj0","pricing_plan_id":"cebpf4jnsgd1na2vs0mg"},{"bike_id":"5a2dc028-4d3e-4e73-b709-84b860632b87","system_id":"levelo_inurba_marseille","lat":43.29304,"lon":5.37148,"is_reserved":false,"is_disabled":false,"rental_uris":{"android":"levelo://app?vid=5a2dc028-4d3e-4e73-b709-84b860632b87","ios":"levelo://app?vid=5a2dc028-4d3e-4e73-b709-84b860632b87"},"vehicle_type_id":"4","last_reported":1777489673,"current_range_meters":6000,"station_id":"ce4bgh92rcd13ifvqb40","pricing_plan_id":"cebpf4jnsgd1na2vs0mg"},{"bike_id":"2d25c2ef-7361-4b19-8e13-2f3751f3fcdd","system_id":"levelo_inurba_marseille","lat":43.25198,"lon":5.41144,"is_reserved":false,"is_disabled":false,"rental_uris":{"android":"levelo://app?vid=2d25c2ef-7361-4b19-8e13-2f3751f3fcdd","ios":"levelo://app?vid=2d25c2ef-7361-4b19-8e13-2f3751f3fcdd"},"vehicle_type_id":"4","last_reported":1777489673,"current_range_meters":6000,"station_id":"","pricing_plan_id":"cebpf4jnsgd1na2vs0mg"},{"bike_id":"a1a97af6-a93e-44df-86a8-10bac93b60cd","system_id":"levelo_inurba_marseille","lat":43.28881,"lon":5.42512,"is_reserved":false,"is_disabled":false,"rental_uris":{"android":"levelo://app?vid=a1a97af6-a93e-44df-86a8-10bac93b60cd","ios":"levelo://app?vid=a1a97af6-a93e-44df-86a8-10bac93b60cd"},"vehicle_type_id":"4","last_reported":1777489673,"current_range_meters":6000,"station_id":"st_d3b462108ojc7389ooeg","pricing_plan_id":"cebpf4jnsgd1na2vs0mg"},{"bike_id":"3464860c-c07a-4ed3-98cb-a27ef8e3782e","system_id":"levelo_inurba_marseille","lat":43.29534,"lon":5.38537,"is_reserved":false,"is_disabled":false,"rental_uris":{"android":"levelo://app?vid=3464860c-c07a-4ed3-98cb-a27ef8e3782e","ios":"levelo://app?vid=3464860c-c07a-4ed3-98cb-a27ef8e3782e"},"vehicle_type_id":"4","last_reported":1777489673,"current_range_meters":6000,"station_id":"ce4bgih2rcd13ifvqba0","pricing_plan_id":"cebpf4jnsgd1na2vs0mg"},{"bike_id":"32666e81-7eca-43a1-84ed-2b5ae22936ab","system_id":"levelo_inurba_marseille","lat":43.28564,"lon":5.3949,"is_reserved":false,"is_disabled":false,"rental_uris":{"android":"levelo://app?vid=32666e81-7eca-43a1-84ed-2b5ae22936ab","ios":"levelo://app?vid=32666e81-7eca-43a1-84ed-2b5ae22936ab"},"vehicle_type_id":"4","last_reported":1777489673,"current_range_meters":6000,"station_id":"ce4bh292rcd13ifvqdg0","pricing_plan_id":"cebpf4jnsgd1na2vs0mg"},{"bike_id":"d29eb708-8881-444e-9044-09968ccad5bd","system_id":"levelo_inurba_marseille","lat":43.31493,"lon":5.37293,"is_reserved":false,"is_disabled":false,"rental_uris":{"android":"levelo://app?vid=d29eb708-8881-444e-9044-09968ccad5bd","ios":"levelo://app?vid=d29eb708-8881-444e-9044-09968ccad5bd"},"vehicle_type_id":"4","last_reported":1777489673,"current_range_meters":6400,"station_id":"ce4bgt12rcd13ifvqcd0","pricing_plan_id":"cebpf4jnsgd1na2vs0mg"},{"bike_id":"d145801c-1597-48a7-a815-65cbd8dacbaa","system_id":"levelo_inurba_marseille","lat":43.2455,"lon":5.39505,"is_reserved":false,"is_disabled":false,"rental_uris":{"android":"levelo://app?vid=d145801c-1597-48a7-a815-65cbd8dacbaa","ios":"levelo://app?vid=d145801c-1597-48a7-a815-65cbd8dacbaa"},"vehicle_type_id":"4","last_reported":1777489673,"current_range_meters":6400,"station_id":"ce4bhlp2rcd13ifvqgjg","pricing_plan_id":"cebpf4jnsgd1na2vs0mg"},{"bike_id":"39fab6dc-86f1-4d69-a920-825010d37cf3","system_id":"levelo_inurba_marseille","lat":43.2467,"lon":5.38161,"is_reserved":false,"is_disabled":false,"rental_uris":{"android":"levelo://app?vid=39fab6dc-86f1-4d69-a920-825010d37cf3","ios":"levelo://app?vid=39fab6dc-86f1-4d69-a920-825010d37cf3"},"vehicle_type_id":"4","last_reported":1777489673,"current_range_meters":6400,"station_id":"ce4bhih2rcd13ifvqfr0","pricing_plan_id":"cebpf4jnsgd1na2vs0mg"},{"bike_id":"bbc2f778-ecf6-4419-b9a7-78a6f4492f95","system_id":"levelo_inurba_marseille","lat":43.292273,"lon":5.360653,"is_reserved":false,"is_disabled":false,"rental_uris":{"android":"levelo://app?vid=bbc2f778-ecf6-4419-b9a7-78a6f4492f95","ios":"levelo://app?vid=bbc2f778-ecf6-4419-b9a7-78a6f4492f95"},"vehicle_type_id":"4","last_reported":1777489673,"current_range_meters":6400,"station_id":"ce4bhbh2rcd13ifvqeqg","pricing_plan_id":"cebpf4jnsgd1na2vs0mg"},{"bike_id":"94f11d13-a2b0-4f18-a58b-01e14d3c2001","system_id":"levelo_inurba_marseille","lat":43.24054,"lon":5.37742,"is_reserved":false,"is_disabled":true,"rental_uris":{"android":"levelo://app?vid=94f11d13-a2b0-4f18-a58b-01e14d3c2001","ios":"levelo://app?vid=94f11d13-a2b0-4f18-a58b-01e14d3c2001"},"vehicle_type_id":"4","last_reported":1777489673,"current_range_meters":6400,"station_id":"ce4bhnp2rcd13ifvqgvg","pricing_plan_id":"cebpf4jnsgd1na2vs0mg"},{"bike_id":"520b0305-48d7-4734-97bb-d7eb73e5dc09","system_id":"levelo_inurba_marseille","lat":43.26574,"lon":5.37316,"is_reserved":false,"is_disabled":true,"rental_uris":{"android":"levelo://app?vid=520b0305-48d7-4734-97bb-d7eb73e5dc09","ios":"levelo://app?vid=520b0305-48d7-4734-97bb-d7eb73e5dc09"},"vehicle_type_id":"4","last_reported":1777489673,"current_range_meters":6400,"station_id":"ce4bhg12rcd13ifvqf70","pricing_plan_id":"cebpf4jnsgd1na2vs0mg"},{"bike_id":"3ddc6644-21b2-4eff-a12b-cc3bb2048632","system_id":"levelo_inurba_marseille","lat":43.29007,"lon":5.35624,"is_reserved":false,"is_disabled":false,"rental_uris":{"android":"levelo://app?vid=3ddc6644-21b2-4eff-a12b-cc3bb2048632","ios":"levelo://app?vid=3ddc6644-21b2-4eff-a12b-cc3bb2048632"},"vehicle_type_id":"4","last_reported":1777489673,"current_range_meters":6400,"station_id":"ce4bhb92rcd13ifvqen0","pricing_plan_id":"cebpf4jnsgd1na2vs0mg"},{"bike_id":"e8127d4e-918d-479a-8cc3-dcae56050e9e","system_id":"levelo_inurba_marseille","lat":43.23886,"lon":5.37453,"is_reserved":false,"is_disabled":false,"rental_uris":{"android":"levelo://app?vid=e8127d4e-918d-479a-8cc3-dcae56050e9e","ios":"levelo://app?vid=e8127d4e-918d-479a-8cc3-dcae56050e9e"},"vehicle_type_id":"4","last_reported":1777489673,"current_range_meters":6400,"station_id":"st_d6sm7csbq4hs73f8fpjg","pricing_plan_id":"cebpf4jnsgd1na2vs0mg"},{"bike_id":"5e4372d3-fba2-470f-9034-af3ba5bb5e2e","system_id":"levelo_inurba_marseille","lat":43.27314,"lon":5.39118,"is_reserved":false,"is_disabled":true,"rental_uris":{"android":"levelo://app?vid=5e4372d3-fba2-470f-9034-af3ba5bb5e2e","ios":"levelo://app?vid=5e4372d3-fba2-470f-9034-af3ba5bb5e2e"},"vehicle_type_id":"4","last_reported":1777489673,"current_range_meters":6400,"station_id":"ce4bhgp2rcd13ifvqfe0","pricing_plan_id":"cebpf4jnsgd1na2vs0mg"},{"bike_id":"0aec18a4-4af7-442f-aa1f-14cad29cba2b","system_id":"levelo_inurba_marseille","lat":43.29534,"lon":5.38521,"is_reserved":false,"is_disabled":false,"rental_uris":{"android":"levelo://app?vid=0aec18a4-4af7-442f-aa1f-14cad29cba2b","ios":"levelo://app?vid=0aec18a4-4af7-442f-aa1f-14cad29cba2b"},"vehicle_type_id":"4","last_reported":1777489673,"current_range_meters":6400,"station_id":"ce4bgih2rcd13ifvqba0","pricing_plan_id":"cebpf4jnsgd1na2vs0mg"},{"bike_id":"c393576f-dc7e-40b1-876f-3c25a664dd5f","system_id":"levelo_inurba_marseille","lat":43.3213,"lon":5.36765,"is_reserved":false,"is_disabled":false,"rental_uris":{"android":"levelo://app?vid=c393576f-dc7e-40b1-876f-3c25a664dd5f","ios":"levelo://app?vid=c393576f-dc7e-40b1-876f-3c25a664dd5f"},"vehicle_type_id":"4","last_reported":1777489673,"current_range_meters":6400,"station_id":"ce4bhrh2rcd13ifvqhug","pricing_plan_id":"cebpf4jnsgd1na2vs0mg"},{"bike_id":"1bb8344f-1db0-45ef-ad3e-3af45d1f5a9f","system_id":"levelo_inurba_marseille","lat":43.25745,"lon":5.38731,"is_reserved":false,"is_disabled":false,"rental_uris":{"android":"levelo://app?vid=1bb8344f-1db0-45ef-ad3e-3af45d1f5a9f","ios":"levelo://app?vid=1bb8344f-1db0-45ef-ad3e-3af45d1f5a9f"},"vehicle_type_id":"4","last_reported":1777489673,"current_range_meters":6400,"station_id":"","pricing_plan_id":"cebpf4jnsgd1na2vs0mg"},{"bike_id":"afce14e9-d3d8-4e4c-a556-c5c0519b0370","system_id":"levelo_inurba_marseille","lat":43.29874,"lon":5.39243,"is_reserved":false,"is_disabled":false,"rental_uris":{"android":"levelo://app?vid=afce14e9-d3d8-4e4c-a556-c5c0519b0370","ios":"levelo://app?vid=afce14e9-d3d8-4e4c-a556-c5c0519b0370"},"vehicle_type_id":"4","last_reported":1777489673,"current_range_meters":6400,"station_id":"","pricing_plan_id":"cebpf4jnsgd1na2vs0mg"},{"bike_id":"4da23bbf-8aab-4991-bb00-1a569a4581cc","system_id":"levelo_inurba_marseille","lat":43.27066,"lon":5.42281,"is_reserved":false,"is_disabled":false,"rental_uris":{"android":"levelo://app?vid=4da23bbf-8aab-4991-bb00-1a569a4581cc","ios":"levelo://app?vid=4da23bbf-8aab-4991-bb00-1a569a4581cc"},"vehicle_type_id":"4","last_reported":1777489673,"current_range_meters":6400,"station_id":"ce4bhk92rcd13ifvqgb0","pricing_plan_id":"cebpf4jnsgd1na2vs0mg"},{"bike_id":"8ff8ac70-15a7-4601-8f10-709399afbe0e","system_id":"levelo_inurba_marseille","lat":43.288452,"lon":5.393213,"is_reserved":false,"is_disabled":false,"rental_uris":{"android":"levelo://app?vid=8ff8ac70-15a7-4601-8f10-709399afbe0e","ios":"levelo://app?vid=8ff8ac70-15a7-4601-8f10-709399afbe0e"},"vehicle_type_id":"4","last_reported":1777489673,"current_range_meters":6400,"station_id":"ce4bh2p2rcd13ifvqdi0","pricing_plan_id":"cebpf4jnsgd1na2vs0mg"},{"bike_id":"987b42f5-a5fc-451e-8963-babc51ef2323","system_id":"levelo_inurba_marseille","lat":43.31707,"lon":5.40473,"is_reserved":false,"is_disabled":false,"rental_uris":{"android":"levelo://app?vid=987b42f5-a5fc-451e-8963-babc51ef2323","ios":"levelo://app?vid=987b42f5-a5fc-451e-8963-babc51ef2323"},"vehicle_type_id":"4","last_reported":1777489673,"current_range_meters":6400,"station_id":"ce4bh012rcd13ifvqd00","pricing_plan_id":"cebpf4jnsgd1na2vs0mg"},{"bike_id":"510fc79e-9732-4d6f-9901-92a69d0052be","system_id":"levelo_inurba_marseille","lat":43.25336,"lon":5.42166,"is_reserved":false,"is_disabled":false,"rental_uris":{"android":"levelo://app?vid=510fc79e-9732-4d6f-9901-92a69d0052be","ios":"levelo://app?vid=510fc79e-9732-4d6f-9901-92a69d0052be"},"vehicle_type_id":"4","last_reported":1777489673,"current_range_meters":6400,"station_id":"st_d2m65c5bi1j21697t3ng","pricing_plan_id":"cebpf4jnsgd1na2vs0mg"},{"bike_id":"b425cb2b-9d47-4a21-b068-01f6d996201f","system_id":"levelo_inurba_marseille","lat":43.2816,"lon":5.42648,"is_reserved":false,"is_disabled":false,"rental_uris":{"android":"levelo://app?vid=b425cb2b-9d47-4a21-b068-01f6d996201f","ios":"levelo://app?vid=b425cb2b-9d47-4a21-b068-01f6d996201f"},"vehicle_type_id":"4","last_reported":1777489673,"current_range_meters":6400,"station_id":"ce4bhnh2rcd13ifvqgug","pricing_plan_id":"cebpf4jnsgd1na2vs0mg"},{"bike_id":"565ae8b2-128a-41ec-b9b0-51c06b6e2041","system_id":"levelo_inurba_marseille","lat":43.30783,"lon":5.3764,"is_reserved":false,"is_disabled":false,"rental_uris":{"android":"levelo://app?vid=565ae8b2-128a-41ec-b9b0-51c06b6e2041","ios":"levelo://app?vid=565ae8b2-128a-41ec-b9b0-51c06b6e2041"},"vehicle_type_id":"4","last_reported":1777489673,"current_range_meters":6400,"station_id":"ce4bgv92rcd13ifvqcq0","pricing_plan_id":"cebpf4jnsgd1na2vs0mg"},{"bike_id":"1e2e3153-bedd-412f-87c3-79faff3aaf72","system_id":"levelo_inurba_marseille","lat":43.297985,"lon":5.380988,"is_reserved":false,"is_disabled":false,"rental_uris":{"android":"levelo://app?vid=1e2e3153-bedd-412f-87c3-79faff3aaf72","ios":"levelo://app?vid=1e2e3153-bedd-412f-87c3-79faff3aaf72"},"vehicle_type_id":"4","last_reported":1777489673,"current_range_meters":6400,"station_id":"ce4bgip2rcd13ifvqbb0","pricing_plan_id":"cebpf4jnsgd1na2vs0mg"},{"bike_id":"6b43a6b7-ddb8-4c8d-9058-7961ac01861d","system_id":"levelo_inurba_marseille","lat":43.30788,"lon":5.3817,"is_reserved":false,"is_disabled":false,"rental_uris":{"android":"levelo://app?vid=6b43a6b7-ddb8-4c8d-9058-7961ac01861d","ios":"levelo://app?vid=6b43a6b7-ddb8-4c8d-9058-7961ac01861d"},"vehicle_type_id":"4","last_reported":1777489673,"current_range_meters":6400,"station_id":"ce4bgt12rcd13ifvqce0","pricing_plan_id":"cebpf4jnsgd1na2vs0mg"},{"bike_id":"b4a497ea-222e-419c-a826-4feb72e6ade8","system_id":"levelo_inurba_marseille","lat":43.28692,"lon":5.46714,"is_reserved":false,"is_disabled":false,"rental_uris":{"android":"levelo://app?vid=b4a497ea-222e-419c-a826-4feb72e6ade8","ios":"levelo://app?vid=b4a497ea-222e-419c-a826-4feb72e6ade8"},"vehicle_type_id":"4","last_reported":1777489673,"current_range_meters":6800,"station_id":"st_d6tc3vkotcvc738tfjhg","pricing_plan_id":"cebpf4jnsgd1na2vs0mg"},{"bike_id":"5537dfa5-a5e0-4afa-afaa-71ea6ad83ffd","system_id":"levelo_inurba_marseille","lat":43.28856,"lon":5.35866,"is_reserved":false,"is_disabled":true,"rental_uris":{"android":"levelo://app?vid=5537dfa5-a5e0-4afa-afaa-71ea6ad83ffd","ios":"levelo://app?vid=5537dfa5-a5e0-4afa-afaa-71ea6ad83ffd"},"vehicle_type_id":"4","last_reported":1777489673,"current_range_meters":6800,"station_id":"ce4bhb12rcd13ifvqem0","pricing_plan_id":"cebpf4jnsgd1na2vs0mg"},{"bike_id":"ac9aff30-7644-4d1d-a39d-504034948abc","system_id":"levelo_inurba_marseille","lat":43.28015,"lon":5.4,"is_reserved":false,"is_disabled":false,"rental_uris":{"android":"levelo://app?vid=ac9aff30-7644-4d1d-a39d-504034948abc","ios":"levelo://app?vid=ac9aff30-7644-4d1d-a39d-504034948abc"},"vehicle_type_id":"4","last_reported":1777489673,"current_range_meters":6800,"station_id":"ce4bho92rcd13ifvqh4g","pricing_plan_id":"cebpf4jnsgd1na2vs0mg"},{"bike_id":"458ae4e3-f6db-4ffc-b5b4-f4bdf3c2f83f","system_id":"levelo_inurba_marseille","lat":43.29887,"lon":5.39725,"is_reserved":false,"is_disabled":false,"rental_uris":{"android":"levelo://app?vid=458ae4e3-f6db-4ffc-b5b4-f4bdf3c2f83f","ios":"levelo://app?vid=458ae4e3-f6db-4ffc-b5b4-f4bdf3c2f83f"},"vehicle_type_id":"4","last_reported":1777489673,"current_range_meters":6800,"station_id":"ce4bh0h2rcd13ifvqd50","pricing_plan_id":"cebpf4jnsgd1na2vs0mg"},{"bike_id":"f4169770-a56f-464e-863a-1a785ef392bd","system_id":"levelo_inurba_marseille","lat":43.27493,"lon":5.42451,"is_reserved":false,"is_disabled":false,"rental_uris":{"android":"levelo://app?vid=f4169770-a56f-464e-863a-1a785ef392bd","ios":"levelo://app?vid=f4169770-a56f-464e-863a-1a785ef392bd"},"vehicle_type_id":"4","last_reported":1777489673,"current_range_meters":6800,"station_id":"ce4bhn92rcd13ifvqgrg","pricing_plan_id":"cebpf4jnsgd1na2vs0mg"},{"bike_id":"8a4a0249-4f4c-41b5-bc94-e064df2c0d36","system_id":"levelo_inurba_marseille","lat":43.30425,"lon":5.38909,"is_reserved":false,"is_disabled":false,"rental_uris":{"android":"levelo://app?vid=8a4a0249-4f4c-41b5-bc94-e064df2c0d36","ios":"levelo://app?vid=8a4a0249-4f4c-41b5-bc94-e064df2c0d36"},"vehicle_type_id":"4","last_reported":1777489673,"current_range_meters":6800,"station_id":"ce4bgk12rcd13ifvqbi0","pricing_plan_id":"cebpf4jnsgd1na2vs0mg"},{"bike_id":"35e73ef8-a71b-43c9-af00-083ac2127648","system_id":"levelo_inurba_marseille","lat":43.286148,"lon":5.350982,"is_reserved":false,"is_disabled":false,"rental_uris":{"android":"levelo://app?vid=35e73ef8-a71b-43c9-af00-083ac2127648","ios":"levelo://app?vid=35e73ef8-a71b-43c9-af00-083ac2127648"},"vehicle_type_id":"4","last_reported":1777489673,"current_range_meters":6800,"station_id":"ce4bhch2rcd13ifvqeug","pricing_plan_id":"cebpf4jnsgd1na2vs0mg"},{"bike_id":"31042abc-fdb4-45c6-af1d-f214e842ea8b","system_id":"levelo_inurba_marseille","lat":43.30969,"lon":5.4216,"is_reserved":false,"is_disabled":false,"rental_uris":{"android":"levelo://app?vid=31042abc-fdb4-45c6-af1d-f214e842ea8b","ios":"levelo://app?vid=31042abc-fdb4-45c6-af1d-f214e842ea8b"},"vehicle_type_id":"4","last_reported":1777489673,"current_range_meters":6800,"station_id":"","pricing_plan_id":"cebpf4jnsgd1na2vs0mg"},{"bike_id":"fd1656d8-70d3-4f07-b966-b700be1d899c","system_id":"levelo_inurba_marseille","lat":43.28688,"lon":5.40073,"is_reserved":false,"is_disabled":false,"rental_uris":{"android":"levelo://app?vid=fd1656d8-70d3-4f07-b966-b700be1d899c","ios":"levelo://app?vid=fd1656d8-70d3-4f07-b966-b700be1d899c"},"vehicle_type_id":"4","last_reported":1777489673,"current_range_meters":6800,"station_id":"ce4bho92rcd13ifvqh3g","pricing_plan_id":"cebpf4jnsgd1na2vs0mg"},{"bike_id":"4d065778-434d-4f54-a58e-d667c1dbaf68","system_id":"levelo_inurba_marseille","lat":43.29069,"lon":5.3716,"is_reserved":false,"is_disabled":false,"rental_uris":{"android":"levelo://app?vid=4d065778-434d-4f54-a58e-d667c1dbaf68","ios":"levelo://app?vid=4d065778-434d-4f54-a58e-d667c1dbaf68"},"vehicle_type_id":"4","last_reported":1777489673,"current_range_meters":6800,"station_id":"ce4bh5p2rcd13ifvqe4g","pricing_plan_id":"cebpf4jnsgd1na2vs0mg"},{"bike_id":"4d8358c4-8650-47a9-98d1-69b546233442","system_id":"levelo_inurba_marseille","lat":43.29036,"lon":5.37566,"is_reserved":false,"is_disabled":false,"rental_uris":{"android":"levelo://app?vid=4d8358c4-8650-47a9-98d1-69b546233442","ios":"levelo://app?vid=4d8358c4-8650-47a9-98d1-69b546233442"},"vehicle_type_id":"4","last_reported":1777489673,"current_range_meters":6800,"station_id":"ce4bh692rcd13ifvqe90","pricing_plan_id":"cebpf4jnsgd1na2vs0mg"},{"bike_id":"69bed6b3-f53b-4286-bac2-14ab33299680","system_id":"levelo_inurba_marseille","lat":43.30598,"lon":5.39352,"is_reserved":false,"is_disabled":true,"rental_uris":{"android":"levelo://app?vid=69bed6b3-f53b-4286-bac2-14ab33299680","ios":"levelo://app?vid=69bed6b3-f53b-4286-bac2-14ab33299680"},"vehicle_type_id":"4","last_reported":1777489673,"current_range_meters":6800,"station_id":"ce4bh0p2rcd13ifvqd80","pricing_plan_id":"cebpf4jnsgd1na2vs0mg"},{"bike_id":"2064fb81-fa2b-48e4-835e-023a037b75b7","system_id":"levelo_inurba_marseille","lat":43.29271,"lon":5.38437,"is_reserved":false,"is_disabled":false,"rental_uris":{"android":"levelo://app?vid=2064fb81-fa2b-48e4-835e-023a037b75b7","ios":"levelo://app?vid=2064fb81-fa2b-48e4-835e-023a037b75b7"},"vehicle_type_id":"4","last_reported":1777489673,"current_range_meters":6800,"station_id":"ce4bh692rcd13ifvqea0","pricing_plan_id":"cebpf4jnsgd1na2vs0mg"},{"bike_id":"8dd1e25c-baed-4980-85e9-0243aaf62162","system_id":"levelo_inurba_marseille","lat":43.29882,"lon":5.39736,"is_reserved":false,"is_disabled":false,"rental_uris":{"android":"levelo://app?vid=8dd1e25c-baed-4980-85e9-0243aaf62162","ios":"levelo://app?vid=8dd1e25c-baed-4980-85e9-0243aaf62162"},"vehicle_type_id":"4","last_reported":1777489673,"current_range_meters":6800,"station_id":"ce4bh0h2rcd13ifvqd50","pricing_plan_id":"cebpf4jnsgd1na2vs0mg"},{"bike_id":"55ee4743-ff45-4fca-aff2-555c3c4f54a5","system_id":"levelo_inurba_marseille","lat":43.27626,"lon":5.36116,"is_reserved":false,"is_disabled":false,"rental_uris":{"android":"levelo://app?vid=55ee4743-ff45-4fca-aff2-555c3c4f54a5","ios":"levelo://app?vid=55ee4743-ff45-4fca-aff2-555c3c4f54a5"},"vehicle_type_id":"4","last_reported":1777489673,"current_range_meters":6800,"station_id":"ce4bgj92rcd13ifvqbe0","pricing_plan_id":"cebpf4jnsgd1na2vs0mg"},{"bike_id":"395b6d11-2b6d-456e-82d2-59b8e2c21d9d","system_id":"levelo_inurba_marseille","lat":43.27376,"lon":5.36255,"is_reserved":false,"is_disabled":false,"rental_uris":{"android":"levelo://app?vid=395b6d11-2b6d-456e-82d2-59b8e2c21d9d","ios":"levelo://app?vid=395b6d11-2b6d-456e-82d2-59b8e2c21d9d"},"vehicle_type_id":"4","last_reported":1777489673,"current_range_meters":6800,"station_id":"ce4bhbh2rcd13ifvqeo0","pricing_plan_id":"cebpf4jnsgd1na2vs0mg"},{"bike_id":"96e8a633-bdaf-41d1-adaf-51c88b50253b","system_id":"levelo_inurba_marseille","lat":43.30182,"lon":5.3663,"is_reserved":false,"is_disabled":false,"rental_uris":{"android":"levelo://app?vid=96e8a633-bdaf-41d1-adaf-51c88b50253b","ios":"levelo://app?vid=96e8a633-bdaf-41d1-adaf-51c88b50253b"},"vehicle_type_id":"4","last_reported":1777489673,"current_range_meters":6800,"station_id":"ce4bgrh2rcd13ifvqc8g","pricing_plan_id":"cebpf4jnsgd1na2vs0mg"},{"bike_id":"95408503-783e-4868-8bb9-2c1790ee6005","system_id":"levelo_inurba_marseille","lat":43.29537,"lon":5.39041,"is_reserved":false,"is_disabled":false,"rental_uris":{"android":"levelo://app?vid=95408503-783e-4868-8bb9-2c1790ee6005","ios":"levelo://app?vid=95408503-783e-4868-8bb9-2c1790ee6005"},"vehicle_type_id":"4","last_reported":1777489673,"current_range_meters":6800,"station_id":"ce4bh3p2rcd13ifvqdp0","pricing_plan_id":"cebpf4jnsgd1na2vs0mg"},{"bike_id":"c561ea75-a407-4ccd-b0e3-67fd9691422f","system_id":"levelo_inurba_marseille","lat":43.29546,"lon":5.38537,"is_reserved":false,"is_disabled":false,"rental_uris":{"android":"levelo://app?vid=c561ea75-a407-4ccd-b0e3-67fd9691422f","ios":"levelo://app?vid=c561ea75-a407-4ccd-b0e3-67fd9691422f"},"vehicle_type_id":"4","last_reported":1777489673,"current_range_meters":6800,"station_id":"ce4bgih2rcd13ifvqba0","pricing_plan_id":"cebpf4jnsgd1na2vs0mg"},{"bike_id":"ac345f46-25ef-455f-b08c-9e722abe31bb","system_id":"levelo_inurba_marseille","lat":43.29966,"lon":5.38517,"is_reserved":false,"is_disabled":false,"rental_uris":{"android":"levelo://app?vid=ac345f46-25ef-455f-b08c-9e722abe31bb","ios":"levelo://app?vid=ac345f46-25ef-455f-b08c-9e722abe31bb"},"vehicle_type_id":"4","last_reported":1777489673,"current_range_meters":6800,"station_id":"ce4bgj92rcd13ifvqbd0","pricing_plan_id":"cebpf4jnsgd1na2vs0mg"},{"bike_id":"e80f8c62-7705-40b7-808f-fa9231dbf360","system_id":"levelo_inurba_marseille","lat":43.29862,"lon":5.39763,"is_reserved":false,"is_disabled":false,"rental_uris":{"android":"levelo://app?vid=e80f8c62-7705-40b7-808f-fa9231dbf360","ios":"levelo://app?vid=e80f8c62-7705-40b7-808f-fa9231dbf360"},"vehicle_type_id":"4","last_reported":1777489673,"current_range_meters":6800,"station_id":"ce4bh0h2rcd13ifvqd50","pricing_plan_id":"cebpf4jnsgd1na2vs0mg"},{"bike_id":"b5592bc3-7c5d-4ba9-b1ae-b173928aef8c","system_id":"levelo_inurba_marseille","lat":43.28481,"lon":5.48387,"is_reserved":false,"is_disabled":false,"rental_uris":{"android":"levelo://app?vid=b5592bc3-7c5d-4ba9-b1ae-b173928aef8c","ios":"levelo://app?vid=b5592bc3-7c5d-4ba9-b1ae-b173928aef8c"},"vehicle_type_id":"4","last_reported":1777489673,"current_range_meters":7200,"station_id":"","pricing_plan_id":"cebpf4jnsgd1na2vs0mg"},{"bike_id":"c62dd68e-1420-4f1f-9f98-ec3aebe502eb","system_id":"levelo_inurba_marseille","lat":43.31828,"lon":5.3849,"is_reserved":false,"is_disabled":false,"rental_uris":{"android":"levelo://app?vid=c62dd68e-1420-4f1f-9f98-ec3aebe502eb","ios":"levelo://app?vid=c62dd68e-1420-4f1f-9f98-ec3aebe502eb"},"vehicle_type_id":"4","last_reported":1777489673,"current_range_meters":7200,"station_id":"","pricing_plan_id":"cebpf4jnsgd1na2vs0mg"},{"bike_id":"d2bffbeb-b1c3-4c62-834a-33d6be2c2f87","system_id":"levelo_inurba_marseille","lat":43.27214,"lon":5.39179,"is_reserved":false,"is_disabled":true,"rental_uris":{"android":"levelo://app?vid=d2bffbeb-b1c3-4c62-834a-33d6be2c2f87","ios":"levelo://app?vid=d2bffbeb-b1c3-4c62-834a-33d6be2c2f87"},"vehicle_type_id":"4","last_reported":1777489673,"current_range_meters":7200,"station_id":"ce4bhhp2rcd13ifvqfm0","pricing_plan_id":"cebpf4jnsgd1na2vs0mg"},{"bike_id":"acc57406-75de-43a2-a6ec-d941193f0be0","system_id":"levelo_inurba_marseille","lat":43.32353,"lon":5.36734,"is_reserved":false,"is_disabled":false,"rental_uris":{"android":"levelo://app?vid=acc57406-75de-43a2-a6ec-d941193f0be0","ios":"levelo://app?vid=acc57406-75de-43a2-a6ec-d941193f0be0"},"vehicle_type_id":"4","last_reported":1777489673,"current_range_meters":7200,"station_id":"ce4bhsh2rcd13ifvqi2g","pricing_plan_id":"cebpf4jnsgd1na2vs0mg"},{"bike_id":"9b51c9cc-e88d-4bf5-8c93-3c7fad568376","system_id":"levelo_inurba_marseille","lat":43.29926,"lon":5.36515,"is_reserved":false,"is_disabled":false,"rental_uris":{"android":"levelo://app?vid=9b51c9cc-e88d-4bf5-8c93-3c7fad568376","ios":"levelo://app?vid=9b51c9cc-e88d-4bf5-8c93-3c7fad568376"},"vehicle_type_id":"4","last_reported":1777489673,"current_range_meters":7200,"station_id":"ce4bgm92rcd13ifvqbr0","pricing_plan_id":"cebpf4jnsgd1na2vs0mg"},{"bike_id":"bccd3b93-1cdb-49b7-8d2b-b6c4f5686242","system_id":"levelo_inurba_marseille","lat":43.30095,"lon":5.3907,"is_reserved":false,"is_disabled":false,"rental_uris":{"android":"levelo://app?vid=bccd3b93-1cdb-49b7-8d2b-b6c4f5686242","ios":"levelo://app?vid=bccd3b93-1cdb-49b7-8d2b-b6c4f5686242"},"vehicle_type_id":"4","last_reported":1777489673,"current_range_meters":7200,"station_id":"ce4bh192rcd13ifvqdb0","pricing_plan_id":"cebpf4jnsgd1na2vs0mg"},{"bike_id":"adaf0fe9-0a1d-456d-bf14-cd14ee892955","system_id":"levelo_inurba_marseille","lat":43.28988,"lon":5.37813,"is_reserved":false,"is_disabled":false,"rental_uris":{"android":"levelo://app?vid=adaf0fe9-0a1d-456d-bf14-cd14ee892955","ios":"levelo://app?vid=adaf0fe9-0a1d-456d-bf14-cd14ee892955"},"vehicle_type_id":"4","last_reported":1777489673,"current_range_meters":7200,"station_id":"ce4bh9p2rcd13ifvqed0","pricing_plan_id":"cebpf4jnsgd1na2vs0mg"},{"bike_id":"d85dd01f-37ba-4331-9936-27b998b7d1ec","system_id":"levelo_inurba_marseille","lat":43.30772,"lon":5.37645,"is_reserved":false,"is_disabled":false,"rental_uris":{"android":"levelo://app?vid=d85dd01f-37ba-4331-9936-27b998b7d1ec","ios":"levelo://app?vid=d85dd01f-37ba-4331-9936-27b998b7d1ec"},"vehicle_type_id":"4","last_reported":1777489673,"current_range_meters":7200,"station_id":"ce4bgv92rcd13ifvqcq0","pricing_plan_id":"cebpf4jnsgd1na2vs0mg"},{"bike_id":"a496669f-42ea-4ec8-b909-b71bb128370f","system_id":"levelo_inurba_marseille","lat":43.33538,"lon":5.37468,"is_reserved":false,"is_disabled":false,"rental_uris":{"android":"levelo://app?vid=a496669f-42ea-4ec8-b909-b71bb128370f","ios":"levelo://app?vid=a496669f-42ea-4ec8-b909-b71bb128370f"},"vehicle_type_id":"4","last_reported":1777489673,"current_range_meters":7200,"station_id":"st_d46tts09ee8s73dlu43g","pricing_plan_id":"cebpf4jnsgd1na2vs0mg"},{"bike_id":"af88de84-25c3-479d-a95d-86c2a576ca90","system_id":"levelo_inurba_marseille","lat":43.29274,"lon":5.38439,"is_reserved":false,"is_disabled":false,"rental_uris":{"android":"levelo://app?vid=af88de84-25c3-479d-a95d-86c2a576ca90","ios":"levelo://app?vid=af88de84-25c3-479d-a95d-86c2a576ca90"},"vehicle_type_id":"4","last_reported":1777489673,"current_range_meters":7200,"station_id":"ce4bh692rcd13ifvqea0","pricing_plan_id":"cebpf4jnsgd1na2vs0mg"},{"bike_id":"cd735691-a8cf-469c-b880-28ec2dcf0dc2","system_id":"levelo_inurba_marseille","lat":43.33545,"lon":5.37451,"is_reserved":false,"is_disabled":false,"rental_uris":{"android":"levelo://app?vid=cd735691-a8cf-469c-b880-28ec2dcf0dc2","ios":"levelo://app?vid=cd735691-a8cf-469c-b880-28ec2dcf0dc2"},"vehicle_type_id":"4","last_reported":1777489673,"current_range_meters":7200,"station_id":"st_d46tts09ee8s73dlu43g","pricing_plan_id":"cebpf4jnsgd1na2vs0mg"},{"bike_id":"07919e2d-9a9f-4079-9fd2-ae993e85b930","system_id":"levelo_inurba_marseille","lat":43.21182,"lon":5.35074,"is_reserved":false,"is_disabled":false,"rental_uris":{"android":"levelo://app?vid=07919e2d-9a9f-4079-9fd2-ae993e85b930","ios":"levelo://app?vid=07919e2d-9a9f-4079-9fd2-ae993e85b930"},"vehicle_type_id":"4","last_reported":1777489673,"current_range_meters":7200,"station_id":"st_cvj6sg6p6f1abm77japg","pricing_plan_id":"cebpf4jnsgd1na2vs0mg"},{"bike_id":"b91f4f99-7987-40ea-afbb-1e1af65ec675","system_id":"levelo_inurba_marseille","lat":43.29435,"lon":5.40912,"is_reserved":false,"is_disabled":false,"rental_uris":{"android":"levelo://app?vid=b91f4f99-7987-40ea-afbb-1e1af65ec675","ios":"levelo://app?vid=b91f4f99-7987-40ea-afbb-1e1af65ec675"},"vehicle_type_id":"4","last_reported":1777489673,"current_range_meters":7200,"station_id":"","pricing_plan_id":"cebpf4jnsgd1na2vs0mg"},{"bike_id":"c49761ac-9f33-4552-bf2f-10763f93fa50","system_id":"levelo_inurba_marseille","lat":43.31912,"lon":5.36811,"is_reserved":false,"is_disabled":false,"rental_uris":{"android":"levelo://app?vid=c49761ac-9f33-4552-bf2f-10763f93fa50","ios":"levelo://app?vid=c49761ac-9f33-4552-bf2f-10763f93fa50"},"vehicle_type_id":"4","last_reported":1777489673,"current_range_meters":7200,"station_id":"st_d6o2h0d0559c73evc1b0","pricing_plan_id":"cebpf4jnsgd1na2vs0mg"},{"bike_id":"b0e286ab-be5f-4245-bffb-d2e9c656f1ca","system_id":"levelo_inurba_marseille","lat":43.29007,"lon":5.35607,"is_reserved":false,"is_disabled":false,"rental_uris":{"android":"levelo://app?vid=b0e286ab-be5f-4245-bffb-d2e9c656f1ca","ios":"levelo://app?vid=b0e286ab-be5f-4245-bffb-d2e9c656f1ca"},"vehicle_type_id":"4","last_reported":1777489673,"current_range_meters":7200,"station_id":"ce4bhb92rcd13ifvqen0","pricing_plan_id":"cebpf4jnsgd1na2vs0mg"},{"bike_id":"e5f556c0-c289-4c63-89ce-2585136a6e6a","system_id":"levelo_inurba_marseille","lat":43.290066,"lon":5.356133,"is_reserved":false,"is_disabled":false,"rental_uris":{"android":"levelo://app?vid=e5f556c0-c289-4c63-89ce-2585136a6e6a","ios":"levelo://app?vid=e5f556c0-c289-4c63-89ce-2585136a6e6a"},"vehicle_type_id":"4","last_reported":1777489673,"current_range_meters":7200,"station_id":"ce4bhb92rcd13ifvqen0","pricing_plan_id":"cebpf4jnsgd1na2vs0mg"},{"bike_id":"4c4fd5bf-edd1-4e64-bbba-8e4e3d30b47b","system_id":"levelo_inurba_marseille","lat":43.29106,"lon":5.42997,"is_reserved":false,"is_disabled":false,"rental_uris":{"android":"levelo://app?vid=4c4fd5bf-edd1-4e64-bbba-8e4e3d30b47b","ios":"levelo://app?vid=4c4fd5bf-edd1-4e64-bbba-8e4e3d30b47b"},"vehicle_type_id":"4","last_reported":1777489673,"current_range_meters":7200,"station_id":"","pricing_plan_id":"cebpf4jnsgd1na2vs0mg"},{"bike_id":"002595fb-0208-4831-9515-51e4e12484a4","system_id":"levelo_inurba_marseille","lat":43.295303,"lon":5.385432,"is_reserved":false,"is_disabled":false,"rental_uris":{"android":"levelo://app?vid=002595fb-0208-4831-9515-51e4e12484a4","ios":"levelo://app?vid=002595fb-0208-4831-9515-51e4e12484a4"},"vehicle_type_id":"4","last_reported":1777489673,"current_range_meters":7200,"station_id":"ce4bgih2rcd13ifvqba0","pricing_plan_id":"cebpf4jnsgd1na2vs0mg"},{"bike_id":"d8de0a64-e3bb-4f89-8f07-313cae5af722","system_id":"levelo_inurba_marseille","lat":43.22551,"lon":5.4164,"is_reserved":false,"is_disabled":false,"rental_uris":{"android":"levelo://app?vid=d8de0a64-e3bb-4f89-8f07-313cae5af722","ios":"levelo://app?vid=d8de0a64-e3bb-4f89-8f07-313cae5af722"},"vehicle_type_id":"4","last_reported":1777489673,"current_range_meters":8000,"station_id":"st_d2o4gvlbi1j2169b742g","pricing_plan_id":"cebpf4jnsgd1na2vs0mg"},{"bike_id":"93b13b9e-0842-4649-88de-644dbf6c103a","system_id":"levelo_inurba_marseille","lat":43.26444,"lon":5.42059,"is_reserved":false,"is_disabled":false,"rental_uris":{"android":"levelo://app?vid=93b13b9e-0842-4649-88de-644dbf6c103a","ios":"levelo://app?vid=93b13b9e-0842-4649-88de-644dbf6c103a"},"vehicle_type_id":"4","last_reported":1777489673,"current_range_meters":8000,"station_id":"","pricing_plan_id":"cebpf4jnsgd1na2vs0mg"},{"bike_id":"74b97888-2010-4f62-9143-1297c2114922","system_id":"levelo_inurba_marseille","lat":43.27838,"lon":5.39197,"is_reserved":false,"is_disabled":true,"rental_uris":{"android":"levelo://app?vid=74b97888-2010-4f62-9143-1297c2114922","ios":"levelo://app?vid=74b97888-2010-4f62-9143-1297c2114922"},"vehicle_type_id":"4","last_reported":1777489673,"current_range_meters":8000,"station_id":"ce4bhjp2rcd13ifvqga0","pricing_plan_id":"cebpf4jnsgd1na2vs0mg"},{"bike_id":"20c418db-2f1d-4a9c-9013-660ef304788e","system_id":"levelo_inurba_marseille","lat":43.3232,"lon":5.36724,"is_reserved":false,"is_disabled":false,"rental_uris":{"android":"levelo://app?vid=20c418db-2f1d-4a9c-9013-660ef304788e","ios":"levelo://app?vid=20c418db-2f1d-4a9c-9013-660ef304788e"},"vehicle_type_id":"4","last_reported":1777489673,"current_range_meters":8000,"station_id":"ce4bhsh2rcd13ifvqi2g","pricing_plan_id":"cebpf4jnsgd1na2vs0mg"},{"bike_id":"483bceac-8a40-4ca9-a59f-b53f2d8dd2bb","system_id":"levelo_inurba_marseille","lat":43.29165,"lon":5.39362,"is_reserved":false,"is_disabled":false,"rental_uris":{"android":"levelo://app?vid=483bceac-8a40-4ca9-a59f-b53f2d8dd2bb","ios":"levelo://app?vid=483bceac-8a40-4ca9-a59f-b53f2d8dd2bb"},"vehicle_type_id":"4","last_reported":1777489673,"current_range_meters":8000,"station_id":"","pricing_plan_id":"cebpf4jnsgd1na2vs0mg"},{"bike_id":"fef3aa10-ee74-4a02-b8de-ff772cc3ac16","system_id":"levelo_inurba_marseille","lat":43.294658,"lon":5.383021,"is_reserved":false,"is_disabled":false,"rental_uris":{"android":"levelo://app?vid=fef3aa10-ee74-4a02-b8de-ff772cc3ac16","ios":"levelo://app?vid=fef3aa10-ee74-4a02-b8de-ff772cc3ac16"},"vehicle_type_id":"4","last_reported":1777489673,"current_range_meters":8000,"station_id":"","pricing_plan_id":"cebpf4jnsgd1na2vs0mg"},{"bike_id":"2c514eca-0c7c-4c54-8544-da1a555049b6","system_id":"levelo_inurba_marseille","lat":43.26509,"lon":5.36932,"is_reserved":false,"is_disabled":false,"rental_uris":{"android":"levelo://app?vid=2c514eca-0c7c-4c54-8544-da1a555049b6","ios":"levelo://app?vid=2c514eca-0c7c-4c54-8544-da1a555049b6"},"vehicle_type_id":"4","last_reported":1777489673,"current_range_meters":8000,"station_id":"","pricing_plan_id":"cebpf4jnsgd1na2vs0mg"},{"bike_id":"907b975e-fb54-4198-ad71-0a6fda3075d0","system_id":"levelo_inurba_marseille","lat":43.29891,"lon":5.39741,"is_reserved":false,"is_disabled":true,"rental_uris":{"android":"levelo://app?vid=907b975e-fb54-4198-ad71-0a6fda3075d0","ios":"levelo://app?vid=907b975e-fb54-4198-ad71-0a6fda3075d0"},"vehicle_type_id":"4","last_reported":1777489673,"current_range_meters":8000,"station_id":"ce4bh0h2rcd13ifvqd50","pricing_plan_id":"cebpf4jnsgd1na2vs0mg"},{"bike_id":"b2d9f173-ebdf-4637-9547-ff1124c7519b","system_id":"levelo_inurba_marseille","lat":43.31177,"lon":5.37254,"is_reserved":false,"is_disabled":false,"rental_uris":{"android":"levelo://app?vid=b2d9f173-ebdf-4637-9547-ff1124c7519b","ios":"levelo://app?vid=b2d9f173-ebdf-4637-9547-ff1124c7519b"},"vehicle_type_id":"4","last_reported":1777489673,"current_range_meters":8000,"station_id":"","pricing_plan_id":"cebpf4jnsgd1na2vs0mg"},{"bike_id":"4d3b0fb9-4fcc-46d7-8f90-81b232f0c7b3","system_id":"levelo_inurba_marseille","lat":43.30145,"lon":5.43118,"is_reserved":false,"is_disabled":false,"rental_uris":{"android":"levelo://app?vid=4d3b0fb9-4fcc-46d7-8f90-81b232f0c7b3","ios":"levelo://app?vid=4d3b0fb9-4fcc-46d7-8f90-81b232f0c7b3"},"vehicle_type_id":"4","last_reported":1777489673,"current_range_meters":8000,"station_id":"st_d3js3co5814s73ftftug","pricing_plan_id":"cebpf4jnsgd1na2vs0mg"},{"bike_id":"66237e3a-14a8-443c-ad84-dae019ffe9ac","system_id":"levelo_inurba_marseille","lat":43.29225,"lon":5.38476,"is_reserved":false,"is_disabled":false,"rental_uris":{"android":"levelo://app?vid=66237e3a-14a8-443c-ad84-dae019ffe9ac","ios":"levelo://app?vid=66237e3a-14a8-443c-ad84-dae019ffe9ac"},"vehicle_type_id":"4","last_reported":1777489673,"current_range_meters":8000,"station_id":"","pricing_plan_id":"cebpf4jnsgd1na2vs0mg"},{"bike_id":"c1fed285-1e80-4ef8-9df7-71f9160e1455","system_id":"levelo_inurba_marseille","lat":43.28153,"lon":5.42648,"is_reserved":false,"is_disabled":false,"rental_uris":{"android":"levelo://app?vid=c1fed285-1e80-4ef8-9df7-71f9160e1455","ios":"levelo://app?vid=c1fed285-1e80-4ef8-9df7-71f9160e1455"},"vehicle_type_id":"4","last_reported":1777489673,"current_range_meters":8000,"station_id":"ce4bhnh2rcd13ifvqgug","pricing_plan_id":"cebpf4jnsgd1na2vs0mg"},{"bike_id":"084462ef-36f0-40ce-887e-053926a66e5a","system_id":"levelo_inurba_marseille","lat":43.29533,"lon":5.38544,"is_reserved":false,"is_disabled":false,"rental_uris":{"android":"levelo://app?vid=084462ef-36f0-40ce-887e-053926a66e5a","ios":"levelo://app?vid=084462ef-36f0-40ce-887e-053926a66e5a"},"vehicle_type_id":"4","last_reported":1777489673,"current_range_meters":8000,"station_id":"ce4bgih2rcd13ifvqba0","pricing_plan_id":"cebpf4jnsgd1na2vs0mg"},{"bike_id":"e6e8ed8b-d332-44a0-80b5-5bb0b669a2c6","system_id":"levelo_inurba_marseille","lat":43.29539,"lon":5.38543,"is_reserved":false,"is_disabled":false,"rental_uris":{"android":"levelo://app?vid=e6e8ed8b-d332-44a0-80b5-5bb0b669a2c6","ios":"levelo://app?vid=e6e8ed8b-d332-44a0-80b5-5bb0b669a2c6"},"vehicle_type_id":"4","last_reported":1777489673,"current_range_meters":8000,"station_id":"ce4bgih2rcd13ifvqba0","pricing_plan_id":"cebpf4jnsgd1na2vs0mg"},{"bike_id":"c2cb9773-cb48-4439-b4b2-8b6b11733121","system_id":"levelo_inurba_marseille","lat":43.30086,"lon":5.39078,"is_reserved":false,"is_disabled":false,"rental_uris":{"android":"levelo://app?vid=c2cb9773-cb48-4439-b4b2-8b6b11733121","ios":"levelo://app?vid=c2cb9773-cb48-4439-b4b2-8b6b11733121"},"vehicle_type_id":"4","last_reported":1777489673,"current_range_meters":8000,"station_id":"ce4bh192rcd13ifvqdb0","pricing_plan_id":"cebpf4jnsgd1na2vs0mg"},{"bike_id":"ae5dfbbd-1caf-4019-b26d-f227bc82a32c","system_id":"levelo_inurba_marseille","lat":43.31993,"lon":5.38165,"is_reserved":false,"is_disabled":false,"rental_uris":{"android":"levelo://app?vid=ae5dfbbd-1caf-4019-b26d-f227bc82a32c","ios":"levelo://app?vid=ae5dfbbd-1caf-4019-b26d-f227bc82a32c"},"vehicle_type_id":"4","last_reported":1777489673,"current_range_meters":8000,"station_id":"ce4bhr12rcd13ifvqhpg","pricing_plan_id":"cebpf4jnsgd1na2vs0mg"},{"bike_id":"9704bc80-93c0-4593-9446-7d79d9f301af","system_id":"levelo_inurba_marseille","lat":43.28605,"lon":5.39904,"is_reserved":false,"is_disabled":false,"rental_uris":{"android":"levelo://app?vid=9704bc80-93c0-4593-9446-7d79d9f301af","ios":"levelo://app?vid=9704bc80-93c0-4593-9446-7d79d9f301af"},"vehicle_type_id":"4","last_reported":1777489673,"current_range_meters":8000,"station_id":"st_d4a7ka997mjs738ck50g","pricing_plan_id":"cebpf4jnsgd1na2vs0mg"},{"bike_id":"a71a5b55-6cc9-4bfe-bd85-1f4b615e0857","system_id":"levelo_inurba_marseille","lat":43.33165,"lon":5.37684,"is_reserved":false,"is_disabled":false,"rental_uris":{"android":"levelo://app?vid=a71a5b55-6cc9-4bfe-bd85-1f4b615e0857","ios":"levelo://app?vid=a71a5b55-6cc9-4bfe-bd85-1f4b615e0857"},"vehicle_type_id":"4","last_reported":1777489673,"current_range_meters":8000,"station_id":"st_d46cu089ee8s73dldbu0","pricing_plan_id":"cebpf4jnsgd1na2vs0mg"},{"bike_id":"403a0c1c-6ce2-4f20-b97e-8e3a28a7953f","system_id":"levelo_inurba_marseille","lat":43.26933,"lon":5.38925,"is_reserved":false,"is_disabled":false,"rental_uris":{"android":"levelo://app?vid=403a0c1c-6ce2-4f20-b97e-8e3a28a7953f","ios":"levelo://app?vid=403a0c1c-6ce2-4f20-b97e-8e3a28a7953f"},"vehicle_type_id":"4","last_reported":1777489673,"current_range_meters":8000,"station_id":"ce4bhhh2rcd13ifvqfl0","pricing_plan_id":"cebpf4jnsgd1na2vs0mg"},{"bike_id":"c5d7df8e-308c-4abd-8976-5674b7c3a59d","system_id":"levelo_inurba_marseille","lat":43.29319,"lon":5.37446,"is_reserved":false,"is_disabled":false,"rental_uris":{"android":"levelo://app?vid=c5d7df8e-308c-4abd-8976-5674b7c3a59d","ios":"levelo://app?vid=c5d7df8e-308c-4abd-8976-5674b7c3a59d"},"vehicle_type_id":"4","last_reported":1777489673,"current_range_meters":8000,"station_id":"ce4bgi12rcd13ifvqb70","pricing_plan_id":"cebpf4jnsgd1na2vs0mg"},{"bike_id":"54780433-886c-41b4-b3cd-ddc787baf19e","system_id":"levelo_inurba_marseille","lat":43.32935,"lon":5.38974,"is_reserved":false,"is_disabled":false,"rental_uris":{"android":"levelo://app?vid=54780433-886c-41b4-b3cd-ddc787baf19e","ios":"levelo://app?vid=54780433-886c-41b4-b3cd-ddc787baf19e"},"vehicle_type_id":"4","last_reported":1777489673,"current_range_meters":8000,"station_id":"","pricing_plan_id":"cebpf4jnsgd1na2vs0mg"},{"bike_id":"2c6e488e-5f57-41b5-a027-d13b49a7c8eb","system_id":"levelo_inurba_marseille","lat":43.29901,"lon":5.43665,"is_reserved":false,"is_disabled":false,"rental_uris":{"android":"levelo://app?vid=2c6e488e-5f57-41b5-a027-d13b49a7c8eb","ios":"levelo://app?vid=2c6e488e-5f57-41b5-a027-d13b49a7c8eb"},"vehicle_type_id":"4","last_reported":1777489673,"current_range_meters":8400,"station_id":"ce4bhpp2rcd13ifvqhfg","pricing_plan_id":"cebpf4jnsgd1na2vs0mg"},{"bike_id":"7a4f9c5b-0770-4973-b065-ff441b4f0ec4","system_id":"levelo_inurba_marseille","lat":43.28881,"lon":5.42519,"is_reserved":false,"is_disabled":false,"rental_uris":{"android":"levelo://app?vid=7a4f9c5b-0770-4973-b065-ff441b4f0ec4","ios":"levelo://app?vid=7a4f9c5b-0770-4973-b065-ff441b4f0ec4"},"vehicle_type_id":"4","last_reported":1777489673,"current_range_meters":8400,"station_id":"st_d3b462108ojc7389ooeg","pricing_plan_id":"cebpf4jnsgd1na2vs0mg"},{"bike_id":"0438d68d-b4c6-4b23-a7e1-82657231ebe9","system_id":"levelo_inurba_marseille","lat":43.28464,"lon":5.48402,"is_reserved":false,"is_disabled":false,"rental_uris":{"android":"levelo://app?vid=0438d68d-b4c6-4b23-a7e1-82657231ebe9","ios":"levelo://app?vid=0438d68d-b4c6-4b23-a7e1-82657231ebe9"},"vehicle_type_id":"4","last_reported":1777489673,"current_range_meters":8400,"station_id":"","pricing_plan_id":"cebpf4jnsgd1na2vs0mg"},{"bike_id":"82a8043e-804e-4dc9-b426-b4d299449f67","system_id":"levelo_inurba_marseille","lat":43.31072,"lon":5.37164,"is_reserved":false,"is_disabled":false,"rental_uris":{"android":"levelo://app?vid=82a8043e-804e-4dc9-b426-b4d299449f67","ios":"levelo://app?vid=82a8043e-804e-4dc9-b426-b4d299449f67"},"vehicle_type_id":"4","last_reported":1777489673,"current_range_meters":8400,"station_id":"st_d4kl2rp97mjs73e7tdfg","pricing_plan_id":"cebpf4jnsgd1na2vs0mg"},{"bike_id":"262fc285-b6eb-4eda-9ac1-639b6caaacc5","system_id":"levelo_inurba_marseille","lat":43.32353,"lon":5.36721,"is_reserved":false,"is_disabled":false,"rental_uris":{"android":"levelo://app?vid=262fc285-b6eb-4eda-9ac1-639b6caaacc5","ios":"levelo://app?vid=262fc285-b6eb-4eda-9ac1-639b6caaacc5"},"vehicle_type_id":"4","last_reported":1777489673,"current_range_meters":8400,"station_id":"ce4bhsh2rcd13ifvqi2g","pricing_plan_id":"cebpf4jnsgd1na2vs0mg"},{"bike_id":"c879c157-8e3a-4401-bd2d-b501ac500787","system_id":"levelo_inurba_marseille","lat":43.26561,"lon":5.39019,"is_reserved":false,"is_disabled":false,"rental_uris":{"android":"levelo://app?vid=c879c157-8e3a-4401-bd2d-b501ac500787","ios":"levelo://app?vid=c879c157-8e3a-4401-bd2d-b501ac500787"},"vehicle_type_id":"4","last_reported":1777489673,"current_range_meters":8400,"station_id":"ce4bhe12rcd13ifvqf30","pricing_plan_id":"cebpf4jnsgd1na2vs0mg"},{"bike_id":"5cbe20c7-2966-480b-a4db-a062010a886c","system_id":"levelo_inurba_marseille","lat":43.2869,"lon":5.39996,"is_reserved":false,"is_disabled":false,"rental_uris":{"android":"levelo://app?vid=5cbe20c7-2966-480b-a4db-a062010a886c","ios":"levelo://app?vid=5cbe20c7-2966-480b-a4db-a062010a886c"},"vehicle_type_id":"4","last_reported":1777489673,"current_range_meters":8400,"station_id":"ce4bho92rcd13ifvqh3g","pricing_plan_id":"cebpf4jnsgd1na2vs0mg"},{"bike_id":"73d36e8f-c10a-47a5-b1bc-bdbbb165a673","system_id":"levelo_inurba_marseille","lat":43.25068,"lon":5.39505,"is_reserved":false,"is_disabled":false,"rental_uris":{"android":"levelo://app?vid=73d36e8f-c10a-47a5-b1bc-bdbbb165a673","ios":"levelo://app?vid=73d36e8f-c10a-47a5-b1bc-bdbbb165a673"},"vehicle_type_id":"4","last_reported":1777489673,"current_range_meters":8400,"station_id":"ce4bhm12rcd13ifvqgkg","pricing_plan_id":"cebpf4jnsgd1na2vs0mg"},{"bike_id":"6adcbb52-63bc-4434-9cbe-52f174c39402","system_id":"levelo_inurba_marseille","lat":43.29536,"lon":5.3854,"is_reserved":false,"is_disabled":false,"rental_uris":{"android":"levelo://app?vid=6adcbb52-63bc-4434-9cbe-52f174c39402","ios":"levelo://app?vid=6adcbb52-63bc-4434-9cbe-52f174c39402"},"vehicle_type_id":"4","last_reported":1777489673,"current_range_meters":8400,"station_id":"ce4bgih2rcd13ifvqba0","pricing_plan_id":"cebpf4jnsgd1na2vs0mg"},{"bike_id":"9302113e-7fd0-40ac-8bed-7a305f695ca3","system_id":"levelo_inurba_marseille","lat":43.29196,"lon":5.39306,"is_reserved":false,"is_disabled":false,"rental_uris":{"android":"levelo://app?vid=9302113e-7fd0-40ac-8bed-7a305f695ca3","ios":"levelo://app?vid=9302113e-7fd0-40ac-8bed-7a305f695ca3"},"vehicle_type_id":"4","last_reported":1777489673,"current_range_meters":8400,"station_id":"ce4bh192rcd13ifvqdd0","pricing_plan_id":"cebpf4jnsgd1na2vs0mg"},{"bike_id":"945b3f65-3522-4839-bb4a-92155b98bfd3","system_id":"levelo_inurba_marseille","lat":43.28418,"lon":5.34992,"is_reserved":false,"is_disabled":true,"rental_uris":{"android":"levelo://app?vid=945b3f65-3522-4839-bb4a-92155b98bfd3","ios":"levelo://app?vid=945b3f65-3522-4839-bb4a-92155b98bfd3"},"vehicle_type_id":"4","last_reported":1777489673,"current_range_meters":8400,"station_id":"ce4bhbh2rcd13ifvqepg","pricing_plan_id":"cebpf4jnsgd1na2vs0mg"},{"bike_id":"a8882cc8-1b47-4c4e-b133-3a4407367e91","system_id":"levelo_inurba_marseille","lat":43.28157,"lon":5.42654,"is_reserved":false,"is_disabled":false,"rental_uris":{"android":"levelo://app?vid=a8882cc8-1b47-4c4e-b133-3a4407367e91","ios":"levelo://app?vid=a8882cc8-1b47-4c4e-b133-3a4407367e91"},"vehicle_type_id":"4","last_reported":1777489673,"current_range_meters":8400,"station_id":"ce4bhnh2rcd13ifvqgug","pricing_plan_id":"cebpf4jnsgd1na2vs0mg"},{"bike_id":"04eb66be-58f2-4af0-8492-6df2140aa683","system_id":"levelo_inurba_marseille","lat":43.27814,"lon":5.40715,"is_reserved":false,"is_disabled":false,"rental_uris":{"android":"levelo://app?vid=04eb66be-58f2-4af0-8492-6df2140aa683","ios":"levelo://app?vid=04eb66be-58f2-4af0-8492-6df2140aa683"},"vehicle_type_id":"4","last_reported":1777489673,"current_range_meters":8400,"station_id":"ce4bhnh2rcd13ifvqgtg","pricing_plan_id":"cebpf4jnsgd1na2vs0mg"},{"bike_id":"8e94c400-bf74-4fb6-80b8-f54c0ec64626","system_id":"levelo_inurba_marseille","lat":43.29905,"lon":5.3973,"is_reserved":false,"is_disabled":false,"rental_uris":{"android":"levelo://app?vid=8e94c400-bf74-4fb6-80b8-f54c0ec64626","ios":"levelo://app?vid=8e94c400-bf74-4fb6-80b8-f54c0ec64626"},"vehicle_type_id":"4","last_reported":1777489673,"current_range_meters":8400,"station_id":"ce4bh0h2rcd13ifvqd50","pricing_plan_id":"cebpf4jnsgd1na2vs0mg"},{"bike_id":"d2100e02-d440-4dd1-a5cf-b88a5cd520a9","system_id":"levelo_inurba_marseille","lat":43.29794,"lon":5.39339,"is_reserved":false,"is_disabled":false,"rental_uris":{"android":"levelo://app?vid=d2100e02-d440-4dd1-a5cf-b88a5cd520a9","ios":"levelo://app?vid=d2100e02-d440-4dd1-a5cf-b88a5cd520a9"},"vehicle_type_id":"4","last_reported":1777489673,"current_range_meters":8400,"station_id":"chh1huq6cuj3fo74tm60","pricing_plan_id":"cebpf4jnsgd1na2vs0mg"},{"bike_id":"f6b7f34e-e73a-4721-a8de-4e635f5ddc3d","system_id":"levelo_inurba_marseille","lat":43.29719,"lon":5.37702,"is_reserved":false,"is_disabled":false,"rental_uris":{"android":"levelo://app?vid=f6b7f34e-e73a-4721-a8de-4e635f5ddc3d","ios":"levelo://app?vid=f6b7f34e-e73a-4721-a8de-4e635f5ddc3d"},"vehicle_type_id":"4","last_reported":1777489673,"current_range_meters":8400,"station_id":"ce4bgkh2rcd13ifvqbl0","pricing_plan_id":"cebpf4jnsgd1na2vs0mg"},{"bike_id":"72de19fb-0dea-4bb1-845a-718032b73f50","system_id":"levelo_inurba_marseille","lat":43.30851,"lon":5.3967,"is_reserved":false,"is_disabled":false,"rental_uris":{"android":"levelo://app?vid=72de19fb-0dea-4bb1-845a-718032b73f50","ios":"levelo://app?vid=72de19fb-0dea-4bb1-845a-718032b73f50"},"vehicle_type_id":"4","last_reported":1777489673,"current_range_meters":8400,"station_id":"ce4bh012rcd13ifvqcv0","pricing_plan_id":"cebpf4jnsgd1na2vs0mg"},{"bike_id":"26335112-9b2a-4a27-9ec1-b93b9cc755ad","system_id":"levelo_inurba_marseille","lat":43.30856,"lon":5.41882,"is_reserved":false,"is_disabled":false,"rental_uris":{"android":"levelo://app?vid=26335112-9b2a-4a27-9ec1-b93b9cc755ad","ios":"levelo://app?vid=26335112-9b2a-4a27-9ec1-b93b9cc755ad"},"vehicle_type_id":"4","last_reported":1777489673,"current_range_meters":8400,"station_id":"","pricing_plan_id":"cebpf4jnsgd1na2vs0mg"},{"bike_id":"bf9b525b-6169-435d-b06d-d31fa4c2a776","system_id":"levelo_inurba_marseille","lat":43.24464,"lon":5.42524,"is_reserved":false,"is_disabled":false,"rental_uris":{"android":"levelo://app?vid=bf9b525b-6169-435d-b06d-d31fa4c2a776","ios":"levelo://app?vid=bf9b525b-6169-435d-b06d-d31fa4c2a776"},"vehicle_type_id":"4","last_reported":1777489673,"current_range_meters":8400,"station_id":"st_d4a3vfp97mjs738cd8kg","pricing_plan_id":"cebpf4jnsgd1na2vs0mg"},{"bike_id":"593e0c00-1320-4d88-9a4c-77b0d03fb411","system_id":"levelo_inurba_marseille","lat":43.29887,"lon":5.38891,"is_reserved":false,"is_disabled":false,"rental_uris":{"android":"levelo://app?vid=593e0c00-1320-4d88-9a4c-77b0d03fb411","ios":"levelo://app?vid=593e0c00-1320-4d88-9a4c-77b0d03fb411"},"vehicle_type_id":"4","last_reported":1777489673,"current_range_meters":8400,"station_id":"ce4bh392rcd13ifvqdl0","pricing_plan_id":"cebpf4jnsgd1na2vs0mg"},{"bike_id":"a13cf09e-4dc6-4122-934a-08e5a4ad06bd","system_id":"levelo_inurba_marseille","lat":43.26589,"lon":5.37307,"is_reserved":false,"is_disabled":true,"rental_uris":{"android":"levelo://app?vid=a13cf09e-4dc6-4122-934a-08e5a4ad06bd","ios":"levelo://app?vid=a13cf09e-4dc6-4122-934a-08e5a4ad06bd"},"vehicle_type_id":"4","last_reported":1777489673,"current_range_meters":8400,"station_id":"ce4bhg12rcd13ifvqf70","pricing_plan_id":"cebpf4jnsgd1na2vs0mg"},{"bike_id":"d5388f7a-4e0a-4376-b76b-701e4b281dc2","system_id":"levelo_inurba_marseille","lat":43.27003,"lon":5.40296,"is_reserved":false,"is_disabled":true,"rental_uris":{"android":"levelo://app?vid=d5388f7a-4e0a-4376-b76b-701e4b281dc2","ios":"levelo://app?vid=d5388f7a-4e0a-4376-b76b-701e4b281dc2"},"vehicle_type_id":"4","last_reported":1777489673,"current_range_meters":8400,"station_id":"cjm6bp8fraef2m0cb0m0","pricing_plan_id":"cebpf4jnsgd1na2vs0mg"},{"bike_id":"4758ce40-2df2-4545-a819-877b94120142","system_id":"levelo_inurba_marseille","lat":43.30918,"lon":5.4019,"is_reserved":false,"is_disabled":false,"rental_uris":{"android":"levelo://app?vid=4758ce40-2df2-4545-a819-877b94120142","ios":"levelo://app?vid=4758ce40-2df2-4545-a819-877b94120142"},"vehicle_type_id":"4","last_reported":1777489673,"current_range_meters":8800,"station_id":"ce4bgvp2rcd13ifvqct0","pricing_plan_id":"cebpf4jnsgd1na2vs0mg"},{"bike_id":"5244c715-8e9c-4594-9733-0c9fc2ed4b63","system_id":"levelo_inurba_marseille","lat":43.29027,"lon":5.38635,"is_reserved":false,"is_disabled":false,"rental_uris":{"android":"levelo://app?vid=5244c715-8e9c-4594-9733-0c9fc2ed4b63","ios":"levelo://app?vid=5244c715-8e9c-4594-9733-0c9fc2ed4b63"},"vehicle_type_id":"4","last_reported":1777489673,"current_range_meters":8800,"station_id":"ce4bh4p2rcd13ifvqe0g","pricing_plan_id":"cebpf4jnsgd1na2vs0mg"},{"bike_id":"8829f460-aa5f-4233-9846-cd6731fc4acd","system_id":"levelo_inurba_marseille","lat":43.26983,"lon":5.40434,"is_reserved":false,"is_disabled":false,"rental_uris":{"android":"levelo://app?vid=8829f460-aa5f-4233-9846-cd6731fc4acd","ios":"levelo://app?vid=8829f460-aa5f-4233-9846-cd6731fc4acd"},