{"last_updated":1752142342,"ttl":60,"version":"2.2","data":{"bikes":[{"bike_id":"cd20cfea-2f2f-444d-a882-a49b6cf370eb","system_id":"levelo_inurba_marseille","lat":43.337444,"lon":5.374475,"is_reserved":false,"is_disabled":true,"rental_uris":{"android":"levelo://app?vid=cd20cfea-2f2f-444d-a882-a49b6cf370eb","ios":"levelo://app?vid=cd20cfea-2f2f-444d-a882-a49b6cf370eb"},"vehicle_type_id":"4","last_reported":1752142343,"current_range_meters":0,"station_id":"","pricing_plan_id":"cebpf4jnsgd1na2vs0mg"},{"bike_id":"3da29fb8-fc97-44c6-b9ac-31dd456b2fd4","system_id":"levelo_inurba_marseille","lat":43.33771,"lon":5.37424,"is_reserved":false,"is_disabled":true,"rental_uris":{"android":"levelo://app?vid=3da29fb8-fc97-44c6-b9ac-31dd456b2fd4","ios":"levelo://app?vid=3da29fb8-fc97-44c6-b9ac-31dd456b2fd4"},"vehicle_type_id":"4","last_reported":1752142343,"current_range_meters":0,"station_id":"","pricing_plan_id":"cebpf4jnsgd1na2vs0mg"},{"bike_id":"01861ad8-a8d7-4be6-816e-651927c87584","system_id":"levelo_inurba_marseille","lat":43.33751,"lon":5.37456,"is_reserved":false,"is_disabled":true,"rental_uris":{"android":"levelo://app?vid=01861ad8-a8d7-4be6-816e-651927c87584","ios":"levelo://app?vid=01861ad8-a8d7-4be6-816e-651927c87584"},"vehicle_type_id":"4","last_reported":1752142343,"current_range_meters":0,"station_id":"","pricing_plan_id":"cebpf4jnsgd1na2vs0mg"},{"bike_id":"24cb9089-93ac-4b36-9d4e-b77f1a42140d","system_id":"levelo_inurba_marseille","lat":43.31339,"lon":5.36781,"is_reserved":false,"is_disabled":true,"rental_uris":{"android":"levelo://app?vid=24cb9089-93ac-4b36-9d4e-b77f1a42140d","ios":"levelo://app?vid=24cb9089-93ac-4b36-9d4e-b77f1a42140d"},"vehicle_type_id":"4","last_reported":1752142343,"current_range_meters":0,"station_id":"","pricing_plan_id":"cebpf4jnsgd1na2vs0mg"},{"bike_id":"37f2becd-23f9-4f13-a711-38b8024eeec7","system_id":"levelo_inurba_marseille","lat":43.33768,"lon":5.37516,"is_reserved":false,"is_disabled":true,"rental_uris":{"android":"levelo://app?vid=37f2becd-23f9-4f13-a711-38b8024eeec7","ios":"levelo://app?vid=37f2becd-23f9-4f13-a711-38b8024eeec7"},"vehicle_type_id":"4","last_reported":1752142343,"current_range_meters":0,"station_id":"","pricing_plan_id":"cebpf4jnsgd1na2vs0mg"},{"bike_id":"b8fcd1b8-e383-4c4c-a466-f8393a965939","system_id":"levelo_inurba_marseille","lat":43.217482,"lon":5.345989,"is_reserved":false,"is_disabled":true,"rental_uris":{"android":"levelo://app?vid=b8fcd1b8-e383-4c4c-a466-f8393a965939","ios":"levelo://app?vid=b8fcd1b8-e383-4c4c-a466-f8393a965939"},"vehicle_type_id":"4","last_reported":1752142343,"current_range_meters":0,"station_id":"","pricing_plan_id":"cebpf4jnsgd1na2vs0mg"},{"bike_id":"53b1a31e-8ada-40c0-8d64-113a81233c84","system_id":"levelo_inurba_marseille","lat":43.364086,"lon":5.319226,"is_reserved":false,"is_disabled":true,"rental_uris":{"android":"levelo://app?vid=53b1a31e-8ada-40c0-8d64-113a81233c84","ios":"levelo://app?vid=53b1a31e-8ada-40c0-8d64-113a81233c84"},"vehicle_type_id":"4","last_reported":1752142343,"current_range_meters":0,"station_id":"","pricing_plan_id":"cebpf4jnsgd1na2vs0mg"},{"bike_id":"64dc6424-2def-4ce2-9e1a-27c1871d9401","system_id":"levelo_inurba_marseille","lat":43.26554,"lon":5.37282,"is_reserved":false,"is_disabled":true,"rental_uris":{"android":"levelo://app?vid=64dc6424-2def-4ce2-9e1a-27c1871d9401","ios":"levelo://app?vid=64dc6424-2def-4ce2-9e1a-27c1871d9401"},"vehicle_type_id":"4","last_reported":1752142343,"current_range_meters":0,"station_id":"ce4bhg12rcd13ifvqf70","pricing_plan_id":"cebpf4jnsgd1na2vs0mg"},{"bike_id":"e712d100-9513-4979-85ae-3889528565c7","system_id":"levelo_inurba_marseille","lat":43.24384,"lon":5.37097,"is_reserved":false,"is_disabled":true,"rental_uris":{"android":"levelo://app?vid=e712d100-9513-4979-85ae-3889528565c7","ios":"levelo://app?vid=e712d100-9513-4979-85ae-3889528565c7"},"vehicle_type_id":"4","last_reported":1752142343,"current_range_meters":0,"station_id":"ce4bhhh2rcd13ifvqfk0","pricing_plan_id":"cebpf4jnsgd1na2vs0mg"},{"bike_id":"d0afdcac-61f9-451b-b809-cdf62d609c75","system_id":"levelo_inurba_marseille","lat":43.29574,"lon":5.42279,"is_reserved":false,"is_disabled":true,"rental_uris":{"android":"levelo://app?vid=d0afdcac-61f9-451b-b809-cdf62d609c75","ios":"levelo://app?vid=d0afdcac-61f9-451b-b809-cdf62d609c75"},"vehicle_type_id":"4","last_reported":1752142343,"current_range_meters":0,"station_id":"ce4bhph2rcd13ifvqhdg","pricing_plan_id":"cebpf4jnsgd1na2vs0mg"},{"bike_id":"8c96b343-d668-4141-aee1-41d37666636e","system_id":"levelo_inurba_marseille","lat":43.32324,"lon":5.40651,"is_reserved":false,"is_disabled":true,"rental_uris":{"android":"levelo://app?vid=8c96b343-d668-4141-aee1-41d37666636e","ios":"levelo://app?vid=8c96b343-d668-4141-aee1-41d37666636e"},"vehicle_type_id":"4","last_reported":1752142343,"current_range_meters":0,"station_id":"ce4bhq92rcd13ifvqhjg","pricing_plan_id":"cebpf4jnsgd1na2vs0mg"},{"bike_id":"b056ce9b-7b21-4183-8507-73b1a35e2dda","system_id":"levelo_inurba_marseille","lat":43.23204,"lon":5.35549,"is_reserved":false,"is_disabled":true,"rental_uris":{"android":"levelo://app?vid=b056ce9b-7b21-4183-8507-73b1a35e2dda","ios":"levelo://app?vid=b056ce9b-7b21-4183-8507-73b1a35e2dda"},"vehicle_type_id":"4","last_reported":1752142343,"current_range_meters":0,"station_id":"ce4bhu92rcd13ifvqi70","pricing_plan_id":"cebpf4jnsgd1na2vs0mg"},{"bike_id":"1ea07c30-7637-4836-8280-b70950b610b5","system_id":"levelo_inurba_marseille","lat":43.225037,"lon":5.347858,"is_reserved":false,"is_disabled":true,"rental_uris":{"android":"levelo://app?vid=1ea07c30-7637-4836-8280-b70950b610b5","ios":"levelo://app?vid=1ea07c30-7637-4836-8280-b70950b610b5"},"vehicle_type_id":"4","last_reported":1752142343,"current_range_meters":0,"station_id":"st_cvj5dfep6f1abm77gieg","pricing_plan_id":"cebpf4jnsgd1na2vs0mg"},{"bike_id":"d70510d4-f0b5-4275-a29d-26a0a211688e","system_id":"levelo_inurba_marseille","lat":43.21746,"lon":5.346047,"is_reserved":false,"is_disabled":true,"rental_uris":{"android":"levelo://app?vid=d70510d4-f0b5-4275-a29d-26a0a211688e","ios":"levelo://app?vid=d70510d4-f0b5-4275-a29d-26a0a211688e"},"vehicle_type_id":"4","last_reported":1752142343,"current_range_meters":0,"station_id":"st_cvj6r9ubvosntc0bgbag","pricing_plan_id":"cebpf4jnsgd1na2vs0mg"},{"bike_id":"5745f131-cd4a-4ac9-bdc2-7385b3c3e0a5","system_id":"levelo_inurba_marseille","lat":43.21756,"lon":5.34596,"is_reserved":false,"is_disabled":true,"rental_uris":{"android":"levelo://app?vid=5745f131-cd4a-4ac9-bdc2-7385b3c3e0a5","ios":"levelo://app?vid=5745f131-cd4a-4ac9-bdc2-7385b3c3e0a5"},"vehicle_type_id":"4","last_reported":1752142343,"current_range_meters":0,"station_id":"st_cvj6r9ubvosntc0bgbag","pricing_plan_id":"cebpf4jnsgd1na2vs0mg"},{"bike_id":"db841109-9b56-4777-86e2-06fbf4ef1649","system_id":"levelo_inurba_marseille","lat":43.31144,"lon":5.39726,"is_reserved":false,"is_disabled":true,"rental_uris":{"android":"levelo://app?vid=db841109-9b56-4777-86e2-06fbf4ef1649","ios":"levelo://app?vid=db841109-9b56-4777-86e2-06fbf4ef1649"},"vehicle_type_id":"4","last_reported":1752142343,"current_range_meters":400,"station_id":"","pricing_plan_id":"cebpf4jnsgd1na2vs0mg"},{"bike_id":"82dbfc76-9a14-41df-8439-1762def92667","system_id":"levelo_inurba_marseille","lat":43.27813,"lon":5.40707,"is_reserved":false,"is_disabled":true,"rental_uris":{"android":"levelo://app?vid=82dbfc76-9a14-41df-8439-1762def92667","ios":"levelo://app?vid=82dbfc76-9a14-41df-8439-1762def92667"},"vehicle_type_id":"4","last_reported":1752142343,"current_range_meters":800,"station_id":"ce4bhnh2rcd13ifvqgtg","pricing_plan_id":"cebpf4jnsgd1na2vs0mg"},{"bike_id":"5ce39f79-aff1-446c-be6e-5b7a8fe0dcce","system_id":"levelo_inurba_marseille","lat":43.31478,"lon":5.38347,"is_reserved":false,"is_disabled":true,"rental_uris":{"android":"levelo://app?vid=5ce39f79-aff1-446c-be6e-5b7a8fe0dcce","ios":"levelo://app?vid=5ce39f79-aff1-446c-be6e-5b7a8fe0dcce"},"vehicle_type_id":"4","last_reported":1752142343,"current_range_meters":1200,"station_id":"","pricing_plan_id":"cebpf4jnsgd1na2vs0mg"},{"bike_id":"aaded38d-a184-451b-807b-af3cdd8a6d8a","system_id":"levelo_inurba_marseille","lat":43.24203,"lon":5.39707,"is_reserved":false,"is_disabled":true,"rental_uris":{"android":"levelo://app?vid=aaded38d-a184-451b-807b-af3cdd8a6d8a","ios":"levelo://app?vid=aaded38d-a184-451b-807b-af3cdd8a6d8a"},"vehicle_type_id":"4","last_reported":1752142343,"current_range_meters":1200,"station_id":"ce4bhn12rcd13ifvqgpg","pricing_plan_id":"cebpf4jnsgd1na2vs0mg"},{"bike_id":"8637aaab-14e2-473e-bb8c-7f0817f7d7db","system_id":"levelo_inurba_marseille","lat":43.32486,"lon":5.36557,"is_reserved":false,"is_disabled":true,"rental_uris":{"android":"levelo://app?vid=8637aaab-14e2-473e-bb8c-7f0817f7d7db","ios":"levelo://app?vid=8637aaab-14e2-473e-bb8c-7f0817f7d7db"},"vehicle_type_id":"4","last_reported":1752142343,"current_range_meters":1600,"station_id":"ce4bhs12rcd13ifvqhvg","pricing_plan_id":"cebpf4jnsgd1na2vs0mg"},{"bike_id":"888522e3-39b6-4ff3-ad74-ff6c6f771157","system_id":"levelo_inurba_marseille","lat":43.294936,"lon":5.402894,"is_reserved":false,"is_disabled":false,"rental_uris":{"android":"levelo://app?vid=888522e3-39b6-4ff3-ad74-ff6c6f771157","ios":"levelo://app?vid=888522e3-39b6-4ff3-ad74-ff6c6f771157"},"vehicle_type_id":"4","last_reported":1752142343,"current_range_meters":3200,"station_id":"","pricing_plan_id":"cebpf4jnsgd1na2vs0mg"},{"bike_id":"ad0b3cc2-a317-4e18-9806-47cde8db6ab9","system_id":"levelo_inurba_marseille","lat":43.29303,"lon":5.37466,"is_reserved":false,"is_disabled":false,"rental_uris":{"android":"levelo://app?vid=ad0b3cc2-a317-4e18-9806-47cde8db6ab9","ios":"levelo://app?vid=ad0b3cc2-a317-4e18-9806-47cde8db6ab9"},"vehicle_type_id":"4","last_reported":1752142343,"current_range_meters":3200,"station_id":"ce4bgi12rcd13ifvqb70","pricing_plan_id":"cebpf4jnsgd1na2vs0mg"},{"bike_id":"4e6b4b5b-43a4-4686-92cc-a545fc01781b","system_id":"levelo_inurba_marseille","lat":43.29536,"lon":5.3855,"is_reserved":false,"is_disabled":false,"rental_uris":{"android":"levelo://app?vid=4e6b4b5b-43a4-4686-92cc-a545fc01781b","ios":"levelo://app?vid=4e6b4b5b-43a4-4686-92cc-a545fc01781b"},"vehicle_type_id":"4","last_reported":1752142343,"current_range_meters":3200,"station_id":"ce4bgih2rcd13ifvqba0","pricing_plan_id":"cebpf4jnsgd1na2vs0mg"},{"bike_id":"a2ce34df-6b9d-4a23-800c-aa4aa107bd85","system_id":"levelo_inurba_marseille","lat":43.31234,"lon":5.36839,"is_reserved":false,"is_disabled":false,"rental_uris":{"android":"levelo://app?vid=a2ce34df-6b9d-4a23-800c-aa4aa107bd85","ios":"levelo://app?vid=a2ce34df-6b9d-4a23-800c-aa4aa107bd85"},"vehicle_type_id":"4","last_reported":1752142343,"current_range_meters":3200,"station_id":"ce4bgl92rcd13ifvqbq0","pricing_plan_id":"cebpf4jnsgd1na2vs0mg"},{"bike_id":"323b107d-22f0-4d8a-8cd0-c280dd2323e0","system_id":"levelo_inurba_marseille","lat":43.32359,"lon":5.36756,"is_reserved":false,"is_disabled":false,"rental_uris":{"android":"levelo://app?vid=323b107d-22f0-4d8a-8cd0-c280dd2323e0","ios":"levelo://app?vid=323b107d-22f0-4d8a-8cd0-c280dd2323e0"},"vehicle_type_id":"4","last_reported":1752142343,"current_range_meters":3200,"station_id":"ce4bhsh2rcd13ifvqi2g","pricing_plan_id":"cebpf4jnsgd1na2vs0mg"},{"bike_id":"2ed07b92-0d4c-4bd4-99fc-f76ffc710ed1","system_id":"levelo_inurba_marseille","lat":43.2623,"lon":5.37482,"is_reserved":false,"is_disabled":false,"rental_uris":{"android":"levelo://app?vid=2ed07b92-0d4c-4bd4-99fc-f76ffc710ed1","ios":"levelo://app?vid=2ed07b92-0d4c-4bd4-99fc-f76ffc710ed1"},"vehicle_type_id":"4","last_reported":1752142343,"current_range_meters":3600,"station_id":"","pricing_plan_id":"cebpf4jnsgd1na2vs0mg"},{"bike_id":"dcb2a1bb-40a2-40f5-a1cf-177c5f5ec7ab","system_id":"levelo_inurba_marseille","lat":43.30149,"lon":5.3807,"is_reserved":false,"is_disabled":false,"rental_uris":{"android":"levelo://app?vid=dcb2a1bb-40a2-40f5-a1cf-177c5f5ec7ab","ios":"levelo://app?vid=dcb2a1bb-40a2-40f5-a1cf-177c5f5ec7ab"},"vehicle_type_id":"4","last_reported":1752142343,"current_range_meters":3600,"station_id":"ce4bgjp2rcd13ifvqbh0","pricing_plan_id":"cebpf4jnsgd1na2vs0mg"},{"bike_id":"ca7ca254-93af-45dc-a23f-8a6c9bae3994","system_id":"levelo_inurba_marseille","lat":43.28942,"lon":5.38387,"is_reserved":false,"is_disabled":false,"rental_uris":{"android":"levelo://app?vid=ca7ca254-93af-45dc-a23f-8a6c9bae3994","ios":"levelo://app?vid=ca7ca254-93af-45dc-a23f-8a6c9bae3994"},"vehicle_type_id":"4","last_reported":1752142343,"current_range_meters":3600,"station_id":"ce4bh612rcd13ifvqe6g","pricing_plan_id":"cebpf4jnsgd1na2vs0mg"},{"bike_id":"97b636d4-ce76-4469-91f2-cb71a35c75e9","system_id":"levelo_inurba_marseille","lat":43.29538,"lon":5.38685,"is_reserved":false,"is_disabled":false,"rental_uris":{"android":"levelo://app?vid=97b636d4-ce76-4469-91f2-cb71a35c75e9","ios":"levelo://app?vid=97b636d4-ce76-4469-91f2-cb71a35c75e9"},"vehicle_type_id":"4","last_reported":1752142343,"current_range_meters":4400,"station_id":"","pricing_plan_id":"cebpf4jnsgd1na2vs0mg"},{"bike_id":"046ece40-e2fc-482f-b6bc-babb6cf63e3d","system_id":"levelo_inurba_marseille","lat":43.30133,"lon":5.39866,"is_reserved":false,"is_disabled":false,"rental_uris":{"android":"levelo://app?vid=046ece40-e2fc-482f-b6bc-babb6cf63e3d","ios":"levelo://app?vid=046ece40-e2fc-482f-b6bc-babb6cf63e3d"},"vehicle_type_id":"4","last_reported":1752142343,"current_range_meters":4400,"station_id":"ce4bh0h2rcd13ifvqd40","pricing_plan_id":"cebpf4jnsgd1na2vs0mg"},{"bike_id":"2dddcece-7502-4cd4-b7a5-9eb1fee845bc","system_id":"levelo_inurba_marseille","lat":43.24388,"lon":5.37069,"is_reserved":false,"is_disabled":false,"rental_uris":{"android":"levelo://app?vid=2dddcece-7502-4cd4-b7a5-9eb1fee845bc","ios":"levelo://app?vid=2dddcece-7502-4cd4-b7a5-9eb1fee845bc"},"vehicle_type_id":"4","last_reported":1752142343,"current_range_meters":4800,"station_id":"ce4bhhh2rcd13ifvqfk0","pricing_plan_id":"cebpf4jnsgd1na2vs0mg"},{"bike_id":"082fc46b-fb7d-48b2-8f16-957410f3e160","system_id":"levelo_inurba_marseille","lat":43.29908,"lon":5.38148,"is_reserved":false,"is_disabled":false,"rental_uris":{"android":"levelo://app?vid=082fc46b-fb7d-48b2-8f16-957410f3e160","ios":"levelo://app?vid=082fc46b-fb7d-48b2-8f16-957410f3e160"},"vehicle_type_id":"4","last_reported":1752142343,"current_range_meters":6000,"station_id":"ce4bgj12rcd13ifvqbc0","pricing_plan_id":"cebpf4jnsgd1na2vs0mg"},{"bike_id":"d157e336-ec07-46ef-a152-a04bbbf37d44","system_id":"levelo_inurba_marseille","lat":43.28865,"lon":5.39299,"is_reserved":false,"is_disabled":false,"rental_uris":{"android":"levelo://app?vid=d157e336-ec07-46ef-a152-a04bbbf37d44","ios":"levelo://app?vid=d157e336-ec07-46ef-a152-a04bbbf37d44"},"vehicle_type_id":"4","last_reported":1752142343,"current_range_meters":6400,"station_id":"ce4bh2p2rcd13ifvqdi0","pricing_plan_id":"cebpf4jnsgd1na2vs0mg"},{"bike_id":"6fb45b4a-01f5-4f5d-b85b-9d16785015b8","system_id":"levelo_inurba_marseille","lat":43.21741,"lon":5.34603,"is_reserved":false,"is_disabled":false,"rental_uris":{"android":"levelo://app?vid=6fb45b4a-01f5-4f5d-b85b-9d16785015b8","ios":"levelo://app?vid=6fb45b4a-01f5-4f5d-b85b-9d16785015b8"},"vehicle_type_id":"4","last_reported":1752142343,"current_range_meters":7200,"station_id":"","pricing_plan_id":"cebpf4jnsgd1na2vs0mg"},{"bike_id":"fff74005-fa80-4736-bc61-b9c1160f7de7","system_id":"levelo_inurba_marseille","lat":43.29292,"lon":5.37461,"is_reserved":false,"is_disabled":false,"rental_uris":{"android":"levelo://app?vid=fff74005-fa80-4736-bc61-b9c1160f7de7","ios":"levelo://app?vid=fff74005-fa80-4736-bc61-b9c1160f7de7"},"vehicle_type_id":"4","last_reported":1752142343,"current_range_meters":7200,"station_id":"ce4bgi12rcd13ifvqb70","pricing_plan_id":"cebpf4jnsgd1na2vs0mg"},{"bike_id":"16102607-f53c-4bd7-af69-cebee3dfc9e5","system_id":"levelo_inurba_marseille","lat":43.26939,"lon":5.40257,"is_reserved":false,"is_disabled":false,"rental_uris":{"android":"levelo://app?vid=16102607-f53c-4bd7-af69-cebee3dfc9e5","ios":"levelo://app?vid=16102607-f53c-4bd7-af69-cebee3dfc9e5"},"vehicle_type_id":"4","last_reported":1752142343,"current_range_meters":7200,"station_id":"cjm6bp8fraef2m0cb0m0","pricing_plan_id":"cebpf4jnsgd1na2vs0mg"},{"bike_id":"ff9b4170-5bb0-4b8a-b59e-0de017a39a6f","system_id":"levelo_inurba_marseille","lat":43.273108,"lon":5.390732,"is_reserved":false,"is_disabled":false,"rental_uris":{"android":"levelo://app?vid=ff9b4170-5bb0-4b8a-b59e-0de017a39a6f","ios":"levelo://app?vid=ff9b4170-5bb0-4b8a-b59e-0de017a39a6f"},"vehicle_type_id":"4","last_reported":1752142343,"current_range_meters":8400,"station_id":"ce4bhgp2rcd13ifvqfe0","pricing_plan_id":"cebpf4jnsgd1na2vs0mg"},{"bike_id":"67c3affe-3212-4b3d-bc87-d07b89e75572","system_id":"levelo_inurba_marseille","lat":43.273174,"lon":5.412641,"is_reserved":false,"is_disabled":false,"rental_uris":{"android":"levelo://app?vid=67c3affe-3212-4b3d-bc87-d07b89e75572","ios":"levelo://app?vid=67c3affe-3212-4b3d-bc87-d07b89e75572"},"vehicle_type_id":"4","last_reported":1752142343,"current_range_meters":8400,"station_id":"ce501612rcd8frsf0b60","pricing_plan_id":"cebpf4jnsgd1na2vs0mg"},{"bike_id":"2354f4ca-20d1-4b1b-b469-739d1656dff6","system_id":"levelo_inurba_marseille","lat":43.29036,"lon":5.3765,"is_reserved":false,"is_disabled":false,"rental_uris":{"android":"levelo://app?vid=2354f4ca-20d1-4b1b-b469-739d1656dff6","ios":"levelo://app?vid=2354f4ca-20d1-4b1b-b469-739d1656dff6"},"vehicle_type_id":"4","last_reported":1752142343,"current_range_meters":8800,"station_id":"","pricing_plan_id":"cebpf4jnsgd1na2vs0mg"},{"bike_id":"84e7e709-4e4f-4764-818c-af719435bfca","system_id":"levelo_inurba_marseille","lat":43.31984,"lon":5.37323,"is_reserved":false,"is_disabled":false,"rental_uris":{"android":"levelo://app?vid=84e7e709-4e4f-4764-818c-af719435bfca","ios":"levelo://app?vid=84e7e709-4e4f-4764-818c-af719435bfca"},"vehicle_type_id":"4","last_reported":1752142343,"current_range_meters":9600,"station_id":"","pricing_plan_id":"cebpf4jnsgd1na2vs0mg"},{"bike_id":"f573a8fb-f1f8-47c4-901e-ddf2739a5cca","system_id":"levelo_inurba_marseille","lat":43.36003,"lon":5.32481,"is_reserved":false,"is_disabled":false,"rental_uris":{"android":"levelo://app?vid=f573a8fb-f1f8-47c4-901e-ddf2739a5cca","ios":"levelo://app?vid=f573a8fb-f1f8-47c4-901e-ddf2739a5cca"},"vehicle_type_id":"4","last_reported":1752142343,"current_range_meters":9600,"station_id":"","pricing_plan_id":"cebpf4jnsgd1na2vs0mg"},{"bike_id":"a7a01d83-66a5-42b2-9365-39c5dd2ba432","system_id":"levelo_inurba_marseille","lat":43.30762,"lon":5.37659,"is_reserved":false,"is_disabled":false,"rental_uris":{"android":"levelo://app?vid=a7a01d83-66a5-42b2-9365-39c5dd2ba432","ios":"levelo://app?vid=a7a01d83-66a5-42b2-9365-39c5dd2ba432"},"vehicle_type_id":"4","last_reported":1752142343,"current_range_meters":9600,"station_id":"ce4bgv92rcd13ifvqcq0","pricing_plan_id":"cebpf4jnsgd1na2vs0mg"},{"bike_id":"24031f50-706d-416c-9e65-e00a03feb292","system_id":"levelo_inurba_marseille","lat":43.30151,"lon":5.3808,"is_reserved":false,"is_disabled":false,"rental_uris":{"android":"levelo://app?vid=24031f50-706d-416c-9e65-e00a03feb292","ios":"levelo://app?vid=24031f50-706d-416c-9e65-e00a03feb292"},"vehicle_type_id":"4","last_reported":1752142343,"current_range_meters":10000,"station_id":"ce4bgjp2rcd13ifvqbh0","pricing_plan_id":"cebpf4jnsgd1na2vs0mg"},{"bike_id":"8ee55371-fccd-46dc-8375-161ddd6ed625","system_id":"levelo_inurba_marseille","lat":43.31169,"lon":5.38724,"is_reserved":false,"is_disabled":false,"rental_uris":{"android":"levelo://app?vid=8ee55371-fccd-46dc-8375-161ddd6ed625","ios":"levelo://app?vid=8ee55371-fccd-46dc-8375-161ddd6ed625"},"vehicle_type_id":"4","last_reported":1752142343,"current_range_meters":10000,"station_id":"ce4bgv12rcd13ifvqcp0","pricing_plan_id":"cebpf4jnsgd1na2vs0mg"},{"bike_id":"2d64afdf-b178-46a8-beda-f561b7aa30f5","system_id":"levelo_inurba_marseille","lat":43.279532,"lon":5.410447,"is_reserved":false,"is_disabled":false,"rental_uris":{"android":"levelo://app?vid=2d64afdf-b178-46a8-beda-f561b7aa30f5","ios":"levelo://app?vid=2d64afdf-b178-46a8-beda-f561b7aa30f5"},"vehicle_type_id":"4","last_reported":1752142343,"current_range_meters":10000,"station_id":"ce4bhnp2rcd13ifvqh0g","pricing_plan_id":"cebpf4jnsgd1na2vs0mg"},{"bike_id":"4975b22d-8c48-452f-bd19-7a9d3ed7c378","system_id":"levelo_inurba_marseille","lat":43.29676,"lon":5.37424,"is_reserved":false,"is_disabled":false,"rental_uris":{"android":"levelo://app?vid=4975b22d-8c48-452f-bd19-7a9d3ed7c378","ios":"levelo://app?vid=4975b22d-8c48-452f-bd19-7a9d3ed7c378"},"vehicle_type_id":"4","last_reported":1752142343,"current_range_meters":10800,"station_id":"","pricing_plan_id":"cebpf4jnsgd1na2vs0mg"},{"bike_id":"71f482eb-f196-4618-bed6-61f9b556a2b6","system_id":"levelo_inurba_marseille","lat":43.30963,"lon":5.39037,"is_reserved":false,"is_disabled":false,"rental_uris":{"android":"levelo://app?vid=71f482eb-f196-4618-bed6-61f9b556a2b6","ios":"levelo://app?vid=71f482eb-f196-4618-bed6-61f9b556a2b6"},"vehicle_type_id":"4","last_reported":1752142343,"current_range_meters":10800,"station_id":"ce4bgup2rcd13ifvqco0","pricing_plan_id":"cebpf4jnsgd1na2vs0mg"},{"bike_id":"f5c16f07-bc6f-4121-91a7-5ad90eec4f34","system_id":"levelo_inurba_marseille","lat":43.31227,"lon":5.37338,"is_reserved":false,"is_disabled":false,"rental_uris":{"android":"levelo://app?vid=f5c16f07-bc6f-4121-91a7-5ad90eec4f34","ios":"levelo://app?vid=f5c16f07-bc6f-4121-91a7-5ad90eec4f34"},"vehicle_type_id":"4","last_reported":1752142343,"current_range_meters":11200,"station_id":"","pricing_plan_id":"cebpf4jnsgd1na2vs0mg"},{"bike_id":"6e20dbb2-ba79-4d2a-bc09-8c7740e09a8b","system_id":"levelo_inurba_marseille","lat":43.23967,"lon":5.36627,"is_reserved":false,"is_disabled":false,"rental_uris":{"android":"levelo://app?vid=6e20dbb2-ba79-4d2a-bc09-8c7740e09a8b","ios":"levelo://app?vid=6e20dbb2-ba79-4d2a-bc09-8c7740e09a8b"},"vehicle_type_id":"4","last_reported":1752142343,"current_range_meters":11200,"station_id":"ce4bhi12rcd13ifvqfp0","pricing_plan_id":"cebpf4jnsgd1na2vs0mg"},{"bike_id":"6e5c2657-ccb8-4153-8b94-2143bc427a03","system_id":"levelo_inurba_marseille","lat":43.22513,"lon":5.34771,"is_reserved":false,"is_disabled":false,"rental_uris":{"android":"levelo://app?vid=6e5c2657-ccb8-4153-8b94-2143bc427a03","ios":"levelo://app?vid=6e5c2657-ccb8-4153-8b94-2143bc427a03"},"vehicle_type_id":"4","last_reported":1752142343,"current_range_meters":11200,"station_id":"st_cvj5dfep6f1abm77gieg","pricing_plan_id":"cebpf4jnsgd1na2vs0mg"},{"bike_id":"b757ffbb-2b71-4330-9f60-5f8a9d46d16e","system_id":"levelo_inurba_marseille","lat":43.29665,"lon":5.37132,"is_reserved":false,"is_disabled":false,"rental_uris":{"android":"levelo://app?vid=b757ffbb-2b71-4330-9f60-5f8a9d46d16e","ios":"levelo://app?vid=b757ffbb-2b71-4330-9f60-5f8a9d46d16e"},"vehicle_type_id":"4","last_reported":1752142343,"current_range_meters":11600,"station_id":"","pricing_plan_id":"cebpf4jnsgd1na2vs0mg"},{"bike_id":"b2caa530-bb19-4cc6-a6bd-61e3e1d7432e","system_id":"levelo_inurba_marseille","lat":43.33763,"lon":5.37461,"is_reserved":false,"is_disabled":false,"rental_uris":{"android":"levelo://app?vid=b2caa530-bb19-4cc6-a6bd-61e3e1d7432e","ios":"levelo://app?vid=b2caa530-bb19-4cc6-a6bd-61e3e1d7432e"},"vehicle_type_id":"4","last_reported":1752142343,"current_range_meters":11600,"station_id":"","pricing_plan_id":"cebpf4jnsgd1na2vs0mg"},{"bike_id":"833f97ec-e704-4051-ab3b-2e9eb58f71d0","system_id":"levelo_inurba_marseille","lat":43.30246,"lon":5.37534,"is_reserved":false,"is_disabled":false,"rental_uris":{"android":"levelo://app?vid=833f97ec-e704-4051-ab3b-2e9eb58f71d0","ios":"levelo://app?vid=833f97ec-e704-4051-ab3b-2e9eb58f71d0"},"vehicle_type_id":"4","last_reported":1752142343,"current_range_meters":11600,"station_id":"","pricing_plan_id":"cebpf4jnsgd1na2vs0mg"},{"bike_id":"6ef5f3ea-45a5-4129-a8bc-9005968550f8","system_id":"levelo_inurba_marseille","lat":43.30445,"lon":5.36857,"is_reserved":false,"is_disabled":false,"rental_uris":{"android":"levelo://app?vid=6ef5f3ea-45a5-4129-a8bc-9005968550f8","ios":"levelo://app?vid=6ef5f3ea-45a5-4129-a8bc-9005968550f8"},"vehicle_type_id":"4","last_reported":1752142343,"current_range_meters":11600,"station_id":"","pricing_plan_id":"cebpf4jnsgd1na2vs0mg"},{"bike_id":"29bb7969-79c0-48dc-9786-4d90cf387448","system_id":"levelo_inurba_marseille","lat":43.30217,"lon":5.39461,"is_reserved":false,"is_disabled":false,"rental_uris":{"android":"levelo://app?vid=29bb7969-79c0-48dc-9786-4d90cf387448","ios":"levelo://app?vid=29bb7969-79c0-48dc-9786-4d90cf387448"},"vehicle_type_id":"4","last_reported":1752142343,"current_range_meters":11600,"station_id":"ce4bh0p2rcd13ifvqd70","pricing_plan_id":"cebpf4jnsgd1na2vs0mg"},{"bike_id":"ee57a736-5ecb-4eac-bf22-e60a05ccd09c","system_id":"levelo_inurba_marseille","lat":43.29064,"lon":5.37574,"is_reserved":false,"is_disabled":false,"rental_uris":{"android":"levelo://app?vid=ee57a736-5ecb-4eac-bf22-e60a05ccd09c","ios":"levelo://app?vid=ee57a736-5ecb-4eac-bf22-e60a05ccd09c"},"vehicle_type_id":"4","last_reported":1752142343,"current_range_meters":12000,"station_id":"ce4bh692rcd13ifvqe90","pricing_plan_id":"cebpf4jnsgd1na2vs0mg"},{"bike_id":"fdb4abf6-e0d8-4379-aa7e-b372c21bf873","system_id":"levelo_inurba_marseille","lat":43.265657,"lon":5.390089,"is_reserved":false,"is_disabled":false,"rental_uris":{"android":"levelo://app?vid=fdb4abf6-e0d8-4379-aa7e-b372c21bf873","ios":"levelo://app?vid=fdb4abf6-e0d8-4379-aa7e-b372c21bf873"},"vehicle_type_id":"4","last_reported":1752142343,"current_range_meters":12000,"station_id":"ce4bhe12rcd13ifvqf30","pricing_plan_id":"cebpf4jnsgd1na2vs0mg"},{"bike_id":"9eac8e8f-a197-4f5d-8618-40d72d6d1c3f","system_id":"levelo_inurba_marseille","lat":43.24994,"lon":5.38932,"is_reserved":false,"is_disabled":false,"rental_uris":{"android":"levelo://app?vid=9eac8e8f-a197-4f5d-8618-40d72d6d1c3f","ios":"levelo://app?vid=9eac8e8f-a197-4f5d-8618-40d72d6d1c3f"},"vehicle_type_id":"4","last_reported":1752142343,"current_range_meters":12000,"station_id":"ce4bhgp2rcd13ifvqfd0","pricing_plan_id":"cebpf4jnsgd1na2vs0mg"},{"bike_id":"833d3f83-00f4-4656-8d54-523c544842c8","system_id":"levelo_inurba_marseille","lat":43.25933,"lon":5.40896,"is_reserved":false,"is_disabled":false,"rental_uris":{"android":"levelo://app?vid=833d3f83-00f4-4656-8d54-523c544842c8","ios":"levelo://app?vid=833d3f83-00f4-4656-8d54-523c544842c8"},"vehicle_type_id":"4","last_reported":1752142343,"current_range_meters":12000,"station_id":"ce4bhm92rcd13ifvqglg","pricing_plan_id":"cebpf4jnsgd1na2vs0mg"},{"bike_id":"320f2a33-deaa-4e0a-a3d5-c39ce8ad680a","system_id":"levelo_inurba_marseille","lat":43.31583,"lon":5.37431,"is_reserved":false,"is_disabled":false,"rental_uris":{"android":"levelo://app?vid=320f2a33-deaa-4e0a-a3d5-c39ce8ad680a","ios":"levelo://app?vid=320f2a33-deaa-4e0a-a3d5-c39ce8ad680a"},"vehicle_type_id":"4","last_reported":1752142343,"current_range_meters":12400,"station_id":"","pricing_plan_id":"cebpf4jnsgd1na2vs0mg"},{"bike_id":"d0abf918-a33c-418f-8745-9dfa7cb239af","system_id":"levelo_inurba_marseille","lat":43.29572,"lon":5.37532,"is_reserved":false,"is_disabled":false,"rental_uris":{"android":"levelo://app?vid=d0abf918-a33c-418f-8745-9dfa7cb239af","ios":"levelo://app?vid=d0abf918-a33c-418f-8745-9dfa7cb239af"},"vehicle_type_id":"4","last_reported":1752142343,"current_range_meters":12400,"station_id":"ce4bgh92rcd13ifvqb50","pricing_plan_id":"cebpf4jnsgd1na2vs0mg"},{"bike_id":"48b15997-0a25-4d65-9320-baea1ade0552","system_id":"levelo_inurba_marseille","lat":43.30152,"lon":5.39842,"is_reserved":false,"is_disabled":false,"rental_uris":{"android":"levelo://app?vid=48b15997-0a25-4d65-9320-baea1ade0552","ios":"levelo://app?vid=48b15997-0a25-4d65-9320-baea1ade0552"},"vehicle_type_id":"4","last_reported":1752142343,"current_range_meters":12400,"station_id":"ce4bh0h2rcd13ifvqd40","pricing_plan_id":"cebpf4jnsgd1na2vs0mg"},{"bike_id":"d83fec46-c032-4a21-826b-c6c1712eb78a","system_id":"levelo_inurba_marseille","lat":43.25491,"lon":5.37653,"is_reserved":false,"is_disabled":false,"rental_uris":{"android":"levelo://app?vid=d83fec46-c032-4a21-826b-c6c1712eb78a","ios":"levelo://app?vid=d83fec46-c032-4a21-826b-c6c1712eb78a"},"vehicle_type_id":"4","last_reported":1752142343,"current_range_meters":12400,"station_id":"ce4bhh12rcd13ifvqff0","pricing_plan_id":"cebpf4jnsgd1na2vs0mg"},{"bike_id":"2a2c2ba3-f4e7-4476-b21e-559d75857b71","system_id":"levelo_inurba_marseille","lat":43.27071,"lon":5.42268,"is_reserved":false,"is_disabled":false,"rental_uris":{"android":"levelo://app?vid=2a2c2ba3-f4e7-4476-b21e-559d75857b71","ios":"levelo://app?vid=2a2c2ba3-f4e7-4476-b21e-559d75857b71"},"vehicle_type_id":"4","last_reported":1752142343,"current_range_meters":12400,"station_id":"ce4bhk92rcd13ifvqgb0","pricing_plan_id":"cebpf4jnsgd1na2vs0mg"},{"bike_id":"7af64c0e-bfdd-49ce-ac23-d7baf0c97d4a","system_id":"levelo_inurba_marseille","lat":43.23194,"lon":5.35556,"is_reserved":false,"is_disabled":false,"rental_uris":{"android":"levelo://app?vid=7af64c0e-bfdd-49ce-ac23-d7baf0c97d4a","ios":"levelo://app?vid=7af64c0e-bfdd-49ce-ac23-d7baf0c97d4a"},"vehicle_type_id":"4","last_reported":1752142343,"current_range_meters":12400,"station_id":"ce4bhu92rcd13ifvqi70","pricing_plan_id":"cebpf4jnsgd1na2vs0mg"},{"bike_id":"a683eb29-f896-440b-8cbc-46d7aacd78c3","system_id":"levelo_inurba_marseille","lat":43.2736,"lon":5.36208,"is_reserved":false,"is_disabled":false,"rental_uris":{"android":"levelo://app?vid=a683eb29-f896-440b-8cbc-46d7aacd78c3","ios":"levelo://app?vid=a683eb29-f896-440b-8cbc-46d7aacd78c3"},"vehicle_type_id":"4","last_reported":1752142343,"current_range_meters":12800,"station_id":"","pricing_plan_id":"cebpf4jnsgd1na2vs0mg"},{"bike_id":"b922d29c-8aaa-4a1a-be13-d90f68a29f6c","system_id":"levelo_inurba_marseille","lat":43.291969,"lon":5.358,"is_reserved":false,"is_disabled":false,"rental_uris":{"android":"levelo://app?vid=b922d29c-8aaa-4a1a-be13-d90f68a29f6c","ios":"levelo://app?vid=b922d29c-8aaa-4a1a-be13-d90f68a29f6c"},"vehicle_type_id":"4","last_reported":1752142343,"current_range_meters":12800,"station_id":"ce4bhb12rcd13ifvqel0","pricing_plan_id":"cebpf4jnsgd1na2vs0mg"},{"bike_id":"11231389-aee7-46c3-b78d-fa65242a48e4","system_id":"levelo_inurba_marseille","lat":43.27943,"lon":5.41039,"is_reserved":false,"is_disabled":false,"rental_uris":{"android":"levelo://app?vid=11231389-aee7-46c3-b78d-fa65242a48e4","ios":"levelo://app?vid=11231389-aee7-46c3-b78d-fa65242a48e4"},"vehicle_type_id":"4","last_reported":1752142343,"current_range_meters":13600,"station_id":"","pricing_plan_id":"cebpf4jnsgd1na2vs0mg"},{"bike_id":"e75173ba-092f-4e3c-b2e1-128bf1f9d79b","system_id":"levelo_inurba_marseille","lat":43.21736,"lon":5.3463,"is_reserved":false,"is_disabled":false,"rental_uris":{"android":"levelo://app?vid=e75173ba-092f-4e3c-b2e1-128bf1f9d79b","ios":"levelo://app?vid=e75173ba-092f-4e3c-b2e1-128bf1f9d79b"},"vehicle_type_id":"4","last_reported":1752142343,"current_range_meters":13600,"station_id":"","pricing_plan_id":"cebpf4jnsgd1na2vs0mg"},{"bike_id":"780f0cae-a600-4ac3-9be7-94e5228a3b68","system_id":"levelo_inurba_marseille","lat":43.28717,"lon":5.37936,"is_reserved":false,"is_disabled":false,"rental_uris":{"android":"levelo://app?vid=780f0cae-a600-4ac3-9be7-94e5228a3b68","ios":"levelo://app?vid=780f0cae-a600-4ac3-9be7-94e5228a3b68"},"vehicle_type_id":"4","last_reported":1752142343,"current_range_meters":13600,"station_id":"ce4bh9p2rcd13ifvqec0","pricing_plan_id":"cebpf4jnsgd1na2vs0mg"},{"bike_id":"fab20a66-1a15-486f-80f7-f7df5bf02a8f","system_id":"levelo_inurba_marseille","lat":43.28701,"lon":5.37401,"is_reserved":false,"is_disabled":false,"rental_uris":{"android":"levelo://app?vid=fab20a66-1a15-486f-80f7-f7df5bf02a8f","ios":"levelo://app?vid=fab20a66-1a15-486f-80f7-f7df5bf02a8f"},"vehicle_type_id":"4","last_reported":1752142343,"current_range_meters":14000,"station_id":"ce4bh3p2rcd13ifvqdq0","pricing_plan_id":"cebpf4jnsgd1na2vs0mg"},{"bike_id":"eb889ba8-f13f-48d0-bd5f-638559aec49f","system_id":"levelo_inurba_marseille","lat":43.32536,"lon":5.41428,"is_reserved":false,"is_disabled":false,"rental_uris":{"android":"levelo://app?vid=eb889ba8-f13f-48d0-bd5f-638559aec49f","ios":"levelo://app?vid=eb889ba8-f13f-48d0-bd5f-638559aec49f"},"vehicle_type_id":"4","last_reported":1752142343,"current_range_meters":14000,"station_id":"ce4bhq12rcd13ifvqhhg","pricing_plan_id":"cebpf4jnsgd1na2vs0mg"},{"bike_id":"87d13c3c-9453-4492-8a8f-f2b4c8e828c6","system_id":"levelo_inurba_marseille","lat":43.26177,"lon":5.37049,"is_reserved":false,"is_disabled":false,"rental_uris":{"android":"levelo://app?vid=87d13c3c-9453-4492-8a8f-f2b4c8e828c6","ios":"levelo://app?vid=87d13c3c-9453-4492-8a8f-f2b4c8e828c6"},"vehicle_type_id":"4","last_reported":1752142343,"current_range_meters":14800,"station_id":"","pricing_plan_id":"cebpf4jnsgd1na2vs0mg"},{"bike_id":"feaa7e3a-cbe4-4489-be11-8a12d7eec173","system_id":"levelo_inurba_marseille","lat":43.25173,"lon":5.42477,"is_reserved":false,"is_disabled":false,"rental_uris":{"android":"levelo://app?vid=feaa7e3a-cbe4-4489-be11-8a12d7eec173","ios":"levelo://app?vid=feaa7e3a-cbe4-4489-be11-8a12d7eec173"},"vehicle_type_id":"4","last_reported":1752142343,"current_range_meters":14800,"station_id":"","pricing_plan_id":"cebpf4jnsgd1na2vs0mg"},{"bike_id":"b540a757-5018-4045-a161-7dd9642cea96","system_id":"levelo_inurba_marseille","lat":43.31367,"lon":5.3674,"is_reserved":false,"is_disabled":false,"rental_uris":{"android":"levelo://app?vid=b540a757-5018-4045-a161-7dd9642cea96","ios":"levelo://app?vid=b540a757-5018-4045-a161-7dd9642cea96"},"vehicle_type_id":"4","last_reported":1752142343,"current_range_meters":14800,"station_id":"ce4bgr92rcd13ifvqc6g","pricing_plan_id":"cebpf4jnsgd1na2vs0mg"},{"bike_id":"13d8f154-aba3-4ef9-844a-e50ec01ca9b7","system_id":"levelo_inurba_marseille","lat":43.29102,"lon":5.38132,"is_reserved":false,"is_disabled":false,"rental_uris":{"android":"levelo://app?vid=13d8f154-aba3-4ef9-844a-e50ec01ca9b7","ios":"levelo://app?vid=13d8f154-aba3-4ef9-844a-e50ec01ca9b7"},"vehicle_type_id":"4","last_reported":1752142343,"current_range_meters":14800,"station_id":"ce4bh512rcd13ifvqe2g","pricing_plan_id":"cebpf4jnsgd1na2vs0mg"},{"bike_id":"07e23da8-1aab-44d7-8d40-309109ee0205","system_id":"levelo_inurba_marseille","lat":43.3237,"lon":5.36763,"is_reserved":false,"is_disabled":false,"rental_uris":{"android":"levelo://app?vid=07e23da8-1aab-44d7-8d40-309109ee0205","ios":"levelo://app?vid=07e23da8-1aab-44d7-8d40-309109ee0205"},"vehicle_type_id":"4","last_reported":1752142343,"current_range_meters":14800,"station_id":"ce4bhsh2rcd13ifvqi2g","pricing_plan_id":"cebpf4jnsgd1na2vs0mg"},{"bike_id":"de010bc4-5e98-41bd-aed3-9094f259cc5a","system_id":"levelo_inurba_marseille","lat":43.24162,"lon":5.36399,"is_reserved":false,"is_disabled":false,"rental_uris":{"android":"levelo://app?vid=de010bc4-5e98-41bd-aed3-9094f259cc5a","ios":"levelo://app?vid=de010bc4-5e98-41bd-aed3-9094f259cc5a"},"vehicle_type_id":"4","last_reported":1752142343,"current_range_meters":14800,"station_id":"cpo36qri1sfpv3e86is0","pricing_plan_id":"cebpf4jnsgd1na2vs0mg"},{"bike_id":"73fe94e8-74f9-41f0-85e9-7d8c52adf2fc","system_id":"levelo_inurba_marseille","lat":43.212684,"lon":5.352868,"is_reserved":false,"is_disabled":false,"rental_uris":{"android":"levelo://app?vid=73fe94e8-74f9-41f0-85e9-7d8c52adf2fc","ios":"levelo://app?vid=73fe94e8-74f9-41f0-85e9-7d8c52adf2fc"},"vehicle_type_id":"4","last_reported":1752142343,"current_range_meters":15200,"station_id":"","pricing_plan_id":"cebpf4jnsgd1na2vs0mg"},{"bike_id":"d3e8264f-5e78-41b8-b5b0-557e389e6623","system_id":"levelo_inurba_marseille","lat":43.31371,"lon":5.37159,"is_reserved":false,"is_disabled":false,"rental_uris":{"android":"levelo://app?vid=d3e8264f-5e78-41b8-b5b0-557e389e6623","ios":"levelo://app?vid=d3e8264f-5e78-41b8-b5b0-557e389e6623"},"vehicle_type_id":"4","last_reported":1752142343,"current_range_meters":15200,"station_id":"","pricing_plan_id":"cebpf4jnsgd1na2vs0mg"},{"bike_id":"0fb56a82-9c80-4aab-8b53-96ba17b3a84f","system_id":"levelo_inurba_marseille","lat":43.30329,"lon":5.40433,"is_reserved":false,"is_disabled":false,"rental_uris":{"android":"levelo://app?vid=0fb56a82-9c80-4aab-8b53-96ba17b3a84f","ios":"levelo://app?vid=0fb56a82-9c80-4aab-8b53-96ba17b3a84f"},"vehicle_type_id":"4","last_reported":1752142343,"current_range_meters":15200,"station_id":"ce4bh012rcd13ifvqd10","pricing_plan_id":"cebpf4jnsgd1na2vs0mg"},{"bike_id":"c57de793-d137-4e83-972e-91b593ee6657","system_id":"levelo_inurba_marseille","lat":43.28038,"lon":5.36947,"is_reserved":false,"is_disabled":false,"rental_uris":{"android":"levelo://app?vid=c57de793-d137-4e83-972e-91b593ee6657","ios":"levelo://app?vid=c57de793-d137-4e83-972e-91b593ee6657"},"vehicle_type_id":"4","last_reported":1752142343,"current_range_meters":15200,"station_id":"ce4bha12rcd13ifvqef0","pricing_plan_id":"cebpf4jnsgd1na2vs0mg"},{"bike_id":"4e9c1f87-a435-4f44-b3da-2affda0fc2b7","system_id":"levelo_inurba_marseille","lat":43.24167,"lon":5.36397,"is_reserved":false,"is_disabled":false,"rental_uris":{"android":"levelo://app?vid=4e9c1f87-a435-4f44-b3da-2affda0fc2b7","ios":"levelo://app?vid=4e9c1f87-a435-4f44-b3da-2affda0fc2b7"},"vehicle_type_id":"4","last_reported":1752142343,"current_range_meters":15200,"station_id":"cpo36qri1sfpv3e86is0","pricing_plan_id":"cebpf4jnsgd1na2vs0mg"},{"bike_id":"37d24ae8-ab60-4ff1-9d36-77e365c878e4","system_id":"levelo_inurba_marseille","lat":43.298426,"lon":5.362663,"is_reserved":false,"is_disabled":false,"rental_uris":{"android":"levelo://app?vid=37d24ae8-ab60-4ff1-9d36-77e365c878e4","ios":"levelo://app?vid=37d24ae8-ab60-4ff1-9d36-77e365c878e4"},"vehicle_type_id":"4","last_reported":1752142343,"current_range_meters":16000,"station_id":"","pricing_plan_id":"cebpf4jnsgd1na2vs0mg"},{"bike_id":"55105142-3666-4ef7-8f20-17f02baa8c73","system_id":"levelo_inurba_marseille","lat":43.30912,"lon":5.36855,"is_reserved":false,"is_disabled":false,"rental_uris":{"android":"levelo://app?vid=55105142-3666-4ef7-8f20-17f02baa8c73","ios":"levelo://app?vid=55105142-3666-4ef7-8f20-17f02baa8c73"},"vehicle_type_id":"4","last_reported":1752142343,"current_range_meters":16000,"station_id":"ce4bgn92rcd13ifvqbvg","pricing_plan_id":"cebpf4jnsgd1na2vs0mg"},{"bike_id":"119b7eed-1582-4766-b484-107798ee8de6","system_id":"levelo_inurba_marseille","lat":43.28413,"lon":5.34977,"is_reserved":false,"is_disabled":false,"rental_uris":{"android":"levelo://app?vid=119b7eed-1582-4766-b484-107798ee8de6","ios":"levelo://app?vid=119b7eed-1582-4766-b484-107798ee8de6"},"vehicle_type_id":"4","last_reported":1752142343,"current_range_meters":16000,"station_id":"ce4bhbh2rcd13ifvqepg","pricing_plan_id":"cebpf4jnsgd1na2vs0mg"},{"bike_id":"c83d0961-575d-4f7d-bfca-a3df12ff59b1","system_id":"levelo_inurba_marseille","lat":43.26201,"lon":5.37932,"is_reserved":false,"is_disabled":false,"rental_uris":{"android":"levelo://app?vid=c83d0961-575d-4f7d-bfca-a3df12ff59b1","ios":"levelo://app?vid=c83d0961-575d-4f7d-bfca-a3df12ff59b1"},"vehicle_type_id":"4","last_reported":1752142343,"current_range_meters":16000,"station_id":"ce4bhjp2rcd13ifvqg90","pricing_plan_id":"cebpf4jnsgd1na2vs0mg"},{"bike_id":"f373e4a8-33e3-4f72-ae8e-e7ab386910f4","system_id":"levelo_inurba_marseille","lat":43.22513,"lon":5.34801,"is_reserved":false,"is_disabled":false,"rental_uris":{"android":"levelo://app?vid=f373e4a8-33e3-4f72-ae8e-e7ab386910f4","ios":"levelo://app?vid=f373e4a8-33e3-4f72-ae8e-e7ab386910f4"},"vehicle_type_id":"4","last_reported":1752142343,"current_range_meters":16000,"station_id":"st_cvj5dfep6f1abm77gieg","pricing_plan_id":"cebpf4jnsgd1na2vs0mg"},{"bike_id":"9f5e74ce-2459-4c6f-a171-f6d1e8a1ed83","system_id":"levelo_inurba_marseille","lat":43.31853,"lon":5.37558,"is_reserved":false,"is_disabled":false,"rental_uris":{"android":"levelo://app?vid=9f5e74ce-2459-4c6f-a171-f6d1e8a1ed83","ios":"levelo://app?vid=9f5e74ce-2459-4c6f-a171-f6d1e8a1ed83"},"vehicle_type_id":"4","last_reported":1752142343,"current_range_meters":16400,"station_id":"","pricing_plan_id":"cebpf4jnsgd1na2vs0mg"},{"bike_id":"d4ef850c-f7e3-4397-a6ce-63ecca9c41d8","system_id":"levelo_inurba_marseille","lat":43.27358,"lon":5.36232,"is_reserved":false,"is_disabled":false,"rental_uris":{"android":"levelo://app?vid=d4ef850c-f7e3-4397-a6ce-63ecca9c41d8","ios":"levelo://app?vid=d4ef850c-f7e3-4397-a6ce-63ecca9c41d8"},"vehicle_type_id":"4","last_reported":1752142343,"current_range_meters":16400,"station_id":"ce4bhbh2rcd13ifvqeo0","pricing_plan_id":"cebpf4jnsgd1na2vs0mg"},{"bike_id":"3176c66a-d21c-4814-9e7c-b863a0340300","system_id":"levelo_inurba_marseille","lat":43.25451,"lon":5.37946,"is_reserved":false,"is_disabled":false,"rental_uris":{"android":"levelo://app?vid=3176c66a-d21c-4814-9e7c-b863a0340300","ios":"levelo://app?vid=3176c66a-d21c-4814-9e7c-b863a0340300"},"vehicle_type_id":"4","last_reported":1752142343,"current_range_meters":16800,"station_id":"","pricing_plan_id":"cebpf4jnsgd1na2vs0mg"},{"bike_id":"4e209b0c-855f-4b51-8120-2faef8673853","system_id":"levelo_inurba_marseille","lat":43.30623,"lon":5.36892,"is_reserved":false,"is_disabled":false,"rental_uris":{"android":"levelo://app?vid=4e209b0c-855f-4b51-8120-2faef8673853","ios":"levelo://app?vid=4e209b0c-855f-4b51-8120-2faef8673853"},"vehicle_type_id":"4","last_reported":1752142343,"current_range_meters":16800,"station_id":"","pricing_plan_id":"cebpf4jnsgd1na2vs0mg"},{"bike_id":"aea8d665-2d91-46d6-a00b-d6caf3043c90","system_id":"levelo_inurba_marseille","lat":43.25932,"lon":5.40931,"is_reserved":false,"is_disabled":false,"rental_uris":{"android":"levelo://app?vid=aea8d665-2d91-46d6-a00b-d6caf3043c90","ios":"levelo://app?vid=aea8d665-2d91-46d6-a00b-d6caf3043c90"},"vehicle_type_id":"4","last_reported":1752142343,"current_range_meters":16800,"station_id":"ce4bhm92rcd13ifvqglg","pricing_plan_id":"cebpf4jnsgd1na2vs0mg"},{"bike_id":"c7bc0b85-c966-4913-8908-15a71d65944b","system_id":"levelo_inurba_marseille","lat":43.35478,"lon":5.35718,"is_reserved":false,"is_disabled":false,"rental_uris":{"android":"levelo://app?vid=c7bc0b85-c966-4913-8908-15a71d65944b","ios":"levelo://app?vid=c7bc0b85-c966-4913-8908-15a71d65944b"},"vehicle_type_id":"4","last_reported":1752142343,"current_range_meters":17200,"station_id":"","pricing_plan_id":"cebpf4jnsgd1na2vs0mg"},{"bike_id":"bd5228ab-002e-4f81-bbd3-2baf5452f591","system_id":"levelo_inurba_marseille","lat":43.27836,"lon":5.41457,"is_reserved":false,"is_disabled":false,"rental_uris":{"android":"levelo://app?vid=bd5228ab-002e-4f81-bbd3-2baf5452f591","ios":"levelo://app?vid=bd5228ab-002e-4f81-bbd3-2baf5452f591"},"vehicle_type_id":"4","last_reported":1752142343,"current_range_meters":17200,"station_id":"","pricing_plan_id":"cebpf4jnsgd1na2vs0mg"},{"bike_id":"fa87fcb5-aacb-41a1-a789-0296bbd02085","system_id":"levelo_inurba_marseille","lat":43.24574,"lon":5.37399,"is_reserved":false,"is_disabled":false,"rental_uris":{"android":"levelo://app?vid=fa87fcb5-aacb-41a1-a789-0296bbd02085","ios":"levelo://app?vid=fa87fcb5-aacb-41a1-a789-0296bbd02085"},"vehicle_type_id":"4","last_reported":1752142343,"current_range_meters":17200,"station_id":"","pricing_plan_id":"cebpf4jnsgd1na2vs0mg"},{"bike_id":"1e94f3b2-1dc7-47be-bdd6-9ab2fa7a36a4","system_id":"levelo_inurba_marseille","lat":43.25003,"lon":5.38924,"is_reserved":false,"is_disabled":false,"rental_uris":{"android":"levelo://app?vid=1e94f3b2-1dc7-47be-bdd6-9ab2fa7a36a4","ios":"levelo://app?vid=1e94f3b2-1dc7-47be-bdd6-9ab2fa7a36a4"},"vehicle_type_id":"4","last_reported":1752142343,"current_range_meters":17200,"station_id":"ce4bhgp2rcd13ifvqfd0","pricing_plan_id":"cebpf4jnsgd1na2vs0mg"},{"bike_id":"d78ded52-3a1c-4521-9c82-10cf415cb35a","system_id":"levelo_inurba_marseille","lat":43.24393,"lon":5.370573,"is_reserved":false,"is_disabled":false,"rental_uris":{"android":"levelo://app?vid=d78ded52-3a1c-4521-9c82-10cf415cb35a","ios":"levelo://app?vid=d78ded52-3a1c-4521-9c82-10cf415cb35a"},"vehicle_type_id":"4","last_reported":1752142343,"current_range_meters":17200,"station_id":"ce4bhhh2rcd13ifvqfk0","pricing_plan_id":"cebpf4jnsgd1na2vs0mg"},{"bike_id":"e46ff1ec-96b5-48d0-a472-949b7e957de3","system_id":"levelo_inurba_marseille","lat":43.27935,"lon":5.4104,"is_reserved":false,"is_disabled":false,"rental_uris":{"android":"levelo://app?vid=e46ff1ec-96b5-48d0-a472-949b7e957de3","ios":"levelo://app?vid=e46ff1ec-96b5-48d0-a472-949b7e957de3"},"vehicle_type_id":"4","last_reported":1752142343,"current_range_meters":17200,"station_id":"ce4bhnp2rcd13ifvqh0g","pricing_plan_id":"cebpf4jnsgd1na2vs0mg"},{"bike_id":"a5a6c2c1-2d48-4581-8647-6eab6c0bbb54","system_id":"levelo_inurba_marseille","lat":43.26364,"lon":5.37355,"is_reserved":false,"is_disabled":false,"rental_uris":{"android":"levelo://app?vid=a5a6c2c1-2d48-4581-8647-6eab6c0bbb54","ios":"levelo://app?vid=a5a6c2c1-2d48-4581-8647-6eab6c0bbb54"},"vehicle_type_id":"4","last_reported":1752142343,"current_range_meters":17600,"station_id":"","pricing_plan_id":"cebpf4jnsgd1na2vs0mg"},{"bike_id":"24b17f7b-dff1-4936-b27a-7c2c6813a894","system_id":"levelo_inurba_marseille","lat":43.24587,"lon":5.37376,"is_reserved":false,"is_disabled":false,"rental_uris":{"android":"levelo://app?vid=24b17f7b-dff1-4936-b27a-7c2c6813a894","ios":"levelo://app?vid=24b17f7b-dff1-4936-b27a-7c2c6813a894"},"vehicle_type_id":"4","last_reported":1752142343,"current_range_meters":17600,"station_id":"","pricing_plan_id":"cebpf4jnsgd1na2vs0mg"},{"bike_id":"55eb3ee3-207d-45c9-a356-7e275a6ee08e","system_id":"levelo_inurba_marseille","lat":43.322208,"lon":5.407363,"is_reserved":false,"is_disabled":false,"rental_uris":{"android":"levelo://app?vid=55eb3ee3-207d-45c9-a356-7e275a6ee08e","ios":"levelo://app?vid=55eb3ee3-207d-45c9-a356-7e275a6ee08e"},"vehicle_type_id":"4","last_reported":1752142343,"current_range_meters":17600,"station_id":"ce4bh092rcd13ifvqd30","pricing_plan_id":"cebpf4jnsgd1na2vs0mg"},{"bike_id":"307603ad-9e7c-420b-83e6-b5e9d3289162","system_id":"levelo_inurba_marseille","lat":43.29565,"lon":5.39993,"is_reserved":false,"is_disabled":false,"rental_uris":{"android":"levelo://app?vid=307603ad-9e7c-420b-83e6-b5e9d3289162","ios":"levelo://app?vid=307603ad-9e7c-420b-83e6-b5e9d3289162"},"vehicle_type_id":"4","last_reported":1752142343,"current_range_meters":17600,"station_id":"ce4bh312rcd13ifvqdj0","pricing_plan_id":"cebpf4jnsgd1na2vs0mg"},{"bike_id":"8deca69a-5d18-4f36-aec1-329950366b78","system_id":"levelo_inurba_marseille","lat":43.2916,"lon":5.3718,"is_reserved":false,"is_disabled":false,"rental_uris":{"android":"levelo://app?vid=8deca69a-5d18-4f36-aec1-329950366b78","ios":"levelo://app?vid=8deca69a-5d18-4f36-aec1-329950366b78"},"vehicle_type_id":"4","last_reported":1752142343,"current_range_meters":17600,"station_id":"ce4bha92rcd13ifvqeh0","pricing_plan_id":"cebpf4jnsgd1na2vs0mg"},{"bike_id":"605a780c-5ce1-4786-9a7b-3ca616914860","system_id":"levelo_inurba_marseille","lat":43.24663,"lon":5.38191,"is_reserved":false,"is_disabled":false,"rental_uris":{"android":"levelo://app?vid=605a780c-5ce1-4786-9a7b-3ca616914860","ios":"levelo://app?vid=605a780c-5ce1-4786-9a7b-3ca616914860"},"vehicle_type_id":"4","last_reported":1752142343,"current_range_meters":17600,"station_id":"ce4bhih2rcd13ifvqfr0","pricing_plan_id":"cebpf4jnsgd1na2vs0mg"},{"bike_id":"386ac6c9-5fc7-4a38-b181-1cf955b205b5","system_id":"levelo_inurba_marseille","lat":43.25935,"lon":5.4093,"is_reserved":false,"is_disabled":false,"rental_uris":{"android":"levelo://app?vid=386ac6c9-5fc7-4a38-b181-1cf955b205b5","ios":"levelo://app?vid=386ac6c9-5fc7-4a38-b181-1cf955b205b5"},"vehicle_type_id":"4","last_reported":1752142343,"current_range_meters":17600,"station_id":"ce4bhm92rcd13ifvqglg","pricing_plan_id":"cebpf4jnsgd1na2vs0mg"},{"bike_id":"885a4f7a-b630-4979-8079-f23273e8b02f","system_id":"levelo_inurba_marseille","lat":43.24173,"lon":5.39746,"is_reserved":false,"is_disabled":false,"rental_uris":{"android":"levelo://app?vid=885a4f7a-b630-4979-8079-f23273e8b02f","ios":"levelo://app?vid=885a4f7a-b630-4979-8079-f23273e8b02f"},"vehicle_type_id":"4","last_reported":1752142343,"current_range_meters":17600,"station_id":"ce4bhn12rcd13ifvqgpg","pricing_plan_id":"cebpf4jnsgd1na2vs0mg"},{"bike_id":"ee1ac907-8623-4d00-ac01-d41dd90be9fe","system_id":"levelo_inurba_marseille","lat":43.21195,"lon":5.35088,"is_reserved":false,"is_disabled":false,"rental_uris":{"android":"levelo://app?vid=ee1ac907-8623-4d00-ac01-d41dd90be9fe","ios":"levelo://app?vid=ee1ac907-8623-4d00-ac01-d41dd90be9fe"},"vehicle_type_id":"4","last_reported":1752142343,"current_range_meters":17600,"station_id":"st_cvj6sg6p6f1abm77japg","pricing_plan_id":"cebpf4jnsgd1na2vs0mg"},{"bike_id":"0ecdeca4-6072-4b52-82de-72920174b03c","system_id":"levelo_inurba_marseille","lat":43.216339,"lon":5.345593,"is_reserved":false,"is_disabled":false,"rental_uris":{"android":"levelo://app?vid=0ecdeca4-6072-4b52-82de-72920174b03c","ios":"levelo://app?vid=0ecdeca4-6072-4b52-82de-72920174b03c"},"vehicle_type_id":"4","last_reported":1752142343,"current_range_meters":18000,"station_id":"","pricing_plan_id":"cebpf4jnsgd1na2vs0mg"},{"bike_id":"5126538c-e379-41f9-b8aa-b60309da16d4","system_id":"levelo_inurba_marseille","lat":43.29867,"lon":5.36299,"is_reserved":false,"is_disabled":false,"rental_uris":{"android":"levelo://app?vid=5126538c-e379-41f9-b8aa-b60309da16d4","ios":"levelo://app?vid=5126538c-e379-41f9-b8aa-b60309da16d4"},"vehicle_type_id":"4","last_reported":1752142343,"current_range_meters":18000,"station_id":"ce4bgpp2rcd13ifvqc3g","pricing_plan_id":"cebpf4jnsgd1na2vs0mg"},{"bike_id":"bca48c82-9f43-4299-ad6d-f688db13a38a","system_id":"levelo_inurba_marseille","lat":43.30545,"lon":5.36704,"is_reserved":false,"is_disabled":false,"rental_uris":{"android":"levelo://app?vid=bca48c82-9f43-4299-ad6d-f688db13a38a","ios":"levelo://app?vid=bca48c82-9f43-4299-ad6d-f688db13a38a"},"vehicle_type_id":"4","last_reported":1752142343,"current_range_meters":18000,"station_id":"ce4bgrp2rcd13ifvqc9g","pricing_plan_id":"cebpf4jnsgd1na2vs0mg"},{"bike_id":"bcb5093d-72d2-421e-92d3-1be69245626d","system_id":"levelo_inurba_marseille","lat":43.28301,"lon":5.3506,"is_reserved":false,"is_disabled":false,"rental_uris":{"android":"levelo://app?vid=bcb5093d-72d2-421e-92d3-1be69245626d","ios":"levelo://app?vid=bcb5093d-72d2-421e-92d3-1be69245626d"},"vehicle_type_id":"4","last_reported":1752142343,"current_range_meters":18000,"station_id":"ce4bhbp2rcd13ifvqerg","pricing_plan_id":"cebpf4jnsgd1na2vs0mg"},{"bike_id":"cc91f022-5f4f-478d-8287-995a3efb66d1","system_id":"levelo_inurba_marseille","lat":43.26232,"lon":5.40451,"is_reserved":false,"is_disabled":false,"rental_uris":{"android":"levelo://app?vid=cc91f022-5f4f-478d-8287-995a3efb66d1","ios":"levelo://app?vid=cc91f022-5f4f-478d-8287-995a3efb66d1"},"vehicle_type_id":"4","last_reported":1752142343,"current_range_meters":18000,"station_id":"ce4bhmh2rcd13ifvqgmg","pricing_plan_id":"cebpf4jnsgd1na2vs0mg"},{"bike_id":"8f89e4f3-495a-4317-bd6d-37a19186d65b","system_id":"levelo_inurba_marseille","lat":43.33736,"lon":5.39186,"is_reserved":false,"is_disabled":false,"rental_uris":{"android":"levelo://app?vid=8f89e4f3-495a-4317-bd6d-37a19186d65b","ios":"levelo://app?vid=8f89e4f3-495a-4317-bd6d-37a19186d65b"},"vehicle_type_id":"4","last_reported":1752142343,"current_range_meters":18000,"station_id":"ce4bhr92rcd13ifvqhsg","pricing_plan_id":"cebpf4jnsgd1na2vs0mg"},{"bike_id":"4c20d321-0bc9-42d0-9308-79703d497ae9","system_id":"levelo_inurba_marseille","lat":43.284789,"lon":5.384169,"is_reserved":false,"is_disabled":false,"rental_uris":{"android":"levelo://app?vid=4c20d321-0bc9-42d0-9308-79703d497ae9","ios":"levelo://app?vid=4c20d321-0bc9-42d0-9308-79703d497ae9"},"vehicle_type_id":"4","last_reported":1752142343,"current_range_meters":18800,"station_id":"","pricing_plan_id":"cebpf4jnsgd1na2vs0mg"},{"bike_id":"6240b412-b8f2-44c5-9cf0-814cdb081bfd","system_id":"levelo_inurba_marseille","lat":43.30463,"lon":5.37902,"is_reserved":false,"is_disabled":false,"rental_uris":{"android":"levelo://app?vid=6240b412-b8f2-44c5-9cf0-814cdb081bfd","ios":"levelo://app?vid=6240b412-b8f2-44c5-9cf0-814cdb081bfd"},"vehicle_type_id":"4","last_reported":1752142343,"current_range_meters":18800,"station_id":"ce4bgup2rcd13ifvqcn0","pricing_plan_id":"cebpf4jnsgd1na2vs0mg"},{"bike_id":"17adae46-7087-4f2d-807c-e452416f20da","system_id":"levelo_inurba_marseille","lat":43.28619,"lon":5.35105,"is_reserved":false,"is_disabled":false,"rental_uris":{"android":"levelo://app?vid=17adae46-7087-4f2d-807c-e452416f20da","ios":"levelo://app?vid=17adae46-7087-4f2d-807c-e452416f20da"},"vehicle_type_id":"4","last_reported":1752142343,"current_range_meters":18800,"station_id":"ce4bhch2rcd13ifvqeug","pricing_plan_id":"cebpf4jnsgd1na2vs0mg"},{"bike_id":"79b1229d-a4c3-4e6b-b978-78e6a677674c","system_id":"levelo_inurba_marseille","lat":43.24999,"lon":5.38932,"is_reserved":false,"is_disabled":false,"rental_uris":{"android":"levelo://app?vid=79b1229d-a4c3-4e6b-b978-78e6a677674c","ios":"levelo://app?vid=79b1229d-a4c3-4e6b-b978-78e6a677674c"},"vehicle_type_id":"4","last_reported":1752142343,"current_range_meters":18800,"station_id":"ce4bhgp2rcd13ifvqfd0","pricing_plan_id":"cebpf4jnsgd1na2vs0mg"},{"bike_id":"4f34979d-37da-4b7a-927c-9afb0a58ad97","system_id":"levelo_inurba_marseille","lat":43.26787,"lon":5.39414,"is_reserved":false,"is_disabled":false,"rental_uris":{"android":"levelo://app?vid=4f34979d-37da-4b7a-927c-9afb0a58ad97","ios":"levelo://app?vid=4f34979d-37da-4b7a-927c-9afb0a58ad97"},"vehicle_type_id":"4","last_reported":1752142343,"current_range_meters":18800,"station_id":"ce4bhh12rcd13ifvqfg0","pricing_plan_id":"cebpf4jnsgd1na2vs0mg"},{"bike_id":"a37c81c5-d096-4e6d-b1b3-5bbb8251fbd0","system_id":"levelo_inurba_marseille","lat":43.243884,"lon":5.370593,"is_reserved":false,"is_disabled":false,"rental_uris":{"android":"levelo://app?vid=a37c81c5-d096-4e6d-b1b3-5bbb8251fbd0","ios":"levelo://app?vid=a37c81c5-d096-4e6d-b1b3-5bbb8251fbd0"},"vehicle_type_id":"4","last_reported":1752142343,"current_range_meters":18800,"station_id":"ce4bhhh2rcd13ifvqfk0","pricing_plan_id":"cebpf4jnsgd1na2vs0mg"},{"bike_id":"d39178c4-b7be-4d48-9ac4-b9c12a67227c","system_id":"levelo_inurba_marseille","lat":43.25933,"lon":5.40908,"is_reserved":false,"is_disabled":false,"rental_uris":{"android":"levelo://app?vid=d39178c4-b7be-4d48-9ac4-b9c12a67227c","ios":"levelo://app?vid=d39178c4-b7be-4d48-9ac4-b9c12a67227c"},"vehicle_type_id":"4","last_reported":1752142343,"current_range_meters":18800,"station_id":"ce4bhm92rcd13ifvqglg","pricing_plan_id":"cebpf4jnsgd1na2vs0mg"},{"bike_id":"ccd8088e-665d-407d-bc70-2c07bf9cec81","system_id":"levelo_inurba_marseille","lat":43.22931,"lon":5.35388,"is_reserved":false,"is_disabled":false,"rental_uris":{"android":"levelo://app?vid=ccd8088e-665d-407d-bc70-2c07bf9cec81","ios":"levelo://app?vid=ccd8088e-665d-407d-bc70-2c07bf9cec81"},"vehicle_type_id":"4","last_reported":1752142343,"current_range_meters":18800,"station_id":"cpo3532slgdg3j2ikp40","pricing_plan_id":"cebpf4jnsgd1na2vs0mg"},{"bike_id":"a3d06fdd-d90f-4da8-9200-8f61c005f0a2","system_id":"levelo_inurba_marseille","lat":43.2251,"lon":5.34795,"is_reserved":false,"is_disabled":false,"rental_uris":{"android":"levelo://app?vid=a3d06fdd-d90f-4da8-9200-8f61c005f0a2","ios":"levelo://app?vid=a3d06fdd-d90f-4da8-9200-8f61c005f0a2"},"vehicle_type_id":"4","last_reported":1752142343,"current_range_meters":18800,"station_id":"st_cvj5dfep6f1abm77gieg","pricing_plan_id":"cebpf4jnsgd1na2vs0mg"},{"bike_id":"5cc53bec-9409-4c5d-8751-4c55aeb4595a","system_id":"levelo_inurba_marseille","lat":43.27914,"lon":5.39578,"is_reserved":false,"is_disabled":false,"rental_uris":{"android":"levelo://app?vid=5cc53bec-9409-4c5d-8751-4c55aeb4595a","ios":"levelo://app?vid=5cc53bec-9409-4c5d-8751-4c55aeb4595a"},"vehicle_type_id":"4","last_reported":1752142343,"current_range_meters":19200,"station_id":"ce4bhf92rcd13ifvqf40","pricing_plan_id":"cebpf4jnsgd1na2vs0mg"},{"bike_id":"cb8db8c5-e9dd-4a16-a0e6-554c3d555317","system_id":"levelo_inurba_marseille","lat":43.25728,"lon":5.41113,"is_reserved":false,"is_disabled":false,"rental_uris":{"android":"levelo://app?vid=cb8db8c5-e9dd-4a16-a0e6-554c3d555317","ios":"levelo://app?vid=cb8db8c5-e9dd-4a16-a0e6-554c3d555317"},"vehicle_type_id":"4","last_reported":1752142343,"current_range_meters":19200,"station_id":"ce4bhkp2rcd13ifvqgd0","pricing_plan_id":"cebpf4jnsgd1na2vs0mg"},{"bike_id":"a772997c-52b4-4655-afac-b63fc06c4a2e","system_id":"levelo_inurba_marseille","lat":43.285709,"lon":5.394975,"is_reserved":false,"is_disabled":false,"rental_uris":{"android":"levelo://app?vid=a772997c-52b4-4655-afac-b63fc06c4a2e","ios":"levelo://app?vid=a772997c-52b4-4655-afac-b63fc06c4a2e"},"vehicle_type_id":"4","last_reported":1752142343,"current_range_meters":19200,"station_id":"ce4bho12rcd13ifvqh2g","pricing_plan_id":"cebpf4jnsgd1na2vs0mg"},{"bike_id":"6d526cf2-f7c6-43f0-8c10-b635af2f14a9","system_id":"levelo_inurba_marseille","lat":43.2294,"lon":5.35414,"is_reserved":false,"is_disabled":false,"rental_uris":{"android":"levelo://app?vid=6d526cf2-f7c6-43f0-8c10-b635af2f14a9","ios":"levelo://app?vid=6d526cf2-f7c6-43f0-8c10-b635af2f14a9"},"vehicle_type_id":"4","last_reported":1752142343,"current_range_meters":19200,"station_id":"cpo3532slgdg3j2ikp40","pricing_plan_id":"cebpf4jnsgd1na2vs0mg"},{"bike_id":"29a0a180-d29f-4a4e-a71b-d1d9d42cb217","system_id":"levelo_inurba_marseille","lat":43.21197,"lon":5.35069,"is_reserved":false,"is_disabled":false,"rental_uris":{"android":"levelo://app?vid=29a0a180-d29f-4a4e-a71b-d1d9d42cb217","ios":"levelo://app?vid=29a0a180-d29f-4a4e-a71b-d1d9d42cb217"},"vehicle_type_id":"4","last_reported":1752142343,"current_range_meters":19200,"station_id":"st_cvj6sg6p6f1abm77japg","pricing_plan_id":"cebpf4jnsgd1na2vs0mg"},{"bike_id":"595e9351-a7ce-45de-8995-771f7d9fe86e","system_id":"levelo_inurba_marseille","lat":43.309243,"lon":5.378088,"is_reserved":false,"is_disabled":false,"rental_uris":{"android":"levelo://app?vid=595e9351-a7ce-45de-8995-771f7d9fe86e","ios":"levelo://app?vid=595e9351-a7ce-45de-8995-771f7d9fe86e"},"vehicle_type_id":"4","last_reported":1752142343,"current_range_meters":19600,"station_id":"","pricing_plan_id":"cebpf4jnsgd1na2vs0mg"},{"bike_id":"cb8db05c-7ef4-4fcf-b321-cdc13d7cccad","system_id":"levelo_inurba_marseille","lat":43.29077,"lon":5.35558,"is_reserved":false,"is_disabled":false,"rental_uris":{"android":"levelo://app?vid=cb8db05c-7ef4-4fcf-b321-cdc13d7cccad","ios":"levelo://app?vid=cb8db05c-7ef4-4fcf-b321-cdc13d7cccad"},"vehicle_type_id":"4","last_reported":1752142343,"current_range_meters":19600,"station_id":"","pricing_plan_id":"cebpf4jnsgd1na2vs0mg"},{"bike_id":"b5833eaa-4ca6-4f06-a1a4-8a6d8e0f6f44","system_id":"levelo_inurba_marseille","lat":43.31226,"lon":5.36861,"is_reserved":false,"is_disabled":false,"rental_uris":{"android":"levelo://app?vid=b5833eaa-4ca6-4f06-a1a4-8a6d8e0f6f44","ios":"levelo://app?vid=b5833eaa-4ca6-4f06-a1a4-8a6d8e0f6f44"},"vehicle_type_id":"4","last_reported":1752142343,"current_range_meters":19600,"station_id":"ce4bgl92rcd13ifvqbq0","pricing_plan_id":"cebpf4jnsgd1na2vs0mg"},{"bike_id":"d33cbabe-8724-4b7d-a873-a5476968f7d3","system_id":"levelo_inurba_marseille","lat":43.28408,"lon":5.34996,"is_reserved":false,"is_disabled":false,"rental_uris":{"android":"levelo://app?vid=d33cbabe-8724-4b7d-a873-a5476968f7d3","ios":"levelo://app?vid=d33cbabe-8724-4b7d-a873-a5476968f7d3"},"vehicle_type_id":"4","last_reported":1752142343,"current_range_meters":19600,"station_id":"ce4bhbh2rcd13ifvqepg","pricing_plan_id":"cebpf4jnsgd1na2vs0mg"},{"bike_id":"bacb338c-842f-4101-bfda-e5d99dfe1b99","system_id":"levelo_inurba_marseille","lat":43.26211,"lon":5.37442,"is_reserved":false,"is_disabled":false,"rental_uris":{"android":"levelo://app?vid=bacb338c-842f-4101-bfda-e5d99dfe1b99","ios":"levelo://app?vid=bacb338c-842f-4101-bfda-e5d99dfe1b99"},"vehicle_type_id":"4","last_reported":1752142343,"current_range_meters":19600,"station_id":"ce4bhgp2rcd13ifvqfc0","pricing_plan_id":"cebpf4jnsgd1na2vs0mg"},{"bike_id":"9f3c5f2e-d4be-4bd4-9865-c7acb5e49047","system_id":"levelo_inurba_marseille","lat":43.30382,"lon":5.42497,"is_reserved":false,"is_disabled":false,"rental_uris":{"android":"levelo://app?vid=9f3c5f2e-d4be-4bd4-9865-c7acb5e49047","ios":"levelo://app?vid=9f3c5f2e-d4be-4bd4-9865-c7acb5e49047"},"vehicle_type_id":"4","last_reported":1752142343,"current_range_meters":19600,"station_id":"ce4bhoh2rcd13ifvqh6g","pricing_plan_id":"cebpf4jnsgd1na2vs0mg"},{"bike_id":"61e9f907-3b26-4026-8b5f-3b6e409cfd1c","system_id":"levelo_inurba_marseille","lat":43.31726,"lon":5.42402,"is_reserved":false,"is_disabled":false,"rental_uris":{"android":"levelo://app?vid=61e9f907-3b26-4026-8b5f-3b6e409cfd1c","ios":"levelo://app?vid=61e9f907-3b26-4026-8b5f-3b6e409cfd1c"},"vehicle_type_id":"4","last_reported":1752142343,"current_range_meters":19600,"station_id":"ce4bhp92rcd13ifvqhbg","pricing_plan_id":"cebpf4jnsgd1na2vs0mg"},{"bike_id":"e3a75ee9-c614-467b-8cc2-f813bcef2ab1","system_id":"levelo_inurba_marseille","lat":43.33743,"lon":5.3919,"is_reserved":false,"is_disabled":false,"rental_uris":{"android":"levelo://app?vid=e3a75ee9-c614-467b-8cc2-f813bcef2ab1","ios":"levelo://app?vid=e3a75ee9-c614-467b-8cc2-f813bcef2ab1"},"vehicle_type_id":"4","last_reported":1752142343,"current_range_meters":19600,"station_id":"ce4bhr92rcd13ifvqhsg","pricing_plan_id":"cebpf4jnsgd1na2vs0mg"},{"bike_id":"156a6cbf-c8db-4d1b-9064-75655a043613","system_id":"levelo_inurba_marseille","lat":43.21754,"lon":5.34612,"is_reserved":false,"is_disabled":false,"rental_uris":{"android":"levelo://app?vid=156a6cbf-c8db-4d1b-9064-75655a043613","ios":"levelo://app?vid=156a6cbf-c8db-4d1b-9064-75655a043613"},"vehicle_type_id":"4","last_reported":1752142343,"current_range_meters":19600,"station_id":"st_cvj6r9ubvosntc0bgbag","pricing_plan_id":"cebpf4jnsgd1na2vs0mg"},{"bike_id":"52bbed55-bb43-4609-aa14-ca80dd09df26","system_id":"levelo_inurba_marseille","lat":43.337466,"lon":5.374708,"is_reserved":false,"is_disabled":false,"rental_uris":{"android":"levelo://app?vid=52bbed55-bb43-4609-aa14-ca80dd09df26","ios":"levelo://app?vid=52bbed55-bb43-4609-aa14-ca80dd09df26"},"vehicle_type_id":"4","last_reported":1752142343,"current_range_meters":20000,"station_id":"","pricing_plan_id":"cebpf4jnsgd1na2vs0mg"},{"bike_id":"800b1751-81c4-40b8-ace8-ec2de651aab0","system_id":"levelo_inurba_marseille","lat":43.28417,"lon":5.34992,"is_reserved":false,"is_disabled":false,"rental_uris":{"android":"levelo://app?vid=800b1751-81c4-40b8-ace8-ec2de651aab0","ios":"levelo://app?vid=800b1751-81c4-40b8-ace8-ec2de651aab0"},"vehicle_type_id":"4","last_reported":1752142343,"current_range_meters":20000,"station_id":"ce4bhbh2rcd13ifvqepg","pricing_plan_id":"cebpf4jnsgd1na2vs0mg"},{"bike_id":"a11671c1-3afa-4977-92ba-76b5ac1b176c","system_id":"levelo_inurba_marseille","lat":43.2439,"lon":5.37064,"is_reserved":false,"is_disabled":false,"rental_uris":{"android":"levelo://app?vid=a11671c1-3afa-4977-92ba-76b5ac1b176c","ios":"levelo://app?vid=a11671c1-3afa-4977-92ba-76b5ac1b176c"},"vehicle_type_id":"4","last_reported":1752142343,"current_range_meters":20000,"station_id":"ce4bhhh2rcd13ifvqfk0","pricing_plan_id":"cebpf4jnsgd1na2vs0mg"},{"bike_id":"7d06f2a5-4cfb-440a-8d19-90d7da0e993f","system_id":"levelo_inurba_marseille","lat":43.30424,"lon":5.41277,"is_reserved":false,"is_disabled":false,"rental_uris":{"android":"levelo://app?vid=7d06f2a5-4cfb-440a-8d19-90d7da0e993f","ios":"levelo://app?vid=7d06f2a5-4cfb-440a-8d19-90d7da0e993f"},"vehicle_type_id":"4","last_reported":1752142343,"current_range_meters":20000,"station_id":"ce4bhop2rcd13ifvqh8g","pricing_plan_id":"cebpf4jnsgd1na2vs0mg"},{"bike_id":"bc63cf6a-5655-40c0-b618-b45846f8e9aa","system_id":"levelo_inurba_marseille","lat":43.32095,"lon":5.36795,"is_reserved":false,"is_disabled":false,"rental_uris":{"android":"levelo://app?vid=bc63cf6a-5655-40c0-b618-b45846f8e9aa","ios":"levelo://app?vid=bc63cf6a-5655-40c0-b618-b45846f8e9aa"},"vehicle_type_id":"4","last_reported":1752142343,"current_range_meters":20000,"station_id":"ce4bhrh2rcd13ifvqhug","pricing_plan_id":"cebpf4jnsgd1na2vs0mg"},{"bike_id":"4ca69d49-63d1-4772-9006-09bcfa098c08","system_id":"levelo_inurba_marseille","lat":43.26161,"lon":5.37468,"is_reserved":false,"is_disabled":false,"rental_uris":{"android":"levelo://app?vid=4ca69d49-63d1-4772-9006-09bcfa098c08","ios":"levelo://app?vid=4ca69d49-63d1-4772-9006-09bcfa098c08"},"vehicle_type_id":"4","last_reported":1752142343,"current_range_meters":20400,"station_id":"","pricing_plan_id":"cebpf4jnsgd1na2vs0mg"},{"bike_id":"fde530d0-eeed-4692-bb9c-2c65ba0cdd9f","system_id":"levelo_inurba_marseille","lat":43.30867,"lon":5.42558,"is_reserved":false,"is_disabled":false,"rental_uris":{"android":"levelo://app?vid=fde530d0-eeed-4692-bb9c-2c65ba0cdd9f","ios":"levelo://app?vid=fde530d0-eeed-4692-bb9c-2c65ba0cdd9f"},"vehicle_type_id":"4","last_reported":1752142343,"current_range_meters":20400,"station_id":"","pricing_plan_id":"cebpf4jnsgd1na2vs0mg"},{"bike_id":"ce09a6c7-b341-4488-a538-26468f87b477","system_id":"levelo_inurba_marseille","lat":43.294965,"lon":5.39033,"is_reserved":false,"is_disabled":false,"rental_uris":{"android":"levelo://app?vid=ce09a6c7-b341-4488-a538-26468f87b477","ios":"levelo://app?vid=ce09a6c7-b341-4488-a538-26468f87b477"},"vehicle_type_id":"4","last_reported":1752142343,"current_range_meters":20400,"station_id":"ce4bh3p2rcd13ifvqdp0","pricing_plan_id":"cebpf4jnsgd1na2vs0mg"},{"bike_id":"e3d673f2-e9ee-49a7-be85-6cbbf733747d","system_id":"levelo_inurba_marseille","lat":43.27373,"lon":5.36263,"is_reserved":false,"is_disabled":false,"rental_uris":{"android":"levelo://app?vid=e3d673f2-e9ee-49a7-be85-6cbbf733747d","ios":"levelo://app?vid=e3d673f2-e9ee-49a7-be85-6cbbf733747d"},"vehicle_type_id":"4","last_reported":1752142343,"current_range_meters":20400,"station_id":"ce4bhbh2rcd13ifvqeo0","pricing_plan_id":"cebpf4jnsgd1na2vs0mg"},{"bike_id":"c0dc8152-a93d-4c06-9a80-716285e7486a","system_id":"levelo_inurba_marseille","lat":43.265582,"lon":5.372869,"is_reserved":false,"is_disabled":false,"rental_uris":{"android":"levelo://app?vid=c0dc8152-a93d-4c06-9a80-716285e7486a","ios":"levelo://app?vid=c0dc8152-a93d-4c06-9a80-716285e7486a"},"vehicle_type_id":"4","last_reported":1752142343,"current_range_meters":20400,"station_id":"ce4bhg12rcd13ifvqf70","pricing_plan_id":"cebpf4jnsgd1na2vs0mg"},{"bike_id":"baded31f-14f6-420b-848e-602cf108c48b","system_id":"levelo_inurba_marseille","lat":43.27969,"lon":5.38706,"is_reserved":false,"is_disabled":false,"rental_uris":{"android":"levelo://app?vid=baded31f-14f6-420b-848e-602cf108c48b","ios":"levelo://app?vid=baded31f-14f6-420b-848e-602cf108c48b"},"vehicle_type_id":"4","last_reported":1752142343,"current_range_meters":20400,"station_id":"ce4bhg12rcd13ifvqf80","pricing_plan_id":"cebpf4jnsgd1na2vs0mg"},{"bike_id":"cee41bcc-ed90-4784-973d-d9bc037c0ebf","system_id":"levelo_inurba_marseille","lat":43.26779,"lon":5.39421,"is_reserved":false,"is_disabled":false,"rental_uris":{"android":"levelo://app?vid=cee41bcc-ed90-4784-973d-d9bc037c0ebf","ios":"levelo://app?vid=cee41bcc-ed90-4784-973d-d9bc037c0ebf"},"vehicle_type_id":"4","last_reported":1752142343,"current_range_meters":20400,"station_id":"ce4bhh12rcd13ifvqfg0","pricing_plan_id":"cebpf4jnsgd1na2vs0mg"},{"bike_id":"c9398564-4c32-4aaa-a687-b81879f1dd11","system_id":"levelo_inurba_marseille","lat":43.26934,"lon":5.38941,"is_reserved":false,"is_disabled":false,"rental_uris":{"android":"levelo://app?vid=c9398564-4c32-4aaa-a687-b81879f1dd11","ios":"levelo://app?vid=c9398564-4c32-4aaa-a687-b81879f1dd11"},"vehicle_type_id":"4","last_reported":1752142343,"current_range_meters":20400,"station_id":"ce4bhhh2rcd13ifvqfl0","pricing_plan_id":"cebpf4jnsgd1na2vs0mg"},{"bike_id":"06ec5e73-7c37-4d7d-9933-e904369ec74e","system_id":"levelo_inurba_marseille","lat":43.32346,"lon":5.36754,"is_reserved":false,"is_disabled":false,"rental_uris":{"android":"levelo://app?vid=06ec5e73-7c37-4d7d-9933-e904369ec74e","ios":"levelo://app?vid=06ec5e73-7c37-4d7d-9933-e904369ec74e"},"vehicle_type_id":"4","last_reported":1752142343,"current_range_meters":20400,"station_id":"ce4bhsh2rcd13ifvqi2g","pricing_plan_id":"cebpf4jnsgd1na2vs0mg"},{"bike_id":"495b42e7-c480-4c9f-af1d-45f0e83f40b6","system_id":"levelo_inurba_marseille","lat":43.21746,"lon":5.34607,"is_reserved":false,"is_disabled":false,"rental_uris":{"android":"levelo://app?vid=495b42e7-c480-4c9f-af1d-45f0e83f40b6","ios":"levelo://app?vid=495b42e7-c480-4c9f-af1d-45f0e83f40b6"},"vehicle_type_id":"4","last_reported":1752142343,"current_range_meters":20400,"station_id":"st_cvj6r9ubvosntc0bgbag","pricing_plan_id":"cebpf4jnsgd1na2vs0mg"},{"bike_id":"8828232d-9d8a-4f31-8a5a-05c31ac2bdeb","system_id":"levelo_inurba_marseille","lat":43.285,"lon":5.38548,"is_reserved":false,"is_disabled":false,"rental_uris":{"android":"levelo://app?vid=8828232d-9d8a-4f31-8a5a-05c31ac2bdeb","ios":"levelo://app?vid=8828232d-9d8a-4f31-8a5a-05c31ac2bdeb"},"vehicle_type_id":"4","last_reported":1752142343,"current_range_meters":20800,"station_id":"ce4bh8p2rcd13ifvqeb0","pricing_plan_id":"cebpf4jnsgd1na2vs0mg"},{"bike_id":"5fa281ea-b2b7-4806-a59d-87d02c76b268","system_id":"levelo_inurba_marseille","lat":43.25937,"lon":5.40909,"is_reserved":false,"is_disabled":false,"rental_uris":{"android":"levelo://app?vid=5fa281ea-b2b7-4806-a59d-87d02c76b268","ios":"levelo://app?vid=5fa281ea-b2b7-4806-a59d-87d02c76b268"},"vehicle_type_id":"4","last_reported":1752142343,"current_range_meters":20800,"station_id":"ce4bhm92rcd13ifvqglg","pricing_plan_id":"cebpf4jnsgd1na2vs0mg"},{"bike_id":"5e4bb725-0a7c-42b6-8717-a55d114feeb5","system_id":"levelo_inurba_marseille","lat":43.32473,"lon":5.36576,"is_reserved":false,"is_disabled":false,"rental_uris":{"android":"levelo://app?vid=5e4bb725-0a7c-42b6-8717-a55d114feeb5","ios":"levelo://app?vid=5e4bb725-0a7c-42b6-8717-a55d114feeb5"},"vehicle_type_id":"4","last_reported":1752142343,"current_range_meters":20800,"station_id":"ce4bhs12rcd13ifvqhvg","pricing_plan_id":"cebpf4jnsgd1na2vs0mg"},{"bike_id":"dafa5a87-b26d-4379-9a6b-1f02133b78a6","system_id":"levelo_inurba_marseille","lat":43.21196,"lon":5.35074,"is_reserved":false,"is_disabled":false,"rental_uris":{"android":"levelo://app?vid=dafa5a87-b26d-4379-9a6b-1f02133b78a6","ios":"levelo://app?vid=dafa5a87-b26d-4379-9a6b-1f02133b78a6"},"vehicle_type_id":"4","last_reported":1752142343,"current_range_meters":20800,"station_id":"st_cvj6sg6p6f1abm77japg","pricing_plan_id":"cebpf4jnsgd1na2vs0mg"},{"bike_id":"dc71cfe7-dd5b-4120-8a55-db3cfcbd08fa","system_id":"levelo_inurba_marseille","lat":43.27871,"lon":5.37427,"is_reserved":false,"is_disabled":false,"rental_uris":{"android":"levelo://app?vid=dc71cfe7-dd5b-4120-8a55-db3cfcbd08fa","ios":"levelo://app?vid=dc71cfe7-dd5b-4120-8a55-db3cfcbd08fa"},"vehicle_type_id":"4","last_reported":1752142343,"current_range_meters":21600,"station_id":"","pricing_plan_id":"cebpf4jnsgd1na2vs0mg"},{"bike_id":"9d7f6149-59ca-4dbb-ad20-84579dec4858","system_id":"levelo_inurba_marseille","lat":43.29624,"lon":5.37731,"is_reserved":false,"is_disabled":false,"rental_uris":{"android":"levelo://app?vid=9d7f6149-59ca-4dbb-ad20-84579dec4858","ios":"levelo://app?vid=9d7f6149-59ca-4dbb-ad20-84579dec4858"},"vehicle_type_id":"4","last_reported":1752142343,"current_range_meters":21600,"station_id":"ce4bgi92rcd13ifvqb90","pricing_plan_id":"cebpf4jnsgd1na2vs0mg"},{"bike_id":"e8ae14dc-e51d-4bb9-9f22-0ee34cf1122b","system_id":"levelo_inurba_marseille","lat":43.30948,"lon":5.39046,"is_reserved":false,"is_disabled":false,"rental_uris":{"android":"levelo://app?vid=e8ae14dc-e51d-4bb9-9f22-0ee34cf1122b","ios":"levelo://app?vid=e8ae14dc-e51d-4bb9-9f22-0ee34cf1122b"},"vehicle_type_id":"4","last_reported":1752142343,"current_range_meters":21600,"station_id":"ce4bgup2rcd13ifvqco0","pricing_plan_id":"cebpf4jnsgd1na2vs0mg"},{"bike_id":"b8cd50f2-4dd9-415d-9ee4-6aec216879f2","system_id":"levelo_inurba_marseille","lat":43.26701,"lon":5.38281,"is_reserved":false,"is_disabled":false,"rental_uris":{"android":"levelo://app?vid=b8cd50f2-4dd9-415d-9ee4-6aec216879f2","ios":"levelo://app?vid=b8cd50f2-4dd9-415d-9ee4-6aec216879f2"},"vehicle_type_id":"4","last_reported":1752142343,"current_range_meters":21600,"station_id":"ce4bhg92rcd13ifvqf90","pricing_plan_id":"cebpf4jnsgd1na2vs0mg"},{"bike_id":"d1774f08-0b74-4ebe-83dd-070530b598d8","system_id":"levelo_inurba_marseille","lat":43.27203,"lon":5.39173,"is_reserved":false,"is_disabled":false,"rental_uris":{"android":"levelo://app?vid=d1774f08-0b74-4ebe-83dd-070530b598d8","ios":"levelo://app?vid=d1774f08-0b74-4ebe-83dd-070530b598d8"},"vehicle_type_id":"4","last_reported":1752142343,"current_range_meters":21600,"station_id":"ce4bhhp2rcd13ifvqfm0","pricing_plan_id":"cebpf4jnsgd1na2vs0mg"},{"bike_id":"0aef81f1-2263-40a3-a0fe-a9aaa2854d02","system_id":"levelo_inurba_marseille","lat":43.27681,"lon":5.38907,"is_reserved":false,"is_disabled":false,"rental_uris":{"android":"levelo://app?vid=0aef81f1-2263-40a3-a0fe-a9aaa2854d02","ios":"levelo://app?vid=0aef81f1-2263-40a3-a0fe-a9aaa2854d02"},"vehicle_type_id":"4","last_reported":1752142343,"current_range_meters":21600,"station_id":"ce4bhi12rcd13ifvqfo0","pricing_plan_id":"cebpf4jnsgd1na2vs0mg"},{"bike_id":"0530e584-8b77-4adf-b4fb-64805b9528f8","system_id":"levelo_inurba_marseille","lat":43.28477,"lon":5.384175,"is_reserved":false,"is_disabled":false,"rental_uris":{"android":"levelo://app?vid=0530e584-8b77-4adf-b4fb-64805b9528f8","ios":"levelo://app?vid=0530e584-8b77-4adf-b4fb-64805b9528f8"},"vehicle_type_id":"4","last_reported":1752142343,"current_range_meters":21600,"station_id":"ce4bhi12rcd13ifvqfp0","pricing_plan_id":"cebpf4jnsgd1na2vs0mg"},{"bike_id":"7b5cd6ce-df57-4328-854d-cb2d1407ab18","system_id":"levelo_inurba_marseille","lat":43.33021,"lon":5.39034,"is_reserved":false,"is_disabled":false,"rental_uris":{"android":"levelo://app?vid=7b5cd6ce-df57-4328-854d-cb2d1407ab18","ios":"levelo://app?vid=7b5cd6ce-df57-4328-854d-cb2d1407ab18"},"vehicle_type_id":"4","last_reported":1752142343,"current_range_meters":21600,"station_id":"ce4bhr92rcd13ifvqhrg","pricing_plan_id":"cebpf4jnsgd1na2vs0mg"},{"bike_id":"65c6d2d7-a7dc-45ec-9f2f-fb7430e6281d","system_id":"levelo_inurba_marseille","lat":43.32358,"lon":5.36753,"is_reserved":false,"is_disabled":false,"rental_uris":{"android":"levelo://app?vid=65c6d2d7-a7dc-45ec-9f2f-fb7430e6281d","ios":"levelo://app?vid=65c6d2d7-a7dc-45ec-9f2f-fb7430e6281d"},"vehicle_type_id":"4","last_reported":1752142343,"current_range_meters":21600,"station_id":"ce4bhsh2rcd13ifvqi2g","pricing_plan_id":"cebpf4jnsgd1na2vs0mg"},{"bike_id":"7f5051af-bec0-45f2-a210-88095fee74d4","system_id":"levelo_inurba_marseille","lat":43.21755,"lon":5.34599,"is_reserved":false,"is_disabled":false,"rental_uris":{"android":"levelo://app?vid=7f5051af-bec0-45f2-a210-88095fee74d4","ios":"levelo://app?vid=7f5051af-bec0-45f2-a210-88095fee74d4"},"vehicle_type_id":"4","last_reported":1752142343,"current_range_meters":21600,"station_id":"st_cvj6r9ubvosntc0bgbag","pricing_plan_id":"cebpf4jnsgd1na2vs0mg"},{"bike_id":"37b84a38-055a-4a6e-a56a-8ff3d0c1b2ec","system_id":"levelo_inurba_marseille","lat":43.21193,"lon":5.35074,"is_reserved":false,"is_disabled":false,"rental_uris":{"android":"levelo://app?vid=37b84a38-055a-4a6e-a56a-8ff3d0c1b2ec","ios":"levelo://app?vid=37b84a38-055a-4a6e-a56a-8ff3d0c1b2ec"},"vehicle_type_id":"4","last_reported":1752142343,"current_range_meters":21600,"station_id":"st_cvj6sg6p6f1abm77japg","pricing_plan_id":"cebpf4jnsgd1na2vs0mg"},{"bike_id":"0fdbfa71-2a8e-49c7-9f88-38b5ed6ae89d","system_id":"levelo_inurba_marseille","lat":43.28149,"lon":5.38937,"is_reserved":false,"is_disabled":false,"rental_uris":{"android":"levelo://app?vid=0fdbfa71-2a8e-49c7-9f88-38b5ed6ae89d","ios":"levelo://app?vid=0fdbfa71-2a8e-49c7-9f88-38b5ed6ae89d"},"vehicle_type_id":"4","last_reported":1752142343,"current_range_meters":22000,"station_id":"","pricing_plan_id":"cebpf4jnsgd1na2vs0mg"},{"bike_id":"abed2a0c-90a7-4603-96b4-4207967aa4e0","system_id":"levelo_inurba_marseille","lat":43.28856,"lon":5.39318,"is_reserved":false,"is_disabled":false,"rental_uris":{"android":"levelo://app?vid=abed2a0c-90a7-4603-96b4-4207967aa4e0","ios":"levelo://app?vid=abed2a0c-90a7-4603-96b4-4207967aa4e0"},"vehicle_type_id":"4","last_reported":1752142343,"current_range_meters":22000,"station_id":"ce4bh2p2rcd13ifvqdi0","pricing_plan_id":"cebpf4jnsgd1na2vs0mg"},{"bike_id":"dbba3321-20c7-4989-a7b5-ea9ab2c4b3e8","system_id":"levelo_inurba_marseille","lat":43.261935,"lon":5.374477,"is_reserved":false,"is_disabled":false,"rental_uris":{"android":"levelo://app?vid=dbba3321-20c7-4989-a7b5-ea9ab2c4b3e8","ios":"levelo://app?vid=dbba3321-20c7-4989-a7b5-ea9ab2c4b3e8"},"vehicle_type_id":"4","last_reported":1752142343,"current_range_meters":22000,"station_id":"ce4bhgp2rcd13ifvqfc0","pricing_plan_id":"cebpf4jnsgd1na2vs0mg"},{"bike_id":"5f9facdb-d1e1-40e1-8ceb-766e4b9ac193","system_id":"levelo_inurba_marseille","lat":43.21754,"lon":5.345992,"is_reserved":false,"is_disabled":false,"rental_uris":{"android":"levelo://app?vid=5f9facdb-d1e1-40e1-8ceb-766e4b9ac193","ios":"levelo://app?vid=5f9facdb-d1e1-40e1-8ceb-766e4b9ac193"},"vehicle_type_id":"4","last_reported":1752142343,"current_range_meters":22400,"station_id":"","pricing_plan_id":"cebpf4jnsgd1na2vs0mg"},{"bike_id":"43b90c82-97e0-4fa7-8b67-2448f07d529e","system_id":"levelo_inurba_marseille","lat":43.21191,"lon":5.350676,"is_reserved":false,"is_disabled":false,"rental_uris":{"android":"levelo://app?vid=43b90c82-97e0-4fa7-8b67-2448f07d529e","ios":"levelo://app?vid=43b90c82-97e0-4fa7-8b67-2448f07d529e"},"vehicle_type_id":"4","last_reported":1752142343,"current_range_meters":22400,"station_id":"","pricing_plan_id":"cebpf4jnsgd1na2vs0mg"},{"bike_id":"046fa2a0-9fb2-4690-9995-70f0621686d6","system_id":"levelo_inurba_marseille","lat":43.259398,"lon":5.409035,"is_reserved":false,"is_disabled":false,"rental_uris":{"android":"levelo://app?vid=046fa2a0-9fb2-4690-9995-70f0621686d6","ios":"levelo://app?vid=046fa2a0-9fb2-4690-9995-70f0621686d6"},"vehicle_type_id":"4","last_reported":1752142343,"current_range_meters":22400,"station_id":"","pricing_plan_id":"cebpf4jnsgd1na2vs0mg"},{"bike_id":"cc9fe713-d8e8-4598-9f40-2c11a3269e81","system_id":"levelo_inurba_marseille","lat":43.29786,"lon":5.38105,"is_reserved":false,"is_disabled":false,"rental_uris":{"android":"levelo://app?vid=cc9fe713-d8e8-4598-9f40-2c11a3269e81","ios":"levelo://app?vid=cc9fe713-d8e8-4598-9f40-2c11a3269e81"},"vehicle_type_id":"4","last_reported":1752142343,"current_range_meters":22400,"station_id":"ce4bgip2rcd13ifvqbb0","pricing_plan_id":"cebpf4jnsgd1na2vs0mg"},{"bike_id":"23229c0c-dd02-4ce4-ba43-ff77e8046b10","system_id":"levelo_inurba_marseille","lat":43.31685,"lon":5.40468,"is_reserved":false,"is_disabled":false,"rental_uris":{"android":"levelo://app?vid=23229c0c-dd02-4ce4-ba43-ff77e8046b10","ios":"levelo://app?vid=23229c0c-dd02-4ce4-ba43-ff77e8046b10"},"vehicle_type_id":"4","last_reported":1752142343,"current_range_meters":22400,"station_id":"ce4bh012rcd13ifvqd00","pricing_plan_id":"cebpf4jnsgd1na2vs0mg"},{"bike_id":"d42016e0-1883-4b37-adc9-53f8579e363c","system_id":"levelo_inurba_marseille","lat":43.29099,"lon":5.38137,"is_reserved":false,"is_disabled":false,"rental_uris":{"android":"levelo://app?vid=d42016e0-1883-4b37-adc9-53f8579e363c","ios":"levelo://app?vid=d42016e0-1883-4b37-adc9-53f8579e363c"},"vehicle_type_id":"4","last_reported":1752142343,"current_range_meters":22400,"station_id":"ce4bh512rcd13ifvqe2g","pricing_plan_id":"cebpf4jnsgd1na2vs0mg"},{"bike_id":"b9ce23d6-670c-4e40-b243-b2c7be778a7d","system_id":"levelo_inurba_marseille","lat":43.29267,"lon":5.38451,"is_reserved":false,"is_disabled":false,"rental_uris":{"android":"levelo://app?vid=b9ce23d6-670c-4e40-b243-b2c7be778a7d","ios":"levelo://app?vid=b9ce23d6-670c-4e40-b243-b2c7be778a7d"},"vehicle_type_id":"4","last_reported":1752142343,"current_range_meters":22400,"station_id":"ce4bh692rcd13ifvqea0","pricing_plan_id":"cebpf4jnsgd1na2vs0mg"},{"bike_id":"15cea389-8256-414f-80da-0dce182dea3e","system_id":"levelo_inurba_marseille","lat":43.28047,"lon":5.36944,"is_reserved":false,"is_disabled":false,"rental_uris":{"android":"levelo://app?vid=15cea389-8256-414f-80da-0dce182dea3e","ios":"levelo://app?vid=15cea389-8256-414f-80da-0dce182dea3e"},"vehicle_type_id":"4","last_reported":1752142343,"current_range_meters":22400,"station_id":"ce4bha12rcd13ifvqef0","pricing_plan_id":"cebpf4jnsgd1na2vs0mg"},{"bike_id":"e00d5e01-82f6-4d90-8620-348ea8285ade","system_id":"levelo_inurba_marseille","lat":43.273163,"lon":5.390754,"is_reserved":false,"is_disabled":false,"rental_uris":{"android":"levelo://app?vid=e00d5e01-82f6-4d90-8620-348ea8285ade","ios":"levelo://app?vid=e00d5e01-82f6-4d90-8620-348ea8285ade"},"vehicle_type_id":"4","last_reported":1752142343,"current_range_meters":22400,"station_id":"ce4bhgp2rcd13ifvqfe0","pricing_plan_id":"cebpf4jnsgd1na2vs0mg"},{"bike_id":"58a2e547-2ccd-47a1-80ec-01fa3117f10b","system_id":"levelo_inurba_marseille","lat":43.27208,"lon":5.39185,"is_reserved":false,"is_disabled":false,"rental_uris":{"android":"levelo://app?vid=58a2e547-2ccd-47a1-80ec-01fa3117f10b","ios":"levelo://app?vid=58a2e547-2ccd-47a1-80ec-01fa3117f10b"},"vehicle_type_id":"4","last_reported":1752142343,"current_range_meters":22400,"station_id":"ce4bhhp2rcd13ifvqfm0","pricing_plan_id":"cebpf4jnsgd1na2vs0mg"},{"bike_id":"3ed2e416-cc24-40a0-9fed-d1140ce34edd","system_id":"levelo_inurba_marseille","lat":43.27061,"lon":5.40253,"is_reserved":false,"is_disabled":false,"rental_uris":{"android":"levelo://app?vid=3ed2e416-cc24-40a0-9fed-d1140ce34edd","ios":"levelo://app?vid=3ed2e416-cc24-40a0-9fed-d1140ce34edd"},"vehicle_type_id":"4","last_reported":1752142343,"current_range_meters":22400,"station_id":"ce4bhk92rcd13ifvqgc0","pricing_plan_id":"cebpf4jnsgd1na2vs0mg"},{"bike_id":"6d9a6890-0d92-4871-bc99-b5637307e703","system_id":"levelo_inurba_marseille","lat":43.27052,"lon":5.40261,"is_reserved":false,"is_disabled":false,"rental_uris":{"android":"levelo://app?vid=6d9a6890-0d92-4871-bc99-b5637307e703","ios":"levelo://app?vid=6d9a6890-0d92-4871-bc99-b5637307e703"},"vehicle_type_id":"4","last_reported":1752142343,"current_range_meters":22400,"station_id":"ce4bhk92rcd13ifvqgc0","pricing_plan_id":"cebpf4jnsgd1na2vs0mg"},{"bike_id":"37b0fee3-4a6c-4326-a629-416a4576c5f0","system_id":"levelo_inurba_marseille","lat":43.29575,"lon":5.37515,"is_reserved":false,"is_disabled":false,"rental_uris":{"android":"levelo://app?vid=37b0fee3-4a6c-4326-a629-416a4576c5f0","ios":"levelo://app?vid=37b0fee3-4a6c-4326-a629-416a4576c5f0"},"vehicle_type_id":"4","last_reported":1752142343,"current_range_meters":22800,"station_id":"ce4bgh92rcd13ifvqb50","pricing_plan_id":"cebpf4jnsgd1na2vs0mg"},{"bike_id":"fd4ed596-426e-4f24-bc12-2ae10abc142e","system_id":"levelo_inurba_marseille","lat":43.30961,"lon":5.3904,"is_reserved":false,"is_disabled":false,"rental_uris":{"android":"levelo://app?vid=fd4ed596-426e-4f24-bc12-2ae10abc142e","ios":"levelo://app?vid=fd4ed596-426e-4f24-bc12-2ae10abc142e"},"vehicle_type_id":"4","last_reported":1752142343,"current_range_meters":22800,"station_id":"ce4bgup2rcd13ifvqco0","pricing_plan_id":"cebpf4jnsgd1na2vs0mg"},{"bike_id":"299be09b-bd8b-4b96-9a80-c0dcd3d37268","system_id":"levelo_inurba_marseille","lat":43.30785,"lon":5.37642,"is_reserved":false,"is_disabled":false,"rental_uris":{"android":"levelo://app?vid=299be09b-bd8b-4b96-9a80-c0dcd3d37268","ios":"levelo://app?vid=299be09b-bd8b-4b96-9a80-c0dcd3d37268"},"vehicle_type_id":"4","last_reported":1752142343,"current_range_meters":22800,"station_id":"ce4bgv92rcd13ifvqcq0","pricing_plan_id":"cebpf4jnsgd1na2vs0mg"},{"bike_id":"7bdc20dd-bf4c-48a6-b10e-dd1ddfcde085","system_id":"levelo_inurba_marseille","lat":43.28689,"lon":5.38683,"is_reserved":false,"is_disabled":false,"rental_uris":{"android":"levelo://app?vid=7bdc20dd-bf4c-48a6-b10e-dd1ddfcde085","ios":"levelo://app?vid=7bdc20dd-bf4c-48a6-b10e-dd1ddfcde085"},"vehicle_type_id":"4","last_reported":1752142343,"current_range_meters":22800,"station_id":"ce4bh492rcd13ifvqdug","pricing_plan_id":"cebpf4jnsgd1na2vs0mg"},{"bike_id":"e4649ece-ed20-4a50-9413-90ab3f8532d1","system_id":"levelo_inurba_marseille","lat":43.26565,"lon":5.39002,"is_reserved":false,"is_disabled":false,"rental_uris":{"android":"levelo://app?vid=e4649ece-ed20-4a50-9413-90ab3f8532d1","ios":"levelo://app?vid=e4649ece-ed20-4a50-9413-90ab3f8532d1"},"vehicle_type_id":"4","last_reported":1752142343,"current_range_meters":22800,"station_id":"ce4bhe12rcd13ifvqf30","pricing_plan_id":"cebpf4jnsgd1na2vs0mg"},{"bike_id":"e642e1d3-6b82-4344-8700-bc67914bdbca","system_id":"levelo_inurba_marseille","lat":43.24392,"lon":5.37062,"is_reserved":false,"is_disabled":false,"rental_uris":{"android":"levelo://app?vid=e642e1d3-6b82-4344-8700-bc67914bdbca","ios":"levelo://app?vid=e642e1d3-6b82-4344-8700-bc67914bdbca"},"vehicle_type_id":"4","last_reported":1752142343,"current_range_meters":22800,"station_id":"ce4bhhh2rcd13ifvqfk0","pricing_plan_id":"cebpf4jnsgd1na2vs0mg"},{"bike_id":"7e66c1f6-8bd5-44a9-af98-934147a63900","system_id":"levelo_inurba_marseille","lat":43.27218,"lon":5.39185,"is_reserved":false,"is_disabled":false,"rental_uris":{"android":"levelo://app?vid=7e66c1f6-8bd5-44a9-af98-934147a63900","ios":"levelo://app?vid=7e66c1f6-8bd5-44a9-af98-934147a63900"},"vehicle_type_id":"4","last_reported":1752142343,"current_range_meters":22800,"station_id":"ce4bhhp2rcd13ifvqfm0","pricing_plan_id":"cebpf4jnsgd1na2vs0mg"},{"bike_id":"631aee1e-244b-4d7a-a7c9-5987068a2ff6","system_id":"levelo_inurba_marseille","lat":43.27958,"lon":5.41042,"is_reserved":false,"is_disabled":false,"rental_uris":{"android":"levelo://app?vid=631aee1e-244b-4d7a-a7c9-5987068a2ff6","ios":"levelo://app?vid=631aee1e-244b-4d7a-a7c9-5987068a2ff6"},"vehicle_type_id":"4","last_reported":1752142343,"current_range_meters":22800,"station_id":"ce4bhnp2rcd13ifvqh0g","pricing_plan_id":"cebpf4jnsgd1na2vs0mg"},{"bike_id":"b6dcd2c1-0d76-4767-8413-3866b661d382","system_id":"levelo_inurba_marseille","lat":43.279485,"lon":5.410537,"is_reserved":false,"is_disabled":false,"rental_uris":{"android":"levelo://app?vid=b6dcd2c1-0d76-4767-8413-3866b661d382","ios":"levelo://app?vid=b6dcd2c1-0d76-4767-8413-3866b661d382"},"vehicle_type_id":"4","last_reported":1752142343,"current_range_meters":22800,"station_id":"ce4bhnp2rcd13ifvqh0g","pricing_plan_id":"cebpf4jnsgd1na2vs0mg"},{"bike_id":"c7d7573e-302a-4e02-8f7c-15a14489f722","system_id":"levelo_inurba_marseille","lat":43.27937,"lon":5.41042,"is_reserved":false,"is_disabled":false,"rental_uris":{"android":"levelo://app?vid=c7d7573e-302a-4e02-8f7c-15a14489f722","ios":"levelo://app?vid=c7d7573e-302a-4e02-8f7c-15a14489f722"},"vehicle_type_id":"4","last_reported":1752142343,"current_range_meters":22800,"station_id":"ce4bhnp2rcd13ifvqh0g","pricing_plan_id":"cebpf4jnsgd1na2vs0mg"},{"bike_id":"03373532-34cd-4f0c-8eb3-d271c86692ac","system_id":"levelo_inurba_marseille","lat":43.32352,"lon":5.38896,"is_reserved":false,"is_disabled":false,"rental_uris":{"android":"levelo://app?vid=03373532-34cd-4f0c-8eb3-d271c86692ac","ios":"levelo://app?vid=03373532-34cd-4f0c-8eb3-d271c86692ac"},"vehicle_type_id":"4","last_reported":1752142343,"current_range_meters":22800,"station_id":"ce4bhqp2rcd13ifvqhog","pricing_plan_id":"cebpf4jnsgd1na2vs0mg"},{"bike_id":"953ea83f-a4ea-4034-85d4-e09bef5b921a","system_id":"levelo_inurba_marseille","lat":43.22511,"lon":5.3478,"is_reserved":false,"is_disabled":false,"rental_uris":{"android":"levelo://app?vid=953ea83f-a4ea-4034-85d4-e09bef5b921a","ios":"levelo://app?vid=953ea83f-a4ea-4034-85d4-e09bef5b921a"},"vehicle_type_id":"4","last_reported":1752142343,"current_range_meters":22800,"station_id":"st_cvj5dfep6f1abm77gieg","pricing_plan_id":"cebpf4jnsgd1na2vs0mg"},{"bike_id":"b42d7c38-1c82-4226-bfd8-fc44d3a3ea22","system_id":"levelo_inurba_marseille","lat":43.312475,"lon":5.368598,"is_reserved":false,"is_disabled":false,"rental_uris":{"android":"levelo://app?vid=b42d7c38-1c82-4226-bfd8-fc44d3a3ea22","ios":"levelo://app?vid=b42d7c38-1c82-4226-bfd8-fc44d3a3ea22"},"vehicle_type_id":"4","last_reported":1752142343,"current_range_meters":23200,"station_id":"ce4bgl92rcd13ifvqbq0","pricing_plan_id":"cebpf4jnsgd1na2vs0mg"},{"bike_id":"6c6517af-996e-4b4e-8cfa-66960711f3cf","system_id":"levelo_inurba_marseille","lat":43.29715,"lon":5.36586,"is_reserved":false,"is_disabled":false,"rental_uris":{"android":"levelo://app?vid=6c6517af-996e-4b4e-8cfa-66960711f3cf","ios":"levelo://app?vid=6c6517af-996e-4b4e-8cfa-66960711f3cf"},"vehicle_type_id":"4","last_reported":1752142343,"current_range_meters":23200,"station_id":"ce4bgn12rcd13ifvqbt0","pricing_plan_id":"cebpf4jnsgd1na2vs0mg"},{"bike_id":"1a5a58d1-3995-4267-bd1d-20275fa6f529","system_id":"levelo_inurba_marseille","lat":43.30545,"lon":5.3655,"is_reserved":false,"is_disabled":false,"rental_uris":{"android":"levelo://app?vid=1a5a58d1-3995-4267-bd1d-20275fa6f529","ios":"levelo://app?vid=1a5a58d1-3995-4267-bd1d-20275fa6f529"},"vehicle_type_id":"4","last_reported":1752142343,"current_range_meters":23200,"station_id":"ce4bgs12rcd13ifvqcag","pricing_plan_id":"cebpf4jnsgd1na2vs0mg"},{"bike_id":"698a67f6-d513-49bc-a86a-a0df07127d9a","system_id":"levelo_inurba_marseille","lat":43.3095,"lon":5.39038,"is_reserved":false,"is_disabled":false,"rental_uris":{"android":"levelo://app?vid=698a67f6-d513-49bc-a86a-a0df07127d9a","ios":"levelo://app?vid=698a67f6-d513-49bc-a86a-a0df07127d9a"},"vehicle_type_id":"4","last_reported":1752142343,"current_range_meters":23200,"station_id":"ce4bgup2rcd13ifvqco0","pricing_plan_id":"cebpf4jnsgd1na2vs0mg"},{"bike_id":"a204c034-491b-41f0-9126-fc30d6354c79","system_id":"levelo_inurba_marseille","lat":43.23961,"lon":5.36631,"is_reserved":false,"is_disabled":false,"rental_uris":{"android":"levelo://app?vid=a204c034-491b-41f0-9126-fc30d6354c79","ios":"levelo://app?vid=a204c034-491b-41f0-9126-fc30d6354c79"},"vehicle_type_id":"4","last_reported":1752142343,"current_range_meters":23200,"station_id":"ce4bhi12rcd13ifvqfp0","pricing_plan_id":"cebpf4jnsgd1na2vs0mg"},{"bike_id":"df0d7d29-7ecb-44da-a997-95c3598b2c2c","system_id":"levelo_inurba_marseille","lat":43.29782,"lon":5.39338,"is_reserved":false,"is_disabled":false,"rental_uris":{"android":"levelo://app?vid=df0d7d29-7ecb-44da-a997-95c3598b2c2c","ios":"levelo://app?vid=df0d7d29-7ecb-44da-a997-95c3598b2c2c"},"vehicle_type_id":"4","last_reported":1752142343,"current_range_meters":23200,"station_id":"chh1huq6cuj3fo74tm60","pricing_plan_id":"cebpf4jnsgd1na2vs0mg"},{"bike_id":"e86ba8c9-208d-482c-a826-4c100938472a","system_id":"levelo_inurba_marseille","lat":43.21188,"lon":5.35068,"is_reserved":false,"is_disabled":false,"rental_uris":{"android":"levelo://app?vid=e86ba8c9-208d-482c-a826-4c100938472a","ios":"levelo://app?vid=e86ba8c9-208d-482c-a826-4c100938472a"},"vehicle_type_id":"4","last_reported":1752142343,"current_range_meters":23200,"station_id":"st_cvj6sg6p6f1abm77japg","pricing_plan_id":"cebpf4jnsgd1na2vs0mg"},{"bike_id":"23b37642-b108-4776-9368-34aa0142bdf9","system_id":"levelo_inurba_marseille","lat":43.29851,"lon":5.36271,"is_reserved":false,"is_disabled":false,"rental_uris":{"android":"levelo://app?vid=23b37642-b108-4776-9368-34aa0142bdf9","ios":"levelo://app?vid=23b37642-b108-4776-9368-34aa0142bdf9"},"vehicle_type_id":"4","last_reported":1752142343,"current_range_meters":24000,"station_id":"ce4bgpp2rcd13ifvqc3g","pricing_plan_id":"cebpf4jnsgd1na2vs0mg"},{"bike_id":"f61344fb-2634-4d53-bea7-eb7a5ca0900e","system_id":"levelo_inurba_marseille","lat":43.30943,"lon":5.39049,"is_reserved":false,"is_disabled":false,"rental_uris":{"android":"levelo://app?vid=f61344fb-2634-4d53-bea7-eb7a5ca0900e","ios":"levelo://app?vid=f61344fb-2634-4d53-bea7-eb7a5ca0900e"},"vehicle_type_id":"4","last_reported":1752142343,"current_range_meters":24000,"station_id":"ce4bgup2rcd13ifvqco0","pricing_plan_id":"cebpf4jnsgd1na2vs0mg"},{"bike_id":"4abfc8e9-c8c3-4290-ab8f-c782dd501b95","system_id":"levelo_inurba_marseille","lat":43.31684,"lon":5.4048,"is_reserved":false,"is_disabled":false,"rental_uris":{"android":"levelo://app?vid=4abfc8e9-c8c3-4290-ab8f-c782dd501b95","ios":"levelo://app?vid=4abfc8e9-c8c3-4290-ab8f-c782dd501b95"},"vehicle_type_id":"4","last_reported":1752142343,"current_range_meters":24000,"station_id":"ce4bh012rcd13ifvqd00","pricing_plan_id":"cebpf4jnsgd1na2vs0mg"},{"bike_id":"14adb9e6-3d90-40ef-aca3-0c283a2873bc","system_id":"levelo_inurba_marseille","lat":43.28418,"lon":5.35,"is_reserved":false,"is_disabled":false,"rental_uris":{"android":"levelo://app?vid=14adb9e6-3d90-40ef-aca3-0c283a2873bc","ios":"levelo://app?vid=14adb9e6-3d90-40ef-aca3-0c283a2873bc"},"vehicle_type_id":"4","last_reported":1752142343,"current_range_meters":24000,"station_id":"ce4bhbh2rcd13ifvqepg","pricing_plan_id":"cebpf4jnsgd1na2vs0mg"},{"bike_id":"63eb0946-3a7f-48f5-9ce5-04ee0abbe304","system_id":"levelo_inurba_marseille","lat":43.28423,"lon":5.3499,"is_reserved":false,"is_disabled":false,"rental_uris":{"android":"levelo://app?vid=63eb0946-3a7f-48f5-9ce5-04ee0abbe304","ios":"levelo://app?vid=63eb0946-3a7f-48f5-9ce5-04ee0abbe304"},"vehicle_type_id":"4","last_reported":1752142343,"current_range_meters":24000,"station_id":"ce4bhbh2rcd13ifvqepg","pricing_plan_id":"cebpf4jnsgd1na2vs0mg"},{"bike_id":"377adb55-be50-47c0-9950-98c35ac820e9","system_id":"levelo_inurba_marseille","lat":43.26199,"lon":5.37451,"is_reserved":false,"is_disabled":false,"rental_uris":{"android":"levelo://app?vid=377adb55-be50-47c0-9950-98c35ac820e9","ios":"levelo://app?vid=377adb55-be50-47c0-9950-98c35ac820e9"},"vehicle_type_id":"4","last_reported":1752142343,"current_range_meters":24000,"station_id":"ce4bhgp2rcd13ifvqfc0","pricing_plan_id":"cebpf4jnsgd1na2vs0mg"},{"bike_id":"86fe5d5d-06ca-4e50-b52e-bdbbe251d1da","system_id":"levelo_inurba_marseille","lat":43.24549,"lon":5.39529,"is_reserved":false,"is_disabled":false,"rental_uris":{"android":"levelo://app?vid=86fe5d5d-06ca-4e50-b52e-bdbbe251d1da","ios":"levelo://app?vid=86fe5d5d-06ca-4e50-b52e-bdbbe251d1da"},"vehicle_type_id":"4","last_reported":1752142343,"current_range_meters":24000,"station_id":"ce4bhlp2rcd13ifvqgjg","pricing_plan_id":"cebpf4jnsgd1na2vs0mg"},{"bike_id":"93e9eaf4-08f8-40b1-9dd8-48d8e605730d","system_id":"levelo_inurba_marseille","lat":43.23149,"lon":5.43724,"is_reserved":false,"is_disabled":false,"rental_uris":{"android":"levelo://app?vid=93e9eaf4-08f8-40b1-9dd8-48d8e605730d","ios":"levelo://app?vid=93e9eaf4-08f8-40b1-9dd8-48d8e605730d"},"vehicle_type_id":"4","last_reported":1752142343,"current_range_meters":24000,"station_id":"ce4bhmp2rcd13ifvqgog","pricing_plan_id":"cebpf4jnsgd1na2vs0mg"},{"bike_id":"8ff6c1de-db31-4ea0-9ec5-4d7d12e0c5ff","system_id":"levelo_inurba_marseille","lat":43.335907,"lon":5.410342,"is_reserved":false,"is_disabled":false,"rental_uris":{"android":"levelo://app?vid=8ff6c1de-db31-4ea0-9ec5-4d7d12e0c5ff","ios":"levelo://app?vid=8ff6c1de-db31-4ea0-9ec5-4d7d12e0c5ff"},"vehicle_type_id":"4","last_reported":1752142343,"current_range_meters":24000,"station_id":"ce4bhqh2rcd13ifvqhmg","pricing_plan_id":"cebpf4jnsgd1na2vs0mg"},{"bike_id":"452e8211-4f44-45d0-814a-3e9e25b8c44e","system_id":"levelo_inurba_marseille","lat":43.211945,"lon":5.350738,"is_reserved":false,"is_disabled":false,"rental_uris":{"android":"levelo://app?vid=452e8211-4f44-45d0-814a-3e9e25b8c44e","ios":"levelo://app?vid=452e8211-4f44-45d0-814a-3e9e25b8c44e"},"vehicle_type_id":"4","last_reported":1752142343,"current_range_meters":24000,"station_id":"st_cvj6sg6p6f1abm77japg","pricing_plan_id":"cebpf4jnsgd1na2vs0mg"},{"bike_id":"5fae4696-4745-4bfd-b3fa-9c8f72e406b8","system_id":"levelo_inurba_marseille","lat":43.21746,"lon":5.34604,"is_reserved":false,"is_disabled":false,"rental_uris":{"android":"levelo://app?vid=5fae4696-4745-4bfd-b3fa-9c8f72e406b8","ios":"levelo://app?vid=5fae4696-4745-4bfd-b3fa-9c8f72e406b8"},"vehicle_type_id":"4","last_reported":1752142343,"current_range_meters":24400,"station_id":"","pricing_plan_id":"cebpf4jnsgd1na2vs0mg"},{"bike_id":"bde1e4a4-6de2-462e-8c6c-8de012719130","system_id":"levelo_inurba_marseille","lat":43.309012,"lon":5.368478,"is_reserved":false,"is_disabled":false,"rental_uris":{"android":"levelo://app?vid=bde1e4a4-6de2-462e-8c6c-8de012719130","ios":"levelo://app?vid=bde1e4a4-6de2-462e-8c6c-8de012719130"},"vehicle_type_id":"4","last_reported":1752142343,"current_range_meters":24400,"station_id":"ce4bgn92rcd13ifvqbvg","pricing_plan_id":"cebpf4jnsgd1na2vs0mg"},{"bike_id":"15abae54-9e83-45ec-9dd6-f4cfe8fd1611","system_id":"levelo_inurba_marseille","lat":43.30946,"lon":5.3903,"is_reserved":false,"is_disabled":false,"rental_uris":{"android":"levelo://app?vid=15abae54-9e83-45ec-9dd6-f4cfe8fd1611","ios":"levelo://app?vid=15abae54-9e83-45ec-9dd6-f4cfe8fd1611"},"vehicle_type_id":"4","last_reported":1752142343,"current_range_meters":24400,"station_id":"ce4bgup2rcd13ifvqco0","pricing_plan_id":"cebpf4jnsgd1na2vs0mg"},{"bike_id":"ba96da10-d16d-4ca7-ab34-2c0d95e65594","system_id":"levelo_inurba_marseille","lat":43.307895,"lon":5.37644,"is_reserved":false,"is_disabled":false,"rental_uris":{"android":"levelo://app?vid=ba96da10-d16d-4ca7-ab34-2c0d95e65594","ios":"levelo://app?vid=ba96da10-d16d-4ca7-ab34-2c0d95e65594"},"vehicle_type_id":"4","last_reported":1752142343,"current_range_meters":24400,"station_id":"ce4bgv92rcd13ifvqcq0","pricing_plan_id":"cebpf4jnsgd1na2vs0mg"},{"bike_id":"3326f179-1579-47fc-9aeb-f0fe1dc79c4d","system_id":"levelo_inurba_marseille","lat":43.28429,"lon":5.34997,"is_reserved":false,"is_disabled":false,"rental_uris":{"android":"levelo://app?vid=3326f179-1579-47fc-9aeb-f0fe1dc79c4d","ios":"levelo://app?vid=3326f179-1579-47fc-9aeb-f0fe1dc79c4d"},"vehicle_type_id":"4","last_reported":1752142343,"current_range_meters":24400,"station_id":"ce4bhbh2rcd13ifvqepg","pricing_plan_id":"cebpf4jnsgd1na2vs0mg"},{"bike_id":"095841ff-4539-44ba-b632-1281556d709d","system_id":"levelo_inurba_marseille","lat":43.24396,"lon":5.37082,"is_reserved":false,"is_disabled":false,"rental_uris":{"android":"levelo://app?vid=095841ff-4539-44ba-b632-1281556d709d","ios":"levelo://app?vid=095841ff-4539-44ba-b632-1281556d709d"},"vehicle_type_id":"4","last_reported":1752142343,"current_range_meters":24400,"station_id":"ce4bhhh2rcd13ifvqfk0","pricing_plan_id":"cebpf4jnsgd1na2vs0mg"},{"bike_id":"9f368cbc-8ee4-45b0-b85a-dd5137693c52","system_id":"levelo_inurba_marseille","lat":43.28697,"lon":5.39982,"is_reserved":false,"is_disabled":false,"rental_uris":{"android":"levelo://app?vid=9f368cbc-8ee4-45b0-b85a-dd5137693c52","ios":"levelo://app?vid=9f368cbc-8ee4-45b0-b85a-dd5137693c52"},"vehicle_type_id":"4","last_reported":1752142343,"current_range_meters":24400,"station_id":"ce4bho92rcd13ifvqh3g","pricing_plan_id":"cebpf4jnsgd1na2vs0mg"},{"bike_id":"79a39d09-d558-46d8-8d97-463a6039df48","system_id":"levelo_inurba_marseille","lat":43.31753,"lon":5.3901,"is_reserved":false,"is_disabled":false,"rental_uris":{"android":"levelo://app?vid=79a39d09-d558-46d8-8d97-463a6039df48","ios":"levelo://app?vid=79a39d09-d558-46d8-8d97-463a6039df48"},"vehicle_type_id":"4","last_reported":1752142343,"current_range_meters":24400,"station_id":"ce4bhqp2rcd13ifvqhng","pricing_plan_id":"cebpf4jnsgd1na2vs0mg"},{"bike_id":"c75bb91e-aa5a-49c1-b731-6d424b0690e7","system_id":"levelo_inurba_marseille","lat":43.32357,"lon":5.3675,"is_reserved":false,"is_disabled":false,"rental_uris":{"android":"levelo://app?vid=c75bb91e-aa5a-49c1-b731-6d424b0690e7","ios":"levelo://app?vid=c75bb91e-aa5a-49c1-b731-6d424b0690e7"},"vehicle_type_id":"4","last_reported":1752142343,"current_range_meters":24400,"station_id":"ce4bhsh2rcd13ifvqi2g","pricing_plan_id":"cebpf4jnsgd1na2vs0mg"},{"bike_id":"3ba10725-cfb8-4d53-9617-1641b5ac0d4c","system_id":"levelo_inurba_marseille","lat":43.30793,"lon":5.3765,"is_reserved":false,"is_disabled":false,"rental_uris":{"android":"levelo://app?vid=3ba10725-cfb8-4d53-9617-1641b5ac0d4c","ios":"levelo://app?vid=3ba10725-cfb8-4d53-9617-1641b5ac0d4c"},"vehicle_type_id":"4","last_reported":1752142343,"current_range_meters":24800,"station_id":"ce4bgv92rcd13ifvqcq0","pricing_plan_id":"cebpf4jnsgd1na2vs0mg"},