{"last_updated":1731280145,"ttl":60,"version":"2.2","data":{"bikes":[{"bike_id":"5cccdad3-9b8d-4a72-bdfd-b1daf1dc0d4d","system_id":"levelo_inurba_marseille","lat":43.27819,"lon":5.40709,"is_reserved":false,"is_disabled":false,"rental_uris":{"android":"levelo://app?vid=5cccdad3-9b8d-4a72-bdfd-b1daf1dc0d4d","ios":"levelo://app?vid=5cccdad3-9b8d-4a72-bdfd-b1daf1dc0d4d"},"vehicle_type_id":"4","last_reported":1731280145,"current_range_meters":40000,"station_id":"ce4bhnh2rcd13ifvqgtg","pricing_plan_id":"cebpf4jnsgd1na2vs0mg"},{"bike_id":"55f338da-564d-4339-bcb5-5d0a4b68c4e6","system_id":"levelo_inurba_marseille","lat":43.31066,"lon":5.40084,"is_reserved":false,"is_disabled":false,"rental_uris":{"android":"levelo://app?vid=55f338da-564d-4339-bcb5-5d0a4b68c4e6","ios":"levelo://app?vid=55f338da-564d-4339-bcb5-5d0a4b68c4e6"},"vehicle_type_id":"4","last_reported":1731280145,"current_range_meters":6000,"station_id":"","pricing_plan_id":"cebpf4jnsgd1na2vs0mg"},{"bike_id":"4a9b720d-8670-4831-85df-c88003ccc28b","system_id":"levelo_inurba_marseille","lat":43.30438,"lon":5.38897,"is_reserved":false,"is_disabled":false,"rental_uris":{"android":"levelo://app?vid=4a9b720d-8670-4831-85df-c88003ccc28b","ios":"levelo://app?vid=4a9b720d-8670-4831-85df-c88003ccc28b"},"vehicle_type_id":"4","last_reported":1731280145,"current_range_meters":39200,"station_id":"ce4bgk12rcd13ifvqbi0","pricing_plan_id":"cebpf4jnsgd1na2vs0mg"},{"bike_id":"b8309c71-4c83-49a8-8581-d0b2d6e71481","system_id":"levelo_inurba_marseille","lat":43.30218,"lon":5.39482,"is_reserved":false,"is_disabled":false,"rental_uris":{"android":"levelo://app?vid=b8309c71-4c83-49a8-8581-d0b2d6e71481","ios":"levelo://app?vid=b8309c71-4c83-49a8-8581-d0b2d6e71481"},"vehicle_type_id":"4","last_reported":1731280145,"current_range_meters":38400,"station_id":"ce4bh0p2rcd13ifvqd70","pricing_plan_id":"cebpf4jnsgd1na2vs0mg"},{"bike_id":"f903ea29-30fe-46ae-8eeb-7a1975d030a7","system_id":"levelo_inurba_marseille","lat":43.31664,"lon":5.37682,"is_reserved":false,"is_disabled":false,"rental_uris":{"android":"levelo://app?vid=f903ea29-30fe-46ae-8eeb-7a1975d030a7","ios":"levelo://app?vid=f903ea29-30fe-46ae-8eeb-7a1975d030a7"},"vehicle_type_id":"4","last_reported":1731280145,"current_range_meters":22400,"station_id":"ce4bgth2rcd13ifvqch0","pricing_plan_id":"cebpf4jnsgd1na2vs0mg"},{"bike_id":"244ec33f-84aa-475a-a72a-accf54ef1eaf","system_id":"levelo_inurba_marseille","lat":43.29322,"lon":5.37463,"is_reserved":false,"is_disabled":false,"rental_uris":{"android":"levelo://app?vid=244ec33f-84aa-475a-a72a-accf54ef1eaf","ios":"levelo://app?vid=244ec33f-84aa-475a-a72a-accf54ef1eaf"},"vehicle_type_id":"4","last_reported":1731280145,"current_range_meters":32800,"station_id":"ce4bgi12rcd13ifvqb70","pricing_plan_id":"cebpf4jnsgd1na2vs0mg"},{"bike_id":"5daf7e81-adca-4c69-ac49-7439dac41928","system_id":"levelo_inurba_marseille","lat":43.29556,"lon":5.42296,"is_reserved":false,"is_disabled":false,"rental_uris":{"android":"levelo://app?vid=5daf7e81-adca-4c69-ac49-7439dac41928","ios":"levelo://app?vid=5daf7e81-adca-4c69-ac49-7439dac41928"},"vehicle_type_id":"4","last_reported":1731280145,"current_range_meters":38800,"station_id":"ce4bhph2rcd13ifvqhdg","pricing_plan_id":"cebpf4jnsgd1na2vs0mg"},{"bike_id":"0d1fda9b-5e44-4ddf-8abc-e992f1e8622a","system_id":"levelo_inurba_marseille","lat":43.28459,"lon":5.35884,"is_reserved":false,"is_disabled":false,"rental_uris":{"android":"levelo://app?vid=0d1fda9b-5e44-4ddf-8abc-e992f1e8622a","ios":"levelo://app?vid=0d1fda9b-5e44-4ddf-8abc-e992f1e8622a"},"vehicle_type_id":"4","last_reported":1731280145,"current_range_meters":23200,"station_id":"ce4bhah2rcd13ifvqei0","pricing_plan_id":"cebpf4jnsgd1na2vs0mg"},{"bike_id":"1adc8eee-5455-40de-beaf-9dc42987d8ee","system_id":"levelo_inurba_marseille","lat":43.24805,"lon":5.37457,"is_reserved":false,"is_disabled":false,"rental_uris":{"android":"levelo://app?vid=1adc8eee-5455-40de-beaf-9dc42987d8ee","ios":"levelo://app?vid=1adc8eee-5455-40de-beaf-9dc42987d8ee"},"vehicle_type_id":"4","last_reported":1731280145,"current_range_meters":5600,"station_id":"ce4bhgh2rcd13ifvqfb0","pricing_plan_id":"cebpf4jnsgd1na2vs0mg"},{"bike_id":"2300ca5b-3406-4406-93d4-bb2eafdfc83d","system_id":"levelo_inurba_marseille","lat":43.2837,"lon":5.38642,"is_reserved":false,"is_disabled":false,"rental_uris":{"android":"levelo://app?vid=2300ca5b-3406-4406-93d4-bb2eafdfc83d","ios":"levelo://app?vid=2300ca5b-3406-4406-93d4-bb2eafdfc83d"},"vehicle_type_id":"4","last_reported":1731280145,"current_range_meters":38800,"station_id":"ce4bh492rcd13ifvqdvg","pricing_plan_id":"cebpf4jnsgd1na2vs0mg"},{"bike_id":"f3d63f4d-eadc-455d-b402-115d199e3de1","system_id":"levelo_inurba_marseille","lat":43.31082,"lon":5.42427,"is_reserved":false,"is_disabled":false,"rental_uris":{"android":"levelo://app?vid=f3d63f4d-eadc-455d-b402-115d199e3de1","ios":"levelo://app?vid=f3d63f4d-eadc-455d-b402-115d199e3de1"},"vehicle_type_id":"4","last_reported":1731280145,"current_range_meters":38800,"station_id":"ce4bhp92rcd13ifvqhag","pricing_plan_id":"cebpf4jnsgd1na2vs0mg"},{"bike_id":"921708b5-acdf-4387-81df-b8a3576276ae","system_id":"levelo_inurba_marseille","lat":43.26488,"lon":5.39547,"is_reserved":false,"is_disabled":false,"rental_uris":{"android":"levelo://app?vid=921708b5-acdf-4387-81df-b8a3576276ae","ios":"levelo://app?vid=921708b5-acdf-4387-81df-b8a3576276ae"},"vehicle_type_id":"4","last_reported":1731280145,"current_range_meters":8400,"station_id":"ce4bhi12rcd13ifvqfq0","pricing_plan_id":"cebpf4jnsgd1na2vs0mg"},{"bike_id":"0080f361-a5a8-4cc0-b53e-3db12f55c105","system_id":"levelo_inurba_marseille","lat":43.25639,"lon":5.40422,"is_reserved":false,"is_disabled":false,"rental_uris":{"android":"levelo://app?vid=0080f361-a5a8-4cc0-b53e-3db12f55c105","ios":"levelo://app?vid=0080f361-a5a8-4cc0-b53e-3db12f55c105"},"vehicle_type_id":"4","last_reported":1731280145,"current_range_meters":28400,"station_id":"","pricing_plan_id":"cebpf4jnsgd1na2vs0mg"},{"bike_id":"edbdcb15-59c3-48d1-934b-83c91ea5d10e","system_id":"levelo_inurba_marseille","lat":43.31884,"lon":5.40749,"is_reserved":false,"is_disabled":false,"rental_uris":{"android":"levelo://app?vid=edbdcb15-59c3-48d1-934b-83c91ea5d10e","ios":"levelo://app?vid=edbdcb15-59c3-48d1-934b-83c91ea5d10e"},"vehicle_type_id":"4","last_reported":1731280145,"current_range_meters":25200,"station_id":"ce4bhq12rcd13ifvqhig","pricing_plan_id":"cebpf4jnsgd1na2vs0mg"},{"bike_id":"0127d6b2-e8ca-44ea-a042-e15f538e1c04","system_id":"levelo_inurba_marseille","lat":43.28455,"lon":5.35875,"is_reserved":false,"is_disabled":false,"rental_uris":{"android":"levelo://app?vid=0127d6b2-e8ca-44ea-a042-e15f538e1c04","ios":"levelo://app?vid=0127d6b2-e8ca-44ea-a042-e15f538e1c04"},"vehicle_type_id":"4","last_reported":1731280145,"current_range_meters":40000,"station_id":"ce4bhah2rcd13ifvqei0","pricing_plan_id":"cebpf4jnsgd1na2vs0mg"},{"bike_id":"56787d84-a549-4d99-a053-5f0579c51891","system_id":"levelo_inurba_marseille","lat":43.24655,"lon":5.38901,"is_reserved":false,"is_disabled":false,"rental_uris":{"android":"levelo://app?vid=56787d84-a549-4d99-a053-5f0579c51891","ios":"levelo://app?vid=56787d84-a549-4d99-a053-5f0579c51891"},"vehicle_type_id":"4","last_reported":1731280145,"current_range_meters":4000,"station_id":"ce4bhg12rcd13ifvqf60","pricing_plan_id":"cebpf4jnsgd1na2vs0mg"},{"bike_id":"40c39cd5-329e-440d-9a14-414f60fb6853","system_id":"levelo_inurba_marseille","lat":43.31714,"lon":5.37746,"is_reserved":false,"is_disabled":false,"rental_uris":{"android":"levelo://app?vid=40c39cd5-329e-440d-9a14-414f60fb6853","ios":"levelo://app?vid=40c39cd5-329e-440d-9a14-414f60fb6853"},"vehicle_type_id":"4","last_reported":1731280145,"current_range_meters":17600,"station_id":"ce4bgth2rcd13ifvqch0","pricing_plan_id":"cebpf4jnsgd1na2vs0mg"},{"bike_id":"cbfbcf32-f215-413a-bd6d-8c8cf9b22078","system_id":"levelo_inurba_marseille","lat":43.28851,"lon":5.35869,"is_reserved":false,"is_disabled":false,"rental_uris":{"android":"levelo://app?vid=cbfbcf32-f215-413a-bd6d-8c8cf9b22078","ios":"levelo://app?vid=cbfbcf32-f215-413a-bd6d-8c8cf9b22078"},"vehicle_type_id":"4","last_reported":1731280145,"current_range_meters":38800,"station_id":"ce4bhb12rcd13ifvqem0","pricing_plan_id":"cebpf4jnsgd1na2vs0mg"},{"bike_id":"294704fb-8f95-4b35-8862-e42d43f15506","system_id":"levelo_inurba_marseille","lat":43.28712,"lon":5.37948,"is_reserved":false,"is_disabled":false,"rental_uris":{"android":"levelo://app?vid=294704fb-8f95-4b35-8862-e42d43f15506","ios":"levelo://app?vid=294704fb-8f95-4b35-8862-e42d43f15506"},"vehicle_type_id":"4","last_reported":1731280145,"current_range_meters":38800,"station_id":"ce4bh9p2rcd13ifvqec0","pricing_plan_id":"cebpf4jnsgd1na2vs0mg"},{"bike_id":"211370b9-fa11-4043-9839-d2de480f75ec","system_id":"levelo_inurba_marseille","lat":43.30777,"lon":5.37662,"is_reserved":false,"is_disabled":false,"rental_uris":{"android":"levelo://app?vid=211370b9-fa11-4043-9839-d2de480f75ec","ios":"levelo://app?vid=211370b9-fa11-4043-9839-d2de480f75ec"},"vehicle_type_id":"4","last_reported":1731280145,"current_range_meters":39200,"station_id":"ce4bgv92rcd13ifvqcq0","pricing_plan_id":"cebpf4jnsgd1na2vs0mg"},{"bike_id":"65539507-1ce8-44d4-b092-a42e94006859","system_id":"levelo_inurba_marseille","lat":43.23183,"lon":5.39988,"is_reserved":false,"is_disabled":false,"rental_uris":{"android":"levelo://app?vid=65539507-1ce8-44d4-b092-a42e94006859","ios":"levelo://app?vid=65539507-1ce8-44d4-b092-a42e94006859"},"vehicle_type_id":"4","last_reported":1731280145,"current_range_meters":38000,"station_id":"ce4bhn12rcd13ifvqgqg","pricing_plan_id":"cebpf4jnsgd1na2vs0mg"},{"bike_id":"9919db7a-8b4f-4220-becb-f54e10b5b1b8","system_id":"levelo_inurba_marseille","lat":43.23058,"lon":5.35489,"is_reserved":false,"is_disabled":false,"rental_uris":{"android":"levelo://app?vid=9919db7a-8b4f-4220-becb-f54e10b5b1b8","ios":"levelo://app?vid=9919db7a-8b4f-4220-becb-f54e10b5b1b8"},"vehicle_type_id":"4","last_reported":1731280145,"current_range_meters":38400,"station_id":"cpo3342slgdg3j2ifvpg","pricing_plan_id":"cebpf4jnsgd1na2vs0mg"},{"bike_id":"b6dea35e-6994-4bc9-8df0-6e8080714556","system_id":"levelo_inurba_marseille","lat":43.28363,"lon":5.398339,"is_reserved":false,"is_disabled":false,"rental_uris":{"android":"levelo://app?vid=b6dea35e-6994-4bc9-8df0-6e8080714556","ios":"levelo://app?vid=b6dea35e-6994-4bc9-8df0-6e8080714556"},"vehicle_type_id":"4","last_reported":1731280145,"current_range_meters":21600,"station_id":"ce4bho12rcd13ifvqh2g","pricing_plan_id":"cebpf4jnsgd1na2vs0mg"},{"bike_id":"c7cb2f21-73cd-4e84-90c1-167ec62f1347","system_id":"levelo_inurba_marseille","lat":43.29077,"lon":5.37167,"is_reserved":false,"is_disabled":false,"rental_uris":{"android":"levelo://app?vid=c7cb2f21-73cd-4e84-90c1-167ec62f1347","ios":"levelo://app?vid=c7cb2f21-73cd-4e84-90c1-167ec62f1347"},"vehicle_type_id":"4","last_reported":1731280145,"current_range_meters":38800,"station_id":"ce4bh5p2rcd13ifvqe4g","pricing_plan_id":"cebpf4jnsgd1na2vs0mg"},{"bike_id":"bb785616-26a0-4eb0-931b-17957df5cea3","system_id":"levelo_inurba_marseille","lat":43.29553,"lon":5.42286,"is_reserved":false,"is_disabled":false,"rental_uris":{"android":"levelo://app?vid=bb785616-26a0-4eb0-931b-17957df5cea3","ios":"levelo://app?vid=bb785616-26a0-4eb0-931b-17957df5cea3"},"vehicle_type_id":"4","last_reported":1731280145,"current_range_meters":29600,"station_id":"ce4bhph2rcd13ifvqhdg","pricing_plan_id":"cebpf4jnsgd1na2vs0mg"},{"bike_id":"3b87dcfb-1a59-4717-86a1-4f8b3263c521","system_id":"levelo_inurba_marseille","lat":43.30602,"lon":5.39354,"is_reserved":false,"is_disabled":false,"rental_uris":{"android":"levelo://app?vid=3b87dcfb-1a59-4717-86a1-4f8b3263c521","ios":"levelo://app?vid=3b87dcfb-1a59-4717-86a1-4f8b3263c521"},"vehicle_type_id":"4","last_reported":1731280145,"current_range_meters":38800,"station_id":"ce4bh0p2rcd13ifvqd80","pricing_plan_id":"cebpf4jnsgd1na2vs0mg"},{"bike_id":"2cfd6c68-b0ed-4ae3-9fae-dfd166b591a0","system_id":"levelo_inurba_marseille","lat":43.30801,"lon":5.38137,"is_reserved":false,"is_disabled":false,"rental_uris":{"android":"levelo://app?vid=2cfd6c68-b0ed-4ae3-9fae-dfd166b591a0","ios":"levelo://app?vid=2cfd6c68-b0ed-4ae3-9fae-dfd166b591a0"},"vehicle_type_id":"4","last_reported":1731280145,"current_range_meters":20400,"station_id":"","pricing_plan_id":"cebpf4jnsgd1na2vs0mg"},{"bike_id":"932b5973-f5a0-40e3-bfe1-f20853ec25d5","system_id":"levelo_inurba_marseille","lat":43.31708,"lon":5.43681,"is_reserved":false,"is_disabled":false,"rental_uris":{"android":"levelo://app?vid=932b5973-f5a0-40e3-bfe1-f20853ec25d5","ios":"levelo://app?vid=932b5973-f5a0-40e3-bfe1-f20853ec25d5"},"vehicle_type_id":"4","last_reported":1731280145,"current_range_meters":38800,"station_id":"ce4bhp92rcd13ifvqhcg","pricing_plan_id":"cebpf4jnsgd1na2vs0mg"},{"bike_id":"d00a89cf-7850-41a3-a4e8-b8a440e30704","system_id":"levelo_inurba_marseille","lat":43.29673,"lon":5.37283,"is_reserved":false,"is_disabled":false,"rental_uris":{"android":"levelo://app?vid=d00a89cf-7850-41a3-a4e8-b8a440e30704","ios":"levelo://app?vid=d00a89cf-7850-41a3-a4e8-b8a440e30704"},"vehicle_type_id":"4","last_reported":1731280145,"current_range_meters":39200,"station_id":"ce4bgk12rcd13ifvqbj0","pricing_plan_id":"cebpf4jnsgd1na2vs0mg"},{"bike_id":"8b949a42-149c-4b95-8499-b2f5cd111d1a","system_id":"levelo_inurba_marseille","lat":43.32351,"lon":5.40627,"is_reserved":false,"is_disabled":false,"rental_uris":{"android":"levelo://app?vid=8b949a42-149c-4b95-8499-b2f5cd111d1a","ios":"levelo://app?vid=8b949a42-149c-4b95-8499-b2f5cd111d1a"},"vehicle_type_id":"4","last_reported":1731280145,"current_range_meters":8800,"station_id":"ce4bhq92rcd13ifvqhjg","pricing_plan_id":"cebpf4jnsgd1na2vs0mg"},{"bike_id":"721ffa07-5205-4352-bf52-79247567bace","system_id":"levelo_inurba_marseille","lat":43.24819,"lon":5.37461,"is_reserved":false,"is_disabled":false,"rental_uris":{"android":"levelo://app?vid=721ffa07-5205-4352-bf52-79247567bace","ios":"levelo://app?vid=721ffa07-5205-4352-bf52-79247567bace"},"vehicle_type_id":"4","last_reported":1731280145,"current_range_meters":38400,"station_id":"ce4bhgh2rcd13ifvqfb0","pricing_plan_id":"cebpf4jnsgd1na2vs0mg"},{"bike_id":"34a5fde8-445c-4f90-85a6-17329cc7b136","system_id":"levelo_inurba_marseille","lat":43.27674,"lon":5.38889,"is_reserved":false,"is_disabled":false,"rental_uris":{"android":"levelo://app?vid=34a5fde8-445c-4f90-85a6-17329cc7b136","ios":"levelo://app?vid=34a5fde8-445c-4f90-85a6-17329cc7b136"},"vehicle_type_id":"4","last_reported":1731280145,"current_range_meters":19200,"station_id":"ce4bhi12rcd13ifvqfo0","pricing_plan_id":"cebpf4jnsgd1na2vs0mg"},{"bike_id":"53842b0b-662f-45de-89f4-2ac07b1eadcf","system_id":"levelo_inurba_marseille","lat":43.28107,"lon":5.37838,"is_reserved":false,"is_disabled":false,"rental_uris":{"android":"levelo://app?vid=53842b0b-662f-45de-89f4-2ac07b1eadcf","ios":"levelo://app?vid=53842b0b-662f-45de-89f4-2ac07b1eadcf"},"vehicle_type_id":"4","last_reported":1731280145,"current_range_meters":22800,"station_id":"ce4bha12rcd13ifvqee0","pricing_plan_id":"cebpf4jnsgd1na2vs0mg"},{"bike_id":"1a2c9b95-65a9-4781-8632-0abb90bf3d26","system_id":"levelo_inurba_marseille","lat":43.27921,"lon":5.39569,"is_reserved":false,"is_disabled":false,"rental_uris":{"android":"levelo://app?vid=1a2c9b95-65a9-4781-8632-0abb90bf3d26","ios":"levelo://app?vid=1a2c9b95-65a9-4781-8632-0abb90bf3d26"},"vehicle_type_id":"4","last_reported":1731280145,"current_range_meters":38800,"station_id":"ce4bhf92rcd13ifvqf40","pricing_plan_id":"cebpf4jnsgd1na2vs0mg"},{"bike_id":"30e346e6-71d5-4935-973d-c9a61e3a2f99","system_id":"levelo_inurba_marseille","lat":43.30338,"lon":5.435,"is_reserved":false,"is_disabled":false,"rental_uris":{"android":"levelo://app?vid=30e346e6-71d5-4935-973d-c9a61e3a2f99","ios":"levelo://app?vid=30e346e6-71d5-4935-973d-c9a61e3a2f99"},"vehicle_type_id":"4","last_reported":1731280145,"current_range_meters":18000,"station_id":"","pricing_plan_id":"cebpf4jnsgd1na2vs0mg"},{"bike_id":"b101c052-f815-4d93-a3a9-fa872f005f65","system_id":"levelo_inurba_marseille","lat":43.30524,"lon":5.38431,"is_reserved":false,"is_disabled":false,"rental_uris":{"android":"levelo://app?vid=b101c052-f815-4d93-a3a9-fa872f005f65","ios":"levelo://app?vid=b101c052-f815-4d93-a3a9-fa872f005f65"},"vehicle_type_id":"4","last_reported":1731280145,"current_range_meters":38800,"station_id":"ce4bgg92rcd13ifvqb30","pricing_plan_id":"cebpf4jnsgd1na2vs0mg"},{"bike_id":"f3d00c04-ef69-40fc-a4d6-2239e4af165d","system_id":"levelo_inurba_marseille","lat":43.29059,"lon":5.35919,"is_reserved":false,"is_disabled":false,"rental_uris":{"android":"levelo://app?vid=f3d00c04-ef69-40fc-a4d6-2239e4af165d","ios":"levelo://app?vid=f3d00c04-ef69-40fc-a4d6-2239e4af165d"},"vehicle_type_id":"4","last_reported":1731280145,"current_range_meters":28400,"station_id":"ce4bha92rcd13ifvqeg0","pricing_plan_id":"cebpf4jnsgd1na2vs0mg"},{"bike_id":"8b98e6af-c3a0-4f14-9185-4db3640f02e5","system_id":"levelo_inurba_marseille","lat":43.28724,"lon":5.36075,"is_reserved":false,"is_disabled":false,"rental_uris":{"android":"levelo://app?vid=8b98e6af-c3a0-4f14-9185-4db3640f02e5","ios":"levelo://app?vid=8b98e6af-c3a0-4f14-9185-4db3640f02e5"},"vehicle_type_id":"4","last_reported":1731280145,"current_range_meters":22000,"station_id":"cki0cbj6b192h4jlfktg","pricing_plan_id":"cebpf4jnsgd1na2vs0mg"},{"bike_id":"3dd626aa-7825-416f-9060-064c2a579bce","system_id":"levelo_inurba_marseille","lat":43.26938,"lon":5.40236,"is_reserved":false,"is_disabled":false,"rental_uris":{"android":"levelo://app?vid=3dd626aa-7825-416f-9060-064c2a579bce","ios":"levelo://app?vid=3dd626aa-7825-416f-9060-064c2a579bce"},"vehicle_type_id":"4","last_reported":1731280145,"current_range_meters":6000,"station_id":"cjm6bp8fraef2m0cb0m0","pricing_plan_id":"cebpf4jnsgd1na2vs0mg"},{"bike_id":"c221efe7-efcb-49b8-a1b0-1dd8d171a453","system_id":"levelo_inurba_marseille","lat":43.337211,"lon":5.391945,"is_reserved":false,"is_disabled":false,"rental_uris":{"android":"levelo://app?vid=c221efe7-efcb-49b8-a1b0-1dd8d171a453","ios":"levelo://app?vid=c221efe7-efcb-49b8-a1b0-1dd8d171a453"},"vehicle_type_id":"4","last_reported":1731280145,"current_range_meters":38800,"station_id":"ce4bhr92rcd13ifvqhsg","pricing_plan_id":"cebpf4jnsgd1na2vs0mg"},{"bike_id":"b798777d-3520-45a5-a7f7-ea61f9eff27a","system_id":"levelo_inurba_marseille","lat":43.26058,"lon":5.39398,"is_reserved":false,"is_disabled":false,"rental_uris":{"android":"levelo://app?vid=b798777d-3520-45a5-a7f7-ea61f9eff27a","ios":"levelo://app?vid=b798777d-3520-45a5-a7f7-ea61f9eff27a"},"vehicle_type_id":"4","last_reported":1731280145,"current_range_meters":37600,"station_id":"ce4bhh92rcd13ifvqfj0","pricing_plan_id":"cebpf4jnsgd1na2vs0mg"},{"bike_id":"69b05dc1-5376-472f-a35d-b50c76a10800","system_id":"levelo_inurba_marseille","lat":43.24811,"lon":5.37458,"is_reserved":false,"is_disabled":false,"rental_uris":{"android":"levelo://app?vid=69b05dc1-5376-472f-a35d-b50c76a10800","ios":"levelo://app?vid=69b05dc1-5376-472f-a35d-b50c76a10800"},"vehicle_type_id":"4","last_reported":1731280145,"current_range_meters":38800,"station_id":"ce4bhgh2rcd13ifvqfb0","pricing_plan_id":"cebpf4jnsgd1na2vs0mg"},{"bike_id":"1bf2372b-a93d-4486-9e26-7b3eb15b2634","system_id":"levelo_inurba_marseille","lat":43.2481,"lon":5.37454,"is_reserved":false,"is_disabled":false,"rental_uris":{"android":"levelo://app?vid=1bf2372b-a93d-4486-9e26-7b3eb15b2634","ios":"levelo://app?vid=1bf2372b-a93d-4486-9e26-7b3eb15b2634"},"vehicle_type_id":"4","last_reported":1731280145,"current_range_meters":38800,"station_id":"ce4bhgh2rcd13ifvqfb0","pricing_plan_id":"cebpf4jnsgd1na2vs0mg"},{"bike_id":"0a1e1833-7109-4e98-a0b0-0b28aceee637","system_id":"levelo_inurba_marseille","lat":43.3032,"lon":5.40453,"is_reserved":false,"is_disabled":false,"rental_uris":{"android":"levelo://app?vid=0a1e1833-7109-4e98-a0b0-0b28aceee637","ios":"levelo://app?vid=0a1e1833-7109-4e98-a0b0-0b28aceee637"},"vehicle_type_id":"4","last_reported":1731280145,"current_range_meters":33600,"station_id":"ce4bh012rcd13ifvqd10","pricing_plan_id":"cebpf4jnsgd1na2vs0mg"},{"bike_id":"2fe64070-675b-46be-9d93-6c8ed825cc13","system_id":"levelo_inurba_marseille","lat":43.31322,"lon":5.39687,"is_reserved":false,"is_disabled":false,"rental_uris":{"android":"levelo://app?vid=2fe64070-675b-46be-9d93-6c8ed825cc13","ios":"levelo://app?vid=2fe64070-675b-46be-9d93-6c8ed825cc13"},"vehicle_type_id":"4","last_reported":1731280145,"current_range_meters":27200,"station_id":"ce4bgvp2rcd13ifvqcu0","pricing_plan_id":"cebpf4jnsgd1na2vs0mg"},{"bike_id":"a7f6b5f3-9a59-41ab-9a42-0d0662c6b9d4","system_id":"levelo_inurba_marseille","lat":43.28401,"lon":5.37511,"is_reserved":false,"is_disabled":false,"rental_uris":{"android":"levelo://app?vid=a7f6b5f3-9a59-41ab-9a42-0d0662c6b9d4","ios":"levelo://app?vid=a7f6b5f3-9a59-41ab-9a42-0d0662c6b9d4"},"vehicle_type_id":"4","last_reported":1731280145,"current_range_meters":24800,"station_id":"ce4bh412rcd13ifvqds0","pricing_plan_id":"cebpf4jnsgd1na2vs0mg"},{"bike_id":"39c32970-4883-47e5-a040-b84968286b69","system_id":"levelo_inurba_marseille","lat":43.29964,"lon":5.38502,"is_reserved":false,"is_disabled":false,"rental_uris":{"android":"levelo://app?vid=39c32970-4883-47e5-a040-b84968286b69","ios":"levelo://app?vid=39c32970-4883-47e5-a040-b84968286b69"},"vehicle_type_id":"4","last_reported":1731280145,"current_range_meters":36800,"station_id":"ce4bgj92rcd13ifvqbd0","pricing_plan_id":"cebpf4jnsgd1na2vs0mg"},{"bike_id":"1264fbec-4891-49d8-8db8-4f4ff8f5e1bc","system_id":"levelo_inurba_marseille","lat":43.30423,"lon":5.3888,"is_reserved":false,"is_disabled":false,"rental_uris":{"android":"levelo://app?vid=1264fbec-4891-49d8-8db8-4f4ff8f5e1bc","ios":"levelo://app?vid=1264fbec-4891-49d8-8db8-4f4ff8f5e1bc"},"vehicle_type_id":"4","last_reported":1731280145,"current_range_meters":18000,"station_id":"ce4bgk12rcd13ifvqbi0","pricing_plan_id":"cebpf4jnsgd1na2vs0mg"},{"bike_id":"1b801f9e-f843-4459-baf9-f66996adf626","system_id":"levelo_inurba_marseille","lat":43.32364,"lon":5.38873,"is_reserved":false,"is_disabled":false,"rental_uris":{"android":"levelo://app?vid=1b801f9e-f843-4459-baf9-f66996adf626","ios":"levelo://app?vid=1b801f9e-f843-4459-baf9-f66996adf626"},"vehicle_type_id":"4","last_reported":1731280145,"current_range_meters":22000,"station_id":"ce4bhqp2rcd13ifvqhog","pricing_plan_id":"cebpf4jnsgd1na2vs0mg"},{"bike_id":"7af290b5-4f02-4d68-a409-1926bb9b3690","system_id":"levelo_inurba_marseille","lat":43.29601,"lon":5.38104,"is_reserved":false,"is_disabled":false,"rental_uris":{"android":"levelo://app?vid=7af290b5-4f02-4d68-a409-1926bb9b3690","ios":"levelo://app?vid=7af290b5-4f02-4d68-a409-1926bb9b3690"},"vehicle_type_id":"4","last_reported":1731280145,"current_range_meters":38400,"station_id":"ce4bgl12rcd13ifvqbo0","pricing_plan_id":"cebpf4jnsgd1na2vs0mg"},{"bike_id":"2972f759-c98e-4fe7-9758-85d215895273","system_id":"levelo_inurba_marseille","lat":43.23962,"lon":5.36633,"is_reserved":false,"is_disabled":false,"rental_uris":{"android":"levelo://app?vid=2972f759-c98e-4fe7-9758-85d215895273","ios":"levelo://app?vid=2972f759-c98e-4fe7-9758-85d215895273"},"vehicle_type_id":"4","last_reported":1731280145,"current_range_meters":34000,"station_id":"ce4bhi12rcd13ifvqfp0","pricing_plan_id":"cebpf4jnsgd1na2vs0mg"},{"bike_id":"e760937c-84fb-45b7-a500-463bd870cd74","system_id":"levelo_inurba_marseille","lat":43.28716,"lon":5.3795,"is_reserved":false,"is_disabled":false,"rental_uris":{"android":"levelo://app?vid=e760937c-84fb-45b7-a500-463bd870cd74","ios":"levelo://app?vid=e760937c-84fb-45b7-a500-463bd870cd74"},"vehicle_type_id":"4","last_reported":1731280145,"current_range_meters":26000,"station_id":"ce4bh9p2rcd13ifvqec0","pricing_plan_id":"cebpf4jnsgd1na2vs0mg"},{"bike_id":"baa90d39-bfcd-4ae6-b1bc-af8ca276b86b","system_id":"levelo_inurba_marseille","lat":43.32482,"lon":5.36561,"is_reserved":false,"is_disabled":false,"rental_uris":{"android":"levelo://app?vid=baa90d39-bfcd-4ae6-b1bc-af8ca276b86b","ios":"levelo://app?vid=baa90d39-bfcd-4ae6-b1bc-af8ca276b86b"},"vehicle_type_id":"4","last_reported":1731280145,"current_range_meters":37600,"station_id":"ce4bhs12rcd13ifvqhvg","pricing_plan_id":"cebpf4jnsgd1na2vs0mg"},{"bike_id":"4769bc6f-dec8-41e8-9b0a-570d8bc7583c","system_id":"levelo_inurba_marseille","lat":43.31352,"lon":5.36729,"is_reserved":false,"is_disabled":false,"rental_uris":{"android":"levelo://app?vid=4769bc6f-dec8-41e8-9b0a-570d8bc7583c","ios":"levelo://app?vid=4769bc6f-dec8-41e8-9b0a-570d8bc7583c"},"vehicle_type_id":"4","last_reported":1731280145,"current_range_meters":4400,"station_id":"ce4bgr92rcd13ifvqc6g","pricing_plan_id":"cebpf4jnsgd1na2vs0mg"},{"bike_id":"9330ba64-e8ac-48b5-95c4-35c2d0e50f70","system_id":"levelo_inurba_marseille","lat":43.25116,"lon":5.40319,"is_reserved":false,"is_disabled":false,"rental_uris":{"android":"levelo://app?vid=9330ba64-e8ac-48b5-95c4-35c2d0e50f70","ios":"levelo://app?vid=9330ba64-e8ac-48b5-95c4-35c2d0e50f70"},"vehicle_type_id":"4","last_reported":1731280145,"current_range_meters":28000,"station_id":"ce4bhlh2rcd13ifvqgig","pricing_plan_id":"cebpf4jnsgd1na2vs0mg"},{"bike_id":"0b0a755d-c63f-4ec7-9494-303c23789b84","system_id":"levelo_inurba_marseille","lat":43.31165,"lon":5.38718,"is_reserved":false,"is_disabled":false,"rental_uris":{"android":"levelo://app?vid=0b0a755d-c63f-4ec7-9494-303c23789b84","ios":"levelo://app?vid=0b0a755d-c63f-4ec7-9494-303c23789b84"},"vehicle_type_id":"4","last_reported":1731280145,"current_range_meters":28800,"station_id":"ce4bgv12rcd13ifvqcp0","pricing_plan_id":"cebpf4jnsgd1na2vs0mg"},{"bike_id":"f0810896-1e05-418a-bfdf-2350a695cef6","system_id":"levelo_inurba_marseille","lat":43.27612,"lon":5.36103,"is_reserved":false,"is_disabled":false,"rental_uris":{"android":"levelo://app?vid=f0810896-1e05-418a-bfdf-2350a695cef6","ios":"levelo://app?vid=f0810896-1e05-418a-bfdf-2350a695cef6"},"vehicle_type_id":"4","last_reported":1731280145,"current_range_meters":3600,"station_id":"ce4bgj92rcd13ifvqbe0","pricing_plan_id":"cebpf4jnsgd1na2vs0mg"},{"bike_id":"10dbd38b-1598-4db5-82f8-224c526f7a15","system_id":"levelo_inurba_marseille","lat":43.31063,"lon":5.3835,"is_reserved":false,"is_disabled":false,"rental_uris":{"android":"levelo://app?vid=10dbd38b-1598-4db5-82f8-224c526f7a15","ios":"levelo://app?vid=10dbd38b-1598-4db5-82f8-224c526f7a15"},"vehicle_type_id":"4","last_reported":1731280145,"current_range_meters":23200,"station_id":"ce4bgv92rcd13ifvqcr0","pricing_plan_id":"cebpf4jnsgd1na2vs0mg"},{"bike_id":"c1d89d11-8432-48ef-a9ae-d4a0161d4d7f","system_id":"levelo_inurba_marseille","lat":43.30606,"lon":5.37238,"is_reserved":false,"is_disabled":false,"rental_uris":{"android":"levelo://app?vid=c1d89d11-8432-48ef-a9ae-d4a0161d4d7f","ios":"levelo://app?vid=c1d89d11-8432-48ef-a9ae-d4a0161d4d7f"},"vehicle_type_id":"4","last_reported":1731280145,"current_range_meters":38800,"station_id":"ce4bgqh2rcd13ifvqc4g","pricing_plan_id":"cebpf4jnsgd1na2vs0mg"},{"bike_id":"b48c52a9-7fcd-4530-afe3-d36407912ee6","system_id":"levelo_inurba_marseille","lat":43.2938,"lon":5.37857,"is_reserved":false,"is_disabled":false,"rental_uris":{"android":"levelo://app?vid=b48c52a9-7fcd-4530-afe3-d36407912ee6","ios":"levelo://app?vid=b48c52a9-7fcd-4530-afe3-d36407912ee6"},"vehicle_type_id":"4","last_reported":1731280145,"current_range_meters":37600,"station_id":"ce4bgjh2rcd13ifvqbf0","pricing_plan_id":"cebpf4jnsgd1na2vs0mg"},{"bike_id":"73ea8c1e-fe4d-4c2d-9439-97425d5c2202","system_id":"levelo_inurba_marseille","lat":43.3019,"lon":5.36626,"is_reserved":false,"is_disabled":false,"rental_uris":{"android":"levelo://app?vid=73ea8c1e-fe4d-4c2d-9439-97425d5c2202","ios":"levelo://app?vid=73ea8c1e-fe4d-4c2d-9439-97425d5c2202"},"vehicle_type_id":"4","last_reported":1731280145,"current_range_meters":34000,"station_id":"ce4bgrh2rcd13ifvqc8g","pricing_plan_id":"cebpf4jnsgd1na2vs0mg"},{"bike_id":"1a981603-4cfd-4ee0-ab63-1a1a4edc7ebf","system_id":"levelo_inurba_marseille","lat":43.29066,"lon":5.37163,"is_reserved":false,"is_disabled":false,"rental_uris":{"android":"levelo://app?vid=1a981603-4cfd-4ee0-ab63-1a1a4edc7ebf","ios":"levelo://app?vid=1a981603-4cfd-4ee0-ab63-1a1a4edc7ebf"},"vehicle_type_id":"4","last_reported":1731280145,"current_range_meters":34000,"station_id":"ce4bh5p2rcd13ifvqe4g","pricing_plan_id":"cebpf4jnsgd1na2vs0mg"},{"bike_id":"f5e15a2f-e8a2-4d92-b750-56640dcc1ec0","system_id":"levelo_inurba_marseille","lat":43.33025,"lon":5.39041,"is_reserved":false,"is_disabled":false,"rental_uris":{"android":"levelo://app?vid=f5e15a2f-e8a2-4d92-b750-56640dcc1ec0","ios":"levelo://app?vid=f5e15a2f-e8a2-4d92-b750-56640dcc1ec0"},"vehicle_type_id":"4","last_reported":1731280145,"current_range_meters":23200,"station_id":"ce4bhr92rcd13ifvqhrg","pricing_plan_id":"cebpf4jnsgd1na2vs0mg"},{"bike_id":"6deed7fe-25aa-4a72-8660-218b582d3481","system_id":"levelo_inurba_marseille","lat":43.28944,"lon":5.36645,"is_reserved":false,"is_disabled":false,"rental_uris":{"android":"levelo://app?vid=6deed7fe-25aa-4a72-8660-218b582d3481","ios":"levelo://app?vid=6deed7fe-25aa-4a72-8660-218b582d3481"},"vehicle_type_id":"4","last_reported":1731280145,"current_range_meters":38800,"station_id":"ce4bhap2rcd13ifvqek0","pricing_plan_id":"cebpf4jnsgd1na2vs0mg"},{"bike_id":"c3d64d8b-5404-496b-83b4-e5beb18492b7","system_id":"levelo_inurba_marseille","lat":43.28406,"lon":5.37506,"is_reserved":false,"is_disabled":false,"rental_uris":{"android":"levelo://app?vid=c3d64d8b-5404-496b-83b4-e5beb18492b7","ios":"levelo://app?vid=c3d64d8b-5404-496b-83b4-e5beb18492b7"},"vehicle_type_id":"4","last_reported":1731280145,"current_range_meters":35600,"station_id":"ce4bh412rcd13ifvqds0","pricing_plan_id":"cebpf4jnsgd1na2vs0mg"},{"bike_id":"b9478b1d-79e3-44c9-ae60-496dd5151f62","system_id":"levelo_inurba_marseille","lat":43.29167,"lon":5.37146,"is_reserved":false,"is_disabled":false,"rental_uris":{"android":"levelo://app?vid=b9478b1d-79e3-44c9-ae60-496dd5151f62","ios":"levelo://app?vid=b9478b1d-79e3-44c9-ae60-496dd5151f62"},"vehicle_type_id":"4","last_reported":1731280145,"current_range_meters":28800,"station_id":"ce4bha92rcd13ifvqeh0","pricing_plan_id":"cebpf4jnsgd1na2vs0mg"},{"bike_id":"eb7f2906-b458-476c-9daa-9e60c1ee4455","system_id":"levelo_inurba_marseille","lat":43.28159,"lon":5.42646,"is_reserved":false,"is_disabled":false,"rental_uris":{"android":"levelo://app?vid=eb7f2906-b458-476c-9daa-9e60c1ee4455","ios":"levelo://app?vid=eb7f2906-b458-476c-9daa-9e60c1ee4455"},"vehicle_type_id":"4","last_reported":1731280145,"current_range_meters":3200,"station_id":"ce4bhnh2rcd13ifvqgug","pricing_plan_id":"cebpf4jnsgd1na2vs0mg"},{"bike_id":"eac51d77-7bf7-43cd-96f4-7bf37e90a22d","system_id":"levelo_inurba_marseille","lat":43.32112,"lon":5.36777,"is_reserved":false,"is_disabled":false,"rental_uris":{"android":"levelo://app?vid=eac51d77-7bf7-43cd-96f4-7bf37e90a22d","ios":"levelo://app?vid=eac51d77-7bf7-43cd-96f4-7bf37e90a22d"},"vehicle_type_id":"4","last_reported":1731280145,"current_range_meters":6800,"station_id":"ce4bhrh2rcd13ifvqhug","pricing_plan_id":"cebpf4jnsgd1na2vs0mg"},{"bike_id":"84df8a4e-d3e6-4a17-8ecb-051d12ecab6d","system_id":"levelo_inurba_marseille","lat":43.29792,"lon":5.38105,"is_reserved":false,"is_disabled":false,"rental_uris":{"android":"levelo://app?vid=84df8a4e-d3e6-4a17-8ecb-051d12ecab6d","ios":"levelo://app?vid=84df8a4e-d3e6-4a17-8ecb-051d12ecab6d"},"vehicle_type_id":"4","last_reported":1731280145,"current_range_meters":37600,"station_id":"ce4bgip2rcd13ifvqbb0","pricing_plan_id":"cebpf4jnsgd1na2vs0mg"},{"bike_id":"606120ec-c12c-47f4-b7e9-0220feacd55e","system_id":"levelo_inurba_marseille","lat":43.25872,"lon":5.39903,"is_reserved":false,"is_disabled":false,"rental_uris":{"android":"levelo://app?vid=606120ec-c12c-47f4-b7e9-0220feacd55e","ios":"levelo://app?vid=606120ec-c12c-47f4-b7e9-0220feacd55e"},"vehicle_type_id":"4","last_reported":1731280145,"current_range_meters":38800,"station_id":"ce4bhl92rcd13ifvqghg","pricing_plan_id":"cebpf4jnsgd1na2vs0mg"},{"bike_id":"aca662e6-24f7-47bc-aa22-fb5ff3596686","system_id":"levelo_inurba_marseille","lat":43.288513,"lon":5.38442,"is_reserved":false,"is_disabled":false,"rental_uris":{"android":"levelo://app?vid=aca662e6-24f7-47bc-aa22-fb5ff3596686","ios":"levelo://app?vid=aca662e6-24f7-47bc-aa22-fb5ff3596686"},"vehicle_type_id":"4","last_reported":1731280145,"current_range_meters":9600,"station_id":"ce4bh612rcd13ifvqe6g","pricing_plan_id":"cebpf4jnsgd1na2vs0mg"},{"bike_id":"f32c9343-b753-4b4c-9313-033fb01441d1","system_id":"levelo_inurba_marseille","lat":43.29765,"lon":5.37813,"is_reserved":false,"is_disabled":false,"rental_uris":{"android":"levelo://app?vid=f32c9343-b753-4b4c-9313-033fb01441d1","ios":"levelo://app?vid=f32c9343-b753-4b4c-9313-033fb01441d1"},"vehicle_type_id":"4","last_reported":1731280145,"current_range_meters":18800,"station_id":"","pricing_plan_id":"cebpf4jnsgd1na2vs0mg"},{"bike_id":"33285ff8-d72b-41c2-9cba-25a4b7e6e9b5","system_id":"levelo_inurba_marseille","lat":43.29633,"lon":5.40604,"is_reserved":false,"is_disabled":false,"rental_uris":{"android":"levelo://app?vid=33285ff8-d72b-41c2-9cba-25a4b7e6e9b5","ios":"levelo://app?vid=33285ff8-d72b-41c2-9cba-25a4b7e6e9b5"},"vehicle_type_id":"4","last_reported":1731280145,"current_range_meters":35600,"station_id":"ce4bh0h2rcd13ifvqd60","pricing_plan_id":"cebpf4jnsgd1na2vs0mg"},{"bike_id":"c853d64b-97bb-4172-a6fa-f2cf9b1d8cd6","system_id":"levelo_inurba_marseille","lat":43.30425,"lon":5.39758,"is_reserved":false,"is_disabled":false,"rental_uris":{"android":"levelo://app?vid=c853d64b-97bb-4172-a6fa-f2cf9b1d8cd6","ios":"levelo://app?vid=c853d64b-97bb-4172-a6fa-f2cf9b1d8cd6"},"vehicle_type_id":"4","last_reported":1731280145,"current_range_meters":32400,"station_id":"ce4bh092rcd13ifvqd20","pricing_plan_id":"cebpf4jnsgd1na2vs0mg"},{"bike_id":"a8411e45-d741-49af-bae3-6b83ebf0b203","system_id":"levelo_inurba_marseille","lat":43.27498,"lon":5.42446,"is_reserved":false,"is_disabled":false,"rental_uris":{"android":"levelo://app?vid=a8411e45-d741-49af-bae3-6b83ebf0b203","ios":"levelo://app?vid=a8411e45-d741-49af-bae3-6b83ebf0b203"},"vehicle_type_id":"4","last_reported":1731280145,"current_range_meters":33600,"station_id":"ce4bhn92rcd13ifvqgrg","pricing_plan_id":"cebpf4jnsgd1na2vs0mg"},{"bike_id":"84032cfd-f507-4ffb-bfcd-2961831b6f3d","system_id":"levelo_inurba_marseille","lat":43.28718,"lon":5.37934,"is_reserved":false,"is_disabled":false,"rental_uris":{"android":"levelo://app?vid=84032cfd-f507-4ffb-bfcd-2961831b6f3d","ios":"levelo://app?vid=84032cfd-f507-4ffb-bfcd-2961831b6f3d"},"vehicle_type_id":"4","last_reported":1731280145,"current_range_meters":33600,"station_id":"ce4bh9p2rcd13ifvqec0","pricing_plan_id":"cebpf4jnsgd1na2vs0mg"},{"bike_id":"489b672c-9f71-4c7e-abe4-e6dc15515dd7","system_id":"levelo_inurba_marseille","lat":43.31327,"lon":5.39689,"is_reserved":false,"is_disabled":false,"rental_uris":{"android":"levelo://app?vid=489b672c-9f71-4c7e-abe4-e6dc15515dd7","ios":"levelo://app?vid=489b672c-9f71-4c7e-abe4-e6dc15515dd7"},"vehicle_type_id":"4","last_reported":1731280145,"current_range_meters":34000,"station_id":"ce4bgvp2rcd13ifvqcu0","pricing_plan_id":"cebpf4jnsgd1na2vs0mg"},{"bike_id":"4f18220a-531a-4283-a4c6-9412f70c1e0d","system_id":"levelo_inurba_marseille","lat":43.2954,"lon":5.39026,"is_reserved":false,"is_disabled":false,"rental_uris":{"android":"levelo://app?vid=4f18220a-531a-4283-a4c6-9412f70c1e0d","ios":"levelo://app?vid=4f18220a-531a-4283-a4c6-9412f70c1e0d"},"vehicle_type_id":"4","last_reported":1731280145,"current_range_meters":38800,"station_id":"ce4bh3p2rcd13ifvqdp0","pricing_plan_id":"cebpf4jnsgd1na2vs0mg"},{"bike_id":"465ef657-63c6-4af2-8920-28c4dcb4d943","system_id":"levelo_inurba_marseille","lat":43.29038,"lon":5.39948,"is_reserved":false,"is_disabled":false,"rental_uris":{"android":"levelo://app?vid=465ef657-63c6-4af2-8920-28c4dcb4d943","ios":"levelo://app?vid=465ef657-63c6-4af2-8920-28c4dcb4d943"},"vehicle_type_id":"4","last_reported":1731280145,"current_range_meters":39200,"station_id":"ce4bh392rcd13ifvqdm0","pricing_plan_id":"cebpf4jnsgd1na2vs0mg"},{"bike_id":"63d7048d-abab-4c3f-ab4b-2279844d411e","system_id":"levelo_inurba_marseille","lat":43.31488,"lon":5.37307,"is_reserved":false,"is_disabled":false,"rental_uris":{"android":"levelo://app?vid=63d7048d-abab-4c3f-ab4b-2279844d411e","ios":"levelo://app?vid=63d7048d-abab-4c3f-ab4b-2279844d411e"},"vehicle_type_id":"4","last_reported":1731280145,"current_range_meters":38800,"station_id":"ce4bgt12rcd13ifvqcd0","pricing_plan_id":"cebpf4jnsgd1na2vs0mg"},{"bike_id":"97fb481e-7be5-46fe-981c-b0df8503a47a","system_id":"levelo_inurba_marseille","lat":43.29284,"lon":5.40147,"is_reserved":false,"is_disabled":false,"rental_uris":{"android":"levelo://app?vid=97fb481e-7be5-46fe-981c-b0df8503a47a","ios":"levelo://app?vid=97fb481e-7be5-46fe-981c-b0df8503a47a"},"vehicle_type_id":"4","last_reported":1731280145,"current_range_meters":38400,"station_id":"ce4bh312rcd13ifvqdk0","pricing_plan_id":"cebpf4jnsgd1na2vs0mg"},{"bike_id":"85e2f4f3-6aa2-4c02-8cb0-3f10017cc61a","system_id":"levelo_inurba_marseille","lat":43.25085,"lon":5.395146,"is_reserved":false,"is_disabled":false,"rental_uris":{"android":"levelo://app?vid=85e2f4f3-6aa2-4c02-8cb0-3f10017cc61a","ios":"levelo://app?vid=85e2f4f3-6aa2-4c02-8cb0-3f10017cc61a"},"vehicle_type_id":"4","last_reported":1731280145,"current_range_meters":38800,"station_id":"ce4bhm12rcd13ifvqgkg","pricing_plan_id":"cebpf4jnsgd1na2vs0mg"},{"bike_id":"010f34fa-5fe4-441f-a433-65d10dd050db","system_id":"levelo_inurba_marseille","lat":43.29554,"lon":5.4229,"is_reserved":false,"is_disabled":false,"rental_uris":{"android":"levelo://app?vid=010f34fa-5fe4-441f-a433-65d10dd050db","ios":"levelo://app?vid=010f34fa-5fe4-441f-a433-65d10dd050db"},"vehicle_type_id":"4","last_reported":1731280145,"current_range_meters":37600,"station_id":"ce4bhph2rcd13ifvqhdg","pricing_plan_id":"cebpf4jnsgd1na2vs0mg"},{"bike_id":"66aad50d-29b7-4c87-a666-47475f7dc35f","system_id":"levelo_inurba_marseille","lat":43.30787,"lon":5.37652,"is_reserved":false,"is_disabled":false,"rental_uris":{"android":"levelo://app?vid=66aad50d-29b7-4c87-a666-47475f7dc35f","ios":"levelo://app?vid=66aad50d-29b7-4c87-a666-47475f7dc35f"},"vehicle_type_id":"4","last_reported":1731280145,"current_range_meters":40000,"station_id":"ce4bgv92rcd13ifvqcq0","pricing_plan_id":"cebpf4jnsgd1na2vs0mg"},{"bike_id":"02e5dafe-fcef-4405-9cf5-47651341713d","system_id":"levelo_inurba_marseille","lat":43.24171,"lon":5.36395,"is_reserved":false,"is_disabled":false,"rental_uris":{"android":"levelo://app?vid=02e5dafe-fcef-4405-9cf5-47651341713d","ios":"levelo://app?vid=02e5dafe-fcef-4405-9cf5-47651341713d"},"vehicle_type_id":"4","last_reported":1731280145,"current_range_meters":6800,"station_id":"cpo36qri1sfpv3e86is0","pricing_plan_id":"cebpf4jnsgd1na2vs0mg"},{"bike_id":"8993c22b-262e-40d3-81a6-0c0dc6b7edf7","system_id":"levelo_inurba_marseille","lat":43.28934,"lon":5.36631,"is_reserved":false,"is_disabled":false,"rental_uris":{"android":"levelo://app?vid=8993c22b-262e-40d3-81a6-0c0dc6b7edf7","ios":"levelo://app?vid=8993c22b-262e-40d3-81a6-0c0dc6b7edf7"},"vehicle_type_id":"4","last_reported":1731280145,"current_range_meters":38400,"station_id":"ce4bhap2rcd13ifvqek0","pricing_plan_id":"cebpf4jnsgd1na2vs0mg"},{"bike_id":"f8cfdd82-8d04-4431-ab55-2f120a65a0f5","system_id":"levelo_inurba_marseille","lat":43.29876,"lon":5.39721,"is_reserved":false,"is_disabled":false,"rental_uris":{"android":"levelo://app?vid=f8cfdd82-8d04-4431-ab55-2f120a65a0f5","ios":"levelo://app?vid=f8cfdd82-8d04-4431-ab55-2f120a65a0f5"},"vehicle_type_id":"4","last_reported":1731280145,"current_range_meters":28000,"station_id":"ce4bh0h2rcd13ifvqd50","pricing_plan_id":"cebpf4jnsgd1na2vs0mg"},{"bike_id":"cbbf72bb-7106-410a-baec-4c97b8ecaa3c","system_id":"levelo_inurba_marseille","lat":43.31531,"lon":5.37305,"is_reserved":false,"is_disabled":false,"rental_uris":{"android":"levelo://app?vid=cbbf72bb-7106-410a-baec-4c97b8ecaa3c","ios":"levelo://app?vid=cbbf72bb-7106-410a-baec-4c97b8ecaa3c"},"vehicle_type_id":"4","last_reported":1731280145,"current_range_meters":38800,"station_id":"","pricing_plan_id":"cebpf4jnsgd1na2vs0mg"},{"bike_id":"29474779-dc90-4ba2-b48c-911f6e0c5c08","system_id":"levelo_inurba_marseille","lat":43.30433,"lon":5.38887,"is_reserved":false,"is_disabled":false,"rental_uris":{"android":"levelo://app?vid=29474779-dc90-4ba2-b48c-911f6e0c5c08","ios":"levelo://app?vid=29474779-dc90-4ba2-b48c-911f6e0c5c08"},"vehicle_type_id":"4","last_reported":1731280145,"current_range_meters":18800,"station_id":"ce4bgk12rcd13ifvqbi0","pricing_plan_id":"cebpf4jnsgd1na2vs0mg"},{"bike_id":"47c8651c-41a7-4b07-b3d0-de53e215e982","system_id":"levelo_inurba_marseille","lat":43.33602,"lon":5.41029,"is_reserved":false,"is_disabled":false,"rental_uris":{"android":"levelo://app?vid=47c8651c-41a7-4b07-b3d0-de53e215e982","ios":"levelo://app?vid=47c8651c-41a7-4b07-b3d0-de53e215e982"},"vehicle_type_id":"4","last_reported":1731280145,"current_range_meters":15200,"station_id":"ce4bhqh2rcd13ifvqhmg","pricing_plan_id":"cebpf4jnsgd1na2vs0mg"},{"bike_id":"8bac9053-3887-4a8c-beaf-c9a3ca84e1f9","system_id":"levelo_inurba_marseille","lat":43.29911,"lon":5.37439,"is_reserved":false,"is_disabled":false,"rental_uris":{"android":"levelo://app?vid=8bac9053-3887-4a8c-beaf-c9a3ca84e1f9","ios":"levelo://app?vid=8bac9053-3887-4a8c-beaf-c9a3ca84e1f9"},"vehicle_type_id":"4","last_reported":1731280145,"current_range_meters":37600,"station_id":"ce4bgjh2rcd13ifvqbg0","pricing_plan_id":"cebpf4jnsgd1na2vs0mg"},{"bike_id":"7c4f5f1c-61d2-4950-845d-ba73306a290c","system_id":"levelo_inurba_marseille","lat":43.284672,"lon":5.358838,"is_reserved":false,"is_disabled":false,"rental_uris":{"android":"levelo://app?vid=7c4f5f1c-61d2-4950-845d-ba73306a290c","ios":"levelo://app?vid=7c4f5f1c-61d2-4950-845d-ba73306a290c"},"vehicle_type_id":"4","last_reported":1731280145,"current_range_meters":25200,"station_id":"ce4bhah2rcd13ifvqei0","pricing_plan_id":"cebpf4jnsgd1na2vs0mg"},{"bike_id":"13ffe9c4-6949-472d-af45-8d12943493b7","system_id":"levelo_inurba_marseille","lat":43.2466,"lon":5.3816,"is_reserved":false,"is_disabled":false,"rental_uris":{"android":"levelo://app?vid=13ffe9c4-6949-472d-af45-8d12943493b7","ios":"levelo://app?vid=13ffe9c4-6949-472d-af45-8d12943493b7"},"vehicle_type_id":"4","last_reported":1731280145,"current_range_meters":9200,"station_id":"ce4bhih2rcd13ifvqfr0","pricing_plan_id":"cebpf4jnsgd1na2vs0mg"},{"bike_id":"61ebae1e-7e43-4156-bc77-b929042392dc","system_id":"levelo_inurba_marseille","lat":43.2917,"lon":5.371454,"is_reserved":false,"is_disabled":false,"rental_uris":{"android":"levelo://app?vid=61ebae1e-7e43-4156-bc77-b929042392dc","ios":"levelo://app?vid=61ebae1e-7e43-4156-bc77-b929042392dc"},"vehicle_type_id":"4","last_reported":1731280145,"current_range_meters":36800,"station_id":"ce4bha92rcd13ifvqeh0","pricing_plan_id":"cebpf4jnsgd1na2vs0mg"},{"bike_id":"88d3f98d-5593-457e-b86b-279db7794a34","system_id":"levelo_inurba_marseille","lat":43.3303,"lon":5.39053,"is_reserved":false,"is_disabled":false,"rental_uris":{"android":"levelo://app?vid=88d3f98d-5593-457e-b86b-279db7794a34","ios":"levelo://app?vid=88d3f98d-5593-457e-b86b-279db7794a34"},"vehicle_type_id":"4","last_reported":1731280145,"current_range_meters":39200,"station_id":"ce4bhr92rcd13ifvqhrg","pricing_plan_id":"cebpf4jnsgd1na2vs0mg"},{"bike_id":"41ed6bb9-c2dc-4fdb-81de-0d1d0083b405","system_id":"levelo_inurba_marseille","lat":43.27315,"lon":5.39091,"is_reserved":false,"is_disabled":false,"rental_uris":{"android":"levelo://app?vid=41ed6bb9-c2dc-4fdb-81de-0d1d0083b405","ios":"levelo://app?vid=41ed6bb9-c2dc-4fdb-81de-0d1d0083b405"},"vehicle_type_id":"4","last_reported":1731280145,"current_range_meters":38800,"station_id":"ce4bhgp2rcd13ifvqfe0","pricing_plan_id":"cebpf4jnsgd1na2vs0mg"},{"bike_id":"25f2aab5-1c14-47cc-acc5-4aeebede3bf6","system_id":"levelo_inurba_marseille","lat":43.29257,"lon":5.40908,"is_reserved":false,"is_disabled":false,"rental_uris":{"android":"levelo://app?vid=25f2aab5-1c14-47cc-acc5-4aeebede3bf6","ios":"levelo://app?vid=25f2aab5-1c14-47cc-acc5-4aeebede3bf6"},"vehicle_type_id":"4","last_reported":1731280145,"current_range_meters":32800,"station_id":"ce4bh192rcd13ifvqdc0","pricing_plan_id":"cebpf4jnsgd1na2vs0mg"},{"bike_id":"570767d8-8f8d-4328-aad0-7cdaaec542ec","system_id":"levelo_inurba_marseille","lat":43.2906,"lon":5.37151,"is_reserved":false,"is_disabled":false,"rental_uris":{"android":"levelo://app?vid=570767d8-8f8d-4328-aad0-7cdaaec542ec","ios":"levelo://app?vid=570767d8-8f8d-4328-aad0-7cdaaec542ec"},"vehicle_type_id":"4","last_reported":1731280145,"current_range_meters":28800,"station_id":"ce4bh5p2rcd13ifvqe4g","pricing_plan_id":"cebpf4jnsgd1na2vs0mg"},{"bike_id":"1ee9f643-eb82-4de4-8408-716174a84576","system_id":"levelo_inurba_marseille","lat":43.31076,"lon":5.3835,"is_reserved":false,"is_disabled":false,"rental_uris":{"android":"levelo://app?vid=1ee9f643-eb82-4de4-8408-716174a84576","ios":"levelo://app?vid=1ee9f643-eb82-4de4-8408-716174a84576"},"vehicle_type_id":"4","last_reported":1731280145,"current_range_meters":23200,"station_id":"ce4bgv92rcd13ifvqcr0","pricing_plan_id":"cebpf4jnsgd1na2vs0mg"},{"bike_id":"b8cdbc72-fb69-4a3a-8350-1fcbc7da926b","system_id":"levelo_inurba_marseille","lat":43.25871,"lon":5.39901,"is_reserved":false,"is_disabled":false,"rental_uris":{"android":"levelo://app?vid=b8cdbc72-fb69-4a3a-8350-1fcbc7da926b","ios":"levelo://app?vid=b8cdbc72-fb69-4a3a-8350-1fcbc7da926b"},"vehicle_type_id":"4","last_reported":1731280145,"current_range_meters":38800,"station_id":"ce4bhl92rcd13ifvqghg","pricing_plan_id":"cebpf4jnsgd1na2vs0mg"},{"bike_id":"ca6bc757-afb2-47ae-8348-d50290e625d2","system_id":"levelo_inurba_marseille","lat":43.24811,"lon":5.37462,"is_reserved":false,"is_disabled":false,"rental_uris":{"android":"levelo://app?vid=ca6bc757-afb2-47ae-8348-d50290e625d2","ios":"levelo://app?vid=ca6bc757-afb2-47ae-8348-d50290e625d2"},"vehicle_type_id":"4","last_reported":1731280145,"current_range_meters":32800,"station_id":"ce4bhgh2rcd13ifvqfb0","pricing_plan_id":"cebpf4jnsgd1na2vs0mg"},{"bike_id":"da77c34d-7889-4891-a3fb-3bbc62c64651","system_id":"levelo_inurba_marseille","lat":43.25112,"lon":5.40328,"is_reserved":false,"is_disabled":false,"rental_uris":{"android":"levelo://app?vid=da77c34d-7889-4891-a3fb-3bbc62c64651","ios":"levelo://app?vid=da77c34d-7889-4891-a3fb-3bbc62c64651"},"vehicle_type_id":"4","last_reported":1731280145,"current_range_meters":8400,"station_id":"ce4bhlh2rcd13ifvqgig","pricing_plan_id":"cebpf4jnsgd1na2vs0mg"},{"bike_id":"7c0cb028-e14a-4ce8-9521-fd167b9559e4","system_id":"levelo_inurba_marseille","lat":43.29257,"lon":5.40917,"is_reserved":false,"is_disabled":false,"rental_uris":{"android":"levelo://app?vid=7c0cb028-e14a-4ce8-9521-fd167b9559e4","ios":"levelo://app?vid=7c0cb028-e14a-4ce8-9521-fd167b9559e4"},"vehicle_type_id":"4","last_reported":1731280145,"current_range_meters":29600,"station_id":"ce4bh192rcd13ifvqdc0","pricing_plan_id":"cebpf4jnsgd1na2vs0mg"},{"bike_id":"e50300dd-a5fd-457f-bdfb-d648184a3057","system_id":"levelo_inurba_marseille","lat":43.30429,"lon":5.38883,"is_reserved":false,"is_disabled":false,"rental_uris":{"android":"levelo://app?vid=e50300dd-a5fd-457f-bdfb-d648184a3057","ios":"levelo://app?vid=e50300dd-a5fd-457f-bdfb-d648184a3057"},"vehicle_type_id":"4","last_reported":1731280145,"current_range_meters":32800,"station_id":"ce4bgk12rcd13ifvqbi0","pricing_plan_id":"cebpf4jnsgd1na2vs0mg"},{"bike_id":"c248e6ea-a25f-4c63-bbcb-77234e8dbe04","system_id":"levelo_inurba_marseille","lat":43.28717,"lon":5.37936,"is_reserved":false,"is_disabled":false,"rental_uris":{"android":"levelo://app?vid=c248e6ea-a25f-4c63-bbcb-77234e8dbe04","ios":"levelo://app?vid=c248e6ea-a25f-4c63-bbcb-77234e8dbe04"},"vehicle_type_id":"4","last_reported":1731280145,"current_range_meters":23200,"station_id":"ce4bh9p2rcd13ifvqec0","pricing_plan_id":"cebpf4jnsgd1na2vs0mg"},{"bike_id":"e738de8b-a66f-4c15-a663-5e44be3697c6","system_id":"levelo_inurba_marseille","lat":43.27327,"lon":5.39097,"is_reserved":false,"is_disabled":false,"rental_uris":{"android":"levelo://app?vid=e738de8b-a66f-4c15-a663-5e44be3697c6","ios":"levelo://app?vid=e738de8b-a66f-4c15-a663-5e44be3697c6"},"vehicle_type_id":"4","last_reported":1731280145,"current_range_meters":37600,"station_id":"ce4bhgp2rcd13ifvqfe0","pricing_plan_id":"cebpf4jnsgd1na2vs0mg"},{"bike_id":"d5349297-e0f7-440a-abba-c2504a87c7b8","system_id":"levelo_inurba_marseille","lat":43.30936,"lon":5.40147,"is_reserved":false,"is_disabled":false,"rental_uris":{"android":"levelo://app?vid=d5349297-e0f7-440a-abba-c2504a87c7b8","ios":"levelo://app?vid=d5349297-e0f7-440a-abba-c2504a87c7b8"},"vehicle_type_id":"4","last_reported":1731280145,"current_range_meters":38800,"station_id":"ce4bgvp2rcd13ifvqct0","pricing_plan_id":"cebpf4jnsgd1na2vs0mg"},{"bike_id":"f14e9aa6-6b4e-4d6b-8267-db1c692225ee","system_id":"levelo_inurba_marseille","lat":43.31226,"lon":5.36866,"is_reserved":false,"is_disabled":false,"rental_uris":{"android":"levelo://app?vid=f14e9aa6-6b4e-4d6b-8267-db1c692225ee","ios":"levelo://app?vid=f14e9aa6-6b4e-4d6b-8267-db1c692225ee"},"vehicle_type_id":"4","last_reported":1731280145,"current_range_meters":8400,"station_id":"ce4bgl92rcd13ifvqbq0","pricing_plan_id":"cebpf4jnsgd1na2vs0mg"},{"bike_id":"f204905c-7b94-45eb-bd5e-9b72157ae1f2","system_id":"levelo_inurba_marseille","lat":43.23184,"lon":5.39981,"is_reserved":false,"is_disabled":false,"rental_uris":{"android":"levelo://app?vid=f204905c-7b94-45eb-bd5e-9b72157ae1f2","ios":"levelo://app?vid=f204905c-7b94-45eb-bd5e-9b72157ae1f2"},"vehicle_type_id":"4","last_reported":1731280145,"current_range_meters":38800,"station_id":"ce4bhn12rcd13ifvqgqg","pricing_plan_id":"cebpf4jnsgd1na2vs0mg"},{"bike_id":"476c42b2-b027-4af7-8c34-a8350618e3c7","system_id":"levelo_inurba_marseille","lat":43.292786,"lon":5.401119,"is_reserved":false,"is_disabled":false,"rental_uris":{"android":"levelo://app?vid=476c42b2-b027-4af7-8c34-a8350618e3c7","ios":"levelo://app?vid=476c42b2-b027-4af7-8c34-a8350618e3c7"},"vehicle_type_id":"4","last_reported":1731280145,"current_range_meters":32000,"station_id":"ce4bh392rcd13ifvqdm0","pricing_plan_id":"cebpf4jnsgd1na2vs0mg"},{"bike_id":"6fc3923c-4bb6-4477-9fe0-dde381bcf068","system_id":"levelo_inurba_marseille","lat":43.28279,"lon":5.35074,"is_reserved":false,"is_disabled":false,"rental_uris":{"android":"levelo://app?vid=6fc3923c-4bb6-4477-9fe0-dde381bcf068","ios":"levelo://app?vid=6fc3923c-4bb6-4477-9fe0-dde381bcf068"},"vehicle_type_id":"4","last_reported":1731280145,"current_range_meters":39200,"station_id":"ce4bhbp2rcd13ifvqerg","pricing_plan_id":"cebpf4jnsgd1na2vs0mg"},{"bike_id":"4b53c73b-555f-42e8-90ce-4cd91ba65607","system_id":"levelo_inurba_marseille","lat":43.31762,"lon":5.39018,"is_reserved":false,"is_disabled":false,"rental_uris":{"android":"levelo://app?vid=4b53c73b-555f-42e8-90ce-4cd91ba65607","ios":"levelo://app?vid=4b53c73b-555f-42e8-90ce-4cd91ba65607"},"vehicle_type_id":"4","last_reported":1731280145,"current_range_meters":39200,"station_id":"ce4bhqp2rcd13ifvqhng","pricing_plan_id":"cebpf4jnsgd1na2vs0mg"},{"bike_id":"7cd238c1-2da2-4efb-a884-aec195f261a2","system_id":"levelo_inurba_marseille","lat":43.287,"lon":5.37396,"is_reserved":false,"is_disabled":false,"rental_uris":{"android":"levelo://app?vid=7cd238c1-2da2-4efb-a884-aec195f261a2","ios":"levelo://app?vid=7cd238c1-2da2-4efb-a884-aec195f261a2"},"vehicle_type_id":"4","last_reported":1731280145,"current_range_meters":7200,"station_id":"ce4bh3p2rcd13ifvqdq0","pricing_plan_id":"cebpf4jnsgd1na2vs0mg"},{"bike_id":"7c040458-0d9d-4dba-8be9-eb133f22a51b","system_id":"levelo_inurba_marseille","lat":43.31168,"lon":5.38715,"is_reserved":false,"is_disabled":false,"rental_uris":{"android":"levelo://app?vid=7c040458-0d9d-4dba-8be9-eb133f22a51b","ios":"levelo://app?vid=7c040458-0d9d-4dba-8be9-eb133f22a51b"},"vehicle_type_id":"4","last_reported":1731280145,"current_range_meters":39200,"station_id":"ce4bgv12rcd13ifvqcp0","pricing_plan_id":"cebpf4jnsgd1na2vs0mg"},{"bike_id":"820a30a6-4b5c-45ec-9763-3d0da061e275","system_id":"levelo_inurba_marseille","lat":43.30804,"lon":5.38149,"is_reserved":false,"is_disabled":false,"rental_uris":{"android":"levelo://app?vid=820a30a6-4b5c-45ec-9763-3d0da061e275","ios":"levelo://app?vid=820a30a6-4b5c-45ec-9763-3d0da061e275"},"vehicle_type_id":"4","last_reported":1731280145,"current_range_meters":31200,"station_id":"ce4bgt12rcd13ifvqce0","pricing_plan_id":"cebpf4jnsgd1na2vs0mg"},{"bike_id":"3415faaa-c111-4a6c-a879-a8c962906233","system_id":"levelo_inurba_marseille","lat":43.27052,"lon":5.40259,"is_reserved":false,"is_disabled":false,"rental_uris":{"android":"levelo://app?vid=3415faaa-c111-4a6c-a879-a8c962906233","ios":"levelo://app?vid=3415faaa-c111-4a6c-a879-a8c962906233"},"vehicle_type_id":"4","last_reported":1731280145,"current_range_meters":38800,"station_id":"ce4bhk92rcd13ifvqgc0","pricing_plan_id":"cebpf4jnsgd1na2vs0mg"},{"bike_id":"181fa628-fd06-4339-88f4-5d411c857699","system_id":"levelo_inurba_marseille","lat":43.27073,"lon":5.42277,"is_reserved":false,"is_disabled":false,"rental_uris":{"android":"levelo://app?vid=181fa628-fd06-4339-88f4-5d411c857699","ios":"levelo://app?vid=181fa628-fd06-4339-88f4-5d411c857699"},"vehicle_type_id":"4","last_reported":1731280145,"current_range_meters":6800,"station_id":"ce4bhk92rcd13ifvqgb0","pricing_plan_id":"cebpf4jnsgd1na2vs0mg"},{"bike_id":"f054ca35-33b8-4b86-b110-2f02434cfd09","system_id":"levelo_inurba_marseille","lat":43.29636,"lon":5.40598,"is_reserved":false,"is_disabled":false,"rental_uris":{"android":"levelo://app?vid=f054ca35-33b8-4b86-b110-2f02434cfd09","ios":"levelo://app?vid=f054ca35-33b8-4b86-b110-2f02434cfd09"},"vehicle_type_id":"4","last_reported":1731280145,"current_range_meters":33600,"station_id":"ce4bh0h2rcd13ifvqd60","pricing_plan_id":"cebpf4jnsgd1na2vs0mg"},{"bike_id":"774ab610-251e-4eb1-b735-31b06d0dcb1f","system_id":"levelo_inurba_marseille","lat":43.25859,"lon":5.39906,"is_reserved":false,"is_disabled":false,"rental_uris":{"android":"levelo://app?vid=774ab610-251e-4eb1-b735-31b06d0dcb1f","ios":"levelo://app?vid=774ab610-251e-4eb1-b735-31b06d0dcb1f"},"vehicle_type_id":"4","last_reported":1731280145,"current_range_meters":27200,"station_id":"ce4bhl92rcd13ifvqghg","pricing_plan_id":"cebpf4jnsgd1na2vs0mg"},{"bike_id":"e193da84-3188-45b5-9fe0-86924a122ac2","system_id":"levelo_inurba_marseille","lat":43.25121,"lon":5.40318,"is_reserved":false,"is_disabled":false,"rental_uris":{"android":"levelo://app?vid=e193da84-3188-45b5-9fe0-86924a122ac2","ios":"levelo://app?vid=e193da84-3188-45b5-9fe0-86924a122ac2"},"vehicle_type_id":"4","last_reported":1731280145,"current_range_meters":38800,"station_id":"ce4bhlh2rcd13ifvqgig","pricing_plan_id":"cebpf4jnsgd1na2vs0mg"},{"bike_id":"9a5eb101-92a2-4eeb-93bd-8d070d90c1ea","system_id":"levelo_inurba_marseille","lat":43.30433,"lon":5.42528,"is_reserved":false,"is_disabled":false,"rental_uris":{"android":"levelo://app?vid=9a5eb101-92a2-4eeb-93bd-8d070d90c1ea","ios":"levelo://app?vid=9a5eb101-92a2-4eeb-93bd-8d070d90c1ea"},"vehicle_type_id":"4","last_reported":1731280145,"current_range_meters":9600,"station_id":"","pricing_plan_id":"cebpf4jnsgd1na2vs0mg"},{"bike_id":"4de74ec0-48a2-4451-a65d-5ac6f613a308","system_id":"levelo_inurba_marseille","lat":43.24812,"lon":5.37454,"is_reserved":false,"is_disabled":false,"rental_uris":{"android":"levelo://app?vid=4de74ec0-48a2-4451-a65d-5ac6f613a308","ios":"levelo://app?vid=4de74ec0-48a2-4451-a65d-5ac6f613a308"},"vehicle_type_id":"4","last_reported":1731280145,"current_range_meters":37600,"station_id":"ce4bhgh2rcd13ifvqfb0","pricing_plan_id":"cebpf4jnsgd1na2vs0mg"},{"bike_id":"c1eb7a5c-e8eb-4c69-84ff-f962a28a03e7","system_id":"levelo_inurba_marseille","lat":43.27993,"lon":5.41662,"is_reserved":false,"is_disabled":false,"rental_uris":{"android":"levelo://app?vid=c1eb7a5c-e8eb-4c69-84ff-f962a28a03e7","ios":"levelo://app?vid=c1eb7a5c-e8eb-4c69-84ff-f962a28a03e7"},"vehicle_type_id":"4","last_reported":1731280145,"current_range_meters":34000,"station_id":"ce4bho12rcd13ifvqh1g","pricing_plan_id":"cebpf4jnsgd1na2vs0mg"},{"bike_id":"5574c5c0-6884-4d99-8cb9-177fa8d343fc","system_id":"levelo_inurba_marseille","lat":43.282683,"lon":5.35078,"is_reserved":false,"is_disabled":false,"rental_uris":{"android":"levelo://app?vid=5574c5c0-6884-4d99-8cb9-177fa8d343fc","ios":"levelo://app?vid=5574c5c0-6884-4d99-8cb9-177fa8d343fc"},"vehicle_type_id":"4","last_reported":1731280145,"current_range_meters":4000,"station_id":"ce4bhop2rcd13ifvqh8g","pricing_plan_id":"cebpf4jnsgd1na2vs0mg"},{"bike_id":"fff49af0-4b01-43ff-9a6b-86eba1d449d8","system_id":"levelo_inurba_marseille","lat":43.299811,"lon":5.384664,"is_reserved":false,"is_disabled":false,"rental_uris":{"android":"levelo://app?vid=fff49af0-4b01-43ff-9a6b-86eba1d449d8","ios":"levelo://app?vid=fff49af0-4b01-43ff-9a6b-86eba1d449d8"},"vehicle_type_id":"4","last_reported":1731280145,"current_range_meters":37600,"station_id":"ce4bgj92rcd13ifvqbd0","pricing_plan_id":"cebpf4jnsgd1na2vs0mg"},{"bike_id":"3c97ed45-580d-4c79-9eeb-839589766fda","system_id":"levelo_inurba_marseille","lat":43.24072,"lon":5.37766,"is_reserved":false,"is_disabled":false,"rental_uris":{"android":"levelo://app?vid=3c97ed45-580d-4c79-9eeb-839589766fda","ios":"levelo://app?vid=3c97ed45-580d-4c79-9eeb-839589766fda"},"vehicle_type_id":"4","last_reported":1731280145,"current_range_meters":18000,"station_id":"ce4bhnp2rcd13ifvqgvg","pricing_plan_id":"cebpf4jnsgd1na2vs0mg"},{"bike_id":"e86dd854-7724-4d5d-935d-a9f233a6f2b8","system_id":"levelo_inurba_marseille","lat":43.29383,"lon":5.37855,"is_reserved":false,"is_disabled":false,"rental_uris":{"android":"levelo://app?vid=e86dd854-7724-4d5d-935d-a9f233a6f2b8","ios":"levelo://app?vid=e86dd854-7724-4d5d-935d-a9f233a6f2b8"},"vehicle_type_id":"4","last_reported":1731280145,"current_range_meters":37600,"station_id":"ce4bgjh2rcd13ifvqbf0","pricing_plan_id":"cebpf4jnsgd1na2vs0mg"},{"bike_id":"4c39aa19-0c48-4846-ae4a-17bcc31d5e1d","system_id":"levelo_inurba_marseille","lat":43.32366,"lon":5.38879,"is_reserved":false,"is_disabled":false,"rental_uris":{"android":"levelo://app?vid=4c39aa19-0c48-4846-ae4a-17bcc31d5e1d","ios":"levelo://app?vid=4c39aa19-0c48-4846-ae4a-17bcc31d5e1d"},"vehicle_type_id":"4","last_reported":1731280145,"current_range_meters":10000,"station_id":"ce4bhqp2rcd13ifvqhog","pricing_plan_id":"cebpf4jnsgd1na2vs0mg"},{"bike_id":"7aed7d18-f422-442e-a36e-6f60682f6903","system_id":"levelo_inurba_marseille","lat":43.28441,"lon":5.39187,"is_reserved":false,"is_disabled":false,"rental_uris":{"android":"levelo://app?vid=7aed7d18-f422-442e-a36e-6f60682f6903","ios":"levelo://app?vid=7aed7d18-f422-442e-a36e-6f60682f6903"},"vehicle_type_id":"4","last_reported":1731280145,"current_range_meters":38800,"station_id":"ce4bhoh2rcd13ifvqh5g","pricing_plan_id":"cebpf4jnsgd1na2vs0mg"},{"bike_id":"d1d7a58c-6198-42c5-91ce-d708d38d99a2","system_id":"levelo_inurba_marseille","lat":43.30881,"lon":5.39653,"is_reserved":false,"is_disabled":false,"rental_uris":{"android":"levelo://app?vid=d1d7a58c-6198-42c5-91ce-d708d38d99a2","ios":"levelo://app?vid=d1d7a58c-6198-42c5-91ce-d708d38d99a2"},"vehicle_type_id":"4","last_reported":1731280145,"current_range_meters":30800,"station_id":"ce4bh012rcd13ifvqcv0","pricing_plan_id":"cebpf4jnsgd1na2vs0mg"},{"bike_id":"1e7fd650-28c5-42ee-9922-4070c0acdb85","system_id":"levelo_inurba_marseille","lat":43.27492,"lon":5.42454,"is_reserved":false,"is_disabled":false,"rental_uris":{"android":"levelo://app?vid=1e7fd650-28c5-42ee-9922-4070c0acdb85","ios":"levelo://app?vid=1e7fd650-28c5-42ee-9922-4070c0acdb85"},"vehicle_type_id":"4","last_reported":1731280145,"current_range_meters":37600,"station_id":"ce4bhn92rcd13ifvqgrg","pricing_plan_id":"cebpf4jnsgd1na2vs0mg"},{"bike_id":"c36b9d47-5968-445e-8a08-b22bd383465f","system_id":"levelo_inurba_marseille","lat":43.31285,"lon":5.40163,"is_reserved":false,"is_disabled":false,"rental_uris":{"android":"levelo://app?vid=c36b9d47-5968-445e-8a08-b22bd383465f","ios":"levelo://app?vid=c36b9d47-5968-445e-8a08-b22bd383465f"},"vehicle_type_id":"4","last_reported":1731280145,"current_range_meters":39200,"station_id":"ce4bh092rcd13ifvqd30","pricing_plan_id":"cebpf4jnsgd1na2vs0mg"},{"bike_id":"a0c7ccd2-4ee1-482d-96e8-0a58feb4eeb1","system_id":"levelo_inurba_marseille","lat":43.25121,"lon":5.40314,"is_reserved":false,"is_disabled":false,"rental_uris":{"android":"levelo://app?vid=a0c7ccd2-4ee1-482d-96e8-0a58feb4eeb1","ios":"levelo://app?vid=a0c7ccd2-4ee1-482d-96e8-0a58feb4eeb1"},"vehicle_type_id":"4","last_reported":1731280145,"current_range_meters":38800,"station_id":"ce4bhlh2rcd13ifvqgig","pricing_plan_id":"cebpf4jnsgd1na2vs0mg"},{"bike_id":"a83a36a4-9bfa-4d89-b35d-a4d64766c566","system_id":"levelo_inurba_marseille","lat":43.294483,"lon":5.3975,"is_reserved":false,"is_disabled":false,"rental_uris":{"android":"levelo://app?vid=a83a36a4-9bfa-4d89-b35d-a4d64766c566","ios":"levelo://app?vid=a83a36a4-9bfa-4d89-b35d-a4d64766c566"},"vehicle_type_id":"4","last_reported":1731280145,"current_range_meters":38800,"station_id":"ce4bh3h2rcd13ifvqdo0","pricing_plan_id":"cebpf4jnsgd1na2vs0mg"},{"bike_id":"0fbff871-faec-4856-9eae-856706ec94f1","system_id":"levelo_inurba_marseille","lat":43.294188,"lon":5.386121,"is_reserved":false,"is_disabled":false,"rental_uris":{"android":"levelo://app?vid=0fbff871-faec-4856-9eae-856706ec94f1","ios":"levelo://app?vid=0fbff871-faec-4856-9eae-856706ec94f1"},"vehicle_type_id":"4","last_reported":1731280145,"current_range_meters":15200,"station_id":"ce4bhh92rcd13ifvqfi0","pricing_plan_id":"cebpf4jnsgd1na2vs0mg"},{"bike_id":"ada9c1c5-a5a1-4aea-9fb9-213fda53ee37","system_id":"levelo_inurba_marseille","lat":43.30964,"lon":5.39028,"is_reserved":false,"is_disabled":false,"rental_uris":{"android":"levelo://app?vid=ada9c1c5-a5a1-4aea-9fb9-213fda53ee37","ios":"levelo://app?vid=ada9c1c5-a5a1-4aea-9fb9-213fda53ee37"},"vehicle_type_id":"4","last_reported":1731280145,"current_range_meters":38800,"station_id":"ce4bgup2rcd13ifvqco0","pricing_plan_id":"cebpf4jnsgd1na2vs0mg"},{"bike_id":"c86f9753-23bf-4b0b-99f7-a3303d896d97","system_id":"levelo_inurba_marseille","lat":43.23186,"lon":5.39985,"is_reserved":false,"is_disabled":false,"rental_uris":{"android":"levelo://app?vid=c86f9753-23bf-4b0b-99f7-a3303d896d97","ios":"levelo://app?vid=c86f9753-23bf-4b0b-99f7-a3303d896d97"},"vehicle_type_id":"4","last_reported":1731280145,"current_range_meters":8000,"station_id":"ce4bhn12rcd13ifvqgqg","pricing_plan_id":"cebpf4jnsgd1na2vs0mg"},{"bike_id":"5ab9d430-3d2b-4a66-870b-567fac89b27f","system_id":"levelo_inurba_marseille","lat":43.31326,"lon":5.3969,"is_reserved":false,"is_disabled":false,"rental_uris":{"android":"levelo://app?vid=5ab9d430-3d2b-4a66-870b-567fac89b27f","ios":"levelo://app?vid=5ab9d430-3d2b-4a66-870b-567fac89b27f"},"vehicle_type_id":"4","last_reported":1731280145,"current_range_meters":40000,"station_id":"ce4bgvp2rcd13ifvqcu0","pricing_plan_id":"cebpf4jnsgd1na2vs0mg"},{"bike_id":"28e54028-7741-493c-b6a5-e0c4509a4229","system_id":"levelo_inurba_marseille","lat":43.31225,"lon":5.36859,"is_reserved":false,"is_disabled":false,"rental_uris":{"android":"levelo://app?vid=28e54028-7741-493c-b6a5-e0c4509a4229","ios":"levelo://app?vid=28e54028-7741-493c-b6a5-e0c4509a4229"},"vehicle_type_id":"4","last_reported":1731280145,"current_range_meters":20000,"station_id":"ce4bgl92rcd13ifvqbq0","pricing_plan_id":"cebpf4jnsgd1na2vs0mg"},{"bike_id":"c62983d4-3b86-4670-b88c-b018d8c8d552","system_id":"levelo_inurba_marseille","lat":43.2942,"lon":5.38624,"is_reserved":false,"is_disabled":false,"rental_uris":{"android":"levelo://app?vid=c62983d4-3b86-4670-b88c-b018d8c8d552","ios":"levelo://app?vid=c62983d4-3b86-4670-b88c-b018d8c8d552"},"vehicle_type_id":"4","last_reported":1731280145,"current_range_meters":23200,"station_id":"ce4bh2h2rcd13ifvqdh0","pricing_plan_id":"cebpf4jnsgd1na2vs0mg"},{"bike_id":"07704a86-dbed-425a-854d-11b1a4e3d84c","system_id":"levelo_inurba_marseille","lat":43.33746,"lon":5.37437,"is_reserved":false,"is_disabled":false,"rental_uris":{"android":"levelo://app?vid=07704a86-dbed-425a-854d-11b1a4e3d84c","ios":"levelo://app?vid=07704a86-dbed-425a-854d-11b1a4e3d84c"},"vehicle_type_id":"4","last_reported":1731280145,"current_range_meters":28400,"station_id":"","pricing_plan_id":"cebpf4jnsgd1na2vs0mg"},{"bike_id":"bcdb1c87-7f56-4df1-b332-98b270625764","system_id":"levelo_inurba_marseille","lat":43.29306,"lon":5.3718,"is_reserved":false,"is_disabled":false,"rental_uris":{"android":"levelo://app?vid=bcdb1c87-7f56-4df1-b332-98b270625764","ios":"levelo://app?vid=bcdb1c87-7f56-4df1-b332-98b270625764"},"vehicle_type_id":"4","last_reported":1731280145,"current_range_meters":38400,"station_id":"ce4bgh92rcd13ifvqb40","pricing_plan_id":"cebpf4jnsgd1na2vs0mg"},{"bike_id":"3937b7ab-3518-4666-aab1-233738354c10","system_id":"levelo_inurba_marseille","lat":43.30898,"lon":5.37194,"is_reserved":false,"is_disabled":false,"rental_uris":{"android":"levelo://app?vid=3937b7ab-3518-4666-aab1-233738354c10","ios":"levelo://app?vid=3937b7ab-3518-4666-aab1-233738354c10"},"vehicle_type_id":"4","last_reported":1731280145,"current_range_meters":10800,"station_id":"ce4bguh2rcd13ifvqckg","pricing_plan_id":"cebpf4jnsgd1na2vs0mg"},{"bike_id":"0b74ce83-e6b1-4485-8ca6-3897f29a426e","system_id":"levelo_inurba_marseille","lat":43.2396,"lon":5.3663,"is_reserved":false,"is_disabled":false,"rental_uris":{"android":"levelo://app?vid=0b74ce83-e6b1-4485-8ca6-3897f29a426e","ios":"levelo://app?vid=0b74ce83-e6b1-4485-8ca6-3897f29a426e"},"vehicle_type_id":"4","last_reported":1731280145,"current_range_meters":6800,"station_id":"ce4bhi12rcd13ifvqfp0","pricing_plan_id":"cebpf4jnsgd1na2vs0mg"},{"bike_id":"6a1a5935-385d-4baa-b1a0-aaf8e0d922fa","system_id":"levelo_inurba_marseille","lat":43.23191,"lon":5.39977,"is_reserved":false,"is_disabled":false,"rental_uris":{"android":"levelo://app?vid=6a1a5935-385d-4baa-b1a0-aaf8e0d922fa","ios":"levelo://app?vid=6a1a5935-385d-4baa-b1a0-aaf8e0d922fa"},"vehicle_type_id":"4","last_reported":1731280145,"current_range_meters":10800,"station_id":"ce4bhn12rcd13ifvqgqg","pricing_plan_id":"cebpf4jnsgd1na2vs0mg"},{"bike_id":"e8ba0b51-9b96-4e09-bf52-7a0da55cd7db","system_id":"levelo_inurba_marseille","lat":43.31995,"lon":5.38157,"is_reserved":false,"is_disabled":false,"rental_uris":{"android":"levelo://app?vid=e8ba0b51-9b96-4e09-bf52-7a0da55cd7db","ios":"levelo://app?vid=e8ba0b51-9b96-4e09-bf52-7a0da55cd7db"},"vehicle_type_id":"4","last_reported":1731280145,"current_range_meters":26800,"station_id":"ce4bhr12rcd13ifvqhpg","pricing_plan_id":"cebpf4jnsgd1na2vs0mg"},{"bike_id":"1224c796-10a3-4b51-968e-f17cbea9d628","system_id":"levelo_inurba_marseille","lat":43.304169,"lon":5.39745,"is_reserved":false,"is_disabled":false,"rental_uris":{"android":"levelo://app?vid=1224c796-10a3-4b51-968e-f17cbea9d628","ios":"levelo://app?vid=1224c796-10a3-4b51-968e-f17cbea9d628"},"vehicle_type_id":"4","last_reported":1731280145,"current_range_meters":12800,"station_id":"ce4bh092rcd13ifvqd20","pricing_plan_id":"cebpf4jnsgd1na2vs0mg"},{"bike_id":"1d6bcd65-e2f5-41ed-9e17-e2bd8ea8ab13","system_id":"levelo_inurba_marseille","lat":43.28344,"lon":5.38098,"is_reserved":false,"is_disabled":false,"rental_uris":{"android":"levelo://app?vid=1d6bcd65-e2f5-41ed-9e17-e2bd8ea8ab13","ios":"levelo://app?vid=1d6bcd65-e2f5-41ed-9e17-e2bd8ea8ab13"},"vehicle_type_id":"4","last_reported":1731280145,"current_range_meters":27600,"station_id":"ce4bh412rcd13ifvqdr0","pricing_plan_id":"cebpf4jnsgd1na2vs0mg"},{"bike_id":"90bf0c32-42b2-41e0-96ea-a94b4fee54a4","system_id":"levelo_inurba_marseille","lat":43.30599,"lon":5.3722,"is_reserved":false,"is_disabled":false,"rental_uris":{"android":"levelo://app?vid=90bf0c32-42b2-41e0-96ea-a94b4fee54a4","ios":"levelo://app?vid=90bf0c32-42b2-41e0-96ea-a94b4fee54a4"},"vehicle_type_id":"4","last_reported":1731280145,"current_range_meters":36400,"station_id":"ce4bgqh2rcd13ifvqc4g","pricing_plan_id":"cebpf4jnsgd1na2vs0mg"},{"bike_id":"baac3be3-010c-4ab7-b814-2af962c842f8","system_id":"levelo_inurba_marseille","lat":43.283663,"lon":5.37525,"is_reserved":false,"is_disabled":false,"rental_uris":{"android":"levelo://app?vid=baac3be3-010c-4ab7-b814-2af962c842f8","ios":"levelo://app?vid=baac3be3-010c-4ab7-b814-2af962c842f8"},"vehicle_type_id":"4","last_reported":1731280145,"current_range_meters":24800,"station_id":"ce4bh412rcd13ifvqds0","pricing_plan_id":"cebpf4jnsgd1na2vs0mg"},{"bike_id":"798e8b35-a900-4934-b898-51a2664de077","system_id":"levelo_inurba_marseille","lat":43.29941,"lon":5.36555,"is_reserved":false,"is_disabled":false,"rental_uris":{"android":"levelo://app?vid=798e8b35-a900-4934-b898-51a2664de077","ios":"levelo://app?vid=798e8b35-a900-4934-b898-51a2664de077"},"vehicle_type_id":"4","last_reported":1731280145,"current_range_meters":19600,"station_id":"ce4bgm92rcd13ifvqbr0","pricing_plan_id":"cebpf4jnsgd1na2vs0mg"},{"bike_id":"229604ed-1734-4a26-8363-6d8d93642744","system_id":"levelo_inurba_marseille","lat":43.305458,"lon":5.384233,"is_reserved":false,"is_disabled":false,"rental_uris":{"android":"levelo://app?vid=229604ed-1734-4a26-8363-6d8d93642744","ios":"levelo://app?vid=229604ed-1734-4a26-8363-6d8d93642744"},"vehicle_type_id":"4","last_reported":1731280145,"current_range_meters":32800,"station_id":"ce4bh512rcd13ifvqe2g","pricing_plan_id":"cebpf4jnsgd1na2vs0mg"},{"bike_id":"969227a2-98bf-4ab5-b6d3-e479d8b3607b","system_id":"levelo_inurba_marseille","lat":43.31528,"lon":5.38028,"is_reserved":false,"is_disabled":false,"rental_uris":{"android":"levelo://app?vid=969227a2-98bf-4ab5-b6d3-e479d8b3607b","ios":"levelo://app?vid=969227a2-98bf-4ab5-b6d3-e479d8b3607b"},"vehicle_type_id":"4","last_reported":1731280145,"current_range_meters":25600,"station_id":"ce4bhsp2rcd13ifvqi50","pricing_plan_id":"cebpf4jnsgd1na2vs0mg"},{"bike_id":"f5293701-df9b-4a3c-bf61-d686249e5d80","system_id":"levelo_inurba_marseille","lat":43.25865,"lon":5.39902,"is_reserved":false,"is_disabled":false,"rental_uris":{"android":"levelo://app?vid=f5293701-df9b-4a3c-bf61-d686249e5d80","ios":"levelo://app?vid=f5293701-df9b-4a3c-bf61-d686249e5d80"},"vehicle_type_id":"4","last_reported":1731280145,"current_range_meters":36000,"station_id":"ce4bhl92rcd13ifvqghg","pricing_plan_id":"cebpf4jnsgd1na2vs0mg"},{"bike_id":"3797a7d5-6037-4b9c-bfb3-80774415a12c","system_id":"levelo_inurba_marseille","lat":43.29747,"lon":5.37685,"is_reserved":false,"is_disabled":false,"rental_uris":{"android":"levelo://app?vid=3797a7d5-6037-4b9c-bfb3-80774415a12c","ios":"levelo://app?vid=3797a7d5-6037-4b9c-bfb3-80774415a12c"},"vehicle_type_id":"4","last_reported":1731280145,"current_range_meters":4000,"station_id":"ce4bgkh2rcd13ifvqbl0","pricing_plan_id":"cebpf4jnsgd1na2vs0mg"},{"bike_id":"c7991350-f502-47da-856b-da455b7bdad1","system_id":"levelo_inurba_marseille","lat":43.23153,"lon":5.43723,"is_reserved":false,"is_disabled":false,"rental_uris":{"android":"levelo://app?vid=c7991350-f502-47da-856b-da455b7bdad1","ios":"levelo://app?vid=c7991350-f502-47da-856b-da455b7bdad1"},"vehicle_type_id":"4","last_reported":1731280145,"current_range_meters":38800,"station_id":"ce4bhmp2rcd13ifvqgog","pricing_plan_id":"cebpf4jnsgd1na2vs0mg"},{"bike_id":"6cde4c04-b0af-4388-b53d-81ed2ec25717","system_id":"levelo_inurba_marseille","lat":43.31761,"lon":5.39005,"is_reserved":false,"is_disabled":false,"rental_uris":{"android":"levelo://app?vid=6cde4c04-b0af-4388-b53d-81ed2ec25717","ios":"levelo://app?vid=6cde4c04-b0af-4388-b53d-81ed2ec25717"},"vehicle_type_id":"4","last_reported":1731280145,"current_range_meters":38000,"station_id":"ce4bhq12rcd13ifvqhig","pricing_plan_id":"cebpf4jnsgd1na2vs0mg"},{"bike_id":"8bc1e43e-b37b-49c8-8367-5379902b4936","system_id":"levelo_inurba_marseille","lat":43.30927,"lon":5.40137,"is_reserved":false,"is_disabled":false,"rental_uris":{"android":"levelo://app?vid=8bc1e43e-b37b-49c8-8367-5379902b4936","ios":"levelo://app?vid=8bc1e43e-b37b-49c8-8367-5379902b4936"},"vehicle_type_id":"4","last_reported":1731280145,"current_range_meters":38800,"station_id":"ce4bgvp2rcd13ifvqct0","pricing_plan_id":"cebpf4jnsgd1na2vs0mg"},{"bike_id":"7c59c113-339d-4f9b-b12b-18190bdaf895","system_id":"levelo_inurba_marseille","lat":43.25091,"lon":5.39528,"is_reserved":false,"is_disabled":false,"rental_uris":{"android":"levelo://app?vid=7c59c113-339d-4f9b-b12b-18190bdaf895","ios":"levelo://app?vid=7c59c113-339d-4f9b-b12b-18190bdaf895"},"vehicle_type_id":"4","last_reported":1731280145,"current_range_meters":38800,"station_id":"ce4bhm12rcd13ifvqgkg","pricing_plan_id":"cebpf4jnsgd1na2vs0mg"},{"bike_id":"f231988b-c677-4d61-8d18-d58a52fe96b5","system_id":"levelo_inurba_marseille","lat":43.25506,"lon":5.37653,"is_reserved":false,"is_disabled":false,"rental_uris":{"android":"levelo://app?vid=f231988b-c677-4d61-8d18-d58a52fe96b5","ios":"levelo://app?vid=f231988b-c677-4d61-8d18-d58a52fe96b5"},"vehicle_type_id":"4","last_reported":1731280145,"current_range_meters":37600,"station_id":"ce4bhh12rcd13ifvqff0","pricing_plan_id":"cebpf4jnsgd1na2vs0mg"},{"bike_id":"e76e86bc-239d-4fb7-b451-69f5665169d5","system_id":"levelo_inurba_marseille","lat":43.30328,"lon":5.39332,"is_reserved":false,"is_disabled":false,"rental_uris":{"android":"levelo://app?vid=e76e86bc-239d-4fb7-b451-69f5665169d5","ios":"levelo://app?vid=e76e86bc-239d-4fb7-b451-69f5665169d5"},"vehicle_type_id":"4","last_reported":1731280145,"current_range_meters":19200,"station_id":"ce4bgkh2rcd13ifvqbk0","pricing_plan_id":"cebpf4jnsgd1na2vs0mg"},{"bike_id":"470fbcd1-f34b-4b60-ab2d-1fcb115ed8ae","system_id":"levelo_inurba_marseille","lat":43.303,"lon":5.39211,"is_reserved":false,"is_disabled":false,"rental_uris":{"android":"levelo://app?vid=470fbcd1-f34b-4b60-ab2d-1fcb115ed8ae","ios":"levelo://app?vid=470fbcd1-f34b-4b60-ab2d-1fcb115ed8ae"},"vehicle_type_id":"4","last_reported":1731280145,"current_range_meters":38400,"station_id":"ce4bgkh2rcd13ifvqbk0","pricing_plan_id":"cebpf4jnsgd1na2vs0mg"},{"bike_id":"2c5ab9c3-4017-4898-8541-5e1587860e9f","system_id":"levelo_inurba_marseille","lat":43.30306,"lon":5.369,"is_reserved":false,"is_disabled":false,"rental_uris":{"android":"levelo://app?vid=2c5ab9c3-4017-4898-8541-5e1587860e9f","ios":"levelo://app?vid=2c5ab9c3-4017-4898-8541-5e1587860e9f"},"vehicle_type_id":"4","last_reported":1731280145,"current_range_meters":16000,"station_id":"ce4bgqh2rcd13ifvqc5g","pricing_plan_id":"cebpf4jnsgd1na2vs0mg"},{"bike_id":"2247684c-edc2-405a-aa03-95b9e51392c0","system_id":"levelo_inurba_marseille","lat":43.29263,"lon":5.40913,"is_reserved":false,"is_disabled":false,"rental_uris":{"android":"levelo://app?vid=2247684c-edc2-405a-aa03-95b9e51392c0","ios":"levelo://app?vid=2247684c-edc2-405a-aa03-95b9e51392c0"},"vehicle_type_id":"4","last_reported":1731280145,"current_range_meters":38800,"station_id":"ce4bh192rcd13ifvqdc0","pricing_plan_id":"cebpf4jnsgd1na2vs0mg"},{"bike_id":"c51379d8-4ea9-46bf-a61b-9108abbdf7d2","system_id":"levelo_inurba_marseille","lat":43.28375,"lon":5.38648,"is_reserved":false,"is_disabled":false,"rental_uris":{"android":"levelo://app?vid=c51379d8-4ea9-46bf-a61b-9108abbdf7d2","ios":"levelo://app?vid=c51379d8-4ea9-46bf-a61b-9108abbdf7d2"},"vehicle_type_id":"4","last_reported":1731280145,"current_range_meters":16400,"station_id":"ce4bh492rcd13ifvqdvg","pricing_plan_id":"cebpf4jnsgd1na2vs0mg"},{"bike_id":"e550835f-6ecd-4a76-9b7c-29cc81fd1c2e","system_id":"levelo_inurba_marseille","lat":43.28703,"lon":5.37387,"is_reserved":false,"is_disabled":false,"rental_uris":{"android":"levelo://app?vid=e550835f-6ecd-4a76-9b7c-29cc81fd1c2e","ios":"levelo://app?vid=e550835f-6ecd-4a76-9b7c-29cc81fd1c2e"},"vehicle_type_id":"4","last_reported":1731280145,"current_range_meters":36400,"station_id":"ce4bh3p2rcd13ifvqdq0","pricing_plan_id":"cebpf4jnsgd1na2vs0mg"},{"bike_id":"59fb64ac-2ce0-4c0a-b455-8a6c388f204e","system_id":"levelo_inurba_marseille","lat":43.29878,"lon":5.38912,"is_reserved":false,"is_disabled":false,"rental_uris":{"android":"levelo://app?vid=59fb64ac-2ce0-4c0a-b455-8a6c388f204e","ios":"levelo://app?vid=59fb64ac-2ce0-4c0a-b455-8a6c388f204e"},"vehicle_type_id":"4","last_reported":1731280145,"current_range_meters":22000,"station_id":"ce4bh392rcd13ifvqdl0","pricing_plan_id":"cebpf4jnsgd1na2vs0mg"},{"bike_id":"70361384-6385-4337-9222-6090aea0c082","system_id":"levelo_inurba_marseille","lat":43.293061,"lon":5.371701,"is_reserved":false,"is_disabled":false,"rental_uris":{"android":"levelo://app?vid=70361384-6385-4337-9222-6090aea0c082","ios":"levelo://app?vid=70361384-6385-4337-9222-6090aea0c082"},"vehicle_type_id":"4","last_reported":1731280145,"current_range_meters":33200,"station_id":"ce4bgh92rcd13ifvqb40","pricing_plan_id":"cebpf4jnsgd1na2vs0mg"},{"bike_id":"bc1f8083-69e6-4682-ac5c-20386c9ae2ee","system_id":"levelo_inurba_marseille","lat":43.25732,"lon":5.41113,"is_reserved":false,"is_disabled":false,"rental_uris":{"android":"levelo://app?vid=bc1f8083-69e6-4682-ac5c-20386c9ae2ee","ios":"levelo://app?vid=bc1f8083-69e6-4682-ac5c-20386c9ae2ee"},"vehicle_type_id":"4","last_reported":1731280145,"current_range_meters":4400,"station_id":"ce4bhkp2rcd13ifvqgd0","pricing_plan_id":"cebpf4jnsgd1na2vs0mg"},{"bike_id":"6da06f85-e08e-4d62-b03d-37391773fb47","system_id":"levelo_inurba_marseille","lat":43.32485,"lon":5.36571,"is_reserved":false,"is_disabled":false,"rental_uris":{"android":"levelo://app?vid=6da06f85-e08e-4d62-b03d-37391773fb47","ios":"levelo://app?vid=6da06f85-e08e-4d62-b03d-37391773fb47"},"vehicle_type_id":"4","last_reported":1731280145,"current_range_meters":40000,"station_id":"ce4bhs12rcd13ifvqhvg","pricing_plan_id":"cebpf4jnsgd1na2vs0mg"},{"bike_id":"76cb7de1-c6cf-46f4-817f-a13daaf098d0","system_id":"levelo_inurba_marseille","lat":43.3153,"lon":5.38035,"is_reserved":false,"is_disabled":false,"rental_uris":{"android":"levelo://app?vid=76cb7de1-c6cf-46f4-817f-a13daaf098d0","ios":"levelo://app?vid=76cb7de1-c6cf-46f4-817f-a13daaf098d0"},"vehicle_type_id":"4","last_reported":1731280145,"current_range_meters":4000,"station_id":"ce4bhsp2rcd13ifvqi50","pricing_plan_id":"cebpf4jnsgd1na2vs0mg"},{"bike_id":"65602cb3-86cf-4913-8a65-8420040fc777","system_id":"levelo_inurba_marseille","lat":43.28709,"lon":5.39996,"is_reserved":false,"is_disabled":false,"rental_uris":{"android":"levelo://app?vid=65602cb3-86cf-4913-8a65-8420040fc777","ios":"levelo://app?vid=65602cb3-86cf-4913-8a65-8420040fc777"},"vehicle_type_id":"4","last_reported":1731280145,"current_range_meters":24400,"station_id":"ce4bho92rcd13ifvqh3g","pricing_plan_id":"cebpf4jnsgd1na2vs0mg"},{"bike_id":"3696d86c-204f-4a62-8547-c6be32ea280c","system_id":"levelo_inurba_marseille","lat":43.28863,"lon":5.39321,"is_reserved":false,"is_disabled":false,"rental_uris":{"android":"levelo://app?vid=3696d86c-204f-4a62-8547-c6be32ea280c","ios":"levelo://app?vid=3696d86c-204f-4a62-8547-c6be32ea280c"},"vehicle_type_id":"4","last_reported":1731280145,"current_range_meters":26800,"station_id":"ce4bh2p2rcd13ifvqdi0","pricing_plan_id":"cebpf4jnsgd1na2vs0mg"},{"bike_id":"e0e14831-670f-4ba3-9415-d480e3c3be74","system_id":"levelo_inurba_marseille","lat":43.28268,"lon":5.35072,"is_reserved":false,"is_disabled":false,"rental_uris":{"android":"levelo://app?vid=e0e14831-670f-4ba3-9415-d480e3c3be74","ios":"levelo://app?vid=e0e14831-670f-4ba3-9415-d480e3c3be74"},"vehicle_type_id":"4","last_reported":1731280145,"current_range_meters":35600,"station_id":"ce4bhbp2rcd13ifvqerg","pricing_plan_id":"cebpf4jnsgd1na2vs0mg"},{"bike_id":"b085bf05-4012-4af0-91c2-493e112ef1f8","system_id":"levelo_inurba_marseille","lat":43.28405,"lon":5.37531,"is_reserved":false,"is_disabled":false,"rental_uris":{"android":"levelo://app?vid=b085bf05-4012-4af0-91c2-493e112ef1f8","ios":"levelo://app?vid=b085bf05-4012-4af0-91c2-493e112ef1f8"},"vehicle_type_id":"4","last_reported":1731280145,"current_range_meters":32000,"station_id":"ce4bh412rcd13ifvqds0","pricing_plan_id":"cebpf4jnsgd1na2vs0mg"},{"bike_id":"cd17ae16-7d6b-4aad-9baa-e60425025b9f","system_id":"levelo_inurba_marseille","lat":43.29872,"lon":5.39723,"is_reserved":false,"is_disabled":false,"rental_uris":{"android":"levelo://app?vid=cd17ae16-7d6b-4aad-9baa-e60425025b9f","ios":"levelo://app?vid=cd17ae16-7d6b-4aad-9baa-e60425025b9f"},"vehicle_type_id":"4","last_reported":1731280145,"current_range_meters":24800,"station_id":"ce4bh0h2rcd13ifvqd50","pricing_plan_id":"cebpf4jnsgd1na2vs0mg"},{"bike_id":"d7be9c1a-dbaa-4aa8-b411-d8458beecc0f","system_id":"levelo_inurba_marseille","lat":43.302801,"lon":5.37712,"is_reserved":false,"is_disabled":false,"rental_uris":{"android":"levelo://app?vid=d7be9c1a-dbaa-4aa8-b411-d8458beecc0f","ios":"levelo://app?vid=d7be9c1a-dbaa-4aa8-b411-d8458beecc0f"},"vehicle_type_id":"4","last_reported":1731280145,"current_range_meters":12400,"station_id":"ce4bguh2rcd13ifvqcj0","pricing_plan_id":"cebpf4jnsgd1na2vs0mg"},{"bike_id":"67ffc1e7-b9f0-4355-84e9-ce9125ee48de","system_id":"levelo_inurba_marseille","lat":43.31996,"lon":5.38152,"is_reserved":false,"is_disabled":false,"rental_uris":{"android":"levelo://app?vid=67ffc1e7-b9f0-4355-84e9-ce9125ee48de","ios":"levelo://app?vid=67ffc1e7-b9f0-4355-84e9-ce9125ee48de"},"vehicle_type_id":"4","last_reported":1731280145,"current_range_meters":38800,"station_id":"ce4bhr12rcd13ifvqhpg","pricing_plan_id":"cebpf4jnsgd1na2vs0mg"},{"bike_id":"c318665b-22d1-4dd0-93d5-afcbdf1ec912","system_id":"levelo_inurba_marseille","lat":43.27212,"lon":5.39195,"is_reserved":false,"is_disabled":false,"rental_uris":{"android":"levelo://app?vid=c318665b-22d1-4dd0-93d5-afcbdf1ec912","ios":"levelo://app?vid=c318665b-22d1-4dd0-93d5-afcbdf1ec912"},"vehicle_type_id":"4","last_reported":1731280145,"current_range_meters":38800,"station_id":"ce4bhhp2rcd13ifvqfm0","pricing_plan_id":"cebpf4jnsgd1na2vs0mg"},{"bike_id":"ffe52ae9-ed7a-4371-ac3e-55524d694b90","system_id":"levelo_inurba_marseille","lat":43.29967,"lon":5.38496,"is_reserved":false,"is_disabled":false,"rental_uris":{"android":"levelo://app?vid=ffe52ae9-ed7a-4371-ac3e-55524d694b90","ios":"levelo://app?vid=ffe52ae9-ed7a-4371-ac3e-55524d694b90"},"vehicle_type_id":"4","last_reported":1731280145,"current_range_meters":34800,"station_id":"ce4bgj92rcd13ifvqbd0","pricing_plan_id":"cebpf4jnsgd1na2vs0mg"},{"bike_id":"73ae6848-5f67-4151-95f7-52ff0eee278d","system_id":"levelo_inurba_marseille","lat":43.30893,"lon":5.37178,"is_reserved":false,"is_disabled":false,"rental_uris":{"android":"levelo://app?vid=73ae6848-5f67-4151-95f7-52ff0eee278d","ios":"levelo://app?vid=73ae6848-5f67-4151-95f7-52ff0eee278d"},"vehicle_type_id":"4","last_reported":1731280145,"current_range_meters":17600,"station_id":"ce4bguh2rcd13ifvqckg","pricing_plan_id":"cebpf4jnsgd1na2vs0mg"},{"bike_id":"1c02dc13-1543-4f46-a552-ab10c98bc210","system_id":"levelo_inurba_marseille","lat":43.29964,"lon":5.38504,"is_reserved":false,"is_disabled":false,"rental_uris":{"android":"levelo://app?vid=1c02dc13-1543-4f46-a552-ab10c98bc210","ios":"levelo://app?vid=1c02dc13-1543-4f46-a552-ab10c98bc210"},"vehicle_type_id":"4","last_reported":1731280145,"current_range_meters":25600,"station_id":"ce4bgj92rcd13ifvqbd0","pricing_plan_id":"cebpf4jnsgd1na2vs0mg"},{"bike_id":"1c7bac6c-9ac2-436e-b1c8-10804abd6e65","system_id":"levelo_inurba_marseille","lat":43.34064,"lon":5.40972,"is_reserved":false,"is_disabled":false,"rental_uris":{"android":"levelo://app?vid=1c7bac6c-9ac2-436e-b1c8-10804abd6e65","ios":"levelo://app?vid=1c7bac6c-9ac2-436e-b1c8-10804abd6e65"},"vehicle_type_id":"4","last_reported":1731280145,"current_range_meters":38400,"station_id":"","pricing_plan_id":"cebpf4jnsgd1na2vs0mg"},{"bike_id":"a4a63e3d-ff54-4ff1-abba-5e07e77c0f6e","system_id":"levelo_inurba_marseille","lat":43.30795,"lon":5.38165,"is_reserved":false,"is_disabled":false,"rental_uris":{"android":"levelo://app?vid=a4a63e3d-ff54-4ff1-abba-5e07e77c0f6e","ios":"levelo://app?vid=a4a63e3d-ff54-4ff1-abba-5e07e77c0f6e"},"vehicle_type_id":"4","last_reported":1731280145,"current_range_meters":40000,"station_id":"ce4bgt12rcd13ifvqce0","pricing_plan_id":"cebpf4jnsgd1na2vs0mg"},{"bike_id":"0720132e-7bdf-43b1-9783-11d9414873d5","system_id":"levelo_inurba_marseille","lat":43.26033,"lon":5.37551,"is_reserved":false,"is_disabled":false,"rental_uris":{"android":"levelo://app?vid=0720132e-7bdf-43b1-9783-11d9414873d5","ios":"levelo://app?vid=0720132e-7bdf-43b1-9783-11d9414873d5"},"vehicle_type_id":"4","last_reported":1731280145,"current_range_meters":38000,"station_id":"ce4bhgh2rcd13ifvqfa0","pricing_plan_id":"cebpf4jnsgd1na2vs0mg"},{"bike_id":"15126981-6d35-42cb-954b-f5f1f52e3d20","system_id":"levelo_inurba_marseille","lat":43.302,"lon":5.38958,"is_reserved":false,"is_disabled":false,"rental_uris":{"android":"levelo://app?vid=15126981-6d35-42cb-954b-f5f1f52e3d20","ios":"levelo://app?vid=15126981-6d35-42cb-954b-f5f1f52e3d20"},"vehicle_type_id":"4","last_reported":1731280145,"current_range_meters":34000,"station_id":"","pricing_plan_id":"cebpf4jnsgd1na2vs0mg"},{"bike_id":"203a15c9-60df-4940-9b77-9de40b0c35c9","system_id":"levelo_inurba_marseille","lat":43.28715,"lon":5.37943,"is_reserved":false,"is_disabled":false,"rental_uris":{"android":"levelo://app?vid=203a15c9-60df-4940-9b77-9de40b0c35c9","ios":"levelo://app?vid=203a15c9-60df-4940-9b77-9de40b0c35c9"},"vehicle_type_id":"4","last_reported":1731280145,"current_range_meters":36400,"station_id":"ce4bh9p2rcd13ifvqec0","pricing_plan_id":"cebpf4jnsgd1na2vs0mg"},{"bike_id":"ecb2a974-e4b0-4ec6-9a12-c0201c9679b2","system_id":"levelo_inurba_marseille","lat":43.24653,"lon":5.38888,"is_reserved":false,"is_disabled":false,"rental_uris":{"android":"levelo://app?vid=ecb2a974-e4b0-4ec6-9a12-c0201c9679b2","ios":"levelo://app?vid=ecb2a974-e4b0-4ec6-9a12-c0201c9679b2"},"vehicle_type_id":"4","last_reported":1731280145,"current_range_meters":13600,"station_id":"ce4bhg12rcd13ifvqf60","pricing_plan_id":"cebpf4jnsgd1na2vs0mg"},{"bike_id":"e3aa04e6-5bc6-4104-a0ac-848fd6f115a2","system_id":"levelo_inurba_marseille","lat":43.30296,"lon":5.39212,"is_reserved":false,"is_disabled":false,"rental_uris":{"android":"levelo://app?vid=e3aa04e6-5bc6-4104-a0ac-848fd6f115a2","ios":"levelo://app?vid=e3aa04e6-5bc6-4104-a0ac-848fd6f115a2"},"vehicle_type_id":"4","last_reported":1731280145,"current_range_meters":14000,"station_id":"ce4bgkh2rcd13ifvqbk0","pricing_plan_id":"cebpf4jnsgd1na2vs0mg"},{"bike_id":"9ab3b81e-4cd0-44e1-aa28-4461d425e0c0","system_id":"levelo_inurba_marseille","lat":43.32657,"lon":5.4098,"is_reserved":false,"is_disabled":false,"rental_uris":{"android":"levelo://app?vid=9ab3b81e-4cd0-44e1-aa28-4461d425e0c0","ios":"levelo://app?vid=9ab3b81e-4cd0-44e1-aa28-4461d425e0c0"},"vehicle_type_id":"4","last_reported":1731280145,"current_range_meters":36000,"station_id":"ce4bhpp2rcd13ifvqhgg","pricing_plan_id":"cebpf4jnsgd1na2vs0mg"},{"bike_id":"1f445bdb-6cba-4bc4-a07e-aa67ee26774c","system_id":"levelo_inurba_marseille","lat":43.30888,"lon":5.3964,"is_reserved":false,"is_disabled":false,"rental_uris":{"android":"levelo://app?vid=1f445bdb-6cba-4bc4-a07e-aa67ee26774c","ios":"levelo://app?vid=1f445bdb-6cba-4bc4-a07e-aa67ee26774c"},"vehicle_type_id":"4","last_reported":1731280145,"current_range_meters":39200,"station_id":"ce4bh012rcd13ifvqcv0","pricing_plan_id":"cebpf4jnsgd1na2vs0mg"},{"bike_id":"bedfe257-ec8e-44aa-a6ac-c456d43815ff","system_id":"levelo_inurba_marseille","lat":43.33609,"lon":5.41013,"is_reserved":false,"is_disabled":false,"rental_uris":{"android":"levelo://app?vid=bedfe257-ec8e-44aa-a6ac-c456d43815ff","ios":"levelo://app?vid=bedfe257-ec8e-44aa-a6ac-c456d43815ff"},"vehicle_type_id":"4","last_reported":1731280145,"current_range_meters":30400,"station_id":"ce4bhqh2rcd13ifvqhmg","pricing_plan_id":"cebpf4jnsgd1na2vs0mg"},{"bike_id":"ac659186-70a1-4190-99a4-216b54d87779","system_id":"levelo_inurba_marseille","lat":43.23152,"lon":5.437,"is_reserved":false,"is_disabled":false,"rental_uris":{"android":"levelo://app?vid=ac659186-70a1-4190-99a4-216b54d87779","ios":"levelo://app?vid=ac659186-70a1-4190-99a4-216b54d87779"},"vehicle_type_id":"4","last_reported":1731280145,"current_range_meters":38800,"station_id":"ce4bhmp2rcd13ifvqgog","pricing_plan_id":"cebpf4jnsgd1na2vs0mg"},{"bike_id":"147e98c8-cfbc-409b-b1d4-630c22736e97","system_id":"levelo_inurba_marseille","lat":43.27997,"lon":5.41667,"is_reserved":false,"is_disabled":false,"rental_uris":{"android":"levelo://app?vid=147e98c8-cfbc-409b-b1d4-630c22736e97","ios":"levelo://app?vid=147e98c8-cfbc-409b-b1d4-630c22736e97"},"vehicle_type_id":"4","last_reported":1731280145,"current_range_meters":28800,"station_id":"ce4bho12rcd13ifvqh1g","pricing_plan_id":"cebpf4jnsgd1na2vs0mg"},{"bike_id":"b72ca6e7-47e9-42be-9a97-b74e22acdc0e","system_id":"levelo_inurba_marseille","lat":43.321066,"lon":5.367799,"is_reserved":false,"is_disabled":false,"rental_uris":{"android":"levelo://app?vid=b72ca6e7-47e9-42be-9a97-b74e22acdc0e","ios":"levelo://app?vid=b72ca6e7-47e9-42be-9a97-b74e22acdc0e"},"vehicle_type_id":"4","last_reported":1731280145,"current_range_meters":35600,"station_id":"ce4bhrh2rcd13ifvqhug","pricing_plan_id":"cebpf4jnsgd1na2vs0mg"},{"bike_id":"4792911a-6b4e-49e6-ab0e-c3a2ae73e50b","system_id":"levelo_inurba_marseille","lat":43.28713,"lon":5.37941,"is_reserved":false,"is_disabled":false,"rental_uris":{"android":"levelo://app?vid=4792911a-6b4e-49e6-ab0e-c3a2ae73e50b","ios":"levelo://app?vid=4792911a-6b4e-49e6-ab0e-c3a2ae73e50b"},"vehicle_type_id":"4","last_reported":1731280145,"current_range_meters":34800,"station_id":"ce4bh9p2rcd13ifvqec0","pricing_plan_id":"cebpf4jnsgd1na2vs0mg"},{"bike_id":"cba560a9-225e-4f01-8c18-fb95478c098b","system_id":"levelo_inurba_marseille","lat":43.264636,"lon":5.380511,"is_reserved":false,"is_disabled":false,"rental_uris":{"android":"levelo://app?vid=cba560a9-225e-4f01-8c18-fb95478c098b","ios":"levelo://app?vid=cba560a9-225e-4f01-8c18-fb95478c098b"},"vehicle_type_id":"4","last_reported":1731280145,"current_range_meters":32800,"station_id":"","pricing_plan_id":"cebpf4jnsgd1na2vs0mg"},{"bike_id":"170a04c2-f6c9-4e93-aea7-62151668a7cd","system_id":"levelo_inurba_marseille","lat":43.2835,"lon":5.38116,"is_reserved":false,"is_disabled":false,"rental_uris":{"android":"levelo://app?vid=170a04c2-f6c9-4e93-aea7-62151668a7cd","ios":"levelo://app?vid=170a04c2-f6c9-4e93-aea7-62151668a7cd"},"vehicle_type_id":"4","last_reported":1731280145,"current_range_meters":10800,"station_id":"ce4bh412rcd13ifvqdr0","pricing_plan_id":"cebpf4jnsgd1na2vs0mg"},{"bike_id":"293a36bf-54a5-4d24-979e-5fcee2691167","system_id":"levelo_inurba_marseille","lat":43.27946,"lon":5.41068,"is_reserved":false,"is_disabled":false,"rental_uris":{"android":"levelo://app?vid=293a36bf-54a5-4d24-979e-5fcee2691167","ios":"levelo://app?vid=293a36bf-54a5-4d24-979e-5fcee2691167"},"vehicle_type_id":"4","last_reported":1731280145,"current_range_meters":22000,"station_id":"ce4bhnp2rcd13ifvqh0g","pricing_plan_id":"cebpf4jnsgd1na2vs0mg"},{"bike_id":"97c3055f-a428-4187-89cd-58052564d04c","system_id":"levelo_inurba_marseille","lat":43.30604,"lon":5.39364,"is_reserved":false,"is_disabled":false,"rental_uris":{"android":"levelo://app?vid=97c3055f-a428-4187-89cd-58052564d04c","ios":"levelo://app?vid=97c3055f-a428-4187-89cd-58052564d04c"},"vehicle_type_id":"4","last_reported":1731280145,"current_range_meters":32000,"station_id":"ce4bh0p2rcd13ifvqd80","pricing_plan_id":"cebpf4jnsgd1na2vs0mg"},{"bike_id":"c0adf7cc-ad53-4b30-988f-c0e3f3eb38b8","system_id":"levelo_inurba_marseille","lat":43.28108,"lon":5.37844,"is_reserved":false,"is_disabled":false,"rental_uris":{"android":"levelo://app?vid=c0adf7cc-ad53-4b30-988f-c0e3f3eb38b8","ios":"levelo://app?vid=c0adf7cc-ad53-4b30-988f-c0e3f3eb38b8"},"vehicle_type_id":"4","last_reported":1731280145,"current_range_meters":40000,"station_id":"ce4bha12rcd13ifvqee0","pricing_plan_id":"cebpf4jnsgd1na2vs0mg"},{"bike_id":"3bc699be-d107-4989-8d28-d8ecfe5f1c37","system_id":"levelo_inurba_marseille","lat":43.27814,"lon":5.40713,"is_reserved":false,"is_disabled":false,"rental_uris":{"android":"levelo://app?vid=3bc699be-d107-4989-8d28-d8ecfe5f1c37","ios":"levelo://app?vid=3bc699be-d107-4989-8d28-d8ecfe5f1c37"},"vehicle_type_id":"4","last_reported":1731280145,"current_range_meters":12000,"station_id":"ce4bhnh2rcd13ifvqgtg","pricing_plan_id":"cebpf4jnsgd1na2vs0mg"},{"bike_id":"2a369e15-ac9e-48ff-8dce-716646c1db0a","system_id":"levelo_inurba_marseille","lat":43.30547,"lon":5.36558,"is_reserved":false,"is_disabled":false,"rental_uris":{"android":"levelo://app?vid=2a369e15-ac9e-48ff-8dce-716646c1db0a","ios":"levelo://app?vid=2a369e15-ac9e-48ff-8dce-716646c1db0a"},"vehicle_type_id":"4","last_reported":1731280145,"current_range_meters":26000,"station_id":"ce4bgs12rcd13ifvqcag","pricing_plan_id":"cebpf4jnsgd1na2vs0mg"},{"bike_id":"ecf991fb-272f-48ac-bfd3-028c5c875379","system_id":"levelo_inurba_marseille","lat":43.32661,"lon":5.40993,"is_reserved":false,"is_disabled":false,"rental_uris":{"android":"levelo://app?vid=ecf991fb-272f-48ac-bfd3-028c5c875379","ios":"levelo://app?vid=ecf991fb-272f-48ac-bfd3-028c5c875379"},"vehicle_type_id":"4","last_reported":1731280145,"current_range_meters":23200,"station_id":"ce4bhpp2rcd13ifvqhgg","pricing_plan_id":"cebpf4jnsgd1na2vs0mg"},{"bike_id":"901a8ee9-a86a-49aa-b9b0-44d3ae03326a","system_id":"levelo_inurba_marseille","lat":43.3171,"lon":5.43697,"is_reserved":false,"is_disabled":false,"rental_uris":{"android":"levelo://app?vid=901a8ee9-a86a-49aa-b9b0-44d3ae03326a","ios":"levelo://app?vid=901a8ee9-a86a-49aa-b9b0-44d3ae03326a"},"vehicle_type_id":"4","last_reported":1731280145,"current_range_meters":10000,"station_id":"ce4bhp92rcd13ifvqhcg","pricing_plan_id":"cebpf4jnsgd1na2vs0mg"},{"bike_id":"52a71ef5-8ef7-4a13-9edb-b931936b8cfb","system_id":"levelo_inurba_marseille","lat":43.33722,"lon":5.39186,"is_reserved":false,"is_disabled":false,"rental_uris":{"android":"levelo://app?vid=52a71ef5-8ef7-4a13-9edb-b931936b8cfb","ios":"levelo://app?vid=52a71ef5-8ef7-4a13-9edb-b931936b8cfb"},"vehicle_type_id":"4","last_reported":1731280145,"current_range_meters":33600,"station_id":"ce4bhr92rcd13ifvqhsg","pricing_plan_id":"cebpf4jnsgd1na2vs0mg"},{"bike_id":"f23d7e81-bd37-43fe-a9a9-a09f7a4dfad6","system_id":"levelo_inurba_marseille","lat":43.301,"lon":5.39076,"is_reserved":false,"is_disabled":false,"rental_uris":{"android":"levelo://app?vid=f23d7e81-bd37-43fe-a9a9-a09f7a4dfad6","ios":"levelo://app?vid=f23d7e81-bd37-43fe-a9a9-a09f7a4dfad6"},"vehicle_type_id":"4","last_reported":1731280145,"current_range_meters":17200,"station_id":"ce4bh192rcd13ifvqdb0","pricing_plan_id":"cebpf4jnsgd1na2vs0mg"},{"bike_id":"ad086397-534f-4a0c-bc69-75a241990385","system_id":"levelo_inurba_marseille","lat":43.29168,"lon":5.37166,"is_reserved":false,"is_disabled":false,"rental_uris":{"android":"levelo://app?vid=ad086397-534f-4a0c-bc69-75a241990385","ios":"levelo://app?vid=ad086397-534f-4a0c-bc69-75a241990385"},"vehicle_type_id":"4","last_reported":1731280145,"current_range_meters":27200,"station_id":"ce4bha92rcd13ifvqeh0","pricing_plan_id":"cebpf4jnsgd1na2vs0mg"},{"bike_id":"e2284c69-b522-4414-9ad3-467921554653","system_id":"levelo_inurba_marseille","lat":43.29322,"lon":5.37158,"is_reserved":false,"is_disabled":false,"rental_uris":{"android":"levelo://app?vid=e2284c69-b522-4414-9ad3-467921554653","ios":"levelo://app?vid=e2284c69-b522-4414-9ad3-467921554653"},"vehicle_type_id":"4","last_reported":1731280145,"current_range_meters":19200,"station_id":"ce4bgh92rcd13ifvqb40","pricing_plan_id":"cebpf4jnsgd1na2vs0mg"},{"bike_id":"cf678ceb-3446-4937-b2e7-921edbcce60b","system_id":"levelo_inurba_marseille","lat":43.32292,"lon":5.38266,"is_reserved":false,"is_disabled":false,"rental_uris":{"android":"levelo://app?vid=cf678ceb-3446-4937-b2e7-921edbcce60b","ios":"levelo://app?vid=cf678ceb-3446-4937-b2e7-921edbcce60b"},"vehicle_type_id":"4","last_reported":1731280145,"current_range_meters":32000,"station_id":"ce4bhr12rcd13ifvqhqg","pricing_plan_id":"cebpf4jnsgd1na2vs0mg"},{"bike_id":"c606c8ab-ae1e-4e0c-8e55-8a9ba495616e","system_id":"levelo_inurba_marseille","lat":43.2573,"lon":5.41118,"is_reserved":false,"is_disabled":false,"rental_uris":{"android":"levelo://app?vid=c606c8ab-ae1e-4e0c-8e55-8a9ba495616e","ios":"levelo://app?vid=c606c8ab-ae1e-4e0c-8e55-8a9ba495616e"},"vehicle_type_id":"4","last_reported":1731280145,"current_range_meters":8400,"station_id":"ce4bhkp2rcd13ifvqgd0","pricing_plan_id":"cebpf4jnsgd1na2vs0mg"},{"bike_id":"ac0c247f-afb1-4fde-8602-a85a4e1a48cc","system_id":"levelo_inurba_marseille","lat":43.32656,"lon":5.40994,"is_reserved":false,"is_disabled":false,"rental_uris":{"android":"levelo://app?vid=ac0c247f-afb1-4fde-8602-a85a4e1a48cc","ios":"levelo://app?vid=ac0c247f-afb1-4fde-8602-a85a4e1a48cc"},"vehicle_type_id":"4","last_reported":1731280145,"current_range_meters":38800,"station_id":"ce4bhpp2rcd13ifvqhgg","pricing_plan_id":"cebpf4jnsgd1na2vs0mg"},{"bike_id":"c74a236a-3f2a-4617-8ca8-47c166434983","system_id":"levelo_inurba_marseille","lat":43.28152,"lon":5.42642,"is_reserved":false,"is_disabled":false,"rental_uris":{"android":"levelo://app?vid=c74a236a-3f2a-4617-8ca8-47c166434983","ios":"levelo://app?vid=c74a236a-3f2a-4617-8ca8-47c166434983"},"vehicle_type_id":"4","last_reported":1731280145,"current_range_meters":21600,"station_id":"ce4bhnh2rcd13ifvqgug","pricing_plan_id":"cebpf4jnsgd1na2vs0mg"},{"bike_id":"655b983a-d6fe-46e9-a44e-b3ca6a5c843c","system_id":"levelo_inurba_marseille","lat":43.24657,"lon":5.3816,"is_reserved":false,"is_disabled":false,"rental_uris":{"android":"levelo://app?vid=655b983a-d6fe-46e9-a44e-b3ca6a5c843c","ios":"levelo://app?vid=655b983a-d6fe-46e9-a44e-b3ca6a5c843c"},"vehicle_type_id":"4","last_reported":1731280145,"current_range_meters":6400,"station_id":"ce4bhih2rcd13ifvqfr0","pricing_plan_id":"cebpf4jnsgd1na2vs0mg"},{"bike_id":"624198ac-83ea-45c9-a527-65a2624f8dc2","system_id":"levelo_inurba_marseille","lat":43.25822,"lon":5.39442,"is_reserved":false,"is_disabled":false,"rental_uris":{"android":"levelo://app?vid=624198ac-83ea-45c9-a527-65a2624f8dc2","ios":"levelo://app?vid=624198ac-83ea-45c9-a527-65a2624f8dc2"},"vehicle_type_id":"4","last_reported":1731280145,"current_range_meters":24000,"station_id":"ce4bhip2rcd13ifvqft0","pricing_plan_id":"cebpf4jnsgd1na2vs0mg"},{"bike_id":"81c3c706-55d5-4515-bcda-e2c7ffc6d53f","system_id":"levelo_inurba_marseille","lat":43.30799,"lon":5.43525,"is_reserved":false,"is_disabled":false,"rental_uris":{"android":"levelo://app?vid=81c3c706-55d5-4515-bcda-e2c7ffc6d53f","ios":"levelo://app?vid=81c3c706-55d5-4515-bcda-e2c7ffc6d53f"},"vehicle_type_id":"4","last_reported":1731280145,"current_range_meters":16800,"station_id":"ce4bhph2rcd13ifvqheg","pricing_plan_id":"cebpf4jnsgd1na2vs0mg"},{"bike_id":"e88b95ba-3b50-479e-a4fb-1ef1bbfecace","system_id":"levelo_inurba_marseille","lat":43.31328,"lon":5.39688,"is_reserved":false,"is_disabled":false,"rental_uris":{"android":"levelo://app?vid=e88b95ba-3b50-479e-a4fb-1ef1bbfecace","ios":"levelo://app?vid=e88b95ba-3b50-479e-a4fb-1ef1bbfecace"},"vehicle_type_id":"4","last_reported":1731280145,"current_range_meters":30400,"station_id":"ce4bgvp2rcd13ifvqcu0","pricing_plan_id":"cebpf4jnsgd1na2vs0mg"},{"bike_id":"16edd5e5-0497-4831-bb6b-d18eb7e92293","system_id":"levelo_inurba_marseille","lat":43.24812,"lon":5.37457,"is_reserved":false,"is_disabled":false,"rental_uris":{"android":"levelo://app?vid=16edd5e5-0497-4831-bb6b-d18eb7e92293","ios":"levelo://app?vid=16edd5e5-0497-4831-bb6b-d18eb7e92293"},"vehicle_type_id":"4","last_reported":1731280145,"current_range_meters":27600,"station_id":"ce4bhgh2rcd13ifvqfb0","pricing_plan_id":"cebpf4jnsgd1na2vs0mg"},{"bike_id":"feb86f62-2c80-4064-8e38-33c5534046da","system_id":"levelo_inurba_marseille","lat":43.28189,"lon":5.3989,"is_reserved":false,"is_disabled":false,"rental_uris":{"android":"levelo://app?vid=feb86f62-2c80-4064-8e38-33c5534046da","ios":"levelo://app?vid=feb86f62-2c80-4064-8e38-33c5534046da"},"vehicle_type_id":"4","last_reported":1731280145,"current_range_meters":19600,"station_id":"","pricing_plan_id":"cebpf4jnsgd1na2vs0mg"},