{"last_updated":1739449033,"ttl":60,"version":"2.2","data":{"bikes":[{"bike_id":"c49ec770-fa2f-4512-b044-9badf8a669ba","system_id":"levelo_inurba_marseille","lat":43.30434,"lon":5.389,"is_reserved":false,"is_disabled":false,"rental_uris":{"android":"levelo://app?vid=c49ec770-fa2f-4512-b044-9badf8a669ba","ios":"levelo://app?vid=c49ec770-fa2f-4512-b044-9badf8a669ba"},"vehicle_type_id":"4","last_reported":1739449033,"current_range_meters":38800,"station_id":"ce4bgk12rcd13ifvqbi0","pricing_plan_id":"cebpf4jnsgd1na2vs0mg"},{"bike_id":"2a32623e-3d15-4c8d-9a1c-e42b36fff43d","system_id":"levelo_inurba_marseille","lat":43.26939,"lon":5.40251,"is_reserved":false,"is_disabled":false,"rental_uris":{"android":"levelo://app?vid=2a32623e-3d15-4c8d-9a1c-e42b36fff43d","ios":"levelo://app?vid=2a32623e-3d15-4c8d-9a1c-e42b36fff43d"},"vehicle_type_id":"4","last_reported":1739449033,"current_range_meters":18000,"station_id":"cjm6bp8fraef2m0cb0m0","pricing_plan_id":"cebpf4jnsgd1na2vs0mg"},{"bike_id":"9c9e6dfa-122e-4154-8057-4016db8e7671","system_id":"levelo_inurba_marseille","lat":43.33736,"lon":5.39207,"is_reserved":false,"is_disabled":false,"rental_uris":{"android":"levelo://app?vid=9c9e6dfa-122e-4154-8057-4016db8e7671","ios":"levelo://app?vid=9c9e6dfa-122e-4154-8057-4016db8e7671"},"vehicle_type_id":"4","last_reported":1739449033,"current_range_meters":38800,"station_id":"ce4bhr92rcd13ifvqhsg","pricing_plan_id":"cebpf4jnsgd1na2vs0mg"},{"bike_id":"35c96b0b-eb3c-4787-a379-c8c27196e8bc","system_id":"levelo_inurba_marseille","lat":43.3253,"lon":5.36568,"is_reserved":false,"is_disabled":false,"rental_uris":{"android":"levelo://app?vid=35c96b0b-eb3c-4787-a379-c8c27196e8bc","ios":"levelo://app?vid=35c96b0b-eb3c-4787-a379-c8c27196e8bc"},"vehicle_type_id":"4","last_reported":1739449033,"current_range_meters":38800,"station_id":"ce4bhs12rcd13ifvqhvg","pricing_plan_id":"cebpf4jnsgd1na2vs0mg"},{"bike_id":"1d4165b9-e8af-42e7-8e88-54a0f84b4f26","system_id":"levelo_inurba_marseille","lat":43.23179,"lon":5.39851,"is_reserved":false,"is_disabled":false,"rental_uris":{"android":"levelo://app?vid=1d4165b9-e8af-42e7-8e88-54a0f84b4f26","ios":"levelo://app?vid=1d4165b9-e8af-42e7-8e88-54a0f84b4f26"},"vehicle_type_id":"4","last_reported":1739449033,"current_range_meters":35200,"station_id":"ce4bhn12rcd13ifvqgqg","pricing_plan_id":"cebpf4jnsgd1na2vs0mg"},{"bike_id":"f6ef4f9a-c914-4d4b-a06e-00485b64285e","system_id":"levelo_inurba_marseille","lat":43.32485,"lon":5.36598,"is_reserved":false,"is_disabled":false,"rental_uris":{"android":"levelo://app?vid=f6ef4f9a-c914-4d4b-a06e-00485b64285e","ios":"levelo://app?vid=f6ef4f9a-c914-4d4b-a06e-00485b64285e"},"vehicle_type_id":"4","last_reported":1739449033,"current_range_meters":38800,"station_id":"ce4bhs12rcd13ifvqhvg","pricing_plan_id":"cebpf4jnsgd1na2vs0mg"},{"bike_id":"fc307c26-016b-4cf5-bcc1-e7a2a92d4399","system_id":"levelo_inurba_marseille","lat":43.30961,"lon":5.3904,"is_reserved":false,"is_disabled":false,"rental_uris":{"android":"levelo://app?vid=fc307c26-016b-4cf5-bcc1-e7a2a92d4399","ios":"levelo://app?vid=fc307c26-016b-4cf5-bcc1-e7a2a92d4399"},"vehicle_type_id":"4","last_reported":1739449033,"current_range_meters":16000,"station_id":"ce4bgup2rcd13ifvqco0","pricing_plan_id":"cebpf4jnsgd1na2vs0mg"},{"bike_id":"988bbda5-f775-47fb-8c30-4f6e37e64228","system_id":"levelo_inurba_marseille","lat":43.34153,"lon":5.40901,"is_reserved":false,"is_disabled":false,"rental_uris":{"android":"levelo://app?vid=988bbda5-f775-47fb-8c30-4f6e37e64228","ios":"levelo://app?vid=988bbda5-f775-47fb-8c30-4f6e37e64228"},"vehicle_type_id":"4","last_reported":1739449033,"current_range_meters":38800,"station_id":"ce4bhqh2rcd13ifvqhlg","pricing_plan_id":"cebpf4jnsgd1na2vs0mg"},{"bike_id":"c6417870-d31e-4290-b107-44e547ac583f","system_id":"levelo_inurba_marseille","lat":43.30597,"lon":5.37237,"is_reserved":false,"is_disabled":false,"rental_uris":{"android":"levelo://app?vid=c6417870-d31e-4290-b107-44e547ac583f","ios":"levelo://app?vid=c6417870-d31e-4290-b107-44e547ac583f"},"vehicle_type_id":"4","last_reported":1739449033,"current_range_meters":22800,"station_id":"ce4bgqh2rcd13ifvqc4g","pricing_plan_id":"cebpf4jnsgd1na2vs0mg"},{"bike_id":"315cfa1d-e800-4275-8ae9-7dc66512e81c","system_id":"levelo_inurba_marseille","lat":43.26942,"lon":5.40249,"is_reserved":false,"is_disabled":false,"rental_uris":{"android":"levelo://app?vid=315cfa1d-e800-4275-8ae9-7dc66512e81c","ios":"levelo://app?vid=315cfa1d-e800-4275-8ae9-7dc66512e81c"},"vehicle_type_id":"4","last_reported":1739449033,"current_range_meters":14000,"station_id":"cjm6bp8fraef2m0cb0m0","pricing_plan_id":"cebpf4jnsgd1na2vs0mg"},{"bike_id":"8390feee-0735-4b8f-90c8-f81c741ca7d5","system_id":"levelo_inurba_marseille","lat":43.24815,"lon":5.37462,"is_reserved":false,"is_disabled":false,"rental_uris":{"android":"levelo://app?vid=8390feee-0735-4b8f-90c8-f81c741ca7d5","ios":"levelo://app?vid=8390feee-0735-4b8f-90c8-f81c741ca7d5"},"vehicle_type_id":"4","last_reported":1739449033,"current_range_meters":38000,"station_id":"ce4bhgh2rcd13ifvqfb0","pricing_plan_id":"cebpf4jnsgd1na2vs0mg"},{"bike_id":"b46d45db-5989-4cca-9113-91ce6e38e250","system_id":"levelo_inurba_marseille","lat":43.29006,"lon":5.35619,"is_reserved":false,"is_disabled":false,"rental_uris":{"android":"levelo://app?vid=b46d45db-5989-4cca-9113-91ce6e38e250","ios":"levelo://app?vid=b46d45db-5989-4cca-9113-91ce6e38e250"},"vehicle_type_id":"4","last_reported":1739449033,"current_range_meters":31200,"station_id":"ce4bhb92rcd13ifvqen0","pricing_plan_id":"cebpf4jnsgd1na2vs0mg"},{"bike_id":"9e4564f0-0519-46c9-beea-73f529a3ce6a","system_id":"levelo_inurba_marseille","lat":43.24807,"lon":5.37461,"is_reserved":false,"is_disabled":false,"rental_uris":{"android":"levelo://app?vid=9e4564f0-0519-46c9-beea-73f529a3ce6a","ios":"levelo://app?vid=9e4564f0-0519-46c9-beea-73f529a3ce6a"},"vehicle_type_id":"4","last_reported":1739449033,"current_range_meters":24800,"station_id":"ce4bhgh2rcd13ifvqfb0","pricing_plan_id":"cebpf4jnsgd1na2vs0mg"},{"bike_id":"b44c1318-afe6-4125-8c53-9a713065e4fc","system_id":"levelo_inurba_marseille","lat":43.30285,"lon":5.36906,"is_reserved":false,"is_disabled":false,"rental_uris":{"android":"levelo://app?vid=b44c1318-afe6-4125-8c53-9a713065e4fc","ios":"levelo://app?vid=b44c1318-afe6-4125-8c53-9a713065e4fc"},"vehicle_type_id":"4","last_reported":1739449033,"current_range_meters":38000,"station_id":"ce4bgqh2rcd13ifvqc5g","pricing_plan_id":"cebpf4jnsgd1na2vs0mg"},{"bike_id":"209607b8-e0db-40be-8468-78df3a2229d7","system_id":"levelo_inurba_marseille","lat":43.29787,"lon":5.37082,"is_reserved":false,"is_disabled":false,"rental_uris":{"android":"levelo://app?vid=209607b8-e0db-40be-8468-78df3a2229d7","ios":"levelo://app?vid=209607b8-e0db-40be-8468-78df3a2229d7"},"vehicle_type_id":"4","last_reported":1739449033,"current_range_meters":30400,"station_id":"ce4bgop2rcd13ifvqc1g","pricing_plan_id":"cebpf4jnsgd1na2vs0mg"},{"bike_id":"ac2f5c21-615f-4f60-8b2b-9954adc8ad1d","system_id":"levelo_inurba_marseille","lat":43.29863,"lon":5.36279,"is_reserved":false,"is_disabled":false,"rental_uris":{"android":"levelo://app?vid=ac2f5c21-615f-4f60-8b2b-9954adc8ad1d","ios":"levelo://app?vid=ac2f5c21-615f-4f60-8b2b-9954adc8ad1d"},"vehicle_type_id":"4","last_reported":1739449033,"current_range_meters":38800,"station_id":"ce4bgpp2rcd13ifvqc3g","pricing_plan_id":"cebpf4jnsgd1na2vs0mg"},{"bike_id":"f19b3f6f-e3c3-4220-818d-e5482b0b43b6","system_id":"levelo_inurba_marseille","lat":43.25009,"lon":5.38933,"is_reserved":false,"is_disabled":false,"rental_uris":{"android":"levelo://app?vid=f19b3f6f-e3c3-4220-818d-e5482b0b43b6","ios":"levelo://app?vid=f19b3f6f-e3c3-4220-818d-e5482b0b43b6"},"vehicle_type_id":"4","last_reported":1739449033,"current_range_meters":27600,"station_id":"ce4bhgp2rcd13ifvqfd0","pricing_plan_id":"cebpf4jnsgd1na2vs0mg"},{"bike_id":"83235b4c-dfe0-49a4-978b-f4b0b2b6fa10","system_id":"levelo_inurba_marseille","lat":43.29048,"lon":5.35919,"is_reserved":false,"is_disabled":false,"rental_uris":{"android":"levelo://app?vid=83235b4c-dfe0-49a4-978b-f4b0b2b6fa10","ios":"levelo://app?vid=83235b4c-dfe0-49a4-978b-f4b0b2b6fa10"},"vehicle_type_id":"4","last_reported":1739449033,"current_range_meters":39200,"station_id":"ce4bha92rcd13ifvqeg0","pricing_plan_id":"cebpf4jnsgd1na2vs0mg"},{"bike_id":"39e55a90-fe76-4904-bf9c-9841fe168f13","system_id":"levelo_inurba_marseille","lat":43.33737,"lon":5.3918,"is_reserved":false,"is_disabled":false,"rental_uris":{"android":"levelo://app?vid=39e55a90-fe76-4904-bf9c-9841fe168f13","ios":"levelo://app?vid=39e55a90-fe76-4904-bf9c-9841fe168f13"},"vehicle_type_id":"4","last_reported":1739449033,"current_range_meters":38000,"station_id":"ce4bhr92rcd13ifvqhsg","pricing_plan_id":"cebpf4jnsgd1na2vs0mg"},{"bike_id":"1f165491-5251-409e-b9c1-4cc4ce0e7dc6","system_id":"levelo_inurba_marseille","lat":43.30103,"lon":5.39083,"is_reserved":false,"is_disabled":false,"rental_uris":{"android":"levelo://app?vid=1f165491-5251-409e-b9c1-4cc4ce0e7dc6","ios":"levelo://app?vid=1f165491-5251-409e-b9c1-4cc4ce0e7dc6"},"vehicle_type_id":"4","last_reported":1739449033,"current_range_meters":26000,"station_id":"ce4bh192rcd13ifvqdb0","pricing_plan_id":"cebpf4jnsgd1na2vs0mg"},{"bike_id":"7b830c89-3a1c-4014-a605-109efca81479","system_id":"levelo_inurba_marseille","lat":43.27668,"lon":5.38927,"is_reserved":false,"is_disabled":false,"rental_uris":{"android":"levelo://app?vid=7b830c89-3a1c-4014-a605-109efca81479","ios":"levelo://app?vid=7b830c89-3a1c-4014-a605-109efca81479"},"vehicle_type_id":"4","last_reported":1739449033,"current_range_meters":38800,"station_id":"ce4bhi12rcd13ifvqfo0","pricing_plan_id":"cebpf4jnsgd1na2vs0mg"},{"bike_id":"3c1530a7-718c-4463-a9bc-88472caca1ad","system_id":"levelo_inurba_marseille","lat":43.29214,"lon":5.36083,"is_reserved":false,"is_disabled":false,"rental_uris":{"android":"levelo://app?vid=3c1530a7-718c-4463-a9bc-88472caca1ad","ios":"levelo://app?vid=3c1530a7-718c-4463-a9bc-88472caca1ad"},"vehicle_type_id":"4","last_reported":1739449033,"current_range_meters":38800,"station_id":"ce4bhbh2rcd13ifvqeqg","pricing_plan_id":"cebpf4jnsgd1na2vs0mg"},{"bike_id":"74eed58f-1fd9-4ea4-a6c5-9ec97791fe06","system_id":"levelo_inurba_marseille","lat":43.28116,"lon":5.37868,"is_reserved":false,"is_disabled":false,"rental_uris":{"android":"levelo://app?vid=74eed58f-1fd9-4ea4-a6c5-9ec97791fe06","ios":"levelo://app?vid=74eed58f-1fd9-4ea4-a6c5-9ec97791fe06"},"vehicle_type_id":"4","last_reported":1739449033,"current_range_meters":39200,"station_id":"ce4bha12rcd13ifvqee0","pricing_plan_id":"cebpf4jnsgd1na2vs0mg"},{"bike_id":"2a5c1b07-7008-4f6d-9a02-f1ed29550b44","system_id":"levelo_inurba_marseille","lat":43.32492,"lon":5.36558,"is_reserved":false,"is_disabled":false,"rental_uris":{"android":"levelo://app?vid=2a5c1b07-7008-4f6d-9a02-f1ed29550b44","ios":"levelo://app?vid=2a5c1b07-7008-4f6d-9a02-f1ed29550b44"},"vehicle_type_id":"4","last_reported":1739449033,"current_range_meters":27200,"station_id":"ce4bhs12rcd13ifvqhvg","pricing_plan_id":"cebpf4jnsgd1na2vs0mg"},{"bike_id":"8292432b-ffe7-4134-a1fa-801fa6c43494","system_id":"levelo_inurba_marseille","lat":43.3096,"lon":5.39033,"is_reserved":false,"is_disabled":false,"rental_uris":{"android":"levelo://app?vid=8292432b-ffe7-4134-a1fa-801fa6c43494","ios":"levelo://app?vid=8292432b-ffe7-4134-a1fa-801fa6c43494"},"vehicle_type_id":"4","last_reported":1739449033,"current_range_meters":38800,"station_id":"ce4bgup2rcd13ifvqco0","pricing_plan_id":"cebpf4jnsgd1na2vs0mg"},{"bike_id":"7fb1b6a0-2d6c-4c12-8349-934874f12d6c","system_id":"levelo_inurba_marseille","lat":43.27826,"lon":5.3922,"is_reserved":false,"is_disabled":false,"rental_uris":{"android":"levelo://app?vid=7fb1b6a0-2d6c-4c12-8349-934874f12d6c","ios":"levelo://app?vid=7fb1b6a0-2d6c-4c12-8349-934874f12d6c"},"vehicle_type_id":"4","last_reported":1739449033,"current_range_meters":28800,"station_id":"ce4bhjp2rcd13ifvqga0","pricing_plan_id":"cebpf4jnsgd1na2vs0mg"},{"bike_id":"8054137f-c573-408f-9225-3700b33ee09c","system_id":"levelo_inurba_marseille","lat":43.30316,"lon":5.36897,"is_reserved":false,"is_disabled":false,"rental_uris":{"android":"levelo://app?vid=8054137f-c573-408f-9225-3700b33ee09c","ios":"levelo://app?vid=8054137f-c573-408f-9225-3700b33ee09c"},"vehicle_type_id":"4","last_reported":1739449033,"current_range_meters":16000,"station_id":"ce4bgqh2rcd13ifvqc5g","pricing_plan_id":"cebpf4jnsgd1na2vs0mg"},{"bike_id":"2aaa0461-0d26-4d11-8e1e-9a504fd159ff","system_id":"levelo_inurba_marseille","lat":43.28727,"lon":5.38505,"is_reserved":false,"is_disabled":false,"rental_uris":{"android":"levelo://app?vid=2aaa0461-0d26-4d11-8e1e-9a504fd159ff","ios":"levelo://app?vid=2aaa0461-0d26-4d11-8e1e-9a504fd159ff"},"vehicle_type_id":"4","last_reported":1739449033,"current_range_meters":25200,"station_id":"","pricing_plan_id":"cebpf4jnsgd1na2vs0mg"},{"bike_id":"8900e754-ee32-4b2e-947b-9c238986e436","system_id":"levelo_inurba_marseille","lat":43.28276,"lon":5.35074,"is_reserved":false,"is_disabled":false,"rental_uris":{"android":"levelo://app?vid=8900e754-ee32-4b2e-947b-9c238986e436","ios":"levelo://app?vid=8900e754-ee32-4b2e-947b-9c238986e436"},"vehicle_type_id":"4","last_reported":1739449033,"current_range_meters":26000,"station_id":"ce4bhbp2rcd13ifvqerg","pricing_plan_id":"cebpf4jnsgd1na2vs0mg"},{"bike_id":"5168ef14-4670-4ecd-bc7f-b26f55eeb766","system_id":"levelo_inurba_marseille","lat":43.292969,"lon":5.374706,"is_reserved":false,"is_disabled":false,"rental_uris":{"android":"levelo://app?vid=5168ef14-4670-4ecd-bc7f-b26f55eeb766","ios":"levelo://app?vid=5168ef14-4670-4ecd-bc7f-b26f55eeb766"},"vehicle_type_id":"4","last_reported":1739449033,"current_range_meters":37600,"station_id":"ce4bhb92rcd13ifvqen0","pricing_plan_id":"cebpf4jnsgd1na2vs0mg"},{"bike_id":"4b25ff7a-3759-4058-a0c0-b84f1c6ce666","system_id":"levelo_inurba_marseille","lat":43.29709,"lon":5.37702,"is_reserved":false,"is_disabled":false,"rental_uris":{"android":"levelo://app?vid=4b25ff7a-3759-4058-a0c0-b84f1c6ce666","ios":"levelo://app?vid=4b25ff7a-3759-4058-a0c0-b84f1c6ce666"},"vehicle_type_id":"4","last_reported":1739449033,"current_range_meters":37600,"station_id":"ce4bgkh2rcd13ifvqbl0","pricing_plan_id":"cebpf4jnsgd1na2vs0mg"},{"bike_id":"5f5670ff-2a63-4845-a085-cb1a6eaeab5d","system_id":"levelo_inurba_marseille","lat":43.29204,"lon":5.35902,"is_reserved":false,"is_disabled":false,"rental_uris":{"android":"levelo://app?vid=5f5670ff-2a63-4845-a085-cb1a6eaeab5d","ios":"levelo://app?vid=5f5670ff-2a63-4845-a085-cb1a6eaeab5d"},"vehicle_type_id":"4","last_reported":1739449033,"current_range_meters":17600,"station_id":"ce4bha92rcd13ifvqeg0","pricing_plan_id":"cebpf4jnsgd1na2vs0mg"},{"bike_id":"dcca8e37-a6db-4e39-9c16-0fe565f8ffc5","system_id":"levelo_inurba_marseille","lat":43.2318,"lon":5.39988,"is_reserved":false,"is_disabled":false,"rental_uris":{"android":"levelo://app?vid=dcca8e37-a6db-4e39-9c16-0fe565f8ffc5","ios":"levelo://app?vid=dcca8e37-a6db-4e39-9c16-0fe565f8ffc5"},"vehicle_type_id":"4","last_reported":1739449033,"current_range_meters":28400,"station_id":"ce4bhn12rcd13ifvqgqg","pricing_plan_id":"cebpf4jnsgd1na2vs0mg"},{"bike_id":"df93bf05-8e82-48db-be69-f6569085e01c","system_id":"levelo_inurba_marseille","lat":43.25865,"lon":5.3991,"is_reserved":false,"is_disabled":false,"rental_uris":{"android":"levelo://app?vid=df93bf05-8e82-48db-be69-f6569085e01c","ios":"levelo://app?vid=df93bf05-8e82-48db-be69-f6569085e01c"},"vehicle_type_id":"4","last_reported":1739449033,"current_range_meters":4400,"station_id":"ce4bhl92rcd13ifvqghg","pricing_plan_id":"cebpf4jnsgd1na2vs0mg"},{"bike_id":"5e26e6c9-5ef7-41b0-b07f-6bc5dfe3c4dc","system_id":"levelo_inurba_marseille","lat":43.30234,"lon":5.39488,"is_reserved":false,"is_disabled":false,"rental_uris":{"android":"levelo://app?vid=5e26e6c9-5ef7-41b0-b07f-6bc5dfe3c4dc","ios":"levelo://app?vid=5e26e6c9-5ef7-41b0-b07f-6bc5dfe3c4dc"},"vehicle_type_id":"4","last_reported":1739449033,"current_range_meters":38800,"station_id":"ce4bh0p2rcd13ifvqd70","pricing_plan_id":"cebpf4jnsgd1na2vs0mg"},{"bike_id":"2c6d46bc-15d7-408b-8dbb-d8c4ad5bbf49","system_id":"levelo_inurba_marseille","lat":43.29727,"lon":5.37679,"is_reserved":false,"is_disabled":false,"rental_uris":{"android":"levelo://app?vid=2c6d46bc-15d7-408b-8dbb-d8c4ad5bbf49","ios":"levelo://app?vid=2c6d46bc-15d7-408b-8dbb-d8c4ad5bbf49"},"vehicle_type_id":"4","last_reported":1739449033,"current_range_meters":38800,"station_id":"ce4bgkh2rcd13ifvqbl0","pricing_plan_id":"cebpf4jnsgd1na2vs0mg"},{"bike_id":"d80bb245-4e61-497c-ac59-36ccacf4da40","system_id":"levelo_inurba_marseille","lat":43.29418,"lon":5.38612,"is_reserved":false,"is_disabled":true,"rental_uris":{"android":"levelo://app?vid=d80bb245-4e61-497c-ac59-36ccacf4da40","ios":"levelo://app?vid=d80bb245-4e61-497c-ac59-36ccacf4da40"},"vehicle_type_id":"4","last_reported":1739449033,"current_range_meters":36000,"station_id":"ce4bh2h2rcd13ifvqdh0","pricing_plan_id":"cebpf4jnsgd1na2vs0mg"},{"bike_id":"83f86852-939d-4ba2-8006-31400717194c","system_id":"levelo_inurba_marseille","lat":43.27822,"lon":5.40704,"is_reserved":false,"is_disabled":false,"rental_uris":{"android":"levelo://app?vid=83f86852-939d-4ba2-8006-31400717194c","ios":"levelo://app?vid=83f86852-939d-4ba2-8006-31400717194c"},"vehicle_type_id":"4","last_reported":1739449033,"current_range_meters":26000,"station_id":"ce4bhnh2rcd13ifvqgtg","pricing_plan_id":"cebpf4jnsgd1na2vs0mg"},{"bike_id":"1f591447-b542-497b-a21e-dfda09c304ae","system_id":"levelo_inurba_marseille","lat":43.29914,"lon":5.37466,"is_reserved":false,"is_disabled":false,"rental_uris":{"android":"levelo://app?vid=1f591447-b542-497b-a21e-dfda09c304ae","ios":"levelo://app?vid=1f591447-b542-497b-a21e-dfda09c304ae"},"vehicle_type_id":"4","last_reported":1739449033,"current_range_meters":11200,"station_id":"ce4bgjh2rcd13ifvqbg0","pricing_plan_id":"cebpf4jnsgd1na2vs0mg"},{"bike_id":"03f1ee11-be7f-45e6-a171-a893130e88b6","system_id":"levelo_inurba_marseille","lat":43.29007,"lon":5.35611,"is_reserved":false,"is_disabled":false,"rental_uris":{"android":"levelo://app?vid=03f1ee11-be7f-45e6-a171-a893130e88b6","ios":"levelo://app?vid=03f1ee11-be7f-45e6-a171-a893130e88b6"},"vehicle_type_id":"4","last_reported":1739449033,"current_range_meters":38800,"station_id":"ce4bhb92rcd13ifvqen0","pricing_plan_id":"cebpf4jnsgd1na2vs0mg"},{"bike_id":"704ec19d-e7c0-4858-a423-dcfa560220a5","system_id":"levelo_inurba_marseille","lat":43.23188,"lon":5.39973,"is_reserved":false,"is_disabled":false,"rental_uris":{"android":"levelo://app?vid=704ec19d-e7c0-4858-a423-dcfa560220a5","ios":"levelo://app?vid=704ec19d-e7c0-4858-a423-dcfa560220a5"},"vehicle_type_id":"4","last_reported":1739449033,"current_range_meters":36800,"station_id":"ce4bhn12rcd13ifvqgqg","pricing_plan_id":"cebpf4jnsgd1na2vs0mg"},{"bike_id":"aa9010f5-ddb8-40ac-92f7-6cf7d13e88ae","system_id":"levelo_inurba_marseille","lat":43.26705,"lon":5.38263,"is_reserved":false,"is_disabled":false,"rental_uris":{"android":"levelo://app?vid=aa9010f5-ddb8-40ac-92f7-6cf7d13e88ae","ios":"levelo://app?vid=aa9010f5-ddb8-40ac-92f7-6cf7d13e88ae"},"vehicle_type_id":"4","last_reported":1739449033,"current_range_meters":38000,"station_id":"ce4bhg92rcd13ifvqf90","pricing_plan_id":"cebpf4jnsgd1na2vs0mg"},{"bike_id":"a963d31a-9d3b-4fa1-8726-ac466c109492","system_id":"levelo_inurba_marseille","lat":43.33612,"lon":5.41013,"is_reserved":false,"is_disabled":false,"rental_uris":{"android":"levelo://app?vid=a963d31a-9d3b-4fa1-8726-ac466c109492","ios":"levelo://app?vid=a963d31a-9d3b-4fa1-8726-ac466c109492"},"vehicle_type_id":"4","last_reported":1739449033,"current_range_meters":33600,"station_id":"ce4bhqh2rcd13ifvqhmg","pricing_plan_id":"cebpf4jnsgd1na2vs0mg"},{"bike_id":"255edc25-18b0-47b6-83a7-442f3b86ac4f","system_id":"levelo_inurba_marseille","lat":43.26058,"lon":5.39396,"is_reserved":false,"is_disabled":false,"rental_uris":{"android":"levelo://app?vid=255edc25-18b0-47b6-83a7-442f3b86ac4f","ios":"levelo://app?vid=255edc25-18b0-47b6-83a7-442f3b86ac4f"},"vehicle_type_id":"4","last_reported":1739449033,"current_range_meters":38000,"station_id":"ce4bhh92rcd13ifvqfj0","pricing_plan_id":"cebpf4jnsgd1na2vs0mg"},{"bike_id":"8b301010-c1b7-4bf5-be73-26b4bca92fe7","system_id":"levelo_inurba_marseille","lat":43.2481,"lon":5.3746,"is_reserved":false,"is_disabled":false,"rental_uris":{"android":"levelo://app?vid=8b301010-c1b7-4bf5-be73-26b4bca92fe7","ios":"levelo://app?vid=8b301010-c1b7-4bf5-be73-26b4bca92fe7"},"vehicle_type_id":"4","last_reported":1739449033,"current_range_meters":20800,"station_id":"ce4bhgh2rcd13ifvqfb0","pricing_plan_id":"cebpf4jnsgd1na2vs0mg"},{"bike_id":"5014a418-9296-4854-a3ce-8f5cc273e0d3","system_id":"levelo_inurba_marseille","lat":43.28113,"lon":5.37849,"is_reserved":false,"is_disabled":false,"rental_uris":{"android":"levelo://app?vid=5014a418-9296-4854-a3ce-8f5cc273e0d3","ios":"levelo://app?vid=5014a418-9296-4854-a3ce-8f5cc273e0d3"},"vehicle_type_id":"4","last_reported":1739449033,"current_range_meters":32400,"station_id":"ce4bha12rcd13ifvqee0","pricing_plan_id":"cebpf4jnsgd1na2vs0mg"},{"bike_id":"9cf8e6d9-67b8-441b-8ab4-08ef8560d2b0","system_id":"levelo_inurba_marseille","lat":43.33197,"lon":5.35583,"is_reserved":false,"is_disabled":false,"rental_uris":{"android":"levelo://app?vid=9cf8e6d9-67b8-441b-8ab4-08ef8560d2b0","ios":"levelo://app?vid=9cf8e6d9-67b8-441b-8ab4-08ef8560d2b0"},"vehicle_type_id":"4","last_reported":1739449033,"current_range_meters":5600,"station_id":"","pricing_plan_id":"cebpf4jnsgd1na2vs0mg"},{"bike_id":"d8b67452-476a-4a1d-b761-635b8f48fdff","system_id":"levelo_inurba_marseille","lat":43.317551,"lon":5.390136,"is_reserved":false,"is_disabled":false,"rental_uris":{"android":"levelo://app?vid=d8b67452-476a-4a1d-b761-635b8f48fdff","ios":"levelo://app?vid=d8b67452-476a-4a1d-b761-635b8f48fdff"},"vehicle_type_id":"4","last_reported":1739449033,"current_range_meters":37600,"station_id":"ce4bhqp2rcd13ifvqhng","pricing_plan_id":"cebpf4jnsgd1na2vs0mg"},{"bike_id":"e8eae003-2417-407b-b19d-4cd80da49007","system_id":"levelo_inurba_marseille","lat":43.29868,"lon":5.39734,"is_reserved":false,"is_disabled":false,"rental_uris":{"android":"levelo://app?vid=e8eae003-2417-407b-b19d-4cd80da49007","ios":"levelo://app?vid=e8eae003-2417-407b-b19d-4cd80da49007"},"vehicle_type_id":"4","last_reported":1739449033,"current_range_meters":37600,"station_id":"ce4bh0h2rcd13ifvqd50","pricing_plan_id":"cebpf4jnsgd1na2vs0mg"},{"bike_id":"73672ad0-aab9-42fb-bc4f-9f3ef24e20d5","system_id":"levelo_inurba_marseille","lat":43.24377,"lon":5.37081,"is_reserved":false,"is_disabled":true,"rental_uris":{"android":"levelo://app?vid=73672ad0-aab9-42fb-bc4f-9f3ef24e20d5","ios":"levelo://app?vid=73672ad0-aab9-42fb-bc4f-9f3ef24e20d5"},"vehicle_type_id":"4","last_reported":1739449033,"current_range_meters":34800,"station_id":"ce4bhhh2rcd13ifvqfk0","pricing_plan_id":"cebpf4jnsgd1na2vs0mg"},{"bike_id":"7e4baaff-43df-45ac-ba99-60d4ee3b5a14","system_id":"levelo_inurba_marseille","lat":43.32488,"lon":5.36587,"is_reserved":false,"is_disabled":false,"rental_uris":{"android":"levelo://app?vid=7e4baaff-43df-45ac-ba99-60d4ee3b5a14","ios":"levelo://app?vid=7e4baaff-43df-45ac-ba99-60d4ee3b5a14"},"vehicle_type_id":"4","last_reported":1739449033,"current_range_meters":36800,"station_id":"ce4bhs12rcd13ifvqhvg","pricing_plan_id":"cebpf4jnsgd1na2vs0mg"},{"bike_id":"3988dd28-6d2b-46c9-a74e-cbe2d8bf40cf","system_id":"levelo_inurba_marseille","lat":43.24178,"lon":5.3973,"is_reserved":false,"is_disabled":false,"rental_uris":{"android":"levelo://app?vid=3988dd28-6d2b-46c9-a74e-cbe2d8bf40cf","ios":"levelo://app?vid=3988dd28-6d2b-46c9-a74e-cbe2d8bf40cf"},"vehicle_type_id":"4","last_reported":1739449033,"current_range_meters":35600,"station_id":"ce4bhn12rcd13ifvqgpg","pricing_plan_id":"cebpf4jnsgd1na2vs0mg"},{"bike_id":"b03fd7e9-5604-4ddf-8507-029c6e1eb1c8","system_id":"levelo_inurba_marseille","lat":43.2594,"lon":5.40899,"is_reserved":false,"is_disabled":false,"rental_uris":{"android":"levelo://app?vid=b03fd7e9-5604-4ddf-8507-029c6e1eb1c8","ios":"levelo://app?vid=b03fd7e9-5604-4ddf-8507-029c6e1eb1c8"},"vehicle_type_id":"4","last_reported":1739449033,"current_range_meters":8400,"station_id":"ce4bhm92rcd13ifvqglg","pricing_plan_id":"cebpf4jnsgd1na2vs0mg"},{"bike_id":"51ab7186-5043-4bed-baca-73708608a302","system_id":"levelo_inurba_marseille","lat":43.29584,"lon":5.37026,"is_reserved":false,"is_disabled":true,"rental_uris":{"android":"levelo://app?vid=51ab7186-5043-4bed-baca-73708608a302","ios":"levelo://app?vid=51ab7186-5043-4bed-baca-73708608a302"},"vehicle_type_id":"4","last_reported":1739449033,"current_range_meters":0,"station_id":"","pricing_plan_id":"cebpf4jnsgd1na2vs0mg"},{"bike_id":"1dc5c7da-39d4-4bb7-9cf2-6572c5e4a949","system_id":"levelo_inurba_marseille","lat":43.30126,"lon":5.39846,"is_reserved":false,"is_disabled":false,"rental_uris":{"android":"levelo://app?vid=1dc5c7da-39d4-4bb7-9cf2-6572c5e4a949","ios":"levelo://app?vid=1dc5c7da-39d4-4bb7-9cf2-6572c5e4a949"},"vehicle_type_id":"4","last_reported":1739449033,"current_range_meters":23200,"station_id":"ce4bh0h2rcd13ifvqd40","pricing_plan_id":"cebpf4jnsgd1na2vs0mg"},{"bike_id":"1dc52c92-5d92-463d-a879-3998a3fadc44","system_id":"levelo_inurba_marseille","lat":43.304291,"lon":5.388849,"is_reserved":false,"is_disabled":false,"rental_uris":{"android":"levelo://app?vid=1dc52c92-5d92-463d-a879-3998a3fadc44","ios":"levelo://app?vid=1dc52c92-5d92-463d-a879-3998a3fadc44"},"vehicle_type_id":"4","last_reported":1739449033,"current_range_meters":14800,"station_id":"ce4bgk12rcd13ifvqbi0","pricing_plan_id":"cebpf4jnsgd1na2vs0mg"},{"bike_id":"d3fc5f7e-9983-4343-a9af-f36df7d45f29","system_id":"levelo_inurba_marseille","lat":43.2319,"lon":5.39985,"is_reserved":false,"is_disabled":false,"rental_uris":{"android":"levelo://app?vid=d3fc5f7e-9983-4343-a9af-f36df7d45f29","ios":"levelo://app?vid=d3fc5f7e-9983-4343-a9af-f36df7d45f29"},"vehicle_type_id":"4","last_reported":1739449033,"current_range_meters":24800,"station_id":"ce4bhn12rcd13ifvqgqg","pricing_plan_id":"cebpf4jnsgd1na2vs0mg"},{"bike_id":"9f273670-15eb-4b22-9f2f-8564846efece","system_id":"levelo_inurba_marseille","lat":43.30558,"lon":5.36529,"is_reserved":false,"is_disabled":false,"rental_uris":{"android":"levelo://app?vid=9f273670-15eb-4b22-9f2f-8564846efece","ios":"levelo://app?vid=9f273670-15eb-4b22-9f2f-8564846efece"},"vehicle_type_id":"4","last_reported":1739449033,"current_range_meters":38800,"station_id":"ce4bgs12rcd13ifvqcag","pricing_plan_id":"cebpf4jnsgd1na2vs0mg"},{"bike_id":"4d8f6951-4bdb-4749-832f-76e93a2eb66d","system_id":"levelo_inurba_marseille","lat":43.2827,"lon":5.35056,"is_reserved":false,"is_disabled":false,"rental_uris":{"android":"levelo://app?vid=4d8f6951-4bdb-4749-832f-76e93a2eb66d","ios":"levelo://app?vid=4d8f6951-4bdb-4749-832f-76e93a2eb66d"},"vehicle_type_id":"4","last_reported":1739449033,"current_range_meters":17200,"station_id":"ce4bhbp2rcd13ifvqerg","pricing_plan_id":"cebpf4jnsgd1na2vs0mg"},{"bike_id":"605d4ca4-85a6-40c7-97c4-fb0709ef6cbc","system_id":"levelo_inurba_marseille","lat":43.27203,"lon":5.39175,"is_reserved":false,"is_disabled":false,"rental_uris":{"android":"levelo://app?vid=605d4ca4-85a6-40c7-97c4-fb0709ef6cbc","ios":"levelo://app?vid=605d4ca4-85a6-40c7-97c4-fb0709ef6cbc"},"vehicle_type_id":"4","last_reported":1739449033,"current_range_meters":38800,"station_id":"ce4bhhp2rcd13ifvqfm0","pricing_plan_id":"cebpf4jnsgd1na2vs0mg"},{"bike_id":"51a05f69-767b-4091-a186-8bcbafd831ce","system_id":"levelo_inurba_marseille","lat":43.29533,"lon":5.39038,"is_reserved":false,"is_disabled":false,"rental_uris":{"android":"levelo://app?vid=51a05f69-767b-4091-a186-8bcbafd831ce","ios":"levelo://app?vid=51a05f69-767b-4091-a186-8bcbafd831ce"},"vehicle_type_id":"4","last_reported":1739449033,"current_range_meters":38800,"station_id":"ce4bh3p2rcd13ifvqdp0","pricing_plan_id":"cebpf4jnsgd1na2vs0mg"},{"bike_id":"dff784b9-040c-429d-b847-08ccef8ffbe4","system_id":"levelo_inurba_marseille","lat":43.24804,"lon":5.37456,"is_reserved":false,"is_disabled":false,"rental_uris":{"android":"levelo://app?vid=dff784b9-040c-429d-b847-08ccef8ffbe4","ios":"levelo://app?vid=dff784b9-040c-429d-b847-08ccef8ffbe4"},"vehicle_type_id":"4","last_reported":1739449033,"current_range_meters":18000,"station_id":"ce4bhgh2rcd13ifvqfb0","pricing_plan_id":"cebpf4jnsgd1na2vs0mg"},{"bike_id":"cde2b73b-98a1-4140-8487-a51de0af0cb6","system_id":"levelo_inurba_marseille","lat":43.30901,"lon":5.39625,"is_reserved":false,"is_disabled":false,"rental_uris":{"android":"levelo://app?vid=cde2b73b-98a1-4140-8487-a51de0af0cb6","ios":"levelo://app?vid=cde2b73b-98a1-4140-8487-a51de0af0cb6"},"vehicle_type_id":"4","last_reported":1739449033,"current_range_meters":32800,"station_id":"ce4bh012rcd13ifvqcv0","pricing_plan_id":"cebpf4jnsgd1na2vs0mg"},{"bike_id":"4b94f16a-afa1-4110-bf5e-b41926dd1e3e","system_id":"levelo_inurba_marseille","lat":43.305359,"lon":5.384347,"is_reserved":false,"is_disabled":false,"rental_uris":{"android":"levelo://app?vid=4b94f16a-afa1-4110-bf5e-b41926dd1e3e","ios":"levelo://app?vid=4b94f16a-afa1-4110-bf5e-b41926dd1e3e"},"vehicle_type_id":"4","last_reported":1739449033,"current_range_meters":25600,"station_id":"ce4bgg92rcd13ifvqb30","pricing_plan_id":"cebpf4jnsgd1na2vs0mg"},{"bike_id":"83ead89d-7307-4fdc-b0ac-67471a6fecef","system_id":"levelo_inurba_marseille","lat":43.30552,"lon":5.36702,"is_reserved":false,"is_disabled":false,"rental_uris":{"android":"levelo://app?vid=83ead89d-7307-4fdc-b0ac-67471a6fecef","ios":"levelo://app?vid=83ead89d-7307-4fdc-b0ac-67471a6fecef"},"vehicle_type_id":"4","last_reported":1739449033,"current_range_meters":28800,"station_id":"ce4bgrp2rcd13ifvqc9g","pricing_plan_id":"cebpf4jnsgd1na2vs0mg"},{"bike_id":"ee079ffa-4416-4a91-bc98-3bd665acea3b","system_id":"levelo_inurba_marseille","lat":43.33745,"lon":5.39181,"is_reserved":false,"is_disabled":false,"rental_uris":{"android":"levelo://app?vid=ee079ffa-4416-4a91-bc98-3bd665acea3b","ios":"levelo://app?vid=ee079ffa-4416-4a91-bc98-3bd665acea3b"},"vehicle_type_id":"4","last_reported":1739449033,"current_range_meters":39200,"station_id":"ce4bhr92rcd13ifvqhsg","pricing_plan_id":"cebpf4jnsgd1na2vs0mg"},{"bike_id":"1fa82dc6-47d4-4356-bbca-393bf4461726","system_id":"levelo_inurba_marseille","lat":43.2396,"lon":5.36614,"is_reserved":false,"is_disabled":false,"rental_uris":{"android":"levelo://app?vid=1fa82dc6-47d4-4356-bbca-393bf4461726","ios":"levelo://app?vid=1fa82dc6-47d4-4356-bbca-393bf4461726"},"vehicle_type_id":"4","last_reported":1739449033,"current_range_meters":38800,"station_id":"ce4bhi12rcd13ifvqfp0","pricing_plan_id":"cebpf4jnsgd1na2vs0mg"},{"bike_id":"2355c6e5-09c3-4950-a7a8-dbebf456e6b5","system_id":"levelo_inurba_marseille","lat":43.30794,"lon":5.36624,"is_reserved":false,"is_disabled":false,"rental_uris":{"android":"levelo://app?vid=2355c6e5-09c3-4950-a7a8-dbebf456e6b5","ios":"levelo://app?vid=2355c6e5-09c3-4950-a7a8-dbebf456e6b5"},"vehicle_type_id":"4","last_reported":1739449033,"current_range_meters":22800,"station_id":"","pricing_plan_id":"cebpf4jnsgd1na2vs0mg"},{"bike_id":"0c236953-fa85-4107-b794-04c5d553375e","system_id":"levelo_inurba_marseille","lat":43.248135,"lon":5.37456,"is_reserved":false,"is_disabled":false,"rental_uris":{"android":"levelo://app?vid=0c236953-fa85-4107-b794-04c5d553375e","ios":"levelo://app?vid=0c236953-fa85-4107-b794-04c5d553375e"},"vehicle_type_id":"4","last_reported":1739449033,"current_range_meters":38800,"station_id":"ce4bhgh2rcd13ifvqfb0","pricing_plan_id":"cebpf4jnsgd1na2vs0mg"},{"bike_id":"93cabce3-58dd-4607-8727-b622e6b7f5b9","system_id":"levelo_inurba_marseille","lat":43.24398,"lon":5.37051,"is_reserved":false,"is_disabled":false,"rental_uris":{"android":"levelo://app?vid=93cabce3-58dd-4607-8727-b622e6b7f5b9","ios":"levelo://app?vid=93cabce3-58dd-4607-8727-b622e6b7f5b9"},"vehicle_type_id":"4","last_reported":1739449033,"current_range_meters":35200,"station_id":"ce4bhhh2rcd13ifvqfk0","pricing_plan_id":"cebpf4jnsgd1na2vs0mg"},{"bike_id":"73204b29-ec32-4146-8fea-bcca13682a2a","system_id":"levelo_inurba_marseille","lat":43.24817,"lon":5.37454,"is_reserved":false,"is_disabled":false,"rental_uris":{"android":"levelo://app?vid=73204b29-ec32-4146-8fea-bcca13682a2a","ios":"levelo://app?vid=73204b29-ec32-4146-8fea-bcca13682a2a"},"vehicle_type_id":"4","last_reported":1739449033,"current_range_meters":22400,"station_id":"ce4bhgh2rcd13ifvqfb0","pricing_plan_id":"cebpf4jnsgd1na2vs0mg"},{"bike_id":"476efa06-ff76-4710-9c45-8a07585e8d77","system_id":"levelo_inurba_marseille","lat":43.295529,"lon":5.42284,"is_reserved":false,"is_disabled":true,"rental_uris":{"android":"levelo://app?vid=476efa06-ff76-4710-9c45-8a07585e8d77","ios":"levelo://app?vid=476efa06-ff76-4710-9c45-8a07585e8d77"},"vehicle_type_id":"4","last_reported":1739449033,"current_range_meters":25200,"station_id":"ce4bhph2rcd13ifvqhdg","pricing_plan_id":"cebpf4jnsgd1na2vs0mg"},{"bike_id":"b85f089e-bcba-493c-8108-fb98e760e842","system_id":"levelo_inurba_marseille","lat":43.32489,"lon":5.36577,"is_reserved":false,"is_disabled":false,"rental_uris":{"android":"levelo://app?vid=b85f089e-bcba-493c-8108-fb98e760e842","ios":"levelo://app?vid=b85f089e-bcba-493c-8108-fb98e760e842"},"vehicle_type_id":"4","last_reported":1739449033,"current_range_meters":38800,"station_id":"ce4bhs12rcd13ifvqhvg","pricing_plan_id":"cebpf4jnsgd1na2vs0mg"},{"bike_id":"d1e6b517-b6c2-4320-8222-419cb00ef868","system_id":"levelo_inurba_marseille","lat":43.30292,"lon":5.36884,"is_reserved":false,"is_disabled":false,"rental_uris":{"android":"levelo://app?vid=d1e6b517-b6c2-4320-8222-419cb00ef868","ios":"levelo://app?vid=d1e6b517-b6c2-4320-8222-419cb00ef868"},"vehicle_type_id":"4","last_reported":1739449033,"current_range_meters":19200,"station_id":"ce4bgqh2rcd13ifvqc5g","pricing_plan_id":"cebpf4jnsgd1na2vs0mg"},{"bike_id":"1e50abb4-045b-48f5-92b6-0552e964e3dc","system_id":"levelo_inurba_marseille","lat":43.31223,"lon":5.36853,"is_reserved":false,"is_disabled":false,"rental_uris":{"android":"levelo://app?vid=1e50abb4-045b-48f5-92b6-0552e964e3dc","ios":"levelo://app?vid=1e50abb4-045b-48f5-92b6-0552e964e3dc"},"vehicle_type_id":"4","last_reported":1739449033,"current_range_meters":22800,"station_id":"ce4bgl92rcd13ifvqbq0","pricing_plan_id":"cebpf4jnsgd1na2vs0mg"},{"bike_id":"d674d394-04ab-4838-a267-bcdd8affd803","system_id":"levelo_inurba_marseille","lat":43.30824,"lon":5.43516,"is_reserved":false,"is_disabled":false,"rental_uris":{"android":"levelo://app?vid=d674d394-04ab-4838-a267-bcdd8affd803","ios":"levelo://app?vid=d674d394-04ab-4838-a267-bcdd8affd803"},"vehicle_type_id":"4","last_reported":1739449033,"current_range_meters":38800,"station_id":"ce4bhph2rcd13ifvqheg","pricing_plan_id":"cebpf4jnsgd1na2vs0mg"},{"bike_id":"4c240304-0447-4210-9848-9a342186a152","system_id":"levelo_inurba_marseille","lat":43.23211,"lon":5.35544,"is_reserved":false,"is_disabled":false,"rental_uris":{"android":"levelo://app?vid=4c240304-0447-4210-9848-9a342186a152","ios":"levelo://app?vid=4c240304-0447-4210-9848-9a342186a152"},"vehicle_type_id":"4","last_reported":1739449033,"current_range_meters":11600,"station_id":"ce4bhu92rcd13ifvqi70","pricing_plan_id":"cebpf4jnsgd1na2vs0mg"},{"bike_id":"77141241-dab5-480b-aa9f-3d044a3d29b1","system_id":"levelo_inurba_marseille","lat":43.28419,"lon":5.34984,"is_reserved":false,"is_disabled":false,"rental_uris":{"android":"levelo://app?vid=77141241-dab5-480b-aa9f-3d044a3d29b1","ios":"levelo://app?vid=77141241-dab5-480b-aa9f-3d044a3d29b1"},"vehicle_type_id":"4","last_reported":1739449033,"current_range_meters":38000,"station_id":"ce4bhbh2rcd13ifvqepg","pricing_plan_id":"cebpf4jnsgd1na2vs0mg"},{"bike_id":"3c972bc6-571f-4946-9dde-c7f43d4c71a0","system_id":"levelo_inurba_marseille","lat":43.324923,"lon":5.365634,"is_reserved":false,"is_disabled":false,"rental_uris":{"android":"levelo://app?vid=3c972bc6-571f-4946-9dde-c7f43d4c71a0","ios":"levelo://app?vid=3c972bc6-571f-4946-9dde-c7f43d4c71a0"},"vehicle_type_id":"4","last_reported":1739449033,"current_range_meters":24800,"station_id":"ce4bhs12rcd13ifvqhvg","pricing_plan_id":"cebpf4jnsgd1na2vs0mg"},{"bike_id":"099a1e84-c968-4d02-8d1c-8f9348d7a62d","system_id":"levelo_inurba_marseille","lat":43.2753,"lon":5.38446,"is_reserved":false,"is_disabled":false,"rental_uris":{"android":"levelo://app?vid=099a1e84-c968-4d02-8d1c-8f9348d7a62d","ios":"levelo://app?vid=099a1e84-c968-4d02-8d1c-8f9348d7a62d"},"vehicle_type_id":"4","last_reported":1739449033,"current_range_meters":38400,"station_id":"ce4bhh92rcd13ifvqfi0","pricing_plan_id":"cebpf4jnsgd1na2vs0mg"},{"bike_id":"022d0775-1d6d-4775-ab1d-1f0a003029c2","system_id":"levelo_inurba_marseille","lat":43.27986,"lon":5.38733,"is_reserved":false,"is_disabled":false,"rental_uris":{"android":"levelo://app?vid=022d0775-1d6d-4775-ab1d-1f0a003029c2","ios":"levelo://app?vid=022d0775-1d6d-4775-ab1d-1f0a003029c2"},"vehicle_type_id":"4","last_reported":1739449033,"current_range_meters":38800,"station_id":"ce4bhg12rcd13ifvqf80","pricing_plan_id":"cebpf4jnsgd1na2vs0mg"},{"bike_id":"8397142d-18ae-4dce-b410-f832bf9c44f5","system_id":"levelo_inurba_marseille","lat":43.27316,"lon":5.39112,"is_reserved":false,"is_disabled":false,"rental_uris":{"android":"levelo://app?vid=8397142d-18ae-4dce-b410-f832bf9c44f5","ios":"levelo://app?vid=8397142d-18ae-4dce-b410-f832bf9c44f5"},"vehicle_type_id":"4","last_reported":1739449033,"current_range_meters":38800,"station_id":"ce4bhgp2rcd13ifvqfe0","pricing_plan_id":"cebpf4jnsgd1na2vs0mg"},{"bike_id":"76ed4e97-7fa9-4836-bcd3-e52753ef31b4","system_id":"levelo_inurba_marseille","lat":43.29856,"lon":5.36279,"is_reserved":false,"is_disabled":false,"rental_uris":{"android":"levelo://app?vid=76ed4e97-7fa9-4836-bcd3-e52753ef31b4","ios":"levelo://app?vid=76ed4e97-7fa9-4836-bcd3-e52753ef31b4"},"vehicle_type_id":"4","last_reported":1739449033,"current_range_meters":37600,"station_id":"ce4bgpp2rcd13ifvqc3g","pricing_plan_id":"cebpf4jnsgd1na2vs0mg"},{"bike_id":"08a86ebb-b290-4f14-9520-6a5a716f26bd","system_id":"levelo_inurba_marseille","lat":43.23965,"lon":5.36642,"is_reserved":false,"is_disabled":false,"rental_uris":{"android":"levelo://app?vid=08a86ebb-b290-4f14-9520-6a5a716f26bd","ios":"levelo://app?vid=08a86ebb-b290-4f14-9520-6a5a716f26bd"},"vehicle_type_id":"4","last_reported":1739449033,"current_range_meters":38800,"station_id":"ce4bhi12rcd13ifvqfp0","pricing_plan_id":"cebpf4jnsgd1na2vs0mg"},{"bike_id":"d32849cf-4c14-4032-9063-172d06d3f04f","system_id":"levelo_inurba_marseille","lat":43.23184,"lon":5.3557,"is_reserved":false,"is_disabled":false,"rental_uris":{"android":"levelo://app?vid=d32849cf-4c14-4032-9063-172d06d3f04f","ios":"levelo://app?vid=d32849cf-4c14-4032-9063-172d06d3f04f"},"vehicle_type_id":"4","last_reported":1739449033,"current_range_meters":28000,"station_id":"ce4bhu92rcd13ifvqi70","pricing_plan_id":"cebpf4jnsgd1na2vs0mg"},{"bike_id":"2ff86c0c-69fd-4294-8842-114f3593748f","system_id":"levelo_inurba_marseille","lat":43.30135,"lon":5.39843,"is_reserved":false,"is_disabled":true,"rental_uris":{"android":"levelo://app?vid=2ff86c0c-69fd-4294-8842-114f3593748f","ios":"levelo://app?vid=2ff86c0c-69fd-4294-8842-114f3593748f"},"vehicle_type_id":"4","last_reported":1739449033,"current_range_meters":32000,"station_id":"ce4bh0h2rcd13ifvqd40","pricing_plan_id":"cebpf4jnsgd1na2vs0mg"},{"bike_id":"5b1e1954-edfb-4395-add9-d5aa09b3fb7c","system_id":"levelo_inurba_marseille","lat":43.28421,"lon":5.34981,"is_reserved":false,"is_disabled":false,"rental_uris":{"android":"levelo://app?vid=5b1e1954-edfb-4395-add9-d5aa09b3fb7c","ios":"levelo://app?vid=5b1e1954-edfb-4395-add9-d5aa09b3fb7c"},"vehicle_type_id":"4","last_reported":1739449033,"current_range_meters":16400,"station_id":"ce4bhbh2rcd13ifvqepg","pricing_plan_id":"cebpf4jnsgd1na2vs0mg"},{"bike_id":"23849fcd-4bc4-44f6-8337-e9a9a16fe0e7","system_id":"levelo_inurba_marseille","lat":43.28046,"lon":5.42021,"is_reserved":false,"is_disabled":false,"rental_uris":{"android":"levelo://app?vid=23849fcd-4bc4-44f6-8337-e9a9a16fe0e7","ios":"levelo://app?vid=23849fcd-4bc4-44f6-8337-e9a9a16fe0e7"},"vehicle_type_id":"4","last_reported":1739449033,"current_range_meters":19200,"station_id":"","pricing_plan_id":"cebpf4jnsgd1na2vs0mg"},{"bike_id":"0720224f-bce1-4028-8166-c7cf581646dc","system_id":"levelo_inurba_marseille","lat":43.31359,"lon":5.38496,"is_reserved":false,"is_disabled":false,"rental_uris":{"android":"levelo://app?vid=0720224f-bce1-4028-8166-c7cf581646dc","ios":"levelo://app?vid=0720224f-bce1-4028-8166-c7cf581646dc"},"vehicle_type_id":"4","last_reported":1739449033,"current_range_meters":38000,"station_id":"ce4bgt92rcd13ifvqcf0","pricing_plan_id":"cebpf4jnsgd1na2vs0mg"},{"bike_id":"00961a95-8814-4e09-aa67-0c4050a0401b","system_id":"levelo_inurba_marseille","lat":43.24182,"lon":5.39729,"is_reserved":false,"is_disabled":false,"rental_uris":{"android":"levelo://app?vid=00961a95-8814-4e09-aa67-0c4050a0401b","ios":"levelo://app?vid=00961a95-8814-4e09-aa67-0c4050a0401b"},"vehicle_type_id":"4","last_reported":1739449033,"current_range_meters":33200,"station_id":"ce4bhn12rcd13ifvqgpg","pricing_plan_id":"cebpf4jnsgd1na2vs0mg"},{"bike_id":"b324161f-1ab2-4652-9960-5c4e8c84e4c2","system_id":"levelo_inurba_marseille","lat":43.3016,"lon":5.3878,"is_reserved":false,"is_disabled":false,"rental_uris":{"android":"levelo://app?vid=b324161f-1ab2-4652-9960-5c4e8c84e4c2","ios":"levelo://app?vid=b324161f-1ab2-4652-9960-5c4e8c84e4c2"},"vehicle_type_id":"4","last_reported":1739449033,"current_range_meters":32400,"station_id":"ce4bghh2rcd13ifvqb60","pricing_plan_id":"cebpf4jnsgd1na2vs0mg"},{"bike_id":"f0195f21-e6c5-42cd-95a8-243cbb17e446","system_id":"levelo_inurba_marseille","lat":43.33625,"lon":5.4102,"is_reserved":false,"is_disabled":false,"rental_uris":{"android":"levelo://app?vid=f0195f21-e6c5-42cd-95a8-243cbb17e446","ios":"levelo://app?vid=f0195f21-e6c5-42cd-95a8-243cbb17e446"},"vehicle_type_id":"4","last_reported":1739449033,"current_range_meters":39200,"station_id":"ce4bhqh2rcd13ifvqhmg","pricing_plan_id":"cebpf4jnsgd1na2vs0mg"},{"bike_id":"14b2070b-6ddc-42e3-b1e8-9c0cbc081f72","system_id":"levelo_inurba_marseille","lat":43.3377,"lon":5.39184,"is_reserved":false,"is_disabled":false,"rental_uris":{"android":"levelo://app?vid=14b2070b-6ddc-42e3-b1e8-9c0cbc081f72","ios":"levelo://app?vid=14b2070b-6ddc-42e3-b1e8-9c0cbc081f72"},"vehicle_type_id":"4","last_reported":1739449033,"current_range_meters":38800,"station_id":"ce4bhr92rcd13ifvqhsg","pricing_plan_id":"cebpf4jnsgd1na2vs0mg"},{"bike_id":"39caa847-b837-4440-a510-689edd01525f","system_id":"levelo_inurba_marseille","lat":43.23954,"lon":5.36635,"is_reserved":false,"is_disabled":false,"rental_uris":{"android":"levelo://app?vid=39caa847-b837-4440-a510-689edd01525f","ios":"levelo://app?vid=39caa847-b837-4440-a510-689edd01525f"},"vehicle_type_id":"4","last_reported":1739449033,"current_range_meters":24800,"station_id":"ce4bhi12rcd13ifvqfp0","pricing_plan_id":"cebpf4jnsgd1na2vs0mg"},{"bike_id":"90069231-8d02-46fd-ba3f-d8e7e83900ee","system_id":"levelo_inurba_marseille","lat":43.2884,"lon":5.43816,"is_reserved":false,"is_disabled":true,"rental_uris":{"android":"levelo://app?vid=90069231-8d02-46fd-ba3f-d8e7e83900ee","ios":"levelo://app?vid=90069231-8d02-46fd-ba3f-d8e7e83900ee"},"vehicle_type_id":"4","last_reported":1739449033,"current_range_meters":0,"station_id":"","pricing_plan_id":"cebpf4jnsgd1na2vs0mg"},{"bike_id":"8a70e9ab-7973-42bb-b1f6-448d15cc2bb7","system_id":"levelo_inurba_marseille","lat":43.31268,"lon":5.40171,"is_reserved":false,"is_disabled":false,"rental_uris":{"android":"levelo://app?vid=8a70e9ab-7973-42bb-b1f6-448d15cc2bb7","ios":"levelo://app?vid=8a70e9ab-7973-42bb-b1f6-448d15cc2bb7"},"vehicle_type_id":"4","last_reported":1739449033,"current_range_meters":26000,"station_id":"ce4bh092rcd13ifvqd30","pricing_plan_id":"cebpf4jnsgd1na2vs0mg"},{"bike_id":"123afe72-86eb-4cb2-981c-a710ec42fb20","system_id":"levelo_inurba_marseille","lat":43.30535,"lon":5.36545,"is_reserved":false,"is_disabled":false,"rental_uris":{"android":"levelo://app?vid=123afe72-86eb-4cb2-981c-a710ec42fb20","ios":"levelo://app?vid=123afe72-86eb-4cb2-981c-a710ec42fb20"},"vehicle_type_id":"4","last_reported":1739449033,"current_range_meters":28000,"station_id":"ce4bgs12rcd13ifvqcag","pricing_plan_id":"cebpf4jnsgd1na2vs0mg"},{"bike_id":"71ca91f7-71e4-4e50-9ce3-aa026919b2cc","system_id":"levelo_inurba_marseille","lat":43.28442,"lon":5.39185,"is_reserved":false,"is_disabled":false,"rental_uris":{"android":"levelo://app?vid=71ca91f7-71e4-4e50-9ce3-aa026919b2cc","ios":"levelo://app?vid=71ca91f7-71e4-4e50-9ce3-aa026919b2cc"},"vehicle_type_id":"4","last_reported":1739449033,"current_range_meters":38800,"station_id":"ce4bhoh2rcd13ifvqh5g","pricing_plan_id":"cebpf4jnsgd1na2vs0mg"},{"bike_id":"d1de7867-d125-47c8-8a90-8eabb1d25537","system_id":"levelo_inurba_marseille","lat":43.25734,"lon":5.41116,"is_reserved":false,"is_disabled":false,"rental_uris":{"android":"levelo://app?vid=d1de7867-d125-47c8-8a90-8eabb1d25537","ios":"levelo://app?vid=d1de7867-d125-47c8-8a90-8eabb1d25537"},"vehicle_type_id":"4","last_reported":1739449033,"current_range_meters":38000,"station_id":"ce4bhkp2rcd13ifvqgd0","pricing_plan_id":"cebpf4jnsgd1na2vs0mg"},{"bike_id":"d9a0cdc9-5efe-441f-913f-50dc2af53ef3","system_id":"levelo_inurba_marseille","lat":43.30462,"lon":5.37911,"is_reserved":false,"is_disabled":false,"rental_uris":{"android":"levelo://app?vid=d9a0cdc9-5efe-441f-913f-50dc2af53ef3","ios":"levelo://app?vid=d9a0cdc9-5efe-441f-913f-50dc2af53ef3"},"vehicle_type_id":"4","last_reported":1739449033,"current_range_meters":38800,"station_id":"ce4bgup2rcd13ifvqcn0","pricing_plan_id":"cebpf4jnsgd1na2vs0mg"},{"bike_id":"cf5c922b-59a3-4fa2-863e-b1e48304b5b9","system_id":"levelo_inurba_marseille","lat":43.27679,"lon":5.38925,"is_reserved":false,"is_disabled":false,"rental_uris":{"android":"levelo://app?vid=cf5c922b-59a3-4fa2-863e-b1e48304b5b9","ios":"levelo://app?vid=cf5c922b-59a3-4fa2-863e-b1e48304b5b9"},"vehicle_type_id":"4","last_reported":1739449033,"current_range_meters":38800,"station_id":"ce4bhi12rcd13ifvqfo0","pricing_plan_id":"cebpf4jnsgd1na2vs0mg"},{"bike_id":"70617585-289d-477e-b3bd-01213e273ed0","system_id":"levelo_inurba_marseille","lat":43.24808,"lon":5.37454,"is_reserved":false,"is_disabled":false,"rental_uris":{"android":"levelo://app?vid=70617585-289d-477e-b3bd-01213e273ed0","ios":"levelo://app?vid=70617585-289d-477e-b3bd-01213e273ed0"},"vehicle_type_id":"4","last_reported":1739449033,"current_range_meters":36400,"station_id":"ce4bhgh2rcd13ifvqfb0","pricing_plan_id":"cebpf4jnsgd1na2vs0mg"},{"bike_id":"7b35ec91-75d0-476a-8303-ae83c6d3cb50","system_id":"levelo_inurba_marseille","lat":43.2481,"lon":5.37457,"is_reserved":false,"is_disabled":false,"rental_uris":{"android":"levelo://app?vid=7b35ec91-75d0-476a-8303-ae83c6d3cb50","ios":"levelo://app?vid=7b35ec91-75d0-476a-8303-ae83c6d3cb50"},"vehicle_type_id":"4","last_reported":1739449033,"current_range_meters":38800,"station_id":"ce4bhgh2rcd13ifvqfb0","pricing_plan_id":"cebpf4jnsgd1na2vs0mg"},{"bike_id":"7371e120-1900-4f56-841d-9c12344390a1","system_id":"levelo_inurba_marseille","lat":43.28448,"lon":5.3921,"is_reserved":false,"is_disabled":false,"rental_uris":{"android":"levelo://app?vid=7371e120-1900-4f56-841d-9c12344390a1","ios":"levelo://app?vid=7371e120-1900-4f56-841d-9c12344390a1"},"vehicle_type_id":"4","last_reported":1739449033,"current_range_meters":32800,"station_id":"ce4bhoh2rcd13ifvqh5g","pricing_plan_id":"cebpf4jnsgd1na2vs0mg"},{"bike_id":"3ff589f6-6d67-4692-a191-85c194c7757f","system_id":"levelo_inurba_marseille","lat":43.23962,"lon":5.36632,"is_reserved":false,"is_disabled":false,"rental_uris":{"android":"levelo://app?vid=3ff589f6-6d67-4692-a191-85c194c7757f","ios":"levelo://app?vid=3ff589f6-6d67-4692-a191-85c194c7757f"},"vehicle_type_id":"4","last_reported":1739449033,"current_range_meters":26800,"station_id":"ce4bhi12rcd13ifvqfp0","pricing_plan_id":"cebpf4jnsgd1na2vs0mg"},{"bike_id":"a3afefbf-990d-494e-925d-dc4da2204703","system_id":"levelo_inurba_marseille","lat":43.2985,"lon":5.36285,"is_reserved":false,"is_disabled":false,"rental_uris":{"android":"levelo://app?vid=a3afefbf-990d-494e-925d-dc4da2204703","ios":"levelo://app?vid=a3afefbf-990d-494e-925d-dc4da2204703"},"vehicle_type_id":"4","last_reported":1739449033,"current_range_meters":35600,"station_id":"ce4bgpp2rcd13ifvqc3g","pricing_plan_id":"cebpf4jnsgd1na2vs0mg"},{"bike_id":"2875661a-4561-4a02-81d2-b8b74a9cdc06","system_id":"levelo_inurba_marseille","lat":43.29007,"lon":5.35612,"is_reserved":false,"is_disabled":false,"rental_uris":{"android":"levelo://app?vid=2875661a-4561-4a02-81d2-b8b74a9cdc06","ios":"levelo://app?vid=2875661a-4561-4a02-81d2-b8b74a9cdc06"},"vehicle_type_id":"4","last_reported":1739449033,"current_range_meters":7200,"station_id":"ce4bhb92rcd13ifvqen0","pricing_plan_id":"cebpf4jnsgd1na2vs0mg"},{"bike_id":"8fa2c838-e786-432d-89c0-ea57bc9058f2","system_id":"levelo_inurba_marseille","lat":43.26203,"lon":5.37464,"is_reserved":false,"is_disabled":false,"rental_uris":{"android":"levelo://app?vid=8fa2c838-e786-432d-89c0-ea57bc9058f2","ios":"levelo://app?vid=8fa2c838-e786-432d-89c0-ea57bc9058f2"},"vehicle_type_id":"4","last_reported":1739449033,"current_range_meters":37600,"station_id":"ce4bhgp2rcd13ifvqfc0","pricing_plan_id":"cebpf4jnsgd1na2vs0mg"},{"bike_id":"c2250f20-2283-4e17-b7ce-382f2f740aa1","system_id":"levelo_inurba_marseille","lat":43.248032,"lon":5.374592,"is_reserved":false,"is_disabled":false,"rental_uris":{"android":"levelo://app?vid=c2250f20-2283-4e17-b7ce-382f2f740aa1","ios":"levelo://app?vid=c2250f20-2283-4e17-b7ce-382f2f740aa1"},"vehicle_type_id":"4","last_reported":1739449033,"current_range_meters":38800,"station_id":"ce4bhgh2rcd13ifvqfb0","pricing_plan_id":"cebpf4jnsgd1na2vs0mg"},{"bike_id":"079e37de-a967-4afe-9997-04d6269e040f","system_id":"levelo_inurba_marseille","lat":43.29277,"lon":5.3684,"is_reserved":false,"is_disabled":false,"rental_uris":{"android":"levelo://app?vid=079e37de-a967-4afe-9997-04d6269e040f","ios":"levelo://app?vid=079e37de-a967-4afe-9997-04d6269e040f"},"vehicle_type_id":"4","last_reported":1739449033,"current_range_meters":38400,"station_id":"ce4bhbp2rcd13ifvqesg","pricing_plan_id":"cebpf4jnsgd1na2vs0mg"},{"bike_id":"27f26e81-10f2-441e-b68e-c2b6ad3717f9","system_id":"levelo_inurba_marseille","lat":43.292609,"lon":5.384567,"is_reserved":false,"is_disabled":false,"rental_uris":{"android":"levelo://app?vid=27f26e81-10f2-441e-b68e-c2b6ad3717f9","ios":"levelo://app?vid=27f26e81-10f2-441e-b68e-c2b6ad3717f9"},"vehicle_type_id":"4","last_reported":1739449033,"current_range_meters":32400,"station_id":"ce4bh692rcd13ifvqea0","pricing_plan_id":"cebpf4jnsgd1na2vs0mg"},{"bike_id":"5ec9e37a-953b-494d-a210-5b96ed0b1aca","system_id":"levelo_inurba_marseille","lat":43.296174,"lon":5.377363,"is_reserved":false,"is_disabled":false,"rental_uris":{"android":"levelo://app?vid=5ec9e37a-953b-494d-a210-5b96ed0b1aca","ios":"levelo://app?vid=5ec9e37a-953b-494d-a210-5b96ed0b1aca"},"vehicle_type_id":"4","last_reported":1739449033,"current_range_meters":3200,"station_id":"ce4bgi92rcd13ifvqb90","pricing_plan_id":"cebpf4jnsgd1na2vs0mg"},{"bike_id":"492e558b-0ce5-4984-b6b1-1d33f225a96b","system_id":"levelo_inurba_marseille","lat":43.24165,"lon":5.36422,"is_reserved":false,"is_disabled":false,"rental_uris":{"android":"levelo://app?vid=492e558b-0ce5-4984-b6b1-1d33f225a96b","ios":"levelo://app?vid=492e558b-0ce5-4984-b6b1-1d33f225a96b"},"vehicle_type_id":"4","last_reported":1739449033,"current_range_meters":8000,"station_id":"cpo36qri1sfpv3e86is0","pricing_plan_id":"cebpf4jnsgd1na2vs0mg"},{"bike_id":"6bf99e3e-9f10-4617-93f9-2e16108e33a0","system_id":"levelo_inurba_marseille","lat":43.231976,"lon":5.435902,"is_reserved":false,"is_disabled":true,"rental_uris":{"android":"levelo://app?vid=6bf99e3e-9f10-4617-93f9-2e16108e33a0","ios":"levelo://app?vid=6bf99e3e-9f10-4617-93f9-2e16108e33a0"},"vehicle_type_id":"4","last_reported":1739449033,"current_range_meters":0,"station_id":"ce4bhmp2rcd13ifvqgog","pricing_plan_id":"cebpf4jnsgd1na2vs0mg"},{"bike_id":"9355cd59-e1ae-4841-89e0-a1135f03b0e4","system_id":"levelo_inurba_marseille","lat":43.303493,"lon":5.376191,"is_reserved":false,"is_disabled":false,"rental_uris":{"android":"levelo://app?vid=9355cd59-e1ae-4841-89e0-a1135f03b0e4","ios":"levelo://app?vid=9355cd59-e1ae-4841-89e0-a1135f03b0e4"},"vehicle_type_id":"4","last_reported":1739449033,"current_range_meters":36800,"station_id":"","pricing_plan_id":"cebpf4jnsgd1na2vs0mg"},{"bike_id":"58bfa717-13f2-43a0-a814-2d5eede0458b","system_id":"levelo_inurba_marseille","lat":43.33031,"lon":5.39032,"is_reserved":false,"is_disabled":false,"rental_uris":{"android":"levelo://app?vid=58bfa717-13f2-43a0-a814-2d5eede0458b","ios":"levelo://app?vid=58bfa717-13f2-43a0-a814-2d5eede0458b"},"vehicle_type_id":"4","last_reported":1739449033,"current_range_meters":38000,"station_id":"ce4bhr92rcd13ifvqhrg","pricing_plan_id":"cebpf4jnsgd1na2vs0mg"},{"bike_id":"9f35c01a-980b-467b-9424-3615972c4010","system_id":"levelo_inurba_marseille","lat":43.28614,"lon":5.35108,"is_reserved":false,"is_disabled":false,"rental_uris":{"android":"levelo://app?vid=9f35c01a-980b-467b-9424-3615972c4010","ios":"levelo://app?vid=9f35c01a-980b-467b-9424-3615972c4010"},"vehicle_type_id":"4","last_reported":1739449033,"current_range_meters":33600,"station_id":"ce4bhch2rcd13ifvqeug","pricing_plan_id":"cebpf4jnsgd1na2vs0mg"},{"bike_id":"da6f3c21-f619-4a81-a7b0-cf9719e8927b","system_id":"levelo_inurba_marseille","lat":43.30446,"lon":5.37616,"is_reserved":false,"is_disabled":false,"rental_uris":{"android":"levelo://app?vid=da6f3c21-f619-4a81-a7b0-cf9719e8927b","ios":"levelo://app?vid=da6f3c21-f619-4a81-a7b0-cf9719e8927b"},"vehicle_type_id":"4","last_reported":1739449033,"current_range_meters":30000,"station_id":"","pricing_plan_id":"cebpf4jnsgd1na2vs0mg"},{"bike_id":"fa094bf9-1d6a-4ba6-aa88-1151a5efd2ad","system_id":"levelo_inurba_marseille","lat":43.305356,"lon":5.367137,"is_reserved":false,"is_disabled":false,"rental_uris":{"android":"levelo://app?vid=fa094bf9-1d6a-4ba6-aa88-1151a5efd2ad","ios":"levelo://app?vid=fa094bf9-1d6a-4ba6-aa88-1151a5efd2ad"},"vehicle_type_id":"4","last_reported":1739449033,"current_range_meters":38800,"station_id":"ce4bgrp2rcd13ifvqc9g","pricing_plan_id":"cebpf4jnsgd1na2vs0mg"},{"bike_id":"786687c7-e4ff-4ff9-8656-9627b4ede65e","system_id":"levelo_inurba_marseille","lat":43.26697,"lon":5.3826,"is_reserved":false,"is_disabled":false,"rental_uris":{"android":"levelo://app?vid=786687c7-e4ff-4ff9-8656-9627b4ede65e","ios":"levelo://app?vid=786687c7-e4ff-4ff9-8656-9627b4ede65e"},"vehicle_type_id":"4","last_reported":1739449033,"current_range_meters":38800,"station_id":"ce4bhg92rcd13ifvqf90","pricing_plan_id":"cebpf4jnsgd1na2vs0mg"},{"bike_id":"4e3cd665-2aba-4e5e-95d7-61fa93fa2204","system_id":"levelo_inurba_marseille","lat":43.306,"lon":5.39356,"is_reserved":false,"is_disabled":false,"rental_uris":{"android":"levelo://app?vid=4e3cd665-2aba-4e5e-95d7-61fa93fa2204","ios":"levelo://app?vid=4e3cd665-2aba-4e5e-95d7-61fa93fa2204"},"vehicle_type_id":"4","last_reported":1739449033,"current_range_meters":38800,"station_id":"ce4bh0p2rcd13ifvqd80","pricing_plan_id":"cebpf4jnsgd1na2vs0mg"},{"bike_id":"498932e1-4045-4fef-bb1e-d21221785da8","system_id":"levelo_inurba_marseille","lat":43.26584,"lon":5.39026,"is_reserved":false,"is_disabled":false,"rental_uris":{"android":"levelo://app?vid=498932e1-4045-4fef-bb1e-d21221785da8","ios":"levelo://app?vid=498932e1-4045-4fef-bb1e-d21221785da8"},"vehicle_type_id":"4","last_reported":1739449033,"current_range_meters":30400,"station_id":"ce4bhe12rcd13ifvqf30","pricing_plan_id":"cebpf4jnsgd1na2vs0mg"},{"bike_id":"26de5054-7c43-4c9f-977c-5313481d109f","system_id":"levelo_inurba_marseille","lat":43.2418,"lon":5.39725,"is_reserved":false,"is_disabled":false,"rental_uris":{"android":"levelo://app?vid=26de5054-7c43-4c9f-977c-5313481d109f","ios":"levelo://app?vid=26de5054-7c43-4c9f-977c-5313481d109f"},"vehicle_type_id":"4","last_reported":1739449033,"current_range_meters":38800,"station_id":"ce4bhn12rcd13ifvqgpg","pricing_plan_id":"cebpf4jnsgd1na2vs0mg"},{"bike_id":"db9667f4-6991-4a08-8532-cf6285800ccc","system_id":"levelo_inurba_marseille","lat":43.311791,"lon":5.387203,"is_reserved":false,"is_disabled":true,"rental_uris":{"android":"levelo://app?vid=db9667f4-6991-4a08-8532-cf6285800ccc","ios":"levelo://app?vid=db9667f4-6991-4a08-8532-cf6285800ccc"},"vehicle_type_id":"4","last_reported":1739449033,"current_range_meters":33200,"station_id":"ce4bgv12rcd13ifvqcp0","pricing_plan_id":"cebpf4jnsgd1na2vs0mg"},{"bike_id":"2a8d5b38-12c7-43ca-969a-fe7b4ef5b359","system_id":"levelo_inurba_marseille","lat":43.31785,"lon":5.37686,"is_reserved":false,"is_disabled":true,"rental_uris":{"android":"levelo://app?vid=2a8d5b38-12c7-43ca-969a-fe7b4ef5b359","ios":"levelo://app?vid=2a8d5b38-12c7-43ca-969a-fe7b4ef5b359"},"vehicle_type_id":"4","last_reported":1739449033,"current_range_meters":3200,"station_id":"ce4bgth2rcd13ifvqch0","pricing_plan_id":"cebpf4jnsgd1na2vs0mg"},{"bike_id":"f7ae7c18-00c6-472a-9fd7-3e1065131735","system_id":"levelo_inurba_marseille","lat":43.25881,"lon":5.39905,"is_reserved":false,"is_disabled":false,"rental_uris":{"android":"levelo://app?vid=f7ae7c18-00c6-472a-9fd7-3e1065131735","ios":"levelo://app?vid=f7ae7c18-00c6-472a-9fd7-3e1065131735"},"vehicle_type_id":"4","last_reported":1739449033,"current_range_meters":34000,"station_id":"ce4bhl92rcd13ifvqghg","pricing_plan_id":"cebpf4jnsgd1na2vs0mg"},{"bike_id":"7b093d7c-4693-4f29-80ab-7573efa21ff8","system_id":"levelo_inurba_marseille","lat":43.2749,"lon":5.42454,"is_reserved":false,"is_disabled":false,"rental_uris":{"android":"levelo://app?vid=7b093d7c-4693-4f29-80ab-7573efa21ff8","ios":"levelo://app?vid=7b093d7c-4693-4f29-80ab-7573efa21ff8"},"vehicle_type_id":"4","last_reported":1739449033,"current_range_meters":34000,"station_id":"ce4bhn92rcd13ifvqgrg","pricing_plan_id":"cebpf4jnsgd1na2vs0mg"},{"bike_id":"7b2a99f7-c3e3-4c9f-8631-fe4a2f898d10","system_id":"levelo_inurba_marseille","lat":43.31252,"lon":5.36838,"is_reserved":false,"is_disabled":false,"rental_uris":{"android":"levelo://app?vid=7b2a99f7-c3e3-4c9f-8631-fe4a2f898d10","ios":"levelo://app?vid=7b2a99f7-c3e3-4c9f-8631-fe4a2f898d10"},"vehicle_type_id":"4","last_reported":1739449033,"current_range_meters":36400,"station_id":"ce4bgl92rcd13ifvqbq0","pricing_plan_id":"cebpf4jnsgd1na2vs0mg"},{"bike_id":"afe718b6-1fd4-41b5-9f29-95c12444e59d","system_id":"levelo_inurba_marseille","lat":43.2792,"lon":5.38004,"is_reserved":false,"is_disabled":false,"rental_uris":{"android":"levelo://app?vid=afe718b6-1fd4-41b5-9f29-95c12444e59d","ios":"levelo://app?vid=afe718b6-1fd4-41b5-9f29-95c12444e59d"},"vehicle_type_id":"4","last_reported":1739449033,"current_range_meters":38000,"station_id":"ce4bhf92rcd13ifvqf50","pricing_plan_id":"cebpf4jnsgd1na2vs0mg"},{"bike_id":"5429a055-5c17-4863-ac08-ee7234bc7af8","system_id":"levelo_inurba_marseille","lat":43.32362,"lon":5.36763,"is_reserved":false,"is_disabled":false,"rental_uris":{"android":"levelo://app?vid=5429a055-5c17-4863-ac08-ee7234bc7af8","ios":"levelo://app?vid=5429a055-5c17-4863-ac08-ee7234bc7af8"},"vehicle_type_id":"4","last_reported":1739449033,"current_range_meters":11200,"station_id":"ce4bhsh2rcd13ifvqi2g","pricing_plan_id":"cebpf4jnsgd1na2vs0mg"},{"bike_id":"04d4b8ab-1d4d-44ab-9d49-e10f569c0553","system_id":"levelo_inurba_marseille","lat":43.29859,"lon":5.36261,"is_reserved":false,"is_disabled":false,"rental_uris":{"android":"levelo://app?vid=04d4b8ab-1d4d-44ab-9d49-e10f569c0553","ios":"levelo://app?vid=04d4b8ab-1d4d-44ab-9d49-e10f569c0553"},"vehicle_type_id":"4","last_reported":1739449033,"current_range_meters":27200,"station_id":"ce4bgpp2rcd13ifvqc3g","pricing_plan_id":"cebpf4jnsgd1na2vs0mg"},{"bike_id":"891b5235-d570-4a76-86be-74a0648f4828","system_id":"levelo_inurba_marseille","lat":43.29898,"lon":5.36267,"is_reserved":false,"is_disabled":false,"rental_uris":{"android":"levelo://app?vid=891b5235-d570-4a76-86be-74a0648f4828","ios":"levelo://app?vid=891b5235-d570-4a76-86be-74a0648f4828"},"vehicle_type_id":"4","last_reported":1739449033,"current_range_meters":38800,"station_id":"ce4bgpp2rcd13ifvqc3g","pricing_plan_id":"cebpf4jnsgd1na2vs0mg"},{"bike_id":"139c3a9c-706e-4108-b5d1-54b2f0fce177","system_id":"levelo_inurba_marseille","lat":43.29866,"lon":5.39726,"is_reserved":false,"is_disabled":false,"rental_uris":{"android":"levelo://app?vid=139c3a9c-706e-4108-b5d1-54b2f0fce177","ios":"levelo://app?vid=139c3a9c-706e-4108-b5d1-54b2f0fce177"},"vehicle_type_id":"4","last_reported":1739449033,"current_range_meters":38800,"station_id":"ce4bh0h2rcd13ifvqd50","pricing_plan_id":"cebpf4jnsgd1na2vs0mg"},{"bike_id":"b57c67a0-1792-4659-8252-46bfcb1b78cf","system_id":"levelo_inurba_marseille","lat":43.28111,"lon":5.37834,"is_reserved":false,"is_disabled":false,"rental_uris":{"android":"levelo://app?vid=b57c67a0-1792-4659-8252-46bfcb1b78cf","ios":"levelo://app?vid=b57c67a0-1792-4659-8252-46bfcb1b78cf"},"vehicle_type_id":"4","last_reported":1739449033,"current_range_meters":30000,"station_id":"ce4bha12rcd13ifvqee0","pricing_plan_id":"cebpf4jnsgd1na2vs0mg"},{"bike_id":"3ff6292c-884c-4d86-87d0-50430e36937c","system_id":"levelo_inurba_marseille","lat":43.29781,"lon":5.39341,"is_reserved":false,"is_disabled":false,"rental_uris":{"android":"levelo://app?vid=3ff6292c-884c-4d86-87d0-50430e36937c","ios":"levelo://app?vid=3ff6292c-884c-4d86-87d0-50430e36937c"},"vehicle_type_id":"4","last_reported":1739449033,"current_range_meters":8800,"station_id":"chh1huq6cuj3fo74tm60","pricing_plan_id":"cebpf4jnsgd1na2vs0mg"},{"bike_id":"21c6442b-fde6-4984-9769-ad9453b8a84f","system_id":"levelo_inurba_marseille","lat":43.29854,"lon":5.36286,"is_reserved":false,"is_disabled":false,"rental_uris":{"android":"levelo://app?vid=21c6442b-fde6-4984-9769-ad9453b8a84f","ios":"levelo://app?vid=21c6442b-fde6-4984-9769-ad9453b8a84f"},"vehicle_type_id":"4","last_reported":1739449033,"current_range_meters":12800,"station_id":"ce4bgpp2rcd13ifvqc3g","pricing_plan_id":"cebpf4jnsgd1na2vs0mg"},{"bike_id":"979fe5d5-2849-4a27-9e62-197c0d81763f","system_id":"levelo_inurba_marseille","lat":43.3362,"lon":5.40993,"is_reserved":false,"is_disabled":false,"rental_uris":{"android":"levelo://app?vid=979fe5d5-2849-4a27-9e62-197c0d81763f","ios":"levelo://app?vid=979fe5d5-2849-4a27-9e62-197c0d81763f"},"vehicle_type_id":"4","last_reported":1739449033,"current_range_meters":22000,"station_id":"ce4bhqh2rcd13ifvqhmg","pricing_plan_id":"cebpf4jnsgd1na2vs0mg"},{"bike_id":"971f9951-cad8-4d64-aee1-30948583f711","system_id":"levelo_inurba_marseille","lat":43.32501,"lon":5.36573,"is_reserved":false,"is_disabled":false,"rental_uris":{"android":"levelo://app?vid=971f9951-cad8-4d64-aee1-30948583f711","ios":"levelo://app?vid=971f9951-cad8-4d64-aee1-30948583f711"},"vehicle_type_id":"4","last_reported":1739449033,"current_range_meters":39200,"station_id":"ce4bhs12rcd13ifvqhvg","pricing_plan_id":"cebpf4jnsgd1na2vs0mg"},{"bike_id":"edcd58c3-da0e-4a4e-a4fc-e81eecb40fa9","system_id":"levelo_inurba_marseille","lat":43.30941,"lon":5.40143,"is_reserved":false,"is_disabled":false,"rental_uris":{"android":"levelo://app?vid=edcd58c3-da0e-4a4e-a4fc-e81eecb40fa9","ios":"levelo://app?vid=edcd58c3-da0e-4a4e-a4fc-e81eecb40fa9"},"vehicle_type_id":"4","last_reported":1739449033,"current_range_meters":36800,"station_id":"ce4bgvp2rcd13ifvqct0","pricing_plan_id":"cebpf4jnsgd1na2vs0mg"},{"bike_id":"6fb98146-dfb0-4776-8c85-356a107d39f5","system_id":"levelo_inurba_marseille","lat":43.30541,"lon":5.36519,"is_reserved":false,"is_disabled":false,"rental_uris":{"android":"levelo://app?vid=6fb98146-dfb0-4776-8c85-356a107d39f5","ios":"levelo://app?vid=6fb98146-dfb0-4776-8c85-356a107d39f5"},"vehicle_type_id":"4","last_reported":1739449033,"current_range_meters":35200,"station_id":"ce4bgs12rcd13ifvqcag","pricing_plan_id":"cebpf4jnsgd1na2vs0mg"},{"bike_id":"14e02d83-9711-4b76-82e6-b76fa116b167","system_id":"levelo_inurba_marseille","lat":43.23153,"lon":5.43712,"is_reserved":false,"is_disabled":false,"rental_uris":{"android":"levelo://app?vid=14e02d83-9711-4b76-82e6-b76fa116b167","ios":"levelo://app?vid=14e02d83-9711-4b76-82e6-b76fa116b167"},"vehicle_type_id":"4","last_reported":1739449033,"current_range_meters":39200,"station_id":"ce4bhmp2rcd13ifvqgog","pricing_plan_id":"cebpf4jnsgd1na2vs0mg"},{"bike_id":"5c77e241-f61f-441a-adc1-06629ef90749","system_id":"levelo_inurba_marseille","lat":43.28272,"lon":5.35068,"is_reserved":false,"is_disabled":false,"rental_uris":{"android":"levelo://app?vid=5c77e241-f61f-441a-adc1-06629ef90749","ios":"levelo://app?vid=5c77e241-f61f-441a-adc1-06629ef90749"},"vehicle_type_id":"4","last_reported":1739449033,"current_range_meters":24800,"station_id":"ce4bhbp2rcd13ifvqerg","pricing_plan_id":"cebpf4jnsgd1na2vs0mg"},{"bike_id":"3540c162-1deb-4f5d-9444-5297f8eb2d63","system_id":"levelo_inurba_marseille","lat":43.2741,"lon":5.39403,"is_reserved":false,"is_disabled":false,"rental_uris":{"android":"levelo://app?vid=3540c162-1deb-4f5d-9444-5297f8eb2d63","ios":"levelo://app?vid=3540c162-1deb-4f5d-9444-5297f8eb2d63"},"vehicle_type_id":"4","last_reported":1739449033,"current_range_meters":38000,"station_id":"ce4bhdp2rcd13ifvqf20","pricing_plan_id":"cebpf4jnsgd1na2vs0mg"},{"bike_id":"d3eddafd-a306-4e6f-acf7-385a5818cde0","system_id":"levelo_inurba_marseille","lat":43.28344,"lon":5.38097,"is_reserved":false,"is_disabled":false,"rental_uris":{"android":"levelo://app?vid=d3eddafd-a306-4e6f-acf7-385a5818cde0","ios":"levelo://app?vid=d3eddafd-a306-4e6f-acf7-385a5818cde0"},"vehicle_type_id":"4","last_reported":1739449033,"current_range_meters":20000,"station_id":"ce4bh412rcd13ifvqdr0","pricing_plan_id":"cebpf4jnsgd1na2vs0mg"},{"bike_id":"c341a758-0377-4841-89ae-68ec48913f54","system_id":"levelo_inurba_marseille","lat":43.30139,"lon":5.3986,"is_reserved":false,"is_disabled":false,"rental_uris":{"android":"levelo://app?vid=c341a758-0377-4841-89ae-68ec48913f54","ios":"levelo://app?vid=c341a758-0377-4841-89ae-68ec48913f54"},"vehicle_type_id":"4","last_reported":1739449033,"current_range_meters":24800,"station_id":"ce4bh0h2rcd13ifvqd40","pricing_plan_id":"cebpf4jnsgd1na2vs0mg"},{"bike_id":"eb74081f-8035-495f-a073-abb8444b5eb2","system_id":"levelo_inurba_marseille","lat":43.23962,"lon":5.36625,"is_reserved":false,"is_disabled":false,"rental_uris":{"android":"levelo://app?vid=eb74081f-8035-495f-a073-abb8444b5eb2","ios":"levelo://app?vid=eb74081f-8035-495f-a073-abb8444b5eb2"},"vehicle_type_id":"4","last_reported":1739449033,"current_range_meters":38800,"station_id":"ce4bhi12rcd13ifvqfp0","pricing_plan_id":"cebpf4jnsgd1na2vs0mg"},{"bike_id":"403d2a65-f5a0-4b31-bcfd-14cb1aba522c","system_id":"levelo_inurba_marseille","lat":43.27495,"lon":5.42443,"is_reserved":false,"is_disabled":false,"rental_uris":{"android":"levelo://app?vid=403d2a65-f5a0-4b31-bcfd-14cb1aba522c","ios":"levelo://app?vid=403d2a65-f5a0-4b31-bcfd-14cb1aba522c"},"vehicle_type_id":"4","last_reported":1739449033,"current_range_meters":23200,"station_id":"ce4bhn92rcd13ifvqgrg","pricing_plan_id":"cebpf4jnsgd1na2vs0mg"},{"bike_id":"79a70391-f7ad-4971-9864-598565a84dac","system_id":"levelo_inurba_marseille","lat":43.28675,"lon":5.38677,"is_reserved":false,"is_disabled":false,"rental_uris":{"android":"levelo://app?vid=79a70391-f7ad-4971-9864-598565a84dac","ios":"levelo://app?vid=79a70391-f7ad-4971-9864-598565a84dac"},"vehicle_type_id":"4","last_reported":1739449033,"current_range_meters":30400,"station_id":"ce4bh492rcd13ifvqdug","pricing_plan_id":"cebpf4jnsgd1na2vs0mg"},{"bike_id":"b7338215-affb-4429-9e49-74023cf6df10","system_id":"levelo_inurba_marseille","lat":43.28428,"lon":5.34979,"is_reserved":false,"is_disabled":false,"rental_uris":{"android":"levelo://app?vid=b7338215-affb-4429-9e49-74023cf6df10","ios":"levelo://app?vid=b7338215-affb-4429-9e49-74023cf6df10"},"vehicle_type_id":"4","last_reported":1739449033,"current_range_meters":37600,"station_id":"ce4bhbh2rcd13ifvqepg","pricing_plan_id":"cebpf4jnsgd1na2vs0mg"},{"bike_id":"53f6e5b3-7ba5-4751-bcee-534d850c7130","system_id":"levelo_inurba_marseille","lat":43.29684,"lon":5.37712,"is_reserved":false,"is_disabled":false,"rental_uris":{"android":"levelo://app?vid=53f6e5b3-7ba5-4751-bcee-534d850c7130","ios":"levelo://app?vid=53f6e5b3-7ba5-4751-bcee-534d850c7130"},"vehicle_type_id":"4","last_reported":1739449033,"current_range_meters":24400,"station_id":"ce4bgkh2rcd13ifvqbl0","pricing_plan_id":"cebpf4jnsgd1na2vs0mg"},{"bike_id":"8d2d4012-ff69-4800-927a-45caff6cd054","system_id":"levelo_inurba_marseille","lat":43.23158,"lon":5.437,"is_reserved":false,"is_disabled":false,"rental_uris":{"android":"levelo://app?vid=8d2d4012-ff69-4800-927a-45caff6cd054","ios":"levelo://app?vid=8d2d4012-ff69-4800-927a-45caff6cd054"},"vehicle_type_id":"4","last_reported":1739449033,"current_range_meters":38800,"station_id":"ce4bhmp2rcd13ifvqgog","pricing_plan_id":"cebpf4jnsgd1na2vs0mg"},{"bike_id":"1ec14052-2d33-4aa1-9ab8-58cc71db74d1","system_id":"levelo_inurba_marseille","lat":43.241705,"lon":5.364059,"is_reserved":false,"is_disabled":false,"rental_uris":{"android":"levelo://app?vid=1ec14052-2d33-4aa1-9ab8-58cc71db74d1","ios":"levelo://app?vid=1ec14052-2d33-4aa1-9ab8-58cc71db74d1"},"vehicle_type_id":"4","last_reported":1739449033,"current_range_meters":6400,"station_id":"cpo36qri1sfpv3e86is0","pricing_plan_id":"cebpf4jnsgd1na2vs0mg"},{"bike_id":"6e58a69c-2a4e-4c49-840d-6e728a603acb","system_id":"levelo_inurba_marseille","lat":43.23064,"lon":5.35483,"is_reserved":false,"is_disabled":false,"rental_uris":{"android":"levelo://app?vid=6e58a69c-2a4e-4c49-840d-6e728a603acb","ios":"levelo://app?vid=6e58a69c-2a4e-4c49-840d-6e728a603acb"},"vehicle_type_id":"4","last_reported":1739449033,"current_range_meters":6000,"station_id":"cpo3342slgdg3j2ifvpg","pricing_plan_id":"cebpf4jnsgd1na2vs0mg"},{"bike_id":"add7e1b7-46d4-4b7f-bf50-34281873e788","system_id":"levelo_inurba_marseille","lat":43.31226,"lon":5.36857,"is_reserved":false,"is_disabled":false,"rental_uris":{"android":"levelo://app?vid=add7e1b7-46d4-4b7f-bf50-34281873e788","ios":"levelo://app?vid=add7e1b7-46d4-4b7f-bf50-34281873e788"},"vehicle_type_id":"4","last_reported":1739449033,"current_range_meters":28400,"station_id":"ce4bgl92rcd13ifvqbq0","pricing_plan_id":"cebpf4jnsgd1na2vs0mg"},{"bike_id":"ab99d0ad-28be-47e5-b8bd-3fed203a4e99","system_id":"levelo_inurba_marseille","lat":43.26077,"lon":5.39388,"is_reserved":false,"is_disabled":false,"rental_uris":{"android":"levelo://app?vid=ab99d0ad-28be-47e5-b8bd-3fed203a4e99","ios":"levelo://app?vid=ab99d0ad-28be-47e5-b8bd-3fed203a4e99"},"vehicle_type_id":"4","last_reported":1739449033,"current_range_meters":38800,"station_id":"ce4bhh92rcd13ifvqfj0","pricing_plan_id":"cebpf4jnsgd1na2vs0mg"},{"bike_id":"4450d397-c7c4-4c68-aed9-fa811598c082","system_id":"levelo_inurba_marseille","lat":43.32547,"lon":5.36505,"is_reserved":false,"is_disabled":false,"rental_uris":{"android":"levelo://app?vid=4450d397-c7c4-4c68-aed9-fa811598c082","ios":"levelo://app?vid=4450d397-c7c4-4c68-aed9-fa811598c082"},"vehicle_type_id":"4","last_reported":1739449033,"current_range_meters":37600,"station_id":"","pricing_plan_id":"cebpf4jnsgd1na2vs0mg"},{"bike_id":"1baab903-2026-4726-99eb-a9de546ae1ea","system_id":"levelo_inurba_marseille","lat":43.30551,"lon":5.36657,"is_reserved":false,"is_disabled":false,"rental_uris":{"android":"levelo://app?vid=1baab903-2026-4726-99eb-a9de546ae1ea","ios":"levelo://app?vid=1baab903-2026-4726-99eb-a9de546ae1ea"},"vehicle_type_id":"4","last_reported":1739449033,"current_range_meters":38800,"station_id":"","pricing_plan_id":"cebpf4jnsgd1na2vs0mg"},{"bike_id":"480c1aa3-d6e9-4183-8a95-67936310bf1a","system_id":"levelo_inurba_marseille","lat":43.30028,"lon":5.37195,"is_reserved":false,"is_disabled":false,"rental_uris":{"android":"levelo://app?vid=480c1aa3-d6e9-4183-8a95-67936310bf1a","ios":"levelo://app?vid=480c1aa3-d6e9-4183-8a95-67936310bf1a"},"vehicle_type_id":"4","last_reported":1739449033,"current_range_meters":38800,"station_id":"ce4bgr92rcd13ifvqc7g","pricing_plan_id":"cebpf4jnsgd1na2vs0mg"},{"bike_id":"04e79b02-26b7-408e-8d07-a04361b8a27a","system_id":"levelo_inurba_marseille","lat":43.23188,"lon":5.39986,"is_reserved":false,"is_disabled":false,"rental_uris":{"android":"levelo://app?vid=04e79b02-26b7-408e-8d07-a04361b8a27a","ios":"levelo://app?vid=04e79b02-26b7-408e-8d07-a04361b8a27a"},"vehicle_type_id":"4","last_reported":1739449033,"current_range_meters":38800,"station_id":"ce4bhn12rcd13ifvqgqg","pricing_plan_id":"cebpf4jnsgd1na2vs0mg"},{"bike_id":"c8fb440b-0a41-45cb-b9c6-617bcec5315d","system_id":"levelo_inurba_marseille","lat":43.24178,"lon":5.36392,"is_reserved":false,"is_disabled":false,"rental_uris":{"android":"levelo://app?vid=c8fb440b-0a41-45cb-b9c6-617bcec5315d","ios":"levelo://app?vid=c8fb440b-0a41-45cb-b9c6-617bcec5315d"},"vehicle_type_id":"4","last_reported":1739449033,"current_range_meters":20000,"station_id":"cpo36qri1sfpv3e86is0","pricing_plan_id":"cebpf4jnsgd1na2vs0mg"},{"bike_id":"a96951e3-b486-423e-94c9-b9cc53146c0c","system_id":"levelo_inurba_marseille","lat":43.23158,"lon":5.43711,"is_reserved":false,"is_disabled":false,"rental_uris":{"android":"levelo://app?vid=a96951e3-b486-423e-94c9-b9cc53146c0c","ios":"levelo://app?vid=a96951e3-b486-423e-94c9-b9cc53146c0c"},"vehicle_type_id":"4","last_reported":1739449033,"current_range_meters":17600,"station_id":"ce4bhmp2rcd13ifvqgog","pricing_plan_id":"cebpf4jnsgd1na2vs0mg"},{"bike_id":"5023ed76-0c18-4d2c-bfc9-a79835e88889","system_id":"levelo_inurba_marseille","lat":43.29795,"lon":5.3809,"is_reserved":false,"is_disabled":false,"rental_uris":{"android":"levelo://app?vid=5023ed76-0c18-4d2c-bfc9-a79835e88889","ios":"levelo://app?vid=5023ed76-0c18-4d2c-bfc9-a79835e88889"},"vehicle_type_id":"4","last_reported":1739449033,"current_range_meters":38800,"station_id":"ce4bgip2rcd13ifvqbb0","pricing_plan_id":"cebpf4jnsgd1na2vs0mg"},{"bike_id":"f069e427-6164-49b3-a6ab-e71eaa4644e5","system_id":"levelo_inurba_marseille","lat":43.28618,"lon":5.35097,"is_reserved":false,"is_disabled":false,"rental_uris":{"android":"levelo://app?vid=f069e427-6164-49b3-a6ab-e71eaa4644e5","ios":"levelo://app?vid=f069e427-6164-49b3-a6ab-e71eaa4644e5"},"vehicle_type_id":"4","last_reported":1739449033,"current_range_meters":38800,"station_id":"ce4bhch2rcd13ifvqeug","pricing_plan_id":"cebpf4jnsgd1na2vs0mg"},{"bike_id":"361a6e8d-047a-4b8b-81b6-6ac778745881","system_id":"levelo_inurba_marseille","lat":43.30562,"lon":5.3652,"is_reserved":false,"is_disabled":false,"rental_uris":{"android":"levelo://app?vid=361a6e8d-047a-4b8b-81b6-6ac778745881","ios":"levelo://app?vid=361a6e8d-047a-4b8b-81b6-6ac778745881"},"vehicle_type_id":"4","last_reported":1739449033,"current_range_meters":28400,"station_id":"ce4bgs12rcd13ifvqcag","pricing_plan_id":"cebpf4jnsgd1na2vs0mg"},{"bike_id":"7d4c2fd4-95c7-4bbd-b767-d47d40112c4f","system_id":"levelo_inurba_marseille","lat":43.27222,"lon":5.39188,"is_reserved":false,"is_disabled":false,"rental_uris":{"android":"levelo://app?vid=7d4c2fd4-95c7-4bbd-b767-d47d40112c4f","ios":"levelo://app?vid=7d4c2fd4-95c7-4bbd-b767-d47d40112c4f"},"vehicle_type_id":"4","last_reported":1739449033,"current_range_meters":38800,"station_id":"ce4bhhp2rcd13ifvqfm0","pricing_plan_id":"cebpf4jnsgd1na2vs0mg"},{"bike_id":"939d1de8-80c0-4e05-921b-0578ee493aad","system_id":"levelo_inurba_marseille","lat":43.31224,"lon":5.36849,"is_reserved":false,"is_disabled":false,"rental_uris":{"android":"levelo://app?vid=939d1de8-80c0-4e05-921b-0578ee493aad","ios":"levelo://app?vid=939d1de8-80c0-4e05-921b-0578ee493aad"},"vehicle_type_id":"4","last_reported":1739449033,"current_range_meters":36400,"station_id":"ce4bgl92rcd13ifvqbq0","pricing_plan_id":"cebpf4jnsgd1na2vs0mg"},{"bike_id":"51c4e3a8-2172-4b7d-8e51-4493ba7214bb","system_id":"levelo_inurba_marseille","lat":43.30901,"lon":5.36862,"is_reserved":false,"is_disabled":false,"rental_uris":{"android":"levelo://app?vid=51c4e3a8-2172-4b7d-8e51-4493ba7214bb","ios":"levelo://app?vid=51c4e3a8-2172-4b7d-8e51-4493ba7214bb"},"vehicle_type_id":"4","last_reported":1739449033,"current_range_meters":38800,"station_id":"ce4bgn92rcd13ifvqbvg","pricing_plan_id":"cebpf4jnsgd1na2vs0mg"},{"bike_id":"7705324e-dd3d-4a92-a560-9ff863a19382","system_id":"levelo_inurba_marseille","lat":43.30147,"lon":5.37433,"is_reserved":false,"is_disabled":false,"rental_uris":{"android":"levelo://app?vid=7705324e-dd3d-4a92-a560-9ff863a19382","ios":"levelo://app?vid=7705324e-dd3d-4a92-a560-9ff863a19382"},"vehicle_type_id":"4","last_reported":1739449033,"current_range_meters":38800,"station_id":"ce4bgs92rcd13ifvqcc0","pricing_plan_id":"cebpf4jnsgd1na2vs0mg"},{"bike_id":"52591901-7075-4154-8ec9-0dfca05a1446","system_id":"levelo_inurba_marseille","lat":43.32485,"lon":5.36603,"is_reserved":false,"is_disabled":false,"rental_uris":{"android":"levelo://app?vid=52591901-7075-4154-8ec9-0dfca05a1446","ios":"levelo://app?vid=52591901-7075-4154-8ec9-0dfca05a1446"},"vehicle_type_id":"4","last_reported":1739449033,"current_range_meters":38800,"station_id":"ce4bhs12rcd13ifvqhvg","pricing_plan_id":"cebpf4jnsgd1na2vs0mg"},{"bike_id":"e823fe48-f4a6-4633-ab11-5ed86deb2fc6","system_id":"levelo_inurba_marseille","lat":43.31236,"lon":5.36846,"is_reserved":false,"is_disabled":false,"rental_uris":{"android":"levelo://app?vid=e823fe48-f4a6-4633-ab11-5ed86deb2fc6","ios":"levelo://app?vid=e823fe48-f4a6-4633-ab11-5ed86deb2fc6"},"vehicle_type_id":"4","last_reported":1739449033,"current_range_meters":6400,"station_id":"ce4bgl92rcd13ifvqbq0","pricing_plan_id":"cebpf4jnsgd1na2vs0mg"},{"bike_id":"087de298-1f09-4bdc-ba9f-a021751eebeb","system_id":"levelo_inurba_marseille","lat":43.28353,"lon":5.38628,"is_reserved":false,"is_disabled":false,"rental_uris":{"android":"levelo://app?vid=087de298-1f09-4bdc-ba9f-a021751eebeb","ios":"levelo://app?vid=087de298-1f09-4bdc-ba9f-a021751eebeb"},"vehicle_type_id":"4","last_reported":1739449033,"current_range_meters":24800,"station_id":"ce4bh492rcd13ifvqdvg","pricing_plan_id":"cebpf4jnsgd1na2vs0mg"},{"bike_id":"43b6f948-f371-4215-9253-44a0b7606323","system_id":"levelo_inurba_marseille","lat":43.25157,"lon":5.40429,"is_reserved":false,"is_disabled":false,"rental_uris":{"android":"levelo://app?vid=43b6f948-f371-4215-9253-44a0b7606323","ios":"levelo://app?vid=43b6f948-f371-4215-9253-44a0b7606323"},"vehicle_type_id":"4","last_reported":1739449033,"current_range_meters":38800,"station_id":"ce4bhlh2rcd13ifvqgig","pricing_plan_id":"cebpf4jnsgd1na2vs0mg"},{"bike_id":"72f360d9-d19c-4d29-920b-54b9c1bdf4a5","system_id":"levelo_inurba_marseille","lat":43.30551,"lon":5.36694,"is_reserved":false,"is_disabled":false,"rental_uris":{"android":"levelo://app?vid=72f360d9-d19c-4d29-920b-54b9c1bdf4a5","ios":"levelo://app?vid=72f360d9-d19c-4d29-920b-54b9c1bdf4a5"},"vehicle_type_id":"4","last_reported":1739449033,"current_range_meters":30000,"station_id":"ce4bgrp2rcd13ifvqc9g","pricing_plan_id":"cebpf4jnsgd1na2vs0mg"},{"bike_id":"ca60b2af-cce7-4290-adcc-eaec354c2c93","system_id":"levelo_inurba_marseille","lat":43.25006,"lon":5.38917,"is_reserved":false,"is_disabled":false,"rental_uris":{"android":"levelo://app?vid=ca60b2af-cce7-4290-adcc-eaec354c2c93","ios":"levelo://app?vid=ca60b2af-cce7-4290-adcc-eaec354c2c93"},"vehicle_type_id":"4","last_reported":1739449033,"current_range_meters":23200,"station_id":"ce4bhgp2rcd13ifvqfd0","pricing_plan_id":"cebpf4jnsgd1na2vs0mg"},{"bike_id":"98e54b54-5579-4b78-a98b-e4def0765729","system_id":"levelo_inurba_marseille","lat":43.32389,"lon":5.38885,"is_reserved":false,"is_disabled":false,"rental_uris":{"android":"levelo://app?vid=98e54b54-5579-4b78-a98b-e4def0765729","ios":"levelo://app?vid=98e54b54-5579-4b78-a98b-e4def0765729"},"vehicle_type_id":"4","last_reported":1739449033,"current_range_meters":32000,"station_id":"ce4bhqp2rcd13ifvqhog","pricing_plan_id":"cebpf4jnsgd1na2vs0mg"},{"bike_id":"54ce597b-1ca1-4d62-923d-d4b29eec04b3","system_id":"levelo_inurba_marseille","lat":43.31131,"lon":5.38261,"is_reserved":false,"is_disabled":false,"rental_uris":{"android":"levelo://app?vid=54ce597b-1ca1-4d62-923d-d4b29eec04b3","ios":"levelo://app?vid=54ce597b-1ca1-4d62-923d-d4b29eec04b3"},"vehicle_type_id":"4","last_reported":1739449033,"current_range_meters":10800,"station_id":"","pricing_plan_id":"cebpf4jnsgd1na2vs0mg"},{"bike_id":"ce3fa350-a693-4b64-bf9f-5385693aa408","system_id":"levelo_inurba_marseille","lat":43.27947,"lon":5.41051,"is_reserved":false,"is_disabled":false,"rental_uris":{"android":"levelo://app?vid=ce3fa350-a693-4b64-bf9f-5385693aa408","ios":"levelo://app?vid=ce3fa350-a693-4b64-bf9f-5385693aa408"},"vehicle_type_id":"4","last_reported":1739449033,"current_range_meters":10000,"station_id":"ce4bhnp2rcd13ifvqh0g","pricing_plan_id":"cebpf4jnsgd1na2vs0mg"},{"bike_id":"54023995-623b-441a-9d82-ed337c5ace1f","system_id":"levelo_inurba_marseille","lat":43.25932,"lon":5.4091,"is_reserved":false,"is_disabled":false,"rental_uris":{"android":"levelo://app?vid=54023995-623b-441a-9d82-ed337c5ace1f","ios":"levelo://app?vid=54023995-623b-441a-9d82-ed337c5ace1f"},"vehicle_type_id":"4","last_reported":1739449033,"current_range_meters":28000,"station_id":"ce4bhm92rcd13ifvqglg","pricing_plan_id":"cebpf4jnsgd1na2vs0mg"},{"bike_id":"c4bd0b0b-3a68-4b37-a496-9b37827264a5","system_id":"levelo_inurba_marseille","lat":43.27222,"lon":5.39135,"is_reserved":false,"is_disabled":false,"rental_uris":{"android":"levelo://app?vid=c4bd0b0b-3a68-4b37-a496-9b37827264a5","ios":"levelo://app?vid=c4bd0b0b-3a68-4b37-a496-9b37827264a5"},"vehicle_type_id":"4","last_reported":1739449033,"current_range_meters":19600,"station_id":"ce4bhhp2rcd13ifvqfm0","pricing_plan_id":"cebpf4jnsgd1na2vs0mg"},{"bike_id":"9d6c6a2c-f4a8-4f2e-9a51-0f83be3f4454","system_id":"levelo_inurba_marseille","lat":43.24997,"lon":5.38902,"is_reserved":false,"is_disabled":false,"rental_uris":{"android":"levelo://app?vid=9d6c6a2c-f4a8-4f2e-9a51-0f83be3f4454","ios":"levelo://app?vid=9d6c6a2c-f4a8-4f2e-9a51-0f83be3f4454"},"vehicle_type_id":"4","last_reported":1739449033,"current_range_meters":28000,"station_id":"ce4bhgp2rcd13ifvqfd0","pricing_plan_id":"cebpf4jnsgd1na2vs0mg"},{"bike_id":"d33cbe38-c98c-4564-a20d-cd3fadbb16de","system_id":"levelo_inurba_marseille","lat":43.27217,"lon":5.39161,"is_reserved":false,"is_disabled":false,"rental_uris":{"android":"levelo://app?vid=d33cbe38-c98c-4564-a20d-cd3fadbb16de","ios":"levelo://app?vid=d33cbe38-c98c-4564-a20d-cd3fadbb16de"},"vehicle_type_id":"4","last_reported":1739449033,"current_range_meters":38800,"station_id":"ce4bhhp2rcd13ifvqfm0","pricing_plan_id":"cebpf4jnsgd1na2vs0mg"},{"bike_id":"2e79e634-3467-41e1-bf8d-cd8cffbf109c","system_id":"levelo_inurba_marseille","lat":43.30926,"lon":5.36862,"is_reserved":false,"is_disabled":false,"rental_uris":{"android":"levelo://app?vid=2e79e634-3467-41e1-bf8d-cd8cffbf109c","ios":"levelo://app?vid=2e79e634-3467-41e1-bf8d-cd8cffbf109c"},"vehicle_type_id":"4","last_reported":1739449033,"current_range_meters":18000,"station_id":"ce4bgn92rcd13ifvqbvg","pricing_plan_id":"cebpf4jnsgd1na2vs0mg"},{"bike_id":"6d15d47e-cacd-4c82-bd95-638b95191183","system_id":"levelo_inurba_marseille","lat":43.276337,"lon":5.361155,"is_reserved":false,"is_disabled":false,"rental_uris":{"android":"levelo://app?vid=6d15d47e-cacd-4c82-bd95-638b95191183","ios":"levelo://app?vid=6d15d47e-cacd-4c82-bd95-638b95191183"},"vehicle_type_id":"4","last_reported":1739449033,"current_range_meters":11200,"station_id":"ce4bgj92rcd13ifvqbe0","pricing_plan_id":"cebpf4jnsgd1na2vs0mg"},{"bike_id":"44bead9a-5613-4b2c-a4ff-97b864441034","system_id":"levelo_inurba_marseille","lat":43.30976,"lon":5.39057,"is_reserved":false,"is_disabled":false,"rental_uris":{"android":"levelo://app?vid=44bead9a-5613-4b2c-a4ff-97b864441034","ios":"levelo://app?vid=44bead9a-5613-4b2c-a4ff-97b864441034"},"vehicle_type_id":"4","last_reported":1739449033,"current_range_meters":31200,"station_id":"ce4bgup2rcd13ifvqco0","pricing_plan_id":"cebpf4jnsgd1na2vs0mg"},{"bike_id":"58a923a1-50e5-4bcc-a5c7-59fd5ea18680","system_id":"levelo_inurba_marseille","lat":43.23118,"lon":5.43745,"is_reserved":false,"is_disabled":true,"rental_uris":{"android":"levelo://app?vid=58a923a1-50e5-4bcc-a5c7-59fd5ea18680","ios":"levelo://app?vid=58a923a1-50e5-4bcc-a5c7-59fd5ea18680"},"vehicle_type_id":"4","last_reported":1739449033,"current_range_meters":15200,"station_id":"ce4bhmp2rcd13ifvqgog","pricing_plan_id":"cebpf4jnsgd1na2vs0mg"},{"bike_id":"7077cffb-8fd7-4b48-a3bf-189bb0aa8eab","system_id":"levelo_inurba_marseille","lat":43.26682,"lon":5.38273,"is_reserved":false,"is_disabled":false,"rental_uris":{"android":"levelo://app?vid=7077cffb-8fd7-4b48-a3bf-189bb0aa8eab","ios":"levelo://app?vid=7077cffb-8fd7-4b48-a3bf-189bb0aa8eab"},"vehicle_type_id":"4","last_reported":1739449033,"current_range_meters":38800,"station_id":"ce4bhg92rcd13ifvqf90","pricing_plan_id":"cebpf4jnsgd1na2vs0mg"},{"bike_id":"b03ce567-0e0d-455e-8632-2fa2ac68deb4","system_id":"levelo_inurba_marseille","lat":43.28474,"lon":5.38411,"is_reserved":false,"is_disabled":false,"rental_uris":{"android":"levelo://app?vid=b03ce567-0e0d-455e-8632-2fa2ac68deb4","ios":"levelo://app?vid=b03ce567-0e0d-455e-8632-2fa2ac68deb4"},"vehicle_type_id":"4","last_reported":1739449033,"current_range_meters":38800,"station_id":"ce4bh512rcd13ifvqe3g","pricing_plan_id":"cebpf4jnsgd1na2vs0mg"},{"bike_id":"d594772c-f06c-42db-b4eb-8c17a4b3b2bd","system_id":"levelo_inurba_marseille","lat":43.31275,"lon":5.36872,"is_reserved":false,"is_disabled":false,"rental_uris":{"android":"levelo://app?vid=d594772c-f06c-42db-b4eb-8c17a4b3b2bd","ios":"levelo://app?vid=d594772c-f06c-42db-b4eb-8c17a4b3b2bd"},"vehicle_type_id":"4","last_reported":1739449033,"current_range_meters":32000,"station_id":"","pricing_plan_id":"cebpf4jnsgd1na2vs0mg"},{"bike_id":"5f48bdae-049e-4408-bc07-dbe4fc0e6823","system_id":"levelo_inurba_marseille","lat":43.31162,"lon":5.36851,"is_reserved":false,"is_disabled":false,"rental_uris":{"android":"levelo://app?vid=5f48bdae-049e-4408-bc07-dbe4fc0e6823","ios":"levelo://app?vid=5f48bdae-049e-4408-bc07-dbe4fc0e6823"},"vehicle_type_id":"4","last_reported":1739449033,"current_range_meters":26000,"station_id":"","pricing_plan_id":"cebpf4jnsgd1na2vs0mg"},{"bike_id":"3b21ca12-a001-4b85-82f0-2922b30f61e6","system_id":"levelo_inurba_marseille","lat":43.26206,"lon":5.37446,"is_reserved":false,"is_disabled":false,"rental_uris":{"android":"levelo://app?vid=3b21ca12-a001-4b85-82f0-2922b30f61e6","ios":"levelo://app?vid=3b21ca12-a001-4b85-82f0-2922b30f61e6"},"vehicle_type_id":"4","last_reported":1739449033,"current_range_meters":36400,"station_id":"ce4bhgp2rcd13ifvqfc0","pricing_plan_id":"cebpf4jnsgd1na2vs0mg"},{"bike_id":"5a88579c-17b2-490d-84e1-90b48c9fd073","system_id":"levelo_inurba_marseille","lat":43.305254,"lon":5.365339,"is_reserved":false,"is_disabled":false,"rental_uris":{"android":"levelo://app?vid=5a88579c-17b2-490d-84e1-90b48c9fd073","ios":"levelo://app?vid=5a88579c-17b2-490d-84e1-90b48c9fd073"},"vehicle_type_id":"4","last_reported":1739449033,"current_range_meters":38800,"station_id":"ce4bgs12rcd13ifvqcag","pricing_plan_id":"cebpf4jnsgd1na2vs0mg"},{"bike_id":"36f54bf2-a739-4047-86f3-e1d04fbacc4d","system_id":"levelo_inurba_marseille","lat":43.289242,"lon":5.383875,"is_reserved":false,"is_disabled":false,"rental_uris":{"android":"levelo://app?vid=36f54bf2-a739-4047-86f3-e1d04fbacc4d","ios":"levelo://app?vid=36f54bf2-a739-4047-86f3-e1d04fbacc4d"},"vehicle_type_id":"4","last_reported":1739449033,"current_range_meters":28800,"station_id":"ce4bh612rcd13ifvqe6g","pricing_plan_id":"cebpf4jnsgd1na2vs0mg"},{"bike_id":"ba41c089-3c4d-43d4-a16f-a7a9a29b9bdd","system_id":"levelo_inurba_marseille","lat":43.23961,"lon":5.36638,"is_reserved":false,"is_disabled":false,"rental_uris":{"android":"levelo://app?vid=ba41c089-3c4d-43d4-a16f-a7a9a29b9bdd","ios":"levelo://app?vid=ba41c089-3c4d-43d4-a16f-a7a9a29b9bdd"},"vehicle_type_id":"4","last_reported":1739449033,"current_range_meters":38800,"station_id":"ce4bhi12rcd13ifvqfp0","pricing_plan_id":"cebpf4jnsgd1na2vs0mg"},{"bike_id":"fa5c273e-6edd-40c6-994d-710c4077d1be","system_id":"levelo_inurba_marseille","lat":43.30541,"lon":5.36716,"is_reserved":false,"is_disabled":false,"rental_uris":{"android":"levelo://app?vid=fa5c273e-6edd-40c6-994d-710c4077d1be","ios":"levelo://app?vid=fa5c273e-6edd-40c6-994d-710c4077d1be"},"vehicle_type_id":"4","last_reported":1739449033,"current_range_meters":12000,"station_id":"ce4bgrp2rcd13ifvqc9g","pricing_plan_id":"cebpf4jnsgd1na2vs0mg"},{"bike_id":"e1641770-5dbc-4fec-b3c2-48dccbee7a66","system_id":"levelo_inurba_marseille","lat":43.23946,"lon":5.36653,"is_reserved":false,"is_disabled":false,"rental_uris":{"android":"levelo://app?vid=e1641770-5dbc-4fec-b3c2-48dccbee7a66","ios":"levelo://app?vid=e1641770-5dbc-4fec-b3c2-48dccbee7a66"},"vehicle_type_id":"4","last_reported":1739449033,"current_range_meters":38800,"station_id":"ce4bhi12rcd13ifvqfp0","pricing_plan_id":"cebpf4jnsgd1na2vs0mg"},{"bike_id":"2b3dc76b-34f2-42cc-93ba-67d333dbf04a","system_id":"levelo_inurba_marseille","lat":43.28616,"lon":5.35106,"is_reserved":false,"is_disabled":true,"rental_uris":{"android":"levelo://app?vid=2b3dc76b-34f2-42cc-93ba-67d333dbf04a","ios":"levelo://app?vid=2b3dc76b-34f2-42cc-93ba-67d333dbf04a"},"vehicle_type_id":"4","last_reported":1739449033,"current_range_meters":400,"station_id":"ce4bhch2rcd13ifvqeug","pricing_plan_id":"cebpf4jnsgd1na2vs0mg"},{"bike_id":"d157203c-3a5b-4bbc-9638-6eefce740d5e","system_id":"levelo_inurba_marseille","lat":43.23195,"lon":5.35553,"is_reserved":false,"is_disabled":false,"rental_uris":{"android":"levelo://app?vid=d157203c-3a5b-4bbc-9638-6eefce740d5e","ios":"levelo://app?vid=d157203c-3a5b-4bbc-9638-6eefce740d5e"},"vehicle_type_id":"4","last_reported":1739449033,"current_range_meters":31200,"station_id":"ce4bhu92rcd13ifvqi70","pricing_plan_id":"cebpf4jnsgd1na2vs0mg"},{"bike_id":"9acb5333-5cf1-494e-915f-5f562bae0853","system_id":"levelo_inurba_marseille","lat":43.33721,"lon":5.39187,"is_reserved":false,"is_disabled":false,"rental_uris":{"android":"levelo://app?vid=9acb5333-5cf1-494e-915f-5f562bae0853","ios":"levelo://app?vid=9acb5333-5cf1-494e-915f-5f562bae0853"},"vehicle_type_id":"4","last_reported":1739449033,"current_range_meters":30000,"station_id":"ce4bhr92rcd13ifvqhsg","pricing_plan_id":"cebpf4jnsgd1na2vs0mg"},{"bike_id":"73697992-7f0c-4720-83e5-9e93ffc167d5","system_id":"levelo_inurba_marseille","lat":43.28619,"lon":5.35081,"is_reserved":false,"is_disabled":true,"rental_uris":{"android":"levelo://app?vid=73697992-7f0c-4720-83e5-9e93ffc167d5","ios":"levelo://app?vid=73697992-7f0c-4720-83e5-9e93ffc167d5"},"vehicle_type_id":"4","last_reported":1739449033,"current_range_meters":27200,"station_id":"ce4bhch2rcd13ifvqeug","pricing_plan_id":"cebpf4jnsgd1na2vs0mg"},{"bike_id":"937d3cc1-6add-4982-aebd-f6966441a674","system_id":"levelo_inurba_marseille","lat":43.23207,"lon":5.35572,"is_reserved":false,"is_disabled":false,"rental_uris":{"android":"levelo://app?vid=937d3cc1-6add-4982-aebd-f6966441a674","ios":"levelo://app?vid=937d3cc1-6add-4982-aebd-f6966441a674"},"vehicle_type_id":"4","last_reported":1739449033,"current_range_meters":28400,"station_id":"ce4bhu92rcd13ifvqi70","pricing_plan_id":"cebpf4jnsgd1na2vs0mg"},{"bike_id":"2b9049b7-28b9-480f-9e51-4b5e717d3b34","system_id":"levelo_inurba_marseille","lat":43.25937,"lon":5.40902,"is_reserved":false,"is_disabled":false,"rental_uris":{"android":"levelo://app?vid=2b9049b7-28b9-480f-9e51-4b5e717d3b34","ios":"levelo://app?vid=2b9049b7-28b9-480f-9e51-4b5e717d3b34"},"vehicle_type_id":"4","last_reported":1739449033,"current_range_meters":38800,"station_id":"ce4bhm92rcd13ifvqglg","pricing_plan_id":"cebpf4jnsgd1na2vs0mg"},{"bike_id":"dc4a5b5a-c7e9-4b23-aad7-2d2c82e17481","system_id":"levelo_inurba_marseille","lat":43.27919,"lon":5.39579,"is_reserved":false,"is_disabled":false,"rental_uris":{"android":"levelo://app?vid=dc4a5b5a-c7e9-4b23-aad7-2d2c82e17481","ios":"levelo://app?vid=dc4a5b5a-c7e9-4b23-aad7-2d2c82e17481"},"vehicle_type_id":"4","last_reported":1739449033,"current_range_meters":6000,"station_id":"ce4bhf92rcd13ifvqf40","pricing_plan_id":"cebpf4jnsgd1na2vs0mg"},{"bike_id":"2c18c95b-638f-4a7c-985d-fe31cce71267","system_id":"levelo_inurba_marseille","lat":43.2316,"lon":5.43703,"is_reserved":false,"is_disabled":false,"rental_uris":{"android":"levelo://app?vid=2c18c95b-638f-4a7c-985d-fe31cce71267","ios":"levelo://app?vid=2c18c95b-638f-4a7c-985d-fe31cce71267"},"vehicle_type_id":"4","last_reported":1739449033,"current_range_meters":28000,"station_id":"ce4bhmp2rcd13ifvqgog","pricing_plan_id":"cebpf4jnsgd1na2vs0mg"},{"bike_id":"22357605-22f9-4c7f-a011-3059b1fea57b","system_id":"levelo_inurba_marseille","lat":43.24646,"lon":5.38875,"is_reserved":false,"is_disabled":false,"rental_uris":{"android":"levelo://app?vid=22357605-22f9-4c7f-a011-3059b1fea57b","ios":"levelo://app?vid=22357605-22f9-4c7f-a011-3059b1fea57b"},"vehicle_type_id":"4","last_reported":1739449033,"current_range_meters":38400,"station_id":"ce4bhg12rcd13ifvqf60","pricing_plan_id":"cebpf4jnsgd1na2vs0mg"},{"bike_id":"25622700-94cb-40a3-84b5-b0015e736e5e","system_id":"levelo_inurba_marseille","lat":43.27384,"lon":5.36259,"is_reserved":false,"is_disabled":false,"rental_uris":{"android":"levelo://app?vid=25622700-94cb-40a3-84b5-b0015e736e5e","ios":"levelo://app?vid=25622700-94cb-40a3-84b5-b0015e736e5e"},"vehicle_type_id":"4","last_reported":1739449033,"current_range_meters":9200,"station_id":"ce4bhbh2rcd13ifvqeo0","pricing_plan_id":"cebpf4jnsgd1na2vs0mg"},{"bike_id":"e3c9740c-f6e4-4c70-9847-4889a83238fd","system_id":"levelo_inurba_marseille","lat":43.28124,"lon":5.44206,"is_reserved":false,"is_disabled":true,"rental_uris":{"android":"levelo://app?vid=e3c9740c-f6e4-4c70-9847-4889a83238fd","ios":"levelo://app?vid=e3c9740c-f6e4-4c70-9847-4889a83238fd"},"vehicle_type_id":"4","last_reported":1739449033,"current_range_meters":8000,"station_id":"","pricing_plan_id":"cebpf4jnsgd1na2vs0mg"},{"bike_id":"cf18ab70-bb45-4564-bdde-cabfe4b7ffff","system_id":"levelo_inurba_marseille","lat":43.29529,"lon":5.37504,"is_reserved":false,"is_disabled":false,"rental_uris":{"android":"levelo://app?vid=cf18ab70-bb45-4564-bdde-cabfe4b7ffff","ios":"levelo://app?vid=cf18ab70-bb45-4564-bdde-cabfe4b7ffff"},"vehicle_type_id":"4","last_reported":1739449033,"current_range_meters":22400,"station_id":"ce4bgkp2rcd13ifvqbmg","pricing_plan_id":"cebpf4jnsgd1na2vs0mg"},{"bike_id":"31f84ddc-bf3b-4d1c-9d83-4ffb586bc67a","system_id":"levelo_inurba_marseille","lat":43.32124,"lon":5.36771,"is_reserved":false,"is_disabled":false,"rental_uris":{"android":"levelo://app?vid=31f84ddc-bf3b-4d1c-9d83-4ffb586bc67a","ios":"levelo://app?vid=31f84ddc-bf3b-4d1c-9d83-4ffb586bc67a"},"vehicle_type_id":"4","last_reported":1739449033,"current_range_meters":37600,"station_id":"ce4bhrh2rcd13ifvqhug","pricing_plan_id":"cebpf4jnsgd1na2vs0mg"},{"bike_id":"95bea59d-9508-4e5c-9462-a6eb2b05c299","system_id":"levelo_inurba_marseille","lat":43.32811,"lon":5.43403,"is_reserved":false,"is_disabled":false,"rental_uris":{"android":"levelo://app?vid=95bea59d-9508-4e5c-9462-a6eb2b05c299","ios":"levelo://app?vid=95bea59d-9508-4e5c-9462-a6eb2b05c299"},"vehicle_type_id":"4","last_reported":1739449033,"current_range_meters":36400,"station_id":"","pricing_plan_id":"cebpf4jnsgd1na2vs0mg"},{"bike_id":"3821ae1c-0ae0-43a3-9aab-15a934a1981a","system_id":"levelo_inurba_marseille","lat":43.2762,"lon":5.36111,"is_reserved":false,"is_disabled":false,"rental_uris":{"android":"levelo://app?vid=3821ae1c-0ae0-43a3-9aab-15a934a1981a","ios":"levelo://app?vid=3821ae1c-0ae0-43a3-9aab-15a934a1981a"},"vehicle_type_id":"4","last_reported":1739449033,"current_range_meters":27200,"station_id":"ce4bgj92rcd13ifvqbe0","pricing_plan_id":"cebpf4jnsgd1na2vs0mg"},{"bike_id":"b60a67bb-bc13-4b57-acbb-4f0844d0e778","system_id":"levelo_inurba_marseille","lat":43.30424,"lon":5.39763,"is_reserved":false,"is_disabled":false,"rental_uris":{"android":"levelo://app?vid=b60a67bb-bc13-4b57-acbb-4f0844d0e778","ios":"levelo://app?vid=b60a67bb-bc13-4b57-acbb-4f0844d0e778"},"vehicle_type_id":"4","last_reported":1739449033,"current_range_meters":25600,"station_id":"ce4bh092rcd13ifvqd20","pricing_plan_id":"cebpf4jnsgd1na2vs0mg"},{"bike_id":"877d114e-f825-4b8c-9948-c961a74084b4","system_id":"levelo_inurba_marseille","lat":43.28976,"lon":5.37825,"is_reserved":false,"is_disabled":false,"rental_uris":{"android":"levelo://app?vid=877d114e-f825-4b8c-9948-c961a74084b4","ios":"levelo://app?vid=877d114e-f825-4b8c-9948-c961a74084b4"},"vehicle_type_id":"4","last_reported":1739449033,"current_range_meters":38800,"station_id":"ce4bh9p2rcd13ifvqed0","pricing_plan_id":"cebpf4jnsgd1na2vs0mg"},{"bike_id":"4e1b5dc0-fe0c-4ae5-8f29-0ddb158387d7","system_id":"levelo_inurba_marseille","lat":43.28003,"lon":5.4002,"is_reserved":false,"is_disabled":false,"rental_uris":{"android":"levelo://app?vid=4e1b5dc0-fe0c-4ae5-8f29-0ddb158387d7","ios":"levelo://app?vid=4e1b5dc0-fe0c-4ae5-8f29-0ddb158387d7"},"vehicle_type_id":"4","last_reported":1739449033,"current_range_meters":38800,"station_id":"ce4bho92rcd13ifvqh4g","pricing_plan_id":"cebpf4jnsgd1na2vs0mg"},{"bike_id":"b539a748-8199-43e7-83f3-9ebe36862717","system_id":"levelo_inurba_marseille","lat":43.27374,"lon":5.36254,"is_reserved":false,"is_disabled":false,"rental_uris":{"android":"levelo://app?vid=b539a748-8199-43e7-83f3-9ebe36862717","ios":"levelo://app?vid=b539a748-8199-43e7-83f3-9ebe36862717"},"vehicle_type_id":"4","last_reported":1739449033,"current_range_meters":18800,"station_id":"ce4bhbh2rcd13ifvqeo0","pricing_plan_id":"cebpf4jnsgd1na2vs0mg"},{"bike_id":"90a401fe-6297-4fcf-8db3-825e4d76a847","system_id":"levelo_inurba_marseille","lat":43.32075,"lon":5.41537,"is_reserved":false,"is_disabled":false,"rental_uris":{"android":"levelo://app?vid=90a401fe-6297-4fcf-8db3-825e4d76a847","ios":"levelo://app?vid=90a401fe-6297-4fcf-8db3-825e4d76a847"},"vehicle_type_id":"4","last_reported":1739449033,"current_range_meters":20000,"station_id":"ce4bhq92rcd13ifvqhkg","pricing_plan_id":"cebpf4jnsgd1na2vs0mg"},{"bike_id":"a9340757-2713-405e-9bd7-debf3e2d5631","system_id":"levelo_inurba_marseille","lat":43.2827,"lon":5.35053,"is_reserved":false,"is_disabled":true,"rental_uris":{"android":"levelo://app?vid=a9340757-2713-405e-9bd7-debf3e2d5631","ios":"levelo://app?vid=a9340757-2713-405e-9bd7-debf3e2d5631"},"vehicle_type_id":"4","last_reported":1739449033,"current_range_meters":0,"station_id":"ce4bhbp2rcd13ifvqerg","pricing_plan_id":"cebpf4jnsgd1na2vs0mg"},{"bike_id":"28afc320-c150-4a7a-b456-fa950f10fb4c","system_id":"levelo_inurba_marseille","lat":43.33621,"lon":5.41025,"is_reserved":false,"is_disabled":false,"rental_uris":{"android":"levelo://app?vid=28afc320-c150-4a7a-b456-fa950f10fb4c","ios":"levelo://app?vid=28afc320-c150-4a7a-b456-fa950f10fb4c"},"vehicle_type_id":"4","last_reported":1739449033,"current_range_meters":38000,"station_id":"ce4bhqh2rcd13ifvqhmg","pricing_plan_id":"cebpf4jnsgd1na2vs0mg"},{"bike_id":"f38c83e8-3904-4f8e-bc1d-96827af8c52d","system_id":"levelo_inurba_marseille","lat":43.30929,"lon":5.36843,"is_reserved":false,"is_disabled":false,"rental_uris":{"android":"levelo://app?vid=f38c83e8-3904-4f8e-bc1d-96827af8c52d","ios":"levelo://app?vid=f38c83e8-3904-4f8e-bc1d-96827af8c52d"},"vehicle_type_id":"4","last_reported":1739449033,"current_range_meters":36400,"station_id":"ce4bgn92rcd13ifvqbvg","pricing_plan_id":"cebpf4jnsgd1na2vs0mg"},{"bike_id":"211363a9-081b-401f-b0c6-364ac6457ebd","system_id":"levelo_inurba_marseille","lat":43.24397,"lon":5.37049,"is_reserved":false,"is_disabled":false,"rental_uris":{"android":"levelo://app?vid=211363a9-081b-401f-b0c6-364ac6457ebd","ios":"levelo://app?vid=211363a9-081b-401f-b0c6-364ac6457ebd"},"vehicle_type_id":"4","last_reported":1739449033,"current_range_meters":38800,"station_id":"ce4bhhh2rcd13ifvqfk0","pricing_plan_id":"cebpf4jnsgd1na2vs0mg"},