{"last_updated":1746479380,"ttl":60,"version":"2.2","data":{"bikes":[{"bike_id":"0b12d234-bdda-4ada-b81f-9173606e701f","system_id":"levelo_inurba_marseille","lat":43.31117,"lon":5.3776,"is_reserved":false,"is_disabled":false,"rental_uris":{"android":"levelo://app?vid=0b12d234-bdda-4ada-b81f-9173606e701f","ios":"levelo://app?vid=0b12d234-bdda-4ada-b81f-9173606e701f"},"vehicle_type_id":"4","last_reported":1746479380,"current_range_meters":2800,"station_id":"ce4bgt92rcd13ifvqcg0","pricing_plan_id":"cebpf4jnsgd1na2vs0mg"},{"bike_id":"963c14e4-e8f8-4cce-bd33-84990bd09520","system_id":"levelo_inurba_marseille","lat":43.28033,"lon":5.369432,"is_reserved":false,"is_disabled":false,"rental_uris":{"android":"levelo://app?vid=963c14e4-e8f8-4cce-bd33-84990bd09520","ios":"levelo://app?vid=963c14e4-e8f8-4cce-bd33-84990bd09520"},"vehicle_type_id":"4","last_reported":1746479380,"current_range_meters":2800,"station_id":"ce4bha12rcd13ifvqef0","pricing_plan_id":"cebpf4jnsgd1na2vs0mg"},{"bike_id":"6cfbaaf2-4663-45e4-b1ba-8e17b4acf5f8","system_id":"levelo_inurba_marseille","lat":43.28025,"lon":5.36951,"is_reserved":false,"is_disabled":false,"rental_uris":{"android":"levelo://app?vid=6cfbaaf2-4663-45e4-b1ba-8e17b4acf5f8","ios":"levelo://app?vid=6cfbaaf2-4663-45e4-b1ba-8e17b4acf5f8"},"vehicle_type_id":"4","last_reported":1746479380,"current_range_meters":3200,"station_id":"ce4bha12rcd13ifvqef0","pricing_plan_id":"cebpf4jnsgd1na2vs0mg"},{"bike_id":"caee4c6c-e344-470b-a22f-cc743641df5c","system_id":"levelo_inurba_marseille","lat":43.28936,"lon":5.36633,"is_reserved":false,"is_disabled":false,"rental_uris":{"android":"levelo://app?vid=caee4c6c-e344-470b-a22f-cc743641df5c","ios":"levelo://app?vid=caee4c6c-e344-470b-a22f-cc743641df5c"},"vehicle_type_id":"4","last_reported":1746479380,"current_range_meters":3200,"station_id":"ce4bhap2rcd13ifvqek0","pricing_plan_id":"cebpf4jnsgd1na2vs0mg"},{"bike_id":"d21a1bf2-ff47-419b-9fda-93647c68b552","system_id":"levelo_inurba_marseille","lat":43.281042,"lon":5.378356,"is_reserved":false,"is_disabled":false,"rental_uris":{"android":"levelo://app?vid=d21a1bf2-ff47-419b-9fda-93647c68b552","ios":"levelo://app?vid=d21a1bf2-ff47-419b-9fda-93647c68b552"},"vehicle_type_id":"4","last_reported":1746479380,"current_range_meters":3600,"station_id":"ce4bha12rcd13ifvqee0","pricing_plan_id":"cebpf4jnsgd1na2vs0mg"},{"bike_id":"b2ccdc84-94c3-42d1-a780-adcca95f1f06","system_id":"levelo_inurba_marseille","lat":43.2996,"lon":5.38492,"is_reserved":false,"is_disabled":true,"rental_uris":{"android":"levelo://app?vid=b2ccdc84-94c3-42d1-a780-adcca95f1f06","ios":"levelo://app?vid=b2ccdc84-94c3-42d1-a780-adcca95f1f06"},"vehicle_type_id":"4","last_reported":1746479380,"current_range_meters":3600,"station_id":"ce4bgj92rcd13ifvqbd0","pricing_plan_id":"cebpf4jnsgd1na2vs0mg"},{"bike_id":"1e3195f6-106c-4dd3-8852-0494cfce0d2f","system_id":"levelo_inurba_marseille","lat":43.28609,"lon":5.37058,"is_reserved":false,"is_disabled":false,"rental_uris":{"android":"levelo://app?vid=1e3195f6-106c-4dd3-8852-0494cfce0d2f","ios":"levelo://app?vid=1e3195f6-106c-4dd3-8852-0494cfce0d2f"},"vehicle_type_id":"4","last_reported":1746479380,"current_range_meters":4000,"station_id":"ce4bht12rcd13ifvqi60","pricing_plan_id":"cebpf4jnsgd1na2vs0mg"},{"bike_id":"fce25db4-963f-4261-b51f-11446262ba0b","system_id":"levelo_inurba_marseille","lat":43.294439,"lon":5.397503,"is_reserved":false,"is_disabled":false,"rental_uris":{"android":"levelo://app?vid=fce25db4-963f-4261-b51f-11446262ba0b","ios":"levelo://app?vid=fce25db4-963f-4261-b51f-11446262ba0b"},"vehicle_type_id":"4","last_reported":1746479380,"current_range_meters":1200,"station_id":"ce4bh3h2rcd13ifvqdo0","pricing_plan_id":"cebpf4jnsgd1na2vs0mg"},{"bike_id":"764d2443-b1fb-42d0-9129-484ffc442d46","system_id":"levelo_inurba_marseille","lat":43.31159,"lon":5.38731,"is_reserved":false,"is_disabled":false,"rental_uris":{"android":"levelo://app?vid=764d2443-b1fb-42d0-9129-484ffc442d46","ios":"levelo://app?vid=764d2443-b1fb-42d0-9129-484ffc442d46"},"vehicle_type_id":"4","last_reported":1746479380,"current_range_meters":4000,"station_id":"ce4bgv12rcd13ifvqcp0","pricing_plan_id":"cebpf4jnsgd1na2vs0mg"},{"bike_id":"9064d971-3a4c-4284-ab13-670f9e6ead80","system_id":"levelo_inurba_marseille","lat":43.2396,"lon":5.36643,"is_reserved":false,"is_disabled":false,"rental_uris":{"android":"levelo://app?vid=9064d971-3a4c-4284-ab13-670f9e6ead80","ios":"levelo://app?vid=9064d971-3a4c-4284-ab13-670f9e6ead80"},"vehicle_type_id":"4","last_reported":1746479380,"current_range_meters":4400,"station_id":"ce4bhi12rcd13ifvqfp0","pricing_plan_id":"cebpf4jnsgd1na2vs0mg"},{"bike_id":"b6f4de41-9a03-4f87-9cf9-f3bf1b1bf78f","system_id":"levelo_inurba_marseille","lat":43.29781,"lon":5.37087,"is_reserved":false,"is_disabled":false,"rental_uris":{"android":"levelo://app?vid=b6f4de41-9a03-4f87-9cf9-f3bf1b1bf78f","ios":"levelo://app?vid=b6f4de41-9a03-4f87-9cf9-f3bf1b1bf78f"},"vehicle_type_id":"4","last_reported":1746479380,"current_range_meters":4400,"station_id":"ce4bgop2rcd13ifvqc1g","pricing_plan_id":"cebpf4jnsgd1na2vs0mg"},{"bike_id":"a3780d41-741a-48e7-ac87-3aebcd2a048d","system_id":"levelo_inurba_marseille","lat":43.28268,"lon":5.35058,"is_reserved":false,"is_disabled":false,"rental_uris":{"android":"levelo://app?vid=a3780d41-741a-48e7-ac87-3aebcd2a048d","ios":"levelo://app?vid=a3780d41-741a-48e7-ac87-3aebcd2a048d"},"vehicle_type_id":"4","last_reported":1746479380,"current_range_meters":4400,"station_id":"","pricing_plan_id":"cebpf4jnsgd1na2vs0mg"},{"bike_id":"75e8ec7b-b97d-4041-ba4c-e6403b45949f","system_id":"levelo_inurba_marseille","lat":43.2396,"lon":5.3664,"is_reserved":false,"is_disabled":false,"rental_uris":{"android":"levelo://app?vid=75e8ec7b-b97d-4041-ba4c-e6403b45949f","ios":"levelo://app?vid=75e8ec7b-b97d-4041-ba4c-e6403b45949f"},"vehicle_type_id":"4","last_reported":1746479380,"current_range_meters":4400,"station_id":"ce4bhi12rcd13ifvqfp0","pricing_plan_id":"cebpf4jnsgd1na2vs0mg"},{"bike_id":"1993ad12-a632-474d-aeb9-466ebcc2dad9","system_id":"levelo_inurba_marseille","lat":43.31482,"lon":5.37292,"is_reserved":false,"is_disabled":false,"rental_uris":{"android":"levelo://app?vid=1993ad12-a632-474d-aeb9-466ebcc2dad9","ios":"levelo://app?vid=1993ad12-a632-474d-aeb9-466ebcc2dad9"},"vehicle_type_id":"4","last_reported":1746479380,"current_range_meters":4800,"station_id":"ce4bgt12rcd13ifvqcd0","pricing_plan_id":"cebpf4jnsgd1na2vs0mg"},{"bike_id":"d9fa06ef-419f-4bce-8a49-bdb141373187","system_id":"levelo_inurba_marseille","lat":43.28684,"lon":5.38668,"is_reserved":false,"is_disabled":false,"rental_uris":{"android":"levelo://app?vid=d9fa06ef-419f-4bce-8a49-bdb141373187","ios":"levelo://app?vid=d9fa06ef-419f-4bce-8a49-bdb141373187"},"vehicle_type_id":"4","last_reported":1746479380,"current_range_meters":5600,"station_id":"ce4bh492rcd13ifvqdug","pricing_plan_id":"cebpf4jnsgd1na2vs0mg"},{"bike_id":"19cc5d4a-3669-481b-add7-2079b93dcf06","system_id":"levelo_inurba_marseille","lat":43.27935,"lon":5.41045,"is_reserved":false,"is_disabled":false,"rental_uris":{"android":"levelo://app?vid=19cc5d4a-3669-481b-add7-2079b93dcf06","ios":"levelo://app?vid=19cc5d4a-3669-481b-add7-2079b93dcf06"},"vehicle_type_id":"4","last_reported":1746479380,"current_range_meters":5600,"station_id":"ce4bhnp2rcd13ifvqh0g","pricing_plan_id":"cebpf4jnsgd1na2vs0mg"},{"bike_id":"0c6712bb-c246-4d03-b305-0f5d0e9a0657","system_id":"levelo_inurba_marseille","lat":43.2467,"lon":5.38146,"is_reserved":false,"is_disabled":false,"rental_uris":{"android":"levelo://app?vid=0c6712bb-c246-4d03-b305-0f5d0e9a0657","ios":"levelo://app?vid=0c6712bb-c246-4d03-b305-0f5d0e9a0657"},"vehicle_type_id":"4","last_reported":1746479380,"current_range_meters":5600,"station_id":"ce4bhih2rcd13ifvqfr0","pricing_plan_id":"cebpf4jnsgd1na2vs0mg"},{"bike_id":"98a6d5db-101d-40a9-aedc-1bf80575f220","system_id":"levelo_inurba_marseille","lat":43.322665,"lon":5.367695,"is_reserved":false,"is_disabled":false,"rental_uris":{"android":"levelo://app?vid=98a6d5db-101d-40a9-aedc-1bf80575f220","ios":"levelo://app?vid=98a6d5db-101d-40a9-aedc-1bf80575f220"},"vehicle_type_id":"4","last_reported":1746479380,"current_range_meters":5600,"station_id":"","pricing_plan_id":"cebpf4jnsgd1na2vs0mg"},{"bike_id":"2f51ff5b-9e12-4b6c-9106-9df85a9d5650","system_id":"levelo_inurba_marseille","lat":43.3014,"lon":5.37407,"is_reserved":false,"is_disabled":true,"rental_uris":{"android":"levelo://app?vid=2f51ff5b-9e12-4b6c-9106-9df85a9d5650","ios":"levelo://app?vid=2f51ff5b-9e12-4b6c-9106-9df85a9d5650"},"vehicle_type_id":"4","last_reported":1746479380,"current_range_meters":6000,"station_id":"ce4bgs92rcd13ifvqcc0","pricing_plan_id":"cebpf4jnsgd1na2vs0mg"},{"bike_id":"65b31327-a311-4737-b043-fee2264ada65","system_id":"levelo_inurba_marseille","lat":43.31328,"lon":5.39686,"is_reserved":false,"is_disabled":false,"rental_uris":{"android":"levelo://app?vid=65b31327-a311-4737-b043-fee2264ada65","ios":"levelo://app?vid=65b31327-a311-4737-b043-fee2264ada65"},"vehicle_type_id":"4","last_reported":1746479380,"current_range_meters":6000,"station_id":"ce4bgvp2rcd13ifvqcu0","pricing_plan_id":"cebpf4jnsgd1na2vs0mg"},{"bike_id":"0aaab185-1839-4a36-80a2-f4c1c5199386","system_id":"levelo_inurba_marseille","lat":43.258261,"lon":5.394338,"is_reserved":false,"is_disabled":false,"rental_uris":{"android":"levelo://app?vid=0aaab185-1839-4a36-80a2-f4c1c5199386","ios":"levelo://app?vid=0aaab185-1839-4a36-80a2-f4c1c5199386"},"vehicle_type_id":"4","last_reported":1746479380,"current_range_meters":6000,"station_id":"ce4bhip2rcd13ifvqft0","pricing_plan_id":"cebpf4jnsgd1na2vs0mg"},{"bike_id":"66b646b3-6352-44bb-9bfb-21570512e3e5","system_id":"levelo_inurba_marseille","lat":43.28099,"lon":5.40356,"is_reserved":false,"is_disabled":false,"rental_uris":{"android":"levelo://app?vid=66b646b3-6352-44bb-9bfb-21570512e3e5","ios":"levelo://app?vid=66b646b3-6352-44bb-9bfb-21570512e3e5"},"vehicle_type_id":"4","last_reported":1746479380,"current_range_meters":6400,"station_id":"","pricing_plan_id":"cebpf4jnsgd1na2vs0mg"},{"bike_id":"5a5b350c-dd96-4859-866b-1a6e41e7a8eb","system_id":"levelo_inurba_marseille","lat":43.29259,"lon":5.40913,"is_reserved":false,"is_disabled":false,"rental_uris":{"android":"levelo://app?vid=5a5b350c-dd96-4859-866b-1a6e41e7a8eb","ios":"levelo://app?vid=5a5b350c-dd96-4859-866b-1a6e41e7a8eb"},"vehicle_type_id":"4","last_reported":1746479380,"current_range_meters":6400,"station_id":"ce4bh192rcd13ifvqdc0","pricing_plan_id":"cebpf4jnsgd1na2vs0mg"},{"bike_id":"5ed25235-2c54-4555-9b77-e5696daaf187","system_id":"levelo_inurba_marseille","lat":43.28425,"lon":5.37517,"is_reserved":false,"is_disabled":false,"rental_uris":{"android":"levelo://app?vid=5ed25235-2c54-4555-9b77-e5696daaf187","ios":"levelo://app?vid=5ed25235-2c54-4555-9b77-e5696daaf187"},"vehicle_type_id":"4","last_reported":1746479380,"current_range_meters":6400,"station_id":"ce4bh412rcd13ifvqds0","pricing_plan_id":"cebpf4jnsgd1na2vs0mg"},{"bike_id":"134ddf19-6726-491e-be74-f60482bd3c36","system_id":"levelo_inurba_marseille","lat":43.28623,"lon":5.35094,"is_reserved":false,"is_disabled":false,"rental_uris":{"android":"levelo://app?vid=134ddf19-6726-491e-be74-f60482bd3c36","ios":"levelo://app?vid=134ddf19-6726-491e-be74-f60482bd3c36"},"vehicle_type_id":"4","last_reported":1746479380,"current_range_meters":6400,"station_id":"ce4bhch2rcd13ifvqeug","pricing_plan_id":"cebpf4jnsgd1na2vs0mg"},{"bike_id":"112a7165-0cd3-4212-a24a-608863e7cdb6","system_id":"levelo_inurba_marseille","lat":43.27071,"lon":5.42275,"is_reserved":false,"is_disabled":false,"rental_uris":{"android":"levelo://app?vid=112a7165-0cd3-4212-a24a-608863e7cdb6","ios":"levelo://app?vid=112a7165-0cd3-4212-a24a-608863e7cdb6"},"vehicle_type_id":"4","last_reported":1746479380,"current_range_meters":6400,"station_id":"ce4bhk92rcd13ifvqgb0","pricing_plan_id":"cebpf4jnsgd1na2vs0mg"},{"bike_id":"2ab93288-028e-4381-b158-e85356e7b8ce","system_id":"levelo_inurba_marseille","lat":43.30248,"lon":5.40053,"is_reserved":false,"is_disabled":false,"rental_uris":{"android":"levelo://app?vid=2ab93288-028e-4381-b158-e85356e7b8ce","ios":"levelo://app?vid=2ab93288-028e-4381-b158-e85356e7b8ce"},"vehicle_type_id":"4","last_reported":1746479380,"current_range_meters":6800,"station_id":"ce4bgvh2rcd13ifvqcs0","pricing_plan_id":"cebpf4jnsgd1na2vs0mg"},{"bike_id":"e8d3c57f-002a-4ddc-8c08-58b239aae800","system_id":"levelo_inurba_marseille","lat":43.26208,"lon":5.40474,"is_reserved":false,"is_disabled":false,"rental_uris":{"android":"levelo://app?vid=e8d3c57f-002a-4ddc-8c08-58b239aae800","ios":"levelo://app?vid=e8d3c57f-002a-4ddc-8c08-58b239aae800"},"vehicle_type_id":"4","last_reported":1746479380,"current_range_meters":6800,"station_id":"ce4bhmh2rcd13ifvqgmg","pricing_plan_id":"cebpf4jnsgd1na2vs0mg"},{"bike_id":"7bac376f-17c2-4484-a95b-9218bce59ef6","system_id":"levelo_inurba_marseille","lat":43.24638,"lon":5.38187,"is_reserved":false,"is_disabled":false,"rental_uris":{"android":"levelo://app?vid=7bac376f-17c2-4484-a95b-9218bce59ef6","ios":"levelo://app?vid=7bac376f-17c2-4484-a95b-9218bce59ef6"},"vehicle_type_id":"4","last_reported":1746479380,"current_range_meters":6800,"station_id":"ce4bhih2rcd13ifvqfr0","pricing_plan_id":"cebpf4jnsgd1na2vs0mg"},{"bike_id":"c7569f25-9bc2-4a7b-94d5-25bad92fcfaa","system_id":"levelo_inurba_marseille","lat":43.27921,"lon":5.3825,"is_reserved":false,"is_disabled":false,"rental_uris":{"android":"levelo://app?vid=c7569f25-9bc2-4a7b-94d5-25bad92fcfaa","ios":"levelo://app?vid=c7569f25-9bc2-4a7b-94d5-25bad92fcfaa"},"vehicle_type_id":"4","last_reported":1746479380,"current_range_meters":6800,"station_id":"","pricing_plan_id":"cebpf4jnsgd1na2vs0mg"},{"bike_id":"3f03faa1-aab4-4cbb-9b60-c64d1d19096f","system_id":"levelo_inurba_marseille","lat":43.27902,"lon":5.38011,"is_reserved":false,"is_disabled":false,"rental_uris":{"android":"levelo://app?vid=3f03faa1-aab4-4cbb-9b60-c64d1d19096f","ios":"levelo://app?vid=3f03faa1-aab4-4cbb-9b60-c64d1d19096f"},"vehicle_type_id":"4","last_reported":1746479380,"current_range_meters":6800,"station_id":"ce4bhf92rcd13ifvqf50","pricing_plan_id":"cebpf4jnsgd1na2vs0mg"},{"bike_id":"2c488c66-db1f-4eb1-b8a8-65da619378ac","system_id":"levelo_inurba_marseille","lat":43.29917,"lon":5.38125,"is_reserved":false,"is_disabled":true,"rental_uris":{"android":"levelo://app?vid=2c488c66-db1f-4eb1-b8a8-65da619378ac","ios":"levelo://app?vid=2c488c66-db1f-4eb1-b8a8-65da619378ac"},"vehicle_type_id":"4","last_reported":1746479380,"current_range_meters":6800,"station_id":"ce4bgj12rcd13ifvqbc0","pricing_plan_id":"cebpf4jnsgd1na2vs0mg"},{"bike_id":"4cbd7280-5000-4bda-b958-e452a2bd1713","system_id":"levelo_inurba_marseille","lat":43.29705,"lon":5.36618,"is_reserved":false,"is_disabled":false,"rental_uris":{"android":"levelo://app?vid=4cbd7280-5000-4bda-b958-e452a2bd1713","ios":"levelo://app?vid=4cbd7280-5000-4bda-b958-e452a2bd1713"},"vehicle_type_id":"4","last_reported":1746479380,"current_range_meters":9600,"station_id":"ce4bgn12rcd13ifvqbt0","pricing_plan_id":"cebpf4jnsgd1na2vs0mg"},{"bike_id":"8d4118ea-a5f3-456d-9ed5-ca6ae3812f74","system_id":"levelo_inurba_marseille","lat":43.29242,"lon":5.40075,"is_reserved":false,"is_disabled":false,"rental_uris":{"android":"levelo://app?vid=8d4118ea-a5f3-456d-9ed5-ca6ae3812f74","ios":"levelo://app?vid=8d4118ea-a5f3-456d-9ed5-ca6ae3812f74"},"vehicle_type_id":"4","last_reported":1746479380,"current_range_meters":6800,"station_id":"ce4bh312rcd13ifvqdk0","pricing_plan_id":"cebpf4jnsgd1na2vs0mg"},{"bike_id":"f4058794-639c-4973-ab5d-8009a25ee731","system_id":"levelo_inurba_marseille","lat":43.23965,"lon":5.36618,"is_reserved":false,"is_disabled":false,"rental_uris":{"android":"levelo://app?vid=f4058794-639c-4973-ab5d-8009a25ee731","ios":"levelo://app?vid=f4058794-639c-4973-ab5d-8009a25ee731"},"vehicle_type_id":"4","last_reported":1746479380,"current_range_meters":7200,"station_id":"ce4bhi12rcd13ifvqfp0","pricing_plan_id":"cebpf4jnsgd1na2vs0mg"},{"bike_id":"17a70b5c-760d-4ee0-9233-c5ef083f6ad2","system_id":"levelo_inurba_marseille","lat":43.28986,"lon":5.3783,"is_reserved":false,"is_disabled":false,"rental_uris":{"android":"levelo://app?vid=17a70b5c-760d-4ee0-9233-c5ef083f6ad2","ios":"levelo://app?vid=17a70b5c-760d-4ee0-9233-c5ef083f6ad2"},"vehicle_type_id":"4","last_reported":1746479380,"current_range_meters":6800,"station_id":"","pricing_plan_id":"cebpf4jnsgd1na2vs0mg"},{"bike_id":"18fac1a9-fda6-48d8-9aa6-1f61711dea16","system_id":"levelo_inurba_marseille","lat":43.31357,"lon":5.38487,"is_reserved":false,"is_disabled":false,"rental_uris":{"android":"levelo://app?vid=18fac1a9-fda6-48d8-9aa6-1f61711dea16","ios":"levelo://app?vid=18fac1a9-fda6-48d8-9aa6-1f61711dea16"},"vehicle_type_id":"4","last_reported":1746479380,"current_range_meters":7200,"station_id":"ce4bgt92rcd13ifvqcf0","pricing_plan_id":"cebpf4jnsgd1na2vs0mg"},{"bike_id":"3d3d12dd-dd80-439b-82cc-f899337631b4","system_id":"levelo_inurba_marseille","lat":43.299,"lon":5.43665,"is_reserved":false,"is_disabled":false,"rental_uris":{"android":"levelo://app?vid=3d3d12dd-dd80-439b-82cc-f899337631b4","ios":"levelo://app?vid=3d3d12dd-dd80-439b-82cc-f899337631b4"},"vehicle_type_id":"4","last_reported":1746479380,"current_range_meters":7200,"station_id":"ce4bhpp2rcd13ifvqhfg","pricing_plan_id":"cebpf4jnsgd1na2vs0mg"},{"bike_id":"9560e695-2cb4-4bfb-b95c-1c8364f718f8","system_id":"levelo_inurba_marseille","lat":43.25821,"lon":5.39433,"is_reserved":false,"is_disabled":false,"rental_uris":{"android":"levelo://app?vid=9560e695-2cb4-4bfb-b95c-1c8364f718f8","ios":"levelo://app?vid=9560e695-2cb4-4bfb-b95c-1c8364f718f8"},"vehicle_type_id":"4","last_reported":1746479380,"current_range_meters":7200,"station_id":"ce4bhip2rcd13ifvqft0","pricing_plan_id":"cebpf4jnsgd1na2vs0mg"},{"bike_id":"9ac5c42f-1908-4706-b651-4c25ce5c57b0","system_id":"levelo_inurba_marseille","lat":43.308289,"lon":5.39657,"is_reserved":false,"is_disabled":false,"rental_uris":{"android":"levelo://app?vid=9ac5c42f-1908-4706-b651-4c25ce5c57b0","ios":"levelo://app?vid=9ac5c42f-1908-4706-b651-4c25ce5c57b0"},"vehicle_type_id":"4","last_reported":1746479380,"current_range_meters":8000,"station_id":"ce4bh012rcd13ifvqcv0","pricing_plan_id":"cebpf4jnsgd1na2vs0mg"},{"bike_id":"d8f3f8f0-a582-4681-be4a-176bdacd7f98","system_id":"levelo_inurba_marseille","lat":43.30253,"lon":5.40074,"is_reserved":false,"is_disabled":false,"rental_uris":{"android":"levelo://app?vid=d8f3f8f0-a582-4681-be4a-176bdacd7f98","ios":"levelo://app?vid=d8f3f8f0-a582-4681-be4a-176bdacd7f98"},"vehicle_type_id":"4","last_reported":1746479380,"current_range_meters":7200,"station_id":"ce4bgvh2rcd13ifvqcs0","pricing_plan_id":"cebpf4jnsgd1na2vs0mg"},{"bike_id":"cb10d2dd-687e-4d50-9c9d-8969efc21035","system_id":"levelo_inurba_marseille","lat":43.28101,"lon":5.3784,"is_reserved":false,"is_disabled":false,"rental_uris":{"android":"levelo://app?vid=cb10d2dd-687e-4d50-9c9d-8969efc21035","ios":"levelo://app?vid=cb10d2dd-687e-4d50-9c9d-8969efc21035"},"vehicle_type_id":"4","last_reported":1746479380,"current_range_meters":7200,"station_id":"ce4bha12rcd13ifvqee0","pricing_plan_id":"cebpf4jnsgd1na2vs0mg"},{"bike_id":"10d563a4-424a-4a44-88bc-065a04b5247a","system_id":"levelo_inurba_marseille","lat":43.21744,"lon":5.34606,"is_reserved":false,"is_disabled":true,"rental_uris":{"android":"levelo://app?vid=10d563a4-424a-4a44-88bc-065a04b5247a","ios":"levelo://app?vid=10d563a4-424a-4a44-88bc-065a04b5247a"},"vehicle_type_id":"4","last_reported":1746479380,"current_range_meters":8000,"station_id":"","pricing_plan_id":"cebpf4jnsgd1na2vs0mg"},{"bike_id":"5c7249a3-596f-4101-8dbd-1087a1f3b438","system_id":"levelo_inurba_marseille","lat":43.231914,"lon":5.35586,"is_reserved":false,"is_disabled":false,"rental_uris":{"android":"levelo://app?vid=5c7249a3-596f-4101-8dbd-1087a1f3b438","ios":"levelo://app?vid=5c7249a3-596f-4101-8dbd-1087a1f3b438"},"vehicle_type_id":"4","last_reported":1746479380,"current_range_meters":8400,"station_id":"ce4bhu92rcd13ifvqi70","pricing_plan_id":"cebpf4jnsgd1na2vs0mg"},{"bike_id":"65a75d67-aed6-4046-b6c0-1571a208a82d","system_id":"levelo_inurba_marseille","lat":43.278235,"lon":5.39207,"is_reserved":false,"is_disabled":false,"rental_uris":{"android":"levelo://app?vid=65a75d67-aed6-4046-b6c0-1571a208a82d","ios":"levelo://app?vid=65a75d67-aed6-4046-b6c0-1571a208a82d"},"vehicle_type_id":"4","last_reported":1746479380,"current_range_meters":8400,"station_id":"ce4bhjp2rcd13ifvqga0","pricing_plan_id":"cebpf4jnsgd1na2vs0mg"},{"bike_id":"d08e881c-4ac2-413a-af9c-5ff0285ab7f6","system_id":"levelo_inurba_marseille","lat":43.27943,"lon":5.41037,"is_reserved":false,"is_disabled":false,"rental_uris":{"android":"levelo://app?vid=d08e881c-4ac2-413a-af9c-5ff0285ab7f6","ios":"levelo://app?vid=d08e881c-4ac2-413a-af9c-5ff0285ab7f6"},"vehicle_type_id":"4","last_reported":1746479380,"current_range_meters":8400,"station_id":"ce4bhnp2rcd13ifvqh0g","pricing_plan_id":"cebpf4jnsgd1na2vs0mg"},{"bike_id":"d9ebccfe-dd7b-4132-a6f6-002262765ed4","system_id":"levelo_inurba_marseille","lat":43.27996,"lon":5.40003,"is_reserved":false,"is_disabled":false,"rental_uris":{"android":"levelo://app?vid=d9ebccfe-dd7b-4132-a6f6-002262765ed4","ios":"levelo://app?vid=d9ebccfe-dd7b-4132-a6f6-002262765ed4"},"vehicle_type_id":"4","last_reported":1746479380,"current_range_meters":8400,"station_id":"ce4bho92rcd13ifvqh4g","pricing_plan_id":"cebpf4jnsgd1na2vs0mg"},{"bike_id":"3fe14760-50d4-43a8-b058-218490851f16","system_id":"levelo_inurba_marseille","lat":43.288753,"lon":5.358577,"is_reserved":false,"is_disabled":false,"rental_uris":{"android":"levelo://app?vid=3fe14760-50d4-43a8-b058-218490851f16","ios":"levelo://app?vid=3fe14760-50d4-43a8-b058-218490851f16"},"vehicle_type_id":"4","last_reported":1746479380,"current_range_meters":8400,"station_id":"ce4bhb12rcd13ifvqem0","pricing_plan_id":"cebpf4jnsgd1na2vs0mg"},{"bike_id":"0df6ff4a-d789-4276-8939-264863baa64d","system_id":"levelo_inurba_marseille","lat":43.31783,"lon":5.39004,"is_reserved":false,"is_disabled":false,"rental_uris":{"android":"levelo://app?vid=0df6ff4a-d789-4276-8939-264863baa64d","ios":"levelo://app?vid=0df6ff4a-d789-4276-8939-264863baa64d"},"vehicle_type_id":"4","last_reported":1746479380,"current_range_meters":8800,"station_id":"ce4bhqp2rcd13ifvqhng","pricing_plan_id":"cebpf4jnsgd1na2vs0mg"},{"bike_id":"482344f1-460c-48ea-83dd-01b9a385e5cf","system_id":"levelo_inurba_marseille","lat":43.30657,"lon":5.36854,"is_reserved":false,"is_disabled":false,"rental_uris":{"android":"levelo://app?vid=482344f1-460c-48ea-83dd-01b9a385e5cf","ios":"levelo://app?vid=482344f1-460c-48ea-83dd-01b9a385e5cf"},"vehicle_type_id":"4","last_reported":1746479380,"current_range_meters":8800,"station_id":"","pricing_plan_id":"cebpf4jnsgd1na2vs0mg"},{"bike_id":"b73c5f22-57c3-42fb-a428-749049909d64","system_id":"levelo_inurba_marseille","lat":43.27938,"lon":5.41042,"is_reserved":false,"is_disabled":false,"rental_uris":{"android":"levelo://app?vid=b73c5f22-57c3-42fb-a428-749049909d64","ios":"levelo://app?vid=b73c5f22-57c3-42fb-a428-749049909d64"},"vehicle_type_id":"4","last_reported":1746479380,"current_range_meters":8800,"station_id":"ce4bhnp2rcd13ifvqh0g","pricing_plan_id":"cebpf4jnsgd1na2vs0mg"},{"bike_id":"1ec84625-6434-49a4-b31b-3a9885729539","system_id":"levelo_inurba_marseille","lat":43.29312,"lon":5.37175,"is_reserved":false,"is_disabled":false,"rental_uris":{"android":"levelo://app?vid=1ec84625-6434-49a4-b31b-3a9885729539","ios":"levelo://app?vid=1ec84625-6434-49a4-b31b-3a9885729539"},"vehicle_type_id":"4","last_reported":1746479380,"current_range_meters":8400,"station_id":"ce4bgh92rcd13ifvqb40","pricing_plan_id":"cebpf4jnsgd1na2vs0mg"},{"bike_id":"2306010e-85bf-4d9b-a6bc-107f35580834","system_id":"levelo_inurba_marseille","lat":43.25828,"lon":5.394328,"is_reserved":false,"is_disabled":false,"rental_uris":{"android":"levelo://app?vid=2306010e-85bf-4d9b-a6bc-107f35580834","ios":"levelo://app?vid=2306010e-85bf-4d9b-a6bc-107f35580834"},"vehicle_type_id":"4","last_reported":1746479380,"current_range_meters":8800,"station_id":"ce4bhip2rcd13ifvqft0","pricing_plan_id":"cebpf4jnsgd1na2vs0mg"},{"bike_id":"04b4674b-4434-40e5-9e75-4a7229750edd","system_id":"levelo_inurba_marseille","lat":43.27957,"lon":5.41032,"is_reserved":false,"is_disabled":false,"rental_uris":{"android":"levelo://app?vid=04b4674b-4434-40e5-9e75-4a7229750edd","ios":"levelo://app?vid=04b4674b-4434-40e5-9e75-4a7229750edd"},"vehicle_type_id":"4","last_reported":1746479380,"current_range_meters":9200,"station_id":"ce4bhnp2rcd13ifvqh0g","pricing_plan_id":"cebpf4jnsgd1na2vs0mg"},{"bike_id":"a105130d-2c0b-47d7-ad9e-26b35e0360b8","system_id":"levelo_inurba_marseille","lat":43.23945,"lon":5.36645,"is_reserved":false,"is_disabled":false,"rental_uris":{"android":"levelo://app?vid=a105130d-2c0b-47d7-ad9e-26b35e0360b8","ios":"levelo://app?vid=a105130d-2c0b-47d7-ad9e-26b35e0360b8"},"vehicle_type_id":"4","last_reported":1746479380,"current_range_meters":9200,"station_id":"ce4bhi12rcd13ifvqfp0","pricing_plan_id":"cebpf4jnsgd1na2vs0mg"},{"bike_id":"bda5329c-0ca8-4429-8276-953c6ccd9961","system_id":"levelo_inurba_marseille","lat":43.27976,"lon":5.41658,"is_reserved":false,"is_disabled":false,"rental_uris":{"android":"levelo://app?vid=bda5329c-0ca8-4429-8276-953c6ccd9961","ios":"levelo://app?vid=bda5329c-0ca8-4429-8276-953c6ccd9961"},"vehicle_type_id":"4","last_reported":1746479380,"current_range_meters":9200,"station_id":"ce4bho12rcd13ifvqh1g","pricing_plan_id":"cebpf4jnsgd1na2vs0mg"},{"bike_id":"08d06c84-d9e9-43f6-aa7a-603249ac6ecd","system_id":"levelo_inurba_marseille","lat":43.27994,"lon":5.40026,"is_reserved":false,"is_disabled":false,"rental_uris":{"android":"levelo://app?vid=08d06c84-d9e9-43f6-aa7a-603249ac6ecd","ios":"levelo://app?vid=08d06c84-d9e9-43f6-aa7a-603249ac6ecd"},"vehicle_type_id":"4","last_reported":1746479380,"current_range_meters":9200,"station_id":"ce4bho92rcd13ifvqh4g","pricing_plan_id":"cebpf4jnsgd1na2vs0mg"},{"bike_id":"861d3177-b3d5-4576-9453-d88deff810cc","system_id":"levelo_inurba_marseille","lat":43.25721,"lon":5.41112,"is_reserved":false,"is_disabled":false,"rental_uris":{"android":"levelo://app?vid=861d3177-b3d5-4576-9453-d88deff810cc","ios":"levelo://app?vid=861d3177-b3d5-4576-9453-d88deff810cc"},"vehicle_type_id":"4","last_reported":1746479380,"current_range_meters":9200,"station_id":"ce4bhkp2rcd13ifvqgd0","pricing_plan_id":"cebpf4jnsgd1na2vs0mg"},{"bike_id":"7a2589c6-a8c1-46f5-a962-7daecd246db4","system_id":"levelo_inurba_marseille","lat":43.31528,"lon":5.38029,"is_reserved":false,"is_disabled":false,"rental_uris":{"android":"levelo://app?vid=7a2589c6-a8c1-46f5-a962-7daecd246db4","ios":"levelo://app?vid=7a2589c6-a8c1-46f5-a962-7daecd246db4"},"vehicle_type_id":"4","last_reported":1746479380,"current_range_meters":9200,"station_id":"ce4bhsp2rcd13ifvqi50","pricing_plan_id":"cebpf4jnsgd1na2vs0mg"},{"bike_id":"90728acd-507e-4586-8514-7150be18c1a3","system_id":"levelo_inurba_marseille","lat":43.31989,"lon":5.38143,"is_reserved":false,"is_disabled":true,"rental_uris":{"android":"levelo://app?vid=90728acd-507e-4586-8514-7150be18c1a3","ios":"levelo://app?vid=90728acd-507e-4586-8514-7150be18c1a3"},"vehicle_type_id":"4","last_reported":1746479380,"current_range_meters":9600,"station_id":"ce4bhr12rcd13ifvqhpg","pricing_plan_id":"cebpf4jnsgd1na2vs0mg"},{"bike_id":"f923bc7e-7ddd-48e1-9a5c-e4b11899f853","system_id":"levelo_inurba_marseille","lat":43.30882,"lon":5.39658,"is_reserved":false,"is_disabled":false,"rental_uris":{"android":"levelo://app?vid=f923bc7e-7ddd-48e1-9a5c-e4b11899f853","ios":"levelo://app?vid=f923bc7e-7ddd-48e1-9a5c-e4b11899f853"},"vehicle_type_id":"4","last_reported":1746479380,"current_range_meters":11600,"station_id":"ce4bh012rcd13ifvqcv0","pricing_plan_id":"cebpf4jnsgd1na2vs0mg"},{"bike_id":"bcbaa019-21bc-432f-8f68-7971990aa14a","system_id":"levelo_inurba_marseille","lat":43.251148,"lon":5.403283,"is_reserved":false,"is_disabled":false,"rental_uris":{"android":"levelo://app?vid=bcbaa019-21bc-432f-8f68-7971990aa14a","ios":"levelo://app?vid=bcbaa019-21bc-432f-8f68-7971990aa14a"},"vehicle_type_id":"4","last_reported":1746479380,"current_range_meters":9600,"station_id":"ce4bhlh2rcd13ifvqgig","pricing_plan_id":"cebpf4jnsgd1na2vs0mg"},{"bike_id":"0516f56f-d6da-4619-b60f-e7bb507cb1e3","system_id":"levelo_inurba_marseille","lat":43.32364,"lon":5.38893,"is_reserved":false,"is_disabled":false,"rental_uris":{"android":"levelo://app?vid=0516f56f-d6da-4619-b60f-e7bb507cb1e3","ios":"levelo://app?vid=0516f56f-d6da-4619-b60f-e7bb507cb1e3"},"vehicle_type_id":"4","last_reported":1746479380,"current_range_meters":9600,"station_id":"ce4bhqp2rcd13ifvqhog","pricing_plan_id":"cebpf4jnsgd1na2vs0mg"},{"bike_id":"e04ad357-2bee-4391-9dd4-80dc0107267b","system_id":"levelo_inurba_marseille","lat":43.23183,"lon":5.39977,"is_reserved":false,"is_disabled":false,"rental_uris":{"android":"levelo://app?vid=e04ad357-2bee-4391-9dd4-80dc0107267b","ios":"levelo://app?vid=e04ad357-2bee-4391-9dd4-80dc0107267b"},"vehicle_type_id":"4","last_reported":1746479380,"current_range_meters":9600,"station_id":"ce4bhn12rcd13ifvqgqg","pricing_plan_id":"cebpf4jnsgd1na2vs0mg"},{"bike_id":"1e84e465-2e14-47ac-91f0-53a839d6422a","system_id":"levelo_inurba_marseille","lat":43.31357,"lon":5.38492,"is_reserved":false,"is_disabled":false,"rental_uris":{"android":"levelo://app?vid=1e84e465-2e14-47ac-91f0-53a839d6422a","ios":"levelo://app?vid=1e84e465-2e14-47ac-91f0-53a839d6422a"},"vehicle_type_id":"4","last_reported":1746479380,"current_range_meters":9600,"station_id":"ce4bgt92rcd13ifvqcf0","pricing_plan_id":"cebpf4jnsgd1na2vs0mg"},{"bike_id":"9fc13afb-e947-475e-b143-9f3ee51b87b5","system_id":"levelo_inurba_marseille","lat":43.30322,"lon":5.39206,"is_reserved":false,"is_disabled":true,"rental_uris":{"android":"levelo://app?vid=9fc13afb-e947-475e-b143-9f3ee51b87b5","ios":"levelo://app?vid=9fc13afb-e947-475e-b143-9f3ee51b87b5"},"vehicle_type_id":"4","last_reported":1746479380,"current_range_meters":10000,"station_id":"ce4bgkh2rcd13ifvqbk0","pricing_plan_id":"cebpf4jnsgd1na2vs0mg"},{"bike_id":"02235f25-174f-4e5d-bce9-a59804091448","system_id":"levelo_inurba_marseille","lat":43.31358,"lon":5.38496,"is_reserved":false,"is_disabled":true,"rental_uris":{"android":"levelo://app?vid=02235f25-174f-4e5d-bce9-a59804091448","ios":"levelo://app?vid=02235f25-174f-4e5d-bce9-a59804091448"},"vehicle_type_id":"4","last_reported":1746479380,"current_range_meters":10000,"station_id":"ce4bgt92rcd13ifvqcf0","pricing_plan_id":"cebpf4jnsgd1na2vs0mg"},{"bike_id":"1a56d2e1-6609-455c-8523-959d44394069","system_id":"levelo_inurba_marseille","lat":43.30308,"lon":5.39195,"is_reserved":false,"is_disabled":true,"rental_uris":{"android":"levelo://app?vid=1a56d2e1-6609-455c-8523-959d44394069","ios":"levelo://app?vid=1a56d2e1-6609-455c-8523-959d44394069"},"vehicle_type_id":"4","last_reported":1746479380,"current_range_meters":11200,"station_id":"ce4bgkh2rcd13ifvqbk0","pricing_plan_id":"cebpf4jnsgd1na2vs0mg"},{"bike_id":"f9cec597-af13-4a8a-be1d-b7cf54819d4d","system_id":"levelo_inurba_marseille","lat":43.28961,"lon":5.40722,"is_reserved":false,"is_disabled":false,"rental_uris":{"android":"levelo://app?vid=f9cec597-af13-4a8a-be1d-b7cf54819d4d","ios":"levelo://app?vid=f9cec597-af13-4a8a-be1d-b7cf54819d4d"},"vehicle_type_id":"4","last_reported":1746479380,"current_range_meters":10800,"station_id":"","pricing_plan_id":"cebpf4jnsgd1na2vs0mg"},{"bike_id":"7b602b1d-e420-4acb-b3b4-4b63bb884ab4","system_id":"levelo_inurba_marseille","lat":43.28938,"lon":5.36624,"is_reserved":false,"is_disabled":false,"rental_uris":{"android":"levelo://app?vid=7b602b1d-e420-4acb-b3b4-4b63bb884ab4","ios":"levelo://app?vid=7b602b1d-e420-4acb-b3b4-4b63bb884ab4"},"vehicle_type_id":"4","last_reported":1746479380,"current_range_meters":10800,"station_id":"ce4bhap2rcd13ifvqek0","pricing_plan_id":"cebpf4jnsgd1na2vs0mg"},{"bike_id":"1858d475-64c1-4a30-a90d-6e80fdac193d","system_id":"levelo_inurba_marseille","lat":43.27956,"lon":5.41039,"is_reserved":false,"is_disabled":false,"rental_uris":{"android":"levelo://app?vid=1858d475-64c1-4a30-a90d-6e80fdac193d","ios":"levelo://app?vid=1858d475-64c1-4a30-a90d-6e80fdac193d"},"vehicle_type_id":"4","last_reported":1746479380,"current_range_meters":10800,"station_id":"ce4bhnp2rcd13ifvqh0g","pricing_plan_id":"cebpf4jnsgd1na2vs0mg"},{"bike_id":"4567db42-a456-48b6-bc7d-8dd13247fcc0","system_id":"levelo_inurba_marseille","lat":43.27941,"lon":5.41039,"is_reserved":false,"is_disabled":false,"rental_uris":{"android":"levelo://app?vid=4567db42-a456-48b6-bc7d-8dd13247fcc0","ios":"levelo://app?vid=4567db42-a456-48b6-bc7d-8dd13247fcc0"},"vehicle_type_id":"4","last_reported":1746479380,"current_range_meters":10800,"station_id":"ce4bhnp2rcd13ifvqh0g","pricing_plan_id":"cebpf4jnsgd1na2vs0mg"},{"bike_id":"08ff2bcf-7233-4803-aa19-4c645279e28a","system_id":"levelo_inurba_marseille","lat":43.29249,"lon":5.40899,"is_reserved":false,"is_disabled":false,"rental_uris":{"android":"levelo://app?vid=08ff2bcf-7233-4803-aa19-4c645279e28a","ios":"levelo://app?vid=08ff2bcf-7233-4803-aa19-4c645279e28a"},"vehicle_type_id":"4","last_reported":1746479380,"current_range_meters":10800,"station_id":"ce4bh192rcd13ifvqdc0","pricing_plan_id":"cebpf4jnsgd1na2vs0mg"},{"bike_id":"156b2893-1935-4e6b-a870-c55ec5e1824b","system_id":"levelo_inurba_marseille","lat":43.30796,"lon":5.43516,"is_reserved":false,"is_disabled":false,"rental_uris":{"android":"levelo://app?vid=156b2893-1935-4e6b-a870-c55ec5e1824b","ios":"levelo://app?vid=156b2893-1935-4e6b-a870-c55ec5e1824b"},"vehicle_type_id":"4","last_reported":1746479380,"current_range_meters":10800,"station_id":"ce4bhph2rcd13ifvqheg","pricing_plan_id":"cebpf4jnsgd1na2vs0mg"},{"bike_id":"996b6168-a05d-48a0-af5f-f3a95295abf0","system_id":"levelo_inurba_marseille","lat":43.24085,"lon":5.37754,"is_reserved":false,"is_disabled":false,"rental_uris":{"android":"levelo://app?vid=996b6168-a05d-48a0-af5f-f3a95295abf0","ios":"levelo://app?vid=996b6168-a05d-48a0-af5f-f3a95295abf0"},"vehicle_type_id":"4","last_reported":1746479380,"current_range_meters":10800,"station_id":"ce4bhnp2rcd13ifvqgvg","pricing_plan_id":"cebpf4jnsgd1na2vs0mg"},{"bike_id":"8e310206-910f-410c-ade7-b0f0f03a4047","system_id":"levelo_inurba_marseille","lat":43.28475,"lon":5.35877,"is_reserved":false,"is_disabled":false,"rental_uris":{"android":"levelo://app?vid=8e310206-910f-410c-ade7-b0f0f03a4047","ios":"levelo://app?vid=8e310206-910f-410c-ade7-b0f0f03a4047"},"vehicle_type_id":"4","last_reported":1746479380,"current_range_meters":10800,"station_id":"ce4bhah2rcd13ifvqei0","pricing_plan_id":"cebpf4jnsgd1na2vs0mg"},{"bike_id":"41aaa1ed-a708-4a9a-b5aa-450e891d24b0","system_id":"levelo_inurba_marseille","lat":43.26566,"lon":5.39006,"is_reserved":false,"is_disabled":true,"rental_uris":{"android":"levelo://app?vid=41aaa1ed-a708-4a9a-b5aa-450e891d24b0","ios":"levelo://app?vid=41aaa1ed-a708-4a9a-b5aa-450e891d24b0"},"vehicle_type_id":"4","last_reported":1746479380,"current_range_meters":10800,"station_id":"ce4bhe12rcd13ifvqf30","pricing_plan_id":"cebpf4jnsgd1na2vs0mg"},{"bike_id":"45c16268-dcf5-4e4a-b4f6-0b7cb10c71b1","system_id":"levelo_inurba_marseille","lat":43.30591,"lon":5.39355,"is_reserved":false,"is_disabled":false,"rental_uris":{"android":"levelo://app?vid=45c16268-dcf5-4e4a-b4f6-0b7cb10c71b1","ios":"levelo://app?vid=45c16268-dcf5-4e4a-b4f6-0b7cb10c71b1"},"vehicle_type_id":"4","last_reported":1746479380,"current_range_meters":10800,"station_id":"ce4bh0p2rcd13ifvqd80","pricing_plan_id":"cebpf4jnsgd1na2vs0mg"},{"bike_id":"9d4cc952-e455-4fba-8b3f-d5cacd90c8d5","system_id":"levelo_inurba_marseille","lat":43.25084,"lon":5.39501,"is_reserved":false,"is_disabled":false,"rental_uris":{"android":"levelo://app?vid=9d4cc952-e455-4fba-8b3f-d5cacd90c8d5","ios":"levelo://app?vid=9d4cc952-e455-4fba-8b3f-d5cacd90c8d5"},"vehicle_type_id":"4","last_reported":1746479380,"current_range_meters":11200,"station_id":"ce4bhm12rcd13ifvqgkg","pricing_plan_id":"cebpf4jnsgd1na2vs0mg"},{"bike_id":"7b0406d4-727e-467f-89f4-fc4369d83d92","system_id":"levelo_inurba_marseille","lat":43.30128,"lon":5.39857,"is_reserved":false,"is_disabled":false,"rental_uris":{"android":"levelo://app?vid=7b0406d4-727e-467f-89f4-fc4369d83d92","ios":"levelo://app?vid=7b0406d4-727e-467f-89f4-fc4369d83d92"},"vehicle_type_id":"4","last_reported":1746479380,"current_range_meters":11200,"station_id":"ce4bh0h2rcd13ifvqd40","pricing_plan_id":"cebpf4jnsgd1na2vs0mg"},{"bike_id":"62bfa9fa-531f-4d2b-9e57-eb50b2d48c8c","system_id":"levelo_inurba_marseille","lat":43.24269,"lon":5.38011,"is_reserved":false,"is_disabled":false,"rental_uris":{"android":"levelo://app?vid=62bfa9fa-531f-4d2b-9e57-eb50b2d48c8c","ios":"levelo://app?vid=62bfa9fa-531f-4d2b-9e57-eb50b2d48c8c"},"vehicle_type_id":"4","last_reported":1746479380,"current_range_meters":11200,"station_id":"","pricing_plan_id":"cebpf4jnsgd1na2vs0mg"},{"bike_id":"ded8571d-0d9e-40d1-95cf-24f9e26e201c","system_id":"levelo_inurba_marseille","lat":43.25812,"lon":5.39436,"is_reserved":false,"is_disabled":false,"rental_uris":{"android":"levelo://app?vid=ded8571d-0d9e-40d1-95cf-24f9e26e201c","ios":"levelo://app?vid=ded8571d-0d9e-40d1-95cf-24f9e26e201c"},"vehicle_type_id":"4","last_reported":1746479380,"current_range_meters":10800,"station_id":"ce4bhip2rcd13ifvqft0","pricing_plan_id":"cebpf4jnsgd1na2vs0mg"},{"bike_id":"5b8d1337-a035-4531-8ae9-843647d6f95e","system_id":"levelo_inurba_marseille","lat":43.23184,"lon":5.39976,"is_reserved":false,"is_disabled":false,"rental_uris":{"android":"levelo://app?vid=5b8d1337-a035-4531-8ae9-843647d6f95e","ios":"levelo://app?vid=5b8d1337-a035-4531-8ae9-843647d6f95e"},"vehicle_type_id":"4","last_reported":1746479380,"current_range_meters":11600,"station_id":"ce4bhn12rcd13ifvqgqg","pricing_plan_id":"cebpf4jnsgd1na2vs0mg"},{"bike_id":"95426608-7838-484e-b235-921120b4b832","system_id":"levelo_inurba_marseille","lat":43.27205,"lon":5.39184,"is_reserved":false,"is_disabled":false,"rental_uris":{"android":"levelo://app?vid=95426608-7838-484e-b235-921120b4b832","ios":"levelo://app?vid=95426608-7838-484e-b235-921120b4b832"},"vehicle_type_id":"4","last_reported":1746479380,"current_range_meters":11200,"station_id":"ce4bhhp2rcd13ifvqfm0","pricing_plan_id":"cebpf4jnsgd1na2vs0mg"},{"bike_id":"965d9a68-35d6-4b3e-beea-cec1f338cad2","system_id":"levelo_inurba_marseille","lat":43.28269,"lon":5.350653,"is_reserved":false,"is_disabled":false,"rental_uris":{"android":"levelo://app?vid=965d9a68-35d6-4b3e-beea-cec1f338cad2","ios":"levelo://app?vid=965d9a68-35d6-4b3e-beea-cec1f338cad2"},"vehicle_type_id":"4","last_reported":1746479380,"current_range_meters":11600,"station_id":"ce4bhbp2rcd13ifvqerg","pricing_plan_id":"cebpf4jnsgd1na2vs0mg"},{"bike_id":"46515b8e-2c91-48c1-8869-455cffd3d0b7","system_id":"levelo_inurba_marseille","lat":43.27939,"lon":5.41045,"is_reserved":false,"is_disabled":false,"rental_uris":{"android":"levelo://app?vid=46515b8e-2c91-48c1-8869-455cffd3d0b7","ios":"levelo://app?vid=46515b8e-2c91-48c1-8869-455cffd3d0b7"},"vehicle_type_id":"4","last_reported":1746479380,"current_range_meters":11600,"station_id":"ce4bhnp2rcd13ifvqh0g","pricing_plan_id":"cebpf4jnsgd1na2vs0mg"},{"bike_id":"bd0f5d5e-963b-4fe6-aa82-9fc047b0ac51","system_id":"levelo_inurba_marseille","lat":43.299042,"lon":5.388155,"is_reserved":false,"is_disabled":false,"rental_uris":{"android":"levelo://app?vid=bd0f5d5e-963b-4fe6-aa82-9fc047b0ac51","ios":"levelo://app?vid=bd0f5d5e-963b-4fe6-aa82-9fc047b0ac51"},"vehicle_type_id":"4","last_reported":1746479380,"current_range_meters":11600,"station_id":"","pricing_plan_id":"cebpf4jnsgd1na2vs0mg"},{"bike_id":"9d8f73eb-df09-4699-86a7-d631e2319093","system_id":"levelo_inurba_marseille","lat":43.26272,"lon":5.37436,"is_reserved":false,"is_disabled":false,"rental_uris":{"android":"levelo://app?vid=9d8f73eb-df09-4699-86a7-d631e2319093","ios":"levelo://app?vid=9d8f73eb-df09-4699-86a7-d631e2319093"},"vehicle_type_id":"4","last_reported":1746479380,"current_range_meters":11600,"station_id":"","pricing_plan_id":"cebpf4jnsgd1na2vs0mg"},{"bike_id":"7430b6cc-b229-4c9f-aeae-8e2c8fcf43c9","system_id":"levelo_inurba_marseille","lat":43.2418,"lon":5.39733,"is_reserved":false,"is_disabled":false,"rental_uris":{"android":"levelo://app?vid=7430b6cc-b229-4c9f-aeae-8e2c8fcf43c9","ios":"levelo://app?vid=7430b6cc-b229-4c9f-aeae-8e2c8fcf43c9"},"vehicle_type_id":"4","last_reported":1746479380,"current_range_meters":11600,"station_id":"ce4bhn12rcd13ifvqgpg","pricing_plan_id":"cebpf4jnsgd1na2vs0mg"},{"bike_id":"0cb139c7-ebfc-4316-b1f8-0830598824b5","system_id":"levelo_inurba_marseille","lat":43.29804,"lon":5.39345,"is_reserved":false,"is_disabled":true,"rental_uris":{"android":"levelo://app?vid=0cb139c7-ebfc-4316-b1f8-0830598824b5","ios":"levelo://app?vid=0cb139c7-ebfc-4316-b1f8-0830598824b5"},"vehicle_type_id":"4","last_reported":1746479380,"current_range_meters":12000,"station_id":"chh1huq6cuj3fo74tm60","pricing_plan_id":"cebpf4jnsgd1na2vs0mg"},{"bike_id":"0e3d98c7-5f68-4ce1-b416-d339b8010f0f","system_id":"levelo_inurba_marseille","lat":43.29259,"lon":5.40894,"is_reserved":false,"is_disabled":false,"rental_uris":{"android":"levelo://app?vid=0e3d98c7-5f68-4ce1-b416-d339b8010f0f","ios":"levelo://app?vid=0e3d98c7-5f68-4ce1-b416-d339b8010f0f"},"vehicle_type_id":"4","last_reported":1746479380,"current_range_meters":11600,"station_id":"ce4bh192rcd13ifvqdc0","pricing_plan_id":"cebpf4jnsgd1na2vs0mg"},{"bike_id":"42127d02-b5a0-4b37-bbe8-b80d9c27e49a","system_id":"levelo_inurba_marseille","lat":43.23152,"lon":5.43708,"is_reserved":false,"is_disabled":false,"rental_uris":{"android":"levelo://app?vid=42127d02-b5a0-4b37-bbe8-b80d9c27e49a","ios":"levelo://app?vid=42127d02-b5a0-4b37-bbe8-b80d9c27e49a"},"vehicle_type_id":"4","last_reported":1746479380,"current_range_meters":12000,"station_id":"ce4bhmp2rcd13ifvqgog","pricing_plan_id":"cebpf4jnsgd1na2vs0mg"},{"bike_id":"48a787ef-bb7e-466c-aebb-ff2a53ecaf1d","system_id":"levelo_inurba_marseille","lat":43.29277,"lon":5.36843,"is_reserved":false,"is_disabled":false,"rental_uris":{"android":"levelo://app?vid=48a787ef-bb7e-466c-aebb-ff2a53ecaf1d","ios":"levelo://app?vid=48a787ef-bb7e-466c-aebb-ff2a53ecaf1d"},"vehicle_type_id":"4","last_reported":1746479380,"current_range_meters":12000,"station_id":"ce4bhbp2rcd13ifvqesg","pricing_plan_id":"cebpf4jnsgd1na2vs0mg"},{"bike_id":"a55be525-600f-4644-8d43-76cc01090e05","system_id":"levelo_inurba_marseille","lat":43.29027,"lon":5.39967,"is_reserved":false,"is_disabled":false,"rental_uris":{"android":"levelo://app?vid=a55be525-600f-4644-8d43-76cc01090e05","ios":"levelo://app?vid=a55be525-600f-4644-8d43-76cc01090e05"},"vehicle_type_id":"4","last_reported":1746479380,"current_range_meters":11600,"station_id":"ce4bh392rcd13ifvqdm0","pricing_plan_id":"cebpf4jnsgd1na2vs0mg"},{"bike_id":"227e2965-353d-4779-91cd-81ddbdecbc91","system_id":"levelo_inurba_marseille","lat":43.28018,"lon":5.36946,"is_reserved":false,"is_disabled":false,"rental_uris":{"android":"levelo://app?vid=227e2965-353d-4779-91cd-81ddbdecbc91","ios":"levelo://app?vid=227e2965-353d-4779-91cd-81ddbdecbc91"},"vehicle_type_id":"4","last_reported":1746479380,"current_range_meters":12400,"station_id":"ce4bha12rcd13ifvqef0","pricing_plan_id":"cebpf4jnsgd1na2vs0mg"},{"bike_id":"fbda12d9-6999-44a5-a236-2a288c2ac07c","system_id":"levelo_inurba_marseille","lat":43.24069,"lon":5.37757,"is_reserved":false,"is_disabled":false,"rental_uris":{"android":"levelo://app?vid=fbda12d9-6999-44a5-a236-2a288c2ac07c","ios":"levelo://app?vid=fbda12d9-6999-44a5-a236-2a288c2ac07c"},"vehicle_type_id":"4","last_reported":1746479380,"current_range_meters":12400,"station_id":"ce4bhnp2rcd13ifvqgvg","pricing_plan_id":"cebpf4jnsgd1na2vs0mg"},{"bike_id":"b60c17f5-436e-489e-8f3c-790e6084ac64","system_id":"levelo_inurba_marseille","lat":43.211903,"lon":5.35078,"is_reserved":false,"is_disabled":false,"rental_uris":{"android":"levelo://app?vid=b60c17f5-436e-489e-8f3c-790e6084ac64","ios":"levelo://app?vid=b60c17f5-436e-489e-8f3c-790e6084ac64"},"vehicle_type_id":"4","last_reported":1746479380,"current_range_meters":12400,"station_id":"st_cvj6sg6p6f1abm77japg","pricing_plan_id":"cebpf4jnsgd1na2vs0mg"},{"bike_id":"b3404a9e-4e27-4dca-a1bb-6c70882c4de6","system_id":"levelo_inurba_marseille","lat":43.2318,"lon":5.39986,"is_reserved":false,"is_disabled":false,"rental_uris":{"android":"levelo://app?vid=b3404a9e-4e27-4dca-a1bb-6c70882c4de6","ios":"levelo://app?vid=b3404a9e-4e27-4dca-a1bb-6c70882c4de6"},"vehicle_type_id":"4","last_reported":1746479380,"current_range_meters":12000,"station_id":"ce4bhn12rcd13ifvqgqg","pricing_plan_id":"cebpf4jnsgd1na2vs0mg"},{"bike_id":"131ecabb-d77c-4c84-8abd-480ab16bae5a","system_id":"levelo_inurba_marseille","lat":43.3171,"lon":5.43702,"is_reserved":false,"is_disabled":false,"rental_uris":{"android":"levelo://app?vid=131ecabb-d77c-4c84-8abd-480ab16bae5a","ios":"levelo://app?vid=131ecabb-d77c-4c84-8abd-480ab16bae5a"},"vehicle_type_id":"4","last_reported":1746479380,"current_range_meters":12400,"station_id":"ce4bhp92rcd13ifvqhcg","pricing_plan_id":"cebpf4jnsgd1na2vs0mg"},{"bike_id":"763c412a-22fd-426f-a46a-b5235da371a1","system_id":"levelo_inurba_marseille","lat":43.27945,"lon":5.41042,"is_reserved":false,"is_disabled":false,"rental_uris":{"android":"levelo://app?vid=763c412a-22fd-426f-a46a-b5235da371a1","ios":"levelo://app?vid=763c412a-22fd-426f-a46a-b5235da371a1"},"vehicle_type_id":"4","last_reported":1746479380,"current_range_meters":12400,"station_id":"ce4bhnp2rcd13ifvqh0g","pricing_plan_id":"cebpf4jnsgd1na2vs0mg"},{"bike_id":"8a5b74c0-fb46-49d0-8112-69cb0646ca82","system_id":"levelo_inurba_marseille","lat":43.301468,"lon":5.387712,"is_reserved":false,"is_disabled":false,"rental_uris":{"android":"levelo://app?vid=8a5b74c0-fb46-49d0-8112-69cb0646ca82","ios":"levelo://app?vid=8a5b74c0-fb46-49d0-8112-69cb0646ca82"},"vehicle_type_id":"4","last_reported":1746479380,"current_range_meters":12000,"station_id":"ce4bghh2rcd13ifvqb60","pricing_plan_id":"cebpf4jnsgd1na2vs0mg"},{"bike_id":"0c377d9d-9a3a-47a7-9944-6039314b5e15","system_id":"levelo_inurba_marseille","lat":43.24609,"lon":5.40452,"is_reserved":false,"is_disabled":false,"rental_uris":{"android":"levelo://app?vid=0c377d9d-9a3a-47a7-9944-6039314b5e15","ios":"levelo://app?vid=0c377d9d-9a3a-47a7-9944-6039314b5e15"},"vehicle_type_id":"4","last_reported":1746479380,"current_range_meters":12400,"station_id":"","pricing_plan_id":"cebpf4jnsgd1na2vs0mg"},{"bike_id":"05a84f69-0592-442a-b098-6253d0b70e9e","system_id":"levelo_inurba_marseille","lat":43.30007,"lon":5.37221,"is_reserved":false,"is_disabled":false,"rental_uris":{"android":"levelo://app?vid=05a84f69-0592-442a-b098-6253d0b70e9e","ios":"levelo://app?vid=05a84f69-0592-442a-b098-6253d0b70e9e"},"vehicle_type_id":"4","last_reported":1746479380,"current_range_meters":12400,"station_id":"ce4bgr92rcd13ifvqc7g","pricing_plan_id":"cebpf4jnsgd1na2vs0mg"},{"bike_id":"cf4d36ef-23ee-43af-b6e5-e13206f2fb01","system_id":"levelo_inurba_marseille","lat":43.304227,"lon":5.397488,"is_reserved":false,"is_disabled":false,"rental_uris":{"android":"levelo://app?vid=cf4d36ef-23ee-43af-b6e5-e13206f2fb01","ios":"levelo://app?vid=cf4d36ef-23ee-43af-b6e5-e13206f2fb01"},"vehicle_type_id":"4","last_reported":1746479380,"current_range_meters":12800,"station_id":"ce4bh092rcd13ifvqd20","pricing_plan_id":"cebpf4jnsgd1na2vs0mg"},{"bike_id":"8d146ef2-33d1-48dc-9638-42cf8331c76e","system_id":"levelo_inurba_marseille","lat":43.262169,"lon":5.396812,"is_reserved":false,"is_disabled":false,"rental_uris":{"android":"levelo://app?vid=8d146ef2-33d1-48dc-9638-42cf8331c76e","ios":"levelo://app?vid=8d146ef2-33d1-48dc-9638-42cf8331c76e"},"vehicle_type_id":"4","last_reported":1746479380,"current_range_meters":12800,"station_id":"ce4bhip2rcd13ifvqft0","pricing_plan_id":"cebpf4jnsgd1na2vs0mg"},{"bike_id":"5423b67b-7d78-436a-846a-99a9f32bc3c9","system_id":"levelo_inurba_marseille","lat":43.250816,"lon":5.395078,"is_reserved":false,"is_disabled":false,"rental_uris":{"android":"levelo://app?vid=5423b67b-7d78-436a-846a-99a9f32bc3c9","ios":"levelo://app?vid=5423b67b-7d78-436a-846a-99a9f32bc3c9"},"vehicle_type_id":"4","last_reported":1746479380,"current_range_meters":12800,"station_id":"ce4bhm12rcd13ifvqgkg","pricing_plan_id":"cebpf4jnsgd1na2vs0mg"},{"bike_id":"58782be2-8c34-4887-970e-c15b139a734c","system_id":"levelo_inurba_marseille","lat":43.268276,"lon":5.388945,"is_reserved":false,"is_disabled":false,"rental_uris":{"android":"levelo://app?vid=58782be2-8c34-4887-970e-c15b139a734c","ios":"levelo://app?vid=58782be2-8c34-4887-970e-c15b139a734c"},"vehicle_type_id":"4","last_reported":1746479380,"current_range_meters":12800,"station_id":"ce4bhe12rcd13ifvqf30","pricing_plan_id":"cebpf4jnsgd1na2vs0mg"},{"bike_id":"498f0352-ce23-4398-9480-73714d258dd3","system_id":"levelo_inurba_marseille","lat":43.30881,"lon":5.39634,"is_reserved":false,"is_disabled":false,"rental_uris":{"android":"levelo://app?vid=498f0352-ce23-4398-9480-73714d258dd3","ios":"levelo://app?vid=498f0352-ce23-4398-9480-73714d258dd3"},"vehicle_type_id":"4","last_reported":1746479380,"current_range_meters":12800,"station_id":"ce4bh012rcd13ifvqcv0","pricing_plan_id":"cebpf4jnsgd1na2vs0mg"},{"bike_id":"e59f121e-ba4f-4890-a742-2d0c49eae7d8","system_id":"levelo_inurba_marseille","lat":43.31554,"lon":5.380361,"is_reserved":false,"is_disabled":false,"rental_uris":{"android":"levelo://app?vid=e59f121e-ba4f-4890-a742-2d0c49eae7d8","ios":"levelo://app?vid=e59f121e-ba4f-4890-a742-2d0c49eae7d8"},"vehicle_type_id":"4","last_reported":1746479380,"current_range_meters":13600,"station_id":"ce4bhsp2rcd13ifvqi50","pricing_plan_id":"cebpf4jnsgd1na2vs0mg"},{"bike_id":"a46b5721-597c-404e-8ddb-3ba6469f967d","system_id":"levelo_inurba_marseille","lat":43.23189,"lon":5.35556,"is_reserved":false,"is_disabled":false,"rental_uris":{"android":"levelo://app?vid=a46b5721-597c-404e-8ddb-3ba6469f967d","ios":"levelo://app?vid=a46b5721-597c-404e-8ddb-3ba6469f967d"},"vehicle_type_id":"4","last_reported":1746479380,"current_range_meters":13600,"station_id":"ce4bhu92rcd13ifvqi70","pricing_plan_id":"cebpf4jnsgd1na2vs0mg"},{"bike_id":"d26d0d25-d963-426f-97a8-42ddba8547f5","system_id":"levelo_inurba_marseille","lat":43.29441,"lon":5.39749,"is_reserved":false,"is_disabled":false,"rental_uris":{"android":"levelo://app?vid=d26d0d25-d963-426f-97a8-42ddba8547f5","ios":"levelo://app?vid=d26d0d25-d963-426f-97a8-42ddba8547f5"},"vehicle_type_id":"4","last_reported":1746479380,"current_range_meters":13600,"station_id":"ce4bh3h2rcd13ifvqdo0","pricing_plan_id":"cebpf4jnsgd1na2vs0mg"},{"bike_id":"bfd18729-234a-4c72-b47b-2cff574b2dc5","system_id":"levelo_inurba_marseille","lat":43.292376,"lon":5.38316,"is_reserved":false,"is_disabled":false,"rental_uris":{"android":"levelo://app?vid=bfd18729-234a-4c72-b47b-2cff574b2dc5","ios":"levelo://app?vid=bfd18729-234a-4c72-b47b-2cff574b2dc5"},"vehicle_type_id":"4","last_reported":1746479380,"current_range_meters":13600,"station_id":"","pricing_plan_id":"cebpf4jnsgd1na2vs0mg"},{"bike_id":"b486f5fd-1209-4352-985e-d268bb97a482","system_id":"levelo_inurba_marseille","lat":43.28419,"lon":5.3498,"is_reserved":false,"is_disabled":false,"rental_uris":{"android":"levelo://app?vid=b486f5fd-1209-4352-985e-d268bb97a482","ios":"levelo://app?vid=b486f5fd-1209-4352-985e-d268bb97a482"},"vehicle_type_id":"4","last_reported":1746479380,"current_range_meters":13600,"station_id":"ce4bhbh2rcd13ifvqepg","pricing_plan_id":"cebpf4jnsgd1na2vs0mg"},{"bike_id":"db607aba-0db6-423b-a818-c23224727203","system_id":"levelo_inurba_marseille","lat":43.23155,"lon":5.437,"is_reserved":false,"is_disabled":false,"rental_uris":{"android":"levelo://app?vid=db607aba-0db6-423b-a818-c23224727203","ios":"levelo://app?vid=db607aba-0db6-423b-a818-c23224727203"},"vehicle_type_id":"4","last_reported":1746479380,"current_range_meters":13600,"station_id":"ce4bhmp2rcd13ifvqgog","pricing_plan_id":"cebpf4jnsgd1na2vs0mg"},{"bike_id":"311ec4e0-482e-4b83-a693-e6b86a1abb04","system_id":"levelo_inurba_marseille","lat":43.331424,"lon":5.413779,"is_reserved":false,"is_disabled":false,"rental_uris":{"android":"levelo://app?vid=311ec4e0-482e-4b83-a693-e6b86a1abb04","ios":"levelo://app?vid=311ec4e0-482e-4b83-a693-e6b86a1abb04"},"vehicle_type_id":"4","last_reported":1746479380,"current_range_meters":13600,"station_id":"","pricing_plan_id":"cebpf4jnsgd1na2vs0mg"},{"bike_id":"936a637d-a079-4ff8-ae5b-41a138df9f05","system_id":"levelo_inurba_marseille","lat":43.27968,"lon":5.38727,"is_reserved":false,"is_disabled":false,"rental_uris":{"android":"levelo://app?vid=936a637d-a079-4ff8-ae5b-41a138df9f05","ios":"levelo://app?vid=936a637d-a079-4ff8-ae5b-41a138df9f05"},"vehicle_type_id":"4","last_reported":1746479380,"current_range_meters":14000,"station_id":"ce4bhg12rcd13ifvqf80","pricing_plan_id":"cebpf4jnsgd1na2vs0mg"},{"bike_id":"adf5dfc5-5664-4b0f-8d86-0129f9858272","system_id":"levelo_inurba_marseille","lat":43.30786,"lon":5.37653,"is_reserved":false,"is_disabled":false,"rental_uris":{"android":"levelo://app?vid=adf5dfc5-5664-4b0f-8d86-0129f9858272","ios":"levelo://app?vid=adf5dfc5-5664-4b0f-8d86-0129f9858272"},"vehicle_type_id":"4","last_reported":1746479380,"current_range_meters":14000,"station_id":"ce4bgv92rcd13ifvqcq0","pricing_plan_id":"cebpf4jnsgd1na2vs0mg"},{"bike_id":"7e7dc147-9fb8-4df0-905e-a56344049728","system_id":"levelo_inurba_marseille","lat":43.29026,"lon":5.38644,"is_reserved":false,"is_disabled":true,"rental_uris":{"android":"levelo://app?vid=7e7dc147-9fb8-4df0-905e-a56344049728","ios":"levelo://app?vid=7e7dc147-9fb8-4df0-905e-a56344049728"},"vehicle_type_id":"4","last_reported":1746479380,"current_range_meters":14000,"station_id":"ce4bh4p2rcd13ifvqe0g","pricing_plan_id":"cebpf4jnsgd1na2vs0mg"},{"bike_id":"44d1a496-4f16-46a6-b178-f49cec17003e","system_id":"levelo_inurba_marseille","lat":43.27177,"lon":5.4099,"is_reserved":false,"is_disabled":false,"rental_uris":{"android":"levelo://app?vid=44d1a496-4f16-46a6-b178-f49cec17003e","ios":"levelo://app?vid=44d1a496-4f16-46a6-b178-f49cec17003e"},"vehicle_type_id":"4","last_reported":1746479380,"current_range_meters":14400,"station_id":"ce4bhl12rcd13ifvqgf0","pricing_plan_id":"cebpf4jnsgd1na2vs0mg"},{"bike_id":"13fcfc94-37a5-49a8-a177-77725e8512b6","system_id":"levelo_inurba_marseille","lat":43.30525,"lon":5.37884,"is_reserved":false,"is_disabled":true,"rental_uris":{"android":"levelo://app?vid=13fcfc94-37a5-49a8-a177-77725e8512b6","ios":"levelo://app?vid=13fcfc94-37a5-49a8-a177-77725e8512b6"},"vehicle_type_id":"4","last_reported":1746479380,"current_range_meters":14400,"station_id":"","pricing_plan_id":"cebpf4jnsgd1na2vs0mg"},{"bike_id":"86d7d3ed-cc39-4e3c-821d-1478b4b5f932","system_id":"levelo_inurba_marseille","lat":43.30777,"lon":5.37656,"is_reserved":false,"is_disabled":false,"rental_uris":{"android":"levelo://app?vid=86d7d3ed-cc39-4e3c-821d-1478b4b5f932","ios":"levelo://app?vid=86d7d3ed-cc39-4e3c-821d-1478b4b5f932"},"vehicle_type_id":"4","last_reported":1746479380,"current_range_meters":14400,"station_id":"ce4bgv92rcd13ifvqcq0","pricing_plan_id":"cebpf4jnsgd1na2vs0mg"},{"bike_id":"ff98988f-b7b5-4b59-aafa-108198aebfdf","system_id":"levelo_inurba_marseille","lat":43.31168,"lon":5.38717,"is_reserved":false,"is_disabled":false,"rental_uris":{"android":"levelo://app?vid=ff98988f-b7b5-4b59-aafa-108198aebfdf","ios":"levelo://app?vid=ff98988f-b7b5-4b59-aafa-108198aebfdf"},"vehicle_type_id":"4","last_reported":1746479380,"current_range_meters":14400,"station_id":"ce4bgv12rcd13ifvqcp0","pricing_plan_id":"cebpf4jnsgd1na2vs0mg"},{"bike_id":"c9592205-9409-4f74-aed1-7c4141a58caa","system_id":"levelo_inurba_marseille","lat":43.27167,"lon":5.3637,"is_reserved":false,"is_disabled":false,"rental_uris":{"android":"levelo://app?vid=c9592205-9409-4f74-aed1-7c4141a58caa","ios":"levelo://app?vid=c9592205-9409-4f74-aed1-7c4141a58caa"},"vehicle_type_id":"4","last_reported":1746479380,"current_range_meters":14800,"station_id":"","pricing_plan_id":"cebpf4jnsgd1na2vs0mg"},{"bike_id":"7e86d21d-45f2-4214-8268-1894a29d6870","system_id":"levelo_inurba_marseille","lat":43.27815,"lon":5.40719,"is_reserved":false,"is_disabled":false,"rental_uris":{"android":"levelo://app?vid=7e86d21d-45f2-4214-8268-1894a29d6870","ios":"levelo://app?vid=7e86d21d-45f2-4214-8268-1894a29d6870"},"vehicle_type_id":"4","last_reported":1746479380,"current_range_meters":14400,"station_id":"ce4bhnh2rcd13ifvqgtg","pricing_plan_id":"cebpf4jnsgd1na2vs0mg"},{"bike_id":"a9b78ccc-48f0-4502-b89e-0369c4bf7b0b","system_id":"levelo_inurba_marseille","lat":43.23194,"lon":5.39974,"is_reserved":false,"is_disabled":false,"rental_uris":{"android":"levelo://app?vid=a9b78ccc-48f0-4502-b89e-0369c4bf7b0b","ios":"levelo://app?vid=a9b78ccc-48f0-4502-b89e-0369c4bf7b0b"},"vehicle_type_id":"4","last_reported":1746479380,"current_range_meters":14400,"station_id":"ce4bhn12rcd13ifvqgqg","pricing_plan_id":"cebpf4jnsgd1na2vs0mg"},{"bike_id":"2d3a4e18-5e5c-41fd-a652-c6f84f49b159","system_id":"levelo_inurba_marseille","lat":43.293722,"lon":5.378564,"is_reserved":false,"is_disabled":true,"rental_uris":{"android":"levelo://app?vid=2d3a4e18-5e5c-41fd-a652-c6f84f49b159","ios":"levelo://app?vid=2d3a4e18-5e5c-41fd-a652-c6f84f49b159"},"vehicle_type_id":"4","last_reported":1746479380,"current_range_meters":14400,"station_id":"ce4bgjh2rcd13ifvqbf0","pricing_plan_id":"cebpf4jnsgd1na2vs0mg"},{"bike_id":"f3a35506-97fa-42ff-b934-98d4b2d65cd8","system_id":"levelo_inurba_marseille","lat":43.28699,"lon":5.37394,"is_reserved":false,"is_disabled":false,"rental_uris":{"android":"levelo://app?vid=f3a35506-97fa-42ff-b934-98d4b2d65cd8","ios":"levelo://app?vid=f3a35506-97fa-42ff-b934-98d4b2d65cd8"},"vehicle_type_id":"4","last_reported":1746479380,"current_range_meters":14800,"station_id":"ce4bh3p2rcd13ifvqdq0","pricing_plan_id":"cebpf4jnsgd1na2vs0mg"},{"bike_id":"39aa275e-d157-4bd3-b8c5-b8344765c5be","system_id":"levelo_inurba_marseille","lat":43.2873,"lon":5.36077,"is_reserved":false,"is_disabled":false,"rental_uris":{"android":"levelo://app?vid=39aa275e-d157-4bd3-b8c5-b8344765c5be","ios":"levelo://app?vid=39aa275e-d157-4bd3-b8c5-b8344765c5be"},"vehicle_type_id":"4","last_reported":1746479380,"current_range_meters":14800,"station_id":"cki0cbj6b192h4jlfktg","pricing_plan_id":"cebpf4jnsgd1na2vs0mg"},{"bike_id":"858bed88-3c9c-4c60-b913-cfc9a1021309","system_id":"levelo_inurba_marseille","lat":43.31749,"lon":5.39017,"is_reserved":false,"is_disabled":true,"rental_uris":{"android":"levelo://app?vid=858bed88-3c9c-4c60-b913-cfc9a1021309","ios":"levelo://app?vid=858bed88-3c9c-4c60-b913-cfc9a1021309"},"vehicle_type_id":"4","last_reported":1746479380,"current_range_meters":14800,"station_id":"ce4bhqp2rcd13ifvqhng","pricing_plan_id":"cebpf4jnsgd1na2vs0mg"},{"bike_id":"5cf9bea3-9c42-4bef-a5e8-cfcc39d36971","system_id":"levelo_inurba_marseille","lat":43.31115,"lon":5.37762,"is_reserved":false,"is_disabled":false,"rental_uris":{"android":"levelo://app?vid=5cf9bea3-9c42-4bef-a5e8-cfcc39d36971","ios":"levelo://app?vid=5cf9bea3-9c42-4bef-a5e8-cfcc39d36971"},"vehicle_type_id":"4","last_reported":1746479380,"current_range_meters":14800,"station_id":"ce4bgt92rcd13ifvqcg0","pricing_plan_id":"cebpf4jnsgd1na2vs0mg"},{"bike_id":"f7f685cd-3f69-4e28-b1ba-dd267fb3831d","system_id":"levelo_inurba_marseille","lat":43.28722,"lon":5.36061,"is_reserved":false,"is_disabled":false,"rental_uris":{"android":"levelo://app?vid=f7f685cd-3f69-4e28-b1ba-dd267fb3831d","ios":"levelo://app?vid=f7f685cd-3f69-4e28-b1ba-dd267fb3831d"},"vehicle_type_id":"4","last_reported":1746479380,"current_range_meters":15200,"station_id":"cki0cbj6b192h4jlfktg","pricing_plan_id":"cebpf4jnsgd1na2vs0mg"},{"bike_id":"48d1a623-5e08-404d-89cc-f076c785ec8a","system_id":"levelo_inurba_marseille","lat":43.28462,"lon":5.35883,"is_reserved":false,"is_disabled":false,"rental_uris":{"android":"levelo://app?vid=48d1a623-5e08-404d-89cc-f076c785ec8a","ios":"levelo://app?vid=48d1a623-5e08-404d-89cc-f076c785ec8a"},"vehicle_type_id":"4","last_reported":1746479380,"current_range_meters":15200,"station_id":"ce4bhah2rcd13ifvqei0","pricing_plan_id":"cebpf4jnsgd1na2vs0mg"},{"bike_id":"7ae923fd-583b-405f-968d-fb1bcede32b7","system_id":"levelo_inurba_marseille","lat":43.25079,"lon":5.39515,"is_reserved":false,"is_disabled":false,"rental_uris":{"android":"levelo://app?vid=7ae923fd-583b-405f-968d-fb1bcede32b7","ios":"levelo://app?vid=7ae923fd-583b-405f-968d-fb1bcede32b7"},"vehicle_type_id":"4","last_reported":1746479380,"current_range_meters":15200,"station_id":"ce4bhm12rcd13ifvqgkg","pricing_plan_id":"cebpf4jnsgd1na2vs0mg"},{"bike_id":"8dac27be-a00b-4425-aba9-9ad4ebb57a63","system_id":"levelo_inurba_marseille","lat":43.28696,"lon":5.38665,"is_reserved":false,"is_disabled":true,"rental_uris":{"android":"levelo://app?vid=8dac27be-a00b-4425-aba9-9ad4ebb57a63","ios":"levelo://app?vid=8dac27be-a00b-4425-aba9-9ad4ebb57a63"},"vehicle_type_id":"4","last_reported":1746479380,"current_range_meters":15200,"station_id":"ce4bh492rcd13ifvqdug","pricing_plan_id":"cebpf4jnsgd1na2vs0mg"},{"bike_id":"905d438c-7d8b-4182-9f67-8606cd1c9d5a","system_id":"levelo_inurba_marseille","lat":43.295633,"lon":5.397519,"is_reserved":false,"is_disabled":false,"rental_uris":{"android":"levelo://app?vid=905d438c-7d8b-4182-9f67-8606cd1c9d5a","ios":"levelo://app?vid=905d438c-7d8b-4182-9f67-8606cd1c9d5a"},"vehicle_type_id":"4","last_reported":1746479380,"current_range_meters":15200,"station_id":"ce4bh3p2rcd13ifvqdp0","pricing_plan_id":"cebpf4jnsgd1na2vs0mg"},{"bike_id":"7ca09d8d-51db-4057-abe2-e9c1bdbcdfac","system_id":"levelo_inurba_marseille","lat":43.229247,"lon":5.353797,"is_reserved":false,"is_disabled":true,"rental_uris":{"android":"levelo://app?vid=7ca09d8d-51db-4057-abe2-e9c1bdbcdfac","ios":"levelo://app?vid=7ca09d8d-51db-4057-abe2-e9c1bdbcdfac"},"vehicle_type_id":"4","last_reported":1746479380,"current_range_meters":15200,"station_id":"cpo3532slgdg3j2ikp40","pricing_plan_id":"cebpf4jnsgd1na2vs0mg"},{"bike_id":"3ef3f82b-f44c-4d3c-a690-2602cf85f9de","system_id":"levelo_inurba_marseille","lat":43.28467,"lon":5.35877,"is_reserved":false,"is_disabled":false,"rental_uris":{"android":"levelo://app?vid=3ef3f82b-f44c-4d3c-a690-2602cf85f9de","ios":"levelo://app?vid=3ef3f82b-f44c-4d3c-a690-2602cf85f9de"},"vehicle_type_id":"4","last_reported":1746479380,"current_range_meters":15200,"station_id":"ce4bhah2rcd13ifvqei0","pricing_plan_id":"cebpf4jnsgd1na2vs0mg"},{"bike_id":"2df614bf-145f-44cd-b174-f8bd8326963c","system_id":"levelo_inurba_marseille","lat":43.315383,"lon":5.38036,"is_reserved":false,"is_disabled":false,"rental_uris":{"android":"levelo://app?vid=2df614bf-145f-44cd-b174-f8bd8326963c","ios":"levelo://app?vid=2df614bf-145f-44cd-b174-f8bd8326963c"},"vehicle_type_id":"4","last_reported":1746479380,"current_range_meters":16000,"station_id":"ce4bhsp2rcd13ifvqi50","pricing_plan_id":"cebpf4jnsgd1na2vs0mg"},{"bike_id":"5a7d2749-ecbc-4351-94f2-8339d95d4c06","system_id":"levelo_inurba_marseille","lat":43.3154,"lon":5.38035,"is_reserved":false,"is_disabled":false,"rental_uris":{"android":"levelo://app?vid=5a7d2749-ecbc-4351-94f2-8339d95d4c06","ios":"levelo://app?vid=5a7d2749-ecbc-4351-94f2-8339d95d4c06"},"vehicle_type_id":"4","last_reported":1746479380,"current_range_meters":16000,"station_id":"ce4bhsp2rcd13ifvqi50","pricing_plan_id":"cebpf4jnsgd1na2vs0mg"},{"bike_id":"dd3c02c6-cb3b-483e-a5d3-3f1c108028c2","system_id":"levelo_inurba_marseille","lat":43.29261,"lon":5.40907,"is_reserved":false,"is_disabled":false,"rental_uris":{"android":"levelo://app?vid=dd3c02c6-cb3b-483e-a5d3-3f1c108028c2","ios":"levelo://app?vid=dd3c02c6-cb3b-483e-a5d3-3f1c108028c2"},"vehicle_type_id":"4","last_reported":1746479380,"current_range_meters":16000,"station_id":"ce4bh192rcd13ifvqdc0","pricing_plan_id":"cebpf4jnsgd1na2vs0mg"},{"bike_id":"3f84d55c-f7b3-443f-a8ba-1f83ba8291a2","system_id":"levelo_inurba_marseille","lat":43.21187,"lon":5.35062,"is_reserved":false,"is_disabled":false,"rental_uris":{"android":"levelo://app?vid=3f84d55c-f7b3-443f-a8ba-1f83ba8291a2","ios":"levelo://app?vid=3f84d55c-f7b3-443f-a8ba-1f83ba8291a2"},"vehicle_type_id":"4","last_reported":1746479380,"current_range_meters":16000,"station_id":"st_cvj6sg6p6f1abm77japg","pricing_plan_id":"cebpf4jnsgd1na2vs0mg"},{"bike_id":"34b1efd4-48c2-4719-84d4-6a6a73d11d34","system_id":"levelo_inurba_marseille","lat":43.31482,"lon":5.37307,"is_reserved":false,"is_disabled":false,"rental_uris":{"android":"levelo://app?vid=34b1efd4-48c2-4719-84d4-6a6a73d11d34","ios":"levelo://app?vid=34b1efd4-48c2-4719-84d4-6a6a73d11d34"},"vehicle_type_id":"4","last_reported":1746479380,"current_range_meters":16000,"station_id":"ce4bgt12rcd13ifvqcd0","pricing_plan_id":"cebpf4jnsgd1na2vs0mg"},{"bike_id":"7ed36353-092b-453c-b837-0c3c8d44cb54","system_id":"levelo_inurba_marseille","lat":43.28417,"lon":5.37493,"is_reserved":false,"is_disabled":false,"rental_uris":{"android":"levelo://app?vid=7ed36353-092b-453c-b837-0c3c8d44cb54","ios":"levelo://app?vid=7ed36353-092b-453c-b837-0c3c8d44cb54"},"vehicle_type_id":"4","last_reported":1746479380,"current_range_meters":16400,"station_id":"ce4bh412rcd13ifvqds0","pricing_plan_id":"cebpf4jnsgd1na2vs0mg"},{"bike_id":"53244cb6-fb82-4872-b855-d7022e098455","system_id":"levelo_inurba_marseille","lat":43.28921,"lon":5.36627,"is_reserved":false,"is_disabled":false,"rental_uris":{"android":"levelo://app?vid=53244cb6-fb82-4872-b855-d7022e098455","ios":"levelo://app?vid=53244cb6-fb82-4872-b855-d7022e098455"},"vehicle_type_id":"4","last_reported":1746479380,"current_range_meters":16400,"station_id":"ce4bhap2rcd13ifvqek0","pricing_plan_id":"cebpf4jnsgd1na2vs0mg"},{"bike_id":"bedea05d-d78e-49aa-a496-3f51d4ea594b","system_id":"levelo_inurba_marseille","lat":43.28469,"lon":5.35887,"is_reserved":false,"is_disabled":false,"rental_uris":{"android":"levelo://app?vid=bedea05d-d78e-49aa-a496-3f51d4ea594b","ios":"levelo://app?vid=bedea05d-d78e-49aa-a496-3f51d4ea594b"},"vehicle_type_id":"4","last_reported":1746479380,"current_range_meters":16400,"station_id":"ce4bhah2rcd13ifvqei0","pricing_plan_id":"cebpf4jnsgd1na2vs0mg"},{"bike_id":"13a33661-336b-40d3-8177-5933c619331c","system_id":"levelo_inurba_marseille","lat":43.287084,"lon":5.373883,"is_reserved":false,"is_disabled":false,"rental_uris":{"android":"levelo://app?vid=13a33661-336b-40d3-8177-5933c619331c","ios":"levelo://app?vid=13a33661-336b-40d3-8177-5933c619331c"},"vehicle_type_id":"4","last_reported":1746479380,"current_range_meters":16400,"station_id":"ce4bh3p2rcd13ifvqdq0","pricing_plan_id":"cebpf4jnsgd1na2vs0mg"},{"bike_id":"7a0a4cf5-0936-4801-9468-a954ccbbdb39","system_id":"levelo_inurba_marseille","lat":43.315216,"lon":5.380352,"is_reserved":false,"is_disabled":false,"rental_uris":{"android":"levelo://app?vid=7a0a4cf5-0936-4801-9468-a954ccbbdb39","ios":"levelo://app?vid=7a0a4cf5-0936-4801-9468-a954ccbbdb39"},"vehicle_type_id":"4","last_reported":1746479380,"current_range_meters":16400,"station_id":"ce4bhsp2rcd13ifvqi50","pricing_plan_id":"cebpf4jnsgd1na2vs0mg"},{"bike_id":"99097e50-dd2e-47c3-a879-f48655baf4d9","system_id":"levelo_inurba_marseille","lat":43.245955,"lon":5.408344,"is_reserved":false,"is_disabled":false,"rental_uris":{"android":"levelo://app?vid=99097e50-dd2e-47c3-a879-f48655baf4d9","ios":"levelo://app?vid=99097e50-dd2e-47c3-a879-f48655baf4d9"},"vehicle_type_id":"4","last_reported":1746479380,"current_range_meters":16400,"station_id":"","pricing_plan_id":"cebpf4jnsgd1na2vs0mg"},{"bike_id":"e3bb4c0a-ea28-4d8b-a92a-340ecfdd5f1d","system_id":"levelo_inurba_marseille","lat":43.310615,"lon":5.375475,"is_reserved":false,"is_disabled":false,"rental_uris":{"android":"levelo://app?vid=e3bb4c0a-ea28-4d8b-a92a-340ecfdd5f1d","ios":"levelo://app?vid=e3bb4c0a-ea28-4d8b-a92a-340ecfdd5f1d"},"vehicle_type_id":"4","last_reported":1746479380,"current_range_meters":16400,"station_id":"","pricing_plan_id":"cebpf4jnsgd1na2vs0mg"},{"bike_id":"bfb768d4-db43-4db8-8659-afeb33dd4edd","system_id":"levelo_inurba_marseille","lat":43.30711,"lon":5.42416,"is_reserved":false,"is_disabled":false,"rental_uris":{"android":"levelo://app?vid=bfb768d4-db43-4db8-8659-afeb33dd4edd","ios":"levelo://app?vid=bfb768d4-db43-4db8-8659-afeb33dd4edd"},"vehicle_type_id":"4","last_reported":1746479380,"current_range_meters":16400,"station_id":"st_cvj6ca6bvosntc0bfgr0","pricing_plan_id":"cebpf4jnsgd1na2vs0mg"},{"bike_id":"600d8ccf-a058-409a-b371-4dd8cc3bc656","system_id":"levelo_inurba_marseille","lat":43.287323,"lon":5.379234,"is_reserved":false,"is_disabled":false,"rental_uris":{"android":"levelo://app?vid=600d8ccf-a058-409a-b371-4dd8cc3bc656","ios":"levelo://app?vid=600d8ccf-a058-409a-b371-4dd8cc3bc656"},"vehicle_type_id":"4","last_reported":1746479380,"current_range_meters":16400,"station_id":"ce4bh9p2rcd13ifvqec0","pricing_plan_id":"cebpf4jnsgd1na2vs0mg"},{"bike_id":"7cae0e1e-8d77-4d10-a5c0-8eb65ea2bb8a","system_id":"levelo_inurba_marseille","lat":43.29502,"lon":5.39378,"is_reserved":false,"is_disabled":false,"rental_uris":{"android":"levelo://app?vid=7cae0e1e-8d77-4d10-a5c0-8eb65ea2bb8a","ios":"levelo://app?vid=7cae0e1e-8d77-4d10-a5c0-8eb65ea2bb8a"},"vehicle_type_id":"4","last_reported":1746479380,"current_range_meters":16400,"station_id":"ce4bh292rcd13ifvqdf0","pricing_plan_id":"cebpf4jnsgd1na2vs0mg"},{"bike_id":"62abd1a7-7a0b-4601-b7d9-44b92d8d2d1e","system_id":"levelo_inurba_marseille","lat":43.28109,"lon":5.37835,"is_reserved":false,"is_disabled":false,"rental_uris":{"android":"levelo://app?vid=62abd1a7-7a0b-4601-b7d9-44b92d8d2d1e","ios":"levelo://app?vid=62abd1a7-7a0b-4601-b7d9-44b92d8d2d1e"},"vehicle_type_id":"4","last_reported":1746479380,"current_range_meters":16800,"station_id":"ce4bha12rcd13ifvqee0","pricing_plan_id":"cebpf4jnsgd1na2vs0mg"},{"bike_id":"5987d684-ebbc-4e3b-9225-d827a0b9ff39","system_id":"levelo_inurba_marseille","lat":43.23953,"lon":5.36626,"is_reserved":false,"is_disabled":false,"rental_uris":{"android":"levelo://app?vid=5987d684-ebbc-4e3b-9225-d827a0b9ff39","ios":"levelo://app?vid=5987d684-ebbc-4e3b-9225-d827a0b9ff39"},"vehicle_type_id":"4","last_reported":1746479380,"current_range_meters":16800,"station_id":"ce4bhi12rcd13ifvqfp0","pricing_plan_id":"cebpf4jnsgd1na2vs0mg"},{"bike_id":"27563f88-1268-4b98-bc06-44e98c7ca400","system_id":"levelo_inurba_marseille","lat":43.320837,"lon":5.440891,"is_reserved":false,"is_disabled":false,"rental_uris":{"android":"levelo://app?vid=27563f88-1268-4b98-bc06-44e98c7ca400","ios":"levelo://app?vid=27563f88-1268-4b98-bc06-44e98c7ca400"},"vehicle_type_id":"4","last_reported":1746479380,"current_range_meters":16800,"station_id":"","pricing_plan_id":"cebpf4jnsgd1na2vs0mg"},{"bike_id":"68db1e13-3b7e-40af-83a2-a4203eac9c02","system_id":"levelo_inurba_marseille","lat":43.28111,"lon":5.37844,"is_reserved":false,"is_disabled":false,"rental_uris":{"android":"levelo://app?vid=68db1e13-3b7e-40af-83a2-a4203eac9c02","ios":"levelo://app?vid=68db1e13-3b7e-40af-83a2-a4203eac9c02"},"vehicle_type_id":"4","last_reported":1746479380,"current_range_meters":16800,"station_id":"ce4bha12rcd13ifvqee0","pricing_plan_id":"cebpf4jnsgd1na2vs0mg"},{"bike_id":"d80a186c-6cde-48d1-a6c4-cc1ccc278891","system_id":"levelo_inurba_marseille","lat":43.31708,"lon":5.43705,"is_reserved":false,"is_disabled":false,"rental_uris":{"android":"levelo://app?vid=d80a186c-6cde-48d1-a6c4-cc1ccc278891","ios":"levelo://app?vid=d80a186c-6cde-48d1-a6c4-cc1ccc278891"},"vehicle_type_id":"4","last_reported":1746479380,"current_range_meters":17200,"station_id":"ce4bhp92rcd13ifvqhcg","pricing_plan_id":"cebpf4jnsgd1na2vs0mg"},{"bike_id":"6ddb90f6-4587-4feb-9901-3dcd0e047bc2","system_id":"levelo_inurba_marseille","lat":43.2894,"lon":5.36634,"is_reserved":false,"is_disabled":false,"rental_uris":{"android":"levelo://app?vid=6ddb90f6-4587-4feb-9901-3dcd0e047bc2","ios":"levelo://app?vid=6ddb90f6-4587-4feb-9901-3dcd0e047bc2"},"vehicle_type_id":"4","last_reported":1746479380,"current_range_meters":17200,"station_id":"ce4bhap2rcd13ifvqek0","pricing_plan_id":"cebpf4jnsgd1na2vs0mg"},{"bike_id":"37407f92-0199-436e-844d-cbc7eb873446","system_id":"levelo_inurba_marseille","lat":43.31327,"lon":5.39679,"is_reserved":false,"is_disabled":false,"rental_uris":{"android":"levelo://app?vid=37407f92-0199-436e-844d-cbc7eb873446","ios":"levelo://app?vid=37407f92-0199-436e-844d-cbc7eb873446"},"vehicle_type_id":"4","last_reported":1746479380,"current_range_meters":16800,"station_id":"ce4bgvp2rcd13ifvqcu0","pricing_plan_id":"cebpf4jnsgd1na2vs0mg"},{"bike_id":"f74d4716-8133-4af7-8fac-1899104c29dd","system_id":"levelo_inurba_marseille","lat":43.293187,"lon":5.371696,"is_reserved":false,"is_disabled":false,"rental_uris":{"android":"levelo://app?vid=f74d4716-8133-4af7-8fac-1899104c29dd","ios":"levelo://app?vid=f74d4716-8133-4af7-8fac-1899104c29dd"},"vehicle_type_id":"4","last_reported":1746479380,"current_range_meters":17200,"station_id":"ce4bgh92rcd13ifvqb40","pricing_plan_id":"cebpf4jnsgd1na2vs0mg"},{"bike_id":"a07db7df-d212-4a63-ba71-2fc2a43e04a0","system_id":"levelo_inurba_marseille","lat":43.317143,"lon":5.437022,"is_reserved":false,"is_disabled":false,"rental_uris":{"android":"levelo://app?vid=a07db7df-d212-4a63-ba71-2fc2a43e04a0","ios":"levelo://app?vid=a07db7df-d212-4a63-ba71-2fc2a43e04a0"},"vehicle_type_id":"4","last_reported":1746479380,"current_range_meters":17200,"station_id":"ce4bhp92rcd13ifvqhcg","pricing_plan_id":"cebpf4jnsgd1na2vs0mg"},{"bike_id":"e96aed38-4a0d-4978-b6c9-65d6ecdea43d","system_id":"levelo_inurba_marseille","lat":43.29436,"lon":5.37825,"is_reserved":false,"is_disabled":true,"rental_uris":{"android":"levelo://app?vid=e96aed38-4a0d-4978-b6c9-65d6ecdea43d","ios":"levelo://app?vid=e96aed38-4a0d-4978-b6c9-65d6ecdea43d"},"vehicle_type_id":"4","last_reported":1746479380,"current_range_meters":17200,"station_id":"ce4bgjh2rcd13ifvqbf0","pricing_plan_id":"cebpf4jnsgd1na2vs0mg"},{"bike_id":"9e5dd783-1084-4c78-8bc6-5168bdab885c","system_id":"levelo_inurba_marseille","lat":43.29019,"lon":5.38127,"is_reserved":false,"is_disabled":false,"rental_uris":{"android":"levelo://app?vid=9e5dd783-1084-4c78-8bc6-5168bdab885c","ios":"levelo://app?vid=9e5dd783-1084-4c78-8bc6-5168bdab885c"},"vehicle_type_id":"4","last_reported":1746479380,"current_range_meters":17200,"station_id":"ce4bh4p2rcd13ifvqe1g","pricing_plan_id":"cebpf4jnsgd1na2vs0mg"},{"bike_id":"371ab18c-56ff-4352-aead-05f8ff2115c3","system_id":"levelo_inurba_marseille","lat":43.31489,"lon":5.37304,"is_reserved":false,"is_disabled":false,"rental_uris":{"android":"levelo://app?vid=371ab18c-56ff-4352-aead-05f8ff2115c3","ios":"levelo://app?vid=371ab18c-56ff-4352-aead-05f8ff2115c3"},"vehicle_type_id":"4","last_reported":1746479380,"current_range_meters":17600,"station_id":"ce4bgt12rcd13ifvqcd0","pricing_plan_id":"cebpf4jnsgd1na2vs0mg"},{"bike_id":"9175d517-3c9f-4a9d-9359-bc5552cd94b8","system_id":"levelo_inurba_marseille","lat":43.28596,"lon":5.35107,"is_reserved":false,"is_disabled":false,"rental_uris":{"android":"levelo://app?vid=9175d517-3c9f-4a9d-9359-bc5552cd94b8","ios":"levelo://app?vid=9175d517-3c9f-4a9d-9359-bc5552cd94b8"},"vehicle_type_id":"4","last_reported":1746479380,"current_range_meters":17600,"station_id":"ce4bhch2rcd13ifvqeug","pricing_plan_id":"cebpf4jnsgd1na2vs0mg"},{"bike_id":"5e95451b-37a9-49e6-9647-f4543fb5556d","system_id":"levelo_inurba_marseille","lat":43.269367,"lon":5.402636,"is_reserved":false,"is_disabled":false,"rental_uris":{"android":"levelo://app?vid=5e95451b-37a9-49e6-9647-f4543fb5556d","ios":"levelo://app?vid=5e95451b-37a9-49e6-9647-f4543fb5556d"},"vehicle_type_id":"4","last_reported":1746479380,"current_range_meters":17200,"station_id":"cjm6bp8fraef2m0cb0m0","pricing_plan_id":"cebpf4jnsgd1na2vs0mg"},{"bike_id":"63a15020-6909-43f9-8614-e2fa8f24fa11","system_id":"levelo_inurba_marseille","lat":43.31361,"lon":5.385133,"is_reserved":false,"is_disabled":false,"rental_uris":{"android":"levelo://app?vid=63a15020-6909-43f9-8614-e2fa8f24fa11","ios":"levelo://app?vid=63a15020-6909-43f9-8614-e2fa8f24fa11"},"vehicle_type_id":"4","last_reported":1746479380,"current_range_meters":17600,"station_id":"ce4bgt92rcd13ifvqcf0","pricing_plan_id":"cebpf4jnsgd1na2vs0mg"},{"bike_id":"89d3f377-5a64-405e-ad75-45e8469ae3f6","system_id":"levelo_inurba_marseille","lat":43.2694,"lon":5.40258,"is_reserved":false,"is_disabled":true,"rental_uris":{"android":"levelo://app?vid=89d3f377-5a64-405e-ad75-45e8469ae3f6","ios":"levelo://app?vid=89d3f377-5a64-405e-ad75-45e8469ae3f6"},"vehicle_type_id":"4","last_reported":1746479380,"current_range_meters":17600,"station_id":"cjm6bp8fraef2m0cb0m0","pricing_plan_id":"cebpf4jnsgd1na2vs0mg"},{"bike_id":"d1aa6e5d-6beb-440c-afb6-1d488c12e5a1","system_id":"levelo_inurba_marseille","lat":43.32074,"lon":5.36758,"is_reserved":false,"is_disabled":false,"rental_uris":{"android":"levelo://app?vid=d1aa6e5d-6beb-440c-afb6-1d488c12e5a1","ios":"levelo://app?vid=d1aa6e5d-6beb-440c-afb6-1d488c12e5a1"},"vehicle_type_id":"4","last_reported":1746479380,"current_range_meters":17600,"station_id":"","pricing_plan_id":"cebpf4jnsgd1na2vs0mg"},{"bike_id":"24616366-4787-4f02-a31b-2241651566f8","system_id":"levelo_inurba_marseille","lat":43.28743,"lon":5.36077,"is_reserved":false,"is_disabled":false,"rental_uris":{"android":"levelo://app?vid=24616366-4787-4f02-a31b-2241651566f8","ios":"levelo://app?vid=24616366-4787-4f02-a31b-2241651566f8"},"vehicle_type_id":"4","last_reported":1746479380,"current_range_meters":18000,"station_id":"cki0cbj6b192h4jlfktg","pricing_plan_id":"cebpf4jnsgd1na2vs0mg"},{"bike_id":"03bb5049-51e5-461e-8353-3cc13edfbfb8","system_id":"levelo_inurba_marseille","lat":43.23953,"lon":5.36638,"is_reserved":false,"is_disabled":false,"rental_uris":{"android":"levelo://app?vid=03bb5049-51e5-461e-8353-3cc13edfbfb8","ios":"levelo://app?vid=03bb5049-51e5-461e-8353-3cc13edfbfb8"},"vehicle_type_id":"4","last_reported":1746479380,"current_range_meters":18000,"station_id":"ce4bhi12rcd13ifvqfp0","pricing_plan_id":"cebpf4jnsgd1na2vs0mg"},{"bike_id":"3ffc9422-c08c-4354-ae04-94f20c056ada","system_id":"levelo_inurba_marseille","lat":43.26801,"lon":5.40268,"is_reserved":false,"is_disabled":false,"rental_uris":{"android":"levelo://app?vid=3ffc9422-c08c-4354-ae04-94f20c056ada","ios":"levelo://app?vid=3ffc9422-c08c-4354-ae04-94f20c056ada"},"vehicle_type_id":"4","last_reported":1746479380,"current_range_meters":18000,"station_id":"ce501612rcd8frsf0b60","pricing_plan_id":"cebpf4jnsgd1na2vs0mg"},{"bike_id":"e913cf30-eb5e-4abe-8900-12e0ae6d43b8","system_id":"levelo_inurba_marseille","lat":43.286963,"lon":5.373843,"is_reserved":false,"is_disabled":false,"rental_uris":{"android":"levelo://app?vid=e913cf30-eb5e-4abe-8900-12e0ae6d43b8","ios":"levelo://app?vid=e913cf30-eb5e-4abe-8900-12e0ae6d43b8"},"vehicle_type_id":"4","last_reported":1746479380,"current_range_meters":18000,"station_id":"ce4bh3p2rcd13ifvqdq0","pricing_plan_id":"cebpf4jnsgd1na2vs0mg"},{"bike_id":"a327ed7c-cb3d-44b1-bb3d-7951cd226f01","system_id":"levelo_inurba_marseille","lat":43.293396,"lon":5.371296,"is_reserved":false,"is_disabled":false,"rental_uris":{"android":"levelo://app?vid=a327ed7c-cb3d-44b1-bb3d-7951cd226f01","ios":"levelo://app?vid=a327ed7c-cb3d-44b1-bb3d-7951cd226f01"},"vehicle_type_id":"4","last_reported":1746479380,"current_range_meters":18000,"station_id":"","pricing_plan_id":"cebpf4jnsgd1na2vs0mg"},{"bike_id":"6ce81efa-e8f3-477a-b7a1-a1c58c727c56","system_id":"levelo_inurba_marseille","lat":43.21187,"lon":5.35071,"is_reserved":false,"is_disabled":false,"rental_uris":{"android":"levelo://app?vid=6ce81efa-e8f3-477a-b7a1-a1c58c727c56","ios":"levelo://app?vid=6ce81efa-e8f3-477a-b7a1-a1c58c727c56"},"vehicle_type_id":"4","last_reported":1746479380,"current_range_meters":18000,"station_id":"","pricing_plan_id":"cebpf4jnsgd1na2vs0mg"},{"bike_id":"f8951e71-e6d6-4079-85a7-64eca3dfb50c","system_id":"levelo_inurba_marseille","lat":43.24183,"lon":5.39727,"is_reserved":false,"is_disabled":false,"rental_uris":{"android":"levelo://app?vid=f8951e71-e6d6-4079-85a7-64eca3dfb50c","ios":"levelo://app?vid=f8951e71-e6d6-4079-85a7-64eca3dfb50c"},"vehicle_type_id":"4","last_reported":1746479380,"current_range_meters":18000,"station_id":"ce4bhn12rcd13ifvqgpg","pricing_plan_id":"cebpf4jnsgd1na2vs0mg"},{"bike_id":"82f4dc22-101f-465e-a26a-59bc1ffb8cd4","system_id":"levelo_inurba_marseille","lat":43.2841,"lon":5.37503,"is_reserved":false,"is_disabled":false,"rental_uris":{"android":"levelo://app?vid=82f4dc22-101f-465e-a26a-59bc1ffb8cd4","ios":"levelo://app?vid=82f4dc22-101f-465e-a26a-59bc1ffb8cd4"},"vehicle_type_id":"4","last_reported":1746479380,"current_range_meters":18800,"station_id":"ce4bh412rcd13ifvqds0","pricing_plan_id":"cebpf4jnsgd1na2vs0mg"},{"bike_id":"95cb813b-9266-44b9-a68b-7aa79bf3eb36","system_id":"levelo_inurba_marseille","lat":43.32681,"lon":5.40981,"is_reserved":false,"is_disabled":true,"rental_uris":{"android":"levelo://app?vid=95cb813b-9266-44b9-a68b-7aa79bf3eb36","ios":"levelo://app?vid=95cb813b-9266-44b9-a68b-7aa79bf3eb36"},"vehicle_type_id":"4","last_reported":1746479380,"current_range_meters":18800,"station_id":"ce4bhpp2rcd13ifvqhgg","pricing_plan_id":"cebpf4jnsgd1na2vs0mg"},{"bike_id":"e0a0fb85-9539-4fb6-b21f-392540fb8a26","system_id":"levelo_inurba_marseille","lat":43.32397,"lon":5.36771,"is_reserved":false,"is_disabled":false,"rental_uris":{"android":"levelo://app?vid=e0a0fb85-9539-4fb6-b21f-392540fb8a26","ios":"levelo://app?vid=e0a0fb85-9539-4fb6-b21f-392540fb8a26"},"vehicle_type_id":"4","last_reported":1746479380,"current_range_meters":18800,"station_id":"ce4bhsh2rcd13ifvqi2g","pricing_plan_id":"cebpf4jnsgd1na2vs0mg"},{"bike_id":"45d8f20b-d479-405d-a1a6-63a2cb4cc7d3","system_id":"levelo_inurba_marseille","lat":43.28075,"lon":5.39649,"is_reserved":false,"is_disabled":false,"rental_uris":{"android":"levelo://app?vid=45d8f20b-d479-405d-a1a6-63a2cb4cc7d3","ios":"levelo://app?vid=45d8f20b-d479-405d-a1a6-63a2cb4cc7d3"},"vehicle_type_id":"4","last_reported":1746479380,"current_range_meters":18800,"station_id":"ce4bho12rcd13ifvqh2g","pricing_plan_id":"cebpf4jnsgd1na2vs0mg"},{"bike_id":"ad3e95d1-33fd-4c52-8138-33e1a87f9b95","system_id":"levelo_inurba_marseille","lat":43.23197,"lon":5.35549,"is_reserved":false,"is_disabled":false,"rental_uris":{"android":"levelo://app?vid=ad3e95d1-33fd-4c52-8138-33e1a87f9b95","ios":"levelo://app?vid=ad3e95d1-33fd-4c52-8138-33e1a87f9b95"},"vehicle_type_id":"4","last_reported":1746479380,"current_range_meters":18800,"station_id":"ce4bhu92rcd13ifvqi70","pricing_plan_id":"cebpf4jnsgd1na2vs0mg"},{"bike_id":"ceabe490-1f11-4366-85ad-8996dd4944f3","system_id":"levelo_inurba_marseille","lat":43.29303,"lon":5.37171,"is_reserved":false,"is_disabled":true,"rental_uris":{"android":"levelo://app?vid=ceabe490-1f11-4366-85ad-8996dd4944f3","ios":"levelo://app?vid=ceabe490-1f11-4366-85ad-8996dd4944f3"},"vehicle_type_id":"4","last_reported":1746479380,"current_range_meters":18800,"station_id":"ce4bgh92rcd13ifvqb40","pricing_plan_id":"cebpf4jnsgd1na2vs0mg"},{"bike_id":"53328bff-7e06-44bd-9749-4901e317ce40","system_id":"levelo_inurba_marseille","lat":43.32999,"lon":5.39052,"is_reserved":false,"is_disabled":false,"rental_uris":{"android":"levelo://app?vid=53328bff-7e06-44bd-9749-4901e317ce40","ios":"levelo://app?vid=53328bff-7e06-44bd-9749-4901e317ce40"},"vehicle_type_id":"4","last_reported":1746479380,"current_range_meters":18000,"station_id":"ce4bhr92rcd13ifvqhrg","pricing_plan_id":"cebpf4jnsgd1na2vs0mg"},{"bike_id":"46a428a1-3a45-4310-8fc1-8ac5239110b0","system_id":"levelo_inurba_marseille","lat":43.25816,"lon":5.3943,"is_reserved":false,"is_disabled":false,"rental_uris":{"android":"levelo://app?vid=46a428a1-3a45-4310-8fc1-8ac5239110b0","ios":"levelo://app?vid=46a428a1-3a45-4310-8fc1-8ac5239110b0"},"vehicle_type_id":"4","last_reported":1746479380,"current_range_meters":18800,"station_id":"ce4bhip2rcd13ifvqft0","pricing_plan_id":"cebpf4jnsgd1na2vs0mg"},{"bike_id":"13d72c90-097d-44e3-a161-c92142027aeb","system_id":"levelo_inurba_marseille","lat":43.32101,"lon":5.36786,"is_reserved":false,"is_disabled":false,"rental_uris":{"android":"levelo://app?vid=13d72c90-097d-44e3-a161-c92142027aeb","ios":"levelo://app?vid=13d72c90-097d-44e3-a161-c92142027aeb"},"vehicle_type_id":"4","last_reported":1746479380,"current_range_meters":18800,"station_id":"ce4bhrh2rcd13ifvqhug","pricing_plan_id":"cebpf4jnsgd1na2vs0mg"},{"bike_id":"b3aa9a90-cfa7-44d5-81c1-79b34ebac7f1","system_id":"levelo_inurba_marseille","lat":43.27674,"lon":5.38877,"is_reserved":false,"is_disabled":false,"rental_uris":{"android":"levelo://app?vid=b3aa9a90-cfa7-44d5-81c1-79b34ebac7f1","ios":"levelo://app?vid=b3aa9a90-cfa7-44d5-81c1-79b34ebac7f1"},"vehicle_type_id":"4","last_reported":1746479380,"current_range_meters":18800,"station_id":"ce4bhi12rcd13ifvqfo0","pricing_plan_id":"cebpf4jnsgd1na2vs0mg"},{"bike_id":"c28a0e8c-3ba8-4101-a909-a6391d33b7de","system_id":"levelo_inurba_marseille","lat":43.30335,"lon":5.40427,"is_reserved":false,"is_disabled":false,"rental_uris":{"android":"levelo://app?vid=c28a0e8c-3ba8-4101-a909-a6391d33b7de","ios":"levelo://app?vid=c28a0e8c-3ba8-4101-a909-a6391d33b7de"},"vehicle_type_id":"4","last_reported":1746479380,"current_range_meters":18800,"station_id":"ce4bh012rcd13ifvqd10","pricing_plan_id":"cebpf4jnsgd1na2vs0mg"},{"bike_id":"e1f94d6b-e598-49a1-a527-85b302127dd3","system_id":"levelo_inurba_marseille","lat":43.29195,"lon":5.39323,"is_reserved":false,"is_disabled":false,"rental_uris":{"android":"levelo://app?vid=e1f94d6b-e598-49a1-a527-85b302127dd3","ios":"levelo://app?vid=e1f94d6b-e598-49a1-a527-85b302127dd3"},"vehicle_type_id":"4","last_reported":1746479380,"current_range_meters":19200,"station_id":"ce4bh192rcd13ifvqdd0","pricing_plan_id":"cebpf4jnsgd1na2vs0mg"},{"bike_id":"6754dd71-95b8-439b-aa68-2ee1fd4c8732","system_id":"levelo_inurba_marseille","lat":43.28721,"lon":5.36092,"is_reserved":false,"is_disabled":false,"rental_uris":{"android":"levelo://app?vid=6754dd71-95b8-439b-aa68-2ee1fd4c8732","ios":"levelo://app?vid=6754dd71-95b8-439b-aa68-2ee1fd4c8732"},"vehicle_type_id":"4","last_reported":1746479380,"current_range_meters":19200,"station_id":"cki0cbj6b192h4jlfktg","pricing_plan_id":"cebpf4jnsgd1na2vs0mg"},{"bike_id":"4bdbfa2a-ffc0-4860-819c-6326869a5a0f","system_id":"levelo_inurba_marseille","lat":43.287254,"lon":5.36087,"is_reserved":false,"is_disabled":false,"rental_uris":{"android":"levelo://app?vid=4bdbfa2a-ffc0-4860-819c-6326869a5a0f","ios":"levelo://app?vid=4bdbfa2a-ffc0-4860-819c-6326869a5a0f"},"vehicle_type_id":"4","last_reported":1746479380,"current_range_meters":19200,"station_id":"cki0cbj6b192h4jlfktg","pricing_plan_id":"cebpf4jnsgd1na2vs0mg"},{"bike_id":"e5d31766-6aa5-44d9-9ddb-73dc8245cc4e","system_id":"levelo_inurba_marseille","lat":43.28702,"lon":5.39957,"is_reserved":false,"is_disabled":false,"rental_uris":{"android":"levelo://app?vid=e5d31766-6aa5-44d9-9ddb-73dc8245cc4e","ios":"levelo://app?vid=e5d31766-6aa5-44d9-9ddb-73dc8245cc4e"},"vehicle_type_id":"4","last_reported":1746479380,"current_range_meters":19200,"station_id":"ce4bho92rcd13ifvqh3g","pricing_plan_id":"cebpf4jnsgd1na2vs0mg"},{"bike_id":"bb57f667-396d-4003-ae12-13bf8f696902","system_id":"levelo_inurba_marseille","lat":43.27942,"lon":5.41027,"is_reserved":false,"is_disabled":false,"rental_uris":{"android":"levelo://app?vid=bb57f667-396d-4003-ae12-13bf8f696902","ios":"levelo://app?vid=bb57f667-396d-4003-ae12-13bf8f696902"},"vehicle_type_id":"4","last_reported":1746479380,"current_range_meters":19200,"station_id":"ce4bhnp2rcd13ifvqh0g","pricing_plan_id":"cebpf4jnsgd1na2vs0mg"},{"bike_id":"1da19ea6-6a7b-4d32-ab19-7ca625be006f","system_id":"levelo_inurba_marseille","lat":43.32049,"lon":5.41541,"is_reserved":false,"is_disabled":false,"rental_uris":{"android":"levelo://app?vid=1da19ea6-6a7b-4d32-ab19-7ca625be006f","ios":"levelo://app?vid=1da19ea6-6a7b-4d32-ab19-7ca625be006f"},"vehicle_type_id":"4","last_reported":1746479380,"current_range_meters":19200,"station_id":"ce4bhq92rcd13ifvqhkg","pricing_plan_id":"cebpf4jnsgd1na2vs0mg"},{"bike_id":"144c51af-426b-42d7-b56e-922177862b14","system_id":"levelo_inurba_marseille","lat":43.31075,"lon":5.38366,"is_reserved":false,"is_disabled":false,"rental_uris":{"android":"levelo://app?vid=144c51af-426b-42d7-b56e-922177862b14","ios":"levelo://app?vid=144c51af-426b-42d7-b56e-922177862b14"},"vehicle_type_id":"4","last_reported":1746479380,"current_range_meters":19200,"station_id":"ce4bgv92rcd13ifvqcr0","pricing_plan_id":"cebpf4jnsgd1na2vs0mg"},{"bike_id":"c62fd55f-de7f-4014-91df-b37ef09baaf5","system_id":"levelo_inurba_marseille","lat":43.28724,"lon":5.37942,"is_reserved":false,"is_disabled":false,"rental_uris":{"android":"levelo://app?vid=c62fd55f-de7f-4014-91df-b37ef09baaf5","ios":"levelo://app?vid=c62fd55f-de7f-4014-91df-b37ef09baaf5"},"vehicle_type_id":"4","last_reported":1746479380,"current_range_meters":19200,"station_id":"ce4bh9p2rcd13ifvqec0","pricing_plan_id":"cebpf4jnsgd1na2vs0mg"},{"bike_id":"25ff4de7-598e-4258-b035-b19e39066987","system_id":"levelo_inurba_marseille","lat":43.24669,"lon":5.38162,"is_reserved":false,"is_disabled":false,"rental_uris":{"android":"levelo://app?vid=25ff4de7-598e-4258-b035-b19e39066987","ios":"levelo://app?vid=25ff4de7-598e-4258-b035-b19e39066987"},"vehicle_type_id":"4","last_reported":1746479380,"current_range_meters":19200,"station_id":"ce4bhih2rcd13ifvqfr0","pricing_plan_id":"cebpf4jnsgd1na2vs0mg"},{"bike_id":"e137adc0-a2f8-4dd9-8018-ae34547185e2","system_id":"levelo_inurba_marseille","lat":43.28455,"lon":5.35888,"is_reserved":false,"is_disabled":false,"rental_uris":{"android":"levelo://app?vid=e137adc0-a2f8-4dd9-8018-ae34547185e2","ios":"levelo://app?vid=e137adc0-a2f8-4dd9-8018-ae34547185e2"},"vehicle_type_id":"4","last_reported":1746479380,"current_range_meters":19200,"station_id":"ce4bhah2rcd13ifvqei0","pricing_plan_id":"cebpf4jnsgd1na2vs0mg"},{"bike_id":"ca0c56c5-82fc-40a2-9a8e-408f18747063","system_id":"levelo_inurba_marseille","lat":43.27621,"lon":5.3611,"is_reserved":false,"is_disabled":false,"rental_uris":{"android":"levelo://app?vid=ca0c56c5-82fc-40a2-9a8e-408f18747063","ios":"levelo://app?vid=ca0c56c5-82fc-40a2-9a8e-408f18747063"},"vehicle_type_id":"4","last_reported":1746479380,"current_range_meters":19600,"station_id":"ce4bgj92rcd13ifvqbe0","pricing_plan_id":"cebpf4jnsgd1na2vs0mg"},{"bike_id":"b9e30614-8f53-4595-a06a-7d0a229bf205","system_id":"levelo_inurba_marseille","lat":43.31887,"lon":5.40743,"is_reserved":false,"is_disabled":false,"rental_uris":{"android":"levelo://app?vid=b9e30614-8f53-4595-a06a-7d0a229bf205","ios":"levelo://app?vid=b9e30614-8f53-4595-a06a-7d0a229bf205"},"vehicle_type_id":"4","last_reported":1746479380,"current_range_meters":19600,"station_id":"","pricing_plan_id":"cebpf4jnsgd1na2vs0mg"},{"bike_id":"c871eee8-0da6-4377-a846-0bf7400cb3c3","system_id":"levelo_inurba_marseille","lat":43.27811,"lon":5.40711,"is_reserved":false,"is_disabled":true,"rental_uris":{"android":"levelo://app?vid=c871eee8-0da6-4377-a846-0bf7400cb3c3","ios":"levelo://app?vid=c871eee8-0da6-4377-a846-0bf7400cb3c3"},"vehicle_type_id":"4","last_reported":1746479380,"current_range_meters":19600,"station_id":"ce4bhnh2rcd13ifvqgtg","pricing_plan_id":"cebpf4jnsgd1na2vs0mg"},{"bike_id":"c2cd6a5b-eeb7-4ce9-af69-f711c4aff793","system_id":"levelo_inurba_marseille","lat":43.28721,"lon":5.37929,"is_reserved":false,"is_disabled":false,"rental_uris":{"android":"levelo://app?vid=c2cd6a5b-eeb7-4ce9-af69-f711c4aff793","ios":"levelo://app?vid=c2cd6a5b-eeb7-4ce9-af69-f711c4aff793"},"vehicle_type_id":"4","last_reported":1746479380,"current_range_meters":19600,"station_id":"ce4bh9p2rcd13ifvqec0","pricing_plan_id":"cebpf4jnsgd1na2vs0mg"},{"bike_id":"d0e17230-ce14-4bbf-8173-34c1444b9704","system_id":"levelo_inurba_marseille","lat":43.30146,"lon":5.39862,"is_reserved":false,"is_disabled":true,"rental_uris":{"android":"levelo://app?vid=d0e17230-ce14-4bbf-8173-34c1444b9704","ios":"levelo://app?vid=d0e17230-ce14-4bbf-8173-34c1444b9704"},"vehicle_type_id":"4","last_reported":1746479380,"current_range_meters":20000,"station_id":"ce4bh0h2rcd13ifvqd40","pricing_plan_id":"cebpf4jnsgd1na2vs0mg"},{"bike_id":"2714f713-c769-4f6a-ac44-441a635e9cba","system_id":"levelo_inurba_marseille","lat":43.21606,"lon":5.34215,"is_reserved":false,"is_disabled":false,"rental_uris":{"android":"levelo://app?vid=2714f713-c769-4f6a-ac44-441a635e9cba","ios":"levelo://app?vid=2714f713-c769-4f6a-ac44-441a635e9cba"},"vehicle_type_id":"4","last_reported":1746479380,"current_range_meters":20000,"station_id":"","pricing_plan_id":"cebpf4jnsgd1na2vs0mg"},{"bike_id":"a51eea62-80fa-4b6a-b2bf-7a993dcf0fcb","system_id":"levelo_inurba_marseille","lat":43.323558,"lon":5.367609,"is_reserved":false,"is_disabled":false,"rental_uris":{"android":"levelo://app?vid=a51eea62-80fa-4b6a-b2bf-7a993dcf0fcb","ios":"levelo://app?vid=a51eea62-80fa-4b6a-b2bf-7a993dcf0fcb"},"vehicle_type_id":"4","last_reported":1746479380,"current_range_meters":20000,"station_id":"ce4bhsh2rcd13ifvqi2g","pricing_plan_id":"cebpf4jnsgd1na2vs0mg"},{"bike_id":"0a0d9773-2c8e-4202-915e-befc3928ea8c","system_id":"levelo_inurba_marseille","lat":43.28858,"lon":5.39311,"is_reserved":false,"is_disabled":true,"rental_uris":{"android":"levelo://app?vid=0a0d9773-2c8e-4202-915e-befc3928ea8c","ios":"levelo://app?vid=0a0d9773-2c8e-4202-915e-befc3928ea8c"},"vehicle_type_id":"4","last_reported":1746479380,"current_range_meters":20400,"station_id":"ce4bh2p2rcd13ifvqdi0","pricing_plan_id":"cebpf4jnsgd1na2vs0mg"},{"bike_id":"37cb95bf-ed56-4ab4-a156-dbc654da35df","system_id":"levelo_inurba_marseille","lat":43.25933,"lon":5.40881,"is_reserved":false,"is_disabled":true,"rental_uris":{"android":"levelo://app?vid=37cb95bf-ed56-4ab4-a156-dbc654da35df","ios":"levelo://app?vid=37cb95bf-ed56-4ab4-a156-dbc654da35df"},"vehicle_type_id":"4","last_reported":1746479380,"current_range_meters":20400,"station_id":"ce4bhm92rcd13ifvqglg","pricing_plan_id":"cebpf4jnsgd1na2vs0mg"},{"bike_id":"6db740dd-773c-439d-b791-a0b50edbc88c","system_id":"levelo_inurba_marseille","lat":43.30428,"lon":5.38882,"is_reserved":false,"is_disabled":false,"rental_uris":{"android":"levelo://app?vid=6db740dd-773c-439d-b791-a0b50edbc88c","ios":"levelo://app?vid=6db740dd-773c-439d-b791-a0b50edbc88c"},"vehicle_type_id":"4","last_reported":1746479380,"current_range_meters":20400,"station_id":"ce4bgk12rcd13ifvqbi0","pricing_plan_id":"cebpf4jnsgd1na2vs0mg"},{"bike_id":"5a0a0e89-6fa0-4278-8ce1-cea47b4b09ff","system_id":"levelo_inurba_marseille","lat":43.30797,"lon":5.38147,"is_reserved":false,"is_disabled":false,"rental_uris":{"android":"levelo://app?vid=5a0a0e89-6fa0-4278-8ce1-cea47b4b09ff","ios":"levelo://app?vid=5a0a0e89-6fa0-4278-8ce1-cea47b4b09ff"},"vehicle_type_id":"4","last_reported":1746479380,"current_range_meters":20400,"station_id":"ce4bgt12rcd13ifvqce0","pricing_plan_id":"cebpf4jnsgd1na2vs0mg"},{"bike_id":"62691767-40f7-43ec-b717-4215cb684fb0","system_id":"levelo_inurba_marseille","lat":43.30881,"lon":5.39627,"is_reserved":false,"is_disabled":false,"rental_uris":{"android":"levelo://app?vid=62691767-40f7-43ec-b717-4215cb684fb0","ios":"levelo://app?vid=62691767-40f7-43ec-b717-4215cb684fb0"},"vehicle_type_id":"4","last_reported":1746479380,"current_range_meters":20000,"station_id":"ce4bh012rcd13ifvqcv0","pricing_plan_id":"cebpf4jnsgd1na2vs0mg"},{"bike_id":"684e19a7-74a6-4cef-a3a3-24f375085937","system_id":"levelo_inurba_marseille","lat":43.27175,"lon":5.40997,"is_reserved":false,"is_disabled":false,"rental_uris":{"android":"levelo://app?vid=684e19a7-74a6-4cef-a3a3-24f375085937","ios":"levelo://app?vid=684e19a7-74a6-4cef-a3a3-24f375085937"},"vehicle_type_id":"4","last_reported":1746479380,"current_range_meters":20400,"station_id":"ce4bhl12rcd13ifvqgf0","pricing_plan_id":"cebpf4jnsgd1na2vs0mg"},{"bike_id":"b4bac287-3615-423a-bca2-a11fb80cb066","system_id":"levelo_inurba_marseille","lat":43.230509,"lon":5.35502,"is_reserved":false,"is_disabled":false,"rental_uris":{"android":"levelo://app?vid=b4bac287-3615-423a-bca2-a11fb80cb066","ios":"levelo://app?vid=b4bac287-3615-423a-bca2-a11fb80cb066"},"vehicle_type_id":"4","last_reported":1746479380,"current_range_meters":20800,"station_id":"cpo3342slgdg3j2ifvpg","pricing_plan_id":"cebpf4jnsgd1na2vs0mg"},{"bike_id":"2da31cc4-9f3b-4ce0-a4c4-23b0630f25fd","system_id":"levelo_inurba_marseille","lat":43.29073,"lon":5.37174,"is_reserved":false,"is_disabled":false,"rental_uris":{"android":"levelo://app?vid=2da31cc4-9f3b-4ce0-a4c4-23b0630f25fd","ios":"levelo://app?vid=2da31cc4-9f3b-4ce0-a4c4-23b0630f25fd"},"vehicle_type_id":"4","last_reported":1746479380,"current_range_meters":20400,"station_id":"ce4bh5p2rcd13ifvqe4g","pricing_plan_id":"cebpf4jnsgd1na2vs0mg"},{"bike_id":"ac700e2e-c129-4f82-a3c3-f628077933a6","system_id":"levelo_inurba_marseille","lat":43.21217,"lon":5.35058,"is_reserved":false,"is_disabled":false,"rental_uris":{"android":"levelo://app?vid=ac700e2e-c129-4f82-a3c3-f628077933a6","ios":"levelo://app?vid=ac700e2e-c129-4f82-a3c3-f628077933a6"},"vehicle_type_id":"4","last_reported":1746479380,"current_range_meters":20800,"station_id":"st_cvj6sg6p6f1abm77japg","pricing_plan_id":"cebpf4jnsgd1na2vs0mg"},{"bike_id":"f23d3295-21f5-49d0-a5ec-3ef3003e866d","system_id":"levelo_inurba_marseille","lat":43.22959,"lon":5.35377,"is_reserved":false,"is_disabled":false,"rental_uris":{"android":"levelo://app?vid=f23d3295-21f5-49d0-a5ec-3ef3003e866d","ios":"levelo://app?vid=f23d3295-21f5-49d0-a5ec-3ef3003e866d"},"vehicle_type_id":"4","last_reported":1746479380,"current_range_meters":20800,"station_id":"cpo3532slgdg3j2ikp40","pricing_plan_id":"cebpf4jnsgd1na2vs0mg"},{"bike_id":"c65850d4-e20b-47ef-9a62-21e7d886f9dd","system_id":"levelo_inurba_marseille","lat":43.24669,"lon":5.38165,"is_reserved":false,"is_disabled":false,"rental_uris":{"android":"levelo://app?vid=c65850d4-e20b-47ef-9a62-21e7d886f9dd","ios":"levelo://app?vid=c65850d4-e20b-47ef-9a62-21e7d886f9dd"},"vehicle_type_id":"4","last_reported":1746479380,"current_range_meters":21600,"station_id":"ce4bhih2rcd13ifvqfr0","pricing_plan_id":"cebpf4jnsgd1na2vs0mg"},{"bike_id":"d8a3f5c8-313d-4ba1-b5ce-c69590b9ae3a","system_id":"levelo_inurba_marseille","lat":43.311643,"lon":5.387171,"is_reserved":false,"is_disabled":false,"rental_uris":{"android":"levelo://app?vid=d8a3f5c8-313d-4ba1-b5ce-c69590b9ae3a","ios":"levelo://app?vid=d8a3f5c8-313d-4ba1-b5ce-c69590b9ae3a"},"vehicle_type_id":"4","last_reported":1746479380,"current_range_meters":21600,"station_id":"ce4bgv12rcd13ifvqcp0","pricing_plan_id":"cebpf4jnsgd1na2vs0mg"},{"bike_id":"f2fbfa31-e93d-4bed-bbe2-c16242033585","system_id":"levelo_inurba_marseille","lat":43.310822,"lon":5.400918,"is_reserved":false,"is_disabled":false,"rental_uris":{"android":"levelo://app?vid=f2fbfa31-e93d-4bed-bbe2-c16242033585","ios":"levelo://app?vid=f2fbfa31-e93d-4bed-bbe2-c16242033585"},"vehicle_type_id":"4","last_reported":1746479380,"current_range_meters":21600,"station_id":"ce4bhq12rcd13ifvqhig","pricing_plan_id":"cebpf4jnsgd1na2vs0mg"},{"bike_id":"4fd0a572-09cc-480d-b88e-e1d7dc554ab9","system_id":"levelo_inurba_marseille","lat":43.23964,"lon":5.36633,"is_reserved":false,"is_disabled":false,"rental_uris":{"android":"levelo://app?vid=4fd0a572-09cc-480d-b88e-e1d7dc554ab9","ios":"levelo://app?vid=4fd0a572-09cc-480d-b88e-e1d7dc554ab9"},"vehicle_type_id":"4","last_reported":1746479380,"current_range_meters":21600,"station_id":"ce4bhi12rcd13ifvqfp0","pricing_plan_id":"cebpf4jnsgd1na2vs0mg"},{"bike_id":"631fd0d9-3924-40be-ab56-22cc784724c8","system_id":"levelo_inurba_marseille","lat":43.29866,"lon":5.39745,"is_reserved":false,"is_disabled":false,"rental_uris":{"android":"levelo://app?vid=631fd0d9-3924-40be-ab56-22cc784724c8","ios":"levelo://app?vid=631fd0d9-3924-40be-ab56-22cc784724c8"},"vehicle_type_id":"4","last_reported":1746479380,"current_range_meters":22000,"station_id":"ce4bh0h2rcd13ifvqd50","pricing_plan_id":"cebpf4jnsgd1na2vs0mg"},{"bike_id":"b5f925dc-e712-4427-b50f-50d149dfbeb2","system_id":"levelo_inurba_marseille","lat":43.29553,"lon":5.42278,"is_reserved":false,"is_disabled":false,"rental_uris":{"android":"levelo://app?vid=b5f925dc-e712-4427-b50f-50d149dfbeb2","ios":"levelo://app?vid=b5f925dc-e712-4427-b50f-50d149dfbeb2"},