{"last_updated":1721592578,"ttl":30,"version":"2.2","data":{"bikes":[{"bike_id":"64a2c8c7-52c3-4b85-a4f7-5fa54279831d","system_id":"levelo_inurba_marseille","lat":43.312239,"lon":5.368562,"is_reserved":false,"is_disabled":false,"rental_uris":{"android":"levelo://app?vid=64a2c8c7-52c3-4b85-a4f7-5fa54279831d","ios":"levelo://app?vid=64a2c8c7-52c3-4b85-a4f7-5fa54279831d"},"vehicle_type_id":"4","last_reported":1721592578,"current_range_meters":7600,"station_id":"ce4bgl92rcd13ifvqbq0","pricing_plan_id":"cebpf4jnsgd1na2vs0mg"},{"bike_id":"6eebb111-e223-4f5c-a8dd-452ca2ba78cc","system_id":"levelo_inurba_marseille","lat":43.309076,"lon":5.368465,"is_reserved":false,"is_disabled":false,"rental_uris":{"android":"levelo://app?vid=6eebb111-e223-4f5c-a8dd-452ca2ba78cc","ios":"levelo://app?vid=6eebb111-e223-4f5c-a8dd-452ca2ba78cc"},"vehicle_type_id":"4","last_reported":1721592578,"current_range_meters":14400,"station_id":"ce4bgn92rcd13ifvqbvg","pricing_plan_id":"cebpf4jnsgd1na2vs0mg"},{"bike_id":"5c2ec1f5-eeaa-4c8a-aeb5-a78eb409afcb","system_id":"levelo_inurba_marseille","lat":43.314811,"lon":5.373103,"is_reserved":false,"is_disabled":false,"rental_uris":{"android":"levelo://app?vid=5c2ec1f5-eeaa-4c8a-aeb5-a78eb409afcb","ios":"levelo://app?vid=5c2ec1f5-eeaa-4c8a-aeb5-a78eb409afcb"},"vehicle_type_id":"4","last_reported":1721592578,"current_range_meters":22400,"station_id":"ce4bgt12rcd13ifvqcd0","pricing_plan_id":"cebpf4jnsgd1na2vs0mg"},{"bike_id":"49cd39ea-1f2a-4ce8-8aa7-4ad583947217","system_id":"levelo_inurba_marseille","lat":43.314811,"lon":5.373103,"is_reserved":false,"is_disabled":false,"rental_uris":{"android":"levelo://app?vid=49cd39ea-1f2a-4ce8-8aa7-4ad583947217","ios":"levelo://app?vid=49cd39ea-1f2a-4ce8-8aa7-4ad583947217"},"vehicle_type_id":"4","last_reported":1721592578,"current_range_meters":22800,"station_id":"ce4bgt12rcd13ifvqcd0","pricing_plan_id":"cebpf4jnsgd1na2vs0mg"},{"bike_id":"1602779b-cb55-48b7-b227-357a5d042804","system_id":"levelo_inurba_marseille","lat":43.314811,"lon":5.373103,"is_reserved":false,"is_disabled":false,"rental_uris":{"android":"levelo://app?vid=1602779b-cb55-48b7-b227-357a5d042804","ios":"levelo://app?vid=1602779b-cb55-48b7-b227-357a5d042804"},"vehicle_type_id":"4","last_reported":1721592578,"current_range_meters":18800,"station_id":"ce4bgt12rcd13ifvqcd0","pricing_plan_id":"cebpf4jnsgd1na2vs0mg"},{"bike_id":"8daf811f-7478-4d32-9583-72b68fc62612","system_id":"levelo_inurba_marseille","lat":43.31498,"lon":5.37304,"is_reserved":false,"is_disabled":false,"rental_uris":{"android":"levelo://app?vid=8daf811f-7478-4d32-9583-72b68fc62612","ios":"levelo://app?vid=8daf811f-7478-4d32-9583-72b68fc62612"},"vehicle_type_id":"4","last_reported":1721592578,"current_range_meters":5200,"station_id":"ce4bgt12rcd13ifvqcd0","pricing_plan_id":"cebpf4jnsgd1na2vs0mg"},{"bike_id":"06d3f760-a8d6-4e21-bad5-90a7c44ce001","system_id":"levelo_inurba_marseille","lat":43.309039,"lon":5.371797,"is_reserved":false,"is_disabled":false,"rental_uris":{"android":"levelo://app?vid=06d3f760-a8d6-4e21-bad5-90a7c44ce001","ios":"levelo://app?vid=06d3f760-a8d6-4e21-bad5-90a7c44ce001"},"vehicle_type_id":"4","last_reported":1721592578,"current_range_meters":4800,"station_id":"ce4bguh2rcd13ifvqckg","pricing_plan_id":"cebpf4jnsgd1na2vs0mg"},{"bike_id":"b5c67538-48a5-40ac-8c21-717566b8219c","system_id":"levelo_inurba_marseille","lat":43.309039,"lon":5.371797,"is_reserved":false,"is_disabled":false,"rental_uris":{"android":"levelo://app?vid=b5c67538-48a5-40ac-8c21-717566b8219c","ios":"levelo://app?vid=b5c67538-48a5-40ac-8c21-717566b8219c"},"vehicle_type_id":"4","last_reported":1721592578,"current_range_meters":28000,"station_id":"ce4bguh2rcd13ifvqckg","pricing_plan_id":"cebpf4jnsgd1na2vs0mg"},{"bike_id":"9e904c6c-cde3-4b6d-870f-73b04435adf8","system_id":"levelo_inurba_marseille","lat":43.309034,"lon":5.371783,"is_reserved":false,"is_disabled":false,"rental_uris":{"android":"levelo://app?vid=9e904c6c-cde3-4b6d-870f-73b04435adf8","ios":"levelo://app?vid=9e904c6c-cde3-4b6d-870f-73b04435adf8"},"vehicle_type_id":"4","last_reported":1721592578,"current_range_meters":14800,"station_id":"ce4bguh2rcd13ifvqckg","pricing_plan_id":"cebpf4jnsgd1na2vs0mg"},{"bike_id":"cf7f129f-59dc-4179-be0d-a368a676827a","system_id":"levelo_inurba_marseille","lat":43.309034,"lon":5.371783,"is_reserved":false,"is_disabled":false,"rental_uris":{"android":"levelo://app?vid=cf7f129f-59dc-4179-be0d-a368a676827a","ios":"levelo://app?vid=cf7f129f-59dc-4179-be0d-a368a676827a"},"vehicle_type_id":"4","last_reported":1721592578,"current_range_meters":11600,"station_id":"ce4bguh2rcd13ifvqckg","pricing_plan_id":"cebpf4jnsgd1na2vs0mg"},{"bike_id":"7fb93600-9047-486f-80dd-62d2739abfde","system_id":"levelo_inurba_marseille","lat":43.30744,"lon":5.37137,"is_reserved":false,"is_disabled":false,"rental_uris":{"android":"levelo://app?vid=7fb93600-9047-486f-80dd-62d2739abfde","ios":"levelo://app?vid=7fb93600-9047-486f-80dd-62d2739abfde"},"vehicle_type_id":"4","last_reported":1721592578,"current_range_meters":12800,"station_id":"","pricing_plan_id":"cebpf4jnsgd1na2vs0mg"},{"bike_id":"32bf86fb-39c7-4520-b12e-60e8f91c25e9","system_id":"levelo_inurba_marseille","lat":43.30643,"lon":5.36802,"is_reserved":false,"is_disabled":false,"rental_uris":{"android":"levelo://app?vid=32bf86fb-39c7-4520-b12e-60e8f91c25e9","ios":"levelo://app?vid=32bf86fb-39c7-4520-b12e-60e8f91c25e9"},"vehicle_type_id":"4","last_reported":1721592578,"current_range_meters":26800,"station_id":"","pricing_plan_id":"cebpf4jnsgd1na2vs0mg"},{"bike_id":"23997d15-81f0-4d0a-8879-61c72e487527","system_id":"levelo_inurba_marseille","lat":43.305368,"lon":5.367343,"is_reserved":false,"is_disabled":false,"rental_uris":{"android":"levelo://app?vid=23997d15-81f0-4d0a-8879-61c72e487527","ios":"levelo://app?vid=23997d15-81f0-4d0a-8879-61c72e487527"},"vehicle_type_id":"4","last_reported":1721592578,"current_range_meters":18000,"station_id":"ce4bgrp2rcd13ifvqc9g","pricing_plan_id":"cebpf4jnsgd1na2vs0mg"},{"bike_id":"8a7cb899-512e-4846-bd8d-81cd89abeccf","system_id":"levelo_inurba_marseille","lat":43.305989,"lon":5.37225,"is_reserved":false,"is_disabled":false,"rental_uris":{"android":"levelo://app?vid=8a7cb899-512e-4846-bd8d-81cd89abeccf","ios":"levelo://app?vid=8a7cb899-512e-4846-bd8d-81cd89abeccf"},"vehicle_type_id":"4","last_reported":1721592578,"current_range_meters":22800,"station_id":"ce4bgqh2rcd13ifvqc4g","pricing_plan_id":"cebpf4jnsgd1na2vs0mg"},{"bike_id":"700d7b7d-6ead-483f-805c-f73e6176bf3a","system_id":"levelo_inurba_marseille","lat":43.305989,"lon":5.37225,"is_reserved":false,"is_disabled":false,"rental_uris":{"android":"levelo://app?vid=700d7b7d-6ead-483f-805c-f73e6176bf3a","ios":"levelo://app?vid=700d7b7d-6ead-483f-805c-f73e6176bf3a"},"vehicle_type_id":"4","last_reported":1721592578,"current_range_meters":17200,"station_id":"ce4bgqh2rcd13ifvqc4g","pricing_plan_id":"cebpf4jnsgd1na2vs0mg"},{"bike_id":"f06103dd-13b1-4286-bd6b-c563ee6b6520","system_id":"levelo_inurba_marseille","lat":43.31117,"lon":5.37757,"is_reserved":false,"is_disabled":false,"rental_uris":{"android":"levelo://app?vid=f06103dd-13b1-4286-bd6b-c563ee6b6520","ios":"levelo://app?vid=f06103dd-13b1-4286-bd6b-c563ee6b6520"},"vehicle_type_id":"4","last_reported":1721592578,"current_range_meters":30400,"station_id":"","pricing_plan_id":"cebpf4jnsgd1na2vs0mg"},{"bike_id":"a5f48090-d720-4d94-acb3-046af94e7358","system_id":"levelo_inurba_marseille","lat":43.307945,"lon":5.376487,"is_reserved":false,"is_disabled":false,"rental_uris":{"android":"levelo://app?vid=a5f48090-d720-4d94-acb3-046af94e7358","ios":"levelo://app?vid=a5f48090-d720-4d94-acb3-046af94e7358"},"vehicle_type_id":"4","last_reported":1721592578,"current_range_meters":29200,"station_id":"ce4bgv92rcd13ifvqcq0","pricing_plan_id":"cebpf4jnsgd1na2vs0mg"},{"bike_id":"709debf3-bdc2-43ce-b67b-0948652285a1","system_id":"levelo_inurba_marseille","lat":43.307945,"lon":5.376487,"is_reserved":false,"is_disabled":false,"rental_uris":{"android":"levelo://app?vid=709debf3-bdc2-43ce-b67b-0948652285a1","ios":"levelo://app?vid=709debf3-bdc2-43ce-b67b-0948652285a1"},"vehicle_type_id":"4","last_reported":1721592578,"current_range_meters":7200,"station_id":"ce4bgv92rcd13ifvqcq0","pricing_plan_id":"cebpf4jnsgd1na2vs0mg"},{"bike_id":"3f226c11-497d-499e-aebb-e3968b975e4e","system_id":"levelo_inurba_marseille","lat":43.317075,"lon":5.377367,"is_reserved":false,"is_disabled":false,"rental_uris":{"android":"levelo://app?vid=3f226c11-497d-499e-aebb-e3968b975e4e","ios":"levelo://app?vid=3f226c11-497d-499e-aebb-e3968b975e4e"},"vehicle_type_id":"4","last_reported":1721592578,"current_range_meters":13600,"station_id":"ce4bgth2rcd13ifvqch0","pricing_plan_id":"cebpf4jnsgd1na2vs0mg"},{"bike_id":"e1f2ced9-c6e4-460d-93ee-052145e98bef","system_id":"levelo_inurba_marseille","lat":43.317075,"lon":5.377367,"is_reserved":false,"is_disabled":false,"rental_uris":{"android":"levelo://app?vid=e1f2ced9-c6e4-460d-93ee-052145e98bef","ios":"levelo://app?vid=e1f2ced9-c6e4-460d-93ee-052145e98bef"},"vehicle_type_id":"4","last_reported":1721592578,"current_range_meters":24000,"station_id":"ce4bgth2rcd13ifvqch0","pricing_plan_id":"cebpf4jnsgd1na2vs0mg"},{"bike_id":"b5fd17fd-ada6-4f9e-ac5f-bd5ed6acd247","system_id":"levelo_inurba_marseille","lat":43.317075,"lon":5.377367,"is_reserved":false,"is_disabled":false,"rental_uris":{"android":"levelo://app?vid=b5fd17fd-ada6-4f9e-ac5f-bd5ed6acd247","ios":"levelo://app?vid=b5fd17fd-ada6-4f9e-ac5f-bd5ed6acd247"},"vehicle_type_id":"4","last_reported":1721592578,"current_range_meters":23200,"station_id":"ce4bgth2rcd13ifvqch0","pricing_plan_id":"cebpf4jnsgd1na2vs0mg"},{"bike_id":"15763354-04fd-4935-afdf-38af677de1e9","system_id":"levelo_inurba_marseille","lat":43.30304,"lon":5.368987,"is_reserved":false,"is_disabled":false,"rental_uris":{"android":"levelo://app?vid=15763354-04fd-4935-afdf-38af677de1e9","ios":"levelo://app?vid=15763354-04fd-4935-afdf-38af677de1e9"},"vehicle_type_id":"4","last_reported":1721592578,"current_range_meters":18800,"station_id":"ce4bgqh2rcd13ifvqc5g","pricing_plan_id":"cebpf4jnsgd1na2vs0mg"},{"bike_id":"7cea760e-2da7-4863-befe-85a593f3e6b0","system_id":"levelo_inurba_marseille","lat":43.303046,"lon":5.368981,"is_reserved":false,"is_disabled":false,"rental_uris":{"android":"levelo://app?vid=7cea760e-2da7-4863-befe-85a593f3e6b0","ios":"levelo://app?vid=7cea760e-2da7-4863-befe-85a593f3e6b0"},"vehicle_type_id":"4","last_reported":1721592578,"current_range_meters":31200,"station_id":"ce4bgqh2rcd13ifvqc5g","pricing_plan_id":"cebpf4jnsgd1na2vs0mg"},{"bike_id":"328ba2e3-501f-4605-a3b7-96f996391f35","system_id":"levelo_inurba_marseille","lat":43.30304,"lon":5.368987,"is_reserved":false,"is_disabled":false,"rental_uris":{"android":"levelo://app?vid=328ba2e3-501f-4605-a3b7-96f996391f35","ios":"levelo://app?vid=328ba2e3-501f-4605-a3b7-96f996391f35"},"vehicle_type_id":"4","last_reported":1721592578,"current_range_meters":22400,"station_id":"ce4bgqh2rcd13ifvqc5g","pricing_plan_id":"cebpf4jnsgd1na2vs0mg"},{"bike_id":"c69a672c-5893-4c6f-a4bc-398c0b76974c","system_id":"levelo_inurba_marseille","lat":43.315347,"lon":5.380188,"is_reserved":false,"is_disabled":false,"rental_uris":{"android":"levelo://app?vid=c69a672c-5893-4c6f-a4bc-398c0b76974c","ios":"levelo://app?vid=c69a672c-5893-4c6f-a4bc-398c0b76974c"},"vehicle_type_id":"4","last_reported":1721592578,"current_range_meters":4400,"station_id":"ce4bhsp2rcd13ifvqi50","pricing_plan_id":"cebpf4jnsgd1na2vs0mg"},{"bike_id":"cb19d0f4-031c-4acf-b2cd-44d9c0551b8c","system_id":"levelo_inurba_marseille","lat":43.31532,"lon":5.38027,"is_reserved":false,"is_disabled":false,"rental_uris":{"android":"levelo://app?vid=cb19d0f4-031c-4acf-b2cd-44d9c0551b8c","ios":"levelo://app?vid=cb19d0f4-031c-4acf-b2cd-44d9c0551b8c"},"vehicle_type_id":"4","last_reported":1721592578,"current_range_meters":800,"station_id":"ce4bhsp2rcd13ifvqi50","pricing_plan_id":"cebpf4jnsgd1na2vs0mg"},{"bike_id":"035d6d6c-a8ee-4fc3-bf7a-020cbc606baf","system_id":"levelo_inurba_marseille","lat":43.315289,"lon":5.380349,"is_reserved":false,"is_disabled":false,"rental_uris":{"android":"levelo://app?vid=035d6d6c-a8ee-4fc3-bf7a-020cbc606baf","ios":"levelo://app?vid=035d6d6c-a8ee-4fc3-bf7a-020cbc606baf"},"vehicle_type_id":"4","last_reported":1721592578,"current_range_meters":28800,"station_id":"ce4bhsp2rcd13ifvqi50","pricing_plan_id":"cebpf4jnsgd1na2vs0mg"},{"bike_id":"a7c83eb6-e08c-4bc1-a548-2e476ea4ae7f","system_id":"levelo_inurba_marseille","lat":43.315293,"lon":5.380349,"is_reserved":false,"is_disabled":false,"rental_uris":{"android":"levelo://app?vid=a7c83eb6-e08c-4bc1-a548-2e476ea4ae7f","ios":"levelo://app?vid=a7c83eb6-e08c-4bc1-a548-2e476ea4ae7f"},"vehicle_type_id":"4","last_reported":1721592578,"current_range_meters":24800,"station_id":"ce4bhsp2rcd13ifvqi50","pricing_plan_id":"cebpf4jnsgd1na2vs0mg"},{"bike_id":"8de13017-4514-42b5-80ae-c06f24bd1bf7","system_id":"levelo_inurba_marseille","lat":43.301939,"lon":5.366286,"is_reserved":false,"is_disabled":false,"rental_uris":{"android":"levelo://app?vid=8de13017-4514-42b5-80ae-c06f24bd1bf7","ios":"levelo://app?vid=8de13017-4514-42b5-80ae-c06f24bd1bf7"},"vehicle_type_id":"4","last_reported":1721592578,"current_range_meters":23200,"station_id":"ce4bgrh2rcd13ifvqc8g","pricing_plan_id":"cebpf4jnsgd1na2vs0mg"},{"bike_id":"f6face93-b619-4730-abc3-363f3603b875","system_id":"levelo_inurba_marseille","lat":43.308012,"lon":5.381511,"is_reserved":false,"is_disabled":false,"rental_uris":{"android":"levelo://app?vid=f6face93-b619-4730-abc3-363f3603b875","ios":"levelo://app?vid=f6face93-b619-4730-abc3-363f3603b875"},"vehicle_type_id":"4","last_reported":1721592578,"current_range_meters":27200,"station_id":"ce4bgt12rcd13ifvqce0","pricing_plan_id":"cebpf4jnsgd1na2vs0mg"},{"bike_id":"a14410ea-ea23-42ac-8fa8-e7c536780ee0","system_id":"levelo_inurba_marseille","lat":43.308012,"lon":5.381511,"is_reserved":false,"is_disabled":false,"rental_uris":{"android":"levelo://app?vid=a14410ea-ea23-42ac-8fa8-e7c536780ee0","ios":"levelo://app?vid=a14410ea-ea23-42ac-8fa8-e7c536780ee0"},"vehicle_type_id":"4","last_reported":1721592578,"current_range_meters":2400,"station_id":"ce4bgt12rcd13ifvqce0","pricing_plan_id":"cebpf4jnsgd1na2vs0mg"},{"bike_id":"0bc50211-d286-43fb-84cd-d9fa4f78d37b","system_id":"levelo_inurba_marseille","lat":43.308012,"lon":5.381511,"is_reserved":false,"is_disabled":false,"rental_uris":{"android":"levelo://app?vid=0bc50211-d286-43fb-84cd-d9fa4f78d37b","ios":"levelo://app?vid=0bc50211-d286-43fb-84cd-d9fa4f78d37b"},"vehicle_type_id":"4","last_reported":1721592578,"current_range_meters":9200,"station_id":"ce4bgt12rcd13ifvqce0","pricing_plan_id":"cebpf4jnsgd1na2vs0mg"},{"bike_id":"9d97624b-5e2b-4ea7-a81b-6e10111595cd","system_id":"levelo_inurba_marseille","lat":43.304606,"lon":5.379026,"is_reserved":false,"is_disabled":false,"rental_uris":{"android":"levelo://app?vid=9d97624b-5e2b-4ea7-a81b-6e10111595cd","ios":"levelo://app?vid=9d97624b-5e2b-4ea7-a81b-6e10111595cd"},"vehicle_type_id":"4","last_reported":1721592578,"current_range_meters":3600,"station_id":"ce4bgup2rcd13ifvqcn0","pricing_plan_id":"cebpf4jnsgd1na2vs0mg"},{"bike_id":"36097a7d-1c39-4fbb-a8f5-646bb0506fee","system_id":"levelo_inurba_marseille","lat":43.304606,"lon":5.379026,"is_reserved":false,"is_disabled":false,"rental_uris":{"android":"levelo://app?vid=36097a7d-1c39-4fbb-a8f5-646bb0506fee","ios":"levelo://app?vid=36097a7d-1c39-4fbb-a8f5-646bb0506fee"},"vehicle_type_id":"4","last_reported":1721592578,"current_range_meters":6000,"station_id":"ce4bgup2rcd13ifvqcn0","pricing_plan_id":"cebpf4jnsgd1na2vs0mg"},{"bike_id":"cca907d5-b315-4709-9e1e-5a6e61ca8091","system_id":"levelo_inurba_marseille","lat":43.324686,"lon":5.365302,"is_reserved":false,"is_disabled":false,"rental_uris":{"android":"levelo://app?vid=cca907d5-b315-4709-9e1e-5a6e61ca8091","ios":"levelo://app?vid=cca907d5-b315-4709-9e1e-5a6e61ca8091"},"vehicle_type_id":"4","last_reported":1721592578,"current_range_meters":29200,"station_id":"ce4bhs12rcd13ifvqhvg","pricing_plan_id":"cebpf4jnsgd1na2vs0mg"},{"bike_id":"fa7acdd3-4b4e-46d8-b6d5-ce3ba98c1061","system_id":"levelo_inurba_marseille","lat":43.3248,"lon":5.365306,"is_reserved":false,"is_disabled":false,"rental_uris":{"android":"levelo://app?vid=fa7acdd3-4b4e-46d8-b6d5-ce3ba98c1061","ios":"levelo://app?vid=fa7acdd3-4b4e-46d8-b6d5-ce3ba98c1061"},"vehicle_type_id":"4","last_reported":1721592578,"current_range_meters":24400,"station_id":"ce4bhs12rcd13ifvqhvg","pricing_plan_id":"cebpf4jnsgd1na2vs0mg"},{"bike_id":"2f06cdfc-629e-4b79-ba12-ac5b6d349d6b","system_id":"levelo_inurba_marseille","lat":43.310804,"lon":5.38359,"is_reserved":false,"is_disabled":false,"rental_uris":{"android":"levelo://app?vid=2f06cdfc-629e-4b79-ba12-ac5b6d349d6b","ios":"levelo://app?vid=2f06cdfc-629e-4b79-ba12-ac5b6d349d6b"},"vehicle_type_id":"4","last_reported":1721592578,"current_range_meters":15600,"station_id":"ce4bgv92rcd13ifvqcr0","pricing_plan_id":"cebpf4jnsgd1na2vs0mg"},{"bike_id":"f2e19217-b5f7-4cc9-9fa0-975382d75290","system_id":"levelo_inurba_marseille","lat":43.30143,"lon":5.37413,"is_reserved":false,"is_disabled":false,"rental_uris":{"android":"levelo://app?vid=f2e19217-b5f7-4cc9-9fa0-975382d75290","ios":"levelo://app?vid=f2e19217-b5f7-4cc9-9fa0-975382d75290"},"vehicle_type_id":"4","last_reported":1721592578,"current_range_meters":31200,"station_id":"ce4bgs92rcd13ifvqcc0","pricing_plan_id":"cebpf4jnsgd1na2vs0mg"},{"bike_id":"c7995120-3995-405f-8dd5-7294629cc4d8","system_id":"levelo_inurba_marseille","lat":43.319935,"lon":5.381699,"is_reserved":false,"is_disabled":false,"rental_uris":{"android":"levelo://app?vid=c7995120-3995-405f-8dd5-7294629cc4d8","ios":"levelo://app?vid=c7995120-3995-405f-8dd5-7294629cc4d8"},"vehicle_type_id":"4","last_reported":1721592578,"current_range_meters":27200,"station_id":"ce4bhr12rcd13ifvqhpg","pricing_plan_id":"cebpf4jnsgd1na2vs0mg"},{"bike_id":"999339ad-dfc0-421b-9be0-1cee6a0845aa","system_id":"levelo_inurba_marseille","lat":43.31357,"lon":5.38489,"is_reserved":false,"is_disabled":false,"rental_uris":{"android":"levelo://app?vid=999339ad-dfc0-421b-9be0-1cee6a0845aa","ios":"levelo://app?vid=999339ad-dfc0-421b-9be0-1cee6a0845aa"},"vehicle_type_id":"4","last_reported":1721592578,"current_range_meters":0,"station_id":"ce4bgt92rcd13ifvqcf0","pricing_plan_id":"cebpf4jnsgd1na2vs0mg"},{"bike_id":"b55d728f-5751-49f0-b3e2-00ac87af4c66","system_id":"levelo_inurba_marseille","lat":43.313571,"lon":5.384829,"is_reserved":false,"is_disabled":false,"rental_uris":{"android":"levelo://app?vid=b55d728f-5751-49f0-b3e2-00ac87af4c66","ios":"levelo://app?vid=b55d728f-5751-49f0-b3e2-00ac87af4c66"},"vehicle_type_id":"4","last_reported":1721592578,"current_range_meters":1200,"station_id":"ce4bgt92rcd13ifvqcf0","pricing_plan_id":"cebpf4jnsgd1na2vs0mg"},{"bike_id":"4c1f77d4-44be-458b-9a1a-6a914a392093","system_id":"levelo_inurba_marseille","lat":43.313571,"lon":5.384829,"is_reserved":false,"is_disabled":false,"rental_uris":{"android":"levelo://app?vid=4c1f77d4-44be-458b-9a1a-6a914a392093","ios":"levelo://app?vid=4c1f77d4-44be-458b-9a1a-6a914a392093"},"vehicle_type_id":"4","last_reported":1721592578,"current_range_meters":18800,"station_id":"ce4bgt92rcd13ifvqcf0","pricing_plan_id":"cebpf4jnsgd1na2vs0mg"},{"bike_id":"16230274-cf17-48ee-befb-4835b67910ba","system_id":"levelo_inurba_marseille","lat":43.313571,"lon":5.384829,"is_reserved":false,"is_disabled":false,"rental_uris":{"android":"levelo://app?vid=16230274-cf17-48ee-befb-4835b67910ba","ios":"levelo://app?vid=16230274-cf17-48ee-befb-4835b67910ba"},"vehicle_type_id":"4","last_reported":1721592578,"current_range_meters":20400,"station_id":"ce4bgt92rcd13ifvqcf0","pricing_plan_id":"cebpf4jnsgd1na2vs0mg"},{"bike_id":"f7af2ce2-d079-43bc-a2cc-d3994342333a","system_id":"levelo_inurba_marseille","lat":43.299222,"lon":5.365554,"is_reserved":false,"is_disabled":false,"rental_uris":{"android":"levelo://app?vid=f7af2ce2-d079-43bc-a2cc-d3994342333a","ios":"levelo://app?vid=f7af2ce2-d079-43bc-a2cc-d3994342333a"},"vehicle_type_id":"4","last_reported":1721592578,"current_range_meters":5600,"station_id":"ce4bgm92rcd13ifvqbr0","pricing_plan_id":"cebpf4jnsgd1na2vs0mg"},{"bike_id":"a91cc37e-e272-4ae4-8d77-4a776fa76ddf","system_id":"levelo_inurba_marseille","lat":43.299724,"lon":5.371829,"is_reserved":false,"is_disabled":false,"rental_uris":{"android":"levelo://app?vid=a91cc37e-e272-4ae4-8d77-4a776fa76ddf","ios":"levelo://app?vid=a91cc37e-e272-4ae4-8d77-4a776fa76ddf"},"vehicle_type_id":"4","last_reported":1721592578,"current_range_meters":12800,"station_id":"ce4bgr92rcd13ifvqc7g","pricing_plan_id":"cebpf4jnsgd1na2vs0mg"},{"bike_id":"7fa93c14-d0bf-4847-b2a5-fb2f5c403226","system_id":"levelo_inurba_marseille","lat":43.29974,"lon":5.37181,"is_reserved":false,"is_disabled":false,"rental_uris":{"android":"levelo://app?vid=7fa93c14-d0bf-4847-b2a5-fb2f5c403226","ios":"levelo://app?vid=7fa93c14-d0bf-4847-b2a5-fb2f5c403226"},"vehicle_type_id":"4","last_reported":1721592578,"current_range_meters":13200,"station_id":"ce4bgr92rcd13ifvqc7g","pricing_plan_id":"cebpf4jnsgd1na2vs0mg"},{"bike_id":"78424fb1-4372-4a7b-803a-90cb4390643a","system_id":"levelo_inurba_marseille","lat":43.299724,"lon":5.371829,"is_reserved":false,"is_disabled":false,"rental_uris":{"android":"levelo://app?vid=78424fb1-4372-4a7b-803a-90cb4390643a","ios":"levelo://app?vid=78424fb1-4372-4a7b-803a-90cb4390643a"},"vehicle_type_id":"4","last_reported":1721592578,"current_range_meters":15200,"station_id":"ce4bgr92rcd13ifvqc7g","pricing_plan_id":"cebpf4jnsgd1na2vs0mg"},{"bike_id":"258c1244-0a25-427a-a844-971a93c0b4fc","system_id":"levelo_inurba_marseille","lat":43.299724,"lon":5.371829,"is_reserved":false,"is_disabled":false,"rental_uris":{"android":"levelo://app?vid=258c1244-0a25-427a-a844-971a93c0b4fc","ios":"levelo://app?vid=258c1244-0a25-427a-a844-971a93c0b4fc"},"vehicle_type_id":"4","last_reported":1721592578,"current_range_meters":30800,"station_id":"ce4bgr92rcd13ifvqc7g","pricing_plan_id":"cebpf4jnsgd1na2vs0mg"},{"bike_id":"bf30cd7f-c2af-4d7d-b74c-4c11fffe706b","system_id":"levelo_inurba_marseille","lat":43.29922,"lon":5.3748,"is_reserved":false,"is_disabled":false,"rental_uris":{"android":"levelo://app?vid=bf30cd7f-c2af-4d7d-b74c-4c11fffe706b","ios":"levelo://app?vid=bf30cd7f-c2af-4d7d-b74c-4c11fffe706b"},"vehicle_type_id":"4","last_reported":1721592578,"current_range_meters":18800,"station_id":"ce4bgjh2rcd13ifvqbg0","pricing_plan_id":"cebpf4jnsgd1na2vs0mg"},{"bike_id":"91c34503-24e9-4b9c-b91d-a8140c22a636","system_id":"levelo_inurba_marseille","lat":43.299243,"lon":5.37481,"is_reserved":false,"is_disabled":false,"rental_uris":{"android":"levelo://app?vid=91c34503-24e9-4b9c-b91d-a8140c22a636","ios":"levelo://app?vid=91c34503-24e9-4b9c-b91d-a8140c22a636"},"vehicle_type_id":"4","last_reported":1721592578,"current_range_meters":22400,"station_id":"ce4bgjh2rcd13ifvqbg0","pricing_plan_id":"cebpf4jnsgd1na2vs0mg"},{"bike_id":"f221798d-1463-4871-9079-f33de22e65af","system_id":"levelo_inurba_marseille","lat":43.311722,"lon":5.387247,"is_reserved":false,"is_disabled":false,"rental_uris":{"android":"levelo://app?vid=f221798d-1463-4871-9079-f33de22e65af","ios":"levelo://app?vid=f221798d-1463-4871-9079-f33de22e65af"},"vehicle_type_id":"4","last_reported":1721592578,"current_range_meters":0,"station_id":"ce4bgv12rcd13ifvqcp0","pricing_plan_id":"cebpf4jnsgd1na2vs0mg"},{"bike_id":"b95fd1e6-b1a9-45ef-b1a0-aeef7aa7baec","system_id":"levelo_inurba_marseille","lat":43.311722,"lon":5.387247,"is_reserved":false,"is_disabled":false,"rental_uris":{"android":"levelo://app?vid=b95fd1e6-b1a9-45ef-b1a0-aeef7aa7baec","ios":"levelo://app?vid=b95fd1e6-b1a9-45ef-b1a0-aeef7aa7baec"},"vehicle_type_id":"4","last_reported":1721592578,"current_range_meters":9600,"station_id":"ce4bgv12rcd13ifvqcp0","pricing_plan_id":"cebpf4jnsgd1na2vs0mg"},{"bike_id":"69756f5e-b837-442a-a1a1-fd3f07e73786","system_id":"levelo_inurba_marseille","lat":43.297774,"lon":5.370875,"is_reserved":false,"is_disabled":false,"rental_uris":{"android":"levelo://app?vid=69756f5e-b837-442a-a1a1-fd3f07e73786","ios":"levelo://app?vid=69756f5e-b837-442a-a1a1-fd3f07e73786"},"vehicle_type_id":"4","last_reported":1721592578,"current_range_meters":31600,"station_id":"ce4bgop2rcd13ifvqc1g","pricing_plan_id":"cebpf4jnsgd1na2vs0mg"},{"bike_id":"fd1d5c98-d25e-4ec8-8058-00f5ffafc962","system_id":"levelo_inurba_marseille","lat":43.29786,"lon":5.37098,"is_reserved":false,"is_disabled":false,"rental_uris":{"android":"levelo://app?vid=fd1d5c98-d25e-4ec8-8058-00f5ffafc962","ios":"levelo://app?vid=fd1d5c98-d25e-4ec8-8058-00f5ffafc962"},"vehicle_type_id":"4","last_reported":1721592578,"current_range_meters":25200,"station_id":"","pricing_plan_id":"cebpf4jnsgd1na2vs0mg"},{"bike_id":"5e66a98c-7fc3-4cff-a069-20545dff3ed9","system_id":"levelo_inurba_marseille","lat":43.32285,"lon":5.38254,"is_reserved":false,"is_disabled":false,"rental_uris":{"android":"levelo://app?vid=5e66a98c-7fc3-4cff-a069-20545dff3ed9","ios":"levelo://app?vid=5e66a98c-7fc3-4cff-a069-20545dff3ed9"},"vehicle_type_id":"4","last_reported":1721592578,"current_range_meters":12800,"station_id":"ce4bhr12rcd13ifvqhqg","pricing_plan_id":"cebpf4jnsgd1na2vs0mg"},{"bike_id":"c1c1198b-922e-42d2-b46a-8cbc2f26f481","system_id":"levelo_inurba_marseille","lat":43.297794,"lon":5.370888,"is_reserved":false,"is_disabled":false,"rental_uris":{"android":"levelo://app?vid=c1c1198b-922e-42d2-b46a-8cbc2f26f481","ios":"levelo://app?vid=c1c1198b-922e-42d2-b46a-8cbc2f26f481"},"vehicle_type_id":"4","last_reported":1721592578,"current_range_meters":15200,"station_id":"ce4bgop2rcd13ifvqc1g","pricing_plan_id":"cebpf4jnsgd1na2vs0mg"},{"bike_id":"bdca9753-9117-4a45-b043-06cbd0c6080a","system_id":"levelo_inurba_marseille","lat":43.297774,"lon":5.370875,"is_reserved":false,"is_disabled":false,"rental_uris":{"android":"levelo://app?vid=bdca9753-9117-4a45-b043-06cbd0c6080a","ios":"levelo://app?vid=bdca9753-9117-4a45-b043-06cbd0c6080a"},"vehicle_type_id":"4","last_reported":1721592578,"current_range_meters":31200,"station_id":"ce4bgop2rcd13ifvqc1g","pricing_plan_id":"cebpf4jnsgd1na2vs0mg"},{"bike_id":"9eda663f-fbc8-4f7d-a03c-1a9d6a2499cc","system_id":"levelo_inurba_marseille","lat":43.297794,"lon":5.370888,"is_reserved":false,"is_disabled":false,"rental_uris":{"android":"levelo://app?vid=9eda663f-fbc8-4f7d-a03c-1a9d6a2499cc","ios":"levelo://app?vid=9eda663f-fbc8-4f7d-a03c-1a9d6a2499cc"},"vehicle_type_id":"4","last_reported":1721592578,"current_range_meters":22800,"station_id":"ce4bgop2rcd13ifvqc1g","pricing_plan_id":"cebpf4jnsgd1na2vs0mg"},{"bike_id":"8117cde1-ddf4-42b1-815f-0e933d18614f","system_id":"levelo_inurba_marseille","lat":43.298775,"lon":5.375389,"is_reserved":false,"is_disabled":false,"rental_uris":{"android":"levelo://app?vid=8117cde1-ddf4-42b1-815f-0e933d18614f","ios":"levelo://app?vid=8117cde1-ddf4-42b1-815f-0e933d18614f"},"vehicle_type_id":"4","last_reported":1721592578,"current_range_meters":16800,"station_id":"","pricing_plan_id":"cebpf4jnsgd1na2vs0mg"},{"bike_id":"77b2323a-b4ee-4a99-ba00-b7410191cbd0","system_id":"levelo_inurba_marseille","lat":43.32286,"lon":5.38265,"is_reserved":false,"is_disabled":false,"rental_uris":{"android":"levelo://app?vid=77b2323a-b4ee-4a99-ba00-b7410191cbd0","ios":"levelo://app?vid=77b2323a-b4ee-4a99-ba00-b7410191cbd0"},"vehicle_type_id":"4","last_reported":1721592578,"current_range_meters":27200,"station_id":"ce4bhr12rcd13ifvqhqg","pricing_plan_id":"cebpf4jnsgd1na2vs0mg"},{"bike_id":"47511488-9e51-407f-95c1-0129806c910f","system_id":"levelo_inurba_marseille","lat":43.32292,"lon":5.38258,"is_reserved":false,"is_disabled":false,"rental_uris":{"android":"levelo://app?vid=47511488-9e51-407f-95c1-0129806c910f","ios":"levelo://app?vid=47511488-9e51-407f-95c1-0129806c910f"},"vehicle_type_id":"4","last_reported":1721592578,"current_range_meters":23200,"station_id":"ce4bhr12rcd13ifvqhqg","pricing_plan_id":"cebpf4jnsgd1na2vs0mg"},{"bike_id":"8bbb2f7b-401f-4d2b-a904-5ff22178f105","system_id":"levelo_inurba_marseille","lat":43.3229,"lon":5.38269,"is_reserved":false,"is_disabled":false,"rental_uris":{"android":"levelo://app?vid=8bbb2f7b-401f-4d2b-a904-5ff22178f105","ios":"levelo://app?vid=8bbb2f7b-401f-4d2b-a904-5ff22178f105"},"vehicle_type_id":"4","last_reported":1721592578,"current_range_meters":30000,"station_id":"ce4bhr12rcd13ifvqhqg","pricing_plan_id":"cebpf4jnsgd1na2vs0mg"},{"bike_id":"a1a84d48-1592-4271-8b28-9cf7a5d10865","system_id":"levelo_inurba_marseille","lat":43.32287,"lon":5.38277,"is_reserved":false,"is_disabled":false,"rental_uris":{"android":"levelo://app?vid=a1a84d48-1592-4271-8b28-9cf7a5d10865","ios":"levelo://app?vid=a1a84d48-1592-4271-8b28-9cf7a5d10865"},"vehicle_type_id":"4","last_reported":1721592578,"current_range_meters":22000,"station_id":"ce4bhr12rcd13ifvqhqg","pricing_plan_id":"cebpf4jnsgd1na2vs0mg"},{"bike_id":"cf301f15-85eb-45ee-a491-23bfeed05b8f","system_id":"levelo_inurba_marseille","lat":43.3229,"lon":5.38276,"is_reserved":false,"is_disabled":false,"rental_uris":{"android":"levelo://app?vid=cf301f15-85eb-45ee-a491-23bfeed05b8f","ios":"levelo://app?vid=cf301f15-85eb-45ee-a491-23bfeed05b8f"},"vehicle_type_id":"4","last_reported":1721592578,"current_range_meters":28400,"station_id":"ce4bhr12rcd13ifvqhqg","pricing_plan_id":"cebpf4jnsgd1na2vs0mg"},{"bike_id":"05f419f0-7d10-4683-a23a-e930531839f5","system_id":"levelo_inurba_marseille","lat":43.32291,"lon":5.38281,"is_reserved":false,"is_disabled":false,"rental_uris":{"android":"levelo://app?vid=05f419f0-7d10-4683-a23a-e930531839f5","ios":"levelo://app?vid=05f419f0-7d10-4683-a23a-e930531839f5"},"vehicle_type_id":"4","last_reported":1721592578,"current_range_meters":31200,"station_id":"ce4bhr12rcd13ifvqhqg","pricing_plan_id":"cebpf4jnsgd1na2vs0mg"},{"bike_id":"b5525b78-f71a-4f3f-845b-37ea3108a6ca","system_id":"levelo_inurba_marseille","lat":43.297794,"lon":5.370888,"is_reserved":false,"is_disabled":false,"rental_uris":{"android":"levelo://app?vid=b5525b78-f71a-4f3f-845b-37ea3108a6ca","ios":"levelo://app?vid=b5525b78-f71a-4f3f-845b-37ea3108a6ca"},"vehicle_type_id":"4","last_reported":1721592578,"current_range_meters":7600,"station_id":"ce4bgop2rcd13ifvqc1g","pricing_plan_id":"cebpf4jnsgd1na2vs0mg"},{"bike_id":"49270d73-3a5f-4767-8830-57dff0ed9efe","system_id":"levelo_inurba_marseille","lat":43.2968,"lon":5.37291,"is_reserved":false,"is_disabled":false,"rental_uris":{"android":"levelo://app?vid=49270d73-3a5f-4767-8830-57dff0ed9efe","ios":"levelo://app?vid=49270d73-3a5f-4767-8830-57dff0ed9efe"},"vehicle_type_id":"4","last_reported":1721592578,"current_range_meters":9600,"station_id":"ce4bgk12rcd13ifvqbj0","pricing_plan_id":"cebpf4jnsgd1na2vs0mg"},{"bike_id":"1a812392-8730-452d-9e4d-c322b49b2148","system_id":"levelo_inurba_marseille","lat":43.2968,"lon":5.37291,"is_reserved":false,"is_disabled":false,"rental_uris":{"android":"levelo://app?vid=1a812392-8730-452d-9e4d-c322b49b2148","ios":"levelo://app?vid=1a812392-8730-452d-9e4d-c322b49b2148"},"vehicle_type_id":"4","last_reported":1721592578,"current_range_meters":13200,"station_id":"ce4bgk12rcd13ifvqbj0","pricing_plan_id":"cebpf4jnsgd1na2vs0mg"},{"bike_id":"64c92e87-4836-493b-9793-2e00bd9d632a","system_id":"levelo_inurba_marseille","lat":43.296131,"lon":5.370791,"is_reserved":false,"is_disabled":false,"rental_uris":{"android":"levelo://app?vid=64c92e87-4836-493b-9793-2e00bd9d632a","ios":"levelo://app?vid=64c92e87-4836-493b-9793-2e00bd9d632a"},"vehicle_type_id":"4","last_reported":1721592578,"current_range_meters":0,"station_id":"ce4bgnh2rcd13ifvqc0g","pricing_plan_id":"cebpf4jnsgd1na2vs0mg"},{"bike_id":"4f071ffb-ae52-429f-bc2e-669cd2ae2229","system_id":"levelo_inurba_marseille","lat":43.29607,"lon":5.36944,"is_reserved":false,"is_disabled":false,"rental_uris":{"android":"levelo://app?vid=4f071ffb-ae52-429f-bc2e-669cd2ae2229","ios":"levelo://app?vid=4f071ffb-ae52-429f-bc2e-669cd2ae2229"},"vehicle_type_id":"4","last_reported":1721592578,"current_range_meters":4400,"station_id":"","pricing_plan_id":"cebpf4jnsgd1na2vs0mg"},{"bike_id":"bfc039a4-96b7-47c7-8d69-2eeeb81b3971","system_id":"levelo_inurba_marseille","lat":43.29606,"lon":5.36947,"is_reserved":false,"is_disabled":false,"rental_uris":{"android":"levelo://app?vid=bfc039a4-96b7-47c7-8d69-2eeeb81b3971","ios":"levelo://app?vid=bfc039a4-96b7-47c7-8d69-2eeeb81b3971"},"vehicle_type_id":"4","last_reported":1721592578,"current_range_meters":7200,"station_id":"","pricing_plan_id":"cebpf4jnsgd1na2vs0mg"},{"bike_id":"db83f59a-69ce-4096-8f3e-c4c832cf4159","system_id":"levelo_inurba_marseille","lat":43.29624,"lon":5.37168,"is_reserved":false,"is_disabled":false,"rental_uris":{"android":"levelo://app?vid=db83f59a-69ce-4096-8f3e-c4c832cf4159","ios":"levelo://app?vid=db83f59a-69ce-4096-8f3e-c4c832cf4159"},"vehicle_type_id":"4","last_reported":1721592578,"current_range_meters":12400,"station_id":"ce4bgnh2rcd13ifvqc0g","pricing_plan_id":"cebpf4jnsgd1na2vs0mg"},{"bike_id":"4b8ca118-cc56-4161-8c89-d51d71b5d537","system_id":"levelo_inurba_marseille","lat":43.2962,"lon":5.37166,"is_reserved":false,"is_disabled":false,"rental_uris":{"android":"levelo://app?vid=4b8ca118-cc56-4161-8c89-d51d71b5d537","ios":"levelo://app?vid=4b8ca118-cc56-4161-8c89-d51d71b5d537"},"vehicle_type_id":"4","last_reported":1721592578,"current_range_meters":4400,"station_id":"ce4bgnh2rcd13ifvqc0g","pricing_plan_id":"cebpf4jnsgd1na2vs0mg"},{"bike_id":"fe97069c-2291-4e1d-b4d5-e0522e8e3170","system_id":"levelo_inurba_marseille","lat":43.29619,"lon":5.37172,"is_reserved":false,"is_disabled":false,"rental_uris":{"android":"levelo://app?vid=fe97069c-2291-4e1d-b4d5-e0522e8e3170","ios":"levelo://app?vid=fe97069c-2291-4e1d-b4d5-e0522e8e3170"},"vehicle_type_id":"4","last_reported":1721592578,"current_range_meters":0,"station_id":"ce4bgnh2rcd13ifvqc0g","pricing_plan_id":"cebpf4jnsgd1na2vs0mg"},{"bike_id":"db696e71-90fa-4c42-aedf-2cbf70302515","system_id":"levelo_inurba_marseille","lat":43.296112,"lon":5.371597,"is_reserved":false,"is_disabled":false,"rental_uris":{"android":"levelo://app?vid=db696e71-90fa-4c42-aedf-2cbf70302515","ios":"levelo://app?vid=db696e71-90fa-4c42-aedf-2cbf70302515"},"vehicle_type_id":"4","last_reported":1721592578,"current_range_meters":24000,"station_id":"ce4bgnh2rcd13ifvqc0g","pricing_plan_id":"cebpf4jnsgd1na2vs0mg"},{"bike_id":"658f7b23-6f8f-4ff0-96af-81140b9cde41","system_id":"levelo_inurba_marseille","lat":43.309589,"lon":5.390258,"is_reserved":false,"is_disabled":false,"rental_uris":{"android":"levelo://app?vid=658f7b23-6f8f-4ff0-96af-81140b9cde41","ios":"levelo://app?vid=658f7b23-6f8f-4ff0-96af-81140b9cde41"},"vehicle_type_id":"4","last_reported":1721592578,"current_range_meters":0,"station_id":"ce4bgup2rcd13ifvqco0","pricing_plan_id":"cebpf4jnsgd1na2vs0mg"},{"bike_id":"a41c9528-7e04-4f57-a7e4-70dd87cd3511","system_id":"levelo_inurba_marseille","lat":43.317557,"lon":5.390173,"is_reserved":false,"is_disabled":false,"rental_uris":{"android":"levelo://app?vid=a41c9528-7e04-4f57-a7e4-70dd87cd3511","ios":"levelo://app?vid=a41c9528-7e04-4f57-a7e4-70dd87cd3511"},"vehicle_type_id":"4","last_reported":1721592578,"current_range_meters":5200,"station_id":"ce4bhqp2rcd13ifvqhng","pricing_plan_id":"cebpf4jnsgd1na2vs0mg"},{"bike_id":"ff04c86c-12ad-4be1-96ba-503e01770440","system_id":"levelo_inurba_marseille","lat":43.317557,"lon":5.390173,"is_reserved":false,"is_disabled":false,"rental_uris":{"android":"levelo://app?vid=ff04c86c-12ad-4be1-96ba-503e01770440","ios":"levelo://app?vid=ff04c86c-12ad-4be1-96ba-503e01770440"},"vehicle_type_id":"4","last_reported":1721592578,"current_range_meters":7600,"station_id":"ce4bhqp2rcd13ifvqhng","pricing_plan_id":"cebpf4jnsgd1na2vs0mg"},{"bike_id":"2eb29530-2776-4ed9-919a-7f1b16fba757","system_id":"levelo_inurba_marseille","lat":43.298037,"lon":5.381066,"is_reserved":false,"is_disabled":false,"rental_uris":{"android":"levelo://app?vid=2eb29530-2776-4ed9-919a-7f1b16fba757","ios":"levelo://app?vid=2eb29530-2776-4ed9-919a-7f1b16fba757"},"vehicle_type_id":"4","last_reported":1721592578,"current_range_meters":15200,"station_id":"ce4bgip2rcd13ifvqbb0","pricing_plan_id":"cebpf4jnsgd1na2vs0mg"},{"bike_id":"3af80cb9-d12a-4f06-b407-5c8abfd4f029","system_id":"levelo_inurba_marseille","lat":43.295647,"lon":5.375156,"is_reserved":false,"is_disabled":false,"rental_uris":{"android":"levelo://app?vid=3af80cb9-d12a-4f06-b407-5c8abfd4f029","ios":"levelo://app?vid=3af80cb9-d12a-4f06-b407-5c8abfd4f029"},"vehicle_type_id":"4","last_reported":1721592578,"current_range_meters":14000,"station_id":"","pricing_plan_id":"cebpf4jnsgd1na2vs0mg"},{"bike_id":"bee4e2a8-68c4-4d74-80f5-560c9c26ac5f","system_id":"levelo_inurba_marseille","lat":43.296263,"lon":5.377094,"is_reserved":false,"is_disabled":false,"rental_uris":{"android":"levelo://app?vid=bee4e2a8-68c4-4d74-80f5-560c9c26ac5f","ios":"levelo://app?vid=bee4e2a8-68c4-4d74-80f5-560c9c26ac5f"},"vehicle_type_id":"4","last_reported":1721592578,"current_range_meters":16000,"station_id":"ce4bgi92rcd13ifvqb90","pricing_plan_id":"cebpf4jnsgd1na2vs0mg"},{"bike_id":"52475ce7-e431-4c72-9daa-4fcfd759e9e5","system_id":"levelo_inurba_marseille","lat":43.298037,"lon":5.381066,"is_reserved":false,"is_disabled":false,"rental_uris":{"android":"levelo://app?vid=52475ce7-e431-4c72-9daa-4fcfd759e9e5","ios":"levelo://app?vid=52475ce7-e431-4c72-9daa-4fcfd759e9e5"},"vehicle_type_id":"4","last_reported":1721592578,"current_range_meters":24000,"station_id":"ce4bgip2rcd13ifvqbb0","pricing_plan_id":"cebpf4jnsgd1na2vs0mg"},{"bike_id":"f1697d91-589c-400c-ab6d-957d4e3c14d2","system_id":"levelo_inurba_marseille","lat":43.299707,"lon":5.384859,"is_reserved":false,"is_disabled":false,"rental_uris":{"android":"levelo://app?vid=f1697d91-589c-400c-ab6d-957d4e3c14d2","ios":"levelo://app?vid=f1697d91-589c-400c-ab6d-957d4e3c14d2"},"vehicle_type_id":"4","last_reported":1721592578,"current_range_meters":27600,"station_id":"ce4bgj92rcd13ifvqbd0","pricing_plan_id":"cebpf4jnsgd1na2vs0mg"},{"bike_id":"18491e9b-089a-423d-92a6-2224fb4ac1cb","system_id":"levelo_inurba_marseille","lat":43.30473,"lon":5.39011,"is_reserved":false,"is_disabled":false,"rental_uris":{"android":"levelo://app?vid=18491e9b-089a-423d-92a6-2224fb4ac1cb","ios":"levelo://app?vid=18491e9b-089a-423d-92a6-2224fb4ac1cb"},"vehicle_type_id":"4","last_reported":1721592578,"current_range_meters":0,"station_id":"","pricing_plan_id":"cebpf4jnsgd1na2vs0mg"},{"bike_id":"405c5694-2acd-42d8-aef3-a745144f4eb7","system_id":"levelo_inurba_marseille","lat":43.32364,"lon":5.38878,"is_reserved":false,"is_disabled":false,"rental_uris":{"android":"levelo://app?vid=405c5694-2acd-42d8-aef3-a745144f4eb7","ios":"levelo://app?vid=405c5694-2acd-42d8-aef3-a745144f4eb7"},"vehicle_type_id":"4","last_reported":1721592578,"current_range_meters":1200,"station_id":"ce4bhqp2rcd13ifvqhog","pricing_plan_id":"cebpf4jnsgd1na2vs0mg"},{"bike_id":"9a72d5e6-1f0f-4b75-9360-92565f1ee587","system_id":"levelo_inurba_marseille","lat":43.32367,"lon":5.388836,"is_reserved":false,"is_disabled":false,"rental_uris":{"android":"levelo://app?vid=9a72d5e6-1f0f-4b75-9360-92565f1ee587","ios":"levelo://app?vid=9a72d5e6-1f0f-4b75-9360-92565f1ee587"},"vehicle_type_id":"4","last_reported":1721592578,"current_range_meters":10800,"station_id":"ce4bhqp2rcd13ifvqhog","pricing_plan_id":"cebpf4jnsgd1na2vs0mg"},{"bike_id":"e0127e93-1bb9-46c7-9799-a754971062d5","system_id":"levelo_inurba_marseille","lat":43.32367,"lon":5.388836,"is_reserved":false,"is_disabled":false,"rental_uris":{"android":"levelo://app?vid=e0127e93-1bb9-46c7-9799-a754971062d5","ios":"levelo://app?vid=e0127e93-1bb9-46c7-9799-a754971062d5"},"vehicle_type_id":"4","last_reported":1721592578,"current_range_meters":12000,"station_id":"ce4bhqp2rcd13ifvqhog","pricing_plan_id":"cebpf4jnsgd1na2vs0mg"},{"bike_id":"6d30443e-24e7-4dbd-bb32-e64c12424472","system_id":"levelo_inurba_marseille","lat":43.32367,"lon":5.388836,"is_reserved":false,"is_disabled":false,"rental_uris":{"android":"levelo://app?vid=6d30443e-24e7-4dbd-bb32-e64c12424472","ios":"levelo://app?vid=6d30443e-24e7-4dbd-bb32-e64c12424472"},"vehicle_type_id":"4","last_reported":1721592578,"current_range_meters":18400,"station_id":"ce4bhqp2rcd13ifvqhog","pricing_plan_id":"cebpf4jnsgd1na2vs0mg"},{"bike_id":"19fd8238-ada2-4683-8bbb-5c6edbfb274d","system_id":"levelo_inurba_marseille","lat":43.29602,"lon":5.381084,"is_reserved":false,"is_disabled":false,"rental_uris":{"android":"levelo://app?vid=19fd8238-ada2-4683-8bbb-5c6edbfb274d","ios":"levelo://app?vid=19fd8238-ada2-4683-8bbb-5c6edbfb274d"},"vehicle_type_id":"4","last_reported":1721592578,"current_range_meters":0,"station_id":"ce4bgl12rcd13ifvqbo0","pricing_plan_id":"cebpf4jnsgd1na2vs0mg"},{"bike_id":"a714632d-44c0-4d33-8aa9-55a02a942e0d","system_id":"levelo_inurba_marseille","lat":43.325138,"lon":5.38779,"is_reserved":false,"is_disabled":false,"rental_uris":{"android":"levelo://app?vid=a714632d-44c0-4d33-8aa9-55a02a942e0d","ios":"levelo://app?vid=a714632d-44c0-4d33-8aa9-55a02a942e0d"},"vehicle_type_id":"4","last_reported":1721592578,"current_range_meters":5600,"station_id":"","pricing_plan_id":"cebpf4jnsgd1na2vs0mg"},{"bike_id":"1c4f4249-019e-4ac7-a3c2-36f1ab2a2bdd","system_id":"levelo_inurba_marseille","lat":43.29602,"lon":5.381084,"is_reserved":false,"is_disabled":false,"rental_uris":{"android":"levelo://app?vid=1c4f4249-019e-4ac7-a3c2-36f1ab2a2bdd","ios":"levelo://app?vid=1c4f4249-019e-4ac7-a3c2-36f1ab2a2bdd"},"vehicle_type_id":"4","last_reported":1721592578,"current_range_meters":9600,"station_id":"ce4bgl12rcd13ifvqbo0","pricing_plan_id":"cebpf4jnsgd1na2vs0mg"},{"bike_id":"c42ec774-dacf-4d93-92ff-d8596a3b280d","system_id":"levelo_inurba_marseille","lat":43.29602,"lon":5.381084,"is_reserved":false,"is_disabled":false,"rental_uris":{"android":"levelo://app?vid=c42ec774-dacf-4d93-92ff-d8596a3b280d","ios":"levelo://app?vid=c42ec774-dacf-4d93-92ff-d8596a3b280d"},"vehicle_type_id":"4","last_reported":1721592578,"current_range_meters":28800,"station_id":"ce4bgl12rcd13ifvqbo0","pricing_plan_id":"cebpf4jnsgd1na2vs0mg"},{"bike_id":"97f46daa-d933-4f4d-81e9-0bd6bdea7911","system_id":"levelo_inurba_marseille","lat":43.29602,"lon":5.381084,"is_reserved":false,"is_disabled":false,"rental_uris":{"android":"levelo://app?vid=97f46daa-d933-4f4d-81e9-0bd6bdea7911","ios":"levelo://app?vid=97f46daa-d933-4f4d-81e9-0bd6bdea7911"},"vehicle_type_id":"4","last_reported":1721592578,"current_range_meters":17200,"station_id":"ce4bgl12rcd13ifvqbo0","pricing_plan_id":"cebpf4jnsgd1na2vs0mg"},{"bike_id":"9ae91cca-d55a-4bb9-b9c2-cc2e078fbf71","system_id":"levelo_inurba_marseille","lat":43.293259,"lon":5.371586,"is_reserved":false,"is_disabled":false,"rental_uris":{"android":"levelo://app?vid=9ae91cca-d55a-4bb9-b9c2-cc2e078fbf71","ios":"levelo://app?vid=9ae91cca-d55a-4bb9-b9c2-cc2e078fbf71"},"vehicle_type_id":"4","last_reported":1721592578,"current_range_meters":8800,"station_id":"ce4bgh92rcd13ifvqb40","pricing_plan_id":"cebpf4jnsgd1na2vs0mg"},{"bike_id":"623c7701-3712-4c45-9b2d-bd55a22b1ad8","system_id":"levelo_inurba_marseille","lat":43.293249,"lon":5.371578,"is_reserved":false,"is_disabled":false,"rental_uris":{"android":"levelo://app?vid=623c7701-3712-4c45-9b2d-bd55a22b1ad8","ios":"levelo://app?vid=623c7701-3712-4c45-9b2d-bd55a22b1ad8"},"vehicle_type_id":"4","last_reported":1721592578,"current_range_meters":0,"station_id":"ce4bgh92rcd13ifvqb40","pricing_plan_id":"cebpf4jnsgd1na2vs0mg"},{"bike_id":"994d8637-e263-496f-b980-8b15382f07cc","system_id":"levelo_inurba_marseille","lat":43.292749,"lon":5.368402,"is_reserved":false,"is_disabled":false,"rental_uris":{"android":"levelo://app?vid=994d8637-e263-496f-b980-8b15382f07cc","ios":"levelo://app?vid=994d8637-e263-496f-b980-8b15382f07cc"},"vehicle_type_id":"4","last_reported":1721592578,"current_range_meters":30800,"station_id":"ce4bhbp2rcd13ifvqesg","pricing_plan_id":"cebpf4jnsgd1na2vs0mg"},{"bike_id":"94b28e0f-2284-45ec-80de-5fbac555daee","system_id":"levelo_inurba_marseille","lat":43.292749,"lon":5.368398,"is_reserved":false,"is_disabled":false,"rental_uris":{"android":"levelo://app?vid=94b28e0f-2284-45ec-80de-5fbac555daee","ios":"levelo://app?vid=94b28e0f-2284-45ec-80de-5fbac555daee"},"vehicle_type_id":"4","last_reported":1721592578,"current_range_meters":30400,"station_id":"ce4bhbp2rcd13ifvqesg","pricing_plan_id":"cebpf4jnsgd1na2vs0mg"},{"bike_id":"2bb6f90a-bf1e-486b-8751-7df49e5f89de","system_id":"levelo_inurba_marseille","lat":43.33265,"lon":5.36221,"is_reserved":false,"is_disabled":false,"rental_uris":{"android":"levelo://app?vid=2bb6f90a-bf1e-486b-8751-7df49e5f89de","ios":"levelo://app?vid=2bb6f90a-bf1e-486b-8751-7df49e5f89de"},"vehicle_type_id":"4","last_reported":1721592578,"current_range_meters":2400,"station_id":"","pricing_plan_id":"cebpf4jnsgd1na2vs0mg"},{"bike_id":"9a16adb8-f790-423c-940e-040e52c20806","system_id":"levelo_inurba_marseille","lat":43.29234,"lon":5.36472,"is_reserved":false,"is_disabled":false,"rental_uris":{"android":"levelo://app?vid=9a16adb8-f790-423c-940e-040e52c20806","ios":"levelo://app?vid=9a16adb8-f790-423c-940e-040e52c20806"},"vehicle_type_id":"4","last_reported":1721592578,"current_range_meters":30000,"station_id":"","pricing_plan_id":"cebpf4jnsgd1na2vs0mg"},{"bike_id":"d72709f1-72ae-4cec-94dc-0f28194a9670","system_id":"levelo_inurba_marseille","lat":43.305994,"lon":5.393687,"is_reserved":false,"is_disabled":false,"rental_uris":{"android":"levelo://app?vid=d72709f1-72ae-4cec-94dc-0f28194a9670","ios":"levelo://app?vid=d72709f1-72ae-4cec-94dc-0f28194a9670"},"vehicle_type_id":"4","last_reported":1721592578,"current_range_meters":27200,"station_id":"ce4bh0p2rcd13ifvqd80","pricing_plan_id":"cebpf4jnsgd1na2vs0mg"},{"bike_id":"8f5fafb5-950d-42bd-99f2-0de22fdb5656","system_id":"levelo_inurba_marseille","lat":43.30316,"lon":5.39213,"is_reserved":false,"is_disabled":false,"rental_uris":{"android":"levelo://app?vid=8f5fafb5-950d-42bd-99f2-0de22fdb5656","ios":"levelo://app?vid=8f5fafb5-950d-42bd-99f2-0de22fdb5656"},"vehicle_type_id":"4","last_reported":1721592578,"current_range_meters":24400,"station_id":"ce4bgkh2rcd13ifvqbk0","pricing_plan_id":"cebpf4jnsgd1na2vs0mg"},{"bike_id":"3a32030b-a812-41f7-ae38-66874d9ac3ab","system_id":"levelo_inurba_marseille","lat":43.303002,"lon":5.392142,"is_reserved":false,"is_disabled":false,"rental_uris":{"android":"levelo://app?vid=3a32030b-a812-41f7-ae38-66874d9ac3ab","ios":"levelo://app?vid=3a32030b-a812-41f7-ae38-66874d9ac3ab"},"vehicle_type_id":"4","last_reported":1721592578,"current_range_meters":23200,"station_id":"ce4bgkh2rcd13ifvqbk0","pricing_plan_id":"cebpf4jnsgd1na2vs0mg"},{"bike_id":"604be2ce-6d42-4c4d-a194-c7d7d26b3efc","system_id":"levelo_inurba_marseille","lat":43.302992,"lon":5.392136,"is_reserved":false,"is_disabled":false,"rental_uris":{"android":"levelo://app?vid=604be2ce-6d42-4c4d-a194-c7d7d26b3efc","ios":"levelo://app?vid=604be2ce-6d42-4c4d-a194-c7d7d26b3efc"},"vehicle_type_id":"4","last_reported":1721592578,"current_range_meters":24400,"station_id":"ce4bgkh2rcd13ifvqbk0","pricing_plan_id":"cebpf4jnsgd1na2vs0mg"},{"bike_id":"8e541e19-4970-4c4e-a239-d26b5000f803","system_id":"levelo_inurba_marseille","lat":43.2936,"lon":5.37835,"is_reserved":false,"is_disabled":false,"rental_uris":{"android":"levelo://app?vid=8e541e19-4970-4c4e-a239-d26b5000f803","ios":"levelo://app?vid=8e541e19-4970-4c4e-a239-d26b5000f803"},"vehicle_type_id":"4","last_reported":1721592578,"current_range_meters":0,"station_id":"ce4bgjh2rcd13ifvqbf0","pricing_plan_id":"cebpf4jnsgd1na2vs0mg"},{"bike_id":"0e7b17c6-b48c-4d7c-a057-c5974eb93383","system_id":"levelo_inurba_marseille","lat":43.2936,"lon":5.37835,"is_reserved":false,"is_disabled":false,"rental_uris":{"android":"levelo://app?vid=0e7b17c6-b48c-4d7c-a057-c5974eb93383","ios":"levelo://app?vid=0e7b17c6-b48c-4d7c-a057-c5974eb93383"},"vehicle_type_id":"4","last_reported":1721592578,"current_range_meters":4800,"station_id":"ce4bgjh2rcd13ifvqbf0","pricing_plan_id":"cebpf4jnsgd1na2vs0mg"},{"bike_id":"6b5acc56-cd51-49d2-a636-2ac871d4e878","system_id":"levelo_inurba_marseille","lat":43.302992,"lon":5.392136,"is_reserved":false,"is_disabled":false,"rental_uris":{"android":"levelo://app?vid=6b5acc56-cd51-49d2-a636-2ac871d4e878","ios":"levelo://app?vid=6b5acc56-cd51-49d2-a636-2ac871d4e878"},"vehicle_type_id":"4","last_reported":1721592578,"current_range_meters":10000,"station_id":"ce4bgkh2rcd13ifvqbk0","pricing_plan_id":"cebpf4jnsgd1na2vs0mg"},{"bike_id":"1c403656-9529-4043-829c-a103acb5ce4d","system_id":"levelo_inurba_marseille","lat":43.32636,"lon":5.38866,"is_reserved":false,"is_disabled":false,"rental_uris":{"android":"levelo://app?vid=1c403656-9529-4043-829c-a103acb5ce4d","ios":"levelo://app?vid=1c403656-9529-4043-829c-a103acb5ce4d"},"vehicle_type_id":"4","last_reported":1721592578,"current_range_meters":6400,"station_id":"","pricing_plan_id":"cebpf4jnsgd1na2vs0mg"},{"bike_id":"8135f56f-a7e3-4110-b3f8-82cf414bdd46","system_id":"levelo_inurba_marseille","lat":43.30085,"lon":5.390856,"is_reserved":false,"is_disabled":false,"rental_uris":{"android":"levelo://app?vid=8135f56f-a7e3-4110-b3f8-82cf414bdd46","ios":"levelo://app?vid=8135f56f-a7e3-4110-b3f8-82cf414bdd46"},"vehicle_type_id":"4","last_reported":1721592578,"current_range_meters":0,"station_id":"ce4bh192rcd13ifvqdb0","pricing_plan_id":"cebpf4jnsgd1na2vs0mg"},{"bike_id":"b5f6464f-858d-4b02-93eb-8943ca55f059","system_id":"levelo_inurba_marseille","lat":43.30085,"lon":5.390856,"is_reserved":false,"is_disabled":false,"rental_uris":{"android":"levelo://app?vid=b5f6464f-858d-4b02-93eb-8943ca55f059","ios":"levelo://app?vid=b5f6464f-858d-4b02-93eb-8943ca55f059"},"vehicle_type_id":"4","last_reported":1721592578,"current_range_meters":10400,"station_id":"ce4bh192rcd13ifvqdb0","pricing_plan_id":"cebpf4jnsgd1na2vs0mg"},{"bike_id":"3b66dbb4-4e2b-44e7-9ff9-e424e818925d","system_id":"levelo_inurba_marseille","lat":43.30085,"lon":5.390856,"is_reserved":false,"is_disabled":false,"rental_uris":{"android":"levelo://app?vid=3b66dbb4-4e2b-44e7-9ff9-e424e818925d","ios":"levelo://app?vid=3b66dbb4-4e2b-44e7-9ff9-e424e818925d"},"vehicle_type_id":"4","last_reported":1721592578,"current_range_meters":14800,"station_id":"ce4bh192rcd13ifvqdb0","pricing_plan_id":"cebpf4jnsgd1na2vs0mg"},{"bike_id":"c7a83ad9-f67f-42f6-8775-65e2e8128228","system_id":"levelo_inurba_marseille","lat":43.30085,"lon":5.390856,"is_reserved":false,"is_disabled":false,"rental_uris":{"android":"levelo://app?vid=c7a83ad9-f67f-42f6-8775-65e2e8128228","ios":"levelo://app?vid=c7a83ad9-f67f-42f6-8775-65e2e8128228"},"vehicle_type_id":"4","last_reported":1721592578,"current_range_meters":28800,"station_id":"ce4bh192rcd13ifvqdb0","pricing_plan_id":"cebpf4jnsgd1na2vs0mg"},{"bike_id":"3b0b0050-e43c-4c32-9e2e-a8679f89cb77","system_id":"levelo_inurba_marseille","lat":43.30085,"lon":5.390856,"is_reserved":false,"is_disabled":false,"rental_uris":{"android":"levelo://app?vid=3b0b0050-e43c-4c32-9e2e-a8679f89cb77","ios":"levelo://app?vid=3b0b0050-e43c-4c32-9e2e-a8679f89cb77"},"vehicle_type_id":"4","last_reported":1721592578,"current_range_meters":24800,"station_id":"ce4bh192rcd13ifvqdb0","pricing_plan_id":"cebpf4jnsgd1na2vs0mg"},{"bike_id":"76a26f40-54f8-4953-8b83-f146b325e7fa","system_id":"levelo_inurba_marseille","lat":43.30085,"lon":5.390856,"is_reserved":false,"is_disabled":false,"rental_uris":{"android":"levelo://app?vid=76a26f40-54f8-4953-8b83-f146b325e7fa","ios":"levelo://app?vid=76a26f40-54f8-4953-8b83-f146b325e7fa"},"vehicle_type_id":"4","last_reported":1721592578,"current_range_meters":25200,"station_id":"ce4bh192rcd13ifvqdb0","pricing_plan_id":"cebpf4jnsgd1na2vs0mg"},{"bike_id":"3c6c09ed-f0e9-4653-9182-354f3f63c186","system_id":"levelo_inurba_marseille","lat":43.298764,"lon":5.388973,"is_reserved":false,"is_disabled":false,"rental_uris":{"android":"levelo://app?vid=3c6c09ed-f0e9-4653-9182-354f3f63c186","ios":"levelo://app?vid=3c6c09ed-f0e9-4653-9182-354f3f63c186"},"vehicle_type_id":"4","last_reported":1721592578,"current_range_meters":14400,"station_id":"ce4bh392rcd13ifvqdl0","pricing_plan_id":"cebpf4jnsgd1na2vs0mg"},{"bike_id":"0dbd6b8d-9dd3-4ea5-aaa9-adc1e35b9aa7","system_id":"levelo_inurba_marseille","lat":43.298837,"lon":5.38902,"is_reserved":false,"is_disabled":false,"rental_uris":{"android":"levelo://app?vid=0dbd6b8d-9dd3-4ea5-aaa9-adc1e35b9aa7","ios":"levelo://app?vid=0dbd6b8d-9dd3-4ea5-aaa9-adc1e35b9aa7"},"vehicle_type_id":"4","last_reported":1721592578,"current_range_meters":0,"station_id":"ce4bh392rcd13ifvqdl0","pricing_plan_id":"cebpf4jnsgd1na2vs0mg"},{"bike_id":"880544b0-d438-460a-85bc-d213cb2d2180","system_id":"levelo_inurba_marseille","lat":43.298764,"lon":5.388973,"is_reserved":false,"is_disabled":false,"rental_uris":{"android":"levelo://app?vid=880544b0-d438-460a-85bc-d213cb2d2180","ios":"levelo://app?vid=880544b0-d438-460a-85bc-d213cb2d2180"},"vehicle_type_id":"4","last_reported":1721592578,"current_range_meters":28800,"station_id":"ce4bh392rcd13ifvqdl0","pricing_plan_id":"cebpf4jnsgd1na2vs0mg"},{"bike_id":"c504cbd0-42dc-4b4a-b70f-99aca022dbfe","system_id":"levelo_inurba_marseille","lat":43.291671,"lon":5.371575,"is_reserved":false,"is_disabled":false,"rental_uris":{"android":"levelo://app?vid=c504cbd0-42dc-4b4a-b70f-99aca022dbfe","ios":"levelo://app?vid=c504cbd0-42dc-4b4a-b70f-99aca022dbfe"},"vehicle_type_id":"4","last_reported":1721592578,"current_range_meters":18400,"station_id":"ce4bha92rcd13ifvqeh0","pricing_plan_id":"cebpf4jnsgd1na2vs0mg"},{"bike_id":"7b33720e-dc3a-4bf5-827f-a961a1500e45","system_id":"levelo_inurba_marseille","lat":43.313291,"lon":5.396838,"is_reserved":false,"is_disabled":false,"rental_uris":{"android":"levelo://app?vid=7b33720e-dc3a-4bf5-827f-a961a1500e45","ios":"levelo://app?vid=7b33720e-dc3a-4bf5-827f-a961a1500e45"},"vehicle_type_id":"4","last_reported":1721592578,"current_range_meters":19200,"station_id":"ce4bgvp2rcd13ifvqcu0","pricing_plan_id":"cebpf4jnsgd1na2vs0mg"},{"bike_id":"fc6840d5-5e2c-4060-8273-6c1bc9723490","system_id":"levelo_inurba_marseille","lat":43.313291,"lon":5.396838,"is_reserved":false,"is_disabled":false,"rental_uris":{"android":"levelo://app?vid=fc6840d5-5e2c-4060-8273-6c1bc9723490","ios":"levelo://app?vid=fc6840d5-5e2c-4060-8273-6c1bc9723490"},"vehicle_type_id":"4","last_reported":1721592578,"current_range_meters":13600,"station_id":"ce4bgvp2rcd13ifvqcu0","pricing_plan_id":"cebpf4jnsgd1na2vs0mg"},{"bike_id":"41008872-17b1-484d-9091-6c9e38fab86b","system_id":"levelo_inurba_marseille","lat":43.313249,"lon":5.396923,"is_reserved":false,"is_disabled":false,"rental_uris":{"android":"levelo://app?vid=41008872-17b1-484d-9091-6c9e38fab86b","ios":"levelo://app?vid=41008872-17b1-484d-9091-6c9e38fab86b"},"vehicle_type_id":"4","last_reported":1721592578,"current_range_meters":15600,"station_id":"","pricing_plan_id":"cebpf4jnsgd1na2vs0mg"},{"bike_id":"108e4627-d625-47c4-a8f4-f2a3a05758a8","system_id":"levelo_inurba_marseille","lat":43.31327,"lon":5.39699,"is_reserved":false,"is_disabled":false,"rental_uris":{"android":"levelo://app?vid=108e4627-d625-47c4-a8f4-f2a3a05758a8","ios":"levelo://app?vid=108e4627-d625-47c4-a8f4-f2a3a05758a8"},"vehicle_type_id":"4","last_reported":1721592578,"current_range_meters":6800,"station_id":"ce4bgvp2rcd13ifvqcu0","pricing_plan_id":"cebpf4jnsgd1na2vs0mg"},{"bike_id":"56715831-acc8-450f-a239-013dfc12939c","system_id":"levelo_inurba_marseille","lat":43.29538,"lon":5.38537,"is_reserved":false,"is_disabled":false,"rental_uris":{"android":"levelo://app?vid=56715831-acc8-450f-a239-013dfc12939c","ios":"levelo://app?vid=56715831-acc8-450f-a239-013dfc12939c"},"vehicle_type_id":"4","last_reported":1721592578,"current_range_meters":16000,"station_id":"ce4bgih2rcd13ifvqba0","pricing_plan_id":"cebpf4jnsgd1na2vs0mg"},{"bike_id":"b93af8b4-70c4-49d0-a132-4cff5fe3529a","system_id":"levelo_inurba_marseille","lat":43.29533,"lon":5.38531,"is_reserved":false,"is_disabled":false,"rental_uris":{"android":"levelo://app?vid=b93af8b4-70c4-49d0-a132-4cff5fe3529a","ios":"levelo://app?vid=b93af8b4-70c4-49d0-a132-4cff5fe3529a"},"vehicle_type_id":"4","last_reported":1721592578,"current_range_meters":7600,"station_id":"ce4bgih2rcd13ifvqba0","pricing_plan_id":"cebpf4jnsgd1na2vs0mg"},{"bike_id":"73872c07-c58b-4f9e-84e0-5b643d49bdfb","system_id":"levelo_inurba_marseille","lat":43.29529,"lon":5.385581,"is_reserved":false,"is_disabled":false,"rental_uris":{"android":"levelo://app?vid=73872c07-c58b-4f9e-84e0-5b643d49bdfb","ios":"levelo://app?vid=73872c07-c58b-4f9e-84e0-5b643d49bdfb"},"vehicle_type_id":"4","last_reported":1721592578,"current_range_meters":22400,"station_id":"ce4bgih2rcd13ifvqba0","pricing_plan_id":"cebpf4jnsgd1na2vs0mg"},{"bike_id":"fdea9361-691d-4eeb-83c8-79254404e003","system_id":"levelo_inurba_marseille","lat":43.2953,"lon":5.38538,"is_reserved":false,"is_disabled":false,"rental_uris":{"android":"levelo://app?vid=fdea9361-691d-4eeb-83c8-79254404e003","ios":"levelo://app?vid=fdea9361-691d-4eeb-83c8-79254404e003"},"vehicle_type_id":"4","last_reported":1721592578,"current_range_meters":12000,"station_id":"ce4bgih2rcd13ifvqba0","pricing_plan_id":"cebpf4jnsgd1na2vs0mg"},{"bike_id":"ae35071e-8b70-42a7-ac1a-986328961962","system_id":"levelo_inurba_marseille","lat":43.29529,"lon":5.385581,"is_reserved":false,"is_disabled":false,"rental_uris":{"android":"levelo://app?vid=ae35071e-8b70-42a7-ac1a-986328961962","ios":"levelo://app?vid=ae35071e-8b70-42a7-ac1a-986328961962"},"vehicle_type_id":"4","last_reported":1721592578,"current_range_meters":21600,"station_id":"ce4bgih2rcd13ifvqba0","pricing_plan_id":"cebpf4jnsgd1na2vs0mg"},{"bike_id":"e5fd5c8e-c776-4215-8a83-b5e2b741ed5c","system_id":"levelo_inurba_marseille","lat":43.290779,"lon":5.371482,"is_reserved":false,"is_disabled":false,"rental_uris":{"android":"levelo://app?vid=e5fd5c8e-c776-4215-8a83-b5e2b741ed5c","ios":"levelo://app?vid=e5fd5c8e-c776-4215-8a83-b5e2b741ed5c"},"vehicle_type_id":"4","last_reported":1721592578,"current_range_meters":6400,"station_id":"ce4bh5p2rcd13ifvqe4g","pricing_plan_id":"cebpf4jnsgd1na2vs0mg"},{"bike_id":"3637cc80-356c-461f-9ee7-08f421382f1e","system_id":"levelo_inurba_marseille","lat":43.290779,"lon":5.371482,"is_reserved":false,"is_disabled":false,"rental_uris":{"android":"levelo://app?vid=3637cc80-356c-461f-9ee7-08f421382f1e","ios":"levelo://app?vid=3637cc80-356c-461f-9ee7-08f421382f1e"},"vehicle_type_id":"4","last_reported":1721592578,"current_range_meters":24800,"station_id":"ce4bh5p2rcd13ifvqe4g","pricing_plan_id":"cebpf4jnsgd1na2vs0mg"},{"bike_id":"7b423ff4-3277-455e-8efd-19ec8394b36a","system_id":"levelo_inurba_marseille","lat":43.302008,"lon":5.394694,"is_reserved":false,"is_disabled":false,"rental_uris":{"android":"levelo://app?vid=7b423ff4-3277-455e-8efd-19ec8394b36a","ios":"levelo://app?vid=7b423ff4-3277-455e-8efd-19ec8394b36a"},"vehicle_type_id":"4","last_reported":1721592578,"current_range_meters":0,"station_id":"ce4bh0p2rcd13ifvqd70","pricing_plan_id":"cebpf4jnsgd1na2vs0mg"},{"bike_id":"0e071900-c061-480f-ae16-3283bd096ae1","system_id":"levelo_inurba_marseille","lat":43.302008,"lon":5.394694,"is_reserved":false,"is_disabled":false,"rental_uris":{"android":"levelo://app?vid=0e071900-c061-480f-ae16-3283bd096ae1","ios":"levelo://app?vid=0e071900-c061-480f-ae16-3283bd096ae1"},"vehicle_type_id":"4","last_reported":1721592578,"current_range_meters":10800,"station_id":"ce4bh0p2rcd13ifvqd70","pricing_plan_id":"cebpf4jnsgd1na2vs0mg"},{"bike_id":"fd842240-5a65-49fb-a1a5-797512b7377e","system_id":"levelo_inurba_marseille","lat":43.302008,"lon":5.394694,"is_reserved":false,"is_disabled":false,"rental_uris":{"android":"levelo://app?vid=fd842240-5a65-49fb-a1a5-797512b7377e","ios":"levelo://app?vid=fd842240-5a65-49fb-a1a5-797512b7377e"},"vehicle_type_id":"4","last_reported":1721592578,"current_range_meters":28400,"station_id":"ce4bh0p2rcd13ifvqd70","pricing_plan_id":"cebpf4jnsgd1na2vs0mg"},{"bike_id":"e1c1bfe0-c486-4506-9863-b43fbcad094e","system_id":"levelo_inurba_marseille","lat":43.29054,"lon":5.35903,"is_reserved":false,"is_disabled":false,"rental_uris":{"android":"levelo://app?vid=e1c1bfe0-c486-4506-9863-b43fbcad094e","ios":"levelo://app?vid=e1c1bfe0-c486-4506-9863-b43fbcad094e"},"vehicle_type_id":"4","last_reported":1721592578,"current_range_meters":17200,"station_id":"ce4bha92rcd13ifvqeg0","pricing_plan_id":"cebpf4jnsgd1na2vs0mg"},{"bike_id":"93a88086-6893-4bb6-aef5-d97a6cc46131","system_id":"levelo_inurba_marseille","lat":43.290631,"lon":5.359244,"is_reserved":false,"is_disabled":false,"rental_uris":{"android":"levelo://app?vid=93a88086-6893-4bb6-aef5-d97a6cc46131","ios":"levelo://app?vid=93a88086-6893-4bb6-aef5-d97a6cc46131"},"vehicle_type_id":"4","last_reported":1721592578,"current_range_meters":26400,"station_id":"ce4bha92rcd13ifvqeg0","pricing_plan_id":"cebpf4jnsgd1na2vs0mg"},{"bike_id":"e1b752a2-436a-47e4-9dc6-f57706a26538","system_id":"levelo_inurba_marseille","lat":43.290319,"lon":5.375732,"is_reserved":false,"is_disabled":false,"rental_uris":{"android":"levelo://app?vid=e1b752a2-436a-47e4-9dc6-f57706a26538","ios":"levelo://app?vid=e1b752a2-436a-47e4-9dc6-f57706a26538"},"vehicle_type_id":"4","last_reported":1721592578,"current_range_meters":22000,"station_id":"ce4bh692rcd13ifvqe90","pricing_plan_id":"cebpf4jnsgd1na2vs0mg"},{"bike_id":"0e7353b5-22de-4309-b97b-79f30d2e126a","system_id":"levelo_inurba_marseille","lat":43.29419,"lon":5.38624,"is_reserved":false,"is_disabled":false,"rental_uris":{"android":"levelo://app?vid=0e7353b5-22de-4309-b97b-79f30d2e126a","ios":"levelo://app?vid=0e7353b5-22de-4309-b97b-79f30d2e126a"},"vehicle_type_id":"4","last_reported":1721592578,"current_range_meters":400,"station_id":"ce4bh2h2rcd13ifvqdh0","pricing_plan_id":"cebpf4jnsgd1na2vs0mg"},{"bike_id":"c4c451f4-c8e6-497c-a875-33ff33d7b83b","system_id":"levelo_inurba_marseille","lat":43.294162,"lon":5.386292,"is_reserved":false,"is_disabled":false,"rental_uris":{"android":"levelo://app?vid=c4c451f4-c8e6-497c-a875-33ff33d7b83b","ios":"levelo://app?vid=c4c451f4-c8e6-497c-a875-33ff33d7b83b"},"vehicle_type_id":"4","last_reported":1721592578,"current_range_meters":24400,"station_id":"ce4bh2h2rcd13ifvqdh0","pricing_plan_id":"cebpf4jnsgd1na2vs0mg"},{"bike_id":"efe8aa69-9180-4117-8df1-69366b2062ea","system_id":"levelo_inurba_marseille","lat":43.289184,"lon":5.366408,"is_reserved":false,"is_disabled":false,"rental_uris":{"android":"levelo://app?vid=efe8aa69-9180-4117-8df1-69366b2062ea","ios":"levelo://app?vid=efe8aa69-9180-4117-8df1-69366b2062ea"},"vehicle_type_id":"4","last_reported":1721592578,"current_range_meters":7200,"station_id":"ce4bhap2rcd13ifvqek0","pricing_plan_id":"cebpf4jnsgd1na2vs0mg"},{"bike_id":"42ed1358-3ee9-40b8-8766-f182b695c0a6","system_id":"levelo_inurba_marseille","lat":43.289184,"lon":5.366408,"is_reserved":false,"is_disabled":false,"rental_uris":{"android":"levelo://app?vid=42ed1358-3ee9-40b8-8766-f182b695c0a6","ios":"levelo://app?vid=42ed1358-3ee9-40b8-8766-f182b695c0a6"},"vehicle_type_id":"4","last_reported":1721592578,"current_range_meters":32000,"station_id":"ce4bhap2rcd13ifvqek0","pricing_plan_id":"cebpf4jnsgd1na2vs0mg"},{"bike_id":"1fd63ebd-4532-42b5-a83f-b2adc29f3bf0","system_id":"levelo_inurba_marseille","lat":43.289184,"lon":5.366408,"is_reserved":false,"is_disabled":false,"rental_uris":{"android":"levelo://app?vid=1fd63ebd-4532-42b5-a83f-b2adc29f3bf0","ios":"levelo://app?vid=1fd63ebd-4532-42b5-a83f-b2adc29f3bf0"},"vehicle_type_id":"4","last_reported":1721592578,"current_range_meters":28800,"station_id":"ce4bhap2rcd13ifvqek0","pricing_plan_id":"cebpf4jnsgd1na2vs0mg"},{"bike_id":"99baab40-0b4b-4997-97c3-a78e16f19c1d","system_id":"levelo_inurba_marseille","lat":43.289468,"lon":5.363719,"is_reserved":false,"is_disabled":false,"rental_uris":{"android":"levelo://app?vid=99baab40-0b4b-4997-97c3-a78e16f19c1d","ios":"levelo://app?vid=99baab40-0b4b-4997-97c3-a78e16f19c1d"},"vehicle_type_id":"4","last_reported":1721592578,"current_range_meters":13200,"station_id":"ce4bhc92rcd13ifvqetg","pricing_plan_id":"cebpf4jnsgd1na2vs0mg"},{"bike_id":"ce20c56f-063c-4958-866f-25ac23d3a4ca","system_id":"levelo_inurba_marseille","lat":43.28933,"lon":5.36633,"is_reserved":false,"is_disabled":false,"rental_uris":{"android":"levelo://app?vid=ce20c56f-063c-4958-866f-25ac23d3a4ca","ios":"levelo://app?vid=ce20c56f-063c-4958-866f-25ac23d3a4ca"},"vehicle_type_id":"4","last_reported":1721592578,"current_range_meters":12000,"station_id":"ce4bhap2rcd13ifvqek0","pricing_plan_id":"cebpf4jnsgd1na2vs0mg"},{"bike_id":"dfe038dc-ace2-41ba-9c8a-36cf8bab58b1","system_id":"levelo_inurba_marseille","lat":43.289184,"lon":5.366408,"is_reserved":false,"is_disabled":false,"rental_uris":{"android":"levelo://app?vid=dfe038dc-ace2-41ba-9c8a-36cf8bab58b1","ios":"levelo://app?vid=dfe038dc-ace2-41ba-9c8a-36cf8bab58b1"},"vehicle_type_id":"4","last_reported":1721592578,"current_range_meters":26800,"station_id":"ce4bhap2rcd13ifvqek0","pricing_plan_id":"cebpf4jnsgd1na2vs0mg"},{"bike_id":"5fc1f6d7-a428-41c0-bdf9-c275f28900fc","system_id":"levelo_inurba_marseille","lat":43.289468,"lon":5.363719,"is_reserved":false,"is_disabled":false,"rental_uris":{"android":"levelo://app?vid=5fc1f6d7-a428-41c0-bdf9-c275f28900fc","ios":"levelo://app?vid=5fc1f6d7-a428-41c0-bdf9-c275f28900fc"},"vehicle_type_id":"4","last_reported":1721592578,"current_range_meters":19600,"station_id":"ce4bhc92rcd13ifvqetg","pricing_plan_id":"cebpf4jnsgd1na2vs0mg"},{"bike_id":"a7f7bf50-036f-46aa-b22d-8bb533fefb23","system_id":"levelo_inurba_marseille","lat":43.289468,"lon":5.363719,"is_reserved":false,"is_disabled":false,"rental_uris":{"android":"levelo://app?vid=a7f7bf50-036f-46aa-b22d-8bb533fefb23","ios":"levelo://app?vid=a7f7bf50-036f-46aa-b22d-8bb533fefb23"},"vehicle_type_id":"4","last_reported":1721592578,"current_range_meters":400,"station_id":"ce4bhc92rcd13ifvqetg","pricing_plan_id":"cebpf4jnsgd1na2vs0mg"},{"bike_id":"1f549fb0-d7b9-4fe1-b013-ae2851dcd11e","system_id":"levelo_inurba_marseille","lat":43.28935,"lon":5.36391,"is_reserved":false,"is_disabled":false,"rental_uris":{"android":"levelo://app?vid=1f549fb0-d7b9-4fe1-b013-ae2851dcd11e","ios":"levelo://app?vid=1f549fb0-d7b9-4fe1-b013-ae2851dcd11e"},"vehicle_type_id":"4","last_reported":1721592578,"current_range_meters":28400,"station_id":"ce4bhc92rcd13ifvqetg","pricing_plan_id":"cebpf4jnsgd1na2vs0mg"},{"bike_id":"a8af6859-9188-45e7-94c2-d468abee20d3","system_id":"levelo_inurba_marseille","lat":43.29275,"lon":5.38429,"is_reserved":false,"is_disabled":false,"rental_uris":{"android":"levelo://app?vid=a8af6859-9188-45e7-94c2-d468abee20d3","ios":"levelo://app?vid=a8af6859-9188-45e7-94c2-d468abee20d3"},"vehicle_type_id":"4","last_reported":1721592578,"current_range_meters":14800,"station_id":"ce4bh692rcd13ifvqea0","pricing_plan_id":"cebpf4jnsgd1na2vs0mg"},{"bike_id":"37af1ece-3669-4b65-ab72-af3ee6359852","system_id":"levelo_inurba_marseille","lat":43.29272,"lon":5.38433,"is_reserved":false,"is_disabled":false,"rental_uris":{"android":"levelo://app?vid=37af1ece-3669-4b65-ab72-af3ee6359852","ios":"levelo://app?vid=37af1ece-3669-4b65-ab72-af3ee6359852"},"vehicle_type_id":"4","last_reported":1721592578,"current_range_meters":17600,"station_id":"ce4bh692rcd13ifvqea0","pricing_plan_id":"cebpf4jnsgd1na2vs0mg"},{"bike_id":"a13ff8b8-0b7c-4f5e-ba33-e5a1fdaf7ff5","system_id":"levelo_inurba_marseille","lat":43.304296,"lon":5.397513,"is_reserved":false,"is_disabled":false,"rental_uris":{"android":"levelo://app?vid=a13ff8b8-0b7c-4f5e-ba33-e5a1fdaf7ff5","ios":"levelo://app?vid=a13ff8b8-0b7c-4f5e-ba33-e5a1fdaf7ff5"},"vehicle_type_id":"4","last_reported":1721592578,"current_range_meters":8800,"station_id":"ce4bh092rcd13ifvqd20","pricing_plan_id":"cebpf4jnsgd1na2vs0mg"},{"bike_id":"51463e60-e930-4607-bdde-5c7281ce4470","system_id":"levelo_inurba_marseille","lat":43.29261,"lon":5.38422,"is_reserved":false,"is_disabled":false,"rental_uris":{"android":"levelo://app?vid=51463e60-e930-4607-bdde-5c7281ce4470","ios":"levelo://app?vid=51463e60-e930-4607-bdde-5c7281ce4470"},"vehicle_type_id":"4","last_reported":1721592578,"current_range_meters":22400,"station_id":"ce4bh692rcd13ifvqea0","pricing_plan_id":"cebpf4jnsgd1na2vs0mg"},{"bike_id":"9b0e38a7-c449-4397-85f5-b4f53c3c5492","system_id":"levelo_inurba_marseille","lat":43.29265,"lon":5.38432,"is_reserved":false,"is_disabled":false,"rental_uris":{"android":"levelo://app?vid=9b0e38a7-c449-4397-85f5-b4f53c3c5492","ios":"levelo://app?vid=9b0e38a7-c449-4397-85f5-b4f53c3c5492"},"vehicle_type_id":"4","last_reported":1721592578,"current_range_meters":0,"station_id":"ce4bh692rcd13ifvqea0","pricing_plan_id":"cebpf4jnsgd1na2vs0mg"},{"bike_id":"310b17f5-0540-4e75-9edd-5d00c2ad03fa","system_id":"levelo_inurba_marseille","lat":43.304274,"lon":5.397513,"is_reserved":false,"is_disabled":false,"rental_uris":{"android":"levelo://app?vid=310b17f5-0540-4e75-9edd-5d00c2ad03fa","ios":"levelo://app?vid=310b17f5-0540-4e75-9edd-5d00c2ad03fa"},"vehicle_type_id":"4","last_reported":1721592578,"current_range_meters":27200,"station_id":"ce4bh092rcd13ifvqd20","pricing_plan_id":"cebpf4jnsgd1na2vs0mg"},{"bike_id":"3cce5c7b-8c11-4aff-8a19-5ffadaa66cd3","system_id":"levelo_inurba_marseille","lat":43.292644,"lon":5.384257,"is_reserved":false,"is_disabled":false,"rental_uris":{"android":"levelo://app?vid=3cce5c7b-8c11-4aff-8a19-5ffadaa66cd3","ios":"levelo://app?vid=3cce5c7b-8c11-4aff-8a19-5ffadaa66cd3"},"vehicle_type_id":"4","last_reported":1721592578,"current_range_meters":0,"station_id":"ce4bh692rcd13ifvqea0","pricing_plan_id":"cebpf4jnsgd1na2vs0mg"},{"bike_id":"106f3a84-8d15-4ec1-970d-86ed5b066f8a","system_id":"levelo_inurba_marseille","lat":43.29264,"lon":5.38441,"is_reserved":false,"is_disabled":false,"rental_uris":{"android":"levelo://app?vid=106f3a84-8d15-4ec1-970d-86ed5b066f8a","ios":"levelo://app?vid=106f3a84-8d15-4ec1-970d-86ed5b066f8a"},"vehicle_type_id":"4","last_reported":1721592578,"current_range_meters":26800,"station_id":"ce4bh692rcd13ifvqea0","pricing_plan_id":"cebpf4jnsgd1na2vs0mg"},{"bike_id":"94fa6164-5f65-4d4a-80a7-69c4903096b5","system_id":"levelo_inurba_marseille","lat":43.29264,"lon":5.38442,"is_reserved":false,"is_disabled":false,"rental_uris":{"android":"levelo://app?vid=94fa6164-5f65-4d4a-80a7-69c4903096b5","ios":"levelo://app?vid=94fa6164-5f65-4d4a-80a7-69c4903096b5"},"vehicle_type_id":"4","last_reported":1721592578,"current_range_meters":0,"station_id":"ce4bh692rcd13ifvqea0","pricing_plan_id":"cebpf4jnsgd1na2vs0mg"},{"bike_id":"126296a2-1e11-48d0-91ee-f40622c341e9","system_id":"levelo_inurba_marseille","lat":43.29265,"lon":5.38449,"is_reserved":false,"is_disabled":false,"rental_uris":{"android":"levelo://app?vid=126296a2-1e11-48d0-91ee-f40622c341e9","ios":"levelo://app?vid=126296a2-1e11-48d0-91ee-f40622c341e9"},"vehicle_type_id":"4","last_reported":1721592578,"current_range_meters":27200,"station_id":"ce4bh692rcd13ifvqea0","pricing_plan_id":"cebpf4jnsgd1na2vs0mg"},{"bike_id":"ed5cfb1b-e854-451f-9599-12dc89c6d059","system_id":"levelo_inurba_marseille","lat":43.29261,"lon":5.38442,"is_reserved":false,"is_disabled":false,"rental_uris":{"android":"levelo://app?vid=ed5cfb1b-e854-451f-9599-12dc89c6d059","ios":"levelo://app?vid=ed5cfb1b-e854-451f-9599-12dc89c6d059"},"vehicle_type_id":"4","last_reported":1721592578,"current_range_meters":22000,"station_id":"ce4bh692rcd13ifvqea0","pricing_plan_id":"cebpf4jnsgd1na2vs0mg"},{"bike_id":"d2b0bff3-627d-4e34-a521-931accfe90a3","system_id":"levelo_inurba_marseille","lat":43.292642,"lon":5.384254,"is_reserved":false,"is_disabled":false,"rental_uris":{"android":"levelo://app?vid=d2b0bff3-627d-4e34-a521-931accfe90a3","ios":"levelo://app?vid=d2b0bff3-627d-4e34-a521-931accfe90a3"},"vehicle_type_id":"4","last_reported":1721592578,"current_range_meters":8400,"station_id":"ce4bh692rcd13ifvqea0","pricing_plan_id":"cebpf4jnsgd1na2vs0mg"},{"bike_id":"ffe20377-adeb-452a-a176-577125900129","system_id":"levelo_inurba_marseille","lat":43.292642,"lon":5.384254,"is_reserved":false,"is_disabled":false,"rental_uris":{"android":"levelo://app?vid=ffe20377-adeb-452a-a176-577125900129","ios":"levelo://app?vid=ffe20377-adeb-452a-a176-577125900129"},"vehicle_type_id":"4","last_reported":1721592578,"current_range_meters":28000,"station_id":"ce4bh692rcd13ifvqea0","pricing_plan_id":"cebpf4jnsgd1na2vs0mg"},{"bike_id":"afc4aba7-54e6-4b05-912c-df9e944c1576","system_id":"levelo_inurba_marseille","lat":43.29014,"lon":5.35613,"is_reserved":false,"is_disabled":false,"rental_uris":{"android":"levelo://app?vid=afc4aba7-54e6-4b05-912c-df9e944c1576","ios":"levelo://app?vid=afc4aba7-54e6-4b05-912c-df9e944c1576"},"vehicle_type_id":"4","last_reported":1721592578,"current_range_meters":0,"station_id":"ce4bhb92rcd13ifvqen0","pricing_plan_id":"cebpf4jnsgd1na2vs0mg"},{"bike_id":"7d4c4cfb-77b6-49cd-9d64-9510d9e42192","system_id":"levelo_inurba_marseille","lat":43.290104,"lon":5.356111,"is_reserved":false,"is_disabled":false,"rental_uris":{"android":"levelo://app?vid=7d4c4cfb-77b6-49cd-9d64-9510d9e42192","ios":"levelo://app?vid=7d4c4cfb-77b6-49cd-9d64-9510d9e42192"},"vehicle_type_id":"4","last_reported":1721592578,"current_range_meters":0,"station_id":"ce4bhb92rcd13ifvqen0","pricing_plan_id":"cebpf4jnsgd1na2vs0mg"},{"bike_id":"19ed4117-42de-4933-be43-ccc99306decb","system_id":"levelo_inurba_marseille","lat":43.290104,"lon":5.356111,"is_reserved":false,"is_disabled":false,"rental_uris":{"android":"levelo://app?vid=19ed4117-42de-4933-be43-ccc99306decb","ios":"levelo://app?vid=19ed4117-42de-4933-be43-ccc99306decb"},"vehicle_type_id":"4","last_reported":1721592578,"current_range_meters":0,"station_id":"ce4bhb92rcd13ifvqen0","pricing_plan_id":"cebpf4jnsgd1na2vs0mg"},{"bike_id":"ffda4214-f1eb-46c1-be2c-bc9315bab628","system_id":"levelo_inurba_marseille","lat":43.290104,"lon":5.356111,"is_reserved":false,"is_disabled":false,"rental_uris":{"android":"levelo://app?vid=ffda4214-f1eb-46c1-be2c-bc9315bab628","ios":"levelo://app?vid=ffda4214-f1eb-46c1-be2c-bc9315bab628"},"vehicle_type_id":"4","last_reported":1721592578,"current_range_meters":31200,"station_id":"ce4bhb92rcd13ifvqen0","pricing_plan_id":"cebpf4jnsgd1na2vs0mg"},{"bike_id":"5a20831d-02c4-479c-b320-fed65046f92a","system_id":"levelo_inurba_marseille","lat":43.29108,"lon":5.3813,"is_reserved":false,"is_disabled":false,"rental_uris":{"android":"levelo://app?vid=5a20831d-02c4-479c-b320-fed65046f92a","ios":"levelo://app?vid=5a20831d-02c4-479c-b320-fed65046f92a"},"vehicle_type_id":"4","last_reported":1721592578,"current_range_meters":28800,"station_id":"ce4bh512rcd13ifvqe2g","pricing_plan_id":"cebpf4jnsgd1na2vs0mg"},{"bike_id":"cde1449b-0af4-449b-83c9-16bbdd40d8e5","system_id":"levelo_inurba_marseille","lat":43.290995,"lon":5.381361,"is_reserved":false,"is_disabled":false,"rental_uris":{"android":"levelo://app?vid=cde1449b-0af4-449b-83c9-16bbdd40d8e5","ios":"levelo://app?vid=cde1449b-0af4-449b-83c9-16bbdd40d8e5"},"vehicle_type_id":"4","last_reported":1721592578,"current_range_meters":31200,"station_id":"ce4bh512rcd13ifvqe2g","pricing_plan_id":"cebpf4jnsgd1na2vs0mg"},{"bike_id":"a53d441e-7d3a-49f4-81c2-132eba9ccd76","system_id":"levelo_inurba_marseille","lat":43.290995,"lon":5.381361,"is_reserved":false,"is_disabled":false,"rental_uris":{"android":"levelo://app?vid=a53d441e-7d3a-49f4-81c2-132eba9ccd76","ios":"levelo://app?vid=a53d441e-7d3a-49f4-81c2-132eba9ccd76"},"vehicle_type_id":"4","last_reported":1721592578,"current_range_meters":17200,"station_id":"ce4bh512rcd13ifvqe2g","pricing_plan_id":"cebpf4jnsgd1na2vs0mg"},{"bike_id":"f5e2dc91-b2b2-4bc5-a0bb-4e915bbbe1b0","system_id":"levelo_inurba_marseille","lat":43.29105,"lon":5.38149,"is_reserved":false,"is_disabled":false,"rental_uris":{"android":"levelo://app?vid=f5e2dc91-b2b2-4bc5-a0bb-4e915bbbe1b0","ios":"levelo://app?vid=f5e2dc91-b2b2-4bc5-a0bb-4e915bbbe1b0"},"vehicle_type_id":"4","last_reported":1721592578,"current_range_meters":8000,"station_id":"ce4bh512rcd13ifvqe2g","pricing_plan_id":"cebpf4jnsgd1na2vs0mg"},{"bike_id":"dec4c4c7-e336-48b2-9a29-b2fc195740cc","system_id":"levelo_inurba_marseille","lat":43.290995,"lon":5.381361,"is_reserved":false,"is_disabled":false,"rental_uris":{"android":"levelo://app?vid=dec4c4c7-e336-48b2-9a29-b2fc195740cc","ios":"levelo://app?vid=dec4c4c7-e336-48b2-9a29-b2fc195740cc"},"vehicle_type_id":"4","last_reported":1721592578,"current_range_meters":15600,"station_id":"ce4bh512rcd13ifvqe2g","pricing_plan_id":"cebpf4jnsgd1na2vs0mg"},{"bike_id":"72daa179-3c7d-4a45-a624-777751a264b9","system_id":"levelo_inurba_marseille","lat":43.29099,"lon":5.38144,"is_reserved":false,"is_disabled":false,"rental_uris":{"android":"levelo://app?vid=72daa179-3c7d-4a45-a624-777751a264b9","ios":"levelo://app?vid=72daa179-3c7d-4a45-a624-777751a264b9"},"vehicle_type_id":"4","last_reported":1721592578,"current_range_meters":800,"station_id":"ce4bh512rcd13ifvqe2g","pricing_plan_id":"cebpf4jnsgd1na2vs0mg"},{"bike_id":"0dc8a5ad-c207-47c8-92dd-0be974567d02","system_id":"levelo_inurba_marseille","lat":43.295169,"lon":5.390426,"is_reserved":false,"is_disabled":false,"rental_uris":{"android":"levelo://app?vid=0dc8a5ad-c207-47c8-92dd-0be974567d02","ios":"levelo://app?vid=0dc8a5ad-c207-47c8-92dd-0be974567d02"},"vehicle_type_id":"4","last_reported":1721592578,"current_range_meters":18000,"station_id":"ce4bh3p2rcd13ifvqdp0","pricing_plan_id":"cebpf4jnsgd1na2vs0mg"},{"bike_id":"baf8e45b-29f6-4cc0-ace4-9b56ae541671","system_id":"levelo_inurba_marseille","lat":43.297807,"lon":5.393533,"is_reserved":false,"is_disabled":false,"rental_uris":{"android":"levelo://app?vid=baf8e45b-29f6-4cc0-ace4-9b56ae541671","ios":"levelo://app?vid=baf8e45b-29f6-4cc0-ace4-9b56ae541671"},"vehicle_type_id":"4","last_reported":1721592578,"current_range_meters":13200,"station_id":"chh1huq6cuj3fo74tm60","pricing_plan_id":"cebpf4jnsgd1na2vs0mg"},{"bike_id":"6064b869-cd76-42d3-9634-a495bb904a7a","system_id":"levelo_inurba_marseille","lat":43.330442,"lon":5.389148,"is_reserved":false,"is_disabled":false,"rental_uris":{"android":"levelo://app?vid=6064b869-cd76-42d3-9634-a495bb904a7a","ios":"levelo://app?vid=6064b869-cd76-42d3-9634-a495bb904a7a"},"vehicle_type_id":"4","last_reported":1721592578,"current_range_meters":25600,"station_id":"ce4bhr92rcd13ifvqhrg","pricing_plan_id":"cebpf4jnsgd1na2vs0mg"},{"bike_id":"be0d0d84-50a8-4cfd-a255-09a81e7e5a8f","system_id":"levelo_inurba_marseille","lat":43.33028,"lon":5.39036,"is_reserved":false,"is_disabled":false,"rental_uris":{"android":"levelo://app?vid=be0d0d84-50a8-4cfd-a255-09a81e7e5a8f","ios":"levelo://app?vid=be0d0d84-50a8-4cfd-a255-09a81e7e5a8f"},"vehicle_type_id":"4","last_reported":1721592578,"current_range_meters":6400,"station_id":"ce4bhr92rcd13ifvqhrg","pricing_plan_id":"cebpf4jnsgd1na2vs0mg"},{"bike_id":"6556f181-e401-4f41-9767-ac2c73d7dfef","system_id":"levelo_inurba_marseille","lat":43.295169,"lon":5.390426,"is_reserved":false,"is_disabled":false,"rental_uris":{"android":"levelo://app?vid=6556f181-e401-4f41-9767-ac2c73d7dfef","ios":"levelo://app?vid=6556f181-e401-4f41-9767-ac2c73d7dfef"},"vehicle_type_id":"4","last_reported":1721592578,"current_range_meters":20800,"station_id":"ce4bh3p2rcd13ifvqdp0","pricing_plan_id":"cebpf4jnsgd1na2vs0mg"},{"bike_id":"f0d5c39a-327c-4f04-aed2-765509138ace","system_id":"levelo_inurba_marseille","lat":43.289741,"lon":5.378306,"is_reserved":false,"is_disabled":false,"rental_uris":{"android":"levelo://app?vid=f0d5c39a-327c-4f04-aed2-765509138ace","ios":"levelo://app?vid=f0d5c39a-327c-4f04-aed2-765509138ace"},"vehicle_type_id":"4","last_reported":1721592578,"current_range_meters":31200,"station_id":"ce4bh9p2rcd13ifvqed0","pricing_plan_id":"cebpf4jnsgd1na2vs0mg"},{"bike_id":"48705522-bdf6-488c-b15e-c2766d7230fc","system_id":"levelo_inurba_marseille","lat":43.33024,"lon":5.39044,"is_reserved":false,"is_disabled":false,"rental_uris":{"android":"levelo://app?vid=48705522-bdf6-488c-b15e-c2766d7230fc","ios":"levelo://app?vid=48705522-bdf6-488c-b15e-c2766d7230fc"},"vehicle_type_id":"4","last_reported":1721592578,"current_range_meters":28000,"station_id":"ce4bhr92rcd13ifvqhrg","pricing_plan_id":"cebpf4jnsgd1na2vs0mg"},{"bike_id":"adbadfa8-8624-433d-8e88-02797a52a200","system_id":"levelo_inurba_marseille","lat":43.310201,"lon":5.400757,"is_reserved":false,"is_disabled":false,"rental_uris":{"android":"levelo://app?vid=adbadfa8-8624-433d-8e88-02797a52a200","ios":"levelo://app?vid=adbadfa8-8624-433d-8e88-02797a52a200"},"vehicle_type_id":"4","last_reported":1721592578,"current_range_meters":28400,"station_id":"","pricing_plan_id":"cebpf4jnsgd1na2vs0mg"},{"bike_id":"717a02b4-714b-4eac-b5d5-b3036744c7d0","system_id":"levelo_inurba_marseille","lat":43.290094,"lon":5.381264,"is_reserved":false,"is_disabled":false,"rental_uris":{"android":"levelo://app?vid=717a02b4-714b-4eac-b5d5-b3036744c7d0","ios":"levelo://app?vid=717a02b4-714b-4eac-b5d5-b3036744c7d0"},"vehicle_type_id":"4","last_reported":1721592578,"current_range_meters":25600,"station_id":"ce4bh4p2rcd13ifvqe1g","pricing_plan_id":"cebpf4jnsgd1na2vs0mg"},{"bike_id":"20823a5e-a539-4fe9-b432-1fc5f73467e9","system_id":"levelo_inurba_marseille","lat":43.290336,"lon":5.386425,"is_reserved":false,"is_disabled":false,"rental_uris":{"android":"levelo://app?vid=20823a5e-a539-4fe9-b432-1fc5f73467e9","ios":"levelo://app?vid=20823a5e-a539-4fe9-b432-1fc5f73467e9"},"vehicle_type_id":"4","last_reported":1721592578,"current_range_meters":26000,"station_id":"ce4bh4p2rcd13ifvqe0g","pricing_plan_id":"cebpf4jnsgd1na2vs0mg"},{"bike_id":"cffb6dcd-b9f3-4205-8b68-08b3b5fc5979","system_id":"levelo_inurba_marseille","lat":43.28852,"lon":5.35851,"is_reserved":false,"is_disabled":false,"rental_uris":{"android":"levelo://app?vid=cffb6dcd-b9f3-4205-8b68-08b3b5fc5979","ios":"levelo://app?vid=cffb6dcd-b9f3-4205-8b68-08b3b5fc5979"},"vehicle_type_id":"4","last_reported":1721592578,"current_range_meters":25200,"station_id":"ce4bhb12rcd13ifvqem0","pricing_plan_id":"cebpf4jnsgd1na2vs0mg"},{"bike_id":"e30f1f73-5f34-4266-96dd-3e7464546374","system_id":"levelo_inurba_marseille","lat":43.2885,"lon":5.35849,"is_reserved":false,"is_disabled":false,"rental_uris":{"android":"levelo://app?vid=e30f1f73-5f34-4266-96dd-3e7464546374","ios":"levelo://app?vid=e30f1f73-5f34-4266-96dd-3e7464546374"},"vehicle_type_id":"4","last_reported":1721592578,"current_range_meters":23600,"station_id":"ce4bhb12rcd13ifvqem0","pricing_plan_id":"cebpf4jnsgd1na2vs0mg"},{"bike_id":"3e36121e-1006-48f0-8148-ba15a28bbaef","system_id":"levelo_inurba_marseille","lat":43.312609,"lon":5.401662,"is_reserved":false,"is_disabled":false,"rental_uris":{"android":"levelo://app?vid=3e36121e-1006-48f0-8148-ba15a28bbaef","ios":"levelo://app?vid=3e36121e-1006-48f0-8148-ba15a28bbaef"},"vehicle_type_id":"4","last_reported":1721592578,"current_range_meters":8000,"station_id":"ce4bh092rcd13ifvqd30","pricing_plan_id":"cebpf4jnsgd1na2vs0mg"},{"bike_id":"79370460-4122-41c6-8534-f4aac3deeebc","system_id":"levelo_inurba_marseille","lat":43.312609,"lon":5.401662,"is_reserved":false,"is_disabled":false,"rental_uris":{"android":"levelo://app?vid=79370460-4122-41c6-8534-f4aac3deeebc","ios":"levelo://app?vid=79370460-4122-41c6-8534-f4aac3deeebc"},"vehicle_type_id":"4","last_reported":1721592578,"current_range_meters":12400,"station_id":"ce4bh092rcd13ifvqd30","pricing_plan_id":"cebpf4jnsgd1na2vs0mg"},{"bike_id":"679ea295-5458-43ec-af03-2c291a649366","system_id":"levelo_inurba_marseille","lat":43.31275,"lon":5.40164,"is_reserved":false,"is_disabled":false,"rental_uris":{"android":"levelo://app?vid=679ea295-5458-43ec-af03-2c291a649366","ios":"levelo://app?vid=679ea295-5458-43ec-af03-2c291a649366"},"vehicle_type_id":"4","last_reported":1721592578,"current_range_meters":0,"station_id":"ce4bh092rcd13ifvqd30","pricing_plan_id":"cebpf4jnsgd1na2vs0mg"},{"bike_id":"3bbec20f-6296-4c7a-999a-b679b0efc89a","system_id":"levelo_inurba_marseille","lat":43.309371,"lon":5.401449,"is_reserved":false,"is_disabled":false,"rental_uris":{"android":"levelo://app?vid=3bbec20f-6296-4c7a-999a-b679b0efc89a","ios":"levelo://app?vid=3bbec20f-6296-4c7a-999a-b679b0efc89a"},"vehicle_type_id":"4","last_reported":1721592578,"current_range_meters":1600,"station_id":"ce4bgvp2rcd13ifvqct0","pricing_plan_id":"cebpf4jnsgd1na2vs0mg"},{"bike_id":"da1ef795-4411-4787-a704-e9710fe27f7e","system_id":"levelo_inurba_marseille","lat":43.337472,"lon":5.374599,"is_reserved":false,"is_disabled":false,"rental_uris":{"android":"levelo://app?vid=da1ef795-4411-4787-a704-e9710fe27f7e","ios":"levelo://app?vid=da1ef795-4411-4787-a704-e9710fe27f7e"},"vehicle_type_id":"4","last_reported":1721592578,"current_range_meters":18000,"station_id":"","pricing_plan_id":"cebpf4jnsgd1na2vs0mg"},{"bike_id":"9458a255-a47a-41f1-849e-755dc4612ffe","system_id":"levelo_inurba_marseille","lat":43.337516,"lon":5.374541,"is_reserved":false,"is_disabled":false,"rental_uris":{"android":"levelo://app?vid=9458a255-a47a-41f1-849e-755dc4612ffe","ios":"levelo://app?vid=9458a255-a47a-41f1-849e-755dc4612ffe"},"vehicle_type_id":"4","last_reported":1721592578,"current_range_meters":18400,"station_id":"","pricing_plan_id":"cebpf4jnsgd1na2vs0mg"},{"bike_id":"c92917fe-83c2-4005-95d6-56cac26a239a","system_id":"levelo_inurba_marseille","lat":43.306412,"lon":5.401035,"is_reserved":false,"is_disabled":false,"rental_uris":{"android":"levelo://app?vid=c92917fe-83c2-4005-95d6-56cac26a239a","ios":"levelo://app?vid=c92917fe-83c2-4005-95d6-56cac26a239a"},"vehicle_type_id":"4","last_reported":1721592578,"current_range_meters":0,"station_id":"ce4bh112rcd13ifvqda0","pricing_plan_id":"cebpf4jnsgd1na2vs0mg"},{"bike_id":"0ad3db73-21e8-41b5-aad3-7f410c37748d","system_id":"levelo_inurba_marseille","lat":43.33754,"lon":5.37454,"is_reserved":false,"is_disabled":false,"rental_uris":{"android":"levelo://app?vid=0ad3db73-21e8-41b5-aad3-7f410c37748d","ios":"levelo://app?vid=0ad3db73-21e8-41b5-aad3-7f410c37748d"},"vehicle_type_id":"4","last_reported":1721592578,"current_range_meters":9200,"station_id":"","pricing_plan_id":"cebpf4jnsgd1na2vs0mg"},{"bike_id":"04d3b3f4-437e-4138-915f-30ff8e238f5d","system_id":"levelo_inurba_marseille","lat":43.306412,"lon":5.401035,"is_reserved":false,"is_disabled":false,"rental_uris":{"android":"levelo://app?vid=04d3b3f4-437e-4138-915f-30ff8e238f5d","ios":"levelo://app?vid=04d3b3f4-437e-4138-915f-30ff8e238f5d"},"vehicle_type_id":"4","last_reported":1721592578,"current_range_meters":7200,"station_id":"ce4bh112rcd13ifvqda0","pricing_plan_id":"cebpf4jnsgd1na2vs0mg"},{"bike_id":"9fd23b8b-c7c3-4b5a-b11d-8284b8e4dfa2","system_id":"levelo_inurba_marseille","lat":43.337578,"lon":5.374428,"is_reserved":false,"is_disabled":false,"rental_uris":{"android":"levelo://app?vid=9fd23b8b-c7c3-4b5a-b11d-8284b8e4dfa2","ios":"levelo://app?vid=9fd23b8b-c7c3-4b5a-b11d-8284b8e4dfa2"},"vehicle_type_id":"4","last_reported":1721592578,"current_range_meters":21600,"station_id":"","pricing_plan_id":"cebpf4jnsgd1na2vs0mg"},{"bike_id":"d0723523-f35a-472e-b198-a5153fc33bb6","system_id":"levelo_inurba_marseille","lat":43.33759,"lon":5.37487,"is_reserved":false,"is_disabled":false,"rental_uris":{"android":"levelo://app?vid=d0723523-f35a-472e-b198-a5153fc33bb6","ios":"levelo://app?vid=d0723523-f35a-472e-b198-a5153fc33bb6"},"vehicle_type_id":"4","last_reported":1721592578,"current_range_meters":16400,"station_id":"","pricing_plan_id":"cebpf4jnsgd1na2vs0mg"},{"bike_id":"ac377a63-6a02-42fa-8a70-d5bb9b7546c9","system_id":"levelo_inurba_marseille","lat":43.3377,"lon":5.374311,"is_reserved":false,"is_disabled":false,"rental_uris":{"android":"levelo://app?vid=ac377a63-6a02-42fa-8a70-d5bb9b7546c9","ios":"levelo://app?vid=ac377a63-6a02-42fa-8a70-d5bb9b7546c9"},"vehicle_type_id":"4","last_reported":1721592578,"current_range_meters":15200,"station_id":"","pricing_plan_id":"cebpf4jnsgd1na2vs0mg"},{"bike_id":"73c27f42-c536-47dd-9ddc-75c0cce23981","system_id":"levelo_inurba_marseille","lat":43.306412,"lon":5.401035,"is_reserved":false,"is_disabled":false,"rental_uris":{"android":"levelo://app?vid=73c27f42-c536-47dd-9ddc-75c0cce23981","ios":"levelo://app?vid=73c27f42-c536-47dd-9ddc-75c0cce23981"},"vehicle_type_id":"4","last_reported":1721592578,"current_range_meters":29600,"station_id":"ce4bh112rcd13ifvqda0","pricing_plan_id":"cebpf4jnsgd1na2vs0mg"},{"bike_id":"f652858b-469d-45bd-9569-0d0ced7fd4a9","system_id":"levelo_inurba_marseille","lat":43.30642,"lon":5.401031,"is_reserved":false,"is_disabled":false,"rental_uris":{"android":"levelo://app?vid=f652858b-469d-45bd-9569-0d0ced7fd4a9","ios":"levelo://app?vid=f652858b-469d-45bd-9569-0d0ced7fd4a9"},"vehicle_type_id":"4","last_reported":1721592578,"current_range_meters":0,"station_id":"ce4bh112rcd13ifvqda0","pricing_plan_id":"cebpf4jnsgd1na2vs0mg"},{"bike_id":"88cb165e-ce81-4061-b4c3-afeafd53af50","system_id":"levelo_inurba_marseille","lat":43.306412,"lon":5.401035,"is_reserved":false,"is_disabled":false,"rental_uris":{"android":"levelo://app?vid=88cb165e-ce81-4061-b4c3-afeafd53af50","ios":"levelo://app?vid=88cb165e-ce81-4061-b4c3-afeafd53af50"},"vehicle_type_id":"4","last_reported":1721592578,"current_range_meters":23600,"station_id":"ce4bh112rcd13ifvqda0","pricing_plan_id":"cebpf4jnsgd1na2vs0mg"},{"bike_id":"6737679f-9b89-419f-8fc6-0b5aa20c73fc","system_id":"levelo_inurba_marseille","lat":43.301117,"lon":5.398795,"is_reserved":false,"is_disabled":false,"rental_uris":{"android":"levelo://app?vid=6737679f-9b89-419f-8fc6-0b5aa20c73fc","ios":"levelo://app?vid=6737679f-9b89-419f-8fc6-0b5aa20c73fc"},"vehicle_type_id":"4","last_reported":1721592578,"current_range_meters":2800,"station_id":"ce4bh0h2rcd13ifvqd40","pricing_plan_id":"cebpf4jnsgd1na2vs0mg"},{"bike_id":"a9c5ac29-065d-4797-9a0c-d4dde2f72107","system_id":"levelo_inurba_marseille","lat":43.301117,"lon":5.398795,"is_reserved":false,"is_disabled":false,"rental_uris":{"android":"levelo://app?vid=a9c5ac29-065d-4797-9a0c-d4dde2f72107","ios":"levelo://app?vid=a9c5ac29-065d-4797-9a0c-d4dde2f72107"},"vehicle_type_id":"4","last_reported":1721592578,"current_range_meters":28800,"station_id":"ce4bh0h2rcd13ifvqd40","pricing_plan_id":"cebpf4jnsgd1na2vs0mg"},{"bike_id":"a511d663-a7e8-4856-a403-840a40453ffe","system_id":"levelo_inurba_marseille","lat":43.301117,"lon":5.398795,"is_reserved":false,"is_disabled":false,"rental_uris":{"android":"levelo://app?vid=a511d663-a7e8-4856-a403-840a40453ffe","ios":"levelo://app?vid=a511d663-a7e8-4856-a403-840a40453ffe"},"vehicle_type_id":"4","last_reported":1721592578,"current_range_meters":25200,"station_id":"ce4bh0h2rcd13ifvqd40","pricing_plan_id":"cebpf4jnsgd1na2vs0mg"},{"bike_id":"4e9ce58d-6c78-44e8-9d70-fc845a032d4e","system_id":"levelo_inurba_marseille","lat":43.301117,"lon":5.398795,"is_reserved":false,"is_disabled":false,"rental_uris":{"android":"levelo://app?vid=4e9ce58d-6c78-44e8-9d70-fc845a032d4e","ios":"levelo://app?vid=4e9ce58d-6c78-44e8-9d70-fc845a032d4e"},"vehicle_type_id":"4","last_reported":1721592578,"current_range_meters":5600,"station_id":"ce4bh0h2rcd13ifvqd40","pricing_plan_id":"cebpf4jnsgd1na2vs0mg"},{"bike_id":"5bbbe02f-74a3-480d-a38c-ba1c6819839d","system_id":"levelo_inurba_marseille","lat":43.28727,"lon":5.36078,"is_reserved":false,"is_disabled":false,"rental_uris":{"android":"levelo://app?vid=5bbbe02f-74a3-480d-a38c-ba1c6819839d","ios":"levelo://app?vid=5bbbe02f-74a3-480d-a38c-ba1c6819839d"},"vehicle_type_id":"4","last_reported":1721592578,"current_range_meters":1600,"station_id":"cki0cbj6b192h4jlfktg","pricing_plan_id":"cebpf4jnsgd1na2vs0mg"},{"bike_id":"812f5f8e-688d-4e01-bd21-2c67ec9c181a","system_id":"levelo_inurba_marseille","lat":43.28727,"lon":5.36078,"is_reserved":false,"is_disabled":false,"rental_uris":{"android":"levelo://app?vid=812f5f8e-688d-4e01-bd21-2c67ec9c181a","ios":"levelo://app?vid=812f5f8e-688d-4e01-bd21-2c67ec9c181a"},"vehicle_type_id":"4","last_reported":1721592578,"current_range_meters":0,"station_id":"cki0cbj6b192h4jlfktg","pricing_plan_id":"cebpf4jnsgd1na2vs0mg"},{"bike_id":"eae050cd-d2c2-4ec6-9875-d5441922c545","system_id":"levelo_inurba_marseille","lat":43.286961,"lon":5.373785,"is_reserved":false,"is_disabled":false,"rental_uris":{"android":"levelo://app?vid=eae050cd-d2c2-4ec6-9875-d5441922c545","ios":"levelo://app?vid=eae050cd-d2c2-4ec6-9875-d5441922c545"},"vehicle_type_id":"4","last_reported":1721592578,"current_range_meters":22800,"station_id":"ce4bh3p2rcd13ifvqdq0","pricing_plan_id":"cebpf4jnsgd1na2vs0mg"},{"bike_id":"e3337877-c990-4621-8fbd-62fcea267c64","system_id":"levelo_inurba_marseille","lat":43.286961,"lon":5.373785,"is_reserved":false,"is_disabled":false,"rental_uris":{"android":"levelo://app?vid=e3337877-c990-4621-8fbd-62fcea267c64","ios":"levelo://app?vid=e3337877-c990-4621-8fbd-62fcea267c64"},"vehicle_type_id":"4","last_reported":1721592578,"current_range_meters":800,"station_id":"ce4bh3p2rcd13ifvqdq0","pricing_plan_id":"cebpf4jnsgd1na2vs0mg"},{"bike_id":"b78a37d7-218f-43b5-80e9-c2f7d4ff1103","system_id":"levelo_inurba_marseille","lat":43.286593,"lon":5.363346,"is_reserved":false,"is_disabled":false,"rental_uris":{"android":"levelo://app?vid=b78a37d7-218f-43b5-80e9-c2f7d4ff1103","ios":"levelo://app?vid=b78a37d7-218f-43b5-80e9-c2f7d4ff1103"},"vehicle_type_id":"4","last_reported":1721592578,"current_range_meters":16000,"station_id":"ce4bhah2rcd13ifvqej0","pricing_plan_id":"cebpf4jnsgd1na2vs0mg"},{"bike_id":"57a0a2a5-2f88-4c38-9f2f-4fef67bad61d","system_id":"levelo_inurba_marseille","lat":43.280382,"lon":5.369291,"is_reserved":false,"is_disabled":false,"rental_uris":{"android":"levelo://app?vid=57a0a2a5-2f88-4c38-9f2f-4fef67bad61d","ios":"levelo://app?vid=57a0a2a5-2f88-4c38-9f2f-4fef67bad61d"},"vehicle_type_id":"4","last_reported":1721592578,"current_range_meters":10800,"station_id":"ce4bha12rcd13ifvqef0","pricing_plan_id":"cebpf4jnsgd1na2vs0mg"},{"bike_id":"34376318-fe81-4042-a131-56387ccd3122","system_id":"levelo_inurba_marseille","lat":43.290293,"lon":5.38637,"is_reserved":false,"is_disabled":false,"rental_uris":{"android":"levelo://app?vid=34376318-fe81-4042-a131-56387ccd3122","ios":"levelo://app?vid=34376318-fe81-4042-a131-56387ccd3122"},"vehicle_type_id":"4","last_reported":1721592578,"current_range_meters":12400,"station_id":"ce4bh4p2rcd13ifvqe0g","pricing_plan_id":"cebpf4jnsgd1na2vs0mg"},{"bike_id":"b6b53267-49a7-48c2-9f61-2c2822c4409f","system_id":"levelo_inurba_marseille","lat":43.290303,"lon":5.38644,"is_reserved":false,"is_disabled":false,"rental_uris":{"android":"levelo://app?vid=b6b53267-49a7-48c2-9f61-2c2822c4409f","ios":"levelo://app?vid=b6b53267-49a7-48c2-9f61-2c2822c4409f"},"vehicle_type_id":"4","last_reported":1721592578,"current_range_meters":0,"station_id":"ce4bh4p2rcd13ifvqe0g","pricing_plan_id":"cebpf4jnsgd1na2vs0mg"},{"bike_id":"f3c16be4-21bd-4b6f-831a-de8945b2b3e9","system_id":"levelo_inurba_marseille","lat":43.286039,"lon":5.370679,"is_reserved":false,"is_disabled":false,"rental_uris":{"android":"levelo://app?vid=f3c16be4-21bd-4b6f-831a-de8945b2b3e9","ios":"levelo://app?vid=f3c16be4-21bd-4b6f-831a-de8945b2b3e9"},"vehicle_type_id":"4","last_reported":1721592578,"current_range_meters":10000,"station_id":"ce4bht12rcd13ifvqi60","pricing_plan_id":"cebpf4jnsgd1na2vs0mg"},{"bike_id":"c046de60-bb51-4ceb-8bfc-208d6e77e0ce","system_id":"levelo_inurba_marseille","lat":43.286039,"lon":5.370679,"is_reserved":false,"is_disabled":false,"rental_uris":{"android":"levelo://app?vid=c046de60-bb51-4ceb-8bfc-208d6e77e0ce","ios":"levelo://app?vid=c046de60-bb51-4ceb-8bfc-208d6e77e0ce"},"vehicle_type_id":"4","last_reported":1721592578,"current_range_meters":6000,"station_id":"ce4bht12rcd13ifvqi60","pricing_plan_id":"cebpf4jnsgd1na2vs0mg"},{"bike_id":"1d1414c6-6c0e-45d5-a7ae-9d572d410639","system_id":"levelo_inurba_marseille","lat":43.286039,"lon":5.370681,"is_reserved":false,"is_disabled":false,"rental_uris":{"android":"levelo://app?vid=1d1414c6-6c0e-45d5-a7ae-9d572d410639","ios":"levelo://app?vid=1d1414c6-6c0e-45d5-a7ae-9d572d410639"},"vehicle_type_id":"4","last_reported":1721592578,"current_range_meters":0,"station_id":"ce4bht12rcd13ifvqi60","pricing_plan_id":"cebpf4jnsgd1na2vs0mg"},{"bike_id":"4de39fd0-eed3-4f39-9371-432a49dcdbc6","system_id":"levelo_inurba_marseille","lat":43.2861,"lon":5.37061,"is_reserved":false,"is_disabled":false,"rental_uris":{"android":"levelo://app?vid=4de39fd0-eed3-4f39-9371-432a49dcdbc6","ios":"levelo://app?vid=4de39fd0-eed3-4f39-9371-432a49dcdbc6"},"vehicle_type_id":"4","last_reported":1721592578,"current_range_meters":0,"station_id":"ce4bht12rcd13ifvqi60","pricing_plan_id":"cebpf4jnsgd1na2vs0mg"},{"bike_id":"75e19b6c-4837-4dd9-b40b-fc07a60acea8","system_id":"levelo_inurba_marseille","lat":43.287184,"lon":5.37937,"is_reserved":false,"is_disabled":false,"rental_uris":{"android":"levelo://app?vid=75e19b6c-4837-4dd9-b40b-fc07a60acea8","ios":"levelo://app?vid=75e19b6c-4837-4dd9-b40b-fc07a60acea8"},"vehicle_type_id":"4","last_reported":1721592578,"current_range_meters":26000,"station_id":"ce4bh9p2rcd13ifvqec0","pricing_plan_id":"cebpf4jnsgd1na2vs0mg"},{"bike_id":"1659b1df-17e7-45b0-ba9d-7930a08e752c","system_id":"levelo_inurba_marseille","lat":43.287184,"lon":5.37937,"is_reserved":false,"is_disabled":false,"rental_uris":{"android":"levelo://app?vid=1659b1df-17e7-45b0-ba9d-7930a08e752c","ios":"levelo://app?vid=1659b1df-17e7-45b0-ba9d-7930a08e752c"},"vehicle_type_id":"4","last_reported":1721592578,"current_range_meters":15600,"station_id":"ce4bh9p2rcd13ifvqec0","pricing_plan_id":"cebpf4jnsgd1na2vs0mg"},{"bike_id":"ea5d67c0-65d1-4327-a793-a2e7e3458aa3","system_id":"levelo_inurba_marseille","lat":43.316828,"lon":5.404723,"is_reserved":false,"is_disabled":false,"rental_uris":{"android":"levelo://app?vid=ea5d67c0-65d1-4327-a793-a2e7e3458aa3","ios":"levelo://app?vid=ea5d67c0-65d1-4327-a793-a2e7e3458aa3"},"vehicle_type_id":"4","last_reported":1721592578,"current_range_meters":2000,"station_id":"ce4bh012rcd13ifvqd00","pricing_plan_id":"cebpf4jnsgd1na2vs0mg"},{"bike_id":"2512ac26-e5c9-40d3-8400-a170246f9bd8","system_id":"levelo_inurba_marseille","lat":43.316828,"lon":5.404723,"is_reserved":false,"is_disabled":false,"rental_uris":{"android":"levelo://app?vid=2512ac26-e5c9-40d3-8400-a170246f9bd8","ios":"levelo://app?vid=2512ac26-e5c9-40d3-8400-a170246f9bd8"},"vehicle_type_id":"4","last_reported":1721592578,"current_range_meters":5600,"station_id":"ce4bh012rcd13ifvqd00","pricing_plan_id":"cebpf4jnsgd1na2vs0mg"},{"bike_id":"195fe3e0-721c-4bf5-a4c6-d7e66914c4b6","system_id":"levelo_inurba_marseille","lat":43.316821,"lon":5.404737,"is_reserved":false,"is_disabled":false,"rental_uris":{"android":"levelo://app?vid=195fe3e0-721c-4bf5-a4c6-d7e66914c4b6","ios":"levelo://app?vid=195fe3e0-721c-4bf5-a4c6-d7e66914c4b6"},"vehicle_type_id":"4","last_reported":1721592578,"current_range_meters":0,"station_id":"ce4bh012rcd13ifvqd00","pricing_plan_id":"cebpf4jnsgd1na2vs0mg"},{"bike_id":"acc1556f-0270-4d6d-b370-0de6108d8d4f","system_id":"levelo_inurba_marseille","lat":43.28502,"lon":5.37081,"is_reserved":false,"is_disabled":false,"rental_uris":{"android":"levelo://app?vid=acc1556f-0270-4d6d-b370-0de6108d8d4f","ios":"levelo://app?vid=acc1556f-0270-4d6d-b370-0de6108d8d4f"},"vehicle_type_id":"4","last_reported":1721592578,"current_range_meters":22800,"station_id":"","pricing_plan_id":"cebpf4jnsgd1na2vs0mg"},{"bike_id":"c896b117-e1aa-4587-96cb-d5e746d9fd03","system_id":"levelo_inurba_marseille","lat":43.291994,"lon":5.392907,"is_reserved":false,"is_disabled":false,"rental_uris":{"android":"levelo://app?vid=c896b117-e1aa-4587-96cb-d5e746d9fd03","ios":"levelo://app?vid=c896b117-e1aa-4587-96cb-d5e746d9fd03"},"vehicle_type_id":"4","last_reported":1721592578,"current_range_meters":0,"station_id":"ce4bh192rcd13ifvqdd0","pricing_plan_id":"cebpf4jnsgd1na2vs0mg"},{"bike_id":"ef38d49a-a26b-446c-bb54-5e6e23dbd558","system_id":"levelo_inurba_marseille","lat":43.283998,"lon":5.375062,"is_reserved":false,"is_disabled":false,"rental_uris":{"android":"levelo://app?vid=ef38d49a-a26b-446c-bb54-5e6e23dbd558","ios":"levelo://app?vid=ef38d49a-a26b-446c-bb54-5e6e23dbd558"},"vehicle_type_id":"4","last_reported":1721592578,"current_range_meters":19600,"station_id":"ce4bh412rcd13ifvqds0","pricing_plan_id":"cebpf4jnsgd1na2vs0mg"},