{"last_updated":1747480047,"ttl":60,"version":"2.2","data":{"bikes":[{"bike_id":"c0b9fd4f-e181-46ce-b0bf-f5119973334f","system_id":"levelo_inurba_marseille","lat":43.33771,"lon":5.37424,"is_reserved":false,"is_disabled":false,"rental_uris":{"android":"levelo://app?vid=c0b9fd4f-e181-46ce-b0bf-f5119973334f","ios":"levelo://app?vid=c0b9fd4f-e181-46ce-b0bf-f5119973334f"},"vehicle_type_id":"4","last_reported":1747480047,"current_range_meters":6000,"station_id":"","pricing_plan_id":"cebpf4jnsgd1na2vs0mg"},{"bike_id":"fc2577e7-1497-425b-9d4f-ab8d7dc843c6","system_id":"levelo_inurba_marseille","lat":43.33771,"lon":5.37485,"is_reserved":false,"is_disabled":true,"rental_uris":{"android":"levelo://app?vid=fc2577e7-1497-425b-9d4f-ab8d7dc843c6","ios":"levelo://app?vid=fc2577e7-1497-425b-9d4f-ab8d7dc843c6"},"vehicle_type_id":"4","last_reported":1747480047,"current_range_meters":0,"station_id":"","pricing_plan_id":"cebpf4jnsgd1na2vs0mg"},{"bike_id":"ce4325af-2448-4172-bdec-81d552ee0b62","system_id":"levelo_inurba_marseille","lat":43.26173,"lon":5.42017,"is_reserved":false,"is_disabled":true,"rental_uris":{"android":"levelo://app?vid=ce4325af-2448-4172-bdec-81d552ee0b62","ios":"levelo://app?vid=ce4325af-2448-4172-bdec-81d552ee0b62"},"vehicle_type_id":"4","last_reported":1747480047,"current_range_meters":0,"station_id":"","pricing_plan_id":"cebpf4jnsgd1na2vs0mg"},{"bike_id":"23939faf-d206-4b93-ade4-199417584041","system_id":"levelo_inurba_marseille","lat":43.249495,"lon":5.375361,"is_reserved":false,"is_disabled":true,"rental_uris":{"android":"levelo://app?vid=23939faf-d206-4b93-ade4-199417584041","ios":"levelo://app?vid=23939faf-d206-4b93-ade4-199417584041"},"vehicle_type_id":"4","last_reported":1747480047,"current_range_meters":0,"station_id":"","pricing_plan_id":"cebpf4jnsgd1na2vs0mg"},{"bike_id":"792567c6-0442-4011-aff0-9c05e25deb48","system_id":"levelo_inurba_marseille","lat":43.337444,"lon":5.374475,"is_reserved":false,"is_disabled":true,"rental_uris":{"android":"levelo://app?vid=792567c6-0442-4011-aff0-9c05e25deb48","ios":"levelo://app?vid=792567c6-0442-4011-aff0-9c05e25deb48"},"vehicle_type_id":"4","last_reported":1747480047,"current_range_meters":0,"station_id":"","pricing_plan_id":"cebpf4jnsgd1na2vs0mg"},{"bike_id":"bb0baa39-1e01-43e0-a77c-5ba8d631e8a2","system_id":"levelo_inurba_marseille","lat":43.272485,"lon":5.385927,"is_reserved":false,"is_disabled":true,"rental_uris":{"android":"levelo://app?vid=bb0baa39-1e01-43e0-a77c-5ba8d631e8a2","ios":"levelo://app?vid=bb0baa39-1e01-43e0-a77c-5ba8d631e8a2"},"vehicle_type_id":"4","last_reported":1747480047,"current_range_meters":0,"station_id":"","pricing_plan_id":"cebpf4jnsgd1na2vs0mg"},{"bike_id":"50ccf301-e198-439d-84e6-61d88f7c9841","system_id":"levelo_inurba_marseille","lat":43.29803,"lon":5.38097,"is_reserved":false,"is_disabled":true,"rental_uris":{"android":"levelo://app?vid=50ccf301-e198-439d-84e6-61d88f7c9841","ios":"levelo://app?vid=50ccf301-e198-439d-84e6-61d88f7c9841"},"vehicle_type_id":"4","last_reported":1747480047,"current_range_meters":0,"station_id":"ce4bgip2rcd13ifvqbb0","pricing_plan_id":"cebpf4jnsgd1na2vs0mg"},{"bike_id":"26141229-46e0-47ea-8a55-19bfb623f31b","system_id":"levelo_inurba_marseille","lat":43.30552,"lon":5.3653,"is_reserved":false,"is_disabled":true,"rental_uris":{"android":"levelo://app?vid=26141229-46e0-47ea-8a55-19bfb623f31b","ios":"levelo://app?vid=26141229-46e0-47ea-8a55-19bfb623f31b"},"vehicle_type_id":"4","last_reported":1747480047,"current_range_meters":0,"station_id":"ce4bgs12rcd13ifvqcag","pricing_plan_id":"cebpf4jnsgd1na2vs0mg"},{"bike_id":"f2abc6a7-4aea-4817-b12f-95cad99beb2e","system_id":"levelo_inurba_marseille","lat":43.28849,"lon":5.39289,"is_reserved":false,"is_disabled":true,"rental_uris":{"android":"levelo://app?vid=f2abc6a7-4aea-4817-b12f-95cad99beb2e","ios":"levelo://app?vid=f2abc6a7-4aea-4817-b12f-95cad99beb2e"},"vehicle_type_id":"4","last_reported":1747480047,"current_range_meters":0,"station_id":"ce4bh2p2rcd13ifvqdi0","pricing_plan_id":"cebpf4jnsgd1na2vs0mg"},{"bike_id":"a1435298-aac9-4016-8d5e-f611fb6306bc","system_id":"levelo_inurba_marseille","lat":43.26553,"lon":5.37279,"is_reserved":false,"is_disabled":true,"rental_uris":{"android":"levelo://app?vid=a1435298-aac9-4016-8d5e-f611fb6306bc","ios":"levelo://app?vid=a1435298-aac9-4016-8d5e-f611fb6306bc"},"vehicle_type_id":"4","last_reported":1747480047,"current_range_meters":0,"station_id":"ce4bhg12rcd13ifvqf70","pricing_plan_id":"cebpf4jnsgd1na2vs0mg"},{"bike_id":"c07b2368-1e35-48fa-9baf-c1d8f6649242","system_id":"levelo_inurba_marseille","lat":43.27657,"lon":5.38913,"is_reserved":false,"is_disabled":true,"rental_uris":{"android":"levelo://app?vid=c07b2368-1e35-48fa-9baf-c1d8f6649242","ios":"levelo://app?vid=c07b2368-1e35-48fa-9baf-c1d8f6649242"},"vehicle_type_id":"4","last_reported":1747480047,"current_range_meters":0,"station_id":"ce4bhi12rcd13ifvqfo0","pricing_plan_id":"cebpf4jnsgd1na2vs0mg"},{"bike_id":"98b8c9da-77e0-4213-bef2-e59272dfbed2","system_id":"levelo_inurba_marseille","lat":43.23149,"lon":5.43711,"is_reserved":false,"is_disabled":true,"rental_uris":{"android":"levelo://app?vid=98b8c9da-77e0-4213-bef2-e59272dfbed2","ios":"levelo://app?vid=98b8c9da-77e0-4213-bef2-e59272dfbed2"},"vehicle_type_id":"4","last_reported":1747480047,"current_range_meters":0,"station_id":"ce4bhmp2rcd13ifvqgog","pricing_plan_id":"cebpf4jnsgd1na2vs0mg"},{"bike_id":"f3643df7-ea3d-41eb-8e92-b31dc64a90e6","system_id":"levelo_inurba_marseille","lat":43.27943,"lon":5.41047,"is_reserved":false,"is_disabled":true,"rental_uris":{"android":"levelo://app?vid=f3643df7-ea3d-41eb-8e92-b31dc64a90e6","ios":"levelo://app?vid=f3643df7-ea3d-41eb-8e92-b31dc64a90e6"},"vehicle_type_id":"4","last_reported":1747480047,"current_range_meters":0,"station_id":"ce4bhnp2rcd13ifvqh0g","pricing_plan_id":"cebpf4jnsgd1na2vs0mg"},{"bike_id":"05cfed21-0c71-4180-b280-607cd28c9c9a","system_id":"levelo_inurba_marseille","lat":43.23065,"lon":5.35489,"is_reserved":false,"is_disabled":true,"rental_uris":{"android":"levelo://app?vid=05cfed21-0c71-4180-b280-607cd28c9c9a","ios":"levelo://app?vid=05cfed21-0c71-4180-b280-607cd28c9c9a"},"vehicle_type_id":"4","last_reported":1747480047,"current_range_meters":0,"station_id":"cpo3342slgdg3j2ifvpg","pricing_plan_id":"cebpf4jnsgd1na2vs0mg"},{"bike_id":"85162543-93bd-4df0-8608-ce6a577dc4ca","system_id":"levelo_inurba_marseille","lat":43.24169,"lon":5.36395,"is_reserved":false,"is_disabled":true,"rental_uris":{"android":"levelo://app?vid=85162543-93bd-4df0-8608-ce6a577dc4ca","ios":"levelo://app?vid=85162543-93bd-4df0-8608-ce6a577dc4ca"},"vehicle_type_id":"4","last_reported":1747480047,"current_range_meters":0,"station_id":"cpo36qri1sfpv3e86is0","pricing_plan_id":"cebpf4jnsgd1na2vs0mg"},{"bike_id":"2cc8810b-9f81-49a1-b2be-1eeb2644dc33","system_id":"levelo_inurba_marseille","lat":43.21754,"lon":5.34598,"is_reserved":false,"is_disabled":true,"rental_uris":{"android":"levelo://app?vid=2cc8810b-9f81-49a1-b2be-1eeb2644dc33","ios":"levelo://app?vid=2cc8810b-9f81-49a1-b2be-1eeb2644dc33"},"vehicle_type_id":"4","last_reported":1747480047,"current_range_meters":0,"station_id":"st_cvj6r9ubvosntc0bgbag","pricing_plan_id":"cebpf4jnsgd1na2vs0mg"},{"bike_id":"80d0d83f-909d-4568-b4e7-8a3ef4eed2de","system_id":"levelo_inurba_marseille","lat":43.253916,"lon":5.419015,"is_reserved":false,"is_disabled":true,"rental_uris":{"android":"levelo://app?vid=80d0d83f-909d-4568-b4e7-8a3ef4eed2de","ios":"levelo://app?vid=80d0d83f-909d-4568-b4e7-8a3ef4eed2de"},"vehicle_type_id":"4","last_reported":1747480047,"current_range_meters":400,"station_id":"","pricing_plan_id":"cebpf4jnsgd1na2vs0mg"},{"bike_id":"59871a87-5ed0-4f4f-af27-06adcdb3a680","system_id":"levelo_inurba_marseille","lat":43.30794,"lon":5.38182,"is_reserved":false,"is_disabled":true,"rental_uris":{"android":"levelo://app?vid=59871a87-5ed0-4f4f-af27-06adcdb3a680","ios":"levelo://app?vid=59871a87-5ed0-4f4f-af27-06adcdb3a680"},"vehicle_type_id":"4","last_reported":1747480047,"current_range_meters":400,"station_id":"ce4bgt12rcd13ifvqce0","pricing_plan_id":"cebpf4jnsgd1na2vs0mg"},{"bike_id":"834e4ce9-0617-4a81-91b7-8be93abb576c","system_id":"levelo_inurba_marseille","lat":43.31684,"lon":5.40472,"is_reserved":false,"is_disabled":true,"rental_uris":{"android":"levelo://app?vid=834e4ce9-0617-4a81-91b7-8be93abb576c","ios":"levelo://app?vid=834e4ce9-0617-4a81-91b7-8be93abb576c"},"vehicle_type_id":"4","last_reported":1747480047,"current_range_meters":400,"station_id":"ce4bh012rcd13ifvqd00","pricing_plan_id":"cebpf4jnsgd1na2vs0mg"},{"bike_id":"f6c154df-72ad-4507-a705-de3ebf94f79b","system_id":"levelo_inurba_marseille","lat":43.27379,"lon":5.36249,"is_reserved":false,"is_disabled":true,"rental_uris":{"android":"levelo://app?vid=f6c154df-72ad-4507-a705-de3ebf94f79b","ios":"levelo://app?vid=f6c154df-72ad-4507-a705-de3ebf94f79b"},"vehicle_type_id":"4","last_reported":1747480047,"current_range_meters":400,"station_id":"ce4bhbh2rcd13ifvqeo0","pricing_plan_id":"cebpf4jnsgd1na2vs0mg"},{"bike_id":"fbbc157f-f792-41cf-9ad8-96f1ef10fd50","system_id":"levelo_inurba_marseille","lat":43.284332,"lon":5.349642,"is_reserved":false,"is_disabled":true,"rental_uris":{"android":"levelo://app?vid=fbbc157f-f792-41cf-9ad8-96f1ef10fd50","ios":"levelo://app?vid=fbbc157f-f792-41cf-9ad8-96f1ef10fd50"},"vehicle_type_id":"4","last_reported":1747480047,"current_range_meters":800,"station_id":"","pricing_plan_id":"cebpf4jnsgd1na2vs0mg"},{"bike_id":"04febc23-5839-45eb-acb8-eadf9e5b91a4","system_id":"levelo_inurba_marseille","lat":43.23194,"lon":5.3555,"is_reserved":false,"is_disabled":true,"rental_uris":{"android":"levelo://app?vid=04febc23-5839-45eb-acb8-eadf9e5b91a4","ios":"levelo://app?vid=04febc23-5839-45eb-acb8-eadf9e5b91a4"},"vehicle_type_id":"4","last_reported":1747480047,"current_range_meters":800,"station_id":"ce4bhu92rcd13ifvqi70","pricing_plan_id":"cebpf4jnsgd1na2vs0mg"},{"bike_id":"a88118d0-bf41-4bff-807d-f3c59f2a6ac1","system_id":"levelo_inurba_marseille","lat":43.23188,"lon":5.35532,"is_reserved":false,"is_disabled":true,"rental_uris":{"android":"levelo://app?vid=a88118d0-bf41-4bff-807d-f3c59f2a6ac1","ios":"levelo://app?vid=a88118d0-bf41-4bff-807d-f3c59f2a6ac1"},"vehicle_type_id":"4","last_reported":1747480047,"current_range_meters":800,"station_id":"ce4bhu92rcd13ifvqi70","pricing_plan_id":"cebpf4jnsgd1na2vs0mg"},{"bike_id":"ce5457ec-cf75-4692-a74f-31b983af8315","system_id":"levelo_inurba_marseille","lat":43.29038,"lon":5.39957,"is_reserved":false,"is_disabled":true,"rental_uris":{"android":"levelo://app?vid=ce5457ec-cf75-4692-a74f-31b983af8315","ios":"levelo://app?vid=ce5457ec-cf75-4692-a74f-31b983af8315"},"vehicle_type_id":"4","last_reported":1747480047,"current_range_meters":1200,"station_id":"ce4bh392rcd13ifvqdm0","pricing_plan_id":"cebpf4jnsgd1na2vs0mg"},{"bike_id":"2f72004d-8d2c-45ab-b006-ab1d92d3d9fc","system_id":"levelo_inurba_marseille","lat":43.28358,"lon":5.38112,"is_reserved":false,"is_disabled":true,"rental_uris":{"android":"levelo://app?vid=2f72004d-8d2c-45ab-b006-ab1d92d3d9fc","ios":"levelo://app?vid=2f72004d-8d2c-45ab-b006-ab1d92d3d9fc"},"vehicle_type_id":"4","last_reported":1747480047,"current_range_meters":1200,"station_id":"ce4bh412rcd13ifvqdr0","pricing_plan_id":"cebpf4jnsgd1na2vs0mg"},{"bike_id":"e546f6cf-8140-42a3-91e1-b68fc37b2d2b","system_id":"levelo_inurba_marseille","lat":43.28355,"lon":5.38634,"is_reserved":false,"is_disabled":true,"rental_uris":{"android":"levelo://app?vid=e546f6cf-8140-42a3-91e1-b68fc37b2d2b","ios":"levelo://app?vid=e546f6cf-8140-42a3-91e1-b68fc37b2d2b"},"vehicle_type_id":"4","last_reported":1747480047,"current_range_meters":1200,"station_id":"ce4bh492rcd13ifvqdvg","pricing_plan_id":"cebpf4jnsgd1na2vs0mg"},{"bike_id":"45f5de6d-9078-4511-a303-2677974f27ca","system_id":"levelo_inurba_marseille","lat":43.2603,"lon":5.37551,"is_reserved":false,"is_disabled":true,"rental_uris":{"android":"levelo://app?vid=45f5de6d-9078-4511-a303-2677974f27ca","ios":"levelo://app?vid=45f5de6d-9078-4511-a303-2677974f27ca"},"vehicle_type_id":"4","last_reported":1747480047,"current_range_meters":1200,"station_id":"ce4bhgh2rcd13ifvqfa0","pricing_plan_id":"cebpf4jnsgd1na2vs0mg"},{"bike_id":"ad8a6583-11e5-4e21-abba-baf906da631f","system_id":"levelo_inurba_marseille","lat":43.24812,"lon":5.37454,"is_reserved":false,"is_disabled":true,"rental_uris":{"android":"levelo://app?vid=ad8a6583-11e5-4e21-abba-baf906da631f","ios":"levelo://app?vid=ad8a6583-11e5-4e21-abba-baf906da631f"},"vehicle_type_id":"4","last_reported":1747480047,"current_range_meters":1200,"station_id":"ce4bhgh2rcd13ifvqfb0","pricing_plan_id":"cebpf4jnsgd1na2vs0mg"},{"bike_id":"9422b484-c387-4816-b74c-9be8f61ca4f7","system_id":"levelo_inurba_marseille","lat":43.26206,"lon":5.37911,"is_reserved":false,"is_disabled":true,"rental_uris":{"android":"levelo://app?vid=9422b484-c387-4816-b74c-9be8f61ca4f7","ios":"levelo://app?vid=9422b484-c387-4816-b74c-9be8f61ca4f7"},"vehicle_type_id":"4","last_reported":1747480047,"current_range_meters":1200,"station_id":"ce4bhjp2rcd13ifvqg90","pricing_plan_id":"cebpf4jnsgd1na2vs0mg"},{"bike_id":"66c2666a-02e4-4308-a8f0-dc5563e0c8f0","system_id":"levelo_inurba_marseille","lat":43.23179,"lon":5.39991,"is_reserved":false,"is_disabled":true,"rental_uris":{"android":"levelo://app?vid=66c2666a-02e4-4308-a8f0-dc5563e0c8f0","ios":"levelo://app?vid=66c2666a-02e4-4308-a8f0-dc5563e0c8f0"},"vehicle_type_id":"4","last_reported":1747480047,"current_range_meters":1200,"station_id":"ce4bhn12rcd13ifvqgqg","pricing_plan_id":"cebpf4jnsgd1na2vs0mg"},{"bike_id":"a6def583-e81f-4a5c-9207-5ec517882cb4","system_id":"levelo_inurba_marseille","lat":43.28159,"lon":5.42631,"is_reserved":false,"is_disabled":true,"rental_uris":{"android":"levelo://app?vid=a6def583-e81f-4a5c-9207-5ec517882cb4","ios":"levelo://app?vid=a6def583-e81f-4a5c-9207-5ec517882cb4"},"vehicle_type_id":"4","last_reported":1747480047,"current_range_meters":1200,"station_id":"ce4bhnh2rcd13ifvqgug","pricing_plan_id":"cebpf4jnsgd1na2vs0mg"},{"bike_id":"fc608d55-95a6-4bfa-8161-99a4c065ab11","system_id":"levelo_inurba_marseille","lat":43.29026,"lon":5.38641,"is_reserved":false,"is_disabled":true,"rental_uris":{"android":"levelo://app?vid=fc608d55-95a6-4bfa-8161-99a4c065ab11","ios":"levelo://app?vid=fc608d55-95a6-4bfa-8161-99a4c065ab11"},"vehicle_type_id":"4","last_reported":1747480047,"current_range_meters":1600,"station_id":"ce4bh4p2rcd13ifvqe0g","pricing_plan_id":"cebpf4jnsgd1na2vs0mg"},{"bike_id":"481285ea-5177-4eb3-bada-07d3b2b7f747","system_id":"levelo_inurba_marseille","lat":43.289154,"lon":5.383958,"is_reserved":false,"is_disabled":true,"rental_uris":{"android":"levelo://app?vid=481285ea-5177-4eb3-bada-07d3b2b7f747","ios":"levelo://app?vid=481285ea-5177-4eb3-bada-07d3b2b7f747"},"vehicle_type_id":"4","last_reported":1747480047,"current_range_meters":1600,"station_id":"ce4bh612rcd13ifvqe6g","pricing_plan_id":"cebpf4jnsgd1na2vs0mg"},{"bike_id":"8923128d-157c-47db-a90e-cf035ed6ee32","system_id":"levelo_inurba_marseille","lat":43.23181,"lon":5.39991,"is_reserved":false,"is_disabled":true,"rental_uris":{"android":"levelo://app?vid=8923128d-157c-47db-a90e-cf035ed6ee32","ios":"levelo://app?vid=8923128d-157c-47db-a90e-cf035ed6ee32"},"vehicle_type_id":"4","last_reported":1747480047,"current_range_meters":1600,"station_id":"ce4bhn12rcd13ifvqgqg","pricing_plan_id":"cebpf4jnsgd1na2vs0mg"},{"bike_id":"e1e6f58a-da04-4ede-80bc-2c8e46a27eef","system_id":"levelo_inurba_marseille","lat":43.232017,"lon":5.355542,"is_reserved":false,"is_disabled":true,"rental_uris":{"android":"levelo://app?vid=e1e6f58a-da04-4ede-80bc-2c8e46a27eef","ios":"levelo://app?vid=e1e6f58a-da04-4ede-80bc-2c8e46a27eef"},"vehicle_type_id":"4","last_reported":1747480047,"current_range_meters":1600,"station_id":"ce4bhu92rcd13ifvqi70","pricing_plan_id":"cebpf4jnsgd1na2vs0mg"},{"bike_id":"223b6735-2ddf-4850-a6c5-fe937d3e1bd6","system_id":"levelo_inurba_marseille","lat":43.25494,"lon":5.37642,"is_reserved":false,"is_disabled":true,"rental_uris":{"android":"levelo://app?vid=223b6735-2ddf-4850-a6c5-fe937d3e1bd6","ios":"levelo://app?vid=223b6735-2ddf-4850-a6c5-fe937d3e1bd6"},"vehicle_type_id":"4","last_reported":1747480047,"current_range_meters":2000,"station_id":"ce4bhh12rcd13ifvqff0","pricing_plan_id":"cebpf4jnsgd1na2vs0mg"},{"bike_id":"6e612e7b-28be-478c-9618-97651a5de57b","system_id":"levelo_inurba_marseille","lat":43.24656,"lon":5.39534,"is_reserved":false,"is_disabled":false,"rental_uris":{"android":"levelo://app?vid=6e612e7b-28be-478c-9618-97651a5de57b","ios":"levelo://app?vid=6e612e7b-28be-478c-9618-97651a5de57b"},"vehicle_type_id":"4","last_reported":1747480047,"current_range_meters":2800,"station_id":"","pricing_plan_id":"cebpf4jnsgd1na2vs0mg"},{"bike_id":"997c489e-4b7c-4df2-95d9-d589c84de247","system_id":"levelo_inurba_marseille","lat":43.23154,"lon":5.43708,"is_reserved":false,"is_disabled":false,"rental_uris":{"android":"levelo://app?vid=997c489e-4b7c-4df2-95d9-d589c84de247","ios":"levelo://app?vid=997c489e-4b7c-4df2-95d9-d589c84de247"},"vehicle_type_id":"4","last_reported":1747480047,"current_range_meters":2800,"station_id":"ce4bhmp2rcd13ifvqgog","pricing_plan_id":"cebpf4jnsgd1na2vs0mg"},{"bike_id":"a08ad46b-f110-40af-a5a7-45ec5a4f479a","system_id":"levelo_inurba_marseille","lat":43.21748,"lon":5.34602,"is_reserved":false,"is_disabled":false,"rental_uris":{"android":"levelo://app?vid=a08ad46b-f110-40af-a5a7-45ec5a4f479a","ios":"levelo://app?vid=a08ad46b-f110-40af-a5a7-45ec5a4f479a"},"vehicle_type_id":"4","last_reported":1747480047,"current_range_meters":3200,"station_id":"st_cvj6r9ubvosntc0bgbag","pricing_plan_id":"cebpf4jnsgd1na2vs0mg"},{"bike_id":"4dcf5bf0-f9f7-4c27-be07-49ad013485ac","system_id":"levelo_inurba_marseille","lat":43.23187,"lon":5.39961,"is_reserved":false,"is_disabled":false,"rental_uris":{"android":"levelo://app?vid=4dcf5bf0-f9f7-4c27-be07-49ad013485ac","ios":"levelo://app?vid=4dcf5bf0-f9f7-4c27-be07-49ad013485ac"},"vehicle_type_id":"4","last_reported":1747480047,"current_range_meters":3600,"station_id":"ce4bhn12rcd13ifvqgqg","pricing_plan_id":"cebpf4jnsgd1na2vs0mg"},{"bike_id":"95660b87-2ed2-4960-b3fc-3f9abda4ce13","system_id":"levelo_inurba_marseille","lat":43.28415,"lon":5.3498,"is_reserved":false,"is_disabled":false,"rental_uris":{"android":"levelo://app?vid=95660b87-2ed2-4960-b3fc-3f9abda4ce13","ios":"levelo://app?vid=95660b87-2ed2-4960-b3fc-3f9abda4ce13"},"vehicle_type_id":"4","last_reported":1747480047,"current_range_meters":4000,"station_id":"ce4bhbh2rcd13ifvqepg","pricing_plan_id":"cebpf4jnsgd1na2vs0mg"},{"bike_id":"cde85133-822a-48da-9990-0dd751aa2904","system_id":"levelo_inurba_marseille","lat":43.29055,"lon":5.35916,"is_reserved":false,"is_disabled":false,"rental_uris":{"android":"levelo://app?vid=cde85133-822a-48da-9990-0dd751aa2904","ios":"levelo://app?vid=cde85133-822a-48da-9990-0dd751aa2904"},"vehicle_type_id":"4","last_reported":1747480047,"current_range_meters":4400,"station_id":"ce4bha92rcd13ifvqeg0","pricing_plan_id":"cebpf4jnsgd1na2vs0mg"},{"bike_id":"679efd2d-79c1-4bbd-bd98-f268b5c25c06","system_id":"levelo_inurba_marseille","lat":43.27378,"lon":5.36251,"is_reserved":false,"is_disabled":false,"rental_uris":{"android":"levelo://app?vid=679efd2d-79c1-4bbd-bd98-f268b5c25c06","ios":"levelo://app?vid=679efd2d-79c1-4bbd-bd98-f268b5c25c06"},"vehicle_type_id":"4","last_reported":1747480047,"current_range_meters":4400,"station_id":"ce4bhbh2rcd13ifvqeo0","pricing_plan_id":"cebpf4jnsgd1na2vs0mg"},{"bike_id":"91f564a2-f0e4-46fd-be7b-b238256d74d9","system_id":"levelo_inurba_marseille","lat":43.21746,"lon":5.34602,"is_reserved":false,"is_disabled":false,"rental_uris":{"android":"levelo://app?vid=91f564a2-f0e4-46fd-be7b-b238256d74d9","ios":"levelo://app?vid=91f564a2-f0e4-46fd-be7b-b238256d74d9"},"vehicle_type_id":"4","last_reported":1747480047,"current_range_meters":4400,"station_id":"st_cvj6r9ubvosntc0bgbag","pricing_plan_id":"cebpf4jnsgd1na2vs0mg"},{"bike_id":"06e20113-a5f1-4fe5-b188-f647ff408cc7","system_id":"levelo_inurba_marseille","lat":43.2769,"lon":5.41959,"is_reserved":false,"is_disabled":false,"rental_uris":{"android":"levelo://app?vid=06e20113-a5f1-4fe5-b188-f647ff408cc7","ios":"levelo://app?vid=06e20113-a5f1-4fe5-b188-f647ff408cc7"},"vehicle_type_id":"4","last_reported":1747480047,"current_range_meters":4800,"station_id":"","pricing_plan_id":"cebpf4jnsgd1na2vs0mg"},{"bike_id":"d06a81f7-6bbe-4687-bfbe-932949dc466c","system_id":"levelo_inurba_marseille","lat":43.261073,"lon":5.387407,"is_reserved":false,"is_disabled":false,"rental_uris":{"android":"levelo://app?vid=d06a81f7-6bbe-4687-bfbe-932949dc466c","ios":"levelo://app?vid=d06a81f7-6bbe-4687-bfbe-932949dc466c"},"vehicle_type_id":"4","last_reported":1747480047,"current_range_meters":4800,"station_id":"","pricing_plan_id":"cebpf4jnsgd1na2vs0mg"},{"bike_id":"c1b765d2-d6f7-4cef-a890-303d8c7d61a0","system_id":"levelo_inurba_marseille","lat":43.27344,"lon":5.39296,"is_reserved":false,"is_disabled":false,"rental_uris":{"android":"levelo://app?vid=c1b765d2-d6f7-4cef-a890-303d8c7d61a0","ios":"levelo://app?vid=c1b765d2-d6f7-4cef-a890-303d8c7d61a0"},"vehicle_type_id":"4","last_reported":1747480047,"current_range_meters":4800,"station_id":"","pricing_plan_id":"cebpf4jnsgd1na2vs0mg"},{"bike_id":"6db26e33-3495-40b3-b67c-1eb4ec98e4e4","system_id":"levelo_inurba_marseille","lat":43.28412,"lon":5.34988,"is_reserved":false,"is_disabled":false,"rental_uris":{"android":"levelo://app?vid=6db26e33-3495-40b3-b67c-1eb4ec98e4e4","ios":"levelo://app?vid=6db26e33-3495-40b3-b67c-1eb4ec98e4e4"},"vehicle_type_id":"4","last_reported":1747480047,"current_range_meters":4800,"station_id":"ce4bhbh2rcd13ifvqepg","pricing_plan_id":"cebpf4jnsgd1na2vs0mg"},{"bike_id":"7e4aa5a4-2f4f-4819-824b-3e671a85441a","system_id":"levelo_inurba_marseille","lat":43.28617,"lon":5.35111,"is_reserved":false,"is_disabled":false,"rental_uris":{"android":"levelo://app?vid=7e4aa5a4-2f4f-4819-824b-3e671a85441a","ios":"levelo://app?vid=7e4aa5a4-2f4f-4819-824b-3e671a85441a"},"vehicle_type_id":"4","last_reported":1747480047,"current_range_meters":4800,"station_id":"ce4bhch2rcd13ifvqeug","pricing_plan_id":"cebpf4jnsgd1na2vs0mg"},{"bike_id":"53ae4f8b-68fd-44fb-b4a8-162027bff52f","system_id":"levelo_inurba_marseille","lat":43.21196,"lon":5.35073,"is_reserved":false,"is_disabled":false,"rental_uris":{"android":"levelo://app?vid=53ae4f8b-68fd-44fb-b4a8-162027bff52f","ios":"levelo://app?vid=53ae4f8b-68fd-44fb-b4a8-162027bff52f"},"vehicle_type_id":"4","last_reported":1747480047,"current_range_meters":4800,"station_id":"st_cvj6sg6p6f1abm77japg","pricing_plan_id":"cebpf4jnsgd1na2vs0mg"},{"bike_id":"05387e66-ea93-41b7-b9d7-913bba0dee2d","system_id":"levelo_inurba_marseille","lat":43.27566,"lon":5.38408,"is_reserved":false,"is_disabled":false,"rental_uris":{"android":"levelo://app?vid=05387e66-ea93-41b7-b9d7-913bba0dee2d","ios":"levelo://app?vid=05387e66-ea93-41b7-b9d7-913bba0dee2d"},"vehicle_type_id":"4","last_reported":1747480047,"current_range_meters":5600,"station_id":"ce4bhh92rcd13ifvqfi0","pricing_plan_id":"cebpf4jnsgd1na2vs0mg"},{"bike_id":"6ed722a3-e7bf-4c63-9c7e-6a3678d65c1b","system_id":"levelo_inurba_marseille","lat":43.26064,"lon":5.39398,"is_reserved":false,"is_disabled":false,"rental_uris":{"android":"levelo://app?vid=6ed722a3-e7bf-4c63-9c7e-6a3678d65c1b","ios":"levelo://app?vid=6ed722a3-e7bf-4c63-9c7e-6a3678d65c1b"},"vehicle_type_id":"4","last_reported":1747480047,"current_range_meters":5600,"station_id":"ce4bhh92rcd13ifvqfj0","pricing_plan_id":"cebpf4jnsgd1na2vs0mg"},{"bike_id":"f60743d0-8cbf-4386-87d9-1cc250dcb7e9","system_id":"levelo_inurba_marseille","lat":43.31991,"lon":5.38145,"is_reserved":false,"is_disabled":false,"rental_uris":{"android":"levelo://app?vid=f60743d0-8cbf-4386-87d9-1cc250dcb7e9","ios":"levelo://app?vid=f60743d0-8cbf-4386-87d9-1cc250dcb7e9"},"vehicle_type_id":"4","last_reported":1747480047,"current_range_meters":5600,"station_id":"ce4bhr12rcd13ifvqhpg","pricing_plan_id":"cebpf4jnsgd1na2vs0mg"},{"bike_id":"662c704c-262b-45ad-934a-11f31825a2ce","system_id":"levelo_inurba_marseille","lat":43.2937,"lon":5.37838,"is_reserved":false,"is_disabled":false,"rental_uris":{"android":"levelo://app?vid=662c704c-262b-45ad-934a-11f31825a2ce","ios":"levelo://app?vid=662c704c-262b-45ad-934a-11f31825a2ce"},"vehicle_type_id":"4","last_reported":1747480047,"current_range_meters":6000,"station_id":"","pricing_plan_id":"cebpf4jnsgd1na2vs0mg"},{"bike_id":"68611421-6ce3-4cc5-8971-add96eb71510","system_id":"levelo_inurba_marseille","lat":43.28615,"lon":5.3511,"is_reserved":false,"is_disabled":false,"rental_uris":{"android":"levelo://app?vid=68611421-6ce3-4cc5-8971-add96eb71510","ios":"levelo://app?vid=68611421-6ce3-4cc5-8971-add96eb71510"},"vehicle_type_id":"4","last_reported":1747480047,"current_range_meters":6000,"station_id":"ce4bhch2rcd13ifvqeug","pricing_plan_id":"cebpf4jnsgd1na2vs0mg"},{"bike_id":"38a37840-6c6f-4f0c-8f0f-dd034362a7fe","system_id":"levelo_inurba_marseille","lat":43.2418,"lon":5.3972,"is_reserved":false,"is_disabled":false,"rental_uris":{"android":"levelo://app?vid=38a37840-6c6f-4f0c-8f0f-dd034362a7fe","ios":"levelo://app?vid=38a37840-6c6f-4f0c-8f0f-dd034362a7fe"},"vehicle_type_id":"4","last_reported":1747480047,"current_range_meters":6000,"station_id":"ce4bhn12rcd13ifvqgpg","pricing_plan_id":"cebpf4jnsgd1na2vs0mg"},{"bike_id":"e20d3fa0-e940-4eb4-b1fa-e732dab089c1","system_id":"levelo_inurba_marseille","lat":43.322826,"lon":5.382667,"is_reserved":false,"is_disabled":false,"rental_uris":{"android":"levelo://app?vid=e20d3fa0-e940-4eb4-b1fa-e732dab089c1","ios":"levelo://app?vid=e20d3fa0-e940-4eb4-b1fa-e732dab089c1"},"vehicle_type_id":"4","last_reported":1747480047,"current_range_meters":6000,"station_id":"ce4bhr12rcd13ifvqhqg","pricing_plan_id":"cebpf4jnsgd1na2vs0mg"},{"bike_id":"aafa236b-39d1-474f-8fb4-dc84757e7e93","system_id":"levelo_inurba_marseille","lat":43.31171,"lon":5.38715,"is_reserved":false,"is_disabled":false,"rental_uris":{"android":"levelo://app?vid=aafa236b-39d1-474f-8fb4-dc84757e7e93","ios":"levelo://app?vid=aafa236b-39d1-474f-8fb4-dc84757e7e93"},"vehicle_type_id":"4","last_reported":1747480047,"current_range_meters":6400,"station_id":"ce4bgv12rcd13ifvqcp0","pricing_plan_id":"cebpf4jnsgd1na2vs0mg"},{"bike_id":"f8ebb9d8-5677-4701-851c-da9503f4f330","system_id":"levelo_inurba_marseille","lat":43.31683,"lon":5.40425,"is_reserved":false,"is_disabled":false,"rental_uris":{"android":"levelo://app?vid=f8ebb9d8-5677-4701-851c-da9503f4f330","ios":"levelo://app?vid=f8ebb9d8-5677-4701-851c-da9503f4f330"},"vehicle_type_id":"4","last_reported":1747480047,"current_range_meters":6400,"station_id":"ce4bh012rcd13ifvqd00","pricing_plan_id":"cebpf4jnsgd1na2vs0mg"},{"bike_id":"aaeb4f43-b7f6-46ff-8b91-c7adf2146c70","system_id":"levelo_inurba_marseille","lat":43.28422,"lon":5.34991,"is_reserved":false,"is_disabled":false,"rental_uris":{"android":"levelo://app?vid=aaeb4f43-b7f6-46ff-8b91-c7adf2146c70","ios":"levelo://app?vid=aaeb4f43-b7f6-46ff-8b91-c7adf2146c70"},"vehicle_type_id":"4","last_reported":1747480047,"current_range_meters":6400,"station_id":"ce4bhbh2rcd13ifvqepg","pricing_plan_id":"cebpf4jnsgd1na2vs0mg"},{"bike_id":"e68d50cf-75b6-4414-8068-e6f85a83ff7a","system_id":"levelo_inurba_marseille","lat":43.26566,"lon":5.39011,"is_reserved":false,"is_disabled":false,"rental_uris":{"android":"levelo://app?vid=e68d50cf-75b6-4414-8068-e6f85a83ff7a","ios":"levelo://app?vid=e68d50cf-75b6-4414-8068-e6f85a83ff7a"},"vehicle_type_id":"4","last_reported":1747480047,"current_range_meters":6400,"station_id":"ce4bhe12rcd13ifvqf30","pricing_plan_id":"cebpf4jnsgd1na2vs0mg"},{"bike_id":"986d1e90-1b89-4b74-8aa7-a001b7b4ebf2","system_id":"levelo_inurba_marseille","lat":43.275635,"lon":5.384194,"is_reserved":false,"is_disabled":false,"rental_uris":{"android":"levelo://app?vid=986d1e90-1b89-4b74-8aa7-a001b7b4ebf2","ios":"levelo://app?vid=986d1e90-1b89-4b74-8aa7-a001b7b4ebf2"},"vehicle_type_id":"4","last_reported":1747480047,"current_range_meters":6400,"station_id":"ce4bhh92rcd13ifvqfi0","pricing_plan_id":"cebpf4jnsgd1na2vs0mg"},{"bike_id":"768796e3-6052-410b-98d6-da905eff8103","system_id":"levelo_inurba_marseille","lat":43.3018,"lon":5.366,"is_reserved":false,"is_disabled":false,"rental_uris":{"android":"levelo://app?vid=768796e3-6052-410b-98d6-da905eff8103","ios":"levelo://app?vid=768796e3-6052-410b-98d6-da905eff8103"},"vehicle_type_id":"4","last_reported":1747480047,"current_range_meters":6800,"station_id":"ce4bgrh2rcd13ifvqc8g","pricing_plan_id":"cebpf4jnsgd1na2vs0mg"},{"bike_id":"3493391e-4d73-43fd-a1f4-c4cba455c080","system_id":"levelo_inurba_marseille","lat":43.26554,"lon":5.37286,"is_reserved":false,"is_disabled":false,"rental_uris":{"android":"levelo://app?vid=3493391e-4d73-43fd-a1f4-c4cba455c080","ios":"levelo://app?vid=3493391e-4d73-43fd-a1f4-c4cba455c080"},"vehicle_type_id":"4","last_reported":1747480047,"current_range_meters":6800,"station_id":"ce4bhg12rcd13ifvqf70","pricing_plan_id":"cebpf4jnsgd1na2vs0mg"},{"bike_id":"03162788-b520-4bfe-b2f2-98dd7a312990","system_id":"levelo_inurba_marseille","lat":43.24387,"lon":5.37061,"is_reserved":false,"is_disabled":false,"rental_uris":{"android":"levelo://app?vid=03162788-b520-4bfe-b2f2-98dd7a312990","ios":"levelo://app?vid=03162788-b520-4bfe-b2f2-98dd7a312990"},"vehicle_type_id":"4","last_reported":1747480047,"current_range_meters":6800,"station_id":"ce4bhhh2rcd13ifvqfk0","pricing_plan_id":"cebpf4jnsgd1na2vs0mg"},{"bike_id":"d33be1d8-78aa-4795-97cf-e1316e6f2f3a","system_id":"levelo_inurba_marseille","lat":43.23153,"lon":5.43706,"is_reserved":false,"is_disabled":false,"rental_uris":{"android":"levelo://app?vid=d33be1d8-78aa-4795-97cf-e1316e6f2f3a","ios":"levelo://app?vid=d33be1d8-78aa-4795-97cf-e1316e6f2f3a"},"vehicle_type_id":"4","last_reported":1747480047,"current_range_meters":6800,"station_id":"ce4bhmp2rcd13ifvqgog","pricing_plan_id":"cebpf4jnsgd1na2vs0mg"},{"bike_id":"f0f7ca87-7ffb-46bd-ab65-ff44d1578193","system_id":"levelo_inurba_marseille","lat":43.32338,"lon":5.40633,"is_reserved":false,"is_disabled":false,"rental_uris":{"android":"levelo://app?vid=f0f7ca87-7ffb-46bd-ab65-ff44d1578193","ios":"levelo://app?vid=f0f7ca87-7ffb-46bd-ab65-ff44d1578193"},"vehicle_type_id":"4","last_reported":1747480047,"current_range_meters":6800,"station_id":"ce4bhq92rcd13ifvqhjg","pricing_plan_id":"cebpf4jnsgd1na2vs0mg"},{"bike_id":"4b2d7d59-5753-4752-9ef7-e8ed26e4bb95","system_id":"levelo_inurba_marseille","lat":43.28414,"lon":5.34982,"is_reserved":false,"is_disabled":false,"rental_uris":{"android":"levelo://app?vid=4b2d7d59-5753-4752-9ef7-e8ed26e4bb95","ios":"levelo://app?vid=4b2d7d59-5753-4752-9ef7-e8ed26e4bb95"},"vehicle_type_id":"4","last_reported":1747480047,"current_range_meters":7200,"station_id":"ce4bhbh2rcd13ifvqepg","pricing_plan_id":"cebpf4jnsgd1na2vs0mg"},{"bike_id":"0851da5c-b47e-47ce-a3fd-34fa1e52f7f3","system_id":"levelo_inurba_marseille","lat":43.28421,"lon":5.3498,"is_reserved":false,"is_disabled":false,"rental_uris":{"android":"levelo://app?vid=0851da5c-b47e-47ce-a3fd-34fa1e52f7f3","ios":"levelo://app?vid=0851da5c-b47e-47ce-a3fd-34fa1e52f7f3"},"vehicle_type_id":"4","last_reported":1747480047,"current_range_meters":7200,"station_id":"ce4bhbh2rcd13ifvqepg","pricing_plan_id":"cebpf4jnsgd1na2vs0mg"},{"bike_id":"fd83f054-6b7c-471f-a3e2-584831cced64","system_id":"levelo_inurba_marseille","lat":43.23147,"lon":5.43704,"is_reserved":false,"is_disabled":false,"rental_uris":{"android":"levelo://app?vid=fd83f054-6b7c-471f-a3e2-584831cced64","ios":"levelo://app?vid=fd83f054-6b7c-471f-a3e2-584831cced64"},"vehicle_type_id":"4","last_reported":1747480047,"current_range_meters":7200,"station_id":"ce4bhmp2rcd13ifvqgog","pricing_plan_id":"cebpf4jnsgd1na2vs0mg"},{"bike_id":"9d29eb8a-633f-4a3f-bd84-0754a56c14c4","system_id":"levelo_inurba_marseille","lat":43.32473,"lon":5.3655,"is_reserved":false,"is_disabled":false,"rental_uris":{"android":"levelo://app?vid=9d29eb8a-633f-4a3f-bd84-0754a56c14c4","ios":"levelo://app?vid=9d29eb8a-633f-4a3f-bd84-0754a56c14c4"},"vehicle_type_id":"4","last_reported":1747480047,"current_range_meters":7200,"station_id":"ce4bhs12rcd13ifvqhvg","pricing_plan_id":"cebpf4jnsgd1na2vs0mg"},{"bike_id":"b9b2a1e8-dc7d-4b82-80b7-5d071bfa1c86","system_id":"levelo_inurba_marseille","lat":43.2737,"lon":5.36253,"is_reserved":false,"is_disabled":false,"rental_uris":{"android":"levelo://app?vid=b9b2a1e8-dc7d-4b82-80b7-5d071bfa1c86","ios":"levelo://app?vid=b9b2a1e8-dc7d-4b82-80b7-5d071bfa1c86"},"vehicle_type_id":"4","last_reported":1747480047,"current_range_meters":8000,"station_id":"ce4bhbh2rcd13ifvqeo0","pricing_plan_id":"cebpf4jnsgd1na2vs0mg"},{"bike_id":"13a627e2-7100-4331-9e16-0b5956e548fc","system_id":"levelo_inurba_marseille","lat":43.24652,"lon":5.38893,"is_reserved":false,"is_disabled":false,"rental_uris":{"android":"levelo://app?vid=13a627e2-7100-4331-9e16-0b5956e548fc","ios":"levelo://app?vid=13a627e2-7100-4331-9e16-0b5956e548fc"},"vehicle_type_id":"4","last_reported":1747480047,"current_range_meters":8000,"station_id":"ce4bhg12rcd13ifvqf60","pricing_plan_id":"cebpf4jnsgd1na2vs0mg"},{"bike_id":"887f192d-2b33-4104-bf12-9977bf59e977","system_id":"levelo_inurba_marseille","lat":43.26558,"lon":5.37287,"is_reserved":false,"is_disabled":false,"rental_uris":{"android":"levelo://app?vid=887f192d-2b33-4104-bf12-9977bf59e977","ios":"levelo://app?vid=887f192d-2b33-4104-bf12-9977bf59e977"},"vehicle_type_id":"4","last_reported":1747480047,"current_range_meters":8000,"station_id":"ce4bhg12rcd13ifvqf70","pricing_plan_id":"cebpf4jnsgd1na2vs0mg"},{"bike_id":"b17002df-4092-41c0-81f6-11460db0716f","system_id":"levelo_inurba_marseille","lat":43.26212,"lon":5.37432,"is_reserved":false,"is_disabled":false,"rental_uris":{"android":"levelo://app?vid=b17002df-4092-41c0-81f6-11460db0716f","ios":"levelo://app?vid=b17002df-4092-41c0-81f6-11460db0716f"},"vehicle_type_id":"4","last_reported":1747480047,"current_range_meters":8000,"station_id":"ce4bhgp2rcd13ifvqfc0","pricing_plan_id":"cebpf4jnsgd1na2vs0mg"},{"bike_id":"7b7e72f6-267c-4cb5-a0ec-d33198a95264","system_id":"levelo_inurba_marseille","lat":43.2419,"lon":5.39697,"is_reserved":false,"is_disabled":false,"rental_uris":{"android":"levelo://app?vid=7b7e72f6-267c-4cb5-a0ec-d33198a95264","ios":"levelo://app?vid=7b7e72f6-267c-4cb5-a0ec-d33198a95264"},"vehicle_type_id":"4","last_reported":1747480047,"current_range_meters":8000,"station_id":"ce4bhn12rcd13ifvqgpg","pricing_plan_id":"cebpf4jnsgd1na2vs0mg"},{"bike_id":"b54c7515-9c19-47e9-88f9-9587d98f16f0","system_id":"levelo_inurba_marseille","lat":43.30419,"lon":5.41278,"is_reserved":false,"is_disabled":false,"rental_uris":{"android":"levelo://app?vid=b54c7515-9c19-47e9-88f9-9587d98f16f0","ios":"levelo://app?vid=b54c7515-9c19-47e9-88f9-9587d98f16f0"},"vehicle_type_id":"4","last_reported":1747480047,"current_range_meters":8000,"station_id":"ce4bhop2rcd13ifvqh8g","pricing_plan_id":"cebpf4jnsgd1na2vs0mg"},{"bike_id":"5cf74a5b-3237-4306-8708-835ce896cf40","system_id":"levelo_inurba_marseille","lat":43.31999,"lon":5.38157,"is_reserved":false,"is_disabled":false,"rental_uris":{"android":"levelo://app?vid=5cf74a5b-3237-4306-8708-835ce896cf40","ios":"levelo://app?vid=5cf74a5b-3237-4306-8708-835ce896cf40"},"vehicle_type_id":"4","last_reported":1747480047,"current_range_meters":8000,"station_id":"ce4bhr12rcd13ifvqhpg","pricing_plan_id":"cebpf4jnsgd1na2vs0mg"},{"bike_id":"3d6b5b36-a314-45fa-8bc0-68e5f98a5dde","system_id":"levelo_inurba_marseille","lat":43.229333,"lon":5.353805,"is_reserved":false,"is_disabled":false,"rental_uris":{"android":"levelo://app?vid=3d6b5b36-a314-45fa-8bc0-68e5f98a5dde","ios":"levelo://app?vid=3d6b5b36-a314-45fa-8bc0-68e5f98a5dde"},"vehicle_type_id":"4","last_reported":1747480047,"current_range_meters":8000,"station_id":"cpo3532slgdg3j2ikp40","pricing_plan_id":"cebpf4jnsgd1na2vs0mg"},{"bike_id":"6cd5c425-f8ac-4068-b8ea-a8bfbef29ee5","system_id":"levelo_inurba_marseille","lat":43.24979,"lon":5.37955,"is_reserved":false,"is_disabled":false,"rental_uris":{"android":"levelo://app?vid=6cd5c425-f8ac-4068-b8ea-a8bfbef29ee5","ios":"levelo://app?vid=6cd5c425-f8ac-4068-b8ea-a8bfbef29ee5"},"vehicle_type_id":"4","last_reported":1747480047,"current_range_meters":8400,"station_id":"","pricing_plan_id":"cebpf4jnsgd1na2vs0mg"},{"bike_id":"97c3d4bf-7de4-4f50-8c72-925486775c13","system_id":"levelo_inurba_marseille","lat":43.2841,"lon":5.34989,"is_reserved":false,"is_disabled":false,"rental_uris":{"android":"levelo://app?vid=97c3d4bf-7de4-4f50-8c72-925486775c13","ios":"levelo://app?vid=97c3d4bf-7de4-4f50-8c72-925486775c13"},"vehicle_type_id":"4","last_reported":1747480047,"current_range_meters":8400,"station_id":"ce4bhbh2rcd13ifvqepg","pricing_plan_id":"cebpf4jnsgd1na2vs0mg"},{"bike_id":"909bf468-8243-48b2-ac27-99ea5fc52727","system_id":"levelo_inurba_marseille","lat":43.26556,"lon":5.37281,"is_reserved":false,"is_disabled":false,"rental_uris":{"android":"levelo://app?vid=909bf468-8243-48b2-ac27-99ea5fc52727","ios":"levelo://app?vid=909bf468-8243-48b2-ac27-99ea5fc52727"},"vehicle_type_id":"4","last_reported":1747480047,"current_range_meters":8400,"station_id":"ce4bhg12rcd13ifvqf70","pricing_plan_id":"cebpf4jnsgd1na2vs0mg"},{"bike_id":"5098123d-b36f-482a-a74d-7b81fd65e534","system_id":"levelo_inurba_marseille","lat":43.239627,"lon":5.366284,"is_reserved":false,"is_disabled":false,"rental_uris":{"android":"levelo://app?vid=5098123d-b36f-482a-a74d-7b81fd65e534","ios":"levelo://app?vid=5098123d-b36f-482a-a74d-7b81fd65e534"},"vehicle_type_id":"4","last_reported":1747480047,"current_range_meters":8400,"station_id":"ce4bhi12rcd13ifvqfp0","pricing_plan_id":"cebpf4jnsgd1na2vs0mg"},{"bike_id":"8cf75296-6b59-4787-bf18-cfee7fac28e0","system_id":"levelo_inurba_marseille","lat":43.24156,"lon":5.39735,"is_reserved":false,"is_disabled":false,"rental_uris":{"android":"levelo://app?vid=8cf75296-6b59-4787-bf18-cfee7fac28e0","ios":"levelo://app?vid=8cf75296-6b59-4787-bf18-cfee7fac28e0"},"vehicle_type_id":"4","last_reported":1747480047,"current_range_meters":8400,"station_id":"ce4bhn12rcd13ifvqgpg","pricing_plan_id":"cebpf4jnsgd1na2vs0mg"},{"bike_id":"3d50d707-bb8a-4329-a7cb-48dae4e42631","system_id":"levelo_inurba_marseille","lat":43.212,"lon":5.35057,"is_reserved":false,"is_disabled":false,"rental_uris":{"android":"levelo://app?vid=3d50d707-bb8a-4329-a7cb-48dae4e42631","ios":"levelo://app?vid=3d50d707-bb8a-4329-a7cb-48dae4e42631"},"vehicle_type_id":"4","last_reported":1747480047,"current_range_meters":8400,"station_id":"st_cvj6sg6p6f1abm77japg","pricing_plan_id":"cebpf4jnsgd1na2vs0mg"},{"bike_id":"9311a62b-4ccf-4ad2-83dc-2c2cfc931553","system_id":"levelo_inurba_marseille","lat":43.21192,"lon":5.35069,"is_reserved":false,"is_disabled":false,"rental_uris":{"android":"levelo://app?vid=9311a62b-4ccf-4ad2-83dc-2c2cfc931553","ios":"levelo://app?vid=9311a62b-4ccf-4ad2-83dc-2c2cfc931553"},"vehicle_type_id":"4","last_reported":1747480047,"current_range_meters":8400,"station_id":"st_cvj6sg6p6f1abm77japg","pricing_plan_id":"cebpf4jnsgd1na2vs0mg"},{"bike_id":"79b0f212-a412-4d78-9698-18a7ce0ce6cd","system_id":"levelo_inurba_marseille","lat":43.23371,"lon":5.36062,"is_reserved":false,"is_disabled":false,"rental_uris":{"android":"levelo://app?vid=79b0f212-a412-4d78-9698-18a7ce0ce6cd","ios":"levelo://app?vid=79b0f212-a412-4d78-9698-18a7ce0ce6cd"},"vehicle_type_id":"4","last_reported":1747480047,"current_range_meters":8800,"station_id":"","pricing_plan_id":"cebpf4jnsgd1na2vs0mg"},{"bike_id":"e088c1c7-e2c5-4b60-86be-4feaa3d6498d","system_id":"levelo_inurba_marseille","lat":43.27072,"lon":5.42278,"is_reserved":false,"is_disabled":false,"rental_uris":{"android":"levelo://app?vid=e088c1c7-e2c5-4b60-86be-4feaa3d6498d","ios":"levelo://app?vid=e088c1c7-e2c5-4b60-86be-4feaa3d6498d"},"vehicle_type_id":"4","last_reported":1747480047,"current_range_meters":8800,"station_id":"ce4bhk92rcd13ifvqgb0","pricing_plan_id":"cebpf4jnsgd1na2vs0mg"},{"bike_id":"4627f3d1-17fd-49b2-9a60-3f90cc9b16e5","system_id":"levelo_inurba_marseille","lat":43.317108,"lon":5.437012,"is_reserved":false,"is_disabled":false,"rental_uris":{"android":"levelo://app?vid=4627f3d1-17fd-49b2-9a60-3f90cc9b16e5","ios":"levelo://app?vid=4627f3d1-17fd-49b2-9a60-3f90cc9b16e5"},"vehicle_type_id":"4","last_reported":1747480047,"current_range_meters":8800,"station_id":"ce4bhp92rcd13ifvqhcg","pricing_plan_id":"cebpf4jnsgd1na2vs0mg"},{"bike_id":"6dc41c7d-d886-4d51-bd29-ec1aa88f4fac","system_id":"levelo_inurba_marseille","lat":43.24171,"lon":5.36391,"is_reserved":false,"is_disabled":false,"rental_uris":{"android":"levelo://app?vid=6dc41c7d-d886-4d51-bd29-ec1aa88f4fac","ios":"levelo://app?vid=6dc41c7d-d886-4d51-bd29-ec1aa88f4fac"},"vehicle_type_id":"4","last_reported":1747480047,"current_range_meters":8800,"station_id":"cpo36qri1sfpv3e86is0","pricing_plan_id":"cebpf4jnsgd1na2vs0mg"},{"bike_id":"2cf18981-5809-447f-8d2c-2eb5ce65b56f","system_id":"levelo_inurba_marseille","lat":43.21751,"lon":5.34602,"is_reserved":false,"is_disabled":false,"rental_uris":{"android":"levelo://app?vid=2cf18981-5809-447f-8d2c-2eb5ce65b56f","ios":"levelo://app?vid=2cf18981-5809-447f-8d2c-2eb5ce65b56f"},"vehicle_type_id":"4","last_reported":1747480047,"current_range_meters":8800,"station_id":"st_cvj6r9ubvosntc0bgbag","pricing_plan_id":"cebpf4jnsgd1na2vs0mg"},{"bike_id":"7409d559-171d-4151-ae08-7e6975162dfa","system_id":"levelo_inurba_marseille","lat":43.29721,"lon":5.37694,"is_reserved":false,"is_disabled":false,"rental_uris":{"android":"levelo://app?vid=7409d559-171d-4151-ae08-7e6975162dfa","ios":"levelo://app?vid=7409d559-171d-4151-ae08-7e6975162dfa"},"vehicle_type_id":"4","last_reported":1747480047,"current_range_meters":9200,"station_id":"ce4bgkh2rcd13ifvqbl0","pricing_plan_id":"cebpf4jnsgd1na2vs0mg"},{"bike_id":"0c2e00ee-4080-4f97-9022-fa97cb8573b6","system_id":"levelo_inurba_marseille","lat":43.2984,"lon":5.36264,"is_reserved":false,"is_disabled":false,"rental_uris":{"android":"levelo://app?vid=0c2e00ee-4080-4f97-9022-fa97cb8573b6","ios":"levelo://app?vid=0c2e00ee-4080-4f97-9022-fa97cb8573b6"},"vehicle_type_id":"4","last_reported":1747480047,"current_range_meters":9200,"station_id":"ce4bgpp2rcd13ifvqc3g","pricing_plan_id":"cebpf4jnsgd1na2vs0mg"},{"bike_id":"fd36f2b2-ab3f-4773-a649-0c532c529c78","system_id":"levelo_inurba_marseille","lat":43.265593,"lon":5.37286,"is_reserved":false,"is_disabled":false,"rental_uris":{"android":"levelo://app?vid=fd36f2b2-ab3f-4773-a649-0c532c529c78","ios":"levelo://app?vid=fd36f2b2-ab3f-4773-a649-0c532c529c78"},"vehicle_type_id":"4","last_reported":1747480047,"current_range_meters":9200,"station_id":"ce4bhg12rcd13ifvqf70","pricing_plan_id":"cebpf4jnsgd1na2vs0mg"},{"bike_id":"94cc52d0-3f6c-4725-b75d-92f3dbe21648","system_id":"levelo_inurba_marseille","lat":43.27808,"lon":5.40707,"is_reserved":false,"is_disabled":false,"rental_uris":{"android":"levelo://app?vid=94cc52d0-3f6c-4725-b75d-92f3dbe21648","ios":"levelo://app?vid=94cc52d0-3f6c-4725-b75d-92f3dbe21648"},"vehicle_type_id":"4","last_reported":1747480047,"current_range_meters":9200,"station_id":"ce4bhnh2rcd13ifvqgtg","pricing_plan_id":"cebpf4jnsgd1na2vs0mg"},{"bike_id":"6d5e4d62-ec94-462c-af15-b51534e29a15","system_id":"levelo_inurba_marseille","lat":43.25495,"lon":5.37656,"is_reserved":false,"is_disabled":false,"rental_uris":{"android":"levelo://app?vid=6d5e4d62-ec94-462c-af15-b51534e29a15","ios":"levelo://app?vid=6d5e4d62-ec94-462c-af15-b51534e29a15"},"vehicle_type_id":"4","last_reported":1747480047,"current_range_meters":9600,"station_id":"ce4bhh12rcd13ifvqff0","pricing_plan_id":"cebpf4jnsgd1na2vs0mg"},{"bike_id":"0a9b154c-7f66-4ec8-bbc7-cccebab92979","system_id":"levelo_inurba_marseille","lat":43.25504,"lon":5.37646,"is_reserved":false,"is_disabled":false,"rental_uris":{"android":"levelo://app?vid=0a9b154c-7f66-4ec8-bbc7-cccebab92979","ios":"levelo://app?vid=0a9b154c-7f66-4ec8-bbc7-cccebab92979"},"vehicle_type_id":"4","last_reported":1747480047,"current_range_meters":9600,"station_id":"ce4bhh12rcd13ifvqff0","pricing_plan_id":"cebpf4jnsgd1na2vs0mg"},{"bike_id":"779eb072-eda6-420b-aec4-b144dfdf4ae7","system_id":"levelo_inurba_marseille","lat":43.2315,"lon":5.43725,"is_reserved":false,"is_disabled":false,"rental_uris":{"android":"levelo://app?vid=779eb072-eda6-420b-aec4-b144dfdf4ae7","ios":"levelo://app?vid=779eb072-eda6-420b-aec4-b144dfdf4ae7"},"vehicle_type_id":"4","last_reported":1747480047,"current_range_meters":9600,"station_id":"ce4bhmp2rcd13ifvqgog","pricing_plan_id":"cebpf4jnsgd1na2vs0mg"},{"bike_id":"a68f9539-d7f7-431a-8b13-de39585015ad","system_id":"levelo_inurba_marseille","lat":43.23194,"lon":5.35553,"is_reserved":false,"is_disabled":false,"rental_uris":{"android":"levelo://app?vid=a68f9539-d7f7-431a-8b13-de39585015ad","ios":"levelo://app?vid=a68f9539-d7f7-431a-8b13-de39585015ad"},"vehicle_type_id":"4","last_reported":1747480047,"current_range_meters":9600,"station_id":"ce4bhu92rcd13ifvqi70","pricing_plan_id":"cebpf4jnsgd1na2vs0mg"},{"bike_id":"7a1e4b34-354b-4d3c-bcd9-698b5ca7c972","system_id":"levelo_inurba_marseille","lat":43.33748,"lon":5.37451,"is_reserved":false,"is_disabled":false,"rental_uris":{"android":"levelo://app?vid=7a1e4b34-354b-4d3c-bcd9-698b5ca7c972","ios":"levelo://app?vid=7a1e4b34-354b-4d3c-bcd9-698b5ca7c972"},"vehicle_type_id":"4","last_reported":1747480047,"current_range_meters":10000,"station_id":"","pricing_plan_id":"cebpf4jnsgd1na2vs0mg"},{"bike_id":"0ddac2bf-af10-40de-ba43-24c2d050cef3","system_id":"levelo_inurba_marseille","lat":43.26208,"lon":5.37439,"is_reserved":false,"is_disabled":false,"rental_uris":{"android":"levelo://app?vid=0ddac2bf-af10-40de-ba43-24c2d050cef3","ios":"levelo://app?vid=0ddac2bf-af10-40de-ba43-24c2d050cef3"},"vehicle_type_id":"4","last_reported":1747480047,"current_range_meters":10000,"station_id":"ce4bhgp2rcd13ifvqfc0","pricing_plan_id":"cebpf4jnsgd1na2vs0mg"},{"bike_id":"4e3dabbc-dd97-4dcb-98cd-df94478075f6","system_id":"levelo_inurba_marseille","lat":43.249935,"lon":5.38939,"is_reserved":false,"is_disabled":false,"rental_uris":{"android":"levelo://app?vid=4e3dabbc-dd97-4dcb-98cd-df94478075f6","ios":"levelo://app?vid=4e3dabbc-dd97-4dcb-98cd-df94478075f6"},"vehicle_type_id":"4","last_reported":1747480047,"current_range_meters":10000,"station_id":"ce4bhgp2rcd13ifvqfd0","pricing_plan_id":"cebpf4jnsgd1na2vs0mg"},{"bike_id":"91ea4119-380c-4f63-8228-2842b9ec4bb1","system_id":"levelo_inurba_marseille","lat":43.23184,"lon":5.39983,"is_reserved":false,"is_disabled":false,"rental_uris":{"android":"levelo://app?vid=91ea4119-380c-4f63-8228-2842b9ec4bb1","ios":"levelo://app?vid=91ea4119-380c-4f63-8228-2842b9ec4bb1"},"vehicle_type_id":"4","last_reported":1747480047,"current_range_meters":10000,"station_id":"ce4bhn12rcd13ifvqgqg","pricing_plan_id":"cebpf4jnsgd1na2vs0mg"},{"bike_id":"39a5ed3e-451f-4328-be11-120996094544","system_id":"levelo_inurba_marseille","lat":43.30352,"lon":5.41865,"is_reserved":false,"is_disabled":false,"rental_uris":{"android":"levelo://app?vid=39a5ed3e-451f-4328-be11-120996094544","ios":"levelo://app?vid=39a5ed3e-451f-4328-be11-120996094544"},"vehicle_type_id":"4","last_reported":1747480047,"current_range_meters":10000,"station_id":"ce4bhop2rcd13ifvqh7g","pricing_plan_id":"cebpf4jnsgd1na2vs0mg"},{"bike_id":"9ab80c09-a66e-490c-af4e-4ca4b7dc42ea","system_id":"levelo_inurba_marseille","lat":43.29126,"lon":5.37958,"is_reserved":false,"is_disabled":false,"rental_uris":{"android":"levelo://app?vid=9ab80c09-a66e-490c-af4e-4ca4b7dc42ea","ios":"levelo://app?vid=9ab80c09-a66e-490c-af4e-4ca4b7dc42ea"},"vehicle_type_id":"4","last_reported":1747480047,"current_range_meters":10800,"station_id":"","pricing_plan_id":"cebpf4jnsgd1na2vs0mg"},{"bike_id":"06951f74-2ede-4754-a375-e0bb2aca8c89","system_id":"levelo_inurba_marseille","lat":43.298751,"lon":5.397251,"is_reserved":false,"is_disabled":false,"rental_uris":{"android":"levelo://app?vid=06951f74-2ede-4754-a375-e0bb2aca8c89","ios":"levelo://app?vid=06951f74-2ede-4754-a375-e0bb2aca8c89"},"vehicle_type_id":"4","last_reported":1747480047,"current_range_meters":10800,"station_id":"ce4bh0h2rcd13ifvqd50","pricing_plan_id":"cebpf4jnsgd1na2vs0mg"},{"bike_id":"0bff4fd7-7679-49d6-b470-abbdd16b9901","system_id":"levelo_inurba_marseille","lat":43.29257,"lon":5.40906,"is_reserved":false,"is_disabled":false,"rental_uris":{"android":"levelo://app?vid=0bff4fd7-7679-49d6-b470-abbdd16b9901","ios":"levelo://app?vid=0bff4fd7-7679-49d6-b470-abbdd16b9901"},"vehicle_type_id":"4","last_reported":1747480047,"current_range_meters":10800,"station_id":"ce4bh192rcd13ifvqdc0","pricing_plan_id":"cebpf4jnsgd1na2vs0mg"},{"bike_id":"6fca7cc7-1f25-47f0-b791-6f1514866824","system_id":"levelo_inurba_marseille","lat":43.29011,"lon":5.35605,"is_reserved":false,"is_disabled":false,"rental_uris":{"android":"levelo://app?vid=6fca7cc7-1f25-47f0-b791-6f1514866824","ios":"levelo://app?vid=6fca7cc7-1f25-47f0-b791-6f1514866824"},"vehicle_type_id":"4","last_reported":1747480047,"current_range_meters":10800,"station_id":"ce4bhb92rcd13ifvqen0","pricing_plan_id":"cebpf4jnsgd1na2vs0mg"},{"bike_id":"13d5a06f-0e0c-454c-8014-811570a62462","system_id":"levelo_inurba_marseille","lat":43.28274,"lon":5.35059,"is_reserved":false,"is_disabled":false,"rental_uris":{"android":"levelo://app?vid=13d5a06f-0e0c-454c-8014-811570a62462","ios":"levelo://app?vid=13d5a06f-0e0c-454c-8014-811570a62462"},"vehicle_type_id":"4","last_reported":1747480047,"current_range_meters":10800,"station_id":"ce4bhbp2rcd13ifvqerg","pricing_plan_id":"cebpf4jnsgd1na2vs0mg"},{"bike_id":"b04bd58d-ab68-46b4-9085-1ddf540e912e","system_id":"levelo_inurba_marseille","lat":43.24082,"lon":5.37753,"is_reserved":false,"is_disabled":false,"rental_uris":{"android":"levelo://app?vid=b04bd58d-ab68-46b4-9085-1ddf540e912e","ios":"levelo://app?vid=b04bd58d-ab68-46b4-9085-1ddf540e912e"},"vehicle_type_id":"4","last_reported":1747480047,"current_range_meters":10800,"station_id":"ce4bhnp2rcd13ifvqgvg","pricing_plan_id":"cebpf4jnsgd1na2vs0mg"},{"bike_id":"f6f9ec7c-0fbf-4aed-98fc-020122956ec4","system_id":"levelo_inurba_marseille","lat":43.23152,"lon":5.43703,"is_reserved":false,"is_disabled":false,"rental_uris":{"android":"levelo://app?vid=f6f9ec7c-0fbf-4aed-98fc-020122956ec4","ios":"levelo://app?vid=f6f9ec7c-0fbf-4aed-98fc-020122956ec4"},"vehicle_type_id":"4","last_reported":1747480047,"current_range_meters":11200,"station_id":"ce4bhmp2rcd13ifvqgog","pricing_plan_id":"cebpf4jnsgd1na2vs0mg"},{"bike_id":"9901410e-532e-48d0-a8ae-b206c0c78306","system_id":"levelo_inurba_marseille","lat":43.2175,"lon":5.346,"is_reserved":false,"is_disabled":false,"rental_uris":{"android":"levelo://app?vid=9901410e-532e-48d0-a8ae-b206c0c78306","ios":"levelo://app?vid=9901410e-532e-48d0-a8ae-b206c0c78306"},"vehicle_type_id":"4","last_reported":1747480047,"current_range_meters":11200,"station_id":"st_cvj6r9ubvosntc0bgbag","pricing_plan_id":"cebpf4jnsgd1na2vs0mg"},{"bike_id":"26c7cc25-73e7-4b90-911d-d48928e27bc0","system_id":"levelo_inurba_marseille","lat":43.21746,"lon":5.34596,"is_reserved":false,"is_disabled":false,"rental_uris":{"android":"levelo://app?vid=26c7cc25-73e7-4b90-911d-d48928e27bc0","ios":"levelo://app?vid=26c7cc25-73e7-4b90-911d-d48928e27bc0"},"vehicle_type_id":"4","last_reported":1747480047,"current_range_meters":11200,"station_id":"st_cvj6r9ubvosntc0bgbag","pricing_plan_id":"cebpf4jnsgd1na2vs0mg"},{"bike_id":"b8e6468b-87db-4ff6-8122-ef13bf5b7c8c","system_id":"levelo_inurba_marseille","lat":43.31379,"lon":5.37916,"is_reserved":false,"is_disabled":false,"rental_uris":{"android":"levelo://app?vid=b8e6468b-87db-4ff6-8122-ef13bf5b7c8c","ios":"levelo://app?vid=b8e6468b-87db-4ff6-8122-ef13bf5b7c8c"},"vehicle_type_id":"4","last_reported":1747480047,"current_range_meters":11600,"station_id":"","pricing_plan_id":"cebpf4jnsgd1na2vs0mg"},{"bike_id":"6da655b8-0421-4e8a-ae32-6637af746f6a","system_id":"levelo_inurba_marseille","lat":43.268159,"lon":5.411056,"is_reserved":false,"is_disabled":false,"rental_uris":{"android":"levelo://app?vid=6da655b8-0421-4e8a-ae32-6637af746f6a","ios":"levelo://app?vid=6da655b8-0421-4e8a-ae32-6637af746f6a"},"vehicle_type_id":"4","last_reported":1747480047,"current_range_meters":11600,"station_id":"","pricing_plan_id":"cebpf4jnsgd1na2vs0mg"},{"bike_id":"71ed6c90-5849-41a0-b699-145817e7ac92","system_id":"levelo_inurba_marseille","lat":43.28415,"lon":5.34988,"is_reserved":false,"is_disabled":false,"rental_uris":{"android":"levelo://app?vid=71ed6c90-5849-41a0-b699-145817e7ac92","ios":"levelo://app?vid=71ed6c90-5849-41a0-b699-145817e7ac92"},"vehicle_type_id":"4","last_reported":1747480047,"current_range_meters":11600,"station_id":"ce4bhbh2rcd13ifvqepg","pricing_plan_id":"cebpf4jnsgd1na2vs0mg"},{"bike_id":"68a98967-4cbd-4af3-9506-803051750aa2","system_id":"levelo_inurba_marseille","lat":43.28616,"lon":5.35112,"is_reserved":false,"is_disabled":false,"rental_uris":{"android":"levelo://app?vid=68a98967-4cbd-4af3-9506-803051750aa2","ios":"levelo://app?vid=68a98967-4cbd-4af3-9506-803051750aa2"},"vehicle_type_id":"4","last_reported":1747480047,"current_range_meters":11600,"station_id":"ce4bhch2rcd13ifvqeug","pricing_plan_id":"cebpf4jnsgd1na2vs0mg"},{"bike_id":"f340cc32-c6f4-4682-8667-5b43d3ff6128","system_id":"levelo_inurba_marseille","lat":43.274668,"lon":5.394544,"is_reserved":false,"is_disabled":false,"rental_uris":{"android":"levelo://app?vid=f340cc32-c6f4-4682-8667-5b43d3ff6128","ios":"levelo://app?vid=f340cc32-c6f4-4682-8667-5b43d3ff6128"},"vehicle_type_id":"4","last_reported":1747480047,"current_range_meters":11600,"station_id":"ce4bhf92rcd13ifvqf40","pricing_plan_id":"cebpf4jnsgd1na2vs0mg"},{"bike_id":"3e630e9a-3c06-4dcc-97d5-ae78a4ea1500","system_id":"levelo_inurba_marseille","lat":43.29877,"lon":5.43658,"is_reserved":false,"is_disabled":false,"rental_uris":{"android":"levelo://app?vid=3e630e9a-3c06-4dcc-97d5-ae78a4ea1500","ios":"levelo://app?vid=3e630e9a-3c06-4dcc-97d5-ae78a4ea1500"},"vehicle_type_id":"4","last_reported":1747480047,"current_range_meters":11600,"station_id":"ce4bhpp2rcd13ifvqhfg","pricing_plan_id":"cebpf4jnsgd1na2vs0mg"},{"bike_id":"2177b1d7-f686-4001-a2d5-99d12ff0980c","system_id":"levelo_inurba_marseille","lat":43.32507,"lon":5.3656,"is_reserved":false,"is_disabled":false,"rental_uris":{"android":"levelo://app?vid=2177b1d7-f686-4001-a2d5-99d12ff0980c","ios":"levelo://app?vid=2177b1d7-f686-4001-a2d5-99d12ff0980c"},"vehicle_type_id":"4","last_reported":1747480047,"current_range_meters":11600,"station_id":"ce4bhs12rcd13ifvqhvg","pricing_plan_id":"cebpf4jnsgd1na2vs0mg"},{"bike_id":"21658823-ea3c-428a-91b4-01a250e7b14c","system_id":"levelo_inurba_marseille","lat":43.24171,"lon":5.36398,"is_reserved":false,"is_disabled":false,"rental_uris":{"android":"levelo://app?vid=21658823-ea3c-428a-91b4-01a250e7b14c","ios":"levelo://app?vid=21658823-ea3c-428a-91b4-01a250e7b14c"},"vehicle_type_id":"4","last_reported":1747480047,"current_range_meters":11600,"station_id":"cpo36qri1sfpv3e86is0","pricing_plan_id":"cebpf4jnsgd1na2vs0mg"},{"bike_id":"f4fbc82a-cc24-41c4-b6c3-cc12e7bd0f2d","system_id":"levelo_inurba_marseille","lat":43.31226,"lon":5.36848,"is_reserved":false,"is_disabled":false,"rental_uris":{"android":"levelo://app?vid=f4fbc82a-cc24-41c4-b6c3-cc12e7bd0f2d","ios":"levelo://app?vid=f4fbc82a-cc24-41c4-b6c3-cc12e7bd0f2d"},"vehicle_type_id":"4","last_reported":1747480047,"current_range_meters":12000,"station_id":"ce4bgl92rcd13ifvqbq0","pricing_plan_id":"cebpf4jnsgd1na2vs0mg"},{"bike_id":"38cfe74b-86fb-4d22-abdd-f906003eede0","system_id":"levelo_inurba_marseille","lat":43.28352,"lon":5.3811,"is_reserved":false,"is_disabled":false,"rental_uris":{"android":"levelo://app?vid=38cfe74b-86fb-4d22-abdd-f906003eede0","ios":"levelo://app?vid=38cfe74b-86fb-4d22-abdd-f906003eede0"},"vehicle_type_id":"4","last_reported":1747480047,"current_range_meters":12000,"station_id":"ce4bh412rcd13ifvqdr0","pricing_plan_id":"cebpf4jnsgd1na2vs0mg"},{"bike_id":"83be837d-42e9-4d17-9ca1-8064b89c1538","system_id":"levelo_inurba_marseille","lat":43.21191,"lon":5.35068,"is_reserved":false,"is_disabled":false,"rental_uris":{"android":"levelo://app?vid=83be837d-42e9-4d17-9ca1-8064b89c1538","ios":"levelo://app?vid=83be837d-42e9-4d17-9ca1-8064b89c1538"},"vehicle_type_id":"4","last_reported":1747480047,"current_range_meters":12000,"station_id":"st_cvj6sg6p6f1abm77japg","pricing_plan_id":"cebpf4jnsgd1na2vs0mg"},{"bike_id":"6e1bd625-3ec1-43df-9657-36d71ae09f8d","system_id":"levelo_inurba_marseille","lat":43.3373,"lon":5.37469,"is_reserved":false,"is_disabled":false,"rental_uris":{"android":"levelo://app?vid=6e1bd625-3ec1-43df-9657-36d71ae09f8d","ios":"levelo://app?vid=6e1bd625-3ec1-43df-9657-36d71ae09f8d"},"vehicle_type_id":"4","last_reported":1747480047,"current_range_meters":12400,"station_id":"","pricing_plan_id":"cebpf4jnsgd1na2vs0mg"},{"bike_id":"324f9805-3237-4b81-9b51-000a270cc076","system_id":"levelo_inurba_marseille","lat":43.27379,"lon":5.3625,"is_reserved":false,"is_disabled":false,"rental_uris":{"android":"levelo://app?vid=324f9805-3237-4b81-9b51-000a270cc076","ios":"levelo://app?vid=324f9805-3237-4b81-9b51-000a270cc076"},"vehicle_type_id":"4","last_reported":1747480047,"current_range_meters":12400,"station_id":"ce4bhbh2rcd13ifvqeo0","pricing_plan_id":"cebpf4jnsgd1na2vs0mg"},{"bike_id":"31b65028-d1a2-42bd-96ee-26dc420cdf61","system_id":"levelo_inurba_marseille","lat":43.27372,"lon":5.3626,"is_reserved":false,"is_disabled":false,"rental_uris":{"android":"levelo://app?vid=31b65028-d1a2-42bd-96ee-26dc420cdf61","ios":"levelo://app?vid=31b65028-d1a2-42bd-96ee-26dc420cdf61"},"vehicle_type_id":"4","last_reported":1747480047,"current_range_meters":12400,"station_id":"ce4bhbh2rcd13ifvqeo0","pricing_plan_id":"cebpf4jnsgd1na2vs0mg"},{"bike_id":"a4d7457e-a382-4ab7-9876-e9ba20692ec9","system_id":"levelo_inurba_marseille","lat":43.31995,"lon":5.38147,"is_reserved":false,"is_disabled":false,"rental_uris":{"android":"levelo://app?vid=a4d7457e-a382-4ab7-9876-e9ba20692ec9","ios":"levelo://app?vid=a4d7457e-a382-4ab7-9876-e9ba20692ec9"},"vehicle_type_id":"4","last_reported":1747480047,"current_range_meters":12400,"station_id":"ce4bhr12rcd13ifvqhpg","pricing_plan_id":"cebpf4jnsgd1na2vs0mg"},{"bike_id":"d84c7860-8126-4df9-9e0f-b95243332232","system_id":"levelo_inurba_marseille","lat":43.28598,"lon":5.3705,"is_reserved":false,"is_disabled":false,"rental_uris":{"android":"levelo://app?vid=d84c7860-8126-4df9-9e0f-b95243332232","ios":"levelo://app?vid=d84c7860-8126-4df9-9e0f-b95243332232"},"vehicle_type_id":"4","last_reported":1747480047,"current_range_meters":12400,"station_id":"ce4bht12rcd13ifvqi60","pricing_plan_id":"cebpf4jnsgd1na2vs0mg"},{"bike_id":"b4a5c310-4571-47d9-a459-2853351aea8b","system_id":"levelo_inurba_marseille","lat":43.29585,"lon":5.36732,"is_reserved":false,"is_disabled":false,"rental_uris":{"android":"levelo://app?vid=b4a5c310-4571-47d9-a459-2853351aea8b","ios":"levelo://app?vid=b4a5c310-4571-47d9-a459-2853351aea8b"},"vehicle_type_id":"4","last_reported":1747480047,"current_range_meters":12800,"station_id":"ce4bgph2rcd13ifvqc2g","pricing_plan_id":"cebpf4jnsgd1na2vs0mg"},{"bike_id":"a0f3d0aa-b731-4c54-a8d8-c7a1a942a8b9","system_id":"levelo_inurba_marseille","lat":43.266847,"lon":5.382722,"is_reserved":false,"is_disabled":false,"rental_uris":{"android":"levelo://app?vid=a0f3d0aa-b731-4c54-a8d8-c7a1a942a8b9","ios":"levelo://app?vid=a0f3d0aa-b731-4c54-a8d8-c7a1a942a8b9"},"vehicle_type_id":"4","last_reported":1747480047,"current_range_meters":12800,"station_id":"ce4bhg92rcd13ifvqf90","pricing_plan_id":"cebpf4jnsgd1na2vs0mg"},{"bike_id":"0b17beea-a479-47d0-8684-37d21cb61abf","system_id":"levelo_inurba_marseille","lat":43.250015,"lon":5.389273,"is_reserved":false,"is_disabled":false,"rental_uris":{"android":"levelo://app?vid=0b17beea-a479-47d0-8684-37d21cb61abf","ios":"levelo://app?vid=0b17beea-a479-47d0-8684-37d21cb61abf"},"vehicle_type_id":"4","last_reported":1747480047,"current_range_meters":12800,"station_id":"ce4bhgp2rcd13ifvqfd0","pricing_plan_id":"cebpf4jnsgd1na2vs0mg"},{"bike_id":"b42aade0-440e-4b8b-99d6-a2f5b102fabb","system_id":"levelo_inurba_marseille","lat":43.2439,"lon":5.37055,"is_reserved":false,"is_disabled":false,"rental_uris":{"android":"levelo://app?vid=b42aade0-440e-4b8b-99d6-a2f5b102fabb","ios":"levelo://app?vid=b42aade0-440e-4b8b-99d6-a2f5b102fabb"},"vehicle_type_id":"4","last_reported":1747480047,"current_range_meters":12800,"station_id":"ce4bhhh2rcd13ifvqfk0","pricing_plan_id":"cebpf4jnsgd1na2vs0mg"},{"bike_id":"bc534afc-04c9-40be-8cd6-a0666f7fa358","system_id":"levelo_inurba_marseille","lat":43.2439,"lon":5.37061,"is_reserved":false,"is_disabled":false,"rental_uris":{"android":"levelo://app?vid=bc534afc-04c9-40be-8cd6-a0666f7fa358","ios":"levelo://app?vid=bc534afc-04c9-40be-8cd6-a0666f7fa358"},"vehicle_type_id":"4","last_reported":1747480047,"current_range_meters":12800,"station_id":"ce4bhhh2rcd13ifvqfk0","pricing_plan_id":"cebpf4jnsgd1na2vs0mg"},{"bike_id":"81a9455a-3e2a-4c4a-be15-7a450dcad848","system_id":"levelo_inurba_marseille","lat":43.23961,"lon":5.36645,"is_reserved":false,"is_disabled":false,"rental_uris":{"android":"levelo://app?vid=81a9455a-3e2a-4c4a-be15-7a450dcad848","ios":"levelo://app?vid=81a9455a-3e2a-4c4a-be15-7a450dcad848"},"vehicle_type_id":"4","last_reported":1747480047,"current_range_meters":12800,"station_id":"ce4bhi12rcd13ifvqfp0","pricing_plan_id":"cebpf4jnsgd1na2vs0mg"},{"bike_id":"562c9361-74db-42d4-b149-f191867b1c6d","system_id":"levelo_inurba_marseille","lat":43.25119,"lon":5.40314,"is_reserved":false,"is_disabled":false,"rental_uris":{"android":"levelo://app?vid=562c9361-74db-42d4-b149-f191867b1c6d","ios":"levelo://app?vid=562c9361-74db-42d4-b149-f191867b1c6d"},"vehicle_type_id":"4","last_reported":1747480047,"current_range_meters":12800,"station_id":"ce4bhlh2rcd13ifvqgig","pricing_plan_id":"cebpf4jnsgd1na2vs0mg"},{"bike_id":"460e8303-29a3-4406-83d3-19c607823160","system_id":"levelo_inurba_marseille","lat":43.29197,"lon":5.35806,"is_reserved":false,"is_disabled":false,"rental_uris":{"android":"levelo://app?vid=460e8303-29a3-4406-83d3-19c607823160","ios":"levelo://app?vid=460e8303-29a3-4406-83d3-19c607823160"},"vehicle_type_id":"4","last_reported":1747480047,"current_range_meters":13600,"station_id":"ce4bhb12rcd13ifvqel0","pricing_plan_id":"cebpf4jnsgd1na2vs0mg"},{"bike_id":"f63203cc-3db4-4da9-b727-3ca3702bb76a","system_id":"levelo_inurba_marseille","lat":43.26024,"lon":5.37549,"is_reserved":false,"is_disabled":false,"rental_uris":{"android":"levelo://app?vid=f63203cc-3db4-4da9-b727-3ca3702bb76a","ios":"levelo://app?vid=f63203cc-3db4-4da9-b727-3ca3702bb76a"},"vehicle_type_id":"4","last_reported":1747480047,"current_range_meters":13600,"station_id":"ce4bhgh2rcd13ifvqfa0","pricing_plan_id":"cebpf4jnsgd1na2vs0mg"},{"bike_id":"8f61d24d-bf10-46ab-aa3b-114655a14ebe","system_id":"levelo_inurba_marseille","lat":43.25499,"lon":5.37646,"is_reserved":false,"is_disabled":false,"rental_uris":{"android":"levelo://app?vid=8f61d24d-bf10-46ab-aa3b-114655a14ebe","ios":"levelo://app?vid=8f61d24d-bf10-46ab-aa3b-114655a14ebe"},"vehicle_type_id":"4","last_reported":1747480047,"current_range_meters":13600,"station_id":"ce4bhh12rcd13ifvqff0","pricing_plan_id":"cebpf4jnsgd1na2vs0mg"},{"bike_id":"46c4ba03-4382-41c0-9bae-f8b360ae58bf","system_id":"levelo_inurba_marseille","lat":43.31996,"lon":5.38125,"is_reserved":false,"is_disabled":false,"rental_uris":{"android":"levelo://app?vid=46c4ba03-4382-41c0-9bae-f8b360ae58bf","ios":"levelo://app?vid=46c4ba03-4382-41c0-9bae-f8b360ae58bf"},"vehicle_type_id":"4","last_reported":1747480047,"current_range_meters":13600,"station_id":"ce4bhr12rcd13ifvqhpg","pricing_plan_id":"cebpf4jnsgd1na2vs0mg"},{"bike_id":"14603e41-b2dd-4757-a53c-2e366aa4f983","system_id":"levelo_inurba_marseille","lat":43.26995,"lon":5.42815,"is_reserved":false,"is_disabled":false,"rental_uris":{"android":"levelo://app?vid=14603e41-b2dd-4757-a53c-2e366aa4f983","ios":"levelo://app?vid=14603e41-b2dd-4757-a53c-2e366aa4f983"},"vehicle_type_id":"4","last_reported":1747480047,"current_range_meters":14000,"station_id":"","pricing_plan_id":"cebpf4jnsgd1na2vs0mg"},{"bike_id":"dae4c5bf-2c1c-4572-9b48-b310cb0234ea","system_id":"levelo_inurba_marseille","lat":43.27623,"lon":5.36104,"is_reserved":false,"is_disabled":false,"rental_uris":{"android":"levelo://app?vid=dae4c5bf-2c1c-4572-9b48-b310cb0234ea","ios":"levelo://app?vid=dae4c5bf-2c1c-4572-9b48-b310cb0234ea"},"vehicle_type_id":"4","last_reported":1747480047,"current_range_meters":14000,"station_id":"ce4bgj92rcd13ifvqbe0","pricing_plan_id":"cebpf4jnsgd1na2vs0mg"},{"bike_id":"962eb948-b4c1-4cb1-8d41-1fe5a84ce28c","system_id":"levelo_inurba_marseille","lat":43.292164,"lon":5.360722,"is_reserved":false,"is_disabled":false,"rental_uris":{"android":"levelo://app?vid=962eb948-b4c1-4cb1-8d41-1fe5a84ce28c","ios":"levelo://app?vid=962eb948-b4c1-4cb1-8d41-1fe5a84ce28c"},"vehicle_type_id":"4","last_reported":1747480047,"current_range_meters":14000,"station_id":"ce4bhbh2rcd13ifvqeqg","pricing_plan_id":"cebpf4jnsgd1na2vs0mg"},{"bike_id":"6eb278c6-a6e5-4ecf-ab74-44a0ca7b54af","system_id":"levelo_inurba_marseille","lat":43.27915,"lon":5.39588,"is_reserved":false,"is_disabled":false,"rental_uris":{"android":"levelo://app?vid=6eb278c6-a6e5-4ecf-ab74-44a0ca7b54af","ios":"levelo://app?vid=6eb278c6-a6e5-4ecf-ab74-44a0ca7b54af"},"vehicle_type_id":"4","last_reported":1747480047,"current_range_meters":14000,"station_id":"ce4bhf92rcd13ifvqf40","pricing_plan_id":"cebpf4jnsgd1na2vs0mg"},{"bike_id":"bb186e8f-1b36-4b6b-8780-b05a3a3d91a1","system_id":"levelo_inurba_marseille","lat":43.23964,"lon":5.36636,"is_reserved":false,"is_disabled":false,"rental_uris":{"android":"levelo://app?vid=bb186e8f-1b36-4b6b-8780-b05a3a3d91a1","ios":"levelo://app?vid=bb186e8f-1b36-4b6b-8780-b05a3a3d91a1"},"vehicle_type_id":"4","last_reported":1747480047,"current_range_meters":14000,"station_id":"ce4bhi12rcd13ifvqfp0","pricing_plan_id":"cebpf4jnsgd1na2vs0mg"},{"bike_id":"4865257b-1033-4281-9cf7-0352d758bedc","system_id":"levelo_inurba_marseille","lat":43.23197,"lon":5.35555,"is_reserved":false,"is_disabled":false,"rental_uris":{"android":"levelo://app?vid=4865257b-1033-4281-9cf7-0352d758bedc","ios":"levelo://app?vid=4865257b-1033-4281-9cf7-0352d758bedc"},"vehicle_type_id":"4","last_reported":1747480047,"current_range_meters":14000,"station_id":"ce4bhu92rcd13ifvqi70","pricing_plan_id":"cebpf4jnsgd1na2vs0mg"},{"bike_id":"5a6e0b34-3795-4e82-a30a-0ce928dd216d","system_id":"levelo_inurba_marseille","lat":43.337444,"lon":5.374475,"is_reserved":false,"is_disabled":false,"rental_uris":{"android":"levelo://app?vid=5a6e0b34-3795-4e82-a30a-0ce928dd216d","ios":"levelo://app?vid=5a6e0b34-3795-4e82-a30a-0ce928dd216d"},"vehicle_type_id":"4","last_reported":1747480047,"current_range_meters":14400,"station_id":"ce4bhg12rcd13ifvqf60","pricing_plan_id":"cebpf4jnsgd1na2vs0mg"},{"bike_id":"2e91ee98-865b-4548-a712-64cd60441229","system_id":"levelo_inurba_marseille","lat":43.27208,"lon":5.39189,"is_reserved":false,"is_disabled":false,"rental_uris":{"android":"levelo://app?vid=2e91ee98-865b-4548-a712-64cd60441229","ios":"levelo://app?vid=2e91ee98-865b-4548-a712-64cd60441229"},"vehicle_type_id":"4","last_reported":1747480047,"current_range_meters":14400,"station_id":"ce4bhhp2rcd13ifvqfm0","pricing_plan_id":"cebpf4jnsgd1na2vs0mg"},{"bike_id":"0861c99d-4281-4419-a2c7-71d96aadb620","system_id":"levelo_inurba_marseille","lat":43.23144,"lon":5.43701,"is_reserved":false,"is_disabled":false,"rental_uris":{"android":"levelo://app?vid=0861c99d-4281-4419-a2c7-71d96aadb620","ios":"levelo://app?vid=0861c99d-4281-4419-a2c7-71d96aadb620"},"vehicle_type_id":"4","last_reported":1747480047,"current_range_meters":14400,"station_id":"ce4bhmp2rcd13ifvqgog","pricing_plan_id":"cebpf4jnsgd1na2vs0mg"},{"bike_id":"0a0fa568-f7d9-4be3-98a5-36c64d6ae6e0","system_id":"levelo_inurba_marseille","lat":43.21192,"lon":5.35076,"is_reserved":false,"is_disabled":false,"rental_uris":{"android":"levelo://app?vid=0a0fa568-f7d9-4be3-98a5-36c64d6ae6e0","ios":"levelo://app?vid=0a0fa568-f7d9-4be3-98a5-36c64d6ae6e0"},"vehicle_type_id":"4","last_reported":1747480047,"current_range_meters":14400,"station_id":"st_cvj6sg6p6f1abm77japg","pricing_plan_id":"cebpf4jnsgd1na2vs0mg"},{"bike_id":"c9536574-af38-49d0-9839-040c6d222ba7","system_id":"levelo_inurba_marseille","lat":43.30433,"lon":5.38888,"is_reserved":false,"is_disabled":false,"rental_uris":{"android":"levelo://app?vid=c9536574-af38-49d0-9839-040c6d222ba7","ios":"levelo://app?vid=c9536574-af38-49d0-9839-040c6d222ba7"},"vehicle_type_id":"4","last_reported":1747480047,"current_range_meters":14800,"station_id":"ce4bgk12rcd13ifvqbi0","pricing_plan_id":"cebpf4jnsgd1na2vs0mg"},{"bike_id":"aa578e1f-659e-42a8-94b4-1a831d878fe8","system_id":"levelo_inurba_marseille","lat":43.29847,"lon":5.36276,"is_reserved":false,"is_disabled":false,"rental_uris":{"android":"levelo://app?vid=aa578e1f-659e-42a8-94b4-1a831d878fe8","ios":"levelo://app?vid=aa578e1f-659e-42a8-94b4-1a831d878fe8"},"vehicle_type_id":"4","last_reported":1747480047,"current_range_meters":14800,"station_id":"ce4bgpp2rcd13ifvqc3g","pricing_plan_id":"cebpf4jnsgd1na2vs0mg"},{"bike_id":"0bb19ac2-0b62-4439-9151-b3f6367a952d","system_id":"levelo_inurba_marseille","lat":43.28416,"lon":5.34982,"is_reserved":false,"is_disabled":false,"rental_uris":{"android":"levelo://app?vid=0bb19ac2-0b62-4439-9151-b3f6367a952d","ios":"levelo://app?vid=0bb19ac2-0b62-4439-9151-b3f6367a952d"},"vehicle_type_id":"4","last_reported":1747480047,"current_range_meters":14800,"station_id":"ce4bhbh2rcd13ifvqepg","pricing_plan_id":"cebpf4jnsgd1na2vs0mg"},{"bike_id":"da4dcaf1-514d-4835-829d-abd8e5229eab","system_id":"levelo_inurba_marseille","lat":43.241719,"lon":5.397195,"is_reserved":false,"is_disabled":false,"rental_uris":{"android":"levelo://app?vid=da4dcaf1-514d-4835-829d-abd8e5229eab","ios":"levelo://app?vid=da4dcaf1-514d-4835-829d-abd8e5229eab"},"vehicle_type_id":"4","last_reported":1747480047,"current_range_meters":14800,"station_id":"ce4bhn12rcd13ifvqgpg","pricing_plan_id":"cebpf4jnsgd1na2vs0mg"},{"bike_id":"5fa50d54-b2d7-4506-ab2a-36c00bc2acf2","system_id":"levelo_inurba_marseille","lat":43.29956,"lon":5.41316,"is_reserved":false,"is_disabled":false,"rental_uris":{"android":"levelo://app?vid=5fa50d54-b2d7-4506-ab2a-36c00bc2acf2","ios":"levelo://app?vid=5fa50d54-b2d7-4506-ab2a-36c00bc2acf2"},"vehicle_type_id":"4","last_reported":1747480047,"current_range_meters":14800,"station_id":"ce4bhp12rcd13ifvqh9g","pricing_plan_id":"cebpf4jnsgd1na2vs0mg"},{"bike_id":"388e78d9-3ee0-44ea-bcb7-92beb0601384","system_id":"levelo_inurba_marseille","lat":43.232,"lon":5.35547,"is_reserved":false,"is_disabled":false,"rental_uris":{"android":"levelo://app?vid=388e78d9-3ee0-44ea-bcb7-92beb0601384","ios":"levelo://app?vid=388e78d9-3ee0-44ea-bcb7-92beb0601384"},"vehicle_type_id":"4","last_reported":1747480047,"current_range_meters":14800,"station_id":"ce4bhu92rcd13ifvqi70","pricing_plan_id":"cebpf4jnsgd1na2vs0mg"},{"bike_id":"e9219694-9b74-4500-825d-d52963e2cfd6","system_id":"levelo_inurba_marseille","lat":43.30648,"lon":5.40105,"is_reserved":false,"is_disabled":false,"rental_uris":{"android":"levelo://app?vid=e9219694-9b74-4500-825d-d52963e2cfd6","ios":"levelo://app?vid=e9219694-9b74-4500-825d-d52963e2cfd6"},"vehicle_type_id":"4","last_reported":1747480047,"current_range_meters":15200,"station_id":"ce4bh112rcd13ifvqda0","pricing_plan_id":"cebpf4jnsgd1na2vs0mg"},{"bike_id":"1dff1dfe-4b6d-4909-89b4-642fa476c25b","system_id":"levelo_inurba_marseille","lat":43.29266,"lon":5.38437,"is_reserved":false,"is_disabled":false,"rental_uris":{"android":"levelo://app?vid=1dff1dfe-4b6d-4909-89b4-642fa476c25b","ios":"levelo://app?vid=1dff1dfe-4b6d-4909-89b4-642fa476c25b"},"vehicle_type_id":"4","last_reported":1747480047,"current_range_meters":15200,"station_id":"ce4bh692rcd13ifvqea0","pricing_plan_id":"cebpf4jnsgd1na2vs0mg"},{"bike_id":"59bc5337-9bbf-4753-bfe2-0b20b15a8458","system_id":"levelo_inurba_marseille","lat":43.28418,"lon":5.34975,"is_reserved":false,"is_disabled":false,"rental_uris":{"android":"levelo://app?vid=59bc5337-9bbf-4753-bfe2-0b20b15a8458","ios":"levelo://app?vid=59bc5337-9bbf-4753-bfe2-0b20b15a8458"},"vehicle_type_id":"4","last_reported":1747480047,"current_range_meters":15200,"station_id":"ce4bhbh2rcd13ifvqepg","pricing_plan_id":"cebpf4jnsgd1na2vs0mg"},{"bike_id":"c82efa10-416e-400e-bd08-171f6a1b30ae","system_id":"levelo_inurba_marseille","lat":43.24984,"lon":5.3894,"is_reserved":false,"is_disabled":false,"rental_uris":{"android":"levelo://app?vid=c82efa10-416e-400e-bd08-171f6a1b30ae","ios":"levelo://app?vid=c82efa10-416e-400e-bd08-171f6a1b30ae"},"vehicle_type_id":"4","last_reported":1747480047,"current_range_meters":15200,"station_id":"ce4bhgp2rcd13ifvqfd0","pricing_plan_id":"cebpf4jnsgd1na2vs0mg"},{"bike_id":"5fc53e44-e1cc-45d4-9695-177aa24de988","system_id":"levelo_inurba_marseille","lat":43.29041,"lon":5.35918,"is_reserved":false,"is_disabled":false,"rental_uris":{"android":"levelo://app?vid=5fc53e44-e1cc-45d4-9695-177aa24de988","ios":"levelo://app?vid=5fc53e44-e1cc-45d4-9695-177aa24de988"},"vehicle_type_id":"4","last_reported":1747480047,"current_range_meters":16000,"station_id":"ce4bha92rcd13ifvqeg0","pricing_plan_id":"cebpf4jnsgd1na2vs0mg"},{"bike_id":"36a91554-c4be-4788-acb7-5f0d7a66f38d","system_id":"levelo_inurba_marseille","lat":43.247945,"lon":5.374793,"is_reserved":false,"is_disabled":false,"rental_uris":{"android":"levelo://app?vid=36a91554-c4be-4788-acb7-5f0d7a66f38d","ios":"levelo://app?vid=36a91554-c4be-4788-acb7-5f0d7a66f38d"},"vehicle_type_id":"4","last_reported":1747480047,"current_range_meters":16000,"station_id":"ce4bhgh2rcd13ifvqfb0","pricing_plan_id":"cebpf4jnsgd1na2vs0mg"},{"bike_id":"5736e313-bc38-41a5-b30e-a8fca6c6e668","system_id":"levelo_inurba_marseille","lat":43.23965,"lon":5.36646,"is_reserved":false,"is_disabled":false,"rental_uris":{"android":"levelo://app?vid=5736e313-bc38-41a5-b30e-a8fca6c6e668","ios":"levelo://app?vid=5736e313-bc38-41a5-b30e-a8fca6c6e668"},"vehicle_type_id":"4","last_reported":1747480047,"current_range_meters":16000,"station_id":"ce4bhi12rcd13ifvqfp0","pricing_plan_id":"cebpf4jnsgd1na2vs0mg"},{"bike_id":"31826e3a-9cdb-4340-8e16-2182669d9a74","system_id":"levelo_inurba_marseille","lat":43.21193,"lon":5.35074,"is_reserved":false,"is_disabled":false,"rental_uris":{"android":"levelo://app?vid=31826e3a-9cdb-4340-8e16-2182669d9a74","ios":"levelo://app?vid=31826e3a-9cdb-4340-8e16-2182669d9a74"},"vehicle_type_id":"4","last_reported":1747480047,"current_range_meters":16000,"station_id":"st_cvj6sg6p6f1abm77japg","pricing_plan_id":"cebpf4jnsgd1na2vs0mg"},{"bike_id":"195b2f38-3583-46c4-9a59-e3288cc1c915","system_id":"levelo_inurba_marseille","lat":43.21197,"lon":5.35064,"is_reserved":false,"is_disabled":false,"rental_uris":{"android":"levelo://app?vid=195b2f38-3583-46c4-9a59-e3288cc1c915","ios":"levelo://app?vid=195b2f38-3583-46c4-9a59-e3288cc1c915"},"vehicle_type_id":"4","last_reported":1747480047,"current_range_meters":16000,"station_id":"st_cvj6sg6p6f1abm77japg","pricing_plan_id":"cebpf4jnsgd1na2vs0mg"},{"bike_id":"78338216-0a2b-4e99-8b78-cff8b95a208b","system_id":"levelo_inurba_marseille","lat":43.235413,"lon":5.403235,"is_reserved":false,"is_disabled":false,"rental_uris":{"android":"levelo://app?vid=78338216-0a2b-4e99-8b78-cff8b95a208b","ios":"levelo://app?vid=78338216-0a2b-4e99-8b78-cff8b95a208b"},"vehicle_type_id":"4","last_reported":1747480047,"current_range_meters":16400,"station_id":"","pricing_plan_id":"cebpf4jnsgd1na2vs0mg"},{"bike_id":"89338b62-f874-48ab-bcd3-40c306bd533c","system_id":"levelo_inurba_marseille","lat":43.299307,"lon":5.365228,"is_reserved":false,"is_disabled":false,"rental_uris":{"android":"levelo://app?vid=89338b62-f874-48ab-bcd3-40c306bd533c","ios":"levelo://app?vid=89338b62-f874-48ab-bcd3-40c306bd533c"},"vehicle_type_id":"4","last_reported":1747480047,"current_range_meters":16400,"station_id":"ce4bgm92rcd13ifvqbr0","pricing_plan_id":"cebpf4jnsgd1na2vs0mg"},{"bike_id":"bf507774-9fc4-4eec-98b9-e24cf594e4c5","system_id":"levelo_inurba_marseille","lat":43.29851,"lon":5.36288,"is_reserved":false,"is_disabled":false,"rental_uris":{"android":"levelo://app?vid=bf507774-9fc4-4eec-98b9-e24cf594e4c5","ios":"levelo://app?vid=bf507774-9fc4-4eec-98b9-e24cf594e4c5"},"vehicle_type_id":"4","last_reported":1747480047,"current_range_meters":16400,"station_id":"ce4bgpp2rcd13ifvqc3g","pricing_plan_id":"cebpf4jnsgd1na2vs0mg"},{"bike_id":"199730d0-ad51-459b-9f83-87f67aadc433","system_id":"levelo_inurba_marseille","lat":43.27382,"lon":5.36251,"is_reserved":false,"is_disabled":false,"rental_uris":{"android":"levelo://app?vid=199730d0-ad51-459b-9f83-87f67aadc433","ios":"levelo://app?vid=199730d0-ad51-459b-9f83-87f67aadc433"},"vehicle_type_id":"4","last_reported":1747480047,"current_range_meters":16400,"station_id":"ce4bhbh2rcd13ifvqeo0","pricing_plan_id":"cebpf4jnsgd1na2vs0mg"},{"bike_id":"f2734867-7f22-4f8b-b4d3-f1d49fde0469","system_id":"levelo_inurba_marseille","lat":43.26552,"lon":5.37273,"is_reserved":false,"is_disabled":false,"rental_uris":{"android":"levelo://app?vid=f2734867-7f22-4f8b-b4d3-f1d49fde0469","ios":"levelo://app?vid=f2734867-7f22-4f8b-b4d3-f1d49fde0469"},"vehicle_type_id":"4","last_reported":1747480047,"current_range_meters":16400,"station_id":"ce4bhg12rcd13ifvqf70","pricing_plan_id":"cebpf4jnsgd1na2vs0mg"},{"bike_id":"37b59e8b-6acd-4e96-a2d8-76aaafcee32e","system_id":"levelo_inurba_marseille","lat":43.24169,"lon":5.36388,"is_reserved":false,"is_disabled":false,"rental_uris":{"android":"levelo://app?vid=37b59e8b-6acd-4e96-a2d8-76aaafcee32e","ios":"levelo://app?vid=37b59e8b-6acd-4e96-a2d8-76aaafcee32e"},"vehicle_type_id":"4","last_reported":1747480047,"current_range_meters":16400,"station_id":"cpo36qri1sfpv3e86is0","pricing_plan_id":"cebpf4jnsgd1na2vs0mg"},{"bike_id":"93e4eb0f-d439-40a0-8857-ce150a01f705","system_id":"levelo_inurba_marseille","lat":43.21189,"lon":5.35073,"is_reserved":false,"is_disabled":false,"rental_uris":{"android":"levelo://app?vid=93e4eb0f-d439-40a0-8857-ce150a01f705","ios":"levelo://app?vid=93e4eb0f-d439-40a0-8857-ce150a01f705"},"vehicle_type_id":"4","last_reported":1747480047,"current_range_meters":16400,"station_id":"st_cvj6sg6p6f1abm77japg","pricing_plan_id":"cebpf4jnsgd1na2vs0mg"},{"bike_id":"1ffdbab4-b320-449e-8777-83b359e20fae","system_id":"levelo_inurba_marseille","lat":43.23965,"lon":5.36632,"is_reserved":false,"is_disabled":false,"rental_uris":{"android":"levelo://app?vid=1ffdbab4-b320-449e-8777-83b359e20fae","ios":"levelo://app?vid=1ffdbab4-b320-449e-8777-83b359e20fae"},"vehicle_type_id":"4","last_reported":1747480047,"current_range_meters":16800,"station_id":"ce4bhi12rcd13ifvqfp0","pricing_plan_id":"cebpf4jnsgd1na2vs0mg"},{"bike_id":"2ee295cb-96c4-4610-8663-e4188fc8c038","system_id":"levelo_inurba_marseille","lat":43.21747,"lon":5.34599,"is_reserved":false,"is_disabled":false,"rental_uris":{"android":"levelo://app?vid=2ee295cb-96c4-4610-8663-e4188fc8c038","ios":"levelo://app?vid=2ee295cb-96c4-4610-8663-e4188fc8c038"},"vehicle_type_id":"4","last_reported":1747480047,"current_range_meters":16800,"station_id":"st_cvj6r9ubvosntc0bgbag","pricing_plan_id":"cebpf4jnsgd1na2vs0mg"},{"bike_id":"b26a0dd7-cbdc-4ab7-8def-31c4b88b224a","system_id":"levelo_inurba_marseille","lat":43.31193,"lon":5.3925,"is_reserved":false,"is_disabled":false,"rental_uris":{"android":"levelo://app?vid=b26a0dd7-cbdc-4ab7-8def-31c4b88b224a","ios":"levelo://app?vid=b26a0dd7-cbdc-4ab7-8def-31c4b88b224a"},"vehicle_type_id":"4","last_reported":1747480047,"current_range_meters":17200,"station_id":"","pricing_plan_id":"cebpf4jnsgd1na2vs0mg"},{"bike_id":"c04afadd-262f-4e6d-97cb-ae17104f887e","system_id":"levelo_inurba_marseille","lat":43.290039,"lon":5.356179,"is_reserved":false,"is_disabled":false,"rental_uris":{"android":"levelo://app?vid=c04afadd-262f-4e6d-97cb-ae17104f887e","ios":"levelo://app?vid=c04afadd-262f-4e6d-97cb-ae17104f887e"},"vehicle_type_id":"4","last_reported":1747480047,"current_range_meters":17200,"station_id":"ce4bhb92rcd13ifvqen0","pricing_plan_id":"cebpf4jnsgd1na2vs0mg"},{"bike_id":"c30db054-6f69-4d06-b4b4-43e84bfed6e2","system_id":"levelo_inurba_marseille","lat":43.25488,"lon":5.37659,"is_reserved":false,"is_disabled":false,"rental_uris":{"android":"levelo://app?vid=c30db054-6f69-4d06-b4b4-43e84bfed6e2","ios":"levelo://app?vid=c30db054-6f69-4d06-b4b4-43e84bfed6e2"},"vehicle_type_id":"4","last_reported":1747480047,"current_range_meters":17200,"station_id":"ce4bhh12rcd13ifvqff0","pricing_plan_id":"cebpf4jnsgd1na2vs0mg"},{"bike_id":"e3ccfdf2-8984-4f17-a6ad-0d3351116e1d","system_id":"levelo_inurba_marseille","lat":43.26192,"lon":5.37934,"is_reserved":false,"is_disabled":false,"rental_uris":{"android":"levelo://app?vid=e3ccfdf2-8984-4f17-a6ad-0d3351116e1d","ios":"levelo://app?vid=e3ccfdf2-8984-4f17-a6ad-0d3351116e1d"},"vehicle_type_id":"4","last_reported":1747480047,"current_range_meters":17200,"station_id":"ce4bhjp2rcd13ifvqg90","pricing_plan_id":"cebpf4jnsgd1na2vs0mg"},{"bike_id":"bfb06b2a-35f0-4ee6-9e46-970e5511369b","system_id":"levelo_inurba_marseille","lat":43.270724,"lon":5.422806,"is_reserved":false,"is_disabled":false,"rental_uris":{"android":"levelo://app?vid=bfb06b2a-35f0-4ee6-9e46-970e5511369b","ios":"levelo://app?vid=bfb06b2a-35f0-4ee6-9e46-970e5511369b"},"vehicle_type_id":"4","last_reported":1747480047,"current_range_meters":17200,"station_id":"ce4bhk92rcd13ifvqgb0","pricing_plan_id":"cebpf4jnsgd1na2vs0mg"},{"bike_id":"1f63ed15-9746-4177-8f73-c424d93c1fa4","system_id":"levelo_inurba_marseille","lat":43.33725,"lon":5.3918,"is_reserved":false,"is_disabled":false,"rental_uris":{"android":"levelo://app?vid=1f63ed15-9746-4177-8f73-c424d93c1fa4","ios":"levelo://app?vid=1f63ed15-9746-4177-8f73-c424d93c1fa4"},"vehicle_type_id":"4","last_reported":1747480047,"current_range_meters":17200,"station_id":"ce4bhr92rcd13ifvqhsg","pricing_plan_id":"cebpf4jnsgd1na2vs0mg"},{"bike_id":"5e6b40b8-d296-4bf0-afc5-64afa04a82e7","system_id":"levelo_inurba_marseille","lat":43.30964,"lon":5.40472,"is_reserved":false,"is_disabled":false,"rental_uris":{"android":"levelo://app?vid=5e6b40b8-d296-4bf0-afc5-64afa04a82e7","ios":"levelo://app?vid=5e6b40b8-d296-4bf0-afc5-64afa04a82e7"},"vehicle_type_id":"4","last_reported":1747480047,"current_range_meters":17600,"station_id":"","pricing_plan_id":"cebpf4jnsgd1na2vs0mg"},{"bike_id":"ce7e521d-9edf-4829-b13b-1ac701ac7c36","system_id":"levelo_inurba_marseille","lat":43.29798,"lon":5.38118,"is_reserved":false,"is_disabled":false,"rental_uris":{"android":"levelo://app?vid=ce7e521d-9edf-4829-b13b-1ac701ac7c36","ios":"levelo://app?vid=ce7e521d-9edf-4829-b13b-1ac701ac7c36"},"vehicle_type_id":"4","last_reported":1747480047,"current_range_meters":17600,"station_id":"ce4bgip2rcd13ifvqbb0","pricing_plan_id":"cebpf4jnsgd1na2vs0mg"},{"bike_id":"5593c7f2-36a3-497f-99da-64fa53a52ee8","system_id":"levelo_inurba_marseille","lat":43.28114,"lon":5.37823,"is_reserved":false,"is_disabled":false,"rental_uris":{"android":"levelo://app?vid=5593c7f2-36a3-497f-99da-64fa53a52ee8","ios":"levelo://app?vid=5593c7f2-36a3-497f-99da-64fa53a52ee8"},"vehicle_type_id":"4","last_reported":1747480047,"current_range_meters":17600,"station_id":"ce4bha12rcd13ifvqee0","pricing_plan_id":"cebpf4jnsgd1na2vs0mg"},{"bike_id":"63b69a18-fede-4e10-ab4e-8dc63e90647b","system_id":"levelo_inurba_marseille","lat":43.28419,"lon":5.34977,"is_reserved":false,"is_disabled":false,"rental_uris":{"android":"levelo://app?vid=63b69a18-fede-4e10-ab4e-8dc63e90647b","ios":"levelo://app?vid=63b69a18-fede-4e10-ab4e-8dc63e90647b"},"vehicle_type_id":"4","last_reported":1747480047,"current_range_meters":17600,"station_id":"ce4bhbh2rcd13ifvqepg","pricing_plan_id":"cebpf4jnsgd1na2vs0mg"},{"bike_id":"fa72ebff-8ef2-499a-942a-6ea564e3fe92","system_id":"levelo_inurba_marseille","lat":43.24996,"lon":5.38933,"is_reserved":false,"is_disabled":false,"rental_uris":{"android":"levelo://app?vid=fa72ebff-8ef2-499a-942a-6ea564e3fe92","ios":"levelo://app?vid=fa72ebff-8ef2-499a-942a-6ea564e3fe92"},"vehicle_type_id":"4","last_reported":1747480047,"current_range_meters":17600,"station_id":"ce4bhgp2rcd13ifvqfd0","pricing_plan_id":"cebpf4jnsgd1na2vs0mg"},{"bike_id":"327f05f9-ac4b-426e-91c0-536a012a2510","system_id":"levelo_inurba_marseille","lat":43.25112,"lon":5.40319,"is_reserved":false,"is_disabled":false,"rental_uris":{"android":"levelo://app?vid=327f05f9-ac4b-426e-91c0-536a012a2510","ios":"levelo://app?vid=327f05f9-ac4b-426e-91c0-536a012a2510"},"vehicle_type_id":"4","last_reported":1747480047,"current_range_meters":17600,"station_id":"ce4bhlh2rcd13ifvqgig","pricing_plan_id":"cebpf4jnsgd1na2vs0mg"},{"bike_id":"699d068d-8fbb-40ec-9df0-b007af55d5b2","system_id":"levelo_inurba_marseille","lat":43.32332,"lon":5.40623,"is_reserved":false,"is_disabled":false,"rental_uris":{"android":"levelo://app?vid=699d068d-8fbb-40ec-9df0-b007af55d5b2","ios":"levelo://app?vid=699d068d-8fbb-40ec-9df0-b007af55d5b2"},"vehicle_type_id":"4","last_reported":1747480047,"current_range_meters":17600,"station_id":"ce4bhq92rcd13ifvqhjg","pricing_plan_id":"cebpf4jnsgd1na2vs0mg"},{"bike_id":"43fd7c64-8350-4652-8f55-daf73ffaf2c8","system_id":"levelo_inurba_marseille","lat":43.23057,"lon":5.35488,"is_reserved":false,"is_disabled":false,"rental_uris":{"android":"levelo://app?vid=43fd7c64-8350-4652-8f55-daf73ffaf2c8","ios":"levelo://app?vid=43fd7c64-8350-4652-8f55-daf73ffaf2c8"},"vehicle_type_id":"4","last_reported":1747480047,"current_range_meters":17600,"station_id":"cpo3342slgdg3j2ifvpg","pricing_plan_id":"cebpf4jnsgd1na2vs0mg"},{"bike_id":"543991b1-6fb3-4c54-8f7b-0840e21a6ce2","system_id":"levelo_inurba_marseille","lat":43.29935,"lon":5.36543,"is_reserved":false,"is_disabled":false,"rental_uris":{"android":"levelo://app?vid=543991b1-6fb3-4c54-8f7b-0840e21a6ce2","ios":"levelo://app?vid=543991b1-6fb3-4c54-8f7b-0840e21a6ce2"},"vehicle_type_id":"4","last_reported":1747480047,"current_range_meters":18000,"station_id":"ce4bgm92rcd13ifvqbr0","pricing_plan_id":"cebpf4jnsgd1na2vs0mg"},{"bike_id":"340ddf16-0f1a-439f-8817-f5f0c9316ae5","system_id":"levelo_inurba_marseille","lat":43.29582,"lon":5.36743,"is_reserved":false,"is_disabled":false,"rental_uris":{"android":"levelo://app?vid=340ddf16-0f1a-439f-8817-f5f0c9316ae5","ios":"levelo://app?vid=340ddf16-0f1a-439f-8817-f5f0c9316ae5"},"vehicle_type_id":"4","last_reported":1747480047,"current_range_meters":18000,"station_id":"ce4bgph2rcd13ifvqc2g","pricing_plan_id":"cebpf4jnsgd1na2vs0mg"},{"bike_id":"bbb159e0-a89e-4935-9f86-b666c37217e8","system_id":"levelo_inurba_marseille","lat":43.28429,"lon":5.34976,"is_reserved":false,"is_disabled":false,"rental_uris":{"android":"levelo://app?vid=bbb159e0-a89e-4935-9f86-b666c37217e8","ios":"levelo://app?vid=bbb159e0-a89e-4935-9f86-b666c37217e8"},"vehicle_type_id":"4","last_reported":1747480047,"current_range_meters":18000,"station_id":"ce4bhbh2rcd13ifvqepg","pricing_plan_id":"cebpf4jnsgd1na2vs0mg"},{"bike_id":"0c0db44c-c12b-4b2c-a876-ba3fd365d935","system_id":"levelo_inurba_marseille","lat":43.26196,"lon":5.37932,"is_reserved":false,"is_disabled":false,"rental_uris":{"android":"levelo://app?vid=0c0db44c-c12b-4b2c-a876-ba3fd365d935","ios":"levelo://app?vid=0c0db44c-c12b-4b2c-a876-ba3fd365d935"},"vehicle_type_id":"4","last_reported":1747480047,"current_range_meters":18000,"station_id":"ce4bhjp2rcd13ifvqg90","pricing_plan_id":"cebpf4jnsgd1na2vs0mg"},{"bike_id":"99446cf8-4365-4f96-b4fc-65a2b88207d1","system_id":"levelo_inurba_marseille","lat":43.23197,"lon":5.35549,"is_reserved":false,"is_disabled":false,"rental_uris":{"android":"levelo://app?vid=99446cf8-4365-4f96-b4fc-65a2b88207d1","ios":"levelo://app?vid=99446cf8-4365-4f96-b4fc-65a2b88207d1"},"vehicle_type_id":"4","last_reported":1747480047,"current_range_meters":18000,"station_id":"ce4bhu92rcd13ifvqi70","pricing_plan_id":"cebpf4jnsgd1na2vs0mg"},{"bike_id":"c2014c47-39f4-44ef-a881-d785884e0a31","system_id":"levelo_inurba_marseille","lat":43.2827,"lon":5.35056,"is_reserved":false,"is_disabled":false,"rental_uris":{"android":"levelo://app?vid=c2014c47-39f4-44ef-a881-d785884e0a31","ios":"levelo://app?vid=c2014c47-39f4-44ef-a881-d785884e0a31"},"vehicle_type_id":"4","last_reported":1747480047,"current_range_meters":18800,"station_id":"ce4bhbp2rcd13ifvqerg","pricing_plan_id":"cebpf4jnsgd1na2vs0mg"},{"bike_id":"22249aa8-0b9a-4b19-9307-e50d75cc0032","system_id":"levelo_inurba_marseille","lat":43.26561,"lon":5.37284,"is_reserved":false,"is_disabled":false,"rental_uris":{"android":"levelo://app?vid=22249aa8-0b9a-4b19-9307-e50d75cc0032","ios":"levelo://app?vid=22249aa8-0b9a-4b19-9307-e50d75cc0032"},"vehicle_type_id":"4","last_reported":1747480047,"current_range_meters":18800,"station_id":"ce4bhg12rcd13ifvqf70","pricing_plan_id":"cebpf4jnsgd1na2vs0mg"},{"bike_id":"3e1151c9-a326-4aed-97f4-f96508e566c8","system_id":"levelo_inurba_marseille","lat":43.32486,"lon":5.36566,"is_reserved":false,"is_disabled":false,"rental_uris":{"android":"levelo://app?vid=3e1151c9-a326-4aed-97f4-f96508e566c8","ios":"levelo://app?vid=3e1151c9-a326-4aed-97f4-f96508e566c8"},"vehicle_type_id":"4","last_reported":1747480047,"current_range_meters":18800,"station_id":"ce4bhs12rcd13ifvqhvg","pricing_plan_id":"cebpf4jnsgd1na2vs0mg"},{"bike_id":"ebefafa4-e016-4a1e-933a-e10874df5a61","system_id":"levelo_inurba_marseille","lat":43.292241,"lon":5.360582,"is_reserved":false,"is_disabled":false,"rental_uris":{"android":"levelo://app?vid=ebefafa4-e016-4a1e-933a-e10874df5a61","ios":"levelo://app?vid=ebefafa4-e016-4a1e-933a-e10874df5a61"},"vehicle_type_id":"4","last_reported":1747480047,"current_range_meters":19200,"station_id":"","pricing_plan_id":"cebpf4jnsgd1na2vs0mg"},{"bike_id":"3888d102-95cd-42c2-8793-58ad58022802","system_id":"levelo_inurba_marseille","lat":43.30459,"lon":5.37902,"is_reserved":false,"is_disabled":false,"rental_uris":{"android":"levelo://app?vid=3888d102-95cd-42c2-8793-58ad58022802","ios":"levelo://app?vid=3888d102-95cd-42c2-8793-58ad58022802"},"vehicle_type_id":"4","last_reported":1747480047,"current_range_meters":19200,"station_id":"ce4bgup2rcd13ifvqcn0","pricing_plan_id":"cebpf4jnsgd1na2vs0mg"},{"bike_id":"230a1308-37aa-4a16-a525-b3d057b083fb","system_id":"levelo_inurba_marseille","lat":43.29234,"lon":5.36045,"is_reserved":false,"is_disabled":false,"rental_uris":{"android":"levelo://app?vid=230a1308-37aa-4a16-a525-b3d057b083fb","ios":"levelo://app?vid=230a1308-37aa-4a16-a525-b3d057b083fb"},"vehicle_type_id":"4","last_reported":1747480047,"current_range_meters":19200,"station_id":"ce4bhbh2rcd13ifvqeqg","pricing_plan_id":"cebpf4jnsgd1na2vs0mg"},{"bike_id":"2c6f6a5c-07e7-4f56-9d77-50f5b1553b85","system_id":"levelo_inurba_marseille","lat":43.26027,"lon":5.37547,"is_reserved":false,"is_disabled":false,"rental_uris":{"android":"levelo://app?vid=2c6f6a5c-07e7-4f56-9d77-50f5b1553b85","ios":"levelo://app?vid=2c6f6a5c-07e7-4f56-9d77-50f5b1553b85"},"vehicle_type_id":"4","last_reported":1747480047,"current_range_meters":19200,"station_id":"ce4bhgh2rcd13ifvqfa0","pricing_plan_id":"cebpf4jnsgd1na2vs0mg"},{"bike_id":"ceca678e-e7b4-423c-a516-4484c4130329","system_id":"levelo_inurba_marseille","lat":43.23967,"lon":5.36626,"is_reserved":false,"is_disabled":false,"rental_uris":{"android":"levelo://app?vid=ceca678e-e7b4-423c-a516-4484c4130329","ios":"levelo://app?vid=ceca678e-e7b4-423c-a516-4484c4130329"},"vehicle_type_id":"4","last_reported":1747480047,"current_range_meters":19200,"station_id":"ce4bhi12rcd13ifvqfp0","pricing_plan_id":"cebpf4jnsgd1na2vs0mg"},{"bike_id":"097dea49-2c5f-4b24-a7cf-71c2d7f76419","system_id":"levelo_inurba_marseille","lat":43.23141,"lon":5.43721,"is_reserved":false,"is_disabled":false,"rental_uris":{"android":"levelo://app?vid=097dea49-2c5f-4b24-a7cf-71c2d7f76419","ios":"levelo://app?vid=097dea49-2c5f-4b24-a7cf-71c2d7f76419"},"vehicle_type_id":"4","last_reported":1747480047,"current_range_meters":19200,"station_id":"ce4bhmp2rcd13ifvqgog","pricing_plan_id":"cebpf4jnsgd1na2vs0mg"},{"bike_id":"f95f6b13-fb6b-4918-aa29-c70dce4e737e","system_id":"levelo_inurba_marseille","lat":43.32339,"lon":5.40605,"is_reserved":false,"is_disabled":false,"rental_uris":{"android":"levelo://app?vid=f95f6b13-fb6b-4918-aa29-c70dce4e737e","ios":"levelo://app?vid=f95f6b13-fb6b-4918-aa29-c70dce4e737e"},"vehicle_type_id":"4","last_reported":1747480047,"current_range_meters":19200,"station_id":"ce4bhq92rcd13ifvqhjg","pricing_plan_id":"cebpf4jnsgd1na2vs0mg"},{"bike_id":"7bd74f3c-17f9-4918-94d7-4a47cf9eb9d8","system_id":"levelo_inurba_marseille","lat":43.30133,"lon":5.38057,"is_reserved":false,"is_disabled":false,"rental_uris":{"android":"levelo://app?vid=7bd74f3c-17f9-4918-94d7-4a47cf9eb9d8","ios":"levelo://app?vid=7bd74f3c-17f9-4918-94d7-4a47cf9eb9d8"},"vehicle_type_id":"4","last_reported":1747480047,"current_range_meters":19600,"station_id":"ce4bgjp2rcd13ifvqbh0","pricing_plan_id":"cebpf4jnsgd1na2vs0mg"},{"bike_id":"6deafa50-890f-463e-a628-8368a315b5ef","system_id":"levelo_inurba_marseille","lat":43.265527,"lon":5.37288,"is_reserved":false,"is_disabled":false,"rental_uris":{"android":"levelo://app?vid=6deafa50-890f-463e-a628-8368a315b5ef","ios":"levelo://app?vid=6deafa50-890f-463e-a628-8368a315b5ef"},"vehicle_type_id":"4","last_reported":1747480047,"current_range_meters":19600,"station_id":"ce4bhg12rcd13ifvqf70","pricing_plan_id":"cebpf4jnsgd1na2vs0mg"},{"bike_id":"ea2d3dd8-83ee-4dd0-b709-3f2a8dd2f74d","system_id":"levelo_inurba_marseille","lat":43.21741,"lon":5.34618,"is_reserved":false,"is_disabled":false,"rental_uris":{"android":"levelo://app?vid=ea2d3dd8-83ee-4dd0-b709-3f2a8dd2f74d","ios":"levelo://app?vid=ea2d3dd8-83ee-4dd0-b709-3f2a8dd2f74d"},"vehicle_type_id":"4","last_reported":1747480047,"current_range_meters":19600,"station_id":"st_cvj6r9ubvosntc0bgbag","pricing_plan_id":"cebpf4jnsgd1na2vs0mg"},{"bike_id":"858a25a4-7275-417b-9853-3c56842d74b0","system_id":"levelo_inurba_marseille","lat":43.21194,"lon":5.35072,"is_reserved":false,"is_disabled":false,"rental_uris":{"android":"levelo://app?vid=858a25a4-7275-417b-9853-3c56842d74b0","ios":"levelo://app?vid=858a25a4-7275-417b-9853-3c56842d74b0"},"vehicle_type_id":"4","last_reported":1747480047,"current_range_meters":19600,"station_id":"st_cvj6sg6p6f1abm77japg","pricing_plan_id":"cebpf4jnsgd1na2vs0mg"},{"bike_id":"19456222-7d38-48cf-a950-06daadd07927","system_id":"levelo_inurba_marseille","lat":43.25015,"lon":5.37527,"is_reserved":false,"is_disabled":false,"rental_uris":{"android":"levelo://app?vid=19456222-7d38-48cf-a950-06daadd07927","ios":"levelo://app?vid=19456222-7d38-48cf-a950-06daadd07927"},"vehicle_type_id":"4","last_reported":1747480047,"current_range_meters":20000,"station_id":"","pricing_plan_id":"cebpf4jnsgd1na2vs0mg"},{"bike_id":"df64b04c-e94e-469e-8127-c7afcefb842b","system_id":"levelo_inurba_marseille","lat":43.30526,"lon":5.36529,"is_reserved":false,"is_disabled":false,"rental_uris":{"android":"levelo://app?vid=df64b04c-e94e-469e-8127-c7afcefb842b","ios":"levelo://app?vid=df64b04c-e94e-469e-8127-c7afcefb842b"},"vehicle_type_id":"4","last_reported":1747480047,"current_range_meters":20000,"station_id":"ce4bgs12rcd13ifvqcag","pricing_plan_id":"cebpf4jnsgd1na2vs0mg"},{"bike_id":"27f4493d-5f7a-4a30-8c05-a03a6186b876","system_id":"levelo_inurba_marseille","lat":43.28418,"lon":5.34997,"is_reserved":false,"is_disabled":false,"rental_uris":{"android":"levelo://app?vid=27f4493d-5f7a-4a30-8c05-a03a6186b876","ios":"levelo://app?vid=27f4493d-5f7a-4a30-8c05-a03a6186b876"},"vehicle_type_id":"4","last_reported":1747480047,"current_range_meters":20000,"station_id":"ce4bhbh2rcd13ifvqepg","pricing_plan_id":"cebpf4jnsgd1na2vs0mg"},{"bike_id":"b01b9535-a6fa-4b4a-a463-5fc65c12bee1","system_id":"levelo_inurba_marseille","lat":43.25089,"lon":5.39518,"is_reserved":false,"is_disabled":false,"rental_uris":{"android":"levelo://app?vid=b01b9535-a6fa-4b4a-a463-5fc65c12bee1","ios":"levelo://app?vid=b01b9535-a6fa-4b4a-a463-5fc65c12bee1"},"vehicle_type_id":"4","last_reported":1747480047,"current_range_meters":20000,"station_id":"ce4bhm12rcd13ifvqgkg","pricing_plan_id":"cebpf4jnsgd1na2vs0mg"},{"bike_id":"0bbae27d-252b-4ebb-871e-0cea87aa3c08","system_id":"levelo_inurba_marseille","lat":43.308,"lon":5.43522,"is_reserved":false,"is_disabled":false,"rental_uris":{"android":"levelo://app?vid=0bbae27d-252b-4ebb-871e-0cea87aa3c08","ios":"levelo://app?vid=0bbae27d-252b-4ebb-871e-0cea87aa3c08"},"vehicle_type_id":"4","last_reported":1747480047,"current_range_meters":20000,"station_id":"ce4bhph2rcd13ifvqheg","pricing_plan_id":"cebpf4jnsgd1na2vs0mg"},{"bike_id":"a79754ca-40d1-4370-bc0f-d34509aa8827","system_id":"levelo_inurba_marseille","lat":43.31681,"lon":5.37534,"is_reserved":false,"is_disabled":false,"rental_uris":{"android":"levelo://app?vid=a79754ca-40d1-4370-bc0f-d34509aa8827","ios":"levelo://app?vid=a79754ca-40d1-4370-bc0f-d34509aa8827"},"vehicle_type_id":"4","last_reported":1747480047,"current_range_meters":20400,"station_id":"","pricing_plan_id":"cebpf4jnsgd1na2vs0mg"},{"bike_id":"86603db7-b462-4e72-8622-a2dee8bb2920","system_id":"levelo_inurba_marseille","lat":43.337444,"lon":5.374475,"is_reserved":false,"is_disabled":false,"rental_uris":{"android":"levelo://app?vid=86603db7-b462-4e72-8622-a2dee8bb2920","ios":"levelo://app?vid=86603db7-b462-4e72-8622-a2dee8bb2920"},"vehicle_type_id":"4","last_reported":1747480047,"current_range_meters":20400,"station_id":"","pricing_plan_id":"cebpf4jnsgd1na2vs0mg"},{"bike_id":"49655757-2a26-4f38-a534-cfd4df3be3f5","system_id":"levelo_inurba_marseille","lat":43.29579,"lon":5.36734,"is_reserved":false,"is_disabled":false,"rental_uris":{"android":"levelo://app?vid=49655757-2a26-4f38-a534-cfd4df3be3f5","ios":"levelo://app?vid=49655757-2a26-4f38-a534-cfd4df3be3f5"},"vehicle_type_id":"4","last_reported":1747480047,"current_range_meters":20400,"station_id":"ce4bgph2rcd13ifvqc2g","pricing_plan_id":"cebpf4jnsgd1na2vs0mg"},{"bike_id":"ba993462-daf7-466c-b903-e8f7650d336e","system_id":"levelo_inurba_marseille","lat":43.30185,"lon":5.36611,"is_reserved":false,"is_disabled":false,"rental_uris":{"android":"levelo://app?vid=ba993462-daf7-466c-b903-e8f7650d336e","ios":"levelo://app?vid=ba993462-daf7-466c-b903-e8f7650d336e"},"vehicle_type_id":"4","last_reported":1747480047,"current_range_meters":20400,"station_id":"ce4bgrh2rcd13ifvqc8g","pricing_plan_id":"cebpf4jnsgd1na2vs0mg"},{"bike_id":"00bda343-eba3-4bc6-b317-be78c8ca01b0","system_id":"levelo_inurba_marseille","lat":43.29228,"lon":5.36061,"is_reserved":false,"is_disabled":false,"rental_uris":{"android":"levelo://app?vid=00bda343-eba3-4bc6-b317-be78c8ca01b0","ios":"levelo://app?vid=00bda343-eba3-4bc6-b317-be78c8ca01b0"},"vehicle_type_id":"4","last_reported":1747480047,"current_range_meters":20400,"station_id":"ce4bhbh2rcd13ifvqeqg","pricing_plan_id":"cebpf4jnsgd1na2vs0mg"},{"bike_id":"2afaca15-0485-427d-8585-df19badd207b","system_id":"levelo_inurba_marseille","lat":43.22471,"lon":5.3476,"is_reserved":false,"is_disabled":false,"rental_uris":{"android":"levelo://app?vid=2afaca15-0485-427d-8585-df19badd207b","ios":"levelo://app?vid=2afaca15-0485-427d-8585-df19badd207b"},"vehicle_type_id":"4","last_reported":1747480047,"current_range_meters":20400,"station_id":"st_cvj5dfep6f1abm77gieg","pricing_plan_id":"cebpf4jnsgd1na2vs0mg"},{"bike_id":"8663c425-1f6b-4bf5-80b9-577de7a4898f","system_id":"levelo_inurba_marseille","lat":43.211931,"lon":5.350748,"is_reserved":false,"is_disabled":false,"rental_uris":{"android":"levelo://app?vid=8663c425-1f6b-4bf5-80b9-577de7a4898f","ios":"levelo://app?vid=8663c425-1f6b-4bf5-80b9-577de7a4898f"},"vehicle_type_id":"4","last_reported":1747480047,"current_range_meters":20400,"station_id":"st_cvj6sg6p6f1abm77japg","pricing_plan_id":"cebpf4jnsgd1na2vs0mg"},{"bike_id":"59391a97-75db-49d2-a1a5-d9f9cdc67b6b","system_id":"levelo_inurba_marseille","lat":43.2963,"lon":5.40589,"is_reserved":false,"is_disabled":false,"rental_uris":{"android":"levelo://app?vid=59391a97-75db-49d2-a1a5-d9f9cdc67b6b","ios":"levelo://app?vid=59391a97-75db-49d2-a1a5-d9f9cdc67b6b"},"vehicle_type_id":"4","last_reported":1747480047,"current_range_meters":20800,"station_id":"ce4bh0h2rcd13ifvqd60","pricing_plan_id":"cebpf4jnsgd1na2vs0mg"},