{"last_updated":1700499939,"ttl":30,"version":"2.2","data":{"bikes":[{"bike_id":"70441496-36e8-44f0-b857-a61c80c7710a","system_id":"levelo_inurba_marseille","lat":43.313391,"lon":5.36706,"is_reserved":false,"is_disabled":false,"rental_uris":{"android":"levelo://app?vid=70441496-36e8-44f0-b857-a61c80c7710a","ios":"levelo://app?vid=70441496-36e8-44f0-b857-a61c80c7710a"},"vehicle_type_id":"4","last_reported":1700499939,"current_range_meters":30400,"station_id":"ce4bgr92rcd13ifvqc6g","pricing_plan_id":"free"},{"bike_id":"8cecbb0a-ff4c-48c9-9ffb-e2d2ba4dcd9a","system_id":"levelo_inurba_marseille","lat":43.312239,"lon":5.368562,"is_reserved":false,"is_disabled":false,"rental_uris":{"android":"levelo://app?vid=8cecbb0a-ff4c-48c9-9ffb-e2d2ba4dcd9a","ios":"levelo://app?vid=8cecbb0a-ff4c-48c9-9ffb-e2d2ba4dcd9a"},"vehicle_type_id":"4","last_reported":1700499939,"current_range_meters":0,"station_id":"ce4bgl92rcd13ifvqbq0","pricing_plan_id":"free"},{"bike_id":"f874da3e-b17e-47f0-a499-90fd16b42a65","system_id":"levelo_inurba_marseille","lat":43.311514,"lon":5.368896,"is_reserved":false,"is_disabled":false,"rental_uris":{"android":"levelo://app?vid=f874da3e-b17e-47f0-a499-90fd16b42a65","ios":"levelo://app?vid=f874da3e-b17e-47f0-a499-90fd16b42a65"},"vehicle_type_id":"4","last_reported":1700499939,"current_range_meters":0,"station_id":"","pricing_plan_id":"free"},{"bike_id":"fc17d1df-19ec-4a9c-acf7-fdc43b73a0bc","system_id":"levelo_inurba_marseille","lat":43.308428,"lon":5.368915,"is_reserved":false,"is_disabled":false,"rental_uris":{"android":"levelo://app?vid=fc17d1df-19ec-4a9c-acf7-fdc43b73a0bc","ios":"levelo://app?vid=fc17d1df-19ec-4a9c-acf7-fdc43b73a0bc"},"vehicle_type_id":"4","last_reported":1700499939,"current_range_meters":21200,"station_id":"","pricing_plan_id":"free"},{"bike_id":"09856196-dec4-4053-87e5-4060a94e317c","system_id":"levelo_inurba_marseille","lat":43.314811,"lon":5.373103,"is_reserved":false,"is_disabled":false,"rental_uris":{"android":"levelo://app?vid=09856196-dec4-4053-87e5-4060a94e317c","ios":"levelo://app?vid=09856196-dec4-4053-87e5-4060a94e317c"},"vehicle_type_id":"4","last_reported":1700499939,"current_range_meters":10400,"station_id":"ce4bgt12rcd13ifvqcd0","pricing_plan_id":"free"},{"bike_id":"e0c64d67-6d54-448a-907f-17a2f6b39293","system_id":"levelo_inurba_marseille","lat":43.314811,"lon":5.373104,"is_reserved":false,"is_disabled":false,"rental_uris":{"android":"levelo://app?vid=e0c64d67-6d54-448a-907f-17a2f6b39293","ios":"levelo://app?vid=e0c64d67-6d54-448a-907f-17a2f6b39293"},"vehicle_type_id":"4","last_reported":1700499939,"current_range_meters":13200,"station_id":"ce4bgt12rcd13ifvqcd0","pricing_plan_id":"free"},{"bike_id":"61a8a4c5-a2f8-4b60-8914-c3d4c4b6a935","system_id":"levelo_inurba_marseille","lat":43.315001,"lon":5.373058,"is_reserved":false,"is_disabled":false,"rental_uris":{"android":"levelo://app?vid=61a8a4c5-a2f8-4b60-8914-c3d4c4b6a935","ios":"levelo://app?vid=61a8a4c5-a2f8-4b60-8914-c3d4c4b6a935"},"vehicle_type_id":"4","last_reported":1700499939,"current_range_meters":0,"station_id":"ce4bgt12rcd13ifvqcd0","pricing_plan_id":"free"},{"bike_id":"f398eddb-44a4-484b-acf1-6f8766e94a46","system_id":"levelo_inurba_marseille","lat":43.315758,"lon":5.372616,"is_reserved":false,"is_disabled":false,"rental_uris":{"android":"levelo://app?vid=f398eddb-44a4-484b-acf1-6f8766e94a46","ios":"levelo://app?vid=f398eddb-44a4-484b-acf1-6f8766e94a46"},"vehicle_type_id":"4","last_reported":1700499939,"current_range_meters":16000,"station_id":"","pricing_plan_id":"free"},{"bike_id":"ecacab90-a2b7-4bc0-9ae0-42be90813023","system_id":"levelo_inurba_marseille","lat":43.30886,"lon":5.37201,"is_reserved":false,"is_disabled":false,"rental_uris":{"android":"levelo://app?vid=ecacab90-a2b7-4bc0-9ae0-42be90813023","ios":"levelo://app?vid=ecacab90-a2b7-4bc0-9ae0-42be90813023"},"vehicle_type_id":"4","last_reported":1700499939,"current_range_meters":29600,"station_id":"ce4bguh2rcd13ifvqckg","pricing_plan_id":"free"},{"bike_id":"3475d204-43b6-43d9-b615-ca1d0d58200e","system_id":"levelo_inurba_marseille","lat":43.30679,"lon":5.3679,"is_reserved":false,"is_disabled":false,"rental_uris":{"android":"levelo://app?vid=3475d204-43b6-43d9-b615-ca1d0d58200e","ios":"levelo://app?vid=3475d204-43b6-43d9-b615-ca1d0d58200e"},"vehicle_type_id":"4","last_reported":1700499939,"current_range_meters":6400,"station_id":"","pricing_plan_id":"free"},{"bike_id":"6411c180-1016-47f7-9fc0-984763c2f07c","system_id":"levelo_inurba_marseille","lat":43.305712,"lon":5.365641,"is_reserved":false,"is_disabled":false,"rental_uris":{"android":"levelo://app?vid=6411c180-1016-47f7-9fc0-984763c2f07c","ios":"levelo://app?vid=6411c180-1016-47f7-9fc0-984763c2f07c"},"vehicle_type_id":"4","last_reported":1700499939,"current_range_meters":30800,"station_id":"ce4bgs12rcd13ifvqcag","pricing_plan_id":"free"},{"bike_id":"7997d60a-c102-4412-8400-7cd9f2fbe165","system_id":"levelo_inurba_marseille","lat":43.305714,"lon":5.365633,"is_reserved":false,"is_disabled":false,"rental_uris":{"android":"levelo://app?vid=7997d60a-c102-4412-8400-7cd9f2fbe165","ios":"levelo://app?vid=7997d60a-c102-4412-8400-7cd9f2fbe165"},"vehicle_type_id":"4","last_reported":1700499939,"current_range_meters":15200,"station_id":"ce4bgs12rcd13ifvqcag","pricing_plan_id":"free"},{"bike_id":"8cb531af-c102-49b6-995d-5fe8530c5725","system_id":"levelo_inurba_marseille","lat":43.30786,"lon":5.37643,"is_reserved":false,"is_disabled":false,"rental_uris":{"android":"levelo://app?vid=8cb531af-c102-49b6-995d-5fe8530c5725","ios":"levelo://app?vid=8cb531af-c102-49b6-995d-5fe8530c5725"},"vehicle_type_id":"4","last_reported":1700499939,"current_range_meters":1600,"station_id":"","pricing_plan_id":"free"},{"bike_id":"baf36c7b-4ac0-4c7e-8f23-7946e859383e","system_id":"levelo_inurba_marseille","lat":43.316965,"lon":5.377345,"is_reserved":false,"is_disabled":false,"rental_uris":{"android":"levelo://app?vid=baf36c7b-4ac0-4c7e-8f23-7946e859383e","ios":"levelo://app?vid=baf36c7b-4ac0-4c7e-8f23-7946e859383e"},"vehicle_type_id":"4","last_reported":1700499939,"current_range_meters":21200,"station_id":"ce4bgth2rcd13ifvqch0","pricing_plan_id":"free"},{"bike_id":"3cb8c185-c31b-4eef-a7c6-7f786fc47019","system_id":"levelo_inurba_marseille","lat":43.30994,"lon":5.38165,"is_reserved":false,"is_disabled":false,"rental_uris":{"android":"levelo://app?vid=3cb8c185-c31b-4eef-a7c6-7f786fc47019","ios":"levelo://app?vid=3cb8c185-c31b-4eef-a7c6-7f786fc47019"},"vehicle_type_id":"4","last_reported":1700499939,"current_range_meters":13200,"station_id":"","pricing_plan_id":"free"},{"bike_id":"d2033b60-de01-446b-ab0a-ac9715d73a8b","system_id":"levelo_inurba_marseille","lat":43.299724,"lon":5.371829,"is_reserved":false,"is_disabled":false,"rental_uris":{"android":"levelo://app?vid=d2033b60-de01-446b-ab0a-ac9715d73a8b","ios":"levelo://app?vid=d2033b60-de01-446b-ab0a-ac9715d73a8b"},"vehicle_type_id":"4","last_reported":1700499939,"current_range_meters":0,"station_id":"ce4bgr92rcd13ifvqc7g","pricing_plan_id":"free"},{"bike_id":"3b4aa570-4213-4290-952a-d551fd583992","system_id":"levelo_inurba_marseille","lat":43.29927,"lon":5.36555,"is_reserved":false,"is_disabled":false,"rental_uris":{"android":"levelo://app?vid=3b4aa570-4213-4290-952a-d551fd583992","ios":"levelo://app?vid=3b4aa570-4213-4290-952a-d551fd583992"},"vehicle_type_id":"4","last_reported":1700499939,"current_range_meters":22000,"station_id":"ce4bgm92rcd13ifvqbr0","pricing_plan_id":"free"},{"bike_id":"a08a2f3c-2b2d-4d95-9880-a99d4c1978cb","system_id":"levelo_inurba_marseille","lat":43.298433,"lon":5.362774,"is_reserved":false,"is_disabled":false,"rental_uris":{"android":"levelo://app?vid=a08a2f3c-2b2d-4d95-9880-a99d4c1978cb","ios":"levelo://app?vid=a08a2f3c-2b2d-4d95-9880-a99d4c1978cb"},"vehicle_type_id":"4","last_reported":1700499939,"current_range_meters":9600,"station_id":"ce4bgpp2rcd13ifvqc3g","pricing_plan_id":"free"},{"bike_id":"d4dffeb7-454c-4048-ac37-4ea8817638d0","system_id":"levelo_inurba_marseille","lat":43.299243,"lon":5.374807,"is_reserved":false,"is_disabled":false,"rental_uris":{"android":"levelo://app?vid=d4dffeb7-454c-4048-ac37-4ea8817638d0","ios":"levelo://app?vid=d4dffeb7-454c-4048-ac37-4ea8817638d0"},"vehicle_type_id":"4","last_reported":1700499939,"current_range_meters":26000,"station_id":"ce4bgjh2rcd13ifvqbg0","pricing_plan_id":"free"},{"bike_id":"54cf3acb-1fdb-4171-b271-11d3319bd791","system_id":"levelo_inurba_marseille","lat":43.299243,"lon":5.37481,"is_reserved":false,"is_disabled":false,"rental_uris":{"android":"levelo://app?vid=54cf3acb-1fdb-4171-b271-11d3319bd791","ios":"levelo://app?vid=54cf3acb-1fdb-4171-b271-11d3319bd791"},"vehicle_type_id":"4","last_reported":1700499939,"current_range_meters":0,"station_id":"ce4bgjh2rcd13ifvqbg0","pricing_plan_id":"free"},{"bike_id":"f08b0271-ae73-492f-9a89-b8d51dfdbf59","system_id":"levelo_inurba_marseille","lat":43.29811,"lon":5.37099,"is_reserved":false,"is_disabled":false,"rental_uris":{"android":"levelo://app?vid=f08b0271-ae73-492f-9a89-b8d51dfdbf59","ios":"levelo://app?vid=f08b0271-ae73-492f-9a89-b8d51dfdbf59"},"vehicle_type_id":"4","last_reported":1700499939,"current_range_meters":19600,"station_id":"ce4bgop2rcd13ifvqc1g","pricing_plan_id":"free"},{"bike_id":"0c365a06-4b68-44a0-a252-ba02af03b2a2","system_id":"levelo_inurba_marseille","lat":43.297163,"lon":5.365866,"is_reserved":false,"is_disabled":false,"rental_uris":{"android":"levelo://app?vid=0c365a06-4b68-44a0-a252-ba02af03b2a2","ios":"levelo://app?vid=0c365a06-4b68-44a0-a252-ba02af03b2a2"},"vehicle_type_id":"4","last_reported":1700499939,"current_range_meters":15600,"station_id":"ce4bgn12rcd13ifvqbt0","pricing_plan_id":"free"},{"bike_id":"a513a15f-ac59-4240-a60c-5d6989caec40","system_id":"levelo_inurba_marseille","lat":43.297163,"lon":5.365866,"is_reserved":false,"is_disabled":false,"rental_uris":{"android":"levelo://app?vid=a513a15f-ac59-4240-a60c-5d6989caec40","ios":"levelo://app?vid=a513a15f-ac59-4240-a60c-5d6989caec40"},"vehicle_type_id":"4","last_reported":1700499939,"current_range_meters":4400,"station_id":"ce4bgn12rcd13ifvqbt0","pricing_plan_id":"free"},{"bike_id":"2cdcb299-a033-43c7-b0a4-31b0108c08d1","system_id":"levelo_inurba_marseille","lat":43.297163,"lon":5.365866,"is_reserved":false,"is_disabled":false,"rental_uris":{"android":"levelo://app?vid=2cdcb299-a033-43c7-b0a4-31b0108c08d1","ios":"levelo://app?vid=2cdcb299-a033-43c7-b0a4-31b0108c08d1"},"vehicle_type_id":"4","last_reported":1700499939,"current_range_meters":12000,"station_id":"ce4bgn12rcd13ifvqbt0","pricing_plan_id":"free"},{"bike_id":"1ca21422-2dce-4d9f-a3ff-9c3a7aa56119","system_id":"levelo_inurba_marseille","lat":43.296131,"lon":5.370773,"is_reserved":false,"is_disabled":false,"rental_uris":{"android":"levelo://app?vid=1ca21422-2dce-4d9f-a3ff-9c3a7aa56119","ios":"levelo://app?vid=1ca21422-2dce-4d9f-a3ff-9c3a7aa56119"},"vehicle_type_id":"4","last_reported":1700499939,"current_range_meters":20000,"station_id":"ce4bgnh2rcd13ifvqc0g","pricing_plan_id":"free"},{"bike_id":"fee62c3c-84c7-490a-945d-8809b746ebc6","system_id":"levelo_inurba_marseille","lat":43.29573,"lon":5.367355,"is_reserved":false,"is_disabled":false,"rental_uris":{"android":"levelo://app?vid=fee62c3c-84c7-490a-945d-8809b746ebc6","ios":"levelo://app?vid=fee62c3c-84c7-490a-945d-8809b746ebc6"},"vehicle_type_id":"4","last_reported":1700499939,"current_range_meters":31200,"station_id":"ce4bgph2rcd13ifvqc2g","pricing_plan_id":"free"},{"bike_id":"50c9c2bb-c7f5-4c7c-b7f9-79d291df4c17","system_id":"levelo_inurba_marseille","lat":43.29573,"lon":5.367355,"is_reserved":false,"is_disabled":false,"rental_uris":{"android":"levelo://app?vid=50c9c2bb-c7f5-4c7c-b7f9-79d291df4c17","ios":"levelo://app?vid=50c9c2bb-c7f5-4c7c-b7f9-79d291df4c17"},"vehicle_type_id":"4","last_reported":1700499939,"current_range_meters":0,"station_id":"ce4bgph2rcd13ifvqc2g","pricing_plan_id":"free"},{"bike_id":"f73e4b62-db53-41c8-9427-31b1dc519812","system_id":"levelo_inurba_marseille","lat":43.29724,"lon":5.37687,"is_reserved":false,"is_disabled":false,"rental_uris":{"android":"levelo://app?vid=f73e4b62-db53-41c8-9427-31b1dc519812","ios":"levelo://app?vid=f73e4b62-db53-41c8-9427-31b1dc519812"},"vehicle_type_id":"4","last_reported":1700499939,"current_range_meters":19200,"station_id":"ce4bgkh2rcd13ifvqbl0","pricing_plan_id":"free"},{"bike_id":"f86e30bb-0164-45ce-994a-3aec30bdecf6","system_id":"levelo_inurba_marseille","lat":43.31761,"lon":5.39009,"is_reserved":false,"is_disabled":false,"rental_uris":{"android":"levelo://app?vid=f86e30bb-0164-45ce-994a-3aec30bdecf6","ios":"levelo://app?vid=f86e30bb-0164-45ce-994a-3aec30bdecf6"},"vehicle_type_id":"4","last_reported":1700499939,"current_range_meters":17200,"station_id":"ce4bhqp2rcd13ifvqhng","pricing_plan_id":"free"},{"bike_id":"67ffd28a-0325-489b-a10f-d90500122751","system_id":"levelo_inurba_marseille","lat":43.295748,"lon":5.37522,"is_reserved":false,"is_disabled":false,"rental_uris":{"android":"levelo://app?vid=67ffd28a-0325-489b-a10f-d90500122751","ios":"levelo://app?vid=67ffd28a-0325-489b-a10f-d90500122751"},"vehicle_type_id":"4","last_reported":1700499939,"current_range_meters":31200,"station_id":"ce4bgh92rcd13ifvqb50","pricing_plan_id":"free"},{"bike_id":"550496d1-7e4d-4f10-9e2b-27adb0dd18b2","system_id":"levelo_inurba_marseille","lat":43.304274,"lon":5.388873,"is_reserved":false,"is_disabled":false,"rental_uris":{"android":"levelo://app?vid=550496d1-7e4d-4f10-9e2b-27adb0dd18b2","ios":"levelo://app?vid=550496d1-7e4d-4f10-9e2b-27adb0dd18b2"},"vehicle_type_id":"4","last_reported":1700499939,"current_range_meters":31200,"station_id":"ce4bgk12rcd13ifvqbi0","pricing_plan_id":"free"},{"bike_id":"c545954d-6b49-49f3-a89b-fb0922997a66","system_id":"levelo_inurba_marseille","lat":43.304274,"lon":5.388873,"is_reserved":false,"is_disabled":false,"rental_uris":{"android":"levelo://app?vid=c545954d-6b49-49f3-a89b-fb0922997a66","ios":"levelo://app?vid=c545954d-6b49-49f3-a89b-fb0922997a66"},"vehicle_type_id":"4","last_reported":1700499939,"current_range_meters":16800,"station_id":"ce4bgk12rcd13ifvqbi0","pricing_plan_id":"free"},{"bike_id":"3e3e92fe-39b7-4933-99ff-3747b28b5d69","system_id":"levelo_inurba_marseille","lat":43.328154,"lon":5.380034,"is_reserved":false,"is_disabled":false,"rental_uris":{"android":"levelo://app?vid=3e3e92fe-39b7-4933-99ff-3747b28b5d69","ios":"levelo://app?vid=3e3e92fe-39b7-4933-99ff-3747b28b5d69"},"vehicle_type_id":"4","last_reported":1700499939,"current_range_meters":1600,"station_id":"","pricing_plan_id":"free"},{"bike_id":"845cd2da-4394-4c52-9ce1-9289f7b46c5f","system_id":"levelo_inurba_marseille","lat":43.304274,"lon":5.388873,"is_reserved":false,"is_disabled":false,"rental_uris":{"android":"levelo://app?vid=845cd2da-4394-4c52-9ce1-9289f7b46c5f","ios":"levelo://app?vid=845cd2da-4394-4c52-9ce1-9289f7b46c5f"},"vehicle_type_id":"4","last_reported":1700499939,"current_range_meters":12800,"station_id":"ce4bgk12rcd13ifvqbi0","pricing_plan_id":"free"},{"bike_id":"93e28ed8-abe6-4655-86f8-8d16c3f959fc","system_id":"levelo_inurba_marseille","lat":43.3042,"lon":5.38897,"is_reserved":false,"is_disabled":false,"rental_uris":{"android":"levelo://app?vid=93e28ed8-abe6-4655-86f8-8d16c3f959fc","ios":"levelo://app?vid=93e28ed8-abe6-4655-86f8-8d16c3f959fc"},"vehicle_type_id":"4","last_reported":1700499939,"current_range_meters":20000,"station_id":"ce4bgk12rcd13ifvqbi0","pricing_plan_id":"free"},{"bike_id":"ece1497c-8827-4289-a900-a05766c12bee","system_id":"levelo_inurba_marseille","lat":43.304274,"lon":5.388873,"is_reserved":false,"is_disabled":false,"rental_uris":{"android":"levelo://app?vid=ece1497c-8827-4289-a900-a05766c12bee","ios":"levelo://app?vid=ece1497c-8827-4289-a900-a05766c12bee"},"vehicle_type_id":"4","last_reported":1700499939,"current_range_meters":15600,"station_id":"ce4bgk12rcd13ifvqbi0","pricing_plan_id":"free"},{"bike_id":"04c62577-f6f4-42bf-a2cb-49840fad24d9","system_id":"levelo_inurba_marseille","lat":43.328135,"lon":5.380935,"is_reserved":false,"is_disabled":false,"rental_uris":{"android":"levelo://app?vid=04c62577-f6f4-42bf-a2cb-49840fad24d9","ios":"levelo://app?vid=04c62577-f6f4-42bf-a2cb-49840fad24d9"},"vehicle_type_id":"4","last_reported":1700499939,"current_range_meters":5200,"station_id":"","pricing_plan_id":"free"},{"bike_id":"48872475-dd42-4c40-b0cb-67cd7b7bdc6e","system_id":"levelo_inurba_marseille","lat":43.299717,"lon":5.384845,"is_reserved":false,"is_disabled":false,"rental_uris":{"android":"levelo://app?vid=48872475-dd42-4c40-b0cb-67cd7b7bdc6e","ios":"levelo://app?vid=48872475-dd42-4c40-b0cb-67cd7b7bdc6e"},"vehicle_type_id":"4","last_reported":1700499939,"current_range_meters":0,"station_id":"ce4bgj92rcd13ifvqbd0","pricing_plan_id":"free"},{"bike_id":"0e4194ab-f411-4495-925a-7d40513c7a78","system_id":"levelo_inurba_marseille","lat":43.299717,"lon":5.384845,"is_reserved":false,"is_disabled":false,"rental_uris":{"android":"levelo://app?vid=0e4194ab-f411-4495-925a-7d40513c7a78","ios":"levelo://app?vid=0e4194ab-f411-4495-925a-7d40513c7a78"},"vehicle_type_id":"4","last_reported":1700499939,"current_range_meters":10000,"station_id":"ce4bgj92rcd13ifvqbd0","pricing_plan_id":"free"},{"bike_id":"2cd653d7-388f-4a00-9780-098e814862ee","system_id":"levelo_inurba_marseille","lat":43.299724,"lon":5.384848,"is_reserved":false,"is_disabled":false,"rental_uris":{"android":"levelo://app?vid=2cd653d7-388f-4a00-9780-098e814862ee","ios":"levelo://app?vid=2cd653d7-388f-4a00-9780-098e814862ee"},"vehicle_type_id":"4","last_reported":1700499939,"current_range_meters":23200,"station_id":"ce4bgj92rcd13ifvqbd0","pricing_plan_id":"free"},{"bike_id":"a513826d-1e1f-452a-b09d-691c31a4bcb8","system_id":"levelo_inurba_marseille","lat":43.314811,"lon":5.373103,"is_reserved":false,"is_disabled":false,"rental_uris":{"android":"levelo://app?vid=a513826d-1e1f-452a-b09d-691c31a4bcb8","ios":"levelo://app?vid=a513826d-1e1f-452a-b09d-691c31a4bcb8"},"vehicle_type_id":"4","last_reported":1700499939,"current_range_meters":21200,"station_id":"ce4bgt12rcd13ifvqcd0","pricing_plan_id":"free"},{"bike_id":"a4fc4f1f-b4cb-4447-9650-54a96ed51e29","system_id":"levelo_inurba_marseille","lat":43.323429,"lon":5.388521,"is_reserved":false,"is_disabled":false,"rental_uris":{"android":"levelo://app?vid=a4fc4f1f-b4cb-4447-9650-54a96ed51e29","ios":"levelo://app?vid=a4fc4f1f-b4cb-4447-9650-54a96ed51e29"},"vehicle_type_id":"4","last_reported":1700499939,"current_range_meters":0,"station_id":"","pricing_plan_id":"free"},{"bike_id":"e145a3f7-00ac-4f8f-bfe5-435bc38ccaf7","system_id":"levelo_inurba_marseille","lat":43.293801,"lon":5.363066,"is_reserved":false,"is_disabled":false,"rental_uris":{"android":"levelo://app?vid=e145a3f7-00ac-4f8f-bfe5-435bc38ccaf7","ios":"levelo://app?vid=e145a3f7-00ac-4f8f-bfe5-435bc38ccaf7"},"vehicle_type_id":"4","last_reported":1700499939,"current_range_meters":19200,"station_id":"","pricing_plan_id":"free"},{"bike_id":"41df948b-5062-4496-8a0f-180f9ac5bfb0","system_id":"levelo_inurba_marseille","lat":43.293009,"lon":5.374584,"is_reserved":false,"is_disabled":false,"rental_uris":{"android":"levelo://app?vid=41df948b-5062-4496-8a0f-180f9ac5bfb0","ios":"levelo://app?vid=41df948b-5062-4496-8a0f-180f9ac5bfb0"},"vehicle_type_id":"4","last_reported":1700499939,"current_range_meters":20800,"station_id":"ce4bgi12rcd13ifvqb70","pricing_plan_id":"free"},{"bike_id":"abd280aa-da4f-49ec-9f69-128110fe5de3","system_id":"levelo_inurba_marseille","lat":43.29601,"lon":5.381084,"is_reserved":false,"is_disabled":false,"rental_uris":{"android":"levelo://app?vid=abd280aa-da4f-49ec-9f69-128110fe5de3","ios":"levelo://app?vid=abd280aa-da4f-49ec-9f69-128110fe5de3"},"vehicle_type_id":"4","last_reported":1700499939,"current_range_meters":16400,"station_id":"ce4bgl12rcd13ifvqbo0","pricing_plan_id":"free"},{"bike_id":"07669029-bda5-4020-a778-76b12ea2376d","system_id":"levelo_inurba_marseille","lat":43.29602,"lon":5.381084,"is_reserved":false,"is_disabled":false,"rental_uris":{"android":"levelo://app?vid=07669029-bda5-4020-a778-76b12ea2376d","ios":"levelo://app?vid=07669029-bda5-4020-a778-76b12ea2376d"},"vehicle_type_id":"4","last_reported":1700499939,"current_range_meters":18400,"station_id":"ce4bgl12rcd13ifvqbo0","pricing_plan_id":"free"},{"bike_id":"ff13bbb0-9a32-440d-b104-7b9f8ed2b37b","system_id":"levelo_inurba_marseille","lat":43.305994,"lon":5.393687,"is_reserved":false,"is_disabled":false,"rental_uris":{"android":"levelo://app?vid=ff13bbb0-9a32-440d-b104-7b9f8ed2b37b","ios":"levelo://app?vid=ff13bbb0-9a32-440d-b104-7b9f8ed2b37b"},"vehicle_type_id":"4","last_reported":1700499939,"current_range_meters":2400,"station_id":"ce4bh0p2rcd13ifvqd80","pricing_plan_id":"free"},{"bike_id":"39a24418-3c90-4eeb-a8bc-0b83fe6e54d4","system_id":"levelo_inurba_marseille","lat":43.292311,"lon":5.360731,"is_reserved":false,"is_disabled":false,"rental_uris":{"android":"levelo://app?vid=39a24418-3c90-4eeb-a8bc-0b83fe6e54d4","ios":"levelo://app?vid=39a24418-3c90-4eeb-a8bc-0b83fe6e54d4"},"vehicle_type_id":"4","last_reported":1700499939,"current_range_meters":0,"station_id":"ce4bhbh2rcd13ifvqeqg","pricing_plan_id":"free"},{"bike_id":"5dc23a76-99cd-4e4c-986c-deb8a685486a","system_id":"levelo_inurba_marseille","lat":43.30085,"lon":5.390856,"is_reserved":false,"is_disabled":false,"rental_uris":{"android":"levelo://app?vid=5dc23a76-99cd-4e4c-986c-deb8a685486a","ios":"levelo://app?vid=5dc23a76-99cd-4e4c-986c-deb8a685486a"},"vehicle_type_id":"4","last_reported":1700499939,"current_range_meters":30800,"station_id":"ce4bh192rcd13ifvqdb0","pricing_plan_id":"free"},{"bike_id":"7e4e7053-54c5-4eb9-9d30-fbc8c667b2c5","system_id":"levelo_inurba_marseille","lat":43.30085,"lon":5.390856,"is_reserved":false,"is_disabled":false,"rental_uris":{"android":"levelo://app?vid=7e4e7053-54c5-4eb9-9d30-fbc8c667b2c5","ios":"levelo://app?vid=7e4e7053-54c5-4eb9-9d30-fbc8c667b2c5"},"vehicle_type_id":"4","last_reported":1700499939,"current_range_meters":9200,"station_id":"ce4bh192rcd13ifvqdb0","pricing_plan_id":"free"},{"bike_id":"d1702d67-2dd2-458f-ad35-76414ccc698d","system_id":"levelo_inurba_marseille","lat":43.313291,"lon":5.396838,"is_reserved":false,"is_disabled":false,"rental_uris":{"android":"levelo://app?vid=d1702d67-2dd2-458f-ad35-76414ccc698d","ios":"levelo://app?vid=d1702d67-2dd2-458f-ad35-76414ccc698d"},"vehicle_type_id":"4","last_reported":1700499939,"current_range_meters":7200,"station_id":"ce4bgvp2rcd13ifvqcu0","pricing_plan_id":"free"},{"bike_id":"727dba6e-e490-499c-aca4-a83ffd3a5e0f","system_id":"levelo_inurba_marseille","lat":43.309047,"lon":5.396551,"is_reserved":false,"is_disabled":false,"rental_uris":{"android":"levelo://app?vid=727dba6e-e490-499c-aca4-a83ffd3a5e0f","ios":"levelo://app?vid=727dba6e-e490-499c-aca4-a83ffd3a5e0f"},"vehicle_type_id":"4","last_reported":1700499939,"current_range_meters":4400,"station_id":"ce4bh012rcd13ifvqcv0","pricing_plan_id":"free"},{"bike_id":"8b6f6e93-381b-4ac4-bdb4-9ab7c80de783","system_id":"levelo_inurba_marseille","lat":43.31325,"lon":5.39692,"is_reserved":false,"is_disabled":false,"rental_uris":{"android":"levelo://app?vid=8b6f6e93-381b-4ac4-bdb4-9ab7c80de783","ios":"levelo://app?vid=8b6f6e93-381b-4ac4-bdb4-9ab7c80de783"},"vehicle_type_id":"4","last_reported":1700499939,"current_range_meters":24400,"station_id":"ce4bgvp2rcd13ifvqcu0","pricing_plan_id":"free"},{"bike_id":"57b3a308-ada7-4381-8f83-941c6ce0a062","system_id":"levelo_inurba_marseille","lat":43.31331,"lon":5.39693,"is_reserved":false,"is_disabled":false,"rental_uris":{"android":"levelo://app?vid=57b3a308-ada7-4381-8f83-941c6ce0a062","ios":"levelo://app?vid=57b3a308-ada7-4381-8f83-941c6ce0a062"},"vehicle_type_id":"4","last_reported":1700499939,"current_range_meters":14800,"station_id":"ce4bgvp2rcd13ifvqcu0","pricing_plan_id":"free"},{"bike_id":"d54fdc6e-dcf9-4abe-aa53-161724f36f3b","system_id":"levelo_inurba_marseille","lat":43.31328,"lon":5.39694,"is_reserved":false,"is_disabled":false,"rental_uris":{"android":"levelo://app?vid=d54fdc6e-dcf9-4abe-aa53-161724f36f3b","ios":"levelo://app?vid=d54fdc6e-dcf9-4abe-aa53-161724f36f3b"},"vehicle_type_id":"4","last_reported":1700499939,"current_range_meters":7600,"station_id":"ce4bgvp2rcd13ifvqcu0","pricing_plan_id":"free"},{"bike_id":"9995eb3c-2251-456c-b847-7f07a3ce9f22","system_id":"levelo_inurba_marseille","lat":43.31329,"lon":5.39694,"is_reserved":false,"is_disabled":false,"rental_uris":{"android":"levelo://app?vid=9995eb3c-2251-456c-b847-7f07a3ce9f22","ios":"levelo://app?vid=9995eb3c-2251-456c-b847-7f07a3ce9f22"},"vehicle_type_id":"4","last_reported":1700499939,"current_range_meters":31200,"station_id":"ce4bgvp2rcd13ifvqcu0","pricing_plan_id":"free"},{"bike_id":"ab93c0de-eb9d-4a13-98b6-27096f4beb77","system_id":"levelo_inurba_marseille","lat":43.309047,"lon":5.396551,"is_reserved":false,"is_disabled":false,"rental_uris":{"android":"levelo://app?vid=ab93c0de-eb9d-4a13-98b6-27096f4beb77","ios":"levelo://app?vid=ab93c0de-eb9d-4a13-98b6-27096f4beb77"},"vehicle_type_id":"4","last_reported":1700499939,"current_range_meters":2800,"station_id":"ce4bh012rcd13ifvqcv0","pricing_plan_id":"free"},{"bike_id":"5e2df123-d933-4169-a934-01acce82c9f3","system_id":"levelo_inurba_marseille","lat":43.31326,"lon":5.39696,"is_reserved":false,"is_disabled":false,"rental_uris":{"android":"levelo://app?vid=5e2df123-d933-4169-a934-01acce82c9f3","ios":"levelo://app?vid=5e2df123-d933-4169-a934-01acce82c9f3"},"vehicle_type_id":"4","last_reported":1700499939,"current_range_meters":23200,"station_id":"ce4bgvp2rcd13ifvqcu0","pricing_plan_id":"free"},{"bike_id":"98aa03dc-e2da-495e-8e32-de58a61e91d2","system_id":"levelo_inurba_marseille","lat":43.31327,"lon":5.39698,"is_reserved":false,"is_disabled":false,"rental_uris":{"android":"levelo://app?vid=98aa03dc-e2da-495e-8e32-de58a61e91d2","ios":"levelo://app?vid=98aa03dc-e2da-495e-8e32-de58a61e91d2"},"vehicle_type_id":"4","last_reported":1700499939,"current_range_meters":12400,"station_id":"ce4bgvp2rcd13ifvqcu0","pricing_plan_id":"free"},{"bike_id":"898c3e4e-8668-4b2c-a234-f4a461554868","system_id":"levelo_inurba_marseille","lat":43.313291,"lon":5.396838,"is_reserved":false,"is_disabled":false,"rental_uris":{"android":"levelo://app?vid=898c3e4e-8668-4b2c-a234-f4a461554868","ios":"levelo://app?vid=898c3e4e-8668-4b2c-a234-f4a461554868"},"vehicle_type_id":"4","last_reported":1700499939,"current_range_meters":10000,"station_id":"ce4bgvp2rcd13ifvqcu0","pricing_plan_id":"free"},{"bike_id":"e9f205c3-18eb-480a-b49a-694371a08e41","system_id":"levelo_inurba_marseille","lat":43.309038,"lon":5.396546,"is_reserved":false,"is_disabled":false,"rental_uris":{"android":"levelo://app?vid=e9f205c3-18eb-480a-b49a-694371a08e41","ios":"levelo://app?vid=e9f205c3-18eb-480a-b49a-694371a08e41"},"vehicle_type_id":"4","last_reported":1700499939,"current_range_meters":25600,"station_id":"ce4bh012rcd13ifvqcv0","pricing_plan_id":"free"},{"bike_id":"93d7b9f3-2bc0-42f2-a151-12664459c531","system_id":"levelo_inurba_marseille","lat":43.29529,"lon":5.385581,"is_reserved":false,"is_disabled":false,"rental_uris":{"android":"levelo://app?vid=93d7b9f3-2bc0-42f2-a151-12664459c531","ios":"levelo://app?vid=93d7b9f3-2bc0-42f2-a151-12664459c531"},"vehicle_type_id":"4","last_reported":1700499939,"current_range_meters":0,"station_id":"ce4bgih2rcd13ifvqba0","pricing_plan_id":"free"},{"bike_id":"30c67b6a-04d1-4e8b-9194-8ba597c5bcae","system_id":"levelo_inurba_marseille","lat":43.29529,"lon":5.385581,"is_reserved":false,"is_disabled":false,"rental_uris":{"android":"levelo://app?vid=30c67b6a-04d1-4e8b-9194-8ba597c5bcae","ios":"levelo://app?vid=30c67b6a-04d1-4e8b-9194-8ba597c5bcae"},"vehicle_type_id":"4","last_reported":1700499939,"current_range_meters":5200,"station_id":"ce4bgih2rcd13ifvqba0","pricing_plan_id":"free"},{"bike_id":"df76d5e3-d18b-4c81-8544-d259ef631c5d","system_id":"levelo_inurba_marseille","lat":43.309038,"lon":5.396546,"is_reserved":false,"is_disabled":false,"rental_uris":{"android":"levelo://app?vid=df76d5e3-d18b-4c81-8544-d259ef631c5d","ios":"levelo://app?vid=df76d5e3-d18b-4c81-8544-d259ef631c5d"},"vehicle_type_id":"4","last_reported":1700499939,"current_range_meters":8400,"station_id":"ce4bh012rcd13ifvqcv0","pricing_plan_id":"free"},{"bike_id":"be284f45-836d-40fb-8b2f-b59157136fc8","system_id":"levelo_inurba_marseille","lat":43.29529,"lon":5.385581,"is_reserved":false,"is_disabled":false,"rental_uris":{"android":"levelo://app?vid=be284f45-836d-40fb-8b2f-b59157136fc8","ios":"levelo://app?vid=be284f45-836d-40fb-8b2f-b59157136fc8"},"vehicle_type_id":"4","last_reported":1700499939,"current_range_meters":25600,"station_id":"ce4bgih2rcd13ifvqba0","pricing_plan_id":"free"},{"bike_id":"3eb4c823-891c-4c27-9a67-66d347491214","system_id":"levelo_inurba_marseille","lat":43.29529,"lon":5.385581,"is_reserved":false,"is_disabled":false,"rental_uris":{"android":"levelo://app?vid=3eb4c823-891c-4c27-9a67-66d347491214","ios":"levelo://app?vid=3eb4c823-891c-4c27-9a67-66d347491214"},"vehicle_type_id":"4","last_reported":1700499939,"current_range_meters":12400,"station_id":"ce4bgih2rcd13ifvqba0","pricing_plan_id":"free"},{"bike_id":"3c16c0db-f6bc-4038-a430-718740b17631","system_id":"levelo_inurba_marseille","lat":43.293259,"lon":5.371586,"is_reserved":false,"is_disabled":false,"rental_uris":{"android":"levelo://app?vid=3c16c0db-f6bc-4038-a430-718740b17631","ios":"levelo://app?vid=3c16c0db-f6bc-4038-a430-718740b17631"},"vehicle_type_id":"4","last_reported":1700499939,"current_range_meters":4000,"station_id":"ce4bgh92rcd13ifvqb40","pricing_plan_id":"free"},{"bike_id":"b68612a0-f1c8-4ac6-b09b-e8c390039728","system_id":"levelo_inurba_marseille","lat":43.302008,"lon":5.394694,"is_reserved":false,"is_disabled":false,"rental_uris":{"android":"levelo://app?vid=b68612a0-f1c8-4ac6-b09b-e8c390039728","ios":"levelo://app?vid=b68612a0-f1c8-4ac6-b09b-e8c390039728"},"vehicle_type_id":"4","last_reported":1700499939,"current_range_meters":17200,"station_id":"ce4bh0p2rcd13ifvqd70","pricing_plan_id":"free"},{"bike_id":"b6bc3b9c-5ec3-4d07-9392-e4a8d83ac51f","system_id":"levelo_inurba_marseille","lat":43.294162,"lon":5.386292,"is_reserved":false,"is_disabled":false,"rental_uris":{"android":"levelo://app?vid=b6bc3b9c-5ec3-4d07-9392-e4a8d83ac51f","ios":"levelo://app?vid=b6bc3b9c-5ec3-4d07-9392-e4a8d83ac51f"},"vehicle_type_id":"4","last_reported":1700499939,"current_range_meters":0,"station_id":"ce4bh2h2rcd13ifvqdh0","pricing_plan_id":"free"},{"bike_id":"f412d916-4c23-48ab-9552-1aab8c05551d","system_id":"levelo_inurba_marseille","lat":43.294162,"lon":5.386292,"is_reserved":false,"is_disabled":false,"rental_uris":{"android":"levelo://app?vid=f412d916-4c23-48ab-9552-1aab8c05551d","ios":"levelo://app?vid=f412d916-4c23-48ab-9552-1aab8c05551d"},"vehicle_type_id":"4","last_reported":1700499939,"current_range_meters":13600,"station_id":"ce4bh2h2rcd13ifvqdh0","pricing_plan_id":"free"},{"bike_id":"e5f4b641-755a-412d-afb6-44c2bc0b5560","system_id":"levelo_inurba_marseille","lat":43.294162,"lon":5.386292,"is_reserved":false,"is_disabled":false,"rental_uris":{"android":"levelo://app?vid=e5f4b641-755a-412d-afb6-44c2bc0b5560","ios":"levelo://app?vid=e5f4b641-755a-412d-afb6-44c2bc0b5560"},"vehicle_type_id":"4","last_reported":1700499939,"current_range_meters":25600,"station_id":"ce4bh2h2rcd13ifvqdh0","pricing_plan_id":"free"},{"bike_id":"5a38d5cc-fa7e-494c-a405-6cc89e3feb31","system_id":"levelo_inurba_marseille","lat":43.289184,"lon":5.366408,"is_reserved":false,"is_disabled":false,"rental_uris":{"android":"levelo://app?vid=5a38d5cc-fa7e-494c-a405-6cc89e3feb31","ios":"levelo://app?vid=5a38d5cc-fa7e-494c-a405-6cc89e3feb31"},"vehicle_type_id":"4","last_reported":1700499939,"current_range_meters":23600,"station_id":"ce4bhap2rcd13ifvqek0","pricing_plan_id":"free"},{"bike_id":"2bef3793-71e7-4d63-b5d8-e681fe441b4d","system_id":"levelo_inurba_marseille","lat":43.294162,"lon":5.386292,"is_reserved":false,"is_disabled":false,"rental_uris":{"android":"levelo://app?vid=2bef3793-71e7-4d63-b5d8-e681fe441b4d","ios":"levelo://app?vid=2bef3793-71e7-4d63-b5d8-e681fe441b4d"},"vehicle_type_id":"4","last_reported":1700499939,"current_range_meters":20000,"station_id":"ce4bh2h2rcd13ifvqdh0","pricing_plan_id":"free"},{"bike_id":"3cd056bb-fbfc-4a28-838b-6195132bef8d","system_id":"levelo_inurba_marseille","lat":43.294162,"lon":5.386292,"is_reserved":false,"is_disabled":false,"rental_uris":{"android":"levelo://app?vid=3cd056bb-fbfc-4a28-838b-6195132bef8d","ios":"levelo://app?vid=3cd056bb-fbfc-4a28-838b-6195132bef8d"},"vehicle_type_id":"4","last_reported":1700499939,"current_range_meters":0,"station_id":"ce4bh2h2rcd13ifvqdh0","pricing_plan_id":"free"},{"bike_id":"878197c3-422f-4dda-9e03-c9df0c561e7c","system_id":"levelo_inurba_marseille","lat":43.289184,"lon":5.366408,"is_reserved":false,"is_disabled":false,"rental_uris":{"android":"levelo://app?vid=878197c3-422f-4dda-9e03-c9df0c561e7c","ios":"levelo://app?vid=878197c3-422f-4dda-9e03-c9df0c561e7c"},"vehicle_type_id":"4","last_reported":1700499939,"current_range_meters":4000,"station_id":"ce4bhap2rcd13ifvqek0","pricing_plan_id":"free"},{"bike_id":"94e5b550-0c05-4b52-9b2d-650f3273f64d","system_id":"levelo_inurba_marseille","lat":43.289184,"lon":5.366408,"is_reserved":false,"is_disabled":false,"rental_uris":{"android":"levelo://app?vid=94e5b550-0c05-4b52-9b2d-650f3273f64d","ios":"levelo://app?vid=94e5b550-0c05-4b52-9b2d-650f3273f64d"},"vehicle_type_id":"4","last_reported":1700499939,"current_range_meters":10400,"station_id":"ce4bhap2rcd13ifvqek0","pricing_plan_id":"free"},{"bike_id":"691eca45-9c37-4fc2-8cdb-d01816553133","system_id":"levelo_inurba_marseille","lat":43.289468,"lon":5.363719,"is_reserved":false,"is_disabled":false,"rental_uris":{"android":"levelo://app?vid=691eca45-9c37-4fc2-8cdb-d01816553133","ios":"levelo://app?vid=691eca45-9c37-4fc2-8cdb-d01816553133"},"vehicle_type_id":"4","last_reported":1700499939,"current_range_meters":25200,"station_id":"ce4bhc92rcd13ifvqetg","pricing_plan_id":"free"},{"bike_id":"873d0063-3955-44b7-bc70-5b36e6389c08","system_id":"levelo_inurba_marseille","lat":43.28939,"lon":5.36393,"is_reserved":false,"is_disabled":false,"rental_uris":{"android":"levelo://app?vid=873d0063-3955-44b7-bc70-5b36e6389c08","ios":"levelo://app?vid=873d0063-3955-44b7-bc70-5b36e6389c08"},"vehicle_type_id":"4","last_reported":1700499939,"current_range_meters":24400,"station_id":"ce4bhc92rcd13ifvqetg","pricing_plan_id":"free"},{"bike_id":"f67a1177-4c39-4d0f-bf50-d59478c061bb","system_id":"levelo_inurba_marseille","lat":43.289184,"lon":5.366408,"is_reserved":false,"is_disabled":false,"rental_uris":{"android":"levelo://app?vid=f67a1177-4c39-4d0f-bf50-d59478c061bb","ios":"levelo://app?vid=f67a1177-4c39-4d0f-bf50-d59478c061bb"},"vehicle_type_id":"4","last_reported":1700499939,"current_range_meters":3200,"station_id":"ce4bhap2rcd13ifvqek0","pricing_plan_id":"free"},{"bike_id":"adbfe026-bc87-43e4-8b0f-c77e991aa936","system_id":"levelo_inurba_marseille","lat":43.292644,"lon":5.384257,"is_reserved":false,"is_disabled":false,"rental_uris":{"android":"levelo://app?vid=adbfe026-bc87-43e4-8b0f-c77e991aa936","ios":"levelo://app?vid=adbfe026-bc87-43e4-8b0f-c77e991aa936"},"vehicle_type_id":"4","last_reported":1700499939,"current_range_meters":31200,"station_id":"ce4bh692rcd13ifvqea0","pricing_plan_id":"free"},{"bike_id":"c05a8e80-d258-4ae6-be81-d94deab8c491","system_id":"levelo_inurba_marseille","lat":43.330442,"lon":5.389148,"is_reserved":false,"is_disabled":false,"rental_uris":{"android":"levelo://app?vid=c05a8e80-d258-4ae6-be81-d94deab8c491","ios":"levelo://app?vid=c05a8e80-d258-4ae6-be81-d94deab8c491"},"vehicle_type_id":"4","last_reported":1700499939,"current_range_meters":1600,"station_id":"ce4bhr92rcd13ifvqhrg","pricing_plan_id":"free"},{"bike_id":"b04804cf-5e01-4a00-a221-33ce71eafa30","system_id":"levelo_inurba_marseille","lat":43.330442,"lon":5.389148,"is_reserved":false,"is_disabled":false,"rental_uris":{"android":"levelo://app?vid=b04804cf-5e01-4a00-a221-33ce71eafa30","ios":"levelo://app?vid=b04804cf-5e01-4a00-a221-33ce71eafa30"},"vehicle_type_id":"4","last_reported":1700499939,"current_range_meters":13200,"station_id":"ce4bhr92rcd13ifvqhrg","pricing_plan_id":"free"},{"bike_id":"25f2f82c-eb04-4b79-ba19-5ef0e6134874","system_id":"levelo_inurba_marseille","lat":43.33043,"lon":5.38927,"is_reserved":false,"is_disabled":false,"rental_uris":{"android":"levelo://app?vid=25f2f82c-eb04-4b79-ba19-5ef0e6134874","ios":"levelo://app?vid=25f2f82c-eb04-4b79-ba19-5ef0e6134874"},"vehicle_type_id":"4","last_reported":1700499939,"current_range_meters":22800,"station_id":"ce4bhr92rcd13ifvqhrg","pricing_plan_id":"free"},{"bike_id":"934382c3-8ce1-4213-88a0-c19c4a12717d","system_id":"levelo_inurba_marseille","lat":43.290995,"lon":5.381361,"is_reserved":false,"is_disabled":false,"rental_uris":{"android":"levelo://app?vid=934382c3-8ce1-4213-88a0-c19c4a12717d","ios":"levelo://app?vid=934382c3-8ce1-4213-88a0-c19c4a12717d"},"vehicle_type_id":"4","last_reported":1700499939,"current_range_meters":20800,"station_id":"ce4bh512rcd13ifvqe2g","pricing_plan_id":"free"},{"bike_id":"ae60915d-300e-4e12-b0f4-f7a7691b0976","system_id":"levelo_inurba_marseille","lat":43.29789,"lon":5.39347,"is_reserved":false,"is_disabled":false,"rental_uris":{"android":"levelo://app?vid=ae60915d-300e-4e12-b0f4-f7a7691b0976","ios":"levelo://app?vid=ae60915d-300e-4e12-b0f4-f7a7691b0976"},"vehicle_type_id":"4","last_reported":1700499939,"current_range_meters":800,"station_id":"chh1huq6cuj3fo74tm60","pricing_plan_id":"free"},{"bike_id":"f2bec7d2-0187-41eb-99ca-f44026637548","system_id":"levelo_inurba_marseille","lat":43.29526,"lon":5.3904,"is_reserved":false,"is_disabled":false,"rental_uris":{"android":"levelo://app?vid=f2bec7d2-0187-41eb-99ca-f44026637548","ios":"levelo://app?vid=f2bec7d2-0187-41eb-99ca-f44026637548"},"vehicle_type_id":"4","last_reported":1700499939,"current_range_meters":6000,"station_id":"ce4bh3p2rcd13ifvqdp0","pricing_plan_id":"free"},{"bike_id":"dde6e298-3d28-4a47-996c-d6a68f243922","system_id":"levelo_inurba_marseille","lat":43.295169,"lon":5.390426,"is_reserved":false,"is_disabled":false,"rental_uris":{"android":"levelo://app?vid=dde6e298-3d28-4a47-996c-d6a68f243922","ios":"levelo://app?vid=dde6e298-3d28-4a47-996c-d6a68f243922"},"vehicle_type_id":"4","last_reported":1700499939,"current_range_meters":2000,"station_id":"ce4bh3p2rcd13ifvqdp0","pricing_plan_id":"free"},{"bike_id":"c282247b-2669-4761-b461-7e6da9151121","system_id":"levelo_inurba_marseille","lat":43.290094,"lon":5.381264,"is_reserved":false,"is_disabled":false,"rental_uris":{"android":"levelo://app?vid=c282247b-2669-4761-b461-7e6da9151121","ios":"levelo://app?vid=c282247b-2669-4761-b461-7e6da9151121"},"vehicle_type_id":"4","last_reported":1700499939,"current_range_meters":0,"station_id":"ce4bh4p2rcd13ifvqe1g","pricing_plan_id":"free"},{"bike_id":"08cd3c25-96f5-46a2-80f8-c59e2e04b11d","system_id":"levelo_inurba_marseille","lat":43.288555,"lon":5.35839,"is_reserved":false,"is_disabled":false,"rental_uris":{"android":"levelo://app?vid=08cd3c25-96f5-46a2-80f8-c59e2e04b11d","ios":"levelo://app?vid=08cd3c25-96f5-46a2-80f8-c59e2e04b11d"},"vehicle_type_id":"4","last_reported":1700499939,"current_range_meters":0,"station_id":"ce4bhb12rcd13ifvqem0","pricing_plan_id":"free"},{"bike_id":"07202f70-50d7-46f0-a5bd-59712659d6a0","system_id":"levelo_inurba_marseille","lat":43.31251,"lon":5.40162,"is_reserved":false,"is_disabled":false,"rental_uris":{"android":"levelo://app?vid=07202f70-50d7-46f0-a5bd-59712659d6a0","ios":"levelo://app?vid=07202f70-50d7-46f0-a5bd-59712659d6a0"},"vehicle_type_id":"4","last_reported":1700499939,"current_range_meters":6400,"station_id":"","pricing_plan_id":"free"},{"bike_id":"997f24cc-0d8b-406d-979d-acf9a80dd82f","system_id":"levelo_inurba_marseille","lat":43.337417,"lon":5.374497,"is_reserved":false,"is_disabled":false,"rental_uris":{"android":"levelo://app?vid=997f24cc-0d8b-406d-979d-acf9a80dd82f","ios":"levelo://app?vid=997f24cc-0d8b-406d-979d-acf9a80dd82f"},"vehicle_type_id":"4","last_reported":1700499939,"current_range_meters":26000,"station_id":"","pricing_plan_id":"free"},{"bike_id":"9d76eca6-e85e-49d7-809a-4e0ac58db9fa","system_id":"levelo_inurba_marseille","lat":43.312758,"lon":5.401723,"is_reserved":false,"is_disabled":false,"rental_uris":{"android":"levelo://app?vid=9d76eca6-e85e-49d7-809a-4e0ac58db9fa","ios":"levelo://app?vid=9d76eca6-e85e-49d7-809a-4e0ac58db9fa"},"vehicle_type_id":"4","last_reported":1700499939,"current_range_meters":30800,"station_id":"ce4bh092rcd13ifvqd30","pricing_plan_id":"free"},{"bike_id":"018c1b8c-ec50-4254-826e-88031b94cf4f","system_id":"levelo_inurba_marseille","lat":43.31277,"lon":5.40176,"is_reserved":false,"is_disabled":false,"rental_uris":{"android":"levelo://app?vid=018c1b8c-ec50-4254-826e-88031b94cf4f","ios":"levelo://app?vid=018c1b8c-ec50-4254-826e-88031b94cf4f"},"vehicle_type_id":"4","last_reported":1700499939,"current_range_meters":17600,"station_id":"ce4bh092rcd13ifvqd30","pricing_plan_id":"free"},{"bike_id":"32c3052d-6284-4959-86ad-ab46f267ce26","system_id":"levelo_inurba_marseille","lat":43.33751,"lon":5.37455,"is_reserved":false,"is_disabled":false,"rental_uris":{"android":"levelo://app?vid=32c3052d-6284-4959-86ad-ab46f267ce26","ios":"levelo://app?vid=32c3052d-6284-4959-86ad-ab46f267ce26"},"vehicle_type_id":"4","last_reported":1700499939,"current_range_meters":24800,"station_id":"","pricing_plan_id":"free"},{"bike_id":"a33fcab0-39bd-483e-b5db-3679ab4f7c4f","system_id":"levelo_inurba_marseille","lat":43.30927,"lon":5.40152,"is_reserved":false,"is_disabled":false,"rental_uris":{"android":"levelo://app?vid=a33fcab0-39bd-483e-b5db-3679ab4f7c4f","ios":"levelo://app?vid=a33fcab0-39bd-483e-b5db-3679ab4f7c4f"},"vehicle_type_id":"4","last_reported":1700499939,"current_range_meters":8400,"station_id":"ce4bgvp2rcd13ifvqct0","pricing_plan_id":"free"},{"bike_id":"d5007cd5-ae02-43a7-8284-60107adb6236","system_id":"levelo_inurba_marseille","lat":43.33753,"lon":5.37462,"is_reserved":false,"is_disabled":false,"rental_uris":{"android":"levelo://app?vid=d5007cd5-ae02-43a7-8284-60107adb6236","ios":"levelo://app?vid=d5007cd5-ae02-43a7-8284-60107adb6236"},"vehicle_type_id":"4","last_reported":1700499939,"current_range_meters":26800,"station_id":"","pricing_plan_id":"free"},{"bike_id":"6a01914c-8698-4f48-b494-37501834332a","system_id":"levelo_inurba_marseille","lat":43.312717,"lon":5.401862,"is_reserved":false,"is_disabled":false,"rental_uris":{"android":"levelo://app?vid=6a01914c-8698-4f48-b494-37501834332a","ios":"levelo://app?vid=6a01914c-8698-4f48-b494-37501834332a"},"vehicle_type_id":"4","last_reported":1700499939,"current_range_meters":5600,"station_id":"ce4bh092rcd13ifvqd30","pricing_plan_id":"free"},{"bike_id":"7d1b648a-c616-4e16-9ce5-054be0c1527d","system_id":"levelo_inurba_marseille","lat":43.33758,"lon":5.37493,"is_reserved":false,"is_disabled":false,"rental_uris":{"android":"levelo://app?vid=7d1b648a-c616-4e16-9ce5-054be0c1527d","ios":"levelo://app?vid=7d1b648a-c616-4e16-9ce5-054be0c1527d"},"vehicle_type_id":"4","last_reported":1700499939,"current_range_meters":30000,"station_id":"","pricing_plan_id":"free"},{"bike_id":"24f2a948-8f52-4897-8f6c-8ab66f510be4","system_id":"levelo_inurba_marseille","lat":43.301117,"lon":5.398795,"is_reserved":false,"is_disabled":false,"rental_uris":{"android":"levelo://app?vid=24f2a948-8f52-4897-8f6c-8ab66f510be4","ios":"levelo://app?vid=24f2a948-8f52-4897-8f6c-8ab66f510be4"},"vehicle_type_id":"4","last_reported":1700499939,"current_range_meters":9600,"station_id":"ce4bh0h2rcd13ifvqd40","pricing_plan_id":"free"},{"bike_id":"cc840375-04ba-4d0b-a927-bfe3c2febbb6","system_id":"levelo_inurba_marseille","lat":43.295196,"lon":5.39397,"is_reserved":false,"is_disabled":false,"rental_uris":{"android":"levelo://app?vid=cc840375-04ba-4d0b-a927-bfe3c2febbb6","ios":"levelo://app?vid=cc840375-04ba-4d0b-a927-bfe3c2febbb6"},"vehicle_type_id":"4","last_reported":1700499939,"current_range_meters":0,"station_id":"ce4bh292rcd13ifvqdf0","pricing_plan_id":"free"},{"bike_id":"0449de30-3b18-46e1-b08c-0dad516ee4e3","system_id":"levelo_inurba_marseille","lat":43.298681,"lon":5.397225,"is_reserved":false,"is_disabled":false,"rental_uris":{"android":"levelo://app?vid=0449de30-3b18-46e1-b08c-0dad516ee4e3","ios":"levelo://app?vid=0449de30-3b18-46e1-b08c-0dad516ee4e3"},"vehicle_type_id":"4","last_reported":1700499939,"current_range_meters":16800,"station_id":"ce4bh0h2rcd13ifvqd50","pricing_plan_id":"free"},{"bike_id":"9b81fb9c-2b54-46dc-89f5-745478803c48","system_id":"levelo_inurba_marseille","lat":43.29032,"lon":5.38643,"is_reserved":false,"is_disabled":false,"rental_uris":{"android":"levelo://app?vid=9b81fb9c-2b54-46dc-89f5-745478803c48","ios":"levelo://app?vid=9b81fb9c-2b54-46dc-89f5-745478803c48"},"vehicle_type_id":"4","last_reported":1700499939,"current_range_meters":12000,"station_id":"","pricing_plan_id":"free"},{"bike_id":"9a7ff6c6-9f72-44ea-9150-522d5f5316ca","system_id":"levelo_inurba_marseille","lat":43.28927,"lon":5.38411,"is_reserved":false,"is_disabled":false,"rental_uris":{"android":"levelo://app?vid=9a7ff6c6-9f72-44ea-9150-522d5f5316ca","ios":"levelo://app?vid=9a7ff6c6-9f72-44ea-9150-522d5f5316ca"},"vehicle_type_id":"4","last_reported":1700499939,"current_range_meters":6800,"station_id":"ce4bh612rcd13ifvqe6g","pricing_plan_id":"free"},{"bike_id":"6ae3b1f8-c0c0-42bd-8b78-68b6534b2a6a","system_id":"levelo_inurba_marseille","lat":43.302759,"lon":5.400793,"is_reserved":false,"is_disabled":false,"rental_uris":{"android":"levelo://app?vid=6ae3b1f8-c0c0-42bd-8b78-68b6534b2a6a","ios":"levelo://app?vid=6ae3b1f8-c0c0-42bd-8b78-68b6534b2a6a"},"vehicle_type_id":"4","last_reported":1700499939,"current_range_meters":7200,"station_id":"ce4bgvh2rcd13ifvqcs0","pricing_plan_id":"free"},{"bike_id":"9bc3e87e-9d95-494c-b645-107ea586a205","system_id":"levelo_inurba_marseille","lat":43.316517,"lon":5.404375,"is_reserved":false,"is_disabled":false,"rental_uris":{"android":"levelo://app?vid=9bc3e87e-9d95-494c-b645-107ea586a205","ios":"levelo://app?vid=9bc3e87e-9d95-494c-b645-107ea586a205"},"vehicle_type_id":"4","last_reported":1700499939,"current_range_meters":7600,"station_id":"ce4bh012rcd13ifvqd00","pricing_plan_id":"free"},{"bike_id":"caf4aa26-6719-49da-8cdb-652446e88b55","system_id":"levelo_inurba_marseille","lat":43.28468,"lon":5.35893,"is_reserved":false,"is_disabled":false,"rental_uris":{"android":"levelo://app?vid=caf4aa26-6719-49da-8cdb-652446e88b55","ios":"levelo://app?vid=caf4aa26-6719-49da-8cdb-652446e88b55"},"vehicle_type_id":"4","last_reported":1700499939,"current_range_meters":27600,"station_id":"ce4bhah2rcd13ifvqei0","pricing_plan_id":"free"},{"bike_id":"3b76308c-89df-428b-9ed9-ff417fd447a6","system_id":"levelo_inurba_marseille","lat":43.28468,"lon":5.35887,"is_reserved":false,"is_disabled":false,"rental_uris":{"android":"levelo://app?vid=3b76308c-89df-428b-9ed9-ff417fd447a6","ios":"levelo://app?vid=3b76308c-89df-428b-9ed9-ff417fd447a6"},"vehicle_type_id":"4","last_reported":1700499939,"current_range_meters":31200,"station_id":"ce4bhah2rcd13ifvqei0","pricing_plan_id":"free"},{"bike_id":"eda63b73-b14f-4905-8fc9-6d3ef4d62438","system_id":"levelo_inurba_marseille","lat":43.28465,"lon":5.35895,"is_reserved":false,"is_disabled":false,"rental_uris":{"android":"levelo://app?vid=eda63b73-b14f-4905-8fc9-6d3ef4d62438","ios":"levelo://app?vid=eda63b73-b14f-4905-8fc9-6d3ef4d62438"},"vehicle_type_id":"4","last_reported":1700499939,"current_range_meters":12400,"station_id":"ce4bhah2rcd13ifvqei0","pricing_plan_id":"free"},{"bike_id":"2ebcc77f-1953-4704-8815-f89a5f8a3d85","system_id":"levelo_inurba_marseille","lat":43.28614,"lon":5.35111,"is_reserved":false,"is_disabled":false,"rental_uris":{"android":"levelo://app?vid=2ebcc77f-1953-4704-8815-f89a5f8a3d85","ios":"levelo://app?vid=2ebcc77f-1953-4704-8815-f89a5f8a3d85"},"vehicle_type_id":"4","last_reported":1700499939,"current_range_meters":31200,"station_id":"ce4bhch2rcd13ifvqeug","pricing_plan_id":"free"},{"bike_id":"fc2f5a41-a1c2-4fb1-9465-40fc1c6b93ae","system_id":"levelo_inurba_marseille","lat":43.28615,"lon":5.35101,"is_reserved":false,"is_disabled":false,"rental_uris":{"android":"levelo://app?vid=fc2f5a41-a1c2-4fb1-9465-40fc1c6b93ae","ios":"levelo://app?vid=fc2f5a41-a1c2-4fb1-9465-40fc1c6b93ae"},"vehicle_type_id":"4","last_reported":1700499939,"current_range_meters":29200,"station_id":"ce4bhch2rcd13ifvqeug","pricing_plan_id":"free"},{"bike_id":"bc246175-f3c5-4bbb-8bc6-68f6df665cd3","system_id":"levelo_inurba_marseille","lat":43.28606,"lon":5.35104,"is_reserved":false,"is_disabled":false,"rental_uris":{"android":"levelo://app?vid=bc246175-f3c5-4bbb-8bc6-68f6df665cd3","ios":"levelo://app?vid=bc246175-f3c5-4bbb-8bc6-68f6df665cd3"},"vehicle_type_id":"4","last_reported":1700499939,"current_range_meters":31200,"station_id":"ce4bhch2rcd13ifvqeug","pricing_plan_id":"free"},{"bike_id":"e2888d54-4cde-4cd1-a872-e6c664296037","system_id":"levelo_inurba_marseille","lat":43.28643,"lon":5.38397,"is_reserved":false,"is_disabled":false,"rental_uris":{"android":"levelo://app?vid=e2888d54-4cde-4cd1-a872-e6c664296037","ios":"levelo://app?vid=e2888d54-4cde-4cd1-a872-e6c664296037"},"vehicle_type_id":"4","last_reported":1700499939,"current_range_meters":0,"station_id":"","pricing_plan_id":"free"},{"bike_id":"fed71da3-91f7-4c94-94e2-99c49adcf8a2","system_id":"levelo_inurba_marseille","lat":43.295713,"lon":5.399639,"is_reserved":false,"is_disabled":false,"rental_uris":{"android":"levelo://app?vid=fed71da3-91f7-4c94-94e2-99c49adcf8a2","ios":"levelo://app?vid=fed71da3-91f7-4c94-94e2-99c49adcf8a2"},"vehicle_type_id":"4","last_reported":1700499939,"current_range_meters":19200,"station_id":"ce4bh312rcd13ifvqdj0","pricing_plan_id":"free"},{"bike_id":"61826a91-7d7d-491f-90f2-35715068f48d","system_id":"levelo_inurba_marseille","lat":43.286595,"lon":5.386795,"is_reserved":false,"is_disabled":false,"rental_uris":{"android":"levelo://app?vid=61826a91-7d7d-491f-90f2-35715068f48d","ios":"levelo://app?vid=61826a91-7d7d-491f-90f2-35715068f48d"},"vehicle_type_id":"4","last_reported":1700499939,"current_range_meters":400,"station_id":"ce4bh492rcd13ifvqdug","pricing_plan_id":"free"},{"bike_id":"6e132a80-4d40-4347-84b6-5b548b536cb6","system_id":"levelo_inurba_marseille","lat":43.286595,"lon":5.386795,"is_reserved":false,"is_disabled":false,"rental_uris":{"android":"levelo://app?vid=6e132a80-4d40-4347-84b6-5b548b536cb6","ios":"levelo://app?vid=6e132a80-4d40-4347-84b6-5b548b536cb6"},"vehicle_type_id":"4","last_reported":1700499939,"current_range_meters":2000,"station_id":"ce4bh492rcd13ifvqdug","pricing_plan_id":"free"},{"bike_id":"5974ad3b-da81-42ca-a08b-1b3632a47afa","system_id":"levelo_inurba_marseille","lat":43.33237,"lon":5.3985,"is_reserved":false,"is_disabled":false,"rental_uris":{"android":"levelo://app?vid=5974ad3b-da81-42ca-a08b-1b3632a47afa","ios":"levelo://app?vid=5974ad3b-da81-42ca-a08b-1b3632a47afa"},"vehicle_type_id":"4","last_reported":1700499939,"current_range_meters":0,"station_id":"","pricing_plan_id":"free"},{"bike_id":"5f7be159-3ffc-4d0b-ac0b-2482534e516c","system_id":"levelo_inurba_marseille","lat":43.323464,"lon":5.406297,"is_reserved":false,"is_disabled":false,"rental_uris":{"android":"levelo://app?vid=5f7be159-3ffc-4d0b-ac0b-2482534e516c","ios":"levelo://app?vid=5f7be159-3ffc-4d0b-ac0b-2482534e516c"},"vehicle_type_id":"4","last_reported":1700499939,"current_range_meters":20000,"station_id":"ce4bhq92rcd13ifvqhjg","pricing_plan_id":"free"},{"bike_id":"93d0469d-7f7c-4223-8709-b9ae3b48f340","system_id":"levelo_inurba_marseille","lat":43.284793,"lon":5.384119,"is_reserved":false,"is_disabled":false,"rental_uris":{"android":"levelo://app?vid=93d0469d-7f7c-4223-8709-b9ae3b48f340","ios":"levelo://app?vid=93d0469d-7f7c-4223-8709-b9ae3b48f340"},"vehicle_type_id":"4","last_reported":1700499939,"current_range_meters":0,"station_id":"ce4bh512rcd13ifvqe3g","pricing_plan_id":"free"},{"bike_id":"da9f05df-ccf5-42ae-80ce-04be6b220d2e","system_id":"levelo_inurba_marseille","lat":43.283494,"lon":5.380945,"is_reserved":false,"is_disabled":false,"rental_uris":{"android":"levelo://app?vid=da9f05df-ccf5-42ae-80ce-04be6b220d2e","ios":"levelo://app?vid=da9f05df-ccf5-42ae-80ce-04be6b220d2e"},"vehicle_type_id":"4","last_reported":1700499939,"current_range_meters":16000,"station_id":"ce4bh412rcd13ifvqdr0","pricing_plan_id":"free"},{"bike_id":"5129b393-30b0-4a3a-8578-1978e6d489cc","system_id":"levelo_inurba_marseille","lat":43.29795,"lon":5.404086,"is_reserved":false,"is_disabled":false,"rental_uris":{"android":"levelo://app?vid=5129b393-30b0-4a3a-8578-1978e6d489cc","ios":"levelo://app?vid=5129b393-30b0-4a3a-8578-1978e6d489cc"},"vehicle_type_id":"4","last_reported":1700499939,"current_range_meters":30000,"station_id":"ce4bh112rcd13ifvqd90","pricing_plan_id":"free"},{"bike_id":"ff33daf1-26dc-445f-8a93-504686a5bd6e","system_id":"levelo_inurba_marseille","lat":43.288501,"lon":5.393087,"is_reserved":false,"is_disabled":false,"rental_uris":{"android":"levelo://app?vid=ff33daf1-26dc-445f-8a93-504686a5bd6e","ios":"levelo://app?vid=ff33daf1-26dc-445f-8a93-504686a5bd6e"},"vehicle_type_id":"4","last_reported":1700499939,"current_range_meters":18400,"station_id":"ce4bh2p2rcd13ifvqdi0","pricing_plan_id":"free"},{"bike_id":"8c99b916-6d94-4453-9c59-6e5eb8633eb4","system_id":"levelo_inurba_marseille","lat":43.283494,"lon":5.380945,"is_reserved":false,"is_disabled":false,"rental_uris":{"android":"levelo://app?vid=8c99b916-6d94-4453-9c59-6e5eb8633eb4","ios":"levelo://app?vid=8c99b916-6d94-4453-9c59-6e5eb8633eb4"},"vehicle_type_id":"4","last_reported":1700499939,"current_range_meters":24000,"station_id":"ce4bh412rcd13ifvqdr0","pricing_plan_id":"free"},{"bike_id":"96add26f-5adf-4a68-ae5f-41fb6ad648cf","system_id":"levelo_inurba_marseille","lat":43.28368,"lon":5.38632,"is_reserved":false,"is_disabled":false,"rental_uris":{"android":"levelo://app?vid=96add26f-5adf-4a68-ae5f-41fb6ad648cf","ios":"levelo://app?vid=96add26f-5adf-4a68-ae5f-41fb6ad648cf"},"vehicle_type_id":"4","last_reported":1700499939,"current_range_meters":0,"station_id":"ce4bh492rcd13ifvqdvg","pricing_plan_id":"free"},{"bike_id":"d91a4321-33cb-4444-ae0a-360a0804a435","system_id":"levelo_inurba_marseille","lat":43.28039,"lon":5.369297,"is_reserved":false,"is_disabled":false,"rental_uris":{"android":"levelo://app?vid=d91a4321-33cb-4444-ae0a-360a0804a435","ios":"levelo://app?vid=d91a4321-33cb-4444-ae0a-360a0804a435"},"vehicle_type_id":"4","last_reported":1700499939,"current_range_meters":30800,"station_id":"ce4bha12rcd13ifvqef0","pricing_plan_id":"free"},{"bike_id":"d41cce9f-06c4-4240-83e7-e6da1fe4d766","system_id":"levelo_inurba_marseille","lat":43.283502,"lon":5.386471,"is_reserved":false,"is_disabled":false,"rental_uris":{"android":"levelo://app?vid=d41cce9f-06c4-4240-83e7-e6da1fe4d766","ios":"levelo://app?vid=d41cce9f-06c4-4240-83e7-e6da1fe4d766"},"vehicle_type_id":"4","last_reported":1700499939,"current_range_meters":3600,"station_id":"ce4bh492rcd13ifvqdvg","pricing_plan_id":"free"},{"bike_id":"ac17604f-7dd5-43de-a5fb-f4bd7c0badee","system_id":"levelo_inurba_marseille","lat":43.28039,"lon":5.369297,"is_reserved":false,"is_disabled":false,"rental_uris":{"android":"levelo://app?vid=ac17604f-7dd5-43de-a5fb-f4bd7c0badee","ios":"levelo://app?vid=ac17604f-7dd5-43de-a5fb-f4bd7c0badee"},"vehicle_type_id":"4","last_reported":1700499939,"current_range_meters":19200,"station_id":"ce4bha12rcd13ifvqef0","pricing_plan_id":"free"},{"bike_id":"c15b2980-33da-4e20-8228-30cad018ccad","system_id":"levelo_inurba_marseille","lat":43.29046,"lon":5.39956,"is_reserved":false,"is_disabled":false,"rental_uris":{"android":"levelo://app?vid=c15b2980-33da-4e20-8228-30cad018ccad","ios":"levelo://app?vid=c15b2980-33da-4e20-8228-30cad018ccad"},"vehicle_type_id":"4","last_reported":1700499939,"current_range_meters":0,"station_id":"ce4bh392rcd13ifvqdm0","pricing_plan_id":"free"},{"bike_id":"3547d9eb-161e-465b-8cbf-d6428cbd6a7e","system_id":"levelo_inurba_marseille","lat":43.281044,"lon":5.378308,"is_reserved":false,"is_disabled":false,"rental_uris":{"android":"levelo://app?vid=3547d9eb-161e-465b-8cbf-d6428cbd6a7e","ios":"levelo://app?vid=3547d9eb-161e-465b-8cbf-d6428cbd6a7e"},"vehicle_type_id":"4","last_reported":1700499939,"current_range_meters":25600,"station_id":"ce4bha12rcd13ifvqee0","pricing_plan_id":"free"},{"bike_id":"9140abf3-fbe9-4721-bf08-d78ea079d54d","system_id":"levelo_inurba_marseille","lat":43.28089,"lon":5.3784,"is_reserved":false,"is_disabled":false,"rental_uris":{"android":"levelo://app?vid=9140abf3-fbe9-4721-bf08-d78ea079d54d","ios":"levelo://app?vid=9140abf3-fbe9-4721-bf08-d78ea079d54d"},"vehicle_type_id":"4","last_reported":1700499939,"current_range_meters":0,"station_id":"ce4bha12rcd13ifvqee0","pricing_plan_id":"free"},{"bike_id":"ccf9b17e-2fb6-47d5-b5cb-73ea08fcb6e5","system_id":"levelo_inurba_marseille","lat":43.28575,"lon":5.39498,"is_reserved":false,"is_disabled":false,"rental_uris":{"android":"levelo://app?vid=ccf9b17e-2fb6-47d5-b5cb-73ea08fcb6e5","ios":"levelo://app?vid=ccf9b17e-2fb6-47d5-b5cb-73ea08fcb6e5"},"vehicle_type_id":"4","last_reported":1700499939,"current_range_meters":0,"station_id":"ce4bh292rcd13ifvqdg0","pricing_plan_id":"free"},{"bike_id":"e6893489-4ad4-48bb-b83a-2cc378f82b4e","system_id":"levelo_inurba_marseille","lat":43.285742,"lon":5.395004,"is_reserved":false,"is_disabled":false,"rental_uris":{"android":"levelo://app?vid=e6893489-4ad4-48bb-b83a-2cc378f82b4e","ios":"levelo://app?vid=e6893489-4ad4-48bb-b83a-2cc378f82b4e"},"vehicle_type_id":"4","last_reported":1700499939,"current_range_meters":26000,"station_id":"ce4bh292rcd13ifvqdg0","pricing_plan_id":"free"},{"bike_id":"0770cbf1-80f2-4246-af52-ff4cbdaf95e4","system_id":"levelo_inurba_marseille","lat":43.285742,"lon":5.395004,"is_reserved":false,"is_disabled":false,"rental_uris":{"android":"levelo://app?vid=0770cbf1-80f2-4246-af52-ff4cbdaf95e4","ios":"levelo://app?vid=0770cbf1-80f2-4246-af52-ff4cbdaf95e4"},"vehicle_type_id":"4","last_reported":1700499939,"current_range_meters":5600,"station_id":"ce4bh292rcd13ifvqdg0","pricing_plan_id":"free"},{"bike_id":"4c72a412-8942-462c-b7ce-2b018a55da39","system_id":"levelo_inurba_marseille","lat":43.28701,"lon":5.39984,"is_reserved":false,"is_disabled":false,"rental_uris":{"android":"levelo://app?vid=4c72a412-8942-462c-b7ce-2b018a55da39","ios":"levelo://app?vid=4c72a412-8942-462c-b7ce-2b018a55da39"},"vehicle_type_id":"4","last_reported":1700499939,"current_range_meters":0,"station_id":"ce4bho92rcd13ifvqh3g","pricing_plan_id":"free"},{"bike_id":"2d2608e8-a39e-4122-be17-fd86759d7f4e","system_id":"levelo_inurba_marseille","lat":43.27967,"lon":5.38755,"is_reserved":false,"is_disabled":false,"rental_uris":{"android":"levelo://app?vid=2d2608e8-a39e-4122-be17-fd86759d7f4e","ios":"levelo://app?vid=2d2608e8-a39e-4122-be17-fd86759d7f4e"},"vehicle_type_id":"4","last_reported":1700499939,"current_range_meters":0,"station_id":"ce4bhg12rcd13ifvqf80","pricing_plan_id":"free"},{"bike_id":"7902fb59-0c09-40a2-8ccf-230a7c7c2d76","system_id":"levelo_inurba_marseille","lat":43.279742,"lon":5.38744,"is_reserved":false,"is_disabled":false,"rental_uris":{"android":"levelo://app?vid=7902fb59-0c09-40a2-8ccf-230a7c7c2d76","ios":"levelo://app?vid=7902fb59-0c09-40a2-8ccf-230a7c7c2d76"},"vehicle_type_id":"4","last_reported":1700499939,"current_range_meters":22400,"station_id":"ce4bhg12rcd13ifvqf80","pricing_plan_id":"free"},{"bike_id":"664dd67f-5692-428a-87dd-097c33c2959d","system_id":"levelo_inurba_marseille","lat":43.27624,"lon":5.36112,"is_reserved":false,"is_disabled":false,"rental_uris":{"android":"levelo://app?vid=664dd67f-5692-428a-87dd-097c33c2959d","ios":"levelo://app?vid=664dd67f-5692-428a-87dd-097c33c2959d"},"vehicle_type_id":"4","last_reported":1700499939,"current_range_meters":9600,"station_id":"ce4bgj92rcd13ifvqbe0","pricing_plan_id":"free"},{"bike_id":"54d83bdb-854d-4ada-827b-6f0754351f02","system_id":"levelo_inurba_marseille","lat":43.2762,"lon":5.36118,"is_reserved":false,"is_disabled":false,"rental_uris":{"android":"levelo://app?vid=54d83bdb-854d-4ada-827b-6f0754351f02","ios":"levelo://app?vid=54d83bdb-854d-4ada-827b-6f0754351f02"},"vehicle_type_id":"4","last_reported":1700499939,"current_range_meters":6400,"station_id":"ce4bgj92rcd13ifvqbe0","pricing_plan_id":"free"},{"bike_id":"f91eeb3c-69ad-4653-b479-bf02928f8fef","system_id":"levelo_inurba_marseille","lat":43.27617,"lon":5.3611,"is_reserved":false,"is_disabled":false,"rental_uris":{"android":"levelo://app?vid=f91eeb3c-69ad-4653-b479-bf02928f8fef","ios":"levelo://app?vid=f91eeb3c-69ad-4653-b479-bf02928f8fef"},"vehicle_type_id":"4","last_reported":1700499939,"current_range_meters":3200,"station_id":"ce4bgj92rcd13ifvqbe0","pricing_plan_id":"free"},{"bike_id":"1ec53fc5-b8e3-4edc-85bf-09f89af93265","system_id":"levelo_inurba_marseille","lat":43.276147,"lon":5.361176,"is_reserved":false,"is_disabled":false,"rental_uris":{"android":"levelo://app?vid=1ec53fc5-b8e3-4edc-85bf-09f89af93265","ios":"levelo://app?vid=1ec53fc5-b8e3-4edc-85bf-09f89af93265"},"vehicle_type_id":"4","last_reported":1700499939,"current_range_meters":15200,"station_id":"ce4bgj92rcd13ifvqbe0","pricing_plan_id":"free"},{"bike_id":"5d9e0f61-3ef2-46bf-80cd-8b1cc5acf214","system_id":"levelo_inurba_marseille","lat":43.27613,"lon":5.361245,"is_reserved":false,"is_disabled":false,"rental_uris":{"android":"levelo://app?vid=5d9e0f61-3ef2-46bf-80cd-8b1cc5acf214","ios":"levelo://app?vid=5d9e0f61-3ef2-46bf-80cd-8b1cc5acf214"},"vehicle_type_id":"4","last_reported":1700499939,"current_range_meters":11200,"station_id":"ce4bgj92rcd13ifvqbe0","pricing_plan_id":"free"},{"bike_id":"4f1a6b35-6778-477c-bad5-109b7f667c51","system_id":"levelo_inurba_marseille","lat":43.276179,"lon":5.361009,"is_reserved":false,"is_disabled":false,"rental_uris":{"android":"levelo://app?vid=4f1a6b35-6778-477c-bad5-109b7f667c51","ios":"levelo://app?vid=4f1a6b35-6778-477c-bad5-109b7f667c51"},"vehicle_type_id":"4","last_reported":1700499939,"current_range_meters":19200,"station_id":"ce4bgj92rcd13ifvqbe0","pricing_plan_id":"free"},{"bike_id":"c6fb0224-3657-42df-86f4-498a95a78085","system_id":"levelo_inurba_marseille","lat":43.273613,"lon":5.362705,"is_reserved":false,"is_disabled":false,"rental_uris":{"android":"levelo://app?vid=c6fb0224-3657-42df-86f4-498a95a78085","ios":"levelo://app?vid=c6fb0224-3657-42df-86f4-498a95a78085"},"vehicle_type_id":"4","last_reported":1700499939,"current_range_meters":30400,"station_id":"ce4bhbh2rcd13ifvqeo0","pricing_plan_id":"free"},{"bike_id":"889edf4a-63af-48e0-9a99-9739571fa4a3","system_id":"levelo_inurba_marseille","lat":43.273613,"lon":5.362705,"is_reserved":false,"is_disabled":false,"rental_uris":{"android":"levelo://app?vid=889edf4a-63af-48e0-9a99-9739571fa4a3","ios":"levelo://app?vid=889edf4a-63af-48e0-9a99-9739571fa4a3"},"vehicle_type_id":"4","last_reported":1700499939,"current_range_meters":6800,"station_id":"ce4bhbh2rcd13ifvqeo0","pricing_plan_id":"free"},{"bike_id":"14491e89-76d4-4f00-805c-e48bf0203f90","system_id":"levelo_inurba_marseille","lat":43.273613,"lon":5.362705,"is_reserved":false,"is_disabled":false,"rental_uris":{"android":"levelo://app?vid=14491e89-76d4-4f00-805c-e48bf0203f90","ios":"levelo://app?vid=14491e89-76d4-4f00-805c-e48bf0203f90"},"vehicle_type_id":"4","last_reported":1700499939,"current_range_meters":25200,"station_id":"ce4bhbh2rcd13ifvqeo0","pricing_plan_id":"free"},{"bike_id":"798f26eb-28d4-4e61-8bb5-f962d4b4468d","system_id":"levelo_inurba_marseille","lat":43.273609,"lon":5.362708,"is_reserved":false,"is_disabled":false,"rental_uris":{"android":"levelo://app?vid=798f26eb-28d4-4e61-8bb5-f962d4b4468d","ios":"levelo://app?vid=798f26eb-28d4-4e61-8bb5-f962d4b4468d"},"vehicle_type_id":"4","last_reported":1700499939,"current_range_meters":21600,"station_id":"ce4bhbh2rcd13ifvqeo0","pricing_plan_id":"free"},{"bike_id":"182b8407-4da8-4924-b4f6-c729648b783c","system_id":"levelo_inurba_marseille","lat":43.273609,"lon":5.362708,"is_reserved":false,"is_disabled":false,"rental_uris":{"android":"levelo://app?vid=182b8407-4da8-4924-b4f6-c729648b783c","ios":"levelo://app?vid=182b8407-4da8-4924-b4f6-c729648b783c"},"vehicle_type_id":"4","last_reported":1700499939,"current_range_meters":12000,"station_id":"ce4bhbh2rcd13ifvqeo0","pricing_plan_id":"free"},{"bike_id":"13a0e1e4-c49a-477c-aee0-a960c260ad52","system_id":"levelo_inurba_marseille","lat":43.33612,"lon":5.410321,"is_reserved":false,"is_disabled":false,"rental_uris":{"android":"levelo://app?vid=13a0e1e4-c49a-477c-aee0-a960c260ad52","ios":"levelo://app?vid=13a0e1e4-c49a-477c-aee0-a960c260ad52"},"vehicle_type_id":"4","last_reported":1700499939,"current_range_meters":16800,"station_id":"ce4bhqh2rcd13ifvqhmg","pricing_plan_id":"free"},{"bike_id":"a462ad5e-bea9-41c4-ab74-c8f536700599","system_id":"levelo_inurba_marseille","lat":43.279952,"lon":5.400085,"is_reserved":false,"is_disabled":false,"rental_uris":{"android":"levelo://app?vid=a462ad5e-bea9-41c4-ab74-c8f536700599","ios":"levelo://app?vid=a462ad5e-bea9-41c4-ab74-c8f536700599"},"vehicle_type_id":"4","last_reported":1700499939,"current_range_meters":27600,"station_id":"ce4bho92rcd13ifvqh4g","pricing_plan_id":"free"},{"bike_id":"0fff839f-0351-4a12-9b81-3e794e577e79","system_id":"levelo_inurba_marseille","lat":43.31695,"lon":5.42398,"is_reserved":false,"is_disabled":false,"rental_uris":{"android":"levelo://app?vid=0fff839f-0351-4a12-9b81-3e794e577e79","ios":"levelo://app?vid=0fff839f-0351-4a12-9b81-3e794e577e79"},"vehicle_type_id":"4","last_reported":1700499939,"current_range_meters":20800,"station_id":"ce4bhp92rcd13ifvqhbg","pricing_plan_id":"free"},{"bike_id":"f8f5619a-a183-461d-b100-453fb972fcd4","system_id":"levelo_inurba_marseille","lat":43.272118,"lon":5.391758,"is_reserved":false,"is_disabled":false,"rental_uris":{"android":"levelo://app?vid=f8f5619a-a183-461d-b100-453fb972fcd4","ios":"levelo://app?vid=f8f5619a-a183-461d-b100-453fb972fcd4"},"vehicle_type_id":"4","last_reported":1700499939,"current_range_meters":10000,"station_id":"ce4bhhp2rcd13ifvqfm0","pricing_plan_id":"free"},{"bike_id":"1442673c-a25f-4547-928e-6455be3d3f4e","system_id":"levelo_inurba_marseille","lat":43.272116,"lon":5.391763,"is_reserved":false,"is_disabled":false,"rental_uris":{"android":"levelo://app?vid=1442673c-a25f-4547-928e-6455be3d3f4e","ios":"levelo://app?vid=1442673c-a25f-4547-928e-6455be3d3f4e"},"vehicle_type_id":"4","last_reported":1700499939,"current_range_meters":0,"station_id":"ce4bhhp2rcd13ifvqfm0","pricing_plan_id":"free"},{"bike_id":"0c3c91a0-2760-436d-8134-9f5da30b513e","system_id":"levelo_inurba_marseille","lat":43.272148,"lon":5.392261,"is_reserved":false,"is_disabled":false,"rental_uris":{"android":"levelo://app?vid=0c3c91a0-2760-436d-8134-9f5da30b513e","ios":"levelo://app?vid=0c3c91a0-2760-436d-8134-9f5da30b513e"},"vehicle_type_id":"4","last_reported":1700499939,"current_range_meters":8400,"station_id":"","pricing_plan_id":"free"},{"bike_id":"f0ed4531-078e-42fb-a007-3ed80505eb54","system_id":"levelo_inurba_marseille","lat":43.271891,"lon":5.392412,"is_reserved":false,"is_disabled":false,"rental_uris":{"android":"levelo://app?vid=f0ed4531-078e-42fb-a007-3ed80505eb54","ios":"levelo://app?vid=f0ed4531-078e-42fb-a007-3ed80505eb54"},"vehicle_type_id":"4","last_reported":1700499939,"current_range_meters":0,"station_id":"","pricing_plan_id":"free"},{"bike_id":"72678cf7-75d6-48b4-abf6-6ac5565b89da","system_id":"levelo_inurba_marseille","lat":43.278128,"lon":5.407195,"is_reserved":false,"is_disabled":false,"rental_uris":{"android":"levelo://app?vid=72678cf7-75d6-48b4-abf6-6ac5565b89da","ios":"levelo://app?vid=72678cf7-75d6-48b4-abf6-6ac5565b89da"},"vehicle_type_id":"4","last_reported":1700499939,"current_range_meters":28000,"station_id":"ce4bhnh2rcd13ifvqgtg","pricing_plan_id":"free"},{"bike_id":"e31c3799-803c-48a3-8f5d-878718969a00","system_id":"levelo_inurba_marseille","lat":43.27813,"lon":5.40721,"is_reserved":false,"is_disabled":false,"rental_uris":{"android":"levelo://app?vid=e31c3799-803c-48a3-8f5d-878718969a00","ios":"levelo://app?vid=e31c3799-803c-48a3-8f5d-878718969a00"},"vehicle_type_id":"4","last_reported":1700499939,"current_range_meters":16800,"station_id":"ce4bhnh2rcd13ifvqgtg","pricing_plan_id":"free"},{"bike_id":"f8497d9c-e629-4656-a2b4-47569667243b","system_id":"levelo_inurba_marseille","lat":43.278128,"lon":5.407195,"is_reserved":false,"is_disabled":false,"rental_uris":{"android":"levelo://app?vid=f8497d9c-e629-4656-a2b4-47569667243b","ios":"levelo://app?vid=f8497d9c-e629-4656-a2b4-47569667243b"},"vehicle_type_id":"4","last_reported":1700499939,"current_range_meters":5600,"station_id":"ce4bhnh2rcd13ifvqgtg","pricing_plan_id":"free"},{"bike_id":"f842796f-c567-4a45-96cf-196cb5e52378","system_id":"levelo_inurba_marseille","lat":43.27949,"lon":5.41051,"is_reserved":false,"is_disabled":false,"rental_uris":{"android":"levelo://app?vid=f842796f-c567-4a45-96cf-196cb5e52378","ios":"levelo://app?vid=f842796f-c567-4a45-96cf-196cb5e52378"},"vehicle_type_id":"4","last_reported":1700499939,"current_range_meters":4400,"station_id":"ce4bhnp2rcd13ifvqh0g","pricing_plan_id":"free"},{"bike_id":"ff33bd46-257f-4b32-bb4e-0142b3556d7a","system_id":"levelo_inurba_marseille","lat":43.27945,"lon":5.41057,"is_reserved":false,"is_disabled":false,"rental_uris":{"android":"levelo://app?vid=ff33bd46-257f-4b32-bb4e-0142b3556d7a","ios":"levelo://app?vid=ff33bd46-257f-4b32-bb4e-0142b3556d7a"},"vehicle_type_id":"4","last_reported":1700499939,"current_range_meters":20000,"station_id":"ce4bhnp2rcd13ifvqh0g","pricing_plan_id":"free"},{"bike_id":"a7f33887-c7b6-4e65-828d-3292bc989ff3","system_id":"levelo_inurba_marseille","lat":43.26559,"lon":5.37281,"is_reserved":false,"is_disabled":false,"rental_uris":{"android":"levelo://app?vid=a7f33887-c7b6-4e65-828d-3292bc989ff3","ios":"levelo://app?vid=a7f33887-c7b6-4e65-828d-3292bc989ff3"},"vehicle_type_id":"4","last_reported":1700499939,"current_range_meters":22400,"station_id":"ce4bhg12rcd13ifvqf70","pricing_plan_id":"free"},{"bike_id":"4d54abc7-7715-42e4-ac53-6bb33c729aad","system_id":"levelo_inurba_marseille","lat":43.265714,"lon":5.372891,"is_reserved":false,"is_disabled":false,"rental_uris":{"android":"levelo://app?vid=4d54abc7-7715-42e4-ac53-6bb33c729aad","ios":"levelo://app?vid=4d54abc7-7715-42e4-ac53-6bb33c729aad"},"vehicle_type_id":"4","last_reported":1700499939,"current_range_meters":1600,"station_id":"ce4bhg12rcd13ifvqf70","pricing_plan_id":"free"},{"bike_id":"d0d9128a-d081-4323-aa12-401cf455ceb9","system_id":"levelo_inurba_marseille","lat":43.265714,"lon":5.372891,"is_reserved":false,"is_disabled":false,"rental_uris":{"android":"levelo://app?vid=d0d9128a-d081-4323-aa12-401cf455ceb9","ios":"levelo://app?vid=d0d9128a-d081-4323-aa12-401cf455ceb9"},"vehicle_type_id":"4","last_reported":1700499939,"current_range_meters":18400,"station_id":"ce4bhg12rcd13ifvqf70","pricing_plan_id":"free"},{"bike_id":"44cac569-7620-4f82-a539-2071f1a43b45","system_id":"levelo_inurba_marseille","lat":43.26558,"lon":5.37286,"is_reserved":false,"is_disabled":false,"rental_uris":{"android":"levelo://app?vid=44cac569-7620-4f82-a539-2071f1a43b45","ios":"levelo://app?vid=44cac569-7620-4f82-a539-2071f1a43b45"},"vehicle_type_id":"4","last_reported":1700499939,"current_range_meters":29200,"station_id":"ce4bhg12rcd13ifvqf70","pricing_plan_id":"free"},{"bike_id":"fed9c38e-bb17-489f-81b9-43b5173f27cd","system_id":"levelo_inurba_marseille","lat":43.26557,"lon":5.37289,"is_reserved":false,"is_disabled":false,"rental_uris":{"android":"levelo://app?vid=fed9c38e-bb17-489f-81b9-43b5173f27cd","ios":"levelo://app?vid=fed9c38e-bb17-489f-81b9-43b5173f27cd"},"vehicle_type_id":"4","last_reported":1700499939,"current_range_meters":29600,"station_id":"ce4bhg12rcd13ifvqf70","pricing_plan_id":"free"},{"bike_id":"e681931b-b7d0-4b9a-b2d3-c75a8095e3c9","system_id":"levelo_inurba_marseille","lat":43.26554,"lon":5.37286,"is_reserved":false,"is_disabled":false,"rental_uris":{"android":"levelo://app?vid=e681931b-b7d0-4b9a-b2d3-c75a8095e3c9","ios":"levelo://app?vid=e681931b-b7d0-4b9a-b2d3-c75a8095e3c9"},"vehicle_type_id":"4","last_reported":1700499939,"current_range_meters":11600,"station_id":"ce4bhg12rcd13ifvqf70","pricing_plan_id":"free"},{"bike_id":"1716cda1-1aa0-4886-afa7-8df4f0f77633","system_id":"levelo_inurba_marseille","lat":43.2655,"lon":5.37293,"is_reserved":false,"is_disabled":false,"rental_uris":{"android":"levelo://app?vid=1716cda1-1aa0-4886-afa7-8df4f0f77633","ios":"levelo://app?vid=1716cda1-1aa0-4886-afa7-8df4f0f77633"},"vehicle_type_id":"4","last_reported":1700499939,"current_range_meters":16800,"station_id":"ce4bhg12rcd13ifvqf70","pricing_plan_id":"free"},{"bike_id":"c7758cb2-2a45-4f89-aa5c-0e391d845c76","system_id":"levelo_inurba_marseille","lat":43.326053,"lon":5.429943,"is_reserved":false,"is_disabled":false,"rental_uris":{"android":"levelo://app?vid=c7758cb2-2a45-4f89-aa5c-0e391d845c76","ios":"levelo://app?vid=c7758cb2-2a45-4f89-aa5c-0e391d845c76"},"vehicle_type_id":"4","last_reported":1700499939,"current_range_meters":0,"station_id":"","pricing_plan_id":"free"},{"bike_id":"42871d3b-8c03-490f-baf1-f4b57c44a331","system_id":"levelo_inurba_marseille","lat":43.326174,"lon":5.430584,"is_reserved":false,"is_disabled":false,"rental_uris":{"android":"levelo://app?vid=42871d3b-8c03-490f-baf1-f4b57c44a331","ios":"levelo://app?vid=42871d3b-8c03-490f-baf1-f4b57c44a331"},"vehicle_type_id":"4","last_reported":1700499939,"current_range_meters":13600,"station_id":"","pricing_plan_id":"free"},{"bike_id":"3d8cd1dd-874b-4ebe-b5f1-7ba773e21b61","system_id":"levelo_inurba_marseille","lat":43.265569,"lon":5.390047,"is_reserved":false,"is_disabled":false,"rental_uris":{"android":"levelo://app?vid=3d8cd1dd-874b-4ebe-b5f1-7ba773e21b61","ios":"levelo://app?vid=3d8cd1dd-874b-4ebe-b5f1-7ba773e21b61"},"vehicle_type_id":"4","last_reported":1700499939,"current_range_meters":25600,"station_id":"ce4bhe12rcd13ifvqf30","pricing_plan_id":"free"},{"bike_id":"bab9e5d3-a476-4b30-aede-3d66a9938b76","system_id":"levelo_inurba_marseille","lat":43.308051,"lon":5.43527,"is_reserved":false,"is_disabled":false,"rental_uris":{"android":"levelo://app?vid=bab9e5d3-a476-4b30-aede-3d66a9938b76","ios":"levelo://app?vid=bab9e5d3-a476-4b30-aede-3d66a9938b76"},"vehicle_type_id":"4","last_reported":1700499939,"current_range_meters":5200,"station_id":"ce4bhph2rcd13ifvqheg","pricing_plan_id":"free"},{"bike_id":"b2c14fc1-7ad1-45ee-8f05-a044f4db70c3","system_id":"levelo_inurba_marseille","lat":43.30798,"lon":5.43523,"is_reserved":false,"is_disabled":false,"rental_uris":{"android":"levelo://app?vid=b2c14fc1-7ad1-45ee-8f05-a044f4db70c3","ios":"levelo://app?vid=b2c14fc1-7ad1-45ee-8f05-a044f4db70c3"},"vehicle_type_id":"4","last_reported":1700499939,"current_range_meters":0,"station_id":"ce4bhph2rcd13ifvqheg","pricing_plan_id":"free"},{"bike_id":"e0b6e798-96e8-4d3e-97b1-72573e4132fe","system_id":"levelo_inurba_marseille","lat":43.308051,"lon":5.43527,"is_reserved":false,"is_disabled":false,"rental_uris":{"android":"levelo://app?vid=e0b6e798-96e8-4d3e-97b1-72573e4132fe","ios":"levelo://app?vid=e0b6e798-96e8-4d3e-97b1-72573e4132fe"},"vehicle_type_id":"4","last_reported":1700499939,"current_range_meters":20800,"station_id":"ce4bhph2rcd13ifvqheg","pricing_plan_id":"free"},{"bike_id":"046309f8-4385-4cce-bca8-ff1ddbd9c520","system_id":"levelo_inurba_marseille","lat":43.308051,"lon":5.43527,"is_reserved":false,"is_disabled":false,"rental_uris":{"android":"levelo://app?vid=046309f8-4385-4cce-bca8-ff1ddbd9c520","ios":"levelo://app?vid=046309f8-4385-4cce-bca8-ff1ddbd9c520"},"vehicle_type_id":"4","last_reported":1700499939,"current_range_meters":24800,"station_id":"ce4bhph2rcd13ifvqheg","pricing_plan_id":"free"},{"bike_id":"29e029e2-0c63-4ad5-b4cb-22be72c12ad5","system_id":"levelo_inurba_marseille","lat":43.265569,"lon":5.390047,"is_reserved":false,"is_disabled":false,"rental_uris":{"android":"levelo://app?vid=29e029e2-0c63-4ad5-b4cb-22be72c12ad5","ios":"levelo://app?vid=29e029e2-0c63-4ad5-b4cb-22be72c12ad5"},"vehicle_type_id":"4","last_reported":1700499939,"current_range_meters":0,"station_id":"ce4bhe12rcd13ifvqf30","pricing_plan_id":"free"},{"bike_id":"ee3b56a6-2456-48ba-a1d9-b57c41afcc8e","system_id":"levelo_inurba_marseille","lat":43.265569,"lon":5.390047,"is_reserved":false,"is_disabled":false,"rental_uris":{"android":"levelo://app?vid=ee3b56a6-2456-48ba-a1d9-b57c41afcc8e","ios":"levelo://app?vid=ee3b56a6-2456-48ba-a1d9-b57c41afcc8e"},"vehicle_type_id":"4","last_reported":1700499939,"current_range_meters":22800,"station_id":"ce4bhe12rcd13ifvqf30","pricing_plan_id":"free"},{"bike_id":"74f70faa-6c94-4f1c-bb2b-8955960ee015","system_id":"levelo_inurba_marseille","lat":43.26569,"lon":5.390333,"is_reserved":false,"is_disabled":false,"rental_uris":{"android":"levelo://app?vid=74f70faa-6c94-4f1c-bb2b-8955960ee015","ios":"levelo://app?vid=74f70faa-6c94-4f1c-bb2b-8955960ee015"},"vehicle_type_id":"4","last_reported":1700499939,"current_range_meters":0,"station_id":"ce4bhe12rcd13ifvqf30","pricing_plan_id":"free"},{"bike_id":"7bf0fc47-97a5-4f4d-826a-022382cff8a8","system_id":"levelo_inurba_marseille","lat":43.26941,"lon":5.40252,"is_reserved":false,"is_disabled":false,"rental_uris":{"android":"levelo://app?vid=7bf0fc47-97a5-4f4d-826a-022382cff8a8","ios":"levelo://app?vid=7bf0fc47-97a5-4f4d-826a-022382cff8a8"},"vehicle_type_id":"4","last_reported":1700499939,"current_range_meters":0,"station_id":"cjm6bp8fraef2m0cb0m0","pricing_plan_id":"free"},{"bike_id":"3deee417-65cd-4548-86c7-0c1885dc849f","system_id":"levelo_inurba_marseille","lat":43.261782,"lon":5.374515,"is_reserved":false,"is_disabled":false,"rental_uris":{"android":"levelo://app?vid=3deee417-65cd-4548-86c7-0c1885dc849f","ios":"levelo://app?vid=3deee417-65cd-4548-86c7-0c1885dc849f"},"vehicle_type_id":"4","last_reported":1700499939,"current_range_meters":0,"station_id":"ce4bhgp2rcd13ifvqfc0","pricing_plan_id":"free"},{"bike_id":"236158ec-1f94-497c-8221-25efe11e715f","system_id":"levelo_inurba_marseille","lat":43.27177,"lon":5.40995,"is_reserved":false,"is_disabled":false,"rental_uris":{"android":"levelo://app?vid=236158ec-1f94-497c-8221-25efe11e715f","ios":"levelo://app?vid=236158ec-1f94-497c-8221-25efe11e715f"},"vehicle_type_id":"4","last_reported":1700499939,"current_range_meters":2000,"station_id":"ce4bhl12rcd13ifvqgf0","pricing_plan_id":"free"},{"bike_id":"d9f9e691-08ee-4102-b410-cdb1cb5ac975","system_id":"levelo_inurba_marseille","lat":43.271388,"lon":5.409269,"is_reserved":false,"is_disabled":false,"rental_uris":{"android":"levelo://app?vid=d9f9e691-08ee-4102-b410-cdb1cb5ac975","ios":"levelo://app?vid=d9f9e691-08ee-4102-b410-cdb1cb5ac975"},"vehicle_type_id":"4","last_reported":1700499939,"current_range_meters":14800,"station_id":"ce4bhl12rcd13ifvqgf0","pricing_plan_id":"free"},{"bike_id":"cad9f84e-ed20-4df1-95ad-0727e4f38c45","system_id":"levelo_inurba_marseille","lat":43.271388,"lon":5.409269,"is_reserved":false,"is_disabled":false,"rental_uris":{"android":"levelo://app?vid=cad9f84e-ed20-4df1-95ad-0727e4f38c45","ios":"levelo://app?vid=cad9f84e-ed20-4df1-95ad-0727e4f38c45"},"vehicle_type_id":"4","last_reported":1700499939,"current_range_meters":30400,"station_id":"ce4bhl12rcd13ifvqgf0","pricing_plan_id":"free"},{"bike_id":"3a7d226d-0ff0-43a7-a394-06bfa8b3ed74","system_id":"levelo_inurba_marseille","lat":43.267959,"lon":5.402685,"is_reserved":false,"is_disabled":false,"rental_uris":{"android":"levelo://app?vid=3a7d226d-0ff0-43a7-a394-06bfa8b3ed74","ios":"levelo://app?vid=3a7d226d-0ff0-43a7-a394-06bfa8b3ed74"},"vehicle_type_id":"4","last_reported":1700499939,"current_range_meters":25200,"station_id":"ce501612rcd8frsf0b60","pricing_plan_id":"free"},{"bike_id":"89d1a7d2-090d-490f-874c-8f451249b9c9","system_id":"levelo_inurba_marseille","lat":43.267959,"lon":5.402685,"is_reserved":false,"is_disabled":false,"rental_uris":{"android":"levelo://app?vid=89d1a7d2-090d-490f-874c-8f451249b9c9","ios":"levelo://app?vid=89d1a7d2-090d-490f-874c-8f451249b9c9"},"vehicle_type_id":"4","last_reported":1700499939,"current_range_meters":16000,"station_id":"ce501612rcd8frsf0b60","pricing_plan_id":"free"},{"bike_id":"74ce853b-0d8b-42c9-81c8-17a7564a4b34","system_id":"levelo_inurba_marseille","lat":43.31725,"lon":5.43786,"is_reserved":false,"is_disabled":false,"rental_uris":{"android":"levelo://app?vid=74ce853b-0d8b-42c9-81c8-17a7564a4b34","ios":"levelo://app?vid=74ce853b-0d8b-42c9-81c8-17a7564a4b34"},"vehicle_type_id":"4","last_reported":1700499939,"current_range_meters":10000,"station_id":"","pricing_plan_id":"free"},{"bike_id":"62795268-6228-4ab9-a2a1-d237ecb5526e","system_id":"levelo_inurba_marseille","lat":43.31724,"lon":5.43794,"is_reserved":false,"is_disabled":false,"rental_uris":{"android":"levelo://app?vid=62795268-6228-4ab9-a2a1-d237ecb5526e","ios":"levelo://app?vid=62795268-6228-4ab9-a2a1-d237ecb5526e"},"vehicle_type_id":"4","last_reported":1700499939,"current_range_meters":24000,"station_id":"","pricing_plan_id":"free"},{"bike_id":"074d868c-f5b6-48a8-a2dc-f6355a644030","system_id":"levelo_inurba_marseille","lat":43.31732,"lon":5.43796,"is_reserved":false,"is_disabled":false,"rental_uris":{"android":"levelo://app?vid=074d868c-f5b6-48a8-a2dc-f6355a644030","ios":"levelo://app?vid=074d868c-f5b6-48a8-a2dc-f6355a644030"},"vehicle_type_id":"4","last_reported":1700499939,"current_range_meters":0,"station_id":"","pricing_plan_id":"free"},{"bike_id":"26ab2b47-3401-463c-b5d9-b5da82411f1a","system_id":"levelo_inurba_marseille","lat":43.29897,"lon":5.43671,"is_reserved":false,"is_disabled":false,"rental_uris":{"android":"levelo://app?vid=26ab2b47-3401-463c-b5d9-b5da82411f1a","ios":"levelo://app?vid=26ab2b47-3401-463c-b5d9-b5da82411f1a"},"vehicle_type_id":"4","last_reported":1700499939,"current_range_meters":6800,"station_id":"ce4bhpp2rcd13ifvqhfg","pricing_plan_id":"free"},{"bike_id":"c38091d4-196e-46a9-85e8-f6507c5e0233","system_id":"levelo_inurba_marseille","lat":43.29897,"lon":5.43673,"is_reserved":false,"is_disabled":false,"rental_uris":{"android":"levelo://app?vid=c38091d4-196e-46a9-85e8-f6507c5e0233","ios":"levelo://app?vid=c38091d4-196e-46a9-85e8-f6507c5e0233"},"vehicle_type_id":"4","last_reported":1700499939,"current_range_meters":16400,"station_id":"ce4bhpp2rcd13ifvqhfg","pricing_plan_id":"free"},{"bike_id":"4b50d9c0-cf60-4521-b801-fe3a56656a21","system_id":"levelo_inurba_marseille","lat":43.29894,"lon":5.43672,"is_reserved":false,"is_disabled":false,"rental_uris":{"android":"levelo://app?vid=4b50d9c0-cf60-4521-b801-fe3a56656a21","ios":"levelo://app?vid=4b50d9c0-cf60-4521-b801-fe3a56656a21"},"vehicle_type_id":"4","last_reported":1700499939,"current_range_meters":14000,"station_id":"ce4bhpp2rcd13ifvqhfg","pricing_plan_id":"free"},{"bike_id":"6f980f16-6376-4a16-8d50-a80af6b5a6ba","system_id":"levelo_inurba_marseille","lat":43.281548,"lon":5.42643,"is_reserved":false,"is_disabled":false,"rental_uris":{"android":"levelo://app?vid=6f980f16-6376-4a16-8d50-a80af6b5a6ba","ios":"levelo://app?vid=6f980f16-6376-4a16-8d50-a80af6b5a6ba"},"vehicle_type_id":"4","last_reported":1700499939,"current_range_meters":26400,"station_id":"ce4bhnh2rcd13ifvqgug","pricing_plan_id":"free"},{"bike_id":"bd297c3f-87ed-41f6-9b99-6ce3ca31f3df","system_id":"levelo_inurba_marseille","lat":43.281548,"lon":5.42643,"is_reserved":false,"is_disabled":false,"rental_uris":{"android":"levelo://app?vid=bd297c3f-87ed-41f6-9b99-6ce3ca31f3df","ios":"levelo://app?vid=bd297c3f-87ed-41f6-9b99-6ce3ca31f3df"},"vehicle_type_id":"4","last_reported":1700499939,"current_range_meters":31200,"station_id":"ce4bhnh2rcd13ifvqgug","pricing_plan_id":"free"},{"bike_id":"bb9be511-01f9-4e51-961e-d16839319d2d","system_id":"levelo_inurba_marseille","lat":43.281548,"lon":5.42643,"is_reserved":false,"is_disabled":false,"rental_uris":{"android":"levelo://app?vid=bb9be511-01f9-4e51-961e-d16839319d2d","ios":"levelo://app?vid=bb9be511-01f9-4e51-961e-d16839319d2d"},"vehicle_type_id":"4","last_reported":1700499939,"current_range_meters":25200,"station_id":"ce4bhnh2rcd13ifvqgug","pricing_plan_id":"free"},{"bike_id":"083a14ff-f820-488b-8bad-5a89f1d18eaa","system_id":"levelo_inurba_marseille","lat":43.281548,"lon":5.42643,"is_reserved":false,"is_disabled":false,"rental_uris":{"android":"levelo://app?vid=083a14ff-f820-488b-8bad-5a89f1d18eaa","ios":"levelo://app?vid=083a14ff-f820-488b-8bad-5a89f1d18eaa"},"vehicle_type_id":"4","last_reported":1700499939,"current_range_meters":31200,"station_id":"ce4bhnh2rcd13ifvqgug","pricing_plan_id":"free"},{"bike_id":"80abe8d9-b191-4672-9e88-24afd6a1c6b4","system_id":"levelo_inurba_marseille","lat":43.281548,"lon":5.42643,"is_reserved":false,"is_disabled":false,"rental_uris":{"android":"levelo://app?vid=80abe8d9-b191-4672-9e88-24afd6a1c6b4","ios":"levelo://app?vid=80abe8d9-b191-4672-9e88-24afd6a1c6b4"},"vehicle_type_id":"4","last_reported":1700499939,"current_range_meters":30800,"station_id":"ce4bhnh2rcd13ifvqgug","pricing_plan_id":"free"},{"bike_id":"d7b92bae-0216-4559-8d15-dc4cee776298","system_id":"levelo_inurba_marseille","lat":43.281548,"lon":5.42643,"is_reserved":false,"is_disabled":false,"rental_uris":{"android":"levelo://app?vid=d7b92bae-0216-4559-8d15-dc4cee776298","ios":"levelo://app?vid=d7b92bae-0216-4559-8d15-dc4cee776298"},"vehicle_type_id":"4","last_reported":1700499939,"current_range_meters":8800,"station_id":"ce4bhnh2rcd13ifvqgug","pricing_plan_id":"free"},{"bike_id":"e439e5d4-d03b-4296-83ba-ceff072df74b","system_id":"levelo_inurba_marseille","lat":43.260618,"lon":5.39399,"is_reserved":false,"is_disabled":false,"rental_uris":{"android":"levelo://app?vid=e439e5d4-d03b-4296-83ba-ceff072df74b","ios":"levelo://app?vid=e439e5d4-d03b-4296-83ba-ceff072df74b"},"vehicle_type_id":"4","last_reported":1700499939,"current_range_meters":0,"station_id":"ce4bhh92rcd13ifvqfj0","pricing_plan_id":"free"},{"bike_id":"12f25a0c-bf50-4999-beda-c0cf0870c772","system_id":"levelo_inurba_marseille","lat":43.2607,"lon":5.393983,"is_reserved":false,"is_disabled":false,"rental_uris":{"android":"levelo://app?vid=12f25a0c-bf50-4999-beda-c0cf0870c772","ios":"levelo://app?vid=12f25a0c-bf50-4999-beda-c0cf0870c772"},"vehicle_type_id":"4","last_reported":1700499939,"current_range_meters":27600,"station_id":"ce4bhh92rcd13ifvqfj0","pricing_plan_id":"free"},{"bike_id":"e05668aa-0456-4626-b704-f74834a50c55","system_id":"levelo_inurba_marseille","lat":43.26092,"lon":5.39768,"is_reserved":false,"is_disabled":false,"rental_uris":{"android":"levelo://app?vid=e05668aa-0456-4626-b704-f74834a50c55","ios":"levelo://app?vid=e05668aa-0456-4626-b704-f74834a50c55"},"vehicle_type_id":"4","last_reported":1700499939,"current_range_meters":8400,"station_id":"ce4bhi12rcd13ifvqfq0","pricing_plan_id":"free"},{"bike_id":"81db90e0-d4b7-4077-9988-1d8b28c3e583","system_id":"levelo_inurba_marseille","lat":43.25831,"lon":5.39437,"is_reserved":false,"is_disabled":false,"rental_uris":{"android":"levelo://app?vid=81db90e0-d4b7-4077-9988-1d8b28c3e583","ios":"levelo://app?vid=81db90e0-d4b7-4077-9988-1d8b28c3e583"},"vehicle_type_id":"4","last_reported":1700499939,"current_range_meters":0,"station_id":"ce4bhip2rcd13ifvqft0","pricing_plan_id":"free"},{"bike_id":"7f4ea2da-5ee5-4daf-b4e9-52945e6fdac1","system_id":"levelo_inurba_marseille","lat":43.25581,"lon":5.38229,"is_reserved":false,"is_disabled":false,"rental_uris":{"android":"levelo://app?vid=7f4ea2da-5ee5-4daf-b4e9-52945e6fdac1","ios":"levelo://app?vid=7f4ea2da-5ee5-4daf-b4e9-52945e6fdac1"},"vehicle_type_id":"4","last_reported":1700499939,"current_range_meters":4000,"station_id":"ce4bhih2rcd13ifvqfs0","pricing_plan_id":"free"},{"bike_id":"5a0e28f4-7f5e-4d4f-99fd-ceb8c9ba57c3","system_id":"levelo_inurba_marseille","lat":43.25576,"lon":5.38231,"is_reserved":false,"is_disabled":false,"rental_uris":{"android":"levelo://app?vid=5a0e28f4-7f5e-4d4f-99fd-ceb8c9ba57c3","ios":"levelo://app?vid=5a0e28f4-7f5e-4d4f-99fd-ceb8c9ba57c3"},"vehicle_type_id":"4","last_reported":1700499939,"current_range_meters":2400,"station_id":"ce4bhih2rcd13ifvqfs0","pricing_plan_id":"free"},{"bike_id":"5cb8ed14-8926-4a73-9b51-2b9f0ce74846","system_id":"levelo_inurba_marseille","lat":43.25566,"lon":5.38244,"is_reserved":false,"is_disabled":false,"rental_uris":{"android":"levelo://app?vid=5cb8ed14-8926-4a73-9b51-2b9f0ce74846","ios":"levelo://app?vid=5cb8ed14-8926-4a73-9b51-2b9f0ce74846"},"vehicle_type_id":"4","last_reported":1700499939,"current_range_meters":0,"station_id":"ce4bhih2rcd13ifvqfs0","pricing_plan_id":"free"},{"bike_id":"5d94ce1b-b9d5-4d6f-ba8c-acee0b436236","system_id":"levelo_inurba_marseille","lat":43.270721,"lon":5.422764,"is_reserved":false,"is_disabled":false,"rental_uris":{"android":"levelo://app?vid=5d94ce1b-b9d5-4d6f-ba8c-acee0b436236","ios":"levelo://app?vid=5d94ce1b-b9d5-4d6f-ba8c-acee0b436236"},"vehicle_type_id":"4","last_reported":1700499939,"current_range_meters":3200,"station_id":"ce4bhk92rcd13ifvqgb0","pricing_plan_id":"free"},{"bike_id":"5180e714-af13-409d-b7ee-446211c40ceb","system_id":"levelo_inurba_marseille","lat":43.2707,"lon":5.42281,"is_reserved":false,"is_disabled":false,"rental_uris":{"android":"levelo://app?vid=5180e714-af13-409d-b7ee-446211c40ceb","ios":"levelo://app?vid=5180e714-af13-409d-b7ee-446211c40ceb"},"vehicle_type_id":"4","last_reported":1700499939,"current_range_meters":26000,"station_id":"ce4bhk92rcd13ifvqgb0","pricing_plan_id":"free"},{"bike_id":"13c5750e-10f4-4209-acd7-bc84dc417b5f","system_id":"levelo_inurba_marseille","lat":43.259013,"lon":5.409301,"is_reserved":false,"is_disabled":false,"rental_uris":{"android":"levelo://app?vid=13c5750e-10f4-4209-acd7-bc84dc417b5f","ios":"levelo://app?vid=13c5750e-10f4-4209-acd7-bc84dc417b5f"},"vehicle_type_id":"4","last_reported":1700499939,"current_range_meters":2400,"station_id":"ce4bhm92rcd13ifvqglg","pricing_plan_id":"free"},{"bike_id":"4d5a5d8d-5a6e-460b-85a1-ec0a67b5ecd2","system_id":"levelo_inurba_marseille","lat":43.257079,"lon":5.411051,"is_reserved":false,"is_disabled":false,"rental_uris":{"android":"levelo://app?vid=4d5a5d8d-5a6e-460b-85a1-ec0a67b5ecd2","ios":"levelo://app?vid=4d5a5d8d-5a6e-460b-85a1-ec0a67b5ecd2"},"vehicle_type_id":"4","last_reported":1700499939,"current_range_meters":15200,"station_id":"ce4bhkp2rcd13ifvqgd0","pricing_plan_id":"free"},{"bike_id":"53b678cf-6a1f-4b50-b209-238a92d08861","system_id":"levelo_inurba_marseille","lat":43.25722,"lon":5.41105,"is_reserved":false,"is_disabled":false,"rental_uris":{"android":"levelo://app?vid=53b678cf-6a1f-4b50-b209-238a92d08861","ios":"levelo://app?vid=53b678cf-6a1f-4b50-b209-238a92d08861"},"vehicle_type_id":"4","last_reported":1700499939,"current_range_meters":0,"station_id":"ce4bhkp2rcd13ifvqgd0","pricing_plan_id":"free"},{"bike_id":"f5918fea-625d-4e62-8b31-2f7540bf8aed","system_id":"levelo_inurba_marseille","lat":43.257079,"lon":5.411051,"is_reserved":false,"is_disabled":false,"rental_uris":{"android":"levelo://app?vid=f5918fea-625d-4e62-8b31-2f7540bf8aed","ios":"levelo://app?vid=f5918fea-625d-4e62-8b31-2f7540bf8aed"},"vehicle_type_id":"4","last_reported":1700499939,"current_range_meters":14400,"station_id":"ce4bhkp2rcd13ifvqgd0","pricing_plan_id":"free"},{"bike_id":"0db5ca2c-a3aa-4060-ad48-660638d19074","system_id":"levelo_inurba_marseille","lat":43.257079,"lon":5.411051,"is_reserved":false,"is_disabled":false,"rental_uris":{"android":"levelo://app?vid=0db5ca2c-a3aa-4060-ad48-660638d19074","ios":"levelo://app?vid=0db5ca2c-a3aa-4060-ad48-660638d19074"},"vehicle_type_id":"4","last_reported":1700499939,"current_range_meters":31200,"station_id":"ce4bhkp2rcd13ifvqgd0","pricing_plan_id":"free"},{"bike_id":"d14d14c0-82d0-4622-84a6-64415b0c96ec","system_id":"levelo_inurba_marseille","lat":43.250966,"lon":5.395186,"is_reserved":false,"is_disabled":false,"rental_uris":{"android":"levelo://app?vid=d14d14c0-82d0-4622-84a6-64415b0c96ec","ios":"levelo://app?vid=d14d14c0-82d0-4622-84a6-64415b0c96ec"},"vehicle_type_id":"4","last_reported":1700499939,"current_range_meters":10400,"station_id":"ce4bhm12rcd13ifvqgkg","pricing_plan_id":"free"},{"bike_id":"26635c49-bc76-4c10-aa76-40cf8b8ad0e2","system_id":"levelo_inurba_marseille","lat":43.246467,"lon":5.388984,"is_reserved":false,"is_disabled":false,"rental_uris":{"android":"levelo://app?vid=26635c49-bc76-4c10-aa76-40cf8b8ad0e2","ios":"levelo://app?vid=26635c49-bc76-4c10-aa76-40cf8b8ad0e2"},"vehicle_type_id":"4","last_reported":1700499939,"current_range_meters":22400,"station_id":"ce4bhg12rcd13ifvqf60","pricing_plan_id":"free"},{"bike_id":"a8f7d3e6-d3b6-4729-91b0-62ebb60e8bdc","system_id":"levelo_inurba_marseille","lat":43.24665,"lon":5.3816,"is_reserved":false,"is_disabled":false,"rental_uris":{"android":"levelo://app?vid=a8f7d3e6-d3b6-4729-91b0-62ebb60e8bdc","ios":"levelo://app?vid=a8f7d3e6-d3b6-4729-91b0-62ebb60e8bdc"},"vehicle_type_id":"4","last_reported":1700499939,"current_range_meters":21600,"station_id":"ce4bhih2rcd13ifvqfr0","pricing_plan_id":"free"},{"bike_id":"39744755-a042-4245-a952-bc584717e978","system_id":"levelo_inurba_marseille","lat":43.246461,"lon":5.389014,"is_reserved":false,"is_disabled":false,"rental_uris":{"android":"levelo://app?vid=39744755-a042-4245-a952-bc584717e978","ios":"levelo://app?vid=39744755-a042-4245-a952-bc584717e978"},"vehicle_type_id":"4","last_reported":1700499939,"current_range_meters":0,"station_id":"ce4bhg12rcd13ifvqf60","pricing_plan_id":"free"},{"bike_id":"fa8a7c71-6205-49fa-b215-4544db8a8095","system_id":"levelo_inurba_marseille","lat":43.243903,"lon":5.370683,"is_reserved":false,"is_disabled":false,"rental_uris":{"android":"levelo://app?vid=fa8a7c71-6205-49fa-b215-4544db8a8095","ios":"levelo://app?vid=fa8a7c71-6205-49fa-b215-4544db8a8095"},"vehicle_type_id":"4","last_reported":1700499939,"current_range_meters":17200,"station_id":"ce4bhhh2rcd13ifvqfk0","pricing_plan_id":"free"},{"bike_id":"9dc910d3-48b3-45c4-b068-a3145bcd68a2","system_id":"levelo_inurba_marseille","lat":43.24389,"lon":5.37067,"is_reserved":false,"is_disabled":false,"rental_uris":{"android":"levelo://app?vid=9dc910d3-48b3-45c4-b068-a3145bcd68a2","ios":"levelo://app?vid=9dc910d3-48b3-45c4-b068-a3145bcd68a2"},"vehicle_type_id":"4","last_reported":1700499939,"current_range_meters":26000,"station_id":"ce4bhhh2rcd13ifvqfk0","pricing_plan_id":"free"},{"bike_id":"05d046de-dba7-41c9-87cb-1c7b32d01d00","system_id":"levelo_inurba_marseille","lat":43.243884,"lon":5.370736,"is_reserved":false,"is_disabled":false,"rental_uris":{"android":"levelo://app?vid=05d046de-dba7-41c9-87cb-1c7b32d01d00","ios":"levelo://app?vid=05d046de-dba7-41c9-87cb-1c7b32d01d00"},"vehicle_type_id":"4","last_reported":1700499939,"current_range_meters":17200,"station_id":"ce4bhhh2rcd13ifvqfk0","pricing_plan_id":"free"},{"bike_id":"61c8e264-52d7-4398-9c11-2f86a27ec582","system_id":"levelo_inurba_marseille","lat":43.241877,"lon":5.376167,"is_reserved":false,"is_disabled":false,"rental_uris":{"android":"levelo://app?vid=61c8e264-52d7-4398-9c11-2f86a27ec582","ios":"levelo://app?vid=61c8e264-52d7-4398-9c11-2f86a27ec582"},"vehicle_type_id":"4","last_reported":1700499939,"current_range_meters":24800,"station_id":"","pricing_plan_id":"free"},{"bike_id":"18be1912-261e-46b8-89fd-cb512fe6f25d","system_id":"levelo_inurba_marseille","lat":43.23968,"lon":5.36633,"is_reserved":false,"is_disabled":false,"rental_uris":{"android":"levelo://app?vid=18be1912-261e-46b8-89fd-cb512fe6f25d","ios":"levelo://app?vid=18be1912-261e-46b8-89fd-cb512fe6f25d"},"vehicle_type_id":"4","last_reported":1700499939,"current_range_meters":19600,"station_id":"ce4bhi12rcd13ifvqfp0","pricing_plan_id":"free"},{"bike_id":"f73751c9-f9c9-4e7d-acd9-09ca28db8d60","system_id":"levelo_inurba_marseille","lat":43.239588,"lon":5.366238,"is_reserved":false,"is_disabled":false,"rental_uris":{"android":"levelo://app?vid=f73751c9-f9c9-4e7d-acd9-09ca28db8d60","ios":"levelo://app?vid=f73751c9-f9c9-4e7d-acd9-09ca28db8d60"},"vehicle_type_id":"4","last_reported":1700499939,"current_range_meters":22800,"station_id":"ce4bhi12rcd13ifvqfp0","pricing_plan_id":"free"},{"bike_id":"70c9d0cf-31f8-4717-9709-a4714bd87175","system_id":"levelo_inurba_marseille","lat":43.23962,"lon":5.36637,"is_reserved":false,"is_disabled":false,"rental_uris":{"android":"levelo://app?vid=70c9d0cf-31f8-4717-9709-a4714bd87175","ios":"levelo://app?vid=70c9d0cf-31f8-4717-9709-a4714bd87175"},"vehicle_type_id":"4","last_reported":1700499939,"current_range_meters":30800,"station_id":"ce4bhi12rcd13ifvqfp0","pricing_plan_id":"free"},{"bike_id":"51add7fc-0084-4bf4-83b0-f7450f76a745","system_id":"levelo_inurba_marseille","lat":43.23962,"lon":5.36637,"is_reserved":false,"is_disabled":false,"rental_uris":{"android":"levelo://app?vid=51add7fc-0084-4bf4-83b0-f7450f76a745","ios":"levelo://app?vid=51add7fc-0084-4bf4-83b0-f7450f76a745"},"vehicle_type_id":"4","last_reported":1700499939,"current_range_meters":21600,"station_id":"ce4bhi12rcd13ifvqfp0","pricing_plan_id":"free"},{"bike_id":"4370869b-0c59-4e1b-b4c7-59bf3a7bc50e","system_id":"levelo_inurba_marseille","lat":43.241782,"lon":5.397264,"is_reserved":false,"is_disabled":false,"rental_uris":{"android":"levelo://app?vid=4370869b-0c59-4e1b-b4c7-59bf3a7bc50e","ios":"levelo://app?vid=4370869b-0c59-4e1b-b4c7-59bf3a7bc50e"},"vehicle_type_id":"4","last_reported":1700499939,"current_range_meters":6400,"station_id":"ce4bhn12rcd13ifvqgpg","pricing_plan_id":"free"},{"bike_id":"3febe85d-81cc-4ef1-8b5c-cc4ee15e2a16","system_id":"levelo_inurba_marseille","lat":43.231793,"lon":5.400044,"is_reserved":false,"is_disabled":false,"rental_uris":{"android":"levelo://app?vid=3febe85d-81cc-4ef1-8b5c-cc4ee15e2a16","ios":"levelo://app?vid=3febe85d-81cc-4ef1-8b5c-cc4ee15e2a16"},"vehicle_type_id":"4","last_reported":1700499939,"current_range_meters":10800,"station_id":"ce4bhn12rcd13ifvqgqg","pricing_plan_id":"free"},{"bike_id":"e646bc69-963e-47e1-b0af-0ba1463e76b5","system_id":"levelo_inurba_marseille","lat":43.23181,"lon":5.39988,"is_reserved":false,"is_disabled":false,"rental_uris":{"android":"levelo://app?vid=e646bc69-963e-47e1-b0af-0ba1463e76b5","ios":"levelo://app?vid=e646bc69-963e-47e1-b0af-0ba1463e76b5"},"vehicle_type_id":"4","last_reported":1700499939,"current_range_meters":2800,"station_id":"ce4bhn12rcd13ifvqgqg","pricing_plan_id":"free"},{"bike_id":"c64ef884-bb6b-432b-8346-5ac467a02174","system_id":"levelo_inurba_marseille","lat":43.231794,"lon":5.400052,"is_reserved":false,"is_disabled":false,"rental_uris":{"android":"levelo://app?vid=c64ef884-bb6b-432b-8346-5ac467a02174","ios":"levelo://app?vid=c64ef884-bb6b-432b-8346-5ac467a02174"},"vehicle_type_id":"4","last_reported":1700499939,"current_range_meters":30000,"station_id":"ce4bhn12rcd13ifvqgqg","pricing_plan_id":"free"}]}}