{"last_updated":1770326333,"ttl":60,"version":"2.2","data":{"bikes":[{"bike_id":"65ee186a-78c2-4ee4-bd88-c0cb46413bde","system_id":"levelo_inurba_marseille","lat":43.337444,"lon":5.374475,"is_reserved":false,"is_disabled":false,"rental_uris":{"android":"levelo://app?vid=65ee186a-78c2-4ee4-bd88-c0cb46413bde","ios":"levelo://app?vid=65ee186a-78c2-4ee4-bd88-c0cb46413bde"},"vehicle_type_id":"4","last_reported":1770326333,"current_range_meters":0,"station_id":"","pricing_plan_id":"cebpf4jnsgd1na2vs0mg"},{"bike_id":"0d59add4-4b56-4ced-b456-94533a67403b","system_id":"levelo_inurba_marseille","lat":43.23194,"lon":5.35557,"is_reserved":false,"is_disabled":false,"rental_uris":{"android":"levelo://app?vid=0d59add4-4b56-4ced-b456-94533a67403b","ios":"levelo://app?vid=0d59add4-4b56-4ced-b456-94533a67403b"},"vehicle_type_id":"4","last_reported":1770326333,"current_range_meters":2800,"station_id":"ce4bhu92rcd13ifvqi70","pricing_plan_id":"cebpf4jnsgd1na2vs0mg"},{"bike_id":"20f4c40b-7d3e-4630-9091-0939b9dfbdc8","system_id":"levelo_inurba_marseille","lat":43.23389,"lon":5.41243,"is_reserved":false,"is_disabled":false,"rental_uris":{"android":"levelo://app?vid=20f4c40b-7d3e-4630-9091-0939b9dfbdc8","ios":"levelo://app?vid=20f4c40b-7d3e-4630-9091-0939b9dfbdc8"},"vehicle_type_id":"4","last_reported":1770326333,"current_range_meters":2800,"station_id":"","pricing_plan_id":"cebpf4jnsgd1na2vs0mg"},{"bike_id":"266aac9e-9d44-4b0e-8434-24996071d5c1","system_id":"levelo_inurba_marseille","lat":43.24823,"lon":5.37465,"is_reserved":false,"is_disabled":false,"rental_uris":{"android":"levelo://app?vid=266aac9e-9d44-4b0e-8434-24996071d5c1","ios":"levelo://app?vid=266aac9e-9d44-4b0e-8434-24996071d5c1"},"vehicle_type_id":"4","last_reported":1770326333,"current_range_meters":2800,"station_id":"ce4bhgh2rcd13ifvqfb0","pricing_plan_id":"cebpf4jnsgd1na2vs0mg"},{"bike_id":"26de608a-417a-4f44-9b58-9df3fe116f02","system_id":"levelo_inurba_marseille","lat":43.31275,"lon":5.4016,"is_reserved":false,"is_disabled":false,"rental_uris":{"android":"levelo://app?vid=26de608a-417a-4f44-9b58-9df3fe116f02","ios":"levelo://app?vid=26de608a-417a-4f44-9b58-9df3fe116f02"},"vehicle_type_id":"4","last_reported":1770326333,"current_range_meters":2800,"station_id":"ce4bh092rcd13ifvqd30","pricing_plan_id":"cebpf4jnsgd1na2vs0mg"},{"bike_id":"34df15e6-383c-4086-bbca-19e22dc5efa8","system_id":"levelo_inurba_marseille","lat":43.31067,"lon":5.38345,"is_reserved":false,"is_disabled":false,"rental_uris":{"android":"levelo://app?vid=34df15e6-383c-4086-bbca-19e22dc5efa8","ios":"levelo://app?vid=34df15e6-383c-4086-bbca-19e22dc5efa8"},"vehicle_type_id":"4","last_reported":1770326333,"current_range_meters":2800,"station_id":"ce4bgv92rcd13ifvqcr0","pricing_plan_id":"cebpf4jnsgd1na2vs0mg"},{"bike_id":"b55cf58b-0b2d-45d8-b9da-9cab3935aa03","system_id":"levelo_inurba_marseille","lat":43.23045,"lon":5.35522,"is_reserved":false,"is_disabled":false,"rental_uris":{"android":"levelo://app?vid=b55cf58b-0b2d-45d8-b9da-9cab3935aa03","ios":"levelo://app?vid=b55cf58b-0b2d-45d8-b9da-9cab3935aa03"},"vehicle_type_id":"4","last_reported":1770326333,"current_range_meters":3200,"station_id":"cpo3342slgdg3j2ifvpg","pricing_plan_id":"cebpf4jnsgd1na2vs0mg"},{"bike_id":"81843b81-dc05-4822-ac46-ea3aebd24a78","system_id":"levelo_inurba_marseille","lat":43.32354,"lon":5.36718,"is_reserved":false,"is_disabled":false,"rental_uris":{"android":"levelo://app?vid=81843b81-dc05-4822-ac46-ea3aebd24a78","ios":"levelo://app?vid=81843b81-dc05-4822-ac46-ea3aebd24a78"},"vehicle_type_id":"4","last_reported":1770326333,"current_range_meters":3200,"station_id":"ce4bhsh2rcd13ifvqi2g","pricing_plan_id":"cebpf4jnsgd1na2vs0mg"},{"bike_id":"da4d19a5-63fa-471e-bc87-bb23db14643b","system_id":"levelo_inurba_marseille","lat":43.29547,"lon":5.42501,"is_reserved":false,"is_disabled":false,"rental_uris":{"android":"levelo://app?vid=da4d19a5-63fa-471e-bc87-bb23db14643b","ios":"levelo://app?vid=da4d19a5-63fa-471e-bc87-bb23db14643b"},"vehicle_type_id":"4","last_reported":1770326333,"current_range_meters":3200,"station_id":"","pricing_plan_id":"cebpf4jnsgd1na2vs0mg"},{"bike_id":"e44e7816-6809-4e44-b512-aba042c8c26b","system_id":"levelo_inurba_marseille","lat":43.25828,"lon":5.39451,"is_reserved":false,"is_disabled":false,"rental_uris":{"android":"levelo://app?vid=e44e7816-6809-4e44-b512-aba042c8c26b","ios":"levelo://app?vid=e44e7816-6809-4e44-b512-aba042c8c26b"},"vehicle_type_id":"4","last_reported":1770326333,"current_range_meters":3200,"station_id":"ce4bhip2rcd13ifvqft0","pricing_plan_id":"cebpf4jnsgd1na2vs0mg"},{"bike_id":"0f89d917-71ef-437b-ba7e-068f36a3eb29","system_id":"levelo_inurba_marseille","lat":43.26552,"lon":5.37325,"is_reserved":false,"is_disabled":false,"rental_uris":{"android":"levelo://app?vid=0f89d917-71ef-437b-ba7e-068f36a3eb29","ios":"levelo://app?vid=0f89d917-71ef-437b-ba7e-068f36a3eb29"},"vehicle_type_id":"4","last_reported":1770326333,"current_range_meters":3600,"station_id":"ce4bhg12rcd13ifvqf70","pricing_plan_id":"cebpf4jnsgd1na2vs0mg"},{"bike_id":"b9c54d71-b274-44fd-8144-415c119a033d","system_id":"levelo_inurba_marseille","lat":43.29049,"lon":5.37574,"is_reserved":false,"is_disabled":false,"rental_uris":{"android":"levelo://app?vid=b9c54d71-b274-44fd-8144-415c119a033d","ios":"levelo://app?vid=b9c54d71-b274-44fd-8144-415c119a033d"},"vehicle_type_id":"4","last_reported":1770326333,"current_range_meters":3600,"station_id":"ce4bh692rcd13ifvqe90","pricing_plan_id":"cebpf4jnsgd1na2vs0mg"},{"bike_id":"396d77a8-72d3-4d2e-ab48-19a5300d2aa8","system_id":"levelo_inurba_marseille","lat":43.26569,"lon":5.37318,"is_reserved":false,"is_disabled":false,"rental_uris":{"android":"levelo://app?vid=396d77a8-72d3-4d2e-ab48-19a5300d2aa8","ios":"levelo://app?vid=396d77a8-72d3-4d2e-ab48-19a5300d2aa8"},"vehicle_type_id":"4","last_reported":1770326333,"current_range_meters":3600,"station_id":"ce4bhg12rcd13ifvqf70","pricing_plan_id":"cebpf4jnsgd1na2vs0mg"},{"bike_id":"1568117c-b310-4e68-8485-48a96971d76e","system_id":"levelo_inurba_marseille","lat":43.311129,"lon":5.377621,"is_reserved":false,"is_disabled":false,"rental_uris":{"android":"levelo://app?vid=1568117c-b310-4e68-8485-48a96971d76e","ios":"levelo://app?vid=1568117c-b310-4e68-8485-48a96971d76e"},"vehicle_type_id":"4","last_reported":1770326333,"current_range_meters":3600,"station_id":"ce4bgt92rcd13ifvqcg0","pricing_plan_id":"cebpf4jnsgd1na2vs0mg"},{"bike_id":"ba026296-0b79-4304-a533-fb1d0518e7e1","system_id":"levelo_inurba_marseille","lat":43.27628,"lon":5.41251,"is_reserved":false,"is_disabled":false,"rental_uris":{"android":"levelo://app?vid=ba026296-0b79-4304-a533-fb1d0518e7e1","ios":"levelo://app?vid=ba026296-0b79-4304-a533-fb1d0518e7e1"},"vehicle_type_id":"4","last_reported":1770326333,"current_range_meters":3600,"station_id":"","pricing_plan_id":"cebpf4jnsgd1na2vs0mg"},{"bike_id":"a8d42293-5b3f-4c0d-8c2f-19630ce39c3d","system_id":"levelo_inurba_marseille","lat":43.32305,"lon":5.3826,"is_reserved":false,"is_disabled":false,"rental_uris":{"android":"levelo://app?vid=a8d42293-5b3f-4c0d-8c2f-19630ce39c3d","ios":"levelo://app?vid=a8d42293-5b3f-4c0d-8c2f-19630ce39c3d"},"vehicle_type_id":"4","last_reported":1770326333,"current_range_meters":4000,"station_id":"ce4bhr12rcd13ifvqhqg","pricing_plan_id":"cebpf4jnsgd1na2vs0mg"},{"bike_id":"b88ca08c-66c2-495c-a43a-08063258e8a0","system_id":"levelo_inurba_marseille","lat":43.26199,"lon":5.37429,"is_reserved":false,"is_disabled":false,"rental_uris":{"android":"levelo://app?vid=b88ca08c-66c2-495c-a43a-08063258e8a0","ios":"levelo://app?vid=b88ca08c-66c2-495c-a43a-08063258e8a0"},"vehicle_type_id":"4","last_reported":1770326333,"current_range_meters":4000,"station_id":"ce4bhgp2rcd13ifvqfc0","pricing_plan_id":"cebpf4jnsgd1na2vs0mg"},{"bike_id":"2bf19671-0061-46e9-83e3-55d71bb70148","system_id":"levelo_inurba_marseille","lat":43.2293,"lon":5.354,"is_reserved":false,"is_disabled":false,"rental_uris":{"android":"levelo://app?vid=2bf19671-0061-46e9-83e3-55d71bb70148","ios":"levelo://app?vid=2bf19671-0061-46e9-83e3-55d71bb70148"},"vehicle_type_id":"4","last_reported":1770326333,"current_range_meters":4000,"station_id":"cpo3532slgdg3j2ikp40","pricing_plan_id":"cebpf4jnsgd1na2vs0mg"},{"bike_id":"f7d0906b-23c2-4d3f-bf41-7c900c058085","system_id":"levelo_inurba_marseille","lat":43.28034,"lon":5.42201,"is_reserved":false,"is_disabled":false,"rental_uris":{"android":"levelo://app?vid=f7d0906b-23c2-4d3f-bf41-7c900c058085","ios":"levelo://app?vid=f7d0906b-23c2-4d3f-bf41-7c900c058085"},"vehicle_type_id":"4","last_reported":1770326333,"current_range_meters":4000,"station_id":"","pricing_plan_id":"cebpf4jnsgd1na2vs0mg"},{"bike_id":"9f694840-21de-471c-a523-056ab8b0016d","system_id":"levelo_inurba_marseille","lat":43.30495,"lon":5.36506,"is_reserved":false,"is_disabled":false,"rental_uris":{"android":"levelo://app?vid=9f694840-21de-471c-a523-056ab8b0016d","ios":"levelo://app?vid=9f694840-21de-471c-a523-056ab8b0016d"},"vehicle_type_id":"4","last_reported":1770326333,"current_range_meters":4000,"station_id":"ce4bgs12rcd13ifvqcag","pricing_plan_id":"cebpf4jnsgd1na2vs0mg"},{"bike_id":"4b2a48df-3b5a-45c8-9f5f-d7752b8a38f6","system_id":"levelo_inurba_marseille","lat":43.27385,"lon":5.36256,"is_reserved":false,"is_disabled":false,"rental_uris":{"android":"levelo://app?vid=4b2a48df-3b5a-45c8-9f5f-d7752b8a38f6","ios":"levelo://app?vid=4b2a48df-3b5a-45c8-9f5f-d7752b8a38f6"},"vehicle_type_id":"4","last_reported":1770326333,"current_range_meters":4000,"station_id":"ce4bhbh2rcd13ifvqeo0","pricing_plan_id":"cebpf4jnsgd1na2vs0mg"},{"bike_id":"3a4b7fad-d353-4ccb-8488-6ee8991487ab","system_id":"levelo_inurba_marseille","lat":43.23169,"lon":5.35566,"is_reserved":false,"is_disabled":false,"rental_uris":{"android":"levelo://app?vid=3a4b7fad-d353-4ccb-8488-6ee8991487ab","ios":"levelo://app?vid=3a4b7fad-d353-4ccb-8488-6ee8991487ab"},"vehicle_type_id":"4","last_reported":1770326333,"current_range_meters":4400,"station_id":"ce4bhu92rcd13ifvqi70","pricing_plan_id":"cebpf4jnsgd1na2vs0mg"},{"bike_id":"85ea35d2-3956-47f8-af2a-f5d40ff2980c","system_id":"levelo_inurba_marseille","lat":43.28463,"lon":5.48428,"is_reserved":false,"is_disabled":false,"rental_uris":{"android":"levelo://app?vid=85ea35d2-3956-47f8-af2a-f5d40ff2980c","ios":"levelo://app?vid=85ea35d2-3956-47f8-af2a-f5d40ff2980c"},"vehicle_type_id":"4","last_reported":1770326333,"current_range_meters":4400,"station_id":"st_d3svhcjqgbts73a3dn0g","pricing_plan_id":"cebpf4jnsgd1na2vs0mg"},{"bike_id":"4d350dd5-1d0c-4f30-bcca-d47f25924eb4","system_id":"levelo_inurba_marseille","lat":43.26375,"lon":5.41049,"is_reserved":false,"is_disabled":false,"rental_uris":{"android":"levelo://app?vid=4d350dd5-1d0c-4f30-bcca-d47f25924eb4","ios":"levelo://app?vid=4d350dd5-1d0c-4f30-bcca-d47f25924eb4"},"vehicle_type_id":"4","last_reported":1770326333,"current_range_meters":4400,"station_id":"st_d4e5ca6na9uc73bfl5fg","pricing_plan_id":"cebpf4jnsgd1na2vs0mg"},{"bike_id":"9c97ed08-c8de-49a9-b037-9c50c2f5044c","system_id":"levelo_inurba_marseille","lat":43.29428,"lon":5.41324,"is_reserved":false,"is_disabled":false,"rental_uris":{"android":"levelo://app?vid=9c97ed08-c8de-49a9-b037-9c50c2f5044c","ios":"levelo://app?vid=9c97ed08-c8de-49a9-b037-9c50c2f5044c"},"vehicle_type_id":"4","last_reported":1770326333,"current_range_meters":4400,"station_id":"","pricing_plan_id":"cebpf4jnsgd1na2vs0mg"},{"bike_id":"3908cbcd-f917-488c-b728-c8cf2d24bae6","system_id":"levelo_inurba_marseille","lat":43.2848,"lon":5.3843,"is_reserved":false,"is_disabled":false,"rental_uris":{"android":"levelo://app?vid=3908cbcd-f917-488c-b728-c8cf2d24bae6","ios":"levelo://app?vid=3908cbcd-f917-488c-b728-c8cf2d24bae6"},"vehicle_type_id":"4","last_reported":1770326333,"current_range_meters":4400,"station_id":"ce4bh512rcd13ifvqe3g","pricing_plan_id":"cebpf4jnsgd1na2vs0mg"},{"bike_id":"453579d7-6663-41ac-8c92-337a0b82bafa","system_id":"levelo_inurba_marseille","lat":43.24016,"lon":5.37789,"is_reserved":false,"is_disabled":false,"rental_uris":{"android":"levelo://app?vid=453579d7-6663-41ac-8c92-337a0b82bafa","ios":"levelo://app?vid=453579d7-6663-41ac-8c92-337a0b82bafa"},"vehicle_type_id":"4","last_reported":1770326333,"current_range_meters":4400,"station_id":"","pricing_plan_id":"cebpf4jnsgd1na2vs0mg"},{"bike_id":"2e03d4d7-88ca-4991-bee2-f08d03270792","system_id":"levelo_inurba_marseille","lat":43.24631,"lon":5.43144,"is_reserved":false,"is_disabled":false,"rental_uris":{"android":"levelo://app?vid=2e03d4d7-88ca-4991-bee2-f08d03270792","ios":"levelo://app?vid=2e03d4d7-88ca-4991-bee2-f08d03270792"},"vehicle_type_id":"4","last_reported":1770326333,"current_range_meters":4800,"station_id":"st_d2m6c4gdas8pm72e190g","pricing_plan_id":"cebpf4jnsgd1na2vs0mg"},{"bike_id":"3f3e3bb5-fe50-47a1-937c-b8f922158a85","system_id":"levelo_inurba_marseille","lat":43.31406,"lon":5.36775,"is_reserved":false,"is_disabled":false,"rental_uris":{"android":"levelo://app?vid=3f3e3bb5-fe50-47a1-937c-b8f922158a85","ios":"levelo://app?vid=3f3e3bb5-fe50-47a1-937c-b8f922158a85"},"vehicle_type_id":"4","last_reported":1770326333,"current_range_meters":4800,"station_id":"","pricing_plan_id":"cebpf4jnsgd1na2vs0mg"},{"bike_id":"8c4f3709-34c6-4328-bbc8-a2829c478ae5","system_id":"levelo_inurba_marseille","lat":43.29046,"lon":5.39966,"is_reserved":false,"is_disabled":false,"rental_uris":{"android":"levelo://app?vid=8c4f3709-34c6-4328-bbc8-a2829c478ae5","ios":"levelo://app?vid=8c4f3709-34c6-4328-bbc8-a2829c478ae5"},"vehicle_type_id":"4","last_reported":1770326333,"current_range_meters":4800,"station_id":"ce4bh392rcd13ifvqdm0","pricing_plan_id":"cebpf4jnsgd1na2vs0mg"},{"bike_id":"8f6d4248-09a7-4281-8810-e268fbb5b06d","system_id":"levelo_inurba_marseille","lat":43.2734,"lon":5.39102,"is_reserved":false,"is_disabled":false,"rental_uris":{"android":"levelo://app?vid=8f6d4248-09a7-4281-8810-e268fbb5b06d","ios":"levelo://app?vid=8f6d4248-09a7-4281-8810-e268fbb5b06d"},"vehicle_type_id":"4","last_reported":1770326333,"current_range_meters":4800,"station_id":"ce4bhgp2rcd13ifvqfe0","pricing_plan_id":"cebpf4jnsgd1na2vs0mg"},{"bike_id":"37867e40-4e69-4e30-9726-c1f71541de4c","system_id":"levelo_inurba_marseille","lat":43.30909,"lon":5.37193,"is_reserved":false,"is_disabled":false,"rental_uris":{"android":"levelo://app?vid=37867e40-4e69-4e30-9726-c1f71541de4c","ios":"levelo://app?vid=37867e40-4e69-4e30-9726-c1f71541de4c"},"vehicle_type_id":"4","last_reported":1770326333,"current_range_meters":4800,"station_id":"ce4bguh2rcd13ifvqckg","pricing_plan_id":"cebpf4jnsgd1na2vs0mg"},{"bike_id":"7fbd773a-ead8-4986-b314-7128a30b2911","system_id":"levelo_inurba_marseille","lat":43.24471,"lon":5.42546,"is_reserved":false,"is_disabled":false,"rental_uris":{"android":"levelo://app?vid=7fbd773a-ead8-4986-b314-7128a30b2911","ios":"levelo://app?vid=7fbd773a-ead8-4986-b314-7128a30b2911"},"vehicle_type_id":"4","last_reported":1770326333,"current_range_meters":4800,"station_id":"","pricing_plan_id":"cebpf4jnsgd1na2vs0mg"},{"bike_id":"509f5227-412b-4f49-ba1f-662d17f19564","system_id":"levelo_inurba_marseille","lat":43.27782,"lon":5.35534,"is_reserved":false,"is_disabled":true,"rental_uris":{"android":"levelo://app?vid=509f5227-412b-4f49-ba1f-662d17f19564","ios":"levelo://app?vid=509f5227-412b-4f49-ba1f-662d17f19564"},"vehicle_type_id":"4","last_reported":1770326333,"current_range_meters":5600,"station_id":"","pricing_plan_id":"cebpf4jnsgd1na2vs0mg"},{"bike_id":"dd80c901-c2fa-47d4-ae61-a97431ae582b","system_id":"levelo_inurba_marseille","lat":43.216357,"lon":5.346536,"is_reserved":false,"is_disabled":false,"rental_uris":{"android":"levelo://app?vid=dd80c901-c2fa-47d4-ae61-a97431ae582b","ios":"levelo://app?vid=dd80c901-c2fa-47d4-ae61-a97431ae582b"},"vehicle_type_id":"4","last_reported":1770326333,"current_range_meters":5600,"station_id":"","pricing_plan_id":"cebpf4jnsgd1na2vs0mg"},{"bike_id":"0283ffef-c089-4995-be7d-ccf4e6234fb0","system_id":"levelo_inurba_marseille","lat":43.24399,"lon":5.37019,"is_reserved":false,"is_disabled":false,"rental_uris":{"android":"levelo://app?vid=0283ffef-c089-4995-be7d-ccf4e6234fb0","ios":"levelo://app?vid=0283ffef-c089-4995-be7d-ccf4e6234fb0"},"vehicle_type_id":"4","last_reported":1770326333,"current_range_meters":5600,"station_id":"ce4bhhh2rcd13ifvqfk0","pricing_plan_id":"cebpf4jnsgd1na2vs0mg"},{"bike_id":"d2ac561b-b53e-4ec0-962f-6e5e55ed7181","system_id":"levelo_inurba_marseille","lat":43.31176,"lon":5.38697,"is_reserved":false,"is_disabled":false,"rental_uris":{"android":"levelo://app?vid=d2ac561b-b53e-4ec0-962f-6e5e55ed7181","ios":"levelo://app?vid=d2ac561b-b53e-4ec0-962f-6e5e55ed7181"},"vehicle_type_id":"4","last_reported":1770326333,"current_range_meters":5600,"station_id":"ce4bgv12rcd13ifvqcp0","pricing_plan_id":"cebpf4jnsgd1na2vs0mg"},{"bike_id":"d54d1be8-869f-4c63-b314-8eb80f9babad","system_id":"levelo_inurba_marseille","lat":43.22937,"lon":5.35391,"is_reserved":false,"is_disabled":false,"rental_uris":{"android":"levelo://app?vid=d54d1be8-869f-4c63-b314-8eb80f9babad","ios":"levelo://app?vid=d54d1be8-869f-4c63-b314-8eb80f9babad"},"vehicle_type_id":"4","last_reported":1770326333,"current_range_meters":5600,"station_id":"cpo3532slgdg3j2ikp40","pricing_plan_id":"cebpf4jnsgd1na2vs0mg"},{"bike_id":"bf0b7d00-0741-403e-9b41-d44cd83fcd1f","system_id":"levelo_inurba_marseille","lat":43.31542,"lon":5.36744,"is_reserved":false,"is_disabled":false,"rental_uris":{"android":"levelo://app?vid=bf0b7d00-0741-403e-9b41-d44cd83fcd1f","ios":"levelo://app?vid=bf0b7d00-0741-403e-9b41-d44cd83fcd1f"},"vehicle_type_id":"4","last_reported":1770326333,"current_range_meters":5600,"station_id":"","pricing_plan_id":"cebpf4jnsgd1na2vs0mg"},{"bike_id":"a03a0587-26a0-4743-94df-85cf192becc0","system_id":"levelo_inurba_marseille","lat":43.33543,"lon":5.37479,"is_reserved":false,"is_disabled":false,"rental_uris":{"android":"levelo://app?vid=a03a0587-26a0-4743-94df-85cf192becc0","ios":"levelo://app?vid=a03a0587-26a0-4743-94df-85cf192becc0"},"vehicle_type_id":"4","last_reported":1770326333,"current_range_meters":5600,"station_id":"st_d46tts09ee8s73dlu43g","pricing_plan_id":"cebpf4jnsgd1na2vs0mg"},{"bike_id":"376d8a1b-0cf9-48f8-bc9b-caf6a5030519","system_id":"levelo_inurba_marseille","lat":43.28472,"lon":5.38718,"is_reserved":false,"is_disabled":false,"rental_uris":{"android":"levelo://app?vid=376d8a1b-0cf9-48f8-bc9b-caf6a5030519","ios":"levelo://app?vid=376d8a1b-0cf9-48f8-bc9b-caf6a5030519"},"vehicle_type_id":"4","last_reported":1770326333,"current_range_meters":5600,"station_id":"","pricing_plan_id":"cebpf4jnsgd1na2vs0mg"},{"bike_id":"50b5ba33-2d30-49ec-908f-ddccb2ccfbee","system_id":"levelo_inurba_marseille","lat":43.30945,"lon":5.39033,"is_reserved":false,"is_disabled":false,"rental_uris":{"android":"levelo://app?vid=50b5ba33-2d30-49ec-908f-ddccb2ccfbee","ios":"levelo://app?vid=50b5ba33-2d30-49ec-908f-ddccb2ccfbee"},"vehicle_type_id":"4","last_reported":1770326333,"current_range_meters":6000,"station_id":"ce4bgup2rcd13ifvqco0","pricing_plan_id":"cebpf4jnsgd1na2vs0mg"},{"bike_id":"2d36a833-9c1e-4986-b296-52f4e681367f","system_id":"levelo_inurba_marseille","lat":43.23179,"lon":5.43698,"is_reserved":false,"is_disabled":false,"rental_uris":{"android":"levelo://app?vid=2d36a833-9c1e-4986-b296-52f4e681367f","ios":"levelo://app?vid=2d36a833-9c1e-4986-b296-52f4e681367f"},"vehicle_type_id":"4","last_reported":1770326333,"current_range_meters":6000,"station_id":"ce4bhmp2rcd13ifvqgog","pricing_plan_id":"cebpf4jnsgd1na2vs0mg"},{"bike_id":"d3bc02b6-a140-4989-acaf-9f7582c73d4a","system_id":"levelo_inurba_marseille","lat":43.22577,"lon":5.41654,"is_reserved":false,"is_disabled":false,"rental_uris":{"android":"levelo://app?vid=d3bc02b6-a140-4989-acaf-9f7582c73d4a","ios":"levelo://app?vid=d3bc02b6-a140-4989-acaf-9f7582c73d4a"},"vehicle_type_id":"4","last_reported":1770326333,"current_range_meters":6000,"station_id":"st_d2o4gvlbi1j2169b742g","pricing_plan_id":"cebpf4jnsgd1na2vs0mg"},{"bike_id":"b7fceb7d-5c94-4236-913d-205150a917a2","system_id":"levelo_inurba_marseille","lat":43.24467,"lon":5.4254,"is_reserved":false,"is_disabled":false,"rental_uris":{"android":"levelo://app?vid=b7fceb7d-5c94-4236-913d-205150a917a2","ios":"levelo://app?vid=b7fceb7d-5c94-4236-913d-205150a917a2"},"vehicle_type_id":"4","last_reported":1770326333,"current_range_meters":6000,"station_id":"st_d4a3vfp97mjs738cd8kg","pricing_plan_id":"cebpf4jnsgd1na2vs0mg"},{"bike_id":"38712b4b-754b-41b9-9f4d-8f2f4069c5f1","system_id":"levelo_inurba_marseille","lat":43.29922,"lon":5.3745,"is_reserved":false,"is_disabled":true,"rental_uris":{"android":"levelo://app?vid=38712b4b-754b-41b9-9f4d-8f2f4069c5f1","ios":"levelo://app?vid=38712b4b-754b-41b9-9f4d-8f2f4069c5f1"},"vehicle_type_id":"4","last_reported":1770326333,"current_range_meters":6000,"station_id":"ce4bgjh2rcd13ifvqbg0","pricing_plan_id":"cebpf4jnsgd1na2vs0mg"},{"bike_id":"2774ecb4-96b9-4fa8-bf0f-c474056a5b8d","system_id":"levelo_inurba_marseille","lat":43.24819,"lon":5.37461,"is_reserved":false,"is_disabled":false,"rental_uris":{"android":"levelo://app?vid=2774ecb4-96b9-4fa8-bf0f-c474056a5b8d","ios":"levelo://app?vid=2774ecb4-96b9-4fa8-bf0f-c474056a5b8d"},"vehicle_type_id":"4","last_reported":1770326333,"current_range_meters":6000,"station_id":"ce4bhgh2rcd13ifvqfb0","pricing_plan_id":"cebpf4jnsgd1na2vs0mg"},{"bike_id":"c3f43aa2-1ae1-41b3-a072-0f15c8d488c0","system_id":"levelo_inurba_marseille","lat":43.28484,"lon":5.43743,"is_reserved":false,"is_disabled":false,"rental_uris":{"android":"levelo://app?vid=c3f43aa2-1ae1-41b3-a072-0f15c8d488c0","ios":"levelo://app?vid=c3f43aa2-1ae1-41b3-a072-0f15c8d488c0"},"vehicle_type_id":"4","last_reported":1770326333,"current_range_meters":6000,"station_id":"","pricing_plan_id":"cebpf4jnsgd1na2vs0mg"},{"bike_id":"1be79b39-519d-4004-8fc8-79c55282c459","system_id":"levelo_inurba_marseille","lat":43.24172,"lon":5.36398,"is_reserved":false,"is_disabled":false,"rental_uris":{"android":"levelo://app?vid=1be79b39-519d-4004-8fc8-79c55282c459","ios":"levelo://app?vid=1be79b39-519d-4004-8fc8-79c55282c459"},"vehicle_type_id":"4","last_reported":1770326333,"current_range_meters":6000,"station_id":"cpo36qri1sfpv3e86is0","pricing_plan_id":"cebpf4jnsgd1na2vs0mg"},{"bike_id":"c54292e3-065f-4936-9d5e-2b6c416dceb3","system_id":"levelo_inurba_marseille","lat":43.23157,"lon":5.43687,"is_reserved":false,"is_disabled":false,"rental_uris":{"android":"levelo://app?vid=c54292e3-065f-4936-9d5e-2b6c416dceb3","ios":"levelo://app?vid=c54292e3-065f-4936-9d5e-2b6c416dceb3"},"vehicle_type_id":"4","last_reported":1770326333,"current_range_meters":6400,"station_id":"ce4bhmp2rcd13ifvqgog","pricing_plan_id":"cebpf4jnsgd1na2vs0mg"},{"bike_id":"e3818fee-bf5a-4fee-b7f1-bb17fc6a2b0a","system_id":"levelo_inurba_marseille","lat":43.29821,"lon":5.38075,"is_reserved":false,"is_disabled":false,"rental_uris":{"android":"levelo://app?vid=e3818fee-bf5a-4fee-b7f1-bb17fc6a2b0a","ios":"levelo://app?vid=e3818fee-bf5a-4fee-b7f1-bb17fc6a2b0a"},"vehicle_type_id":"4","last_reported":1770326333,"current_range_meters":6400,"station_id":"ce4bgip2rcd13ifvqbb0","pricing_plan_id":"cebpf4jnsgd1na2vs0mg"},{"bike_id":"9b2c2ebb-2ef7-4ce5-ac2e-857f1e92fd7f","system_id":"levelo_inurba_marseille","lat":43.305507,"lon":5.365467,"is_reserved":false,"is_disabled":false,"rental_uris":{"android":"levelo://app?vid=9b2c2ebb-2ef7-4ce5-ac2e-857f1e92fd7f","ios":"levelo://app?vid=9b2c2ebb-2ef7-4ce5-ac2e-857f1e92fd7f"},"vehicle_type_id":"4","last_reported":1770326333,"current_range_meters":6400,"station_id":"ce4bgs12rcd13ifvqcag","pricing_plan_id":"cebpf4jnsgd1na2vs0mg"},{"bike_id":"578bdaf6-a168-444a-bae8-57d6d1727056","system_id":"levelo_inurba_marseille","lat":43.30424,"lon":5.41301,"is_reserved":false,"is_disabled":false,"rental_uris":{"android":"levelo://app?vid=578bdaf6-a168-444a-bae8-57d6d1727056","ios":"levelo://app?vid=578bdaf6-a168-444a-bae8-57d6d1727056"},"vehicle_type_id":"4","last_reported":1770326333,"current_range_meters":6400,"station_id":"ce4bhop2rcd13ifvqh8g","pricing_plan_id":"cebpf4jnsgd1na2vs0mg"},{"bike_id":"6bf13c7b-58cc-40cf-ba04-3d8e54df3528","system_id":"levelo_inurba_marseille","lat":43.31074,"lon":5.37179,"is_reserved":false,"is_disabled":false,"rental_uris":{"android":"levelo://app?vid=6bf13c7b-58cc-40cf-ba04-3d8e54df3528","ios":"levelo://app?vid=6bf13c7b-58cc-40cf-ba04-3d8e54df3528"},"vehicle_type_id":"4","last_reported":1770326333,"current_range_meters":6400,"station_id":"st_d4kl2rp97mjs73e7tdfg","pricing_plan_id":"cebpf4jnsgd1na2vs0mg"},{"bike_id":"523eb44b-649e-4c8f-8f3d-01f6b03f6507","system_id":"levelo_inurba_marseille","lat":43.28169,"lon":5.4266,"is_reserved":false,"is_disabled":false,"rental_uris":{"android":"levelo://app?vid=523eb44b-649e-4c8f-8f3d-01f6b03f6507","ios":"levelo://app?vid=523eb44b-649e-4c8f-8f3d-01f6b03f6507"},"vehicle_type_id":"4","last_reported":1770326333,"current_range_meters":6400,"station_id":"ce4bhnh2rcd13ifvqgug","pricing_plan_id":"cebpf4jnsgd1na2vs0mg"},{"bike_id":"c59be42f-0772-451e-a452-b56e08719067","system_id":"levelo_inurba_marseille","lat":43.23954,"lon":5.36651,"is_reserved":false,"is_disabled":false,"rental_uris":{"android":"levelo://app?vid=c59be42f-0772-451e-a452-b56e08719067","ios":"levelo://app?vid=c59be42f-0772-451e-a452-b56e08719067"},"vehicle_type_id":"4","last_reported":1770326333,"current_range_meters":6400,"station_id":"ce4bhi12rcd13ifvqfp0","pricing_plan_id":"cebpf4jnsgd1na2vs0mg"},{"bike_id":"b8f84804-3c6a-46e2-933b-865abf78412e","system_id":"levelo_inurba_marseille","lat":43.28474,"lon":5.48392,"is_reserved":false,"is_disabled":false,"rental_uris":{"android":"levelo://app?vid=b8f84804-3c6a-46e2-933b-865abf78412e","ios":"levelo://app?vid=b8f84804-3c6a-46e2-933b-865abf78412e"},"vehicle_type_id":"4","last_reported":1770326333,"current_range_meters":6400,"station_id":"st_d3svhcjqgbts73a3dn0g","pricing_plan_id":"cebpf4jnsgd1na2vs0mg"},{"bike_id":"d2c14433-6ee8-4acf-8c27-13116ae17eed","system_id":"levelo_inurba_marseille","lat":43.22924,"lon":5.35465,"is_reserved":false,"is_disabled":false,"rental_uris":{"android":"levelo://app?vid=d2c14433-6ee8-4acf-8c27-13116ae17eed","ios":"levelo://app?vid=d2c14433-6ee8-4acf-8c27-13116ae17eed"},"vehicle_type_id":"4","last_reported":1770326333,"current_range_meters":6400,"station_id":"cpo3532slgdg3j2ikp40","pricing_plan_id":"cebpf4jnsgd1na2vs0mg"},{"bike_id":"c269eff6-7414-4fb8-b35a-8132e5c63b79","system_id":"levelo_inurba_marseille","lat":43.25011,"lon":5.38916,"is_reserved":false,"is_disabled":false,"rental_uris":{"android":"levelo://app?vid=c269eff6-7414-4fb8-b35a-8132e5c63b79","ios":"levelo://app?vid=c269eff6-7414-4fb8-b35a-8132e5c63b79"},"vehicle_type_id":"4","last_reported":1770326333,"current_range_meters":6400,"station_id":"ce4bhgp2rcd13ifvqfd0","pricing_plan_id":"cebpf4jnsgd1na2vs0mg"},{"bike_id":"9e94a25d-0189-421f-ab48-acf7c3a89702","system_id":"levelo_inurba_marseille","lat":43.23191,"lon":5.39998,"is_reserved":false,"is_disabled":false,"rental_uris":{"android":"levelo://app?vid=9e94a25d-0189-421f-ab48-acf7c3a89702","ios":"levelo://app?vid=9e94a25d-0189-421f-ab48-acf7c3a89702"},"vehicle_type_id":"4","last_reported":1770326333,"current_range_meters":6400,"station_id":"ce4bhn12rcd13ifvqgqg","pricing_plan_id":"cebpf4jnsgd1na2vs0mg"},{"bike_id":"6b57bf3b-8c0e-4c20-ac17-97c4a9b3eefe","system_id":"levelo_inurba_marseille","lat":43.23153,"lon":5.43723,"is_reserved":false,"is_disabled":false,"rental_uris":{"android":"levelo://app?vid=6b57bf3b-8c0e-4c20-ac17-97c4a9b3eefe","ios":"levelo://app?vid=6b57bf3b-8c0e-4c20-ac17-97c4a9b3eefe"},"vehicle_type_id":"4","last_reported":1770326333,"current_range_meters":6400,"station_id":"ce4bhmp2rcd13ifvqgog","pricing_plan_id":"cebpf4jnsgd1na2vs0mg"},{"bike_id":"d72ec66a-db3f-41c7-8ed5-45387a7e4906","system_id":"levelo_inurba_marseille","lat":43.31754,"lon":5.4239,"is_reserved":false,"is_disabled":false,"rental_uris":{"android":"levelo://app?vid=d72ec66a-db3f-41c7-8ed5-45387a7e4906","ios":"levelo://app?vid=d72ec66a-db3f-41c7-8ed5-45387a7e4906"},"vehicle_type_id":"4","last_reported":1770326333,"current_range_meters":6800,"station_id":"ce4bhp92rcd13ifvqhbg","pricing_plan_id":"cebpf4jnsgd1na2vs0mg"},{"bike_id":"428dbf35-8bcd-4e85-a516-ebc0478e6e12","system_id":"levelo_inurba_marseille","lat":43.296,"lon":5.3747,"is_reserved":false,"is_disabled":false,"rental_uris":{"android":"levelo://app?vid=428dbf35-8bcd-4e85-a516-ebc0478e6e12","ios":"levelo://app?vid=428dbf35-8bcd-4e85-a516-ebc0478e6e12"},"vehicle_type_id":"4","last_reported":1770326333,"current_range_meters":6800,"station_id":"","pricing_plan_id":"cebpf4jnsgd1na2vs0mg"},{"bike_id":"49bc0ac4-ec4c-46b4-bcba-c5b87d948aa1","system_id":"levelo_inurba_marseille","lat":43.23959,"lon":5.36644,"is_reserved":false,"is_disabled":false,"rental_uris":{"android":"levelo://app?vid=49bc0ac4-ec4c-46b4-bcba-c5b87d948aa1","ios":"levelo://app?vid=49bc0ac4-ec4c-46b4-bcba-c5b87d948aa1"},"vehicle_type_id":"4","last_reported":1770326333,"current_range_meters":6800,"station_id":"ce4bhi12rcd13ifvqfp0","pricing_plan_id":"cebpf4jnsgd1na2vs0mg"},{"bike_id":"b53f497c-0cdf-42a8-ab5a-d6dc45b07b09","system_id":"levelo_inurba_marseille","lat":43.24149,"lon":5.36425,"is_reserved":false,"is_disabled":false,"rental_uris":{"android":"levelo://app?vid=b53f497c-0cdf-42a8-ab5a-d6dc45b07b09","ios":"levelo://app?vid=b53f497c-0cdf-42a8-ab5a-d6dc45b07b09"},"vehicle_type_id":"4","last_reported":1770326333,"current_range_meters":6800,"station_id":"cpo36qri1sfpv3e86is0","pricing_plan_id":"cebpf4jnsgd1na2vs0mg"},{"bike_id":"6655b68c-34d5-4976-9b6b-2354fa7ac20f","system_id":"levelo_inurba_marseille","lat":43.28861,"lon":5.4253,"is_reserved":false,"is_disabled":false,"rental_uris":{"android":"levelo://app?vid=6655b68c-34d5-4976-9b6b-2354fa7ac20f","ios":"levelo://app?vid=6655b68c-34d5-4976-9b6b-2354fa7ac20f"},"vehicle_type_id":"4","last_reported":1770326333,"current_range_meters":6800,"station_id":"st_d3b462108ojc7389ooeg","pricing_plan_id":"cebpf4jnsgd1na2vs0mg"},{"bike_id":"4784e26d-96af-4ccc-a956-0e1565dd44fa","system_id":"levelo_inurba_marseille","lat":43.28996,"lon":5.35606,"is_reserved":false,"is_disabled":false,"rental_uris":{"android":"levelo://app?vid=4784e26d-96af-4ccc-a956-0e1565dd44fa","ios":"levelo://app?vid=4784e26d-96af-4ccc-a956-0e1565dd44fa"},"vehicle_type_id":"4","last_reported":1770326333,"current_range_meters":6800,"station_id":"ce4bhb92rcd13ifvqen0","pricing_plan_id":"cebpf4jnsgd1na2vs0mg"},{"bike_id":"7f008dd4-321d-4908-b320-1af04984864b","system_id":"levelo_inurba_marseille","lat":43.29813,"lon":5.38097,"is_reserved":false,"is_disabled":false,"rental_uris":{"android":"levelo://app?vid=7f008dd4-321d-4908-b320-1af04984864b","ios":"levelo://app?vid=7f008dd4-321d-4908-b320-1af04984864b"},"vehicle_type_id":"4","last_reported":1770326333,"current_range_meters":6800,"station_id":"ce4bgip2rcd13ifvqbb0","pricing_plan_id":"cebpf4jnsgd1na2vs0mg"},{"bike_id":"f1b1055e-06bd-4540-b5fe-11d8d0f72076","system_id":"levelo_inurba_marseille","lat":43.245538,"lon":5.395229,"is_reserved":false,"is_disabled":false,"rental_uris":{"android":"levelo://app?vid=f1b1055e-06bd-4540-b5fe-11d8d0f72076","ios":"levelo://app?vid=f1b1055e-06bd-4540-b5fe-11d8d0f72076"},"vehicle_type_id":"4","last_reported":1770326333,"current_range_meters":6800,"station_id":"ce4bhlp2rcd13ifvqgjg","pricing_plan_id":"cebpf4jnsgd1na2vs0mg"},{"bike_id":"c88e50fa-cb30-407d-ac3e-cb38b2d45cb2","system_id":"levelo_inurba_marseille","lat":43.28683,"lon":5.38668,"is_reserved":false,"is_disabled":false,"rental_uris":{"android":"levelo://app?vid=c88e50fa-cb30-407d-ac3e-cb38b2d45cb2","ios":"levelo://app?vid=c88e50fa-cb30-407d-ac3e-cb38b2d45cb2"},"vehicle_type_id":"4","last_reported":1770326333,"current_range_meters":6800,"station_id":"ce4bh492rcd13ifvqdug","pricing_plan_id":"cebpf4jnsgd1na2vs0mg"},{"bike_id":"b01f3914-e4b4-4a5c-9215-2f671b4636c4","system_id":"levelo_inurba_marseille","lat":43.29183,"lon":5.40706,"is_reserved":false,"is_disabled":false,"rental_uris":{"android":"levelo://app?vid=b01f3914-e4b4-4a5c-9215-2f671b4636c4","ios":"levelo://app?vid=b01f3914-e4b4-4a5c-9215-2f671b4636c4"},"vehicle_type_id":"4","last_reported":1770326333,"current_range_meters":6800,"station_id":"","pricing_plan_id":"cebpf4jnsgd1na2vs0mg"},{"bike_id":"117def50-876b-4a77-bc7f-3e901c787b6b","system_id":"levelo_inurba_marseille","lat":43.23156,"lon":5.43712,"is_reserved":false,"is_disabled":false,"rental_uris":{"android":"levelo://app?vid=117def50-876b-4a77-bc7f-3e901c787b6b","ios":"levelo://app?vid=117def50-876b-4a77-bc7f-3e901c787b6b"},"vehicle_type_id":"4","last_reported":1770326333,"current_range_meters":6800,"station_id":"ce4bhmp2rcd13ifvqgog","pricing_plan_id":"cebpf4jnsgd1na2vs0mg"},{"bike_id":"4f9657db-4af6-4881-877a-353026f61053","system_id":"levelo_inurba_marseille","lat":43.29317,"lon":5.37192,"is_reserved":false,"is_disabled":false,"rental_uris":{"android":"levelo://app?vid=4f9657db-4af6-4881-877a-353026f61053","ios":"levelo://app?vid=4f9657db-4af6-4881-877a-353026f61053"},"vehicle_type_id":"4","last_reported":1770326333,"current_range_meters":6800,"station_id":"ce4bgh92rcd13ifvqb40","pricing_plan_id":"cebpf4jnsgd1na2vs0mg"},{"bike_id":"7c0c82cb-84e2-4c10-8273-7956293708aa","system_id":"levelo_inurba_marseille","lat":43.24081,"lon":5.37721,"is_reserved":false,"is_disabled":false,"rental_uris":{"android":"levelo://app?vid=7c0c82cb-84e2-4c10-8273-7956293708aa","ios":"levelo://app?vid=7c0c82cb-84e2-4c10-8273-7956293708aa"},"vehicle_type_id":"4","last_reported":1770326333,"current_range_meters":6800,"station_id":"ce4bhnp2rcd13ifvqgvg","pricing_plan_id":"cebpf4jnsgd1na2vs0mg"},{"bike_id":"34c50a61-22ac-4ed2-981f-46c8654fa2b9","system_id":"levelo_inurba_marseille","lat":43.33543,"lon":5.37469,"is_reserved":false,"is_disabled":false,"rental_uris":{"android":"levelo://app?vid=34c50a61-22ac-4ed2-981f-46c8654fa2b9","ios":"levelo://app?vid=34c50a61-22ac-4ed2-981f-46c8654fa2b9"},"vehicle_type_id":"4","last_reported":1770326333,"current_range_meters":6800,"station_id":"","pricing_plan_id":"cebpf4jnsgd1na2vs0mg"},{"bike_id":"d4e0e754-c71b-44db-b350-d85e9675dd8d","system_id":"levelo_inurba_marseille","lat":43.26377,"lon":5.41081,"is_reserved":false,"is_disabled":true,"rental_uris":{"android":"levelo://app?vid=d4e0e754-c71b-44db-b350-d85e9675dd8d","ios":"levelo://app?vid=d4e0e754-c71b-44db-b350-d85e9675dd8d"},"vehicle_type_id":"4","last_reported":1770326333,"current_range_meters":6800,"station_id":"st_d4e5ca6na9uc73bfl5fg","pricing_plan_id":"cebpf4jnsgd1na2vs0mg"},{"bike_id":"16c072db-a755-48f7-99d4-19db5a203d81","system_id":"levelo_inurba_marseille","lat":43.28626,"lon":5.3504,"is_reserved":false,"is_disabled":false,"rental_uris":{"android":"levelo://app?vid=16c072db-a755-48f7-99d4-19db5a203d81","ios":"levelo://app?vid=16c072db-a755-48f7-99d4-19db5a203d81"},"vehicle_type_id":"4","last_reported":1770326333,"current_range_meters":6800,"station_id":"","pricing_plan_id":"cebpf4jnsgd1na2vs0mg"},{"bike_id":"7646115c-16ae-46bb-b03c-df2955877c47","system_id":"levelo_inurba_marseille","lat":43.26547,"lon":5.37289,"is_reserved":false,"is_disabled":false,"rental_uris":{"android":"levelo://app?vid=7646115c-16ae-46bb-b03c-df2955877c47","ios":"levelo://app?vid=7646115c-16ae-46bb-b03c-df2955877c47"},"vehicle_type_id":"4","last_reported":1770326333,"current_range_meters":6800,"station_id":"ce4bhg12rcd13ifvqf70","pricing_plan_id":"cebpf4jnsgd1na2vs0mg"},{"bike_id":"b49b4216-4eb9-404f-8a9b-f497315b3360","system_id":"levelo_inurba_marseille","lat":43.3354,"lon":5.37444,"is_reserved":false,"is_disabled":false,"rental_uris":{"android":"levelo://app?vid=b49b4216-4eb9-404f-8a9b-f497315b3360","ios":"levelo://app?vid=b49b4216-4eb9-404f-8a9b-f497315b3360"},"vehicle_type_id":"4","last_reported":1770326333,"current_range_meters":6800,"station_id":"st_d46tts09ee8s73dlu43g","pricing_plan_id":"cebpf4jnsgd1na2vs0mg"},{"bike_id":"b4511b2b-b40d-4489-aaec-8193a17f80e9","system_id":"levelo_inurba_marseille","lat":43.33543,"lon":5.37479,"is_reserved":false,"is_disabled":false,"rental_uris":{"android":"levelo://app?vid=b4511b2b-b40d-4489-aaec-8193a17f80e9","ios":"levelo://app?vid=b4511b2b-b40d-4489-aaec-8193a17f80e9"},"vehicle_type_id":"4","last_reported":1770326333,"current_range_meters":6800,"station_id":"","pricing_plan_id":"cebpf4jnsgd1na2vs0mg"},{"bike_id":"b5d4a021-0bb0-42cf-bd44-43afe8841e01","system_id":"levelo_inurba_marseille","lat":43.32362,"lon":5.36728,"is_reserved":false,"is_disabled":false,"rental_uris":{"android":"levelo://app?vid=b5d4a021-0bb0-42cf-bd44-43afe8841e01","ios":"levelo://app?vid=b5d4a021-0bb0-42cf-bd44-43afe8841e01"},"vehicle_type_id":"4","last_reported":1770326333,"current_range_meters":6800,"station_id":"ce4bhsh2rcd13ifvqi2g","pricing_plan_id":"cebpf4jnsgd1na2vs0mg"},{"bike_id":"5309610c-bf76-4542-a232-389bbf17cbff","system_id":"levelo_inurba_marseille","lat":43.335439,"lon":5.374669,"is_reserved":false,"is_disabled":false,"rental_uris":{"android":"levelo://app?vid=5309610c-bf76-4542-a232-389bbf17cbff","ios":"levelo://app?vid=5309610c-bf76-4542-a232-389bbf17cbff"},"vehicle_type_id":"4","last_reported":1770326333,"current_range_meters":7200,"station_id":"","pricing_plan_id":"cebpf4jnsgd1na2vs0mg"},{"bike_id":"d80d92c0-e8c3-4bd2-9272-a00aefbf4d79","system_id":"levelo_inurba_marseille","lat":43.23782,"lon":5.36592,"is_reserved":false,"is_disabled":false,"rental_uris":{"android":"levelo://app?vid=d80d92c0-e8c3-4bd2-9272-a00aefbf4d79","ios":"levelo://app?vid=d80d92c0-e8c3-4bd2-9272-a00aefbf4d79"},"vehicle_type_id":"4","last_reported":1770326333,"current_range_meters":7200,"station_id":"st_d3nk18o9ro0c73en2l3g","pricing_plan_id":"cebpf4jnsgd1na2vs0mg"},{"bike_id":"d2497ec2-d091-45cf-8cbe-2ca34f54e482","system_id":"levelo_inurba_marseille","lat":43.24811,"lon":5.37439,"is_reserved":false,"is_disabled":false,"rental_uris":{"android":"levelo://app?vid=d2497ec2-d091-45cf-8cbe-2ca34f54e482","ios":"levelo://app?vid=d2497ec2-d091-45cf-8cbe-2ca34f54e482"},"vehicle_type_id":"4","last_reported":1770326333,"current_range_meters":7200,"station_id":"ce4bhgh2rcd13ifvqfb0","pricing_plan_id":"cebpf4jnsgd1na2vs0mg"},{"bike_id":"da76f900-b17d-4248-b9ba-2a8067b473bd","system_id":"levelo_inurba_marseille","lat":43.31721,"lon":5.42399,"is_reserved":false,"is_disabled":false,"rental_uris":{"android":"levelo://app?vid=da76f900-b17d-4248-b9ba-2a8067b473bd","ios":"levelo://app?vid=da76f900-b17d-4248-b9ba-2a8067b473bd"},"vehicle_type_id":"4","last_reported":1770326333,"current_range_meters":7200,"station_id":"ce4bhp92rcd13ifvqhbg","pricing_plan_id":"cebpf4jnsgd1na2vs0mg"},{"bike_id":"c1141524-5343-4555-9ca5-2692a3456421","system_id":"levelo_inurba_marseille","lat":43.2294,"lon":5.35368,"is_reserved":false,"is_disabled":false,"rental_uris":{"android":"levelo://app?vid=c1141524-5343-4555-9ca5-2692a3456421","ios":"levelo://app?vid=c1141524-5343-4555-9ca5-2692a3456421"},"vehicle_type_id":"4","last_reported":1770326333,"current_range_meters":7200,"station_id":"cpo3532slgdg3j2ikp40","pricing_plan_id":"cebpf4jnsgd1na2vs0mg"},{"bike_id":"66843164-e6dd-46fc-8743-26489dd47f53","system_id":"levelo_inurba_marseille","lat":43.31384,"lon":5.3673,"is_reserved":false,"is_disabled":false,"rental_uris":{"android":"levelo://app?vid=66843164-e6dd-46fc-8743-26489dd47f53","ios":"levelo://app?vid=66843164-e6dd-46fc-8743-26489dd47f53"},"vehicle_type_id":"4","last_reported":1770326333,"current_range_meters":7200,"station_id":"ce4bgr92rcd13ifvqc6g","pricing_plan_id":"cebpf4jnsgd1na2vs0mg"},{"bike_id":"f19552e5-b8be-4ac0-bab3-b1e24771cb0c","system_id":"levelo_inurba_marseille","lat":43.3211,"lon":5.36751,"is_reserved":false,"is_disabled":false,"rental_uris":{"android":"levelo://app?vid=f19552e5-b8be-4ac0-bab3-b1e24771cb0c","ios":"levelo://app?vid=f19552e5-b8be-4ac0-bab3-b1e24771cb0c"},"vehicle_type_id":"4","last_reported":1770326333,"current_range_meters":7200,"station_id":"ce4bhrh2rcd13ifvqhug","pricing_plan_id":"cebpf4jnsgd1na2vs0mg"},{"bike_id":"fee0750a-8d27-43e0-94f7-17675fd554cc","system_id":"levelo_inurba_marseille","lat":43.2318,"lon":5.35534,"is_reserved":false,"is_disabled":false,"rental_uris":{"android":"levelo://app?vid=fee0750a-8d27-43e0-94f7-17675fd554cc","ios":"levelo://app?vid=fee0750a-8d27-43e0-94f7-17675fd554cc"},"vehicle_type_id":"4","last_reported":1770326333,"current_range_meters":7200,"station_id":"ce4bhu92rcd13ifvqi70","pricing_plan_id":"cebpf4jnsgd1na2vs0mg"},{"bike_id":"d90ad92a-480c-45ba-91af-83ba1be4179d","system_id":"levelo_inurba_marseille","lat":43.31225,"lon":5.36836,"is_reserved":false,"is_disabled":false,"rental_uris":{"android":"levelo://app?vid=d90ad92a-480c-45ba-91af-83ba1be4179d","ios":"levelo://app?vid=d90ad92a-480c-45ba-91af-83ba1be4179d"},"vehicle_type_id":"4","last_reported":1770326333,"current_range_meters":7200,"station_id":"ce4bgl92rcd13ifvqbq0","pricing_plan_id":"cebpf4jnsgd1na2vs0mg"},{"bike_id":"e6aca556-ada4-4207-9528-35f8d7906ed0","system_id":"levelo_inurba_marseille","lat":43.27069,"lon":5.42265,"is_reserved":false,"is_disabled":false,"rental_uris":{"android":"levelo://app?vid=e6aca556-ada4-4207-9528-35f8d7906ed0","ios":"levelo://app?vid=e6aca556-ada4-4207-9528-35f8d7906ed0"},"vehicle_type_id":"4","last_reported":1770326333,"current_range_meters":8000,"station_id":"ce4bhk92rcd13ifvqgb0","pricing_plan_id":"cebpf4jnsgd1na2vs0mg"},{"bike_id":"0ad61100-8c1e-4683-9cc6-748f02a03fec","system_id":"levelo_inurba_marseille","lat":43.298975,"lon":5.436657,"is_reserved":false,"is_disabled":false,"rental_uris":{"android":"levelo://app?vid=0ad61100-8c1e-4683-9cc6-748f02a03fec","ios":"levelo://app?vid=0ad61100-8c1e-4683-9cc6-748f02a03fec"},"vehicle_type_id":"4","last_reported":1770326333,"current_range_meters":8000,"station_id":"ce4bhpp2rcd13ifvqhfg","pricing_plan_id":"cebpf4jnsgd1na2vs0mg"},{"bike_id":"8ac864bf-49b5-4ef2-bd0c-e2ca684e782b","system_id":"levelo_inurba_marseille","lat":43.28169,"lon":5.42679,"is_reserved":false,"is_disabled":false,"rental_uris":{"android":"levelo://app?vid=8ac864bf-49b5-4ef2-bd0c-e2ca684e782b","ios":"levelo://app?vid=8ac864bf-49b5-4ef2-bd0c-e2ca684e782b"},"vehicle_type_id":"4","last_reported":1770326333,"current_range_meters":8000,"station_id":"ce4bhnh2rcd13ifvqgug","pricing_plan_id":"cebpf4jnsgd1na2vs0mg"},{"bike_id":"6c706595-1835-4ddf-8d94-5e35d4a0f5cb","system_id":"levelo_inurba_marseille","lat":43.3117,"lon":5.36849,"is_reserved":false,"is_disabled":false,"rental_uris":{"android":"levelo://app?vid=6c706595-1835-4ddf-8d94-5e35d4a0f5cb","ios":"levelo://app?vid=6c706595-1835-4ddf-8d94-5e35d4a0f5cb"},"vehicle_type_id":"4","last_reported":1770326333,"current_range_meters":8000,"station_id":"","pricing_plan_id":"cebpf4jnsgd1na2vs0mg"},{"bike_id":"ac551100-dc22-4913-9a52-4829a5f95f35","system_id":"levelo_inurba_marseille","lat":43.28649,"lon":5.3992,"is_reserved":false,"is_disabled":true,"rental_uris":{"android":"levelo://app?vid=ac551100-dc22-4913-9a52-4829a5f95f35","ios":"levelo://app?vid=ac551100-dc22-4913-9a52-4829a5f95f35"},"vehicle_type_id":"4","last_reported":1770326333,"current_range_meters":8000,"station_id":"","pricing_plan_id":"cebpf4jnsgd1na2vs0mg"},{"bike_id":"44ecf292-ab69-4654-bdcc-2e09702c14e2","system_id":"levelo_inurba_marseille","lat":43.284705,"lon":5.384126,"is_reserved":false,"is_disabled":false,"rental_uris":{"android":"levelo://app?vid=44ecf292-ab69-4654-bdcc-2e09702c14e2","ios":"levelo://app?vid=44ecf292-ab69-4654-bdcc-2e09702c14e2"},"vehicle_type_id":"4","last_reported":1770326333,"current_range_meters":8000,"station_id":"ce4bh512rcd13ifvqe3g","pricing_plan_id":"cebpf4jnsgd1na2vs0mg"},{"bike_id":"b53c6c98-8c8f-43b4-8753-1f27fa4df19b","system_id":"levelo_inurba_marseille","lat":43.27265,"lon":5.4007,"is_reserved":false,"is_disabled":false,"rental_uris":{"android":"levelo://app?vid=b53c6c98-8c8f-43b4-8753-1f27fa4df19b","ios":"levelo://app?vid=b53c6c98-8c8f-43b4-8753-1f27fa4df19b"},"vehicle_type_id":"4","last_reported":1770326333,"current_range_meters":8000,"station_id":"","pricing_plan_id":"cebpf4jnsgd1na2vs0mg"},{"bike_id":"f032e3f9-5399-4635-8e00-5e4d3179bb75","system_id":"levelo_inurba_marseille","lat":43.24461,"lon":5.42533,"is_reserved":false,"is_disabled":false,"rental_uris":{"android":"levelo://app?vid=f032e3f9-5399-4635-8e00-5e4d3179bb75","ios":"levelo://app?vid=f032e3f9-5399-4635-8e00-5e4d3179bb75"},"vehicle_type_id":"4","last_reported":1770326333,"current_range_meters":8000,"station_id":"st_d4a3vfp97mjs738cd8kg","pricing_plan_id":"cebpf4jnsgd1na2vs0mg"},{"bike_id":"7d70eb5b-0c68-4c6b-845a-56956d2aa148","system_id":"levelo_inurba_marseille","lat":43.23789,"lon":5.3664,"is_reserved":false,"is_disabled":false,"rental_uris":{"android":"levelo://app?vid=7d70eb5b-0c68-4c6b-845a-56956d2aa148","ios":"levelo://app?vid=7d70eb5b-0c68-4c6b-845a-56956d2aa148"},"vehicle_type_id":"4","last_reported":1770326333,"current_range_meters":8000,"station_id":"st_d3nk18o9ro0c73en2l3g","pricing_plan_id":"cebpf4jnsgd1na2vs0mg"},{"bike_id":"744797c6-4cca-4578-8686-da7701b97605","system_id":"levelo_inurba_marseille","lat":43.2905,"lon":5.39961,"is_reserved":false,"is_disabled":false,"rental_uris":{"android":"levelo://app?vid=744797c6-4cca-4578-8686-da7701b97605","ios":"levelo://app?vid=744797c6-4cca-4578-8686-da7701b97605"},"vehicle_type_id":"4","last_reported":1770326333,"current_range_meters":8400,"station_id":"ce4bh392rcd13ifvqdm0","pricing_plan_id":"cebpf4jnsgd1na2vs0mg"},{"bike_id":"f27e6d7a-5017-4a93-af61-b9397daf2e3f","system_id":"levelo_inurba_marseille","lat":43.29614,"lon":5.38125,"is_reserved":false,"is_disabled":false,"rental_uris":{"android":"levelo://app?vid=f27e6d7a-5017-4a93-af61-b9397daf2e3f","ios":"levelo://app?vid=f27e6d7a-5017-4a93-af61-b9397daf2e3f"},"vehicle_type_id":"4","last_reported":1770326333,"current_range_meters":8400,"station_id":"ce4bgl12rcd13ifvqbo0","pricing_plan_id":"cebpf4jnsgd1na2vs0mg"},{"bike_id":"ef79007e-ef6d-4e7f-a3ae-3ed5ead69e87","system_id":"levelo_inurba_marseille","lat":43.23231,"lon":5.35534,"is_reserved":false,"is_disabled":false,"rental_uris":{"android":"levelo://app?vid=ef79007e-ef6d-4e7f-a3ae-3ed5ead69e87","ios":"levelo://app?vid=ef79007e-ef6d-4e7f-a3ae-3ed5ead69e87"},"vehicle_type_id":"4","last_reported":1770326333,"current_range_meters":8400,"station_id":"ce4bhu92rcd13ifvqi70","pricing_plan_id":"cebpf4jnsgd1na2vs0mg"},{"bike_id":"812a467d-02aa-4dbc-80ff-32b04a94236b","system_id":"levelo_inurba_marseille","lat":43.28612,"lon":5.39885,"is_reserved":false,"is_disabled":false,"rental_uris":{"android":"levelo://app?vid=812a467d-02aa-4dbc-80ff-32b04a94236b","ios":"levelo://app?vid=812a467d-02aa-4dbc-80ff-32b04a94236b"},"vehicle_type_id":"4","last_reported":1770326333,"current_range_meters":8400,"station_id":"st_d4a7ka997mjs738ck50g","pricing_plan_id":"cebpf4jnsgd1na2vs0mg"},{"bike_id":"ce42e7f7-46f5-4db3-9bac-ce86f1010cc5","system_id":"levelo_inurba_marseille","lat":43.23446,"lon":5.41262,"is_reserved":false,"is_disabled":false,"rental_uris":{"android":"levelo://app?vid=ce42e7f7-46f5-4db3-9bac-ce86f1010cc5","ios":"levelo://app?vid=ce42e7f7-46f5-4db3-9bac-ce86f1010cc5"},"vehicle_type_id":"4","last_reported":1770326333,"current_range_meters":8400,"station_id":"","pricing_plan_id":"cebpf4jnsgd1na2vs0mg"},{"bike_id":"7a9437dc-9620-4e4d-ac55-f97780f81760","system_id":"levelo_inurba_marseille","lat":43.2485,"lon":5.37492,"is_reserved":false,"is_disabled":false,"rental_uris":{"android":"levelo://app?vid=7a9437dc-9620-4e4d-ac55-f97780f81760","ios":"levelo://app?vid=7a9437dc-9620-4e4d-ac55-f97780f81760"},"vehicle_type_id":"4","last_reported":1770326333,"current_range_meters":8400,"station_id":"","pricing_plan_id":"cebpf4jnsgd1na2vs0mg"},{"bike_id":"1a2b4f09-f18b-4d24-9f58-193947bc2618","system_id":"levelo_inurba_marseille","lat":43.28859,"lon":5.35882,"is_reserved":false,"is_disabled":false,"rental_uris":{"android":"levelo://app?vid=1a2b4f09-f18b-4d24-9f58-193947bc2618","ios":"levelo://app?vid=1a2b4f09-f18b-4d24-9f58-193947bc2618"},"vehicle_type_id":"4","last_reported":1770326333,"current_range_meters":8400,"station_id":"ce4bhb12rcd13ifvqem0","pricing_plan_id":"cebpf4jnsgd1na2vs0mg"},{"bike_id":"8fbc18e3-a043-4392-800b-a7ddb3e7346a","system_id":"levelo_inurba_marseille","lat":43.317558,"lon":5.390093,"is_reserved":false,"is_disabled":false,"rental_uris":{"android":"levelo://app?vid=8fbc18e3-a043-4392-800b-a7ddb3e7346a","ios":"levelo://app?vid=8fbc18e3-a043-4392-800b-a7ddb3e7346a"},"vehicle_type_id":"4","last_reported":1770326333,"current_range_meters":8400,"station_id":"ce4bhqp2rcd13ifvqhng","pricing_plan_id":"cebpf4jnsgd1na2vs0mg"},{"bike_id":"dc741656-66c5-4ad6-8a4c-5f9259655f62","system_id":"levelo_inurba_marseille","lat":43.29898,"lon":5.43663,"is_reserved":false,"is_disabled":false,"rental_uris":{"android":"levelo://app?vid=dc741656-66c5-4ad6-8a4c-5f9259655f62","ios":"levelo://app?vid=dc741656-66c5-4ad6-8a4c-5f9259655f62"},"vehicle_type_id":"4","last_reported":1770326333,"current_range_meters":8400,"station_id":"ce4bhpp2rcd13ifvqhfg","pricing_plan_id":"cebpf4jnsgd1na2vs0mg"},{"bike_id":"8267a59a-96fe-435a-a59a-5974d84dff18","system_id":"levelo_inurba_marseille","lat":43.25024,"lon":5.38921,"is_reserved":false,"is_disabled":false,"rental_uris":{"android":"levelo://app?vid=8267a59a-96fe-435a-a59a-5974d84dff18","ios":"levelo://app?vid=8267a59a-96fe-435a-a59a-5974d84dff18"},"vehicle_type_id":"4","last_reported":1770326333,"current_range_meters":8400,"station_id":"ce4bhgp2rcd13ifvqfd0","pricing_plan_id":"cebpf4jnsgd1na2vs0mg"},{"bike_id":"ed0b7b07-9c38-4fb9-bc30-93ba90939795","system_id":"levelo_inurba_marseille","lat":43.33145,"lon":5.37725,"is_reserved":false,"is_disabled":false,"rental_uris":{"android":"levelo://app?vid=ed0b7b07-9c38-4fb9-bc30-93ba90939795","ios":"levelo://app?vid=ed0b7b07-9c38-4fb9-bc30-93ba90939795"},"vehicle_type_id":"4","last_reported":1770326333,"current_range_meters":8400,"station_id":"st_d46cu089ee8s73dldbu0","pricing_plan_id":"cebpf4jnsgd1na2vs0mg"},{"bike_id":"e6960217-3980-48bf-9c37-36816acc575b","system_id":"levelo_inurba_marseille","lat":43.29911,"lon":5.38144,"is_reserved":false,"is_disabled":false,"rental_uris":{"android":"levelo://app?vid=e6960217-3980-48bf-9c37-36816acc575b","ios":"levelo://app?vid=e6960217-3980-48bf-9c37-36816acc575b"},"vehicle_type_id":"4","last_reported":1770326333,"current_range_meters":8400,"station_id":"ce4bgj12rcd13ifvqbc0","pricing_plan_id":"cebpf4jnsgd1na2vs0mg"},{"bike_id":"c1107f73-28c6-44e5-a477-cfc9696cf84c","system_id":"levelo_inurba_marseille","lat":43.27989,"lon":5.41656,"is_reserved":false,"is_disabled":false,"rental_uris":{"android":"levelo://app?vid=c1107f73-28c6-44e5-a477-cfc9696cf84c","ios":"levelo://app?vid=c1107f73-28c6-44e5-a477-cfc9696cf84c"},"vehicle_type_id":"4","last_reported":1770326333,"current_range_meters":8400,"station_id":"ce4bho12rcd13ifvqh1g","pricing_plan_id":"cebpf4jnsgd1na2vs0mg"},{"bike_id":"0c0204e9-2e2c-4854-9498-c261c0135345","system_id":"levelo_inurba_marseille","lat":43.23795,"lon":5.36627,"is_reserved":false,"is_disabled":false,"rental_uris":{"android":"levelo://app?vid=0c0204e9-2e2c-4854-9498-c261c0135345","ios":"levelo://app?vid=0c0204e9-2e2c-4854-9498-c261c0135345"},"vehicle_type_id":"4","last_reported":1770326333,"current_range_meters":8400,"station_id":"st_d3nk18o9ro0c73en2l3g","pricing_plan_id":"cebpf4jnsgd1na2vs0mg"},{"bike_id":"5b9ebe3c-b566-4e9e-9a98-63ccef38d268","system_id":"levelo_inurba_marseille","lat":43.284324,"lon":5.392013,"is_reserved":false,"is_disabled":false,"rental_uris":{"android":"levelo://app?vid=5b9ebe3c-b566-4e9e-9a98-63ccef38d268","ios":"levelo://app?vid=5b9ebe3c-b566-4e9e-9a98-63ccef38d268"},"vehicle_type_id":"4","last_reported":1770326333,"current_range_meters":8400,"station_id":"ce4bhoh2rcd13ifvqh5g","pricing_plan_id":"cebpf4jnsgd1na2vs0mg"},{"bike_id":"50f91c0c-a238-47a5-ba33-1dcb8e0a9877","system_id":"levelo_inurba_marseille","lat":43.30129,"lon":5.37414,"is_reserved":false,"is_disabled":false,"rental_uris":{"android":"levelo://app?vid=50f91c0c-a238-47a5-ba33-1dcb8e0a9877","ios":"levelo://app?vid=50f91c0c-a238-47a5-ba33-1dcb8e0a9877"},"vehicle_type_id":"4","last_reported":1770326333,"current_range_meters":8400,"station_id":"ce4bgs92rcd13ifvqcc0","pricing_plan_id":"cebpf4jnsgd1na2vs0mg"},{"bike_id":"9a13f17a-a416-4ed4-b61d-0aa747ce69a5","system_id":"levelo_inurba_marseille","lat":43.31116,"lon":5.37769,"is_reserved":false,"is_disabled":false,"rental_uris":{"android":"levelo://app?vid=9a13f17a-a416-4ed4-b61d-0aa747ce69a5","ios":"levelo://app?vid=9a13f17a-a416-4ed4-b61d-0aa747ce69a5"},"vehicle_type_id":"4","last_reported":1770326333,"current_range_meters":8400,"station_id":"ce4bgt92rcd13ifvqcg0","pricing_plan_id":"cebpf4jnsgd1na2vs0mg"},{"bike_id":"d16821f4-20ae-4d85-9661-f3df8aca14ab","system_id":"levelo_inurba_marseille","lat":43.24823,"lon":5.37463,"is_reserved":false,"is_disabled":false,"rental_uris":{"android":"levelo://app?vid=d16821f4-20ae-4d85-9661-f3df8aca14ab","ios":"levelo://app?vid=d16821f4-20ae-4d85-9661-f3df8aca14ab"},"vehicle_type_id":"4","last_reported":1770326333,"current_range_meters":8400,"station_id":"ce4bhgh2rcd13ifvqfb0","pricing_plan_id":"cebpf4jnsgd1na2vs0mg"},{"bike_id":"0388f24a-b566-45b1-a38a-12fb5d338f89","system_id":"levelo_inurba_marseille","lat":43.31647,"lon":5.37653,"is_reserved":false,"is_disabled":false,"rental_uris":{"android":"levelo://app?vid=0388f24a-b566-45b1-a38a-12fb5d338f89","ios":"levelo://app?vid=0388f24a-b566-45b1-a38a-12fb5d338f89"},"vehicle_type_id":"4","last_reported":1770326333,"current_range_meters":8400,"station_id":"","pricing_plan_id":"cebpf4jnsgd1na2vs0mg"},{"bike_id":"5c3d031a-a771-44bc-8903-4ef356b4460b","system_id":"levelo_inurba_marseille","lat":43.24808,"lon":5.37462,"is_reserved":false,"is_disabled":false,"rental_uris":{"android":"levelo://app?vid=5c3d031a-a771-44bc-8903-4ef356b4460b","ios":"levelo://app?vid=5c3d031a-a771-44bc-8903-4ef356b4460b"},"vehicle_type_id":"4","last_reported":1770326333,"current_range_meters":8400,"station_id":"ce4bhgh2rcd13ifvqfb0","pricing_plan_id":"cebpf4jnsgd1na2vs0mg"},{"bike_id":"c9beec65-77ad-4b5b-9ac6-037515454e3d","system_id":"levelo_inurba_marseille","lat":43.27386,"lon":5.36253,"is_reserved":false,"is_disabled":false,"rental_uris":{"android":"levelo://app?vid=c9beec65-77ad-4b5b-9ac6-037515454e3d","ios":"levelo://app?vid=c9beec65-77ad-4b5b-9ac6-037515454e3d"},"vehicle_type_id":"4","last_reported":1770326333,"current_range_meters":8400,"station_id":"ce4bhbh2rcd13ifvqeo0","pricing_plan_id":"cebpf4jnsgd1na2vs0mg"},{"bike_id":"618c560c-d600-4a11-a120-02980090c8d7","system_id":"levelo_inurba_marseille","lat":43.240769,"lon":5.377556,"is_reserved":false,"is_disabled":false,"rental_uris":{"android":"levelo://app?vid=618c560c-d600-4a11-a120-02980090c8d7","ios":"levelo://app?vid=618c560c-d600-4a11-a120-02980090c8d7"},"vehicle_type_id":"4","last_reported":1770326333,"current_range_meters":8800,"station_id":"","pricing_plan_id":"cebpf4jnsgd1na2vs0mg"},{"bike_id":"375e9bcb-b945-4768-82d3-b05471dcf5fd","system_id":"levelo_inurba_marseille","lat":43.28916,"lon":5.46031,"is_reserved":false,"is_disabled":false,"rental_uris":{"android":"levelo://app?vid=375e9bcb-b945-4768-82d3-b05471dcf5fd","ios":"levelo://app?vid=375e9bcb-b945-4768-82d3-b05471dcf5fd"},"vehicle_type_id":"4","last_reported":1770326333,"current_range_meters":8800,"station_id":"","pricing_plan_id":"cebpf4jnsgd1na2vs0mg"},{"bike_id":"1f3ae490-d160-4f45-9396-b7c3677d4b60","system_id":"levelo_inurba_marseille","lat":43.32086,"lon":5.36754,"is_reserved":false,"is_disabled":false,"rental_uris":{"android":"levelo://app?vid=1f3ae490-d160-4f45-9396-b7c3677d4b60","ios":"levelo://app?vid=1f3ae490-d160-4f45-9396-b7c3677d4b60"},"vehicle_type_id":"4","last_reported":1770326333,"current_range_meters":8800,"station_id":"ce4bhrh2rcd13ifvqhug","pricing_plan_id":"cebpf4jnsgd1na2vs0mg"},{"bike_id":"2019aed1-4c5c-46a1-8cfd-39406ce16be5","system_id":"levelo_inurba_marseille","lat":43.32046,"lon":5.41576,"is_reserved":false,"is_disabled":false,"rental_uris":{"android":"levelo://app?vid=2019aed1-4c5c-46a1-8cfd-39406ce16be5","ios":"levelo://app?vid=2019aed1-4c5c-46a1-8cfd-39406ce16be5"},"vehicle_type_id":"4","last_reported":1770326333,"current_range_meters":8800,"station_id":"ce4bhq92rcd13ifvqhkg","pricing_plan_id":"cebpf4jnsgd1na2vs0mg"},{"bike_id":"bf218c97-5999-4178-9f72-e16996978866","system_id":"levelo_inurba_marseille","lat":43.29763,"lon":5.37687,"is_reserved":false,"is_disabled":false,"rental_uris":{"android":"levelo://app?vid=bf218c97-5999-4178-9f72-e16996978866","ios":"levelo://app?vid=bf218c97-5999-4178-9f72-e16996978866"},"vehicle_type_id":"4","last_reported":1770326333,"current_range_meters":8800,"station_id":"","pricing_plan_id":"cebpf4jnsgd1na2vs0mg"},{"bike_id":"7ce3271c-9e28-4d5e-b3b1-77311e5df5d7","system_id":"levelo_inurba_marseille","lat":43.31488,"lon":5.38089,"is_reserved":false,"is_disabled":false,"rental_uris":{"android":"levelo://app?vid=7ce3271c-9e28-4d5e-b3b1-77311e5df5d7","ios":"levelo://app?vid=7ce3271c-9e28-4d5e-b3b1-77311e5df5d7"},"vehicle_type_id":"4","last_reported":1770326333,"current_range_meters":8800,"station_id":"","pricing_plan_id":"cebpf4jnsgd1na2vs0mg"},{"bike_id":"b62bd3bf-3a8f-4a59-b001-afd3a67d5841","system_id":"levelo_inurba_marseille","lat":43.26241,"lon":5.40472,"is_reserved":false,"is_disabled":false,"rental_uris":{"android":"levelo://app?vid=b62bd3bf-3a8f-4a59-b001-afd3a67d5841","ios":"levelo://app?vid=b62bd3bf-3a8f-4a59-b001-afd3a67d5841"},"vehicle_type_id":"4","last_reported":1770326333,"current_range_meters":8800,"station_id":"ce4bhmh2rcd13ifvqgmg","pricing_plan_id":"cebpf4jnsgd1na2vs0mg"},{"bike_id":"14a0bfe2-9ad8-41a2-8100-306572082be4","system_id":"levelo_inurba_marseille","lat":43.246578,"lon":5.38893,"is_reserved":false,"is_disabled":false,"rental_uris":{"android":"levelo://app?vid=14a0bfe2-9ad8-41a2-8100-306572082be4","ios":"levelo://app?vid=14a0bfe2-9ad8-41a2-8100-306572082be4"},"vehicle_type_id":"4","last_reported":1770326333,"current_range_meters":8800,"station_id":"","pricing_plan_id":"cebpf4jnsgd1na2vs0mg"},{"bike_id":"890c2480-1dee-4d94-be86-34d4d4692dc6","system_id":"levelo_inurba_marseille","lat":43.25089,"lon":5.39523,"is_reserved":false,"is_disabled":false,"rental_uris":{"android":"levelo://app?vid=890c2480-1dee-4d94-be86-34d4d4692dc6","ios":"levelo://app?vid=890c2480-1dee-4d94-be86-34d4d4692dc6"},"vehicle_type_id":"4","last_reported":1770326333,"current_range_meters":8800,"station_id":"ce4bhm12rcd13ifvqgkg","pricing_plan_id":"cebpf4jnsgd1na2vs0mg"},{"bike_id":"63b5e7ff-784a-44cb-b53d-dd43a84f5930","system_id":"levelo_inurba_marseille","lat":43.2416,"lon":5.36404,"is_reserved":false,"is_disabled":false,"rental_uris":{"android":"levelo://app?vid=63b5e7ff-784a-44cb-b53d-dd43a84f5930","ios":"levelo://app?vid=63b5e7ff-784a-44cb-b53d-dd43a84f5930"},"vehicle_type_id":"4","last_reported":1770326333,"current_range_meters":8800,"station_id":"cpo36qri1sfpv3e86is0","pricing_plan_id":"cebpf4jnsgd1na2vs0mg"},{"bike_id":"bb3e1da0-2f26-4195-b84f-5b9f38a7b867","system_id":"levelo_inurba_marseille","lat":43.24656,"lon":5.38898,"is_reserved":false,"is_disabled":false,"rental_uris":{"android":"levelo://app?vid=bb3e1da0-2f26-4195-b84f-5b9f38a7b867","ios":"levelo://app?vid=bb3e1da0-2f26-4195-b84f-5b9f38a7b867"},"vehicle_type_id":"4","last_reported":1770326333,"current_range_meters":8800,"station_id":"ce4bhg12rcd13ifvqf60","pricing_plan_id":"cebpf4jnsgd1na2vs0mg"},{"bike_id":"c6782d87-e485-4a2c-b62b-9a52105fb0ef","system_id":"levelo_inurba_marseille","lat":43.25018,"lon":5.38918,"is_reserved":false,"is_disabled":false,"rental_uris":{"android":"levelo://app?vid=c6782d87-e485-4a2c-b62b-9a52105fb0ef","ios":"levelo://app?vid=c6782d87-e485-4a2c-b62b-9a52105fb0ef"},"vehicle_type_id":"4","last_reported":1770326333,"current_range_meters":8800,"station_id":"ce4bhgp2rcd13ifvqfd0","pricing_plan_id":"cebpf4jnsgd1na2vs0mg"},{"bike_id":"b02fbb60-e23e-4658-8f76-7a7c1172a579","system_id":"levelo_inurba_marseille","lat":43.26562,"lon":5.37297,"is_reserved":false,"is_disabled":false,"rental_uris":{"android":"levelo://app?vid=b02fbb60-e23e-4658-8f76-7a7c1172a579","ios":"levelo://app?vid=b02fbb60-e23e-4658-8f76-7a7c1172a579"},"vehicle_type_id":"4","last_reported":1770326333,"current_range_meters":8800,"station_id":"ce4bhg12rcd13ifvqf70","pricing_plan_id":"cebpf4jnsgd1na2vs0mg"},{"bike_id":"28d64b43-4413-4369-841d-1bf25f19c498","system_id":"levelo_inurba_marseille","lat":43.30541,"lon":5.36707,"is_reserved":false,"is_disabled":false,"rental_uris":{"android":"levelo://app?vid=28d64b43-4413-4369-841d-1bf25f19c498","ios":"levelo://app?vid=28d64b43-4413-4369-841d-1bf25f19c498"},"vehicle_type_id":"4","last_reported":1770326333,"current_range_meters":8800,"station_id":"ce4bgrp2rcd13ifvqc9g","pricing_plan_id":"cebpf4jnsgd1na2vs0mg"},{"bike_id":"e840cbfc-9cc7-4575-859f-a8bbdd2ebfd0","system_id":"levelo_inurba_marseille","lat":43.29275,"lon":5.38446,"is_reserved":false,"is_disabled":false,"rental_uris":{"android":"levelo://app?vid=e840cbfc-9cc7-4575-859f-a8bbdd2ebfd0","ios":"levelo://app?vid=e840cbfc-9cc7-4575-859f-a8bbdd2ebfd0"},"vehicle_type_id":"4","last_reported":1770326333,"current_range_meters":8800,"station_id":"ce4bh692rcd13ifvqea0","pricing_plan_id":"cebpf4jnsgd1na2vs0mg"},{"bike_id":"3b986d99-7b42-471f-993a-11fde28f3c51","system_id":"levelo_inurba_marseille","lat":43.22579,"lon":5.41644,"is_reserved":false,"is_disabled":false,"rental_uris":{"android":"levelo://app?vid=3b986d99-7b42-471f-993a-11fde28f3c51","ios":"levelo://app?vid=3b986d99-7b42-471f-993a-11fde28f3c51"},"vehicle_type_id":"4","last_reported":1770326333,"current_range_meters":8800,"station_id":"st_d2o4gvlbi1j2169b742g","pricing_plan_id":"cebpf4jnsgd1na2vs0mg"},{"bike_id":"b54aa0d9-0523-4591-9f23-db066268db4e","system_id":"levelo_inurba_marseille","lat":43.29518,"lon":5.37511,"is_reserved":false,"is_disabled":false,"rental_uris":{"android":"levelo://app?vid=b54aa0d9-0523-4591-9f23-db066268db4e","ios":"levelo://app?vid=b54aa0d9-0523-4591-9f23-db066268db4e"},"vehicle_type_id":"4","last_reported":1770326333,"current_range_meters":8800,"station_id":"ce4bgkp2rcd13ifvqbmg","pricing_plan_id":"cebpf4jnsgd1na2vs0mg"},{"bike_id":"2565ea96-8ec8-4794-8022-8ebd9571fba9","system_id":"levelo_inurba_marseille","lat":43.30571,"lon":5.36565,"is_reserved":false,"is_disabled":false,"rental_uris":{"android":"levelo://app?vid=2565ea96-8ec8-4794-8022-8ebd9571fba9","ios":"levelo://app?vid=2565ea96-8ec8-4794-8022-8ebd9571fba9"},"vehicle_type_id":"4","last_reported":1770326333,"current_range_meters":8800,"station_id":"ce4bgs12rcd13ifvqcag","pricing_plan_id":"cebpf4jnsgd1na2vs0mg"},{"bike_id":"0ff7d1fc-c942-4e04-bb24-6b30b880d197","system_id":"levelo_inurba_marseille","lat":43.31555,"lon":5.36906,"is_reserved":false,"is_disabled":false,"rental_uris":{"android":"levelo://app?vid=0ff7d1fc-c942-4e04-bb24-6b30b880d197","ios":"levelo://app?vid=0ff7d1fc-c942-4e04-bb24-6b30b880d197"},"vehicle_type_id":"4","last_reported":1770326333,"current_range_meters":8800,"station_id":"","pricing_plan_id":"cebpf4jnsgd1na2vs0mg"},{"bike_id":"5c42eb41-f5f6-4f26-80bd-36adb4304340","system_id":"levelo_inurba_marseille","lat":43.21765,"lon":5.34617,"is_reserved":false,"is_disabled":false,"rental_uris":{"android":"levelo://app?vid=5c42eb41-f5f6-4f26-80bd-36adb4304340","ios":"levelo://app?vid=5c42eb41-f5f6-4f26-80bd-36adb4304340"},"vehicle_type_id":"4","last_reported":1770326333,"current_range_meters":8800,"station_id":"","pricing_plan_id":"cebpf4jnsgd1na2vs0mg"},{"bike_id":"ddc87509-ae20-4d3a-aba3-5f2d7c91e914","system_id":"levelo_inurba_marseille","lat":43.23155,"lon":5.43745,"is_reserved":false,"is_disabled":false,"rental_uris":{"android":"levelo://app?vid=ddc87509-ae20-4d3a-aba3-5f2d7c91e914","ios":"levelo://app?vid=ddc87509-ae20-4d3a-aba3-5f2d7c91e914"},"vehicle_type_id":"4","last_reported":1770326333,"current_range_meters":8800,"station_id":"ce4bhmp2rcd13ifvqgog","pricing_plan_id":"cebpf4jnsgd1na2vs0mg"},{"bike_id":"29568cb5-48e1-4afd-96a8-69d8393592fe","system_id":"levelo_inurba_marseille","lat":43.28505,"lon":5.48378,"is_reserved":false,"is_disabled":false,"rental_uris":{"android":"levelo://app?vid=29568cb5-48e1-4afd-96a8-69d8393592fe","ios":"levelo://app?vid=29568cb5-48e1-4afd-96a8-69d8393592fe"},"vehicle_type_id":"4","last_reported":1770326333,"current_range_meters":8800,"station_id":"","pricing_plan_id":"cebpf4jnsgd1na2vs0mg"},{"bike_id":"e0c6a05b-eb02-486c-b185-09b703cc70a3","system_id":"levelo_inurba_marseille","lat":43.28263,"lon":5.40596,"is_reserved":false,"is_disabled":false,"rental_uris":{"android":"levelo://app?vid=e0c6a05b-eb02-486c-b185-09b703cc70a3","ios":"levelo://app?vid=e0c6a05b-eb02-486c-b185-09b703cc70a3"},"vehicle_type_id":"4","last_reported":1770326333,"current_range_meters":8800,"station_id":"","pricing_plan_id":"cebpf4jnsgd1na2vs0mg"},{"bike_id":"3887872c-fecd-4efe-bc36-921fcbc3a346","system_id":"levelo_inurba_marseille","lat":43.26551,"lon":5.37283,"is_reserved":false,"is_disabled":false,"rental_uris":{"android":"levelo://app?vid=3887872c-fecd-4efe-bc36-921fcbc3a346","ios":"levelo://app?vid=3887872c-fecd-4efe-bc36-921fcbc3a346"},"vehicle_type_id":"4","last_reported":1770326333,"current_range_meters":8800,"station_id":"ce4bhg12rcd13ifvqf70","pricing_plan_id":"cebpf4jnsgd1na2vs0mg"},{"bike_id":"36d0dfa7-f34a-4868-955f-d84bbc236cfe","system_id":"levelo_inurba_marseille","lat":43.29433,"lon":5.39736,"is_reserved":false,"is_disabled":false,"rental_uris":{"android":"levelo://app?vid=36d0dfa7-f34a-4868-955f-d84bbc236cfe","ios":"levelo://app?vid=36d0dfa7-f34a-4868-955f-d84bbc236cfe"},"vehicle_type_id":"4","last_reported":1770326333,"current_range_meters":9200,"station_id":"ce4bh3h2rcd13ifvqdo0","pricing_plan_id":"cebpf4jnsgd1na2vs0mg"},{"bike_id":"f2251f8f-476c-490a-a2da-0d724c30184f","system_id":"levelo_inurba_marseille","lat":43.31182,"lon":5.36877,"is_reserved":false,"is_disabled":false,"rental_uris":{"android":"levelo://app?vid=f2251f8f-476c-490a-a2da-0d724c30184f","ios":"levelo://app?vid=f2251f8f-476c-490a-a2da-0d724c30184f"},"vehicle_type_id":"4","last_reported":1770326333,"current_range_meters":9200,"station_id":"ce4bgl92rcd13ifvqbq0","pricing_plan_id":"cebpf4jnsgd1na2vs0mg"},{"bike_id":"69c3a4fd-6abf-495d-aca1-26b778e6bd90","system_id":"levelo_inurba_marseille","lat":43.30138,"lon":5.37432,"is_reserved":false,"is_disabled":false,"rental_uris":{"android":"levelo://app?vid=69c3a4fd-6abf-495d-aca1-26b778e6bd90","ios":"levelo://app?vid=69c3a4fd-6abf-495d-aca1-26b778e6bd90"},"vehicle_type_id":"4","last_reported":1770326333,"current_range_meters":9200,"station_id":"ce4bgs92rcd13ifvqcc0","pricing_plan_id":"cebpf4jnsgd1na2vs0mg"},{"bike_id":"f6317564-eebe-4718-b43d-ebfc04d1cd80","system_id":"levelo_inurba_marseille","lat":43.30266,"lon":5.36886,"is_reserved":false,"is_disabled":false,"rental_uris":{"android":"levelo://app?vid=f6317564-eebe-4718-b43d-ebfc04d1cd80","ios":"levelo://app?vid=f6317564-eebe-4718-b43d-ebfc04d1cd80"},"vehicle_type_id":"4","last_reported":1770326333,"current_range_meters":9200,"station_id":"ce4bgqh2rcd13ifvqc5g","pricing_plan_id":"cebpf4jnsgd1na2vs0mg"},{"bike_id":"ea394ce4-561e-40c3-b5d8-13958e8a40d6","system_id":"levelo_inurba_marseille","lat":43.23191,"lon":5.35554,"is_reserved":false,"is_disabled":false,"rental_uris":{"android":"levelo://app?vid=ea394ce4-561e-40c3-b5d8-13958e8a40d6","ios":"levelo://app?vid=ea394ce4-561e-40c3-b5d8-13958e8a40d6"},"vehicle_type_id":"4","last_reported":1770326333,"current_range_meters":9200,"station_id":"ce4bhu92rcd13ifvqi70","pricing_plan_id":"cebpf4jnsgd1na2vs0mg"},{"bike_id":"db903b27-1760-4487-bc16-6061b1cd692b","system_id":"levelo_inurba_marseille","lat":43.31845,"lon":5.40028,"is_reserved":false,"is_disabled":false,"rental_uris":{"android":"levelo://app?vid=db903b27-1760-4487-bc16-6061b1cd692b","ios":"levelo://app?vid=db903b27-1760-4487-bc16-6061b1cd692b"},"vehicle_type_id":"4","last_reported":1770326333,"current_range_meters":9200,"station_id":"","pricing_plan_id":"cebpf4jnsgd1na2vs0mg"},{"bike_id":"8944594f-c48f-4c8c-98a8-44f90f520052","system_id":"levelo_inurba_marseille","lat":43.2319,"lon":5.39985,"is_reserved":false,"is_disabled":false,"rental_uris":{"android":"levelo://app?vid=8944594f-c48f-4c8c-98a8-44f90f520052","ios":"levelo://app?vid=8944594f-c48f-4c8c-98a8-44f90f520052"},"vehicle_type_id":"4","last_reported":1770326333,"current_range_meters":9200,"station_id":"ce4bhn12rcd13ifvqgqg","pricing_plan_id":"cebpf4jnsgd1na2vs0mg"},{"bike_id":"88de999f-78fd-498c-86b8-c0b83e9a1087","system_id":"levelo_inurba_marseille","lat":43.25941,"lon":5.40909,"is_reserved":false,"is_disabled":false,"rental_uris":{"android":"levelo://app?vid=88de999f-78fd-498c-86b8-c0b83e9a1087","ios":"levelo://app?vid=88de999f-78fd-498c-86b8-c0b83e9a1087"},"vehicle_type_id":"4","last_reported":1770326333,"current_range_meters":9200,"station_id":"ce4bhm92rcd13ifvqglg","pricing_plan_id":"cebpf4jnsgd1na2vs0mg"},{"bike_id":"eac05cca-2625-4518-ac75-584627228798","system_id":"levelo_inurba_marseille","lat":43.2684,"lon":5.39477,"is_reserved":false,"is_disabled":false,"rental_uris":{"android":"levelo://app?vid=eac05cca-2625-4518-ac75-584627228798","ios":"levelo://app?vid=eac05cca-2625-4518-ac75-584627228798"},"vehicle_type_id":"4","last_reported":1770326333,"current_range_meters":9200,"station_id":"","pricing_plan_id":"cebpf4jnsgd1na2vs0mg"},{"bike_id":"6cb1bd54-f649-4fd4-9f9b-3f2f641a3b75","system_id":"levelo_inurba_marseille","lat":43.29164,"lon":5.37148,"is_reserved":false,"is_disabled":false,"rental_uris":{"android":"levelo://app?vid=6cb1bd54-f649-4fd4-9f9b-3f2f641a3b75","ios":"levelo://app?vid=6cb1bd54-f649-4fd4-9f9b-3f2f641a3b75"},"vehicle_type_id":"4","last_reported":1770326333,"current_range_meters":9600,"station_id":"ce4bha92rcd13ifvqeh0","pricing_plan_id":"cebpf4jnsgd1na2vs0mg"},{"bike_id":"40479d4d-2262-4fca-b41e-5c786f3816c7","system_id":"levelo_inurba_marseille","lat":43.246576,"lon":5.381619,"is_reserved":false,"is_disabled":false,"rental_uris":{"android":"levelo://app?vid=40479d4d-2262-4fca-b41e-5c786f3816c7","ios":"levelo://app?vid=40479d4d-2262-4fca-b41e-5c786f3816c7"},"vehicle_type_id":"4","last_reported":1770326333,"current_range_meters":9600,"station_id":"ce4bhih2rcd13ifvqfr0","pricing_plan_id":"cebpf4jnsgd1na2vs0mg"},{"bike_id":"5ea4a9eb-7e16-460a-80b3-3e99c418c48f","system_id":"levelo_inurba_marseille","lat":43.30138,"lon":5.374173,"is_reserved":false,"is_disabled":false,"rental_uris":{"android":"levelo://app?vid=5ea4a9eb-7e16-460a-80b3-3e99c418c48f","ios":"levelo://app?vid=5ea4a9eb-7e16-460a-80b3-3e99c418c48f"},"vehicle_type_id":"4","last_reported":1770326333,"current_range_meters":9600,"station_id":"ce4bgs92rcd13ifvqcc0","pricing_plan_id":"cebpf4jnsgd1na2vs0mg"},{"bike_id":"f8a373b6-b0c9-4f48-a8a1-07b50e4c4dbb","system_id":"levelo_inurba_marseille","lat":43.2624,"lon":5.37923,"is_reserved":false,"is_disabled":false,"rental_uris":{"android":"levelo://app?vid=f8a373b6-b0c9-4f48-a8a1-07b50e4c4dbb","ios":"levelo://app?vid=f8a373b6-b0c9-4f48-a8a1-07b50e4c4dbb"},"vehicle_type_id":"4","last_reported":1770326333,"current_range_meters":9600,"station_id":"ce4bhjp2rcd13ifvqg90","pricing_plan_id":"cebpf4jnsgd1na2vs0mg"},{"bike_id":"b8930ff7-8ce5-4f8d-9e8d-e85cd2415d7d","system_id":"levelo_inurba_marseille","lat":43.31356,"lon":5.36696,"is_reserved":false,"is_disabled":false,"rental_uris":{"android":"levelo://app?vid=b8930ff7-8ce5-4f8d-9e8d-e85cd2415d7d","ios":"levelo://app?vid=b8930ff7-8ce5-4f8d-9e8d-e85cd2415d7d"},"vehicle_type_id":"4","last_reported":1770326333,"current_range_meters":9600,"station_id":"ce4bgr92rcd13ifvqc6g","pricing_plan_id":"cebpf4jnsgd1na2vs0mg"},{"bike_id":"ae394a66-d1ad-4f44-82fe-b9fa153bb39a","system_id":"levelo_inurba_marseille","lat":43.33586,"lon":5.37499,"is_reserved":false,"is_disabled":false,"rental_uris":{"android":"levelo://app?vid=ae394a66-d1ad-4f44-82fe-b9fa153bb39a","ios":"levelo://app?vid=ae394a66-d1ad-4f44-82fe-b9fa153bb39a"},"vehicle_type_id":"4","last_reported":1770326333,"current_range_meters":9600,"station_id":"st_d46tts09ee8s73dlu43g","pricing_plan_id":"cebpf4jnsgd1na2vs0mg"},{"bike_id":"8018bfcd-8623-4252-9771-08b802ae9561","system_id":"levelo_inurba_marseille","lat":43.29633,"lon":5.37169,"is_reserved":false,"is_disabled":false,"rental_uris":{"android":"levelo://app?vid=8018bfcd-8623-4252-9771-08b802ae9561","ios":"levelo://app?vid=8018bfcd-8623-4252-9771-08b802ae9561"},"vehicle_type_id":"4","last_reported":1770326333,"current_range_meters":9600,"station_id":"ce4bgnh2rcd13ifvqc0g","pricing_plan_id":"cebpf4jnsgd1na2vs0mg"},{"bike_id":"90e59ac1-cd46-446b-b3a8-2b22481380d2","system_id":"levelo_inurba_marseille","lat":43.30887,"lon":5.37193,"is_reserved":false,"is_disabled":false,"rental_uris":{"android":"levelo://app?vid=90e59ac1-cd46-446b-b3a8-2b22481380d2","ios":"levelo://app?vid=90e59ac1-cd46-446b-b3a8-2b22481380d2"},"vehicle_type_id":"4","last_reported":1770326333,"current_range_meters":9600,"station_id":"ce4bguh2rcd13ifvqckg","pricing_plan_id":"cebpf4jnsgd1na2vs0mg"},{"bike_id":"07236d39-4234-4a66-b75f-4404b97effcf","system_id":"levelo_inurba_marseille","lat":43.2381,"lon":5.36654,"is_reserved":false,"is_disabled":false,"rental_uris":{"android":"levelo://app?vid=07236d39-4234-4a66-b75f-4404b97effcf","ios":"levelo://app?vid=07236d39-4234-4a66-b75f-4404b97effcf"},"vehicle_type_id":"4","last_reported":1770326333,"current_range_meters":9600,"station_id":"st_d3nk18o9ro0c73en2l3g","pricing_plan_id":"cebpf4jnsgd1na2vs0mg"},{"bike_id":"1937492d-117f-487c-8c08-5e82e3f3720b","system_id":"levelo_inurba_marseille","lat":43.31382,"lon":5.36725,"is_reserved":false,"is_disabled":false,"rental_uris":{"android":"levelo://app?vid=1937492d-117f-487c-8c08-5e82e3f3720b","ios":"levelo://app?vid=1937492d-117f-487c-8c08-5e82e3f3720b"},"vehicle_type_id":"4","last_reported":1770326333,"current_range_meters":9600,"station_id":"ce4bgr92rcd13ifvqc6g","pricing_plan_id":"cebpf4jnsgd1na2vs0mg"},{"bike_id":"36af6b9c-3b6f-432b-8541-51b5e2f4a92f","system_id":"levelo_inurba_marseille","lat":43.250066,"lon":5.38915,"is_reserved":false,"is_disabled":false,"rental_uris":{"android":"levelo://app?vid=36af6b9c-3b6f-432b-8541-51b5e2f4a92f","ios":"levelo://app?vid=36af6b9c-3b6f-432b-8541-51b5e2f4a92f"},"vehicle_type_id":"4","last_reported":1770326333,"current_range_meters":9600,"station_id":"ce4bhgp2rcd13ifvqfd0","pricing_plan_id":"cebpf4jnsgd1na2vs0mg"},{"bike_id":"b3ed2cd6-8e81-4348-923e-b3375b5b0d86","system_id":"levelo_inurba_marseille","lat":43.26509,"lon":5.39533,"is_reserved":false,"is_disabled":false,"rental_uris":{"android":"levelo://app?vid=b3ed2cd6-8e81-4348-923e-b3375b5b0d86","ios":"levelo://app?vid=b3ed2cd6-8e81-4348-923e-b3375b5b0d86"},"vehicle_type_id":"4","last_reported":1770326333,"current_range_meters":9600,"station_id":"ce4bhi12rcd13ifvqfq0","pricing_plan_id":"cebpf4jnsgd1na2vs0mg"},{"bike_id":"5e23d285-1421-44f7-a484-360ada54d5fa","system_id":"levelo_inurba_marseille","lat":43.28915,"lon":5.35852,"is_reserved":false,"is_disabled":false,"rental_uris":{"android":"levelo://app?vid=5e23d285-1421-44f7-a484-360ada54d5fa","ios":"levelo://app?vid=5e23d285-1421-44f7-a484-360ada54d5fa"},"vehicle_type_id":"4","last_reported":1770326333,"current_range_meters":9600,"station_id":"","pricing_plan_id":"cebpf4jnsgd1na2vs0mg"},{"bike_id":"33e6b01d-cadc-4668-ba29-d6b917e280b4","system_id":"levelo_inurba_marseille","lat":43.2439,"lon":5.37089,"is_reserved":false,"is_disabled":false,"rental_uris":{"android":"levelo://app?vid=33e6b01d-cadc-4668-ba29-d6b917e280b4","ios":"levelo://app?vid=33e6b01d-cadc-4668-ba29-d6b917e280b4"},"vehicle_type_id":"4","last_reported":1770326333,"current_range_meters":9600,"station_id":"ce4bhhh2rcd13ifvqfk0","pricing_plan_id":"cebpf4jnsgd1na2vs0mg"},{"bike_id":"ac54ba30-7996-480b-b187-8af827d5974d","system_id":"levelo_inurba_marseille","lat":43.30157,"lon":5.37407,"is_reserved":false,"is_disabled":false,"rental_uris":{"android":"levelo://app?vid=ac54ba30-7996-480b-b187-8af827d5974d","ios":"levelo://app?vid=ac54ba30-7996-480b-b187-8af827d5974d"},"vehicle_type_id":"4","last_reported":1770326333,"current_range_meters":9600,"station_id":"ce4bgs92rcd13ifvqcc0","pricing_plan_id":"cebpf4jnsgd1na2vs0mg"},{"bike_id":"ecb68ea7-5f10-41d7-9e75-c5f1a1082a56","system_id":"levelo_inurba_marseille","lat":43.2466,"lon":5.43176,"is_reserved":false,"is_disabled":false,"rental_uris":{"android":"levelo://app?vid=ecb68ea7-5f10-41d7-9e75-c5f1a1082a56","ios":"levelo://app?vid=ecb68ea7-5f10-41d7-9e75-c5f1a1082a56"},"vehicle_type_id":"4","last_reported":1770326333,"current_range_meters":9600,"station_id":"st_d2m6c4gdas8pm72e190g","pricing_plan_id":"cebpf4jnsgd1na2vs0mg"},{"bike_id":"2b358923-c030-4481-a0eb-830aa62ff249","system_id":"levelo_inurba_marseille","lat":43.27385,"lon":5.36264,"is_reserved":false,"is_disabled":false,"rental_uris":{"android":"levelo://app?vid=2b358923-c030-4481-a0eb-830aa62ff249","ios":"levelo://app?vid=2b358923-c030-4481-a0eb-830aa62ff249"},"vehicle_type_id":"4","last_reported":1770326333,"current_range_meters":9600,"station_id":"ce4bhbh2rcd13ifvqeo0","pricing_plan_id":"cebpf4jnsgd1na2vs0mg"},{"bike_id":"e6f11cd6-3531-4096-9079-debdff2f85fd","system_id":"levelo_inurba_marseille","lat":43.22977,"lon":5.35396,"is_reserved":false,"is_disabled":false,"rental_uris":{"android":"levelo://app?vid=e6f11cd6-3531-4096-9079-debdff2f85fd","ios":"levelo://app?vid=e6f11cd6-3531-4096-9079-debdff2f85fd"},"vehicle_type_id":"4","last_reported":1770326333,"current_range_meters":9600,"station_id":"","pricing_plan_id":"cebpf4jnsgd1na2vs0mg"},{"bike_id":"6fa79e9f-a61e-4d89-85cb-5e03635ed25f","system_id":"levelo_inurba_marseille","lat":43.33542,"lon":5.37467,"is_reserved":false,"is_disabled":false,"rental_uris":{"android":"levelo://app?vid=6fa79e9f-a61e-4d89-85cb-5e03635ed25f","ios":"levelo://app?vid=6fa79e9f-a61e-4d89-85cb-5e03635ed25f"},"vehicle_type_id":"4","last_reported":1770326333,"current_range_meters":9600,"station_id":"st_d46tts09ee8s73dlu43g","pricing_plan_id":"cebpf4jnsgd1na2vs0mg"},{"bike_id":"357e0761-0001-4df4-9647-5ddac10b57dd","system_id":"levelo_inurba_marseille","lat":43.324944,"lon":5.383028,"is_reserved":false,"is_disabled":false,"rental_uris":{"android":"levelo://app?vid=357e0761-0001-4df4-9647-5ddac10b57dd","ios":"levelo://app?vid=357e0761-0001-4df4-9647-5ddac10b57dd"},"vehicle_type_id":"4","last_reported":1770326333,"current_range_meters":10000,"station_id":"st_d4asgbiv49dc73anf9m0","pricing_plan_id":"cebpf4jnsgd1na2vs0mg"},{"bike_id":"85e199e1-5e9f-47f1-8e20-34a80752890c","system_id":"levelo_inurba_marseille","lat":43.30358,"lon":5.40461,"is_reserved":false,"is_disabled":false,"rental_uris":{"android":"levelo://app?vid=85e199e1-5e9f-47f1-8e20-34a80752890c","ios":"levelo://app?vid=85e199e1-5e9f-47f1-8e20-34a80752890c"},"vehicle_type_id":"4","last_reported":1770326333,"current_range_meters":10000,"station_id":"ce4bh012rcd13ifvqd10","pricing_plan_id":"cebpf4jnsgd1na2vs0mg"},{"bike_id":"6c826141-83c8-450c-bb51-8b69baba0bf3","system_id":"levelo_inurba_marseille","lat":43.26715,"lon":5.4078,"is_reserved":false,"is_disabled":false,"rental_uris":{"android":"levelo://app?vid=6c826141-83c8-450c-bb51-8b69baba0bf3","ios":"levelo://app?vid=6c826141-83c8-450c-bb51-8b69baba0bf3"},"vehicle_type_id":"4","last_reported":1770326333,"current_range_meters":10000,"station_id":"","pricing_plan_id":"cebpf4jnsgd1na2vs0mg"},{"bike_id":"40819fca-9f18-4e89-b31c-5ad4505052c8","system_id":"levelo_inurba_marseille","lat":43.23214,"lon":5.3556,"is_reserved":false,"is_disabled":false,"rental_uris":{"android":"levelo://app?vid=40819fca-9f18-4e89-b31c-5ad4505052c8","ios":"levelo://app?vid=40819fca-9f18-4e89-b31c-5ad4505052c8"},"vehicle_type_id":"4","last_reported":1770326333,"current_range_meters":10000,"station_id":"ce4bhu92rcd13ifvqi70","pricing_plan_id":"cebpf4jnsgd1na2vs0mg"},{"bike_id":"98b89a63-b3c9-4748-8f93-0ccb5ab9560d","system_id":"levelo_inurba_marseille","lat":43.26535,"lon":5.37302,"is_reserved":false,"is_disabled":false,"rental_uris":{"android":"levelo://app?vid=98b89a63-b3c9-4748-8f93-0ccb5ab9560d","ios":"levelo://app?vid=98b89a63-b3c9-4748-8f93-0ccb5ab9560d"},"vehicle_type_id":"4","last_reported":1770326333,"current_range_meters":10000,"station_id":"ce4bhg12rcd13ifvqf70","pricing_plan_id":"cebpf4jnsgd1na2vs0mg"},{"bike_id":"52450991-e9e0-402a-ad1e-272d002281f7","system_id":"levelo_inurba_marseille","lat":43.290318,"lon":5.375503,"is_reserved":false,"is_disabled":false,"rental_uris":{"android":"levelo://app?vid=52450991-e9e0-402a-ad1e-272d002281f7","ios":"levelo://app?vid=52450991-e9e0-402a-ad1e-272d002281f7"},"vehicle_type_id":"4","last_reported":1770326333,"current_range_meters":10000,"station_id":"ce4bh692rcd13ifvqe90","pricing_plan_id":"cebpf4jnsgd1na2vs0mg"},{"bike_id":"bd830301-856a-4947-bbd9-0c9aae46f8c5","system_id":"levelo_inurba_marseille","lat":43.28848,"lon":5.42533,"is_reserved":false,"is_disabled":false,"rental_uris":{"android":"levelo://app?vid=bd830301-856a-4947-bbd9-0c9aae46f8c5","ios":"levelo://app?vid=bd830301-856a-4947-bbd9-0c9aae46f8c5"},"vehicle_type_id":"4","last_reported":1770326333,"current_range_meters":10000,"station_id":"st_d3b462108ojc7389ooeg","pricing_plan_id":"cebpf4jnsgd1na2vs0mg"},{"bike_id":"5ccc2270-def9-43e3-a7c4-c498cd9e6361","system_id":"levelo_inurba_marseille","lat":43.30935,"lon":5.40145,"is_reserved":false,"is_disabled":false,"rental_uris":{"android":"levelo://app?vid=5ccc2270-def9-43e3-a7c4-c498cd9e6361","ios":"levelo://app?vid=5ccc2270-def9-43e3-a7c4-c498cd9e6361"},"vehicle_type_id":"4","last_reported":1770326333,"current_range_meters":10000,"station_id":"ce4bgvp2rcd13ifvqct0","pricing_plan_id":"cebpf4jnsgd1na2vs0mg"},{"bike_id":"f5924402-42d0-41ef-b167-ea2ef6913a1e","system_id":"levelo_inurba_marseille","lat":43.26567,"lon":5.37301,"is_reserved":false,"is_disabled":false,"rental_uris":{"android":"levelo://app?vid=f5924402-42d0-41ef-b167-ea2ef6913a1e","ios":"levelo://app?vid=f5924402-42d0-41ef-b167-ea2ef6913a1e"},"vehicle_type_id":"4","last_reported":1770326333,"current_range_meters":10000,"station_id":"ce4bhg12rcd13ifvqf70","pricing_plan_id":"cebpf4jnsgd1na2vs0mg"},{"bike_id":"1582c875-3ee7-42ce-93d4-d713761abb47","system_id":"levelo_inurba_marseille","lat":43.292795,"lon":5.368342,"is_reserved":false,"is_disabled":false,"rental_uris":{"android":"levelo://app?vid=1582c875-3ee7-42ce-93d4-d713761abb47","ios":"levelo://app?vid=1582c875-3ee7-42ce-93d4-d713761abb47"},"vehicle_type_id":"4","last_reported":1770326333,"current_range_meters":10000,"station_id":"ce4bh092rcd13ifvqd20","pricing_plan_id":"cebpf4jnsgd1na2vs0mg"},{"bike_id":"855fc5fe-6c5f-46e5-afd9-e53782d8eed3","system_id":"levelo_inurba_marseille","lat":43.243842,"lon":5.370764,"is_reserved":false,"is_disabled":false,"rental_uris":{"android":"levelo://app?vid=855fc5fe-6c5f-46e5-afd9-e53782d8eed3","ios":"levelo://app?vid=855fc5fe-6c5f-46e5-afd9-e53782d8eed3"},"vehicle_type_id":"4","last_reported":1770326333,"current_range_meters":10000,"station_id":"ce4bhhh2rcd13ifvqfk0","pricing_plan_id":"cebpf4jnsgd1na2vs0mg"},{"bike_id":"1f598a76-3d98-423a-b52f-882fbe5c29ae","system_id":"levelo_inurba_marseille","lat":43.3093,"lon":5.39021,"is_reserved":false,"is_disabled":false,"rental_uris":{"android":"levelo://app?vid=1f598a76-3d98-423a-b52f-882fbe5c29ae","ios":"levelo://app?vid=1f598a76-3d98-423a-b52f-882fbe5c29ae"},"vehicle_type_id":"4","last_reported":1770326333,"current_range_meters":10000,"station_id":"ce4bgup2rcd13ifvqco0","pricing_plan_id":"cebpf4jnsgd1na2vs0mg"},{"bike_id":"66ac484a-7a0c-4d64-bcea-4a863811aeba","system_id":"levelo_inurba_marseille","lat":43.29915,"lon":5.43666,"is_reserved":false,"is_disabled":false,"rental_uris":{"android":"levelo://app?vid=66ac484a-7a0c-4d64-bcea-4a863811aeba","ios":"levelo://app?vid=66ac484a-7a0c-4d64-bcea-4a863811aeba"},"vehicle_type_id":"4","last_reported":1770326333,"current_range_meters":10000,"station_id":"ce4bhpp2rcd13ifvqhfg","pricing_plan_id":"cebpf4jnsgd1na2vs0mg"},{"bike_id":"346787f4-b208-43b3-a13c-6d535139ef57","system_id":"levelo_inurba_marseille","lat":43.29911,"lon":5.43668,"is_reserved":false,"is_disabled":false,"rental_uris":{"android":"levelo://app?vid=346787f4-b208-43b3-a13c-6d535139ef57","ios":"levelo://app?vid=346787f4-b208-43b3-a13c-6d535139ef57"},"vehicle_type_id":"4","last_reported":1770326333,"current_range_meters":10800,"station_id":"ce4bhpp2rcd13ifvqhfg","pricing_plan_id":"cebpf4jnsgd1na2vs0mg"},{"bike_id":"6fa18caa-a316-4827-87d7-253fb339fee3","system_id":"levelo_inurba_marseille","lat":43.27974,"lon":5.3874,"is_reserved":false,"is_disabled":false,"rental_uris":{"android":"levelo://app?vid=6fa18caa-a316-4827-87d7-253fb339fee3","ios":"levelo://app?vid=6fa18caa-a316-4827-87d7-253fb339fee3"},"vehicle_type_id":"4","last_reported":1770326333,"current_range_meters":10800,"station_id":"ce4bhg12rcd13ifvqf80","pricing_plan_id":"cebpf4jnsgd1na2vs0mg"},{"bike_id":"071937d3-6d39-428f-88a6-e135b0e61119","system_id":"levelo_inurba_marseille","lat":43.31041,"lon":5.37178,"is_reserved":false,"is_disabled":false,"rental_uris":{"android":"levelo://app?vid=071937d3-6d39-428f-88a6-e135b0e61119","ios":"levelo://app?vid=071937d3-6d39-428f-88a6-e135b0e61119"},"vehicle_type_id":"4","last_reported":1770326333,"current_range_meters":10800,"station_id":"st_d4kl2rp97mjs73e7tdfg","pricing_plan_id":"cebpf4jnsgd1na2vs0mg"},{"bike_id":"77cc687b-db07-438b-b06d-c533ddef38bd","system_id":"levelo_inurba_marseille","lat":43.31395,"lon":5.36705,"is_reserved":false,"is_disabled":false,"rental_uris":{"android":"levelo://app?vid=77cc687b-db07-438b-b06d-c533ddef38bd","ios":"levelo://app?vid=77cc687b-db07-438b-b06d-c533ddef38bd"},"vehicle_type_id":"4","last_reported":1770326333,"current_range_meters":10800,"station_id":"","pricing_plan_id":"cebpf4jnsgd1na2vs0mg"},{"bike_id":"81105a24-281c-41d4-9cb4-6f41e46300e9","system_id":"levelo_inurba_marseille","lat":43.297943,"lon":5.380929,"is_reserved":false,"is_disabled":false,"rental_uris":{"android":"levelo://app?vid=81105a24-281c-41d4-9cb4-6f41e46300e9","ios":"levelo://app?vid=81105a24-281c-41d4-9cb4-6f41e46300e9"},"vehicle_type_id":"4","last_reported":1770326333,"current_range_meters":10800,"station_id":"ce4bgip2rcd13ifvqbb0","pricing_plan_id":"cebpf4jnsgd1na2vs0mg"},{"bike_id":"b50718b1-4f47-4866-8738-5a2978ca6909","system_id":"levelo_inurba_marseille","lat":43.313764,"lon":5.367017,"is_reserved":false,"is_disabled":false,"rental_uris":{"android":"levelo://app?vid=b50718b1-4f47-4866-8738-5a2978ca6909","ios":"levelo://app?vid=b50718b1-4f47-4866-8738-5a2978ca6909"},"vehicle_type_id":"4","last_reported":1770326333,"current_range_meters":10800,"station_id":"ce4bgr92rcd13ifvqc6g","pricing_plan_id":"cebpf4jnsgd1na2vs0mg"},{"bike_id":"2036c51b-a7bc-43d0-8480-66517b20ff87","system_id":"levelo_inurba_marseille","lat":43.26247,"lon":5.40448,"is_reserved":false,"is_disabled":false,"rental_uris":{"android":"levelo://app?vid=2036c51b-a7bc-43d0-8480-66517b20ff87","ios":"levelo://app?vid=2036c51b-a7bc-43d0-8480-66517b20ff87"},"vehicle_type_id":"4","last_reported":1770326333,"current_range_meters":10800,"station_id":"ce4bhmh2rcd13ifvqgmg","pricing_plan_id":"cebpf4jnsgd1na2vs0mg"},{"bike_id":"ed84d91a-295a-4666-959d-581cf762fbfc","system_id":"levelo_inurba_marseille","lat":43.27367,"lon":5.39118,"is_reserved":false,"is_disabled":false,"rental_uris":{"android":"levelo://app?vid=ed84d91a-295a-4666-959d-581cf762fbfc","ios":"levelo://app?vid=ed84d91a-295a-4666-959d-581cf762fbfc"},"vehicle_type_id":"4","last_reported":1770326333,"current_range_meters":10800,"station_id":"ce4bhgp2rcd13ifvqfe0","pricing_plan_id":"cebpf4jnsgd1na2vs0mg"},{"bike_id":"9f244aca-1e93-4ec4-8021-560ed02ef7d9","system_id":"levelo_inurba_marseille","lat":43.29817,"lon":5.38126,"is_reserved":false,"is_disabled":false,"rental_uris":{"android":"levelo://app?vid=9f244aca-1e93-4ec4-8021-560ed02ef7d9","ios":"levelo://app?vid=9f244aca-1e93-4ec4-8021-560ed02ef7d9"},"vehicle_type_id":"4","last_reported":1770326333,"current_range_meters":10800,"station_id":"ce4bgip2rcd13ifvqbb0","pricing_plan_id":"cebpf4jnsgd1na2vs0mg"},{"bike_id":"d78c5275-a079-45c4-9ae1-fc3831abcbf7","system_id":"levelo_inurba_marseille","lat":43.24637,"lon":5.43146,"is_reserved":false,"is_disabled":false,"rental_uris":{"android":"levelo://app?vid=d78c5275-a079-45c4-9ae1-fc3831abcbf7","ios":"levelo://app?vid=d78c5275-a079-45c4-9ae1-fc3831abcbf7"},"vehicle_type_id":"4","last_reported":1770326333,"current_range_meters":10800,"station_id":"st_d2m6c4gdas8pm72e190g","pricing_plan_id":"cebpf4jnsgd1na2vs0mg"},{"bike_id":"817bc8af-b796-4208-819d-410ea45944cb","system_id":"levelo_inurba_marseille","lat":43.29695,"lon":5.3659,"is_reserved":false,"is_disabled":false,"rental_uris":{"android":"levelo://app?vid=817bc8af-b796-4208-819d-410ea45944cb","ios":"levelo://app?vid=817bc8af-b796-4208-819d-410ea45944cb"},"vehicle_type_id":"4","last_reported":1770326333,"current_range_meters":10800,"station_id":"ce4bgn12rcd13ifvqbt0","pricing_plan_id":"cebpf4jnsgd1na2vs0mg"},{"bike_id":"5b51c4ea-ebad-4648-a4a1-56b9e8ab1de9","system_id":"levelo_inurba_marseille","lat":43.28519,"lon":5.48436,"is_reserved":false,"is_disabled":false,"rental_uris":{"android":"levelo://app?vid=5b51c4ea-ebad-4648-a4a1-56b9e8ab1de9","ios":"levelo://app?vid=5b51c4ea-ebad-4648-a4a1-56b9e8ab1de9"},"vehicle_type_id":"4","last_reported":1770326333,"current_range_meters":10800,"station_id":"st_d3svhcjqgbts73a3dn0g","pricing_plan_id":"cebpf4jnsgd1na2vs0mg"},{"bike_id":"e7d339ed-9fd9-4f04-8143-b69c5775e237","system_id":"levelo_inurba_marseille","lat":43.29265,"lon":5.40897,"is_reserved":false,"is_disabled":false,"rental_uris":{"android":"levelo://app?vid=e7d339ed-9fd9-4f04-8143-b69c5775e237","ios":"levelo://app?vid=e7d339ed-9fd9-4f04-8143-b69c5775e237"},"vehicle_type_id":"4","last_reported":1770326333,"current_range_meters":10800,"station_id":"ce4bh192rcd13ifvqdc0","pricing_plan_id":"cebpf4jnsgd1na2vs0mg"},{"bike_id":"283a028f-5aa9-4d32-aef8-1b85cd817cd9","system_id":"levelo_inurba_marseille","lat":43.27559,"lon":5.38409,"is_reserved":false,"is_disabled":false,"rental_uris":{"android":"levelo://app?vid=283a028f-5aa9-4d32-aef8-1b85cd817cd9","ios":"levelo://app?vid=283a028f-5aa9-4d32-aef8-1b85cd817cd9"},"vehicle_type_id":"4","last_reported":1770326333,"current_range_meters":10800,"station_id":"ce4bhh92rcd13ifvqfi0","pricing_plan_id":"cebpf4jnsgd1na2vs0mg"},{"bike_id":"e88406a8-0f0c-4bb0-a1c6-62a9edc309fa","system_id":"levelo_inurba_marseille","lat":43.31448,"lon":5.39302,"is_reserved":false,"is_disabled":true,"rental_uris":{"android":"levelo://app?vid=e88406a8-0f0c-4bb0-a1c6-62a9edc309fa","ios":"levelo://app?vid=e88406a8-0f0c-4bb0-a1c6-62a9edc309fa"},"vehicle_type_id":"4","last_reported":1770326333,"current_range_meters":10800,"station_id":"","pricing_plan_id":"cebpf4jnsgd1na2vs0mg"},{"bike_id":"013f9838-79ae-4345-a54f-75cf4cc2af44","system_id":"levelo_inurba_marseille","lat":43.29521,"lon":5.374983,"is_reserved":false,"is_disabled":false,"rental_uris":{"android":"levelo://app?vid=013f9838-79ae-4345-a54f-75cf4cc2af44","ios":"levelo://app?vid=013f9838-79ae-4345-a54f-75cf4cc2af44"},"vehicle_type_id":"4","last_reported":1770326333,"current_range_meters":10800,"station_id":"ce4bgh92rcd13ifvqb50","pricing_plan_id":"cebpf4jnsgd1na2vs0mg"},{"bike_id":"08370162-070c-4011-b89a-49205651b67b","system_id":"levelo_inurba_marseille","lat":43.26234,"lon":5.379,"is_reserved":false,"is_disabled":false,"rental_uris":{"android":"levelo://app?vid=08370162-070c-4011-b89a-49205651b67b","ios":"levelo://app?vid=08370162-070c-4011-b89a-49205651b67b"},"vehicle_type_id":"4","last_reported":1770326333,"current_range_meters":10800,"station_id":"ce4bhjp2rcd13ifvqg90","pricing_plan_id":"cebpf4jnsgd1na2vs0mg"},{"bike_id":"ab0a507f-7af5-4edf-87a8-cc91a786f048","system_id":"levelo_inurba_marseille","lat":43.295379,"lon":5.393968,"is_reserved":false,"is_disabled":false,"rental_uris":{"android":"levelo://app?vid=ab0a507f-7af5-4edf-87a8-cc91a786f048","ios":"levelo://app?vid=ab0a507f-7af5-4edf-87a8-cc91a786f048"},"vehicle_type_id":"4","last_reported":1770326333,"current_range_meters":10800,"station_id":"ce4bh292rcd13ifvqdf0","pricing_plan_id":"cebpf4jnsgd1na2vs0mg"},{"bike_id":"675ec433-caf3-4517-83f9-75769cd57605","system_id":"levelo_inurba_marseille","lat":43.32113,"lon":5.36803,"is_reserved":false,"is_disabled":false,"rental_uris":{"android":"levelo://app?vid=675ec433-caf3-4517-83f9-75769cd57605","ios":"levelo://app?vid=675ec433-caf3-4517-83f9-75769cd57605"},"vehicle_type_id":"4","last_reported":1770326333,"current_range_meters":11200,"station_id":"ce4bhrh2rcd13ifvqhug","pricing_plan_id":"cebpf4jnsgd1na2vs0mg"},{"bike_id":"b791635a-812f-47a8-915d-eebf23d399b2","system_id":"levelo_inurba_marseille","lat":43.243284,"lon":5.367569,"is_reserved":false,"is_disabled":false,"rental_uris":{"android":"levelo://app?vid=b791635a-812f-47a8-915d-eebf23d399b2","ios":"levelo://app?vid=b791635a-812f-47a8-915d-eebf23d399b2"},"vehicle_type_id":"4","last_reported":1770326333,"current_range_meters":11200,"station_id":"","pricing_plan_id":"cebpf4jnsgd1na2vs0mg"},{"bike_id":"cb6bc406-744f-4a0c-a49f-a4b4b660d1b2","system_id":"levelo_inurba_marseille","lat":43.2637,"lon":5.4108,"is_reserved":false,"is_disabled":false,"rental_uris":{"android":"levelo://app?vid=cb6bc406-744f-4a0c-a49f-a4b4b660d1b2","ios":"levelo://app?vid=cb6bc406-744f-4a0c-a49f-a4b4b660d1b2"},"vehicle_type_id":"4","last_reported":1770326333,"current_range_meters":11200,"station_id":"st_d4e5ca6na9uc73bfl5fg","pricing_plan_id":"cebpf4jnsgd1na2vs0mg"},{"bike_id":"b08519b5-e79f-45b1-bc8a-4c74d1751abf","system_id":"levelo_inurba_marseille","lat":43.261953,"lon":5.37449,"is_reserved":false,"is_disabled":false,"rental_uris":{"android":"levelo://app?vid=b08519b5-e79f-45b1-bc8a-4c74d1751abf","ios":"levelo://app?vid=b08519b5-e79f-45b1-bc8a-4c74d1751abf"},"vehicle_type_id":"4","last_reported":1770326333,"current_range_meters":11600,"station_id":"ce4bhgp2rcd13ifvqfc0","pricing_plan_id":"cebpf4jnsgd1na2vs0mg"},{"bike_id":"a2e99883-83b1-4d3c-bc4e-f757932971f4","system_id":"levelo_inurba_marseille","lat":43.298454,"lon":5.362715,"is_reserved":false,"is_disabled":false,"rental_uris":{"android":"levelo://app?vid=a2e99883-83b1-4d3c-bc4e-f757932971f4","ios":"levelo://app?vid=a2e99883-83b1-4d3c-bc4e-f757932971f4"},"vehicle_type_id":"4","last_reported":1770326333,"current_range_meters":11600,"station_id":"ce4bgpp2rcd13ifvqc3g","pricing_plan_id":"cebpf4jnsgd1na2vs0mg"},{"bike_id":"1d0ef12e-4bb8-4d8d-9509-0260b1aa5347","system_id":"levelo_inurba_marseille","lat":43.24388,"lon":5.37061,"is_reserved":false,"is_disabled":false,"rental_uris":{"android":"levelo://app?vid=1d0ef12e-4bb8-4d8d-9509-0260b1aa5347","ios":"levelo://app?vid=1d0ef12e-4bb8-4d8d-9509-0260b1aa5347"},"vehicle_type_id":"4","last_reported":1770326333,"current_range_meters":11600,"station_id":"ce4bhhh2rcd13ifvqfk0","pricing_plan_id":"cebpf4jnsgd1na2vs0mg"},{"bike_id":"4553b9ae-95be-4d03-9d86-2a4c79a4ffcc","system_id":"levelo_inurba_marseille","lat":43.28911,"lon":5.39844,"is_reserved":false,"is_disabled":false,"rental_uris":{"android":"levelo://app?vid=4553b9ae-95be-4d03-9d86-2a4c79a4ffcc","ios":"levelo://app?vid=4553b9ae-95be-4d03-9d86-2a4c79a4ffcc"},"vehicle_type_id":"4","last_reported":1770326333,"current_range_meters":11600,"station_id":"","pricing_plan_id":"cebpf4jnsgd1na2vs0mg"},{"bike_id":"a2a422a4-17b1-4a0a-a9e4-f37eb0e03278","system_id":"levelo_inurba_marseille","lat":43.29639,"lon":5.38109,"is_reserved":false,"is_disabled":false,"rental_uris":{"android":"levelo://app?vid=a2a422a4-17b1-4a0a-a9e4-f37eb0e03278","ios":"levelo://app?vid=a2a422a4-17b1-4a0a-a9e4-f37eb0e03278"},"vehicle_type_id":"4","last_reported":1770326333,"current_range_meters":11600,"station_id":"ce4bgl12rcd13ifvqbo0","pricing_plan_id":"cebpf4jnsgd1na2vs0mg"},{"bike_id":"9d9ada7e-8bfb-4948-82e1-5314689a8b39","system_id":"levelo_inurba_marseille","lat":43.335427,"lon":5.374679,"is_reserved":false,"is_disabled":false,"rental_uris":{"android":"levelo://app?vid=9d9ada7e-8bfb-4948-82e1-5314689a8b39","ios":"levelo://app?vid=9d9ada7e-8bfb-4948-82e1-5314689a8b39"},"vehicle_type_id":"4","last_reported":1770326333,"current_range_meters":11600,"station_id":"st_d46tts09ee8s73dlu43g","pricing_plan_id":"cebpf4jnsgd1na2vs0mg"},{"bike_id":"eb12944d-0313-468e-91a2-0303207fbe7b","system_id":"levelo_inurba_marseille","lat":43.29805,"lon":5.38079,"is_reserved":false,"is_disabled":false,"rental_uris":{"android":"levelo://app?vid=eb12944d-0313-468e-91a2-0303207fbe7b","ios":"levelo://app?vid=eb12944d-0313-468e-91a2-0303207fbe7b"},"vehicle_type_id":"4","last_reported":1770326333,"current_range_meters":11600,"station_id":"ce4bgip2rcd13ifvqbb0","pricing_plan_id":"cebpf4jnsgd1na2vs0mg"},{"bike_id":"29554745-e0e5-4276-b587-71d331cae345","system_id":"levelo_inurba_marseille","lat":43.29541,"lon":5.39041,"is_reserved":false,"is_disabled":true,"rental_uris":{"android":"levelo://app?vid=29554745-e0e5-4276-b587-71d331cae345","ios":"levelo://app?vid=29554745-e0e5-4276-b587-71d331cae345"},"vehicle_type_id":"4","last_reported":1770326333,"current_range_meters":11600,"station_id":"ce4bh3p2rcd13ifvqdp0","pricing_plan_id":"cebpf4jnsgd1na2vs0mg"},{"bike_id":"3eb9c337-e4c1-4877-a296-c9b71e1d7e74","system_id":"levelo_inurba_marseille","lat":43.29628,"lon":5.36759,"is_reserved":false,"is_disabled":false,"rental_uris":{"android":"levelo://app?vid=3eb9c337-e4c1-4877-a296-c9b71e1d7e74","ios":"levelo://app?vid=3eb9c337-e4c1-4877-a296-c9b71e1d7e74"},"vehicle_type_id":"4","last_reported":1770326333,"current_range_meters":11600,"station_id":"","pricing_plan_id":"cebpf4jnsgd1na2vs0mg"},{"bike_id":"3ee6cb84-5a6e-4d17-9ae2-dddd1d28d2d4","system_id":"levelo_inurba_marseille","lat":43.25579,"lon":5.38237,"is_reserved":false,"is_disabled":false,"rental_uris":{"android":"levelo://app?vid=3ee6cb84-5a6e-4d17-9ae2-dddd1d28d2d4","ios":"levelo://app?vid=3ee6cb84-5a6e-4d17-9ae2-dddd1d28d2d4"},"vehicle_type_id":"4","last_reported":1770326333,"current_range_meters":11600,"station_id":"ce4bhih2rcd13ifvqfs0","pricing_plan_id":"cebpf4jnsgd1na2vs0mg"},{"bike_id":"fdcf1a3d-f9aa-450d-87ad-3fc27410072b","system_id":"levelo_inurba_marseille","lat":43.30538,"lon":5.38422,"is_reserved":false,"is_disabled":false,"rental_uris":{"android":"levelo://app?vid=fdcf1a3d-f9aa-450d-87ad-3fc27410072b","ios":"levelo://app?vid=fdcf1a3d-f9aa-450d-87ad-3fc27410072b"},"vehicle_type_id":"4","last_reported":1770326333,"current_range_meters":12000,"station_id":"ce4bgg92rcd13ifvqb30","pricing_plan_id":"cebpf4jnsgd1na2vs0mg"},{"bike_id":"998508ae-62ca-465a-850d-a5e9784f3d79","system_id":"levelo_inurba_marseille","lat":43.31009,"lon":5.39088,"is_reserved":false,"is_disabled":false,"rental_uris":{"android":"levelo://app?vid=998508ae-62ca-465a-850d-a5e9784f3d79","ios":"levelo://app?vid=998508ae-62ca-465a-850d-a5e9784f3d79"},"vehicle_type_id":"4","last_reported":1770326333,"current_range_meters":12000,"station_id":"","pricing_plan_id":"cebpf4jnsgd1na2vs0mg"},{"bike_id":"c6e25874-c646-4223-9fb1-4a2c71cb2059","system_id":"levelo_inurba_marseille","lat":43.3123,"lon":5.36877,"is_reserved":false,"is_disabled":false,"rental_uris":{"android":"levelo://app?vid=c6e25874-c646-4223-9fb1-4a2c71cb2059","ios":"levelo://app?vid=c6e25874-c646-4223-9fb1-4a2c71cb2059"},"vehicle_type_id":"4","last_reported":1770326333,"current_range_meters":12000,"station_id":"ce4bgl92rcd13ifvqbq0","pricing_plan_id":"cebpf4jnsgd1na2vs0mg"},{"bike_id":"f429be5d-6478-4343-be50-7c091c7349de","system_id":"levelo_inurba_marseille","lat":43.22977,"lon":5.35414,"is_reserved":false,"is_disabled":false,"rental_uris":{"android":"levelo://app?vid=f429be5d-6478-4343-be50-7c091c7349de","ios":"levelo://app?vid=f429be5d-6478-4343-be50-7c091c7349de"},"vehicle_type_id":"4","last_reported":1770326333,"current_range_meters":12000,"station_id":"","pricing_plan_id":"cebpf4jnsgd1na2vs0mg"},{"bike_id":"4940192c-cd9e-43b0-a8dd-fd4c04e7805e","system_id":"levelo_inurba_marseille","lat":43.22584,"lon":5.41657,"is_reserved":false,"is_disabled":false,"rental_uris":{"android":"levelo://app?vid=4940192c-cd9e-43b0-a8dd-fd4c04e7805e","ios":"levelo://app?vid=4940192c-cd9e-43b0-a8dd-fd4c04e7805e"},