{"last_updated":1698260707,"ttl":30,"version":"2.2","data":{"bikes":[{"bike_id":"cb7576bb-0362-4fbf-baa4-dcb32e287db2","system_id":"levelo_inurba_marseille","lat":43.31314,"lon":5.3676,"is_reserved":false,"is_disabled":false,"rental_uris":{"android":"levelo://app?vid=cb7576bb-0362-4fbf-baa4-dcb32e287db2","ios":"levelo://app?vid=cb7576bb-0362-4fbf-baa4-dcb32e287db2"},"vehicle_type_id":"4","last_reported":1698260707,"current_range_meters":30800,"station_id":"","pricing_plan_id":"free"},{"bike_id":"a20483b7-65cc-4502-9b00-acf4fd022db2","system_id":"levelo_inurba_marseille","lat":43.31323,"lon":5.36767,"is_reserved":false,"is_disabled":false,"rental_uris":{"android":"levelo://app?vid=a20483b7-65cc-4502-9b00-acf4fd022db2","ios":"levelo://app?vid=a20483b7-65cc-4502-9b00-acf4fd022db2"},"vehicle_type_id":"4","last_reported":1698260707,"current_range_meters":27600,"station_id":"","pricing_plan_id":"free"},{"bike_id":"8a296ebd-4e72-4205-92db-902f0bd27e04","system_id":"levelo_inurba_marseille","lat":43.312239,"lon":5.368562,"is_reserved":false,"is_disabled":false,"rental_uris":{"android":"levelo://app?vid=8a296ebd-4e72-4205-92db-902f0bd27e04","ios":"levelo://app?vid=8a296ebd-4e72-4205-92db-902f0bd27e04"},"vehicle_type_id":"4","last_reported":1698260707,"current_range_meters":18800,"station_id":"ce4bgl92rcd13ifvqbq0","pricing_plan_id":"free"},{"bike_id":"e8ce7a24-5c3a-4f56-998b-e0084ae623f5","system_id":"levelo_inurba_marseille","lat":43.312239,"lon":5.368562,"is_reserved":false,"is_disabled":false,"rental_uris":{"android":"levelo://app?vid=e8ce7a24-5c3a-4f56-998b-e0084ae623f5","ios":"levelo://app?vid=e8ce7a24-5c3a-4f56-998b-e0084ae623f5"},"vehicle_type_id":"4","last_reported":1698260707,"current_range_meters":26000,"station_id":"ce4bgl92rcd13ifvqbq0","pricing_plan_id":"free"},{"bike_id":"f5c58904-aeb7-4548-b4b5-9f5e83f269ce","system_id":"levelo_inurba_marseille","lat":43.309797,"lon":5.368093,"is_reserved":false,"is_disabled":false,"rental_uris":{"android":"levelo://app?vid=f5c58904-aeb7-4548-b4b5-9f5e83f269ce","ios":"levelo://app?vid=f5c58904-aeb7-4548-b4b5-9f5e83f269ce"},"vehicle_type_id":"4","last_reported":1698260707,"current_range_meters":2800,"station_id":"ce4bgn92rcd13ifvqbvg","pricing_plan_id":"free"},{"bike_id":"c5ef0ca8-27df-4976-a969-31b9ecb53e9b","system_id":"levelo_inurba_marseille","lat":43.31519,"lon":5.37175,"is_reserved":false,"is_disabled":false,"rental_uris":{"android":"levelo://app?vid=c5ef0ca8-27df-4976-a969-31b9ecb53e9b","ios":"levelo://app?vid=c5ef0ca8-27df-4976-a969-31b9ecb53e9b"},"vehicle_type_id":"4","last_reported":1698260707,"current_range_meters":0,"station_id":"","pricing_plan_id":"free"},{"bike_id":"dbbdea51-7e3d-4271-bd96-c3aabecbd7e2","system_id":"levelo_inurba_marseille","lat":43.315783,"lon":5.372523,"is_reserved":false,"is_disabled":false,"rental_uris":{"android":"levelo://app?vid=dbbdea51-7e3d-4271-bd96-c3aabecbd7e2","ios":"levelo://app?vid=dbbdea51-7e3d-4271-bd96-c3aabecbd7e2"},"vehicle_type_id":"4","last_reported":1698260707,"current_range_meters":18800,"station_id":"","pricing_plan_id":"free"},{"bike_id":"064bcaa5-b649-4757-b584-cf105433f49b","system_id":"levelo_inurba_marseille","lat":43.309039,"lon":5.371797,"is_reserved":false,"is_disabled":false,"rental_uris":{"android":"levelo://app?vid=064bcaa5-b649-4757-b584-cf105433f49b","ios":"levelo://app?vid=064bcaa5-b649-4757-b584-cf105433f49b"},"vehicle_type_id":"4","last_reported":1698260707,"current_range_meters":19200,"station_id":"ce4bguh2rcd13ifvqckg","pricing_plan_id":"free"},{"bike_id":"3c49affa-79c2-4dff-abcf-9c27011ab975","system_id":"levelo_inurba_marseille","lat":43.309039,"lon":5.371797,"is_reserved":false,"is_disabled":false,"rental_uris":{"android":"levelo://app?vid=3c49affa-79c2-4dff-abcf-9c27011ab975","ios":"levelo://app?vid=3c49affa-79c2-4dff-abcf-9c27011ab975"},"vehicle_type_id":"4","last_reported":1698260707,"current_range_meters":23200,"station_id":"ce4bguh2rcd13ifvqckg","pricing_plan_id":"free"},{"bike_id":"28d91daa-bf2a-466b-8cf6-56dbc3683808","system_id":"levelo_inurba_marseille","lat":43.318498,"lon":5.373113,"is_reserved":false,"is_disabled":false,"rental_uris":{"android":"levelo://app?vid=28d91daa-bf2a-466b-8cf6-56dbc3683808","ios":"levelo://app?vid=28d91daa-bf2a-466b-8cf6-56dbc3683808"},"vehicle_type_id":"4","last_reported":1698260707,"current_range_meters":31200,"station_id":"","pricing_plan_id":"free"},{"bike_id":"5dac943b-0946-4c11-8e9d-623dd86ed7fc","system_id":"levelo_inurba_marseille","lat":43.305363,"lon":5.367432,"is_reserved":false,"is_disabled":false,"rental_uris":{"android":"levelo://app?vid=5dac943b-0946-4c11-8e9d-623dd86ed7fc","ios":"levelo://app?vid=5dac943b-0946-4c11-8e9d-623dd86ed7fc"},"vehicle_type_id":"4","last_reported":1698260707,"current_range_meters":4800,"station_id":"ce4bgrp2rcd13ifvqc9g","pricing_plan_id":"free"},{"bike_id":"f252b071-dddd-4e5f-ad07-506846af6d1a","system_id":"levelo_inurba_marseille","lat":43.3054,"lon":5.36549,"is_reserved":false,"is_disabled":false,"rental_uris":{"android":"levelo://app?vid=f252b071-dddd-4e5f-ad07-506846af6d1a","ios":"levelo://app?vid=f252b071-dddd-4e5f-ad07-506846af6d1a"},"vehicle_type_id":"4","last_reported":1698260707,"current_range_meters":10800,"station_id":"ce4bgs12rcd13ifvqcag","pricing_plan_id":"free"},{"bike_id":"dd6d4923-f6c8-45a7-82fa-7152ee1ff270","system_id":"levelo_inurba_marseille","lat":43.305989,"lon":5.37225,"is_reserved":false,"is_disabled":false,"rental_uris":{"android":"levelo://app?vid=dd6d4923-f6c8-45a7-82fa-7152ee1ff270","ios":"levelo://app?vid=dd6d4923-f6c8-45a7-82fa-7152ee1ff270"},"vehicle_type_id":"4","last_reported":1698260707,"current_range_meters":13200,"station_id":"ce4bgqh2rcd13ifvqc4g","pricing_plan_id":"free"},{"bike_id":"82e3baeb-1da5-491d-9c7a-48dddc084232","system_id":"levelo_inurba_marseille","lat":43.305989,"lon":5.37225,"is_reserved":false,"is_disabled":false,"rental_uris":{"android":"levelo://app?vid=82e3baeb-1da5-491d-9c7a-48dddc084232","ios":"levelo://app?vid=82e3baeb-1da5-491d-9c7a-48dddc084232"},"vehicle_type_id":"4","last_reported":1698260707,"current_range_meters":800,"station_id":"ce4bgqh2rcd13ifvqc4g","pricing_plan_id":"free"},{"bike_id":"2fe6addf-3f28-4e18-9be7-8e324eee151f","system_id":"levelo_inurba_marseille","lat":43.30501,"lon":5.37088,"is_reserved":false,"is_disabled":false,"rental_uris":{"android":"levelo://app?vid=2fe6addf-3f28-4e18-9be7-8e324eee151f","ios":"levelo://app?vid=2fe6addf-3f28-4e18-9be7-8e324eee151f"},"vehicle_type_id":"4","last_reported":1698260707,"current_range_meters":13200,"station_id":"","pricing_plan_id":"free"},{"bike_id":"c5801d38-2538-45a7-8db9-e9da38d1622e","system_id":"levelo_inurba_marseille","lat":43.307746,"lon":5.376458,"is_reserved":false,"is_disabled":false,"rental_uris":{"android":"levelo://app?vid=c5801d38-2538-45a7-8db9-e9da38d1622e","ios":"levelo://app?vid=c5801d38-2538-45a7-8db9-e9da38d1622e"},"vehicle_type_id":"4","last_reported":1698260707,"current_range_meters":31200,"station_id":"ce4bgv92rcd13ifvqcq0","pricing_plan_id":"free"},{"bike_id":"a8af88d9-2638-4840-87ca-672aa3932c0f","system_id":"levelo_inurba_marseille","lat":43.307787,"lon":5.376499,"is_reserved":false,"is_disabled":false,"rental_uris":{"android":"levelo://app?vid=a8af88d9-2638-4840-87ca-672aa3932c0f","ios":"levelo://app?vid=a8af88d9-2638-4840-87ca-672aa3932c0f"},"vehicle_type_id":"4","last_reported":1698260707,"current_range_meters":0,"station_id":"ce4bgv92rcd13ifvqcq0","pricing_plan_id":"free"},{"bike_id":"0c521f43-5060-4033-bf30-9bf43a1ea9f3","system_id":"levelo_inurba_marseille","lat":43.30787,"lon":5.37658,"is_reserved":false,"is_disabled":false,"rental_uris":{"android":"levelo://app?vid=0c521f43-5060-4033-bf30-9bf43a1ea9f3","ios":"levelo://app?vid=0c521f43-5060-4033-bf30-9bf43a1ea9f3"},"vehicle_type_id":"4","last_reported":1698260707,"current_range_meters":26000,"station_id":"ce4bgv92rcd13ifvqcq0","pricing_plan_id":"free"},{"bike_id":"dd7b3b69-7420-44fd-9abc-c74213a6269c","system_id":"levelo_inurba_marseille","lat":43.30785,"lon":5.37657,"is_reserved":false,"is_disabled":false,"rental_uris":{"android":"levelo://app?vid=dd7b3b69-7420-44fd-9abc-c74213a6269c","ios":"levelo://app?vid=dd7b3b69-7420-44fd-9abc-c74213a6269c"},"vehicle_type_id":"4","last_reported":1698260707,"current_range_meters":18800,"station_id":"ce4bgv92rcd13ifvqcq0","pricing_plan_id":"free"},{"bike_id":"d445bdba-3c5f-4e73-84c7-3d8f1783f724","system_id":"levelo_inurba_marseille","lat":43.307773,"lon":5.376511,"is_reserved":false,"is_disabled":false,"rental_uris":{"android":"levelo://app?vid=d445bdba-3c5f-4e73-84c7-3d8f1783f724","ios":"levelo://app?vid=d445bdba-3c5f-4e73-84c7-3d8f1783f724"},"vehicle_type_id":"4","last_reported":1698260707,"current_range_meters":31200,"station_id":"ce4bgv92rcd13ifvqcq0","pricing_plan_id":"free"},{"bike_id":"3cd152d1-004c-4987-921b-6e07a7a84573","system_id":"levelo_inurba_marseille","lat":43.317075,"lon":5.377367,"is_reserved":false,"is_disabled":false,"rental_uris":{"android":"levelo://app?vid=3cd152d1-004c-4987-921b-6e07a7a84573","ios":"levelo://app?vid=3cd152d1-004c-4987-921b-6e07a7a84573"},"vehicle_type_id":"4","last_reported":1698260707,"current_range_meters":28000,"station_id":"ce4bgth2rcd13ifvqch0","pricing_plan_id":"free"},{"bike_id":"1f236080-2dbe-436d-a3ef-e2d9e64c915a","system_id":"levelo_inurba_marseille","lat":43.317075,"lon":5.377367,"is_reserved":false,"is_disabled":false,"rental_uris":{"android":"levelo://app?vid=1f236080-2dbe-436d-a3ef-e2d9e64c915a","ios":"levelo://app?vid=1f236080-2dbe-436d-a3ef-e2d9e64c915a"},"vehicle_type_id":"4","last_reported":1698260707,"current_range_meters":17200,"station_id":"ce4bgth2rcd13ifvqch0","pricing_plan_id":"free"},{"bike_id":"1f6ece22-a3eb-4a17-b175-aa8c6da5d412","system_id":"levelo_inurba_marseille","lat":43.317075,"lon":5.377367,"is_reserved":false,"is_disabled":false,"rental_uris":{"android":"levelo://app?vid=1f6ece22-a3eb-4a17-b175-aa8c6da5d412","ios":"levelo://app?vid=1f6ece22-a3eb-4a17-b175-aa8c6da5d412"},"vehicle_type_id":"4","last_reported":1698260707,"current_range_meters":22800,"station_id":"ce4bgth2rcd13ifvqch0","pricing_plan_id":"free"},{"bike_id":"62a6383a-9dc7-42d7-9351-ff649b5ef5c9","system_id":"levelo_inurba_marseille","lat":43.31519,"lon":5.38033,"is_reserved":false,"is_disabled":false,"rental_uris":{"android":"levelo://app?vid=62a6383a-9dc7-42d7-9351-ff649b5ef5c9","ios":"levelo://app?vid=62a6383a-9dc7-42d7-9351-ff649b5ef5c9"},"vehicle_type_id":"4","last_reported":1698260707,"current_range_meters":4400,"station_id":"ce4bhsp2rcd13ifvqi50","pricing_plan_id":"free"},{"bike_id":"5c2b8f23-f2aa-4696-9697-f03dd2ede8ee","system_id":"levelo_inurba_marseille","lat":43.321831,"lon":5.375051,"is_reserved":false,"is_disabled":false,"rental_uris":{"android":"levelo://app?vid=5c2b8f23-f2aa-4696-9697-f03dd2ede8ee","ios":"levelo://app?vid=5c2b8f23-f2aa-4696-9697-f03dd2ede8ee"},"vehicle_type_id":"4","last_reported":1698260707,"current_range_meters":16000,"station_id":"","pricing_plan_id":"free"},{"bike_id":"652fbd9d-e0cd-4b1d-9f2f-944df27d9739","system_id":"levelo_inurba_marseille","lat":43.308012,"lon":5.381511,"is_reserved":false,"is_disabled":false,"rental_uris":{"android":"levelo://app?vid=652fbd9d-e0cd-4b1d-9f2f-944df27d9739","ios":"levelo://app?vid=652fbd9d-e0cd-4b1d-9f2f-944df27d9739"},"vehicle_type_id":"4","last_reported":1698260707,"current_range_meters":19600,"station_id":"ce4bgt12rcd13ifvqce0","pricing_plan_id":"free"},{"bike_id":"b5a1238e-400f-4e91-bf9c-a15d547608fd","system_id":"levelo_inurba_marseille","lat":43.308012,"lon":5.381511,"is_reserved":false,"is_disabled":false,"rental_uris":{"android":"levelo://app?vid=b5a1238e-400f-4e91-bf9c-a15d547608fd","ios":"levelo://app?vid=b5a1238e-400f-4e91-bf9c-a15d547608fd"},"vehicle_type_id":"4","last_reported":1698260707,"current_range_meters":31200,"station_id":"ce4bgt12rcd13ifvqce0","pricing_plan_id":"free"},{"bike_id":"e6db9884-b50a-4fef-a866-32a59c14dbdc","system_id":"levelo_inurba_marseille","lat":43.307986,"lon":5.381579,"is_reserved":false,"is_disabled":false,"rental_uris":{"android":"levelo://app?vid=e6db9884-b50a-4fef-a866-32a59c14dbdc","ios":"levelo://app?vid=e6db9884-b50a-4fef-a866-32a59c14dbdc"},"vehicle_type_id":"4","last_reported":1698260707,"current_range_meters":31200,"station_id":"ce4bgt12rcd13ifvqce0","pricing_plan_id":"free"},{"bike_id":"d9d00f46-9ab9-491c-9778-a3f1c9a6a04f","system_id":"levelo_inurba_marseille","lat":43.3078,"lon":5.38169,"is_reserved":false,"is_disabled":false,"rental_uris":{"android":"levelo://app?vid=d9d00f46-9ab9-491c-9778-a3f1c9a6a04f","ios":"levelo://app?vid=d9d00f46-9ab9-491c-9778-a3f1c9a6a04f"},"vehicle_type_id":"4","last_reported":1698260707,"current_range_meters":24400,"station_id":"ce4bgt12rcd13ifvqce0","pricing_plan_id":"free"},{"bike_id":"1047bcc5-10ff-460b-bd6f-eac1d4a67db4","system_id":"levelo_inurba_marseille","lat":43.31745,"lon":5.382537,"is_reserved":false,"is_disabled":false,"rental_uris":{"android":"levelo://app?vid=1047bcc5-10ff-460b-bd6f-eac1d4a67db4","ios":"levelo://app?vid=1047bcc5-10ff-460b-bd6f-eac1d4a67db4"},"vehicle_type_id":"4","last_reported":1698260707,"current_range_meters":3200,"station_id":"","pricing_plan_id":"free"},{"bike_id":"73c6c664-2c4e-403f-b0c3-393f4315b035","system_id":"levelo_inurba_marseille","lat":43.31991,"lon":5.381,"is_reserved":false,"is_disabled":false,"rental_uris":{"android":"levelo://app?vid=73c6c664-2c4e-403f-b0c3-393f4315b035","ios":"levelo://app?vid=73c6c664-2c4e-403f-b0c3-393f4315b035"},"vehicle_type_id":"4","last_reported":1698260707,"current_range_meters":26400,"station_id":"ce4bhr12rcd13ifvqhpg","pricing_plan_id":"free"},{"bike_id":"46e59620-997e-486c-a36f-24a6f0541ad5","system_id":"levelo_inurba_marseille","lat":43.319937,"lon":5.381563,"is_reserved":false,"is_disabled":false,"rental_uris":{"android":"levelo://app?vid=46e59620-997e-486c-a36f-24a6f0541ad5","ios":"levelo://app?vid=46e59620-997e-486c-a36f-24a6f0541ad5"},"vehicle_type_id":"4","last_reported":1698260707,"current_range_meters":13200,"station_id":"","pricing_plan_id":"free"},{"bike_id":"7cb2bbbb-6671-40e1-933c-e83eb70d5511","system_id":"levelo_inurba_marseille","lat":43.319935,"lon":5.381699,"is_reserved":false,"is_disabled":false,"rental_uris":{"android":"levelo://app?vid=7cb2bbbb-6671-40e1-933c-e83eb70d5511","ios":"levelo://app?vid=7cb2bbbb-6671-40e1-933c-e83eb70d5511"},"vehicle_type_id":"4","last_reported":1698260707,"current_range_meters":9200,"station_id":"ce4bhr12rcd13ifvqhpg","pricing_plan_id":"free"},{"bike_id":"b3b96313-f2b7-4c3e-8c89-7cd25b81cf93","system_id":"levelo_inurba_marseille","lat":43.313571,"lon":5.384829,"is_reserved":false,"is_disabled":false,"rental_uris":{"android":"levelo://app?vid=b3b96313-f2b7-4c3e-8c89-7cd25b81cf93","ios":"levelo://app?vid=b3b96313-f2b7-4c3e-8c89-7cd25b81cf93"},"vehicle_type_id":"4","last_reported":1698260707,"current_range_meters":29200,"station_id":"ce4bgt92rcd13ifvqcf0","pricing_plan_id":"free"},{"bike_id":"5db9f52d-ceb0-4b8d-b0fc-9a12e3b22442","system_id":"levelo_inurba_marseille","lat":43.299448,"lon":5.365673,"is_reserved":false,"is_disabled":false,"rental_uris":{"android":"levelo://app?vid=5db9f52d-ceb0-4b8d-b0fc-9a12e3b22442","ios":"levelo://app?vid=5db9f52d-ceb0-4b8d-b0fc-9a12e3b22442"},"vehicle_type_id":"4","last_reported":1698260707,"current_range_meters":1200,"station_id":"ce4bgm92rcd13ifvqbr0","pricing_plan_id":"free"},{"bike_id":"88a79cfc-7252-4c78-9488-f099cdf3a901","system_id":"levelo_inurba_marseille","lat":43.299325,"lon":5.365585,"is_reserved":false,"is_disabled":false,"rental_uris":{"android":"levelo://app?vid=88a79cfc-7252-4c78-9488-f099cdf3a901","ios":"levelo://app?vid=88a79cfc-7252-4c78-9488-f099cdf3a901"},"vehicle_type_id":"4","last_reported":1698260707,"current_range_meters":24000,"station_id":"ce4bgm92rcd13ifvqbr0","pricing_plan_id":"free"},{"bike_id":"36e85581-7e04-476a-b605-2fb57ec066d5","system_id":"levelo_inurba_marseille","lat":43.299724,"lon":5.371829,"is_reserved":false,"is_disabled":false,"rental_uris":{"android":"levelo://app?vid=36e85581-7e04-476a-b605-2fb57ec066d5","ios":"levelo://app?vid=36e85581-7e04-476a-b605-2fb57ec066d5"},"vehicle_type_id":"4","last_reported":1698260707,"current_range_meters":16000,"station_id":"ce4bgr92rcd13ifvqc7g","pricing_plan_id":"free"},{"bike_id":"eb50fc00-d0ae-4427-8193-0f309c604a2a","system_id":"levelo_inurba_marseille","lat":43.29926,"lon":5.36551,"is_reserved":false,"is_disabled":false,"rental_uris":{"android":"levelo://app?vid=eb50fc00-d0ae-4427-8193-0f309c604a2a","ios":"levelo://app?vid=eb50fc00-d0ae-4427-8193-0f309c604a2a"},"vehicle_type_id":"4","last_reported":1698260707,"current_range_meters":3600,"station_id":"ce4bgm92rcd13ifvqbr0","pricing_plan_id":"free"},{"bike_id":"44a22026-a632-41fd-b389-602dc50b2793","system_id":"levelo_inurba_marseille","lat":43.299724,"lon":5.371829,"is_reserved":false,"is_disabled":false,"rental_uris":{"android":"levelo://app?vid=44a22026-a632-41fd-b389-602dc50b2793","ios":"levelo://app?vid=44a22026-a632-41fd-b389-602dc50b2793"},"vehicle_type_id":"4","last_reported":1698260707,"current_range_meters":2000,"station_id":"ce4bgr92rcd13ifvqc7g","pricing_plan_id":"free"},{"bike_id":"97997ef7-b347-4148-ba57-9a15ecc4912d","system_id":"levelo_inurba_marseille","lat":43.320945,"lon":5.38306,"is_reserved":false,"is_disabled":false,"rental_uris":{"android":"levelo://app?vid=97997ef7-b347-4148-ba57-9a15ecc4912d","ios":"levelo://app?vid=97997ef7-b347-4148-ba57-9a15ecc4912d"},"vehicle_type_id":"4","last_reported":1698260707,"current_range_meters":4000,"station_id":"","pricing_plan_id":"free"},{"bike_id":"858504dd-fa00-46ba-bb65-7e47e3029a75","system_id":"levelo_inurba_marseille","lat":43.311722,"lon":5.387247,"is_reserved":false,"is_disabled":false,"rental_uris":{"android":"levelo://app?vid=858504dd-fa00-46ba-bb65-7e47e3029a75","ios":"levelo://app?vid=858504dd-fa00-46ba-bb65-7e47e3029a75"},"vehicle_type_id":"4","last_reported":1698260707,"current_range_meters":20400,"station_id":"ce4bgv12rcd13ifvqcp0","pricing_plan_id":"free"},{"bike_id":"570e7dd9-3e2e-4b11-a9fc-5afd5d1994f2","system_id":"levelo_inurba_marseille","lat":43.311722,"lon":5.387247,"is_reserved":false,"is_disabled":false,"rental_uris":{"android":"levelo://app?vid=570e7dd9-3e2e-4b11-a9fc-5afd5d1994f2","ios":"levelo://app?vid=570e7dd9-3e2e-4b11-a9fc-5afd5d1994f2"},"vehicle_type_id":"4","last_reported":1698260707,"current_range_meters":18000,"station_id":"ce4bgv12rcd13ifvqcp0","pricing_plan_id":"free"},{"bike_id":"cc87ec70-5a61-4201-b736-45d259fbebe0","system_id":"levelo_inurba_marseille","lat":43.311722,"lon":5.387247,"is_reserved":false,"is_disabled":false,"rental_uris":{"android":"levelo://app?vid=cc87ec70-5a61-4201-b736-45d259fbebe0","ios":"levelo://app?vid=cc87ec70-5a61-4201-b736-45d259fbebe0"},"vehicle_type_id":"4","last_reported":1698260707,"current_range_meters":4800,"station_id":"ce4bgv12rcd13ifvqcp0","pricing_plan_id":"free"},{"bike_id":"15b345b7-2a43-4b60-ad2c-caa4f123791b","system_id":"levelo_inurba_marseille","lat":43.311722,"lon":5.387247,"is_reserved":false,"is_disabled":false,"rental_uris":{"android":"levelo://app?vid=15b345b7-2a43-4b60-ad2c-caa4f123791b","ios":"levelo://app?vid=15b345b7-2a43-4b60-ad2c-caa4f123791b"},"vehicle_type_id":"4","last_reported":1698260707,"current_range_meters":15200,"station_id":"ce4bgv12rcd13ifvqcp0","pricing_plan_id":"free"},{"bike_id":"f609df71-15f7-4968-a94d-405e66b00329","system_id":"levelo_inurba_marseille","lat":43.298433,"lon":5.362774,"is_reserved":false,"is_disabled":false,"rental_uris":{"android":"levelo://app?vid=f609df71-15f7-4968-a94d-405e66b00329","ios":"levelo://app?vid=f609df71-15f7-4968-a94d-405e66b00329"},"vehicle_type_id":"4","last_reported":1698260707,"current_range_meters":0,"station_id":"ce4bgpp2rcd13ifvqc3g","pricing_plan_id":"free"},{"bike_id":"16c9c157-f0c1-42ce-8329-bfe7116d078b","system_id":"levelo_inurba_marseille","lat":43.322872,"lon":5.382756,"is_reserved":false,"is_disabled":false,"rental_uris":{"android":"levelo://app?vid=16c9c157-f0c1-42ce-8329-bfe7116d078b","ios":"levelo://app?vid=16c9c157-f0c1-42ce-8329-bfe7116d078b"},"vehicle_type_id":"4","last_reported":1698260707,"current_range_meters":25600,"station_id":"ce4bhr12rcd13ifvqhqg","pricing_plan_id":"free"},{"bike_id":"2cb55403-67fb-4dc4-a23d-ed44a0a6b4f7","system_id":"levelo_inurba_marseille","lat":43.32827,"lon":5.36679,"is_reserved":false,"is_disabled":false,"rental_uris":{"android":"levelo://app?vid=2cb55403-67fb-4dc4-a23d-ed44a0a6b4f7","ios":"levelo://app?vid=2cb55403-67fb-4dc4-a23d-ed44a0a6b4f7"},"vehicle_type_id":"4","last_reported":1698260707,"current_range_meters":0,"station_id":"","pricing_plan_id":"free"},{"bike_id":"2bf09692-7151-4aba-9fa7-8ce1d6106004","system_id":"levelo_inurba_marseille","lat":43.328303,"lon":5.366873,"is_reserved":false,"is_disabled":false,"rental_uris":{"android":"levelo://app?vid=2bf09692-7151-4aba-9fa7-8ce1d6106004","ios":"levelo://app?vid=2bf09692-7151-4aba-9fa7-8ce1d6106004"},"vehicle_type_id":"4","last_reported":1698260707,"current_range_meters":23600,"station_id":"","pricing_plan_id":"free"},{"bike_id":"253acc76-a0cb-4f23-92fd-a36ffd25691a","system_id":"levelo_inurba_marseille","lat":43.32833,"lon":5.36694,"is_reserved":false,"is_disabled":false,"rental_uris":{"android":"levelo://app?vid=253acc76-a0cb-4f23-92fd-a36ffd25691a","ios":"levelo://app?vid=253acc76-a0cb-4f23-92fd-a36ffd25691a"},"vehicle_type_id":"4","last_reported":1698260707,"current_range_meters":1600,"station_id":"ce4bhs92rcd13ifvqi0g","pricing_plan_id":"free"},{"bike_id":"95a68660-f2cd-442b-bac3-3a360244ca75","system_id":"levelo_inurba_marseille","lat":43.328346,"lon":5.366962,"is_reserved":false,"is_disabled":false,"rental_uris":{"android":"levelo://app?vid=95a68660-f2cd-442b-bac3-3a360244ca75","ios":"levelo://app?vid=95a68660-f2cd-442b-bac3-3a360244ca75"},"vehicle_type_id":"4","last_reported":1698260707,"current_range_meters":1200,"station_id":"ce4bhs92rcd13ifvqi0g","pricing_plan_id":"free"},{"bike_id":"a710e3e7-5116-4a31-bffe-8c15e62b1eda","system_id":"levelo_inurba_marseille","lat":43.2968,"lon":5.37291,"is_reserved":false,"is_disabled":false,"rental_uris":{"android":"levelo://app?vid=a710e3e7-5116-4a31-bffe-8c15e62b1eda","ios":"levelo://app?vid=a710e3e7-5116-4a31-bffe-8c15e62b1eda"},"vehicle_type_id":"4","last_reported":1698260707,"current_range_meters":29600,"station_id":"ce4bgk12rcd13ifvqbj0","pricing_plan_id":"free"},{"bike_id":"4625c1ea-04d9-403c-b869-089b3ed07365","system_id":"levelo_inurba_marseille","lat":43.2968,"lon":5.37291,"is_reserved":false,"is_disabled":false,"rental_uris":{"android":"levelo://app?vid=4625c1ea-04d9-403c-b869-089b3ed07365","ios":"levelo://app?vid=4625c1ea-04d9-403c-b869-089b3ed07365"},"vehicle_type_id":"4","last_reported":1698260707,"current_range_meters":28400,"station_id":"ce4bgk12rcd13ifvqbj0","pricing_plan_id":"free"},{"bike_id":"d47d7d3e-b4c1-44eb-a6ba-f360d4459c52","system_id":"levelo_inurba_marseille","lat":43.299077,"lon":5.379553,"is_reserved":false,"is_disabled":false,"rental_uris":{"android":"levelo://app?vid=d47d7d3e-b4c1-44eb-a6ba-f360d4459c52","ios":"levelo://app?vid=d47d7d3e-b4c1-44eb-a6ba-f360d4459c52"},"vehicle_type_id":"4","last_reported":1698260707,"current_range_meters":20000,"station_id":"","pricing_plan_id":"free"},{"bike_id":"bff7474e-4b61-4799-a9e5-3fcab8282b39","system_id":"levelo_inurba_marseille","lat":43.2968,"lon":5.37291,"is_reserved":false,"is_disabled":false,"rental_uris":{"android":"levelo://app?vid=bff7474e-4b61-4799-a9e5-3fcab8282b39","ios":"levelo://app?vid=bff7474e-4b61-4799-a9e5-3fcab8282b39"},"vehicle_type_id":"4","last_reported":1698260707,"current_range_meters":15200,"station_id":"ce4bgk12rcd13ifvqbj0","pricing_plan_id":"free"},{"bike_id":"39ed8ad1-077d-44ff-a16e-e08e2981e37c","system_id":"levelo_inurba_marseille","lat":43.29625,"lon":5.36339,"is_reserved":false,"is_disabled":false,"rental_uris":{"android":"levelo://app?vid=39ed8ad1-077d-44ff-a16e-e08e2981e37c","ios":"levelo://app?vid=39ed8ad1-077d-44ff-a16e-e08e2981e37c"},"vehicle_type_id":"4","last_reported":1698260707,"current_range_meters":10400,"station_id":"","pricing_plan_id":"free"},{"bike_id":"81e72559-a875-44a8-ac20-cb14be191031","system_id":"levelo_inurba_marseille","lat":43.29619,"lon":5.37151,"is_reserved":false,"is_disabled":false,"rental_uris":{"android":"levelo://app?vid=81e72559-a875-44a8-ac20-cb14be191031","ios":"levelo://app?vid=81e72559-a875-44a8-ac20-cb14be191031"},"vehicle_type_id":"4","last_reported":1698260707,"current_range_meters":0,"station_id":"ce4bgk12rcd13ifvqbj0","pricing_plan_id":"free"},{"bike_id":"2e344c12-2f28-4767-b7c2-dd009d9d814d","system_id":"levelo_inurba_marseille","lat":43.296131,"lon":5.370773,"is_reserved":false,"is_disabled":false,"rental_uris":{"android":"levelo://app?vid=2e344c12-2f28-4767-b7c2-dd009d9d814d","ios":"levelo://app?vid=2e344c12-2f28-4767-b7c2-dd009d9d814d"},"vehicle_type_id":"4","last_reported":1698260707,"current_range_meters":23600,"station_id":"ce4bgnh2rcd13ifvqc0g","pricing_plan_id":"free"},{"bike_id":"8851b8ef-d25c-4a85-ac86-3a567f6d79cd","system_id":"levelo_inurba_marseille","lat":43.29573,"lon":5.367355,"is_reserved":false,"is_disabled":false,"rental_uris":{"android":"levelo://app?vid=8851b8ef-d25c-4a85-ac86-3a567f6d79cd","ios":"levelo://app?vid=8851b8ef-d25c-4a85-ac86-3a567f6d79cd"},"vehicle_type_id":"4","last_reported":1698260707,"current_range_meters":8000,"station_id":"ce4bgph2rcd13ifvqc2g","pricing_plan_id":"free"},{"bike_id":"f3d0381f-7a2d-409e-a12f-bd3d9095653d","system_id":"levelo_inurba_marseille","lat":43.329673,"lon":5.365468,"is_reserved":false,"is_disabled":false,"rental_uris":{"android":"levelo://app?vid=f3d0381f-7a2d-409e-a12f-bd3d9095653d","ios":"levelo://app?vid=f3d0381f-7a2d-409e-a12f-bd3d9095653d"},"vehicle_type_id":"4","last_reported":1698260707,"current_range_meters":15600,"station_id":"","pricing_plan_id":"free"},{"bike_id":"a108d5d7-ce43-4f70-b7c7-b747d3996f67","system_id":"levelo_inurba_marseille","lat":43.29573,"lon":5.367355,"is_reserved":false,"is_disabled":false,"rental_uris":{"android":"levelo://app?vid=a108d5d7-ce43-4f70-b7c7-b747d3996f67","ios":"levelo://app?vid=a108d5d7-ce43-4f70-b7c7-b747d3996f67"},"vehicle_type_id":"4","last_reported":1698260707,"current_range_meters":19200,"station_id":"ce4bgph2rcd13ifvqc2g","pricing_plan_id":"free"},{"bike_id":"159e6baa-8d6a-4ee4-a4bb-ce23e14c0e46","system_id":"levelo_inurba_marseille","lat":43.29717,"lon":5.37685,"is_reserved":false,"is_disabled":false,"rental_uris":{"android":"levelo://app?vid=159e6baa-8d6a-4ee4-a4bb-ce23e14c0e46","ios":"levelo://app?vid=159e6baa-8d6a-4ee4-a4bb-ce23e14c0e46"},"vehicle_type_id":"4","last_reported":1698260707,"current_range_meters":0,"station_id":"ce4bgkh2rcd13ifvqbl0","pricing_plan_id":"free"},{"bike_id":"e73cdad1-55c3-489e-94d2-ddc76ad8f19c","system_id":"levelo_inurba_marseille","lat":43.309589,"lon":5.390258,"is_reserved":false,"is_disabled":false,"rental_uris":{"android":"levelo://app?vid=e73cdad1-55c3-489e-94d2-ddc76ad8f19c","ios":"levelo://app?vid=e73cdad1-55c3-489e-94d2-ddc76ad8f19c"},"vehicle_type_id":"4","last_reported":1698260707,"current_range_meters":17600,"station_id":"ce4bgup2rcd13ifvqco0","pricing_plan_id":"free"},{"bike_id":"8793374e-ea9c-46d0-b834-42a4ae9bd026","system_id":"levelo_inurba_marseille","lat":43.317557,"lon":5.390173,"is_reserved":false,"is_disabled":false,"rental_uris":{"android":"levelo://app?vid=8793374e-ea9c-46d0-b834-42a4ae9bd026","ios":"levelo://app?vid=8793374e-ea9c-46d0-b834-42a4ae9bd026"},"vehicle_type_id":"4","last_reported":1698260707,"current_range_meters":24800,"station_id":"ce4bhqp2rcd13ifvqhng","pricing_plan_id":"free"},{"bike_id":"2b74373d-d044-46d9-aba9-44ff4f326bc0","system_id":"levelo_inurba_marseille","lat":43.317557,"lon":5.390173,"is_reserved":false,"is_disabled":false,"rental_uris":{"android":"levelo://app?vid=2b74373d-d044-46d9-aba9-44ff4f326bc0","ios":"levelo://app?vid=2b74373d-d044-46d9-aba9-44ff4f326bc0"},"vehicle_type_id":"4","last_reported":1698260707,"current_range_meters":6800,"station_id":"ce4bhqp2rcd13ifvqhng","pricing_plan_id":"free"},{"bike_id":"3bfafe38-d12e-410a-b5b7-b7b0518bfa29","system_id":"levelo_inurba_marseille","lat":43.298037,"lon":5.381066,"is_reserved":false,"is_disabled":false,"rental_uris":{"android":"levelo://app?vid=3bfafe38-d12e-410a-b5b7-b7b0518bfa29","ios":"levelo://app?vid=3bfafe38-d12e-410a-b5b7-b7b0518bfa29"},"vehicle_type_id":"4","last_reported":1698260707,"current_range_meters":18000,"station_id":"ce4bgip2rcd13ifvqbb0","pricing_plan_id":"free"},{"bike_id":"643dff53-a656-45ab-8e8a-17fe6964ea9e","system_id":"levelo_inurba_marseille","lat":43.30432,"lon":5.38897,"is_reserved":false,"is_disabled":false,"rental_uris":{"android":"levelo://app?vid=643dff53-a656-45ab-8e8a-17fe6964ea9e","ios":"levelo://app?vid=643dff53-a656-45ab-8e8a-17fe6964ea9e"},"vehicle_type_id":"4","last_reported":1698260707,"current_range_meters":0,"station_id":"ce4bgk12rcd13ifvqbi0","pricing_plan_id":"free"},{"bike_id":"91120759-2da1-44dc-9bf3-4075b4ceb55f","system_id":"levelo_inurba_marseille","lat":43.296263,"lon":5.377094,"is_reserved":false,"is_disabled":false,"rental_uris":{"android":"levelo://app?vid=91120759-2da1-44dc-9bf3-4075b4ceb55f","ios":"levelo://app?vid=91120759-2da1-44dc-9bf3-4075b4ceb55f"},"vehicle_type_id":"4","last_reported":1698260707,"current_range_meters":14000,"station_id":"ce4bgi92rcd13ifvqb90","pricing_plan_id":"free"},{"bike_id":"c028b5e7-5e97-47b7-9784-cec80198b48c","system_id":"levelo_inurba_marseille","lat":43.29979,"lon":5.38487,"is_reserved":false,"is_disabled":false,"rental_uris":{"android":"levelo://app?vid=c028b5e7-5e97-47b7-9784-cec80198b48c","ios":"levelo://app?vid=c028b5e7-5e97-47b7-9784-cec80198b48c"},"vehicle_type_id":"4","last_reported":1698260707,"current_range_meters":11200,"station_id":"ce4bgj92rcd13ifvqbd0","pricing_plan_id":"free"},{"bike_id":"50ba0a4e-dc52-4b36-bbea-ef74378b458b","system_id":"levelo_inurba_marseille","lat":43.29698,"lon":5.3812,"is_reserved":false,"is_disabled":false,"rental_uris":{"android":"levelo://app?vid=50ba0a4e-dc52-4b36-bbea-ef74378b458b","ios":"levelo://app?vid=50ba0a4e-dc52-4b36-bbea-ef74378b458b"},"vehicle_type_id":"4","last_reported":1698260707,"current_range_meters":4800,"station_id":"","pricing_plan_id":"free"},{"bike_id":"aba1a070-a951-4e97-9a70-8db24f905181","system_id":"levelo_inurba_marseille","lat":43.32369,"lon":5.38887,"is_reserved":false,"is_disabled":false,"rental_uris":{"android":"levelo://app?vid=aba1a070-a951-4e97-9a70-8db24f905181","ios":"levelo://app?vid=aba1a070-a951-4e97-9a70-8db24f905181"},"vehicle_type_id":"4","last_reported":1698260707,"current_range_meters":22800,"station_id":"ce4bhqp2rcd13ifvqhog","pricing_plan_id":"free"},{"bike_id":"9d77b1e7-3013-47cf-a5aa-cb6b5ff52e39","system_id":"levelo_inurba_marseille","lat":43.32366,"lon":5.3889,"is_reserved":false,"is_disabled":false,"rental_uris":{"android":"levelo://app?vid=9d77b1e7-3013-47cf-a5aa-cb6b5ff52e39","ios":"levelo://app?vid=9d77b1e7-3013-47cf-a5aa-cb6b5ff52e39"},"vehicle_type_id":"4","last_reported":1698260707,"current_range_meters":12400,"station_id":"ce4bhqp2rcd13ifvqhog","pricing_plan_id":"free"},{"bike_id":"6b6ceb7e-3052-4745-b30b-47c38799903c","system_id":"levelo_inurba_marseille","lat":43.32369,"lon":5.388873,"is_reserved":false,"is_disabled":false,"rental_uris":{"android":"levelo://app?vid=6b6ceb7e-3052-4745-b30b-47c38799903c","ios":"levelo://app?vid=6b6ceb7e-3052-4745-b30b-47c38799903c"},"vehicle_type_id":"4","last_reported":1698260707,"current_range_meters":1600,"station_id":"ce4bhqp2rcd13ifvqhog","pricing_plan_id":"free"},{"bike_id":"b62e277f-91bf-4fc9-9a9b-745dcba18968","system_id":"levelo_inurba_marseille","lat":43.32367,"lon":5.388836,"is_reserved":false,"is_disabled":false,"rental_uris":{"android":"levelo://app?vid=b62e277f-91bf-4fc9-9a9b-745dcba18968","ios":"levelo://app?vid=b62e277f-91bf-4fc9-9a9b-745dcba18968"},"vehicle_type_id":"4","last_reported":1698260707,"current_range_meters":3200,"station_id":"ce4bhqp2rcd13ifvqhog","pricing_plan_id":"free"},{"bike_id":"12c3846f-ee79-4b33-8cb8-b0efd33f99b4","system_id":"levelo_inurba_marseille","lat":43.32367,"lon":5.388836,"is_reserved":false,"is_disabled":false,"rental_uris":{"android":"levelo://app?vid=12c3846f-ee79-4b33-8cb8-b0efd33f99b4","ios":"levelo://app?vid=12c3846f-ee79-4b33-8cb8-b0efd33f99b4"},"vehicle_type_id":"4","last_reported":1698260707,"current_range_meters":8400,"station_id":"ce4bhqp2rcd13ifvqhog","pricing_plan_id":"free"},{"bike_id":"56f25917-9d88-476d-a60d-dac2ff0f725d","system_id":"levelo_inurba_marseille","lat":43.323517,"lon":5.389395,"is_reserved":false,"is_disabled":false,"rental_uris":{"android":"levelo://app?vid=56f25917-9d88-476d-a60d-dac2ff0f725d","ios":"levelo://app?vid=56f25917-9d88-476d-a60d-dac2ff0f725d"},"vehicle_type_id":"4","last_reported":1698260707,"current_range_meters":800,"station_id":"ce4bhqp2rcd13ifvqhog","pricing_plan_id":"free"},{"bike_id":"bb82c854-6356-48f0-bcf0-c0437b5cd142","system_id":"levelo_inurba_marseille","lat":43.302288,"lon":5.390316,"is_reserved":false,"is_disabled":false,"rental_uris":{"android":"levelo://app?vid=bb82c854-6356-48f0-bcf0-c0437b5cd142","ios":"levelo://app?vid=bb82c854-6356-48f0-bcf0-c0437b5cd142"},"vehicle_type_id":"4","last_reported":1698260707,"current_range_meters":30400,"station_id":"","pricing_plan_id":"free"},{"bike_id":"bbab7e28-ee01-4080-b12e-dd8baccd43d0","system_id":"levelo_inurba_marseille","lat":43.32394,"lon":5.389747,"is_reserved":false,"is_disabled":false,"rental_uris":{"android":"levelo://app?vid=bbab7e28-ee01-4080-b12e-dd8baccd43d0","ios":"levelo://app?vid=bbab7e28-ee01-4080-b12e-dd8baccd43d0"},"vehicle_type_id":"4","last_reported":1698260707,"current_range_meters":19600,"station_id":"","pricing_plan_id":"free"},{"bike_id":"7dfd6555-89fd-4d24-a1da-a5bf39980e82","system_id":"levelo_inurba_marseille","lat":43.292929,"lon":5.371462,"is_reserved":false,"is_disabled":false,"rental_uris":{"android":"levelo://app?vid=7dfd6555-89fd-4d24-a1da-a5bf39980e82","ios":"levelo://app?vid=7dfd6555-89fd-4d24-a1da-a5bf39980e82"},"vehicle_type_id":"4","last_reported":1698260707,"current_range_meters":27200,"station_id":"ce4bgh92rcd13ifvqb40","pricing_plan_id":"free"},{"bike_id":"0a1d57aa-2150-4ee7-8aa9-276b1b7cce05","system_id":"levelo_inurba_marseille","lat":43.293009,"lon":5.374584,"is_reserved":false,"is_disabled":false,"rental_uris":{"android":"levelo://app?vid=0a1d57aa-2150-4ee7-8aa9-276b1b7cce05","ios":"levelo://app?vid=0a1d57aa-2150-4ee7-8aa9-276b1b7cce05"},"vehicle_type_id":"4","last_reported":1698260707,"current_range_meters":4000,"station_id":"ce4bgi12rcd13ifvqb70","pricing_plan_id":"free"},{"bike_id":"ea763961-754b-4f56-8a63-6eb690b408ba","system_id":"levelo_inurba_marseille","lat":43.303002,"lon":5.392142,"is_reserved":false,"is_disabled":false,"rental_uris":{"android":"levelo://app?vid=ea763961-754b-4f56-8a63-6eb690b408ba","ios":"levelo://app?vid=ea763961-754b-4f56-8a63-6eb690b408ba"},"vehicle_type_id":"4","last_reported":1698260707,"current_range_meters":26000,"station_id":"ce4bgkh2rcd13ifvqbk0","pricing_plan_id":"free"},{"bike_id":"0da05ebd-747a-4e9e-b0b0-cc5f027e6fb1","system_id":"levelo_inurba_marseille","lat":43.2936,"lon":5.37835,"is_reserved":false,"is_disabled":false,"rental_uris":{"android":"levelo://app?vid=0da05ebd-747a-4e9e-b0b0-cc5f027e6fb1","ios":"levelo://app?vid=0da05ebd-747a-4e9e-b0b0-cc5f027e6fb1"},"vehicle_type_id":"4","last_reported":1698260707,"current_range_meters":30800,"station_id":"ce4bgjh2rcd13ifvqbf0","pricing_plan_id":"free"},{"bike_id":"0b1f6119-1dd3-42b2-b3d1-77ffd43431d8","system_id":"levelo_inurba_marseille","lat":43.292311,"lon":5.360731,"is_reserved":false,"is_disabled":false,"rental_uris":{"android":"levelo://app?vid=0b1f6119-1dd3-42b2-b3d1-77ffd43431d8","ios":"levelo://app?vid=0b1f6119-1dd3-42b2-b3d1-77ffd43431d8"},"vehicle_type_id":"4","last_reported":1698260707,"current_range_meters":0,"station_id":"ce4bhbh2rcd13ifvqeqg","pricing_plan_id":"free"},{"bike_id":"e1d398d1-4d47-45d9-835b-2540e17f5789","system_id":"levelo_inurba_marseille","lat":43.292311,"lon":5.360731,"is_reserved":false,"is_disabled":false,"rental_uris":{"android":"levelo://app?vid=e1d398d1-4d47-45d9-835b-2540e17f5789","ios":"levelo://app?vid=e1d398d1-4d47-45d9-835b-2540e17f5789"},"vehicle_type_id":"4","last_reported":1698260707,"current_range_meters":0,"station_id":"ce4bhbh2rcd13ifvqeqg","pricing_plan_id":"free"},{"bike_id":"722ffbe9-3cc1-443a-ade1-6dcbb415d233","system_id":"levelo_inurba_marseille","lat":43.298764,"lon":5.388973,"is_reserved":false,"is_disabled":false,"rental_uris":{"android":"levelo://app?vid=722ffbe9-3cc1-443a-ade1-6dcbb415d233","ios":"levelo://app?vid=722ffbe9-3cc1-443a-ade1-6dcbb415d233"},"vehicle_type_id":"4","last_reported":1698260707,"current_range_meters":4800,"station_id":"ce4bh392rcd13ifvqdl0","pricing_plan_id":"free"},{"bike_id":"f194e8fe-491f-4bbc-b797-e3faaf96a4b8","system_id":"levelo_inurba_marseille","lat":43.298764,"lon":5.388973,"is_reserved":false,"is_disabled":false,"rental_uris":{"android":"levelo://app?vid=f194e8fe-491f-4bbc-b797-e3faaf96a4b8","ios":"levelo://app?vid=f194e8fe-491f-4bbc-b797-e3faaf96a4b8"},"vehicle_type_id":"4","last_reported":1698260707,"current_range_meters":17600,"station_id":"ce4bh392rcd13ifvqdl0","pricing_plan_id":"free"},{"bike_id":"9d9d53f9-5a99-465f-ada7-97c308bccd29","system_id":"levelo_inurba_marseille","lat":43.298764,"lon":5.388973,"is_reserved":false,"is_disabled":false,"rental_uris":{"android":"levelo://app?vid=9d9d53f9-5a99-465f-ada7-97c308bccd29","ios":"levelo://app?vid=9d9d53f9-5a99-465f-ada7-97c308bccd29"},"vehicle_type_id":"4","last_reported":1698260707,"current_range_meters":4400,"station_id":"ce4bh392rcd13ifvqdl0","pricing_plan_id":"free"},{"bike_id":"f43f5088-5c71-490e-9a9d-662a7404e486","system_id":"levelo_inurba_marseille","lat":43.309038,"lon":5.396546,"is_reserved":false,"is_disabled":false,"rental_uris":{"android":"levelo://app?vid=f43f5088-5c71-490e-9a9d-662a7404e486","ios":"levelo://app?vid=f43f5088-5c71-490e-9a9d-662a7404e486"},"vehicle_type_id":"4","last_reported":1698260707,"current_range_meters":31200,"station_id":"ce4bh012rcd13ifvqcv0","pricing_plan_id":"free"},{"bike_id":"82a76f77-8e07-415f-bf7b-94196730f2f3","system_id":"levelo_inurba_marseille","lat":43.29195,"lon":5.35809,"is_reserved":false,"is_disabled":false,"rental_uris":{"android":"levelo://app?vid=82a76f77-8e07-415f-bf7b-94196730f2f3","ios":"levelo://app?vid=82a76f77-8e07-415f-bf7b-94196730f2f3"},"vehicle_type_id":"4","last_reported":1698260707,"current_range_meters":16000,"station_id":"ce4bhb12rcd13ifvqel0","pricing_plan_id":"free"},{"bike_id":"b438b176-6294-4a67-880f-9ff62e67df6e","system_id":"levelo_inurba_marseille","lat":43.31334,"lon":5.39692,"is_reserved":false,"is_disabled":false,"rental_uris":{"android":"levelo://app?vid=b438b176-6294-4a67-880f-9ff62e67df6e","ios":"levelo://app?vid=b438b176-6294-4a67-880f-9ff62e67df6e"},"vehicle_type_id":"4","last_reported":1698260707,"current_range_meters":6800,"station_id":"ce4bgvp2rcd13ifvqcu0","pricing_plan_id":"free"},{"bike_id":"28cf4c43-e7e6-4711-b892-36ab63deaf4b","system_id":"levelo_inurba_marseille","lat":43.313298,"lon":5.396925,"is_reserved":false,"is_disabled":false,"rental_uris":{"android":"levelo://app?vid=28cf4c43-e7e6-4711-b892-36ab63deaf4b","ios":"levelo://app?vid=28cf4c43-e7e6-4711-b892-36ab63deaf4b"},"vehicle_type_id":"4","last_reported":1698260707,"current_range_meters":0,"station_id":"ce4bgvp2rcd13ifvqcu0","pricing_plan_id":"free"},{"bike_id":"d0c9042b-da2b-4b45-a531-d0cac7b9f634","system_id":"levelo_inurba_marseille","lat":43.313314,"lon":5.396928,"is_reserved":false,"is_disabled":false,"rental_uris":{"android":"levelo://app?vid=d0c9042b-da2b-4b45-a531-d0cac7b9f634","ios":"levelo://app?vid=d0c9042b-da2b-4b45-a531-d0cac7b9f634"},"vehicle_type_id":"4","last_reported":1698260707,"current_range_meters":15200,"station_id":"ce4bgvp2rcd13ifvqcu0","pricing_plan_id":"free"},{"bike_id":"2b190bad-89ed-4a20-8a86-3d5766bf4a7d","system_id":"levelo_inurba_marseille","lat":43.313291,"lon":5.396838,"is_reserved":false,"is_disabled":false,"rental_uris":{"android":"levelo://app?vid=2b190bad-89ed-4a20-8a86-3d5766bf4a7d","ios":"levelo://app?vid=2b190bad-89ed-4a20-8a86-3d5766bf4a7d"},"vehicle_type_id":"4","last_reported":1698260707,"current_range_meters":10800,"station_id":"ce4bgvp2rcd13ifvqcu0","pricing_plan_id":"free"},{"bike_id":"3f7b64fa-7183-42e2-b78f-fb2566a9e2e5","system_id":"levelo_inurba_marseille","lat":43.309038,"lon":5.396546,"is_reserved":false,"is_disabled":false,"rental_uris":{"android":"levelo://app?vid=3f7b64fa-7183-42e2-b78f-fb2566a9e2e5","ios":"levelo://app?vid=3f7b64fa-7183-42e2-b78f-fb2566a9e2e5"},"vehicle_type_id":"4","last_reported":1698260707,"current_range_meters":12400,"station_id":"ce4bh012rcd13ifvqcv0","pricing_plan_id":"free"},{"bike_id":"a9da9041-f653-4c7c-a2ed-8c4dab07b5e7","system_id":"levelo_inurba_marseille","lat":43.29529,"lon":5.385581,"is_reserved":false,"is_disabled":false,"rental_uris":{"android":"levelo://app?vid=a9da9041-f653-4c7c-a2ed-8c4dab07b5e7","ios":"levelo://app?vid=a9da9041-f653-4c7c-a2ed-8c4dab07b5e7"},"vehicle_type_id":"4","last_reported":1698260707,"current_range_meters":14400,"station_id":"ce4bgih2rcd13ifvqba0","pricing_plan_id":"free"},{"bike_id":"407c4a2d-5c42-4c61-bc3c-9bdaf35e99e4","system_id":"levelo_inurba_marseille","lat":43.295313,"lon":5.385343,"is_reserved":false,"is_disabled":false,"rental_uris":{"android":"levelo://app?vid=407c4a2d-5c42-4c61-bc3c-9bdaf35e99e4","ios":"levelo://app?vid=407c4a2d-5c42-4c61-bc3c-9bdaf35e99e4"},"vehicle_type_id":"4","last_reported":1698260707,"current_range_meters":4800,"station_id":"ce4bgih2rcd13ifvqba0","pricing_plan_id":"free"},{"bike_id":"7987367d-98e8-4d68-8c21-65234c2b0576","system_id":"levelo_inurba_marseille","lat":43.29529,"lon":5.385581,"is_reserved":false,"is_disabled":false,"rental_uris":{"android":"levelo://app?vid=7987367d-98e8-4d68-8c21-65234c2b0576","ios":"levelo://app?vid=7987367d-98e8-4d68-8c21-65234c2b0576"},"vehicle_type_id":"4","last_reported":1698260707,"current_range_meters":25600,"station_id":"ce4bgih2rcd13ifvqba0","pricing_plan_id":"free"},{"bike_id":"252b2e0f-c3e8-4438-923f-d799dbcc1b28","system_id":"levelo_inurba_marseille","lat":43.29534,"lon":5.3855,"is_reserved":false,"is_disabled":false,"rental_uris":{"android":"levelo://app?vid=252b2e0f-c3e8-4438-923f-d799dbcc1b28","ios":"levelo://app?vid=252b2e0f-c3e8-4438-923f-d799dbcc1b28"},"vehicle_type_id":"4","last_reported":1698260707,"current_range_meters":4000,"station_id":"ce4bgih2rcd13ifvqba0","pricing_plan_id":"free"},{"bike_id":"23a22abc-ea2b-4c2e-9a34-7ddf8321f63e","system_id":"levelo_inurba_marseille","lat":43.29529,"lon":5.38549,"is_reserved":false,"is_disabled":false,"rental_uris":{"android":"levelo://app?vid=23a22abc-ea2b-4c2e-9a34-7ddf8321f63e","ios":"levelo://app?vid=23a22abc-ea2b-4c2e-9a34-7ddf8321f63e"},"vehicle_type_id":"4","last_reported":1698260707,"current_range_meters":0,"station_id":"ce4bgih2rcd13ifvqba0","pricing_plan_id":"free"},{"bike_id":"aff0a7bb-1529-4fac-bceb-2a4ebbfc6af9","system_id":"levelo_inurba_marseille","lat":43.2953,"lon":5.38555,"is_reserved":false,"is_disabled":false,"rental_uris":{"android":"levelo://app?vid=aff0a7bb-1529-4fac-bceb-2a4ebbfc6af9","ios":"levelo://app?vid=aff0a7bb-1529-4fac-bceb-2a4ebbfc6af9"},"vehicle_type_id":"4","last_reported":1698260707,"current_range_meters":22000,"station_id":"ce4bgih2rcd13ifvqba0","pricing_plan_id":"free"},{"bike_id":"d080cde8-4304-4e79-a756-72b14ecf63ab","system_id":"levelo_inurba_marseille","lat":43.29526,"lon":5.38554,"is_reserved":false,"is_disabled":false,"rental_uris":{"android":"levelo://app?vid=d080cde8-4304-4e79-a756-72b14ecf63ab","ios":"levelo://app?vid=d080cde8-4304-4e79-a756-72b14ecf63ab"},"vehicle_type_id":"4","last_reported":1698260707,"current_range_meters":8400,"station_id":"ce4bgih2rcd13ifvqba0","pricing_plan_id":"free"},{"bike_id":"0a751cc6-0d21-4aca-876a-7cbc9630c89d","system_id":"levelo_inurba_marseille","lat":43.29524,"lon":5.38554,"is_reserved":false,"is_disabled":false,"rental_uris":{"android":"levelo://app?vid=0a751cc6-0d21-4aca-876a-7cbc9630c89d","ios":"levelo://app?vid=0a751cc6-0d21-4aca-876a-7cbc9630c89d"},"vehicle_type_id":"4","last_reported":1698260707,"current_range_meters":14400,"station_id":"ce4bgih2rcd13ifvqba0","pricing_plan_id":"free"},{"bike_id":"126d4670-e812-40c6-9f2a-535ee2ec9a6b","system_id":"levelo_inurba_marseille","lat":43.33219,"lon":5.38149,"is_reserved":false,"is_disabled":false,"rental_uris":{"android":"levelo://app?vid=126d4670-e812-40c6-9f2a-535ee2ec9a6b","ios":"levelo://app?vid=126d4670-e812-40c6-9f2a-535ee2ec9a6b"},"vehicle_type_id":"4","last_reported":1698260707,"current_range_meters":6400,"station_id":"","pricing_plan_id":"free"},{"bike_id":"1072ab76-042c-44bb-8f2b-85d494fb0e8c","system_id":"levelo_inurba_marseille","lat":43.290779,"lon":5.371482,"is_reserved":false,"is_disabled":false,"rental_uris":{"android":"levelo://app?vid=1072ab76-042c-44bb-8f2b-85d494fb0e8c","ios":"levelo://app?vid=1072ab76-042c-44bb-8f2b-85d494fb0e8c"},"vehicle_type_id":"4","last_reported":1698260707,"current_range_meters":6800,"station_id":"ce4bh5p2rcd13ifvqe4g","pricing_plan_id":"free"},{"bike_id":"8d1ecf67-c1f6-44f4-8a2c-4ccf567addca","system_id":"levelo_inurba_marseille","lat":43.290779,"lon":5.371482,"is_reserved":false,"is_disabled":false,"rental_uris":{"android":"levelo://app?vid=8d1ecf67-c1f6-44f4-8a2c-4ccf567addca","ios":"levelo://app?vid=8d1ecf67-c1f6-44f4-8a2c-4ccf567addca"},"vehicle_type_id":"4","last_reported":1698260707,"current_range_meters":21600,"station_id":"ce4bh5p2rcd13ifvqe4g","pricing_plan_id":"free"},{"bike_id":"d445e7dc-8f39-4198-8d15-1838ad42556e","system_id":"levelo_inurba_marseille","lat":43.30217,"lon":5.3947,"is_reserved":false,"is_disabled":false,"rental_uris":{"android":"levelo://app?vid=d445e7dc-8f39-4198-8d15-1838ad42556e","ios":"levelo://app?vid=d445e7dc-8f39-4198-8d15-1838ad42556e"},"vehicle_type_id":"4","last_reported":1698260707,"current_range_meters":13600,"station_id":"ce4bh0p2rcd13ifvqd70","pricing_plan_id":"free"},{"bike_id":"3ba9337c-3a4c-4b79-bb22-9c08f678ee27","system_id":"levelo_inurba_marseille","lat":43.3339,"lon":5.37907,"is_reserved":false,"is_disabled":false,"rental_uris":{"android":"levelo://app?vid=3ba9337c-3a4c-4b79-bb22-9c08f678ee27","ios":"levelo://app?vid=3ba9337c-3a4c-4b79-bb22-9c08f678ee27"},"vehicle_type_id":"4","last_reported":1698260707,"current_range_meters":25600,"station_id":"","pricing_plan_id":"free"},{"bike_id":"658a2c69-f96a-4b7e-95ea-eb4b94cb565f","system_id":"levelo_inurba_marseille","lat":43.29457,"lon":5.38621,"is_reserved":false,"is_disabled":false,"rental_uris":{"android":"levelo://app?vid=658a2c69-f96a-4b7e-95ea-eb4b94cb565f","ios":"levelo://app?vid=658a2c69-f96a-4b7e-95ea-eb4b94cb565f"},"vehicle_type_id":"4","last_reported":1698260707,"current_range_meters":9200,"station_id":"ce4bh2h2rcd13ifvqdh0","pricing_plan_id":"free"},{"bike_id":"9818f1f9-8977-462d-9736-2c9af7ff787c","system_id":"levelo_inurba_marseille","lat":43.29426,"lon":5.38622,"is_reserved":false,"is_disabled":false,"rental_uris":{"android":"levelo://app?vid=9818f1f9-8977-462d-9736-2c9af7ff787c","ios":"levelo://app?vid=9818f1f9-8977-462d-9736-2c9af7ff787c"},"vehicle_type_id":"4","last_reported":1698260707,"current_range_meters":14800,"station_id":"ce4bh2h2rcd13ifvqdh0","pricing_plan_id":"free"},{"bike_id":"610a89be-6b6d-4793-aa4f-85fad93d3cd9","system_id":"levelo_inurba_marseille","lat":43.29427,"lon":5.38625,"is_reserved":false,"is_disabled":false,"rental_uris":{"android":"levelo://app?vid=610a89be-6b6d-4793-aa4f-85fad93d3cd9","ios":"levelo://app?vid=610a89be-6b6d-4793-aa4f-85fad93d3cd9"},"vehicle_type_id":"4","last_reported":1698260707,"current_range_meters":9200,"station_id":"ce4bh2h2rcd13ifvqdh0","pricing_plan_id":"free"},{"bike_id":"a07dd9c4-e140-42b6-ab01-a65aaaf673ad","system_id":"levelo_inurba_marseille","lat":43.289468,"lon":5.363719,"is_reserved":false,"is_disabled":false,"rental_uris":{"android":"levelo://app?vid=a07dd9c4-e140-42b6-ab01-a65aaaf673ad","ios":"levelo://app?vid=a07dd9c4-e140-42b6-ab01-a65aaaf673ad"},"vehicle_type_id":"4","last_reported":1698260707,"current_range_meters":22400,"station_id":"ce4bhc92rcd13ifvqetg","pricing_plan_id":"free"},{"bike_id":"7d28a36e-6e86-4edd-9569-9970a8bdf54e","system_id":"levelo_inurba_marseille","lat":43.294162,"lon":5.386292,"is_reserved":false,"is_disabled":false,"rental_uris":{"android":"levelo://app?vid=7d28a36e-6e86-4edd-9569-9970a8bdf54e","ios":"levelo://app?vid=7d28a36e-6e86-4edd-9569-9970a8bdf54e"},"vehicle_type_id":"4","last_reported":1698260707,"current_range_meters":24800,"station_id":"ce4bh2h2rcd13ifvqdh0","pricing_plan_id":"free"},{"bike_id":"3bc56d7a-53c5-4e23-af21-afddc256a1e4","system_id":"levelo_inurba_marseille","lat":43.294153,"lon":5.386305,"is_reserved":false,"is_disabled":false,"rental_uris":{"android":"levelo://app?vid=3bc56d7a-53c5-4e23-af21-afddc256a1e4","ios":"levelo://app?vid=3bc56d7a-53c5-4e23-af21-afddc256a1e4"},"vehicle_type_id":"4","last_reported":1698260707,"current_range_meters":5600,"station_id":"ce4bh2h2rcd13ifvqdh0","pricing_plan_id":"free"},{"bike_id":"ed0bc90e-7fa9-4c13-8d76-a68713e4c5f7","system_id":"levelo_inurba_marseille","lat":43.29421,"lon":5.38622,"is_reserved":false,"is_disabled":false,"rental_uris":{"android":"levelo://app?vid=ed0bc90e-7fa9-4c13-8d76-a68713e4c5f7","ios":"levelo://app?vid=ed0bc90e-7fa9-4c13-8d76-a68713e4c5f7"},"vehicle_type_id":"4","last_reported":1698260707,"current_range_meters":23600,"station_id":"ce4bh2h2rcd13ifvqdh0","pricing_plan_id":"free"},{"bike_id":"565c9bdf-5ef8-452f-b276-5d831729bc17","system_id":"levelo_inurba_marseille","lat":43.29422,"lon":5.38624,"is_reserved":false,"is_disabled":false,"rental_uris":{"android":"levelo://app?vid=565c9bdf-5ef8-452f-b276-5d831729bc17","ios":"levelo://app?vid=565c9bdf-5ef8-452f-b276-5d831729bc17"},"vehicle_type_id":"4","last_reported":1698260707,"current_range_meters":29200,"station_id":"ce4bh2h2rcd13ifvqdh0","pricing_plan_id":"free"},{"bike_id":"a94a8fed-8622-4c88-9fbf-1377bbe7edb9","system_id":"levelo_inurba_marseille","lat":43.29036,"lon":5.37564,"is_reserved":false,"is_disabled":false,"rental_uris":{"android":"levelo://app?vid=a94a8fed-8622-4c88-9fbf-1377bbe7edb9","ios":"levelo://app?vid=a94a8fed-8622-4c88-9fbf-1377bbe7edb9"},"vehicle_type_id":"4","last_reported":1698260707,"current_range_meters":0,"station_id":"ce4bh692rcd13ifvqe90","pricing_plan_id":"free"},{"bike_id":"2936349a-1d22-4134-a311-9282ac456858","system_id":"levelo_inurba_marseille","lat":43.294162,"lon":5.386292,"is_reserved":false,"is_disabled":false,"rental_uris":{"android":"levelo://app?vid=2936349a-1d22-4134-a311-9282ac456858","ios":"levelo://app?vid=2936349a-1d22-4134-a311-9282ac456858"},"vehicle_type_id":"4","last_reported":1698260707,"current_range_meters":8800,"station_id":"ce4bh2h2rcd13ifvqdh0","pricing_plan_id":"free"},{"bike_id":"1a2b419a-4715-4ce0-9db0-baf0c100c7f9","system_id":"levelo_inurba_marseille","lat":43.29419,"lon":5.3863,"is_reserved":false,"is_disabled":false,"rental_uris":{"android":"levelo://app?vid=1a2b419a-4715-4ce0-9db0-baf0c100c7f9","ios":"levelo://app?vid=1a2b419a-4715-4ce0-9db0-baf0c100c7f9"},"vehicle_type_id":"4","last_reported":1698260707,"current_range_meters":0,"station_id":"ce4bh2h2rcd13ifvqdh0","pricing_plan_id":"free"},{"bike_id":"d566b565-1403-4142-a536-9e13f65e244d","system_id":"levelo_inurba_marseille","lat":43.289184,"lon":5.366408,"is_reserved":false,"is_disabled":false,"rental_uris":{"android":"levelo://app?vid=d566b565-1403-4142-a536-9e13f65e244d","ios":"levelo://app?vid=d566b565-1403-4142-a536-9e13f65e244d"},"vehicle_type_id":"4","last_reported":1698260707,"current_range_meters":29200,"station_id":"ce4bhap2rcd13ifvqek0","pricing_plan_id":"free"},{"bike_id":"fea62cc4-0c34-41df-a13c-1163651bc2a7","system_id":"levelo_inurba_marseille","lat":43.294162,"lon":5.386292,"is_reserved":false,"is_disabled":false,"rental_uris":{"android":"levelo://app?vid=fea62cc4-0c34-41df-a13c-1163651bc2a7","ios":"levelo://app?vid=fea62cc4-0c34-41df-a13c-1163651bc2a7"},"vehicle_type_id":"4","last_reported":1698260707,"current_range_meters":24800,"station_id":"ce4bh2h2rcd13ifvqdh0","pricing_plan_id":"free"},{"bike_id":"36105261-4eaf-4e42-8ff5-e9aa7b577acd","system_id":"levelo_inurba_marseille","lat":43.29418,"lon":5.38633,"is_reserved":false,"is_disabled":false,"rental_uris":{"android":"levelo://app?vid=36105261-4eaf-4e42-8ff5-e9aa7b577acd","ios":"levelo://app?vid=36105261-4eaf-4e42-8ff5-e9aa7b577acd"},"vehicle_type_id":"4","last_reported":1698260707,"current_range_meters":4400,"station_id":"ce4bh2h2rcd13ifvqdh0","pricing_plan_id":"free"},{"bike_id":"c47def0c-8544-4a50-828c-fa3b458e51a5","system_id":"levelo_inurba_marseille","lat":43.289184,"lon":5.366408,"is_reserved":false,"is_disabled":false,"rental_uris":{"android":"levelo://app?vid=c47def0c-8544-4a50-828c-fa3b458e51a5","ios":"levelo://app?vid=c47def0c-8544-4a50-828c-fa3b458e51a5"},"vehicle_type_id":"4","last_reported":1698260707,"current_range_meters":19600,"station_id":"ce4bhap2rcd13ifvqek0","pricing_plan_id":"free"},{"bike_id":"5880ccfd-fed2-4dd2-84b2-87ea2165a6fa","system_id":"levelo_inurba_marseille","lat":43.289184,"lon":5.366408,"is_reserved":false,"is_disabled":false,"rental_uris":{"android":"levelo://app?vid=5880ccfd-fed2-4dd2-84b2-87ea2165a6fa","ios":"levelo://app?vid=5880ccfd-fed2-4dd2-84b2-87ea2165a6fa"},"vehicle_type_id":"4","last_reported":1698260707,"current_range_meters":16400,"station_id":"ce4bhap2rcd13ifvqek0","pricing_plan_id":"free"},{"bike_id":"a08867c0-2da8-4688-af52-03d7441c9f0f","system_id":"levelo_inurba_marseille","lat":43.289468,"lon":5.363719,"is_reserved":false,"is_disabled":false,"rental_uris":{"android":"levelo://app?vid=a08867c0-2da8-4688-af52-03d7441c9f0f","ios":"levelo://app?vid=a08867c0-2da8-4688-af52-03d7441c9f0f"},"vehicle_type_id":"4","last_reported":1698260707,"current_range_meters":16000,"station_id":"ce4bhc92rcd13ifvqetg","pricing_plan_id":"free"},{"bike_id":"407c642f-b604-4f4d-ba1c-366273be4765","system_id":"levelo_inurba_marseille","lat":43.289468,"lon":5.363719,"is_reserved":false,"is_disabled":false,"rental_uris":{"android":"levelo://app?vid=407c642f-b604-4f4d-ba1c-366273be4765","ios":"levelo://app?vid=407c642f-b604-4f4d-ba1c-366273be4765"},"vehicle_type_id":"4","last_reported":1698260707,"current_range_meters":22800,"station_id":"ce4bhc92rcd13ifvqetg","pricing_plan_id":"free"},{"bike_id":"f2ee2ad9-7ea6-4af4-8d9e-49eb7ab687c6","system_id":"levelo_inurba_marseille","lat":43.289468,"lon":5.363719,"is_reserved":false,"is_disabled":false,"rental_uris":{"android":"levelo://app?vid=f2ee2ad9-7ea6-4af4-8d9e-49eb7ab687c6","ios":"levelo://app?vid=f2ee2ad9-7ea6-4af4-8d9e-49eb7ab687c6"},"vehicle_type_id":"4","last_reported":1698260707,"current_range_meters":15600,"station_id":"ce4bhc92rcd13ifvqetg","pricing_plan_id":"free"},{"bike_id":"9074efd1-6773-4a8a-a7b3-583166cc6300","system_id":"levelo_inurba_marseille","lat":43.289468,"lon":5.363719,"is_reserved":false,"is_disabled":false,"rental_uris":{"android":"levelo://app?vid=9074efd1-6773-4a8a-a7b3-583166cc6300","ios":"levelo://app?vid=9074efd1-6773-4a8a-a7b3-583166cc6300"},"vehicle_type_id":"4","last_reported":1698260707,"current_range_meters":25200,"station_id":"ce4bhc92rcd13ifvqetg","pricing_plan_id":"free"},{"bike_id":"b21b783f-fd2f-4d59-b154-a7fb88977982","system_id":"levelo_inurba_marseille","lat":43.289468,"lon":5.363719,"is_reserved":false,"is_disabled":false,"rental_uris":{"android":"levelo://app?vid=b21b783f-fd2f-4d59-b154-a7fb88977982","ios":"levelo://app?vid=b21b783f-fd2f-4d59-b154-a7fb88977982"},"vehicle_type_id":"4","last_reported":1698260707,"current_range_meters":18400,"station_id":"ce4bhc92rcd13ifvqetg","pricing_plan_id":"free"},{"bike_id":"7165fa9c-9bef-4eba-ab63-c1d16fea7ea2","system_id":"levelo_inurba_marseille","lat":43.292644,"lon":5.384257,"is_reserved":false,"is_disabled":false,"rental_uris":{"android":"levelo://app?vid=7165fa9c-9bef-4eba-ab63-c1d16fea7ea2","ios":"levelo://app?vid=7165fa9c-9bef-4eba-ab63-c1d16fea7ea2"},"vehicle_type_id":"4","last_reported":1698260707,"current_range_meters":15600,"station_id":"ce4bh692rcd13ifvqea0","pricing_plan_id":"free"},{"bike_id":"55c3dcff-db6a-4580-aeee-aafe045ed588","system_id":"levelo_inurba_marseille","lat":43.292644,"lon":5.384257,"is_reserved":false,"is_disabled":false,"rental_uris":{"android":"levelo://app?vid=55c3dcff-db6a-4580-aeee-aafe045ed588","ios":"levelo://app?vid=55c3dcff-db6a-4580-aeee-aafe045ed588"},"vehicle_type_id":"4","last_reported":1698260707,"current_range_meters":7200,"station_id":"ce4bh692rcd13ifvqea0","pricing_plan_id":"free"},{"bike_id":"4c07d0b5-8af3-4c10-85a5-3e3bd0ce4953","system_id":"levelo_inurba_marseille","lat":43.29271,"lon":5.38435,"is_reserved":false,"is_disabled":false,"rental_uris":{"android":"levelo://app?vid=4c07d0b5-8af3-4c10-85a5-3e3bd0ce4953","ios":"levelo://app?vid=4c07d0b5-8af3-4c10-85a5-3e3bd0ce4953"},"vehicle_type_id":"4","last_reported":1698260707,"current_range_meters":26000,"station_id":"ce4bh692rcd13ifvqea0","pricing_plan_id":"free"},{"bike_id":"8e6d2d09-020d-4029-93ba-8a87897c5427","system_id":"levelo_inurba_marseille","lat":43.29275,"lon":5.38445,"is_reserved":false,"is_disabled":false,"rental_uris":{"android":"levelo://app?vid=8e6d2d09-020d-4029-93ba-8a87897c5427","ios":"levelo://app?vid=8e6d2d09-020d-4029-93ba-8a87897c5427"},"vehicle_type_id":"4","last_reported":1698260707,"current_range_meters":0,"station_id":"ce4bh692rcd13ifvqea0","pricing_plan_id":"free"},{"bike_id":"00a7b980-21f5-4b85-920f-58f25dcb19ee","system_id":"levelo_inurba_marseille","lat":43.292719,"lon":5.384408,"is_reserved":false,"is_disabled":false,"rental_uris":{"android":"levelo://app?vid=00a7b980-21f5-4b85-920f-58f25dcb19ee","ios":"levelo://app?vid=00a7b980-21f5-4b85-920f-58f25dcb19ee"},"vehicle_type_id":"4","last_reported":1698260707,"current_range_meters":0,"station_id":"ce4bh692rcd13ifvqea0","pricing_plan_id":"free"},{"bike_id":"fec81998-ac58-48c0-b179-ecb663b52e4a","system_id":"levelo_inurba_marseille","lat":43.292642,"lon":5.384254,"is_reserved":false,"is_disabled":false,"rental_uris":{"android":"levelo://app?vid=fec81998-ac58-48c0-b179-ecb663b52e4a","ios":"levelo://app?vid=fec81998-ac58-48c0-b179-ecb663b52e4a"},"vehicle_type_id":"4","last_reported":1698260707,"current_range_meters":22000,"station_id":"ce4bh692rcd13ifvqea0","pricing_plan_id":"free"},{"bike_id":"157a1cf9-828f-4267-8b79-b4e591c7c7ac","system_id":"levelo_inurba_marseille","lat":43.292642,"lon":5.384254,"is_reserved":false,"is_disabled":false,"rental_uris":{"android":"levelo://app?vid=157a1cf9-828f-4267-8b79-b4e591c7c7ac","ios":"levelo://app?vid=157a1cf9-828f-4267-8b79-b4e591c7c7ac"},"vehicle_type_id":"4","last_reported":1698260707,"current_range_meters":3200,"station_id":"ce4bh692rcd13ifvqea0","pricing_plan_id":"free"},{"bike_id":"7c4e972b-e3da-4cd5-a6eb-29f6e54719b9","system_id":"levelo_inurba_marseille","lat":43.292644,"lon":5.384257,"is_reserved":false,"is_disabled":false,"rental_uris":{"android":"levelo://app?vid=7c4e972b-e3da-4cd5-a6eb-29f6e54719b9","ios":"levelo://app?vid=7c4e972b-e3da-4cd5-a6eb-29f6e54719b9"},"vehicle_type_id":"4","last_reported":1698260707,"current_range_meters":10800,"station_id":"ce4bh692rcd13ifvqea0","pricing_plan_id":"free"},{"bike_id":"0c3ea305-7e5d-4ce4-b587-4002476c6b39","system_id":"levelo_inurba_marseille","lat":43.292642,"lon":5.384254,"is_reserved":false,"is_disabled":false,"rental_uris":{"android":"levelo://app?vid=0c3ea305-7e5d-4ce4-b587-4002476c6b39","ios":"levelo://app?vid=0c3ea305-7e5d-4ce4-b587-4002476c6b39"},"vehicle_type_id":"4","last_reported":1698260707,"current_range_meters":20000,"station_id":"ce4bh692rcd13ifvqea0","pricing_plan_id":"free"},{"bike_id":"8602286e-dcc0-400a-a125-9c066a4d6474","system_id":"levelo_inurba_marseille","lat":43.292644,"lon":5.384257,"is_reserved":false,"is_disabled":false,"rental_uris":{"android":"levelo://app?vid=8602286e-dcc0-400a-a125-9c066a4d6474","ios":"levelo://app?vid=8602286e-dcc0-400a-a125-9c066a4d6474"},"vehicle_type_id":"4","last_reported":1698260707,"current_range_meters":29200,"station_id":"ce4bh692rcd13ifvqea0","pricing_plan_id":"free"},{"bike_id":"22a95612-0219-4ec7-97b2-20f04737628b","system_id":"levelo_inurba_marseille","lat":43.304274,"lon":5.397513,"is_reserved":false,"is_disabled":false,"rental_uris":{"android":"levelo://app?vid=22a95612-0219-4ec7-97b2-20f04737628b","ios":"levelo://app?vid=22a95612-0219-4ec7-97b2-20f04737628b"},"vehicle_type_id":"4","last_reported":1698260707,"current_range_meters":13200,"station_id":"ce4bh092rcd13ifvqd20","pricing_plan_id":"free"},{"bike_id":"feef0950-2440-4f8e-95fa-54ab2ab76c53","system_id":"levelo_inurba_marseille","lat":43.304274,"lon":5.397513,"is_reserved":false,"is_disabled":false,"rental_uris":{"android":"levelo://app?vid=feef0950-2440-4f8e-95fa-54ab2ab76c53","ios":"levelo://app?vid=feef0950-2440-4f8e-95fa-54ab2ab76c53"},"vehicle_type_id":"4","last_reported":1698260707,"current_range_meters":24000,"station_id":"ce4bh092rcd13ifvqd20","pricing_plan_id":"free"},{"bike_id":"4fc7b092-a84a-4d84-8646-fa4a44a61714","system_id":"levelo_inurba_marseille","lat":43.29267,"lon":5.38443,"is_reserved":false,"is_disabled":false,"rental_uris":{"android":"levelo://app?vid=4fc7b092-a84a-4d84-8646-fa4a44a61714","ios":"levelo://app?vid=4fc7b092-a84a-4d84-8646-fa4a44a61714"},"vehicle_type_id":"4","last_reported":1698260707,"current_range_meters":16000,"station_id":"ce4bh692rcd13ifvqea0","pricing_plan_id":"free"},{"bike_id":"240fb85f-546c-47b1-b23f-4d267095d53a","system_id":"levelo_inurba_marseille","lat":43.292642,"lon":5.384254,"is_reserved":false,"is_disabled":false,"rental_uris":{"android":"levelo://app?vid=240fb85f-546c-47b1-b23f-4d267095d53a","ios":"levelo://app?vid=240fb85f-546c-47b1-b23f-4d267095d53a"},"vehicle_type_id":"4","last_reported":1698260707,"current_range_meters":24400,"station_id":"ce4bh692rcd13ifvqea0","pricing_plan_id":"free"},{"bike_id":"35b382ef-adb7-4e03-b4b0-b3c56b453280","system_id":"levelo_inurba_marseille","lat":43.304296,"lon":5.397513,"is_reserved":false,"is_disabled":false,"rental_uris":{"android":"levelo://app?vid=35b382ef-adb7-4e03-b4b0-b3c56b453280","ios":"levelo://app?vid=35b382ef-adb7-4e03-b4b0-b3c56b453280"},"vehicle_type_id":"4","last_reported":1698260707,"current_range_meters":30000,"station_id":"ce4bh092rcd13ifvqd20","pricing_plan_id":"free"},{"bike_id":"9c37df41-7987-4086-a9a5-762513867440","system_id":"levelo_inurba_marseille","lat":43.29264,"lon":5.38442,"is_reserved":false,"is_disabled":false,"rental_uris":{"android":"levelo://app?vid=9c37df41-7987-4086-a9a5-762513867440","ios":"levelo://app?vid=9c37df41-7987-4086-a9a5-762513867440"},"vehicle_type_id":"4","last_reported":1698260707,"current_range_meters":17600,"station_id":"ce4bh692rcd13ifvqea0","pricing_plan_id":"free"},{"bike_id":"50e3ea90-a9d6-4904-830e-1f4516ae4530","system_id":"levelo_inurba_marseille","lat":43.29263,"lon":5.38441,"is_reserved":false,"is_disabled":false,"rental_uris":{"android":"levelo://app?vid=50e3ea90-a9d6-4904-830e-1f4516ae4530","ios":"levelo://app?vid=50e3ea90-a9d6-4904-830e-1f4516ae4530"},"vehicle_type_id":"4","last_reported":1698260707,"current_range_meters":8800,"station_id":"ce4bh692rcd13ifvqea0","pricing_plan_id":"free"},{"bike_id":"7cbb6818-6246-436d-855c-cbf678ee9240","system_id":"levelo_inurba_marseille","lat":43.292642,"lon":5.384254,"is_reserved":false,"is_disabled":false,"rental_uris":{"android":"levelo://app?vid=7cbb6818-6246-436d-855c-cbf678ee9240","ios":"levelo://app?vid=7cbb6818-6246-436d-855c-cbf678ee9240"},"vehicle_type_id":"4","last_reported":1698260707,"current_range_meters":12000,"station_id":"ce4bh692rcd13ifvqea0","pricing_plan_id":"free"},{"bike_id":"10707a72-7119-4d10-a7d3-31d5c4e31ab5","system_id":"levelo_inurba_marseille","lat":43.292644,"lon":5.384257,"is_reserved":false,"is_disabled":false,"rental_uris":{"android":"levelo://app?vid=10707a72-7119-4d10-a7d3-31d5c4e31ab5","ios":"levelo://app?vid=10707a72-7119-4d10-a7d3-31d5c4e31ab5"},"vehicle_type_id":"4","last_reported":1698260707,"current_range_meters":800,"station_id":"ce4bh692rcd13ifvqea0","pricing_plan_id":"free"},{"bike_id":"7a7b7673-cb47-47e8-a516-8f92b73a59d1","system_id":"levelo_inurba_marseille","lat":43.292642,"lon":5.384254,"is_reserved":false,"is_disabled":false,"rental_uris":{"android":"levelo://app?vid=7a7b7673-cb47-47e8-a516-8f92b73a59d1","ios":"levelo://app?vid=7a7b7673-cb47-47e8-a516-8f92b73a59d1"},"vehicle_type_id":"4","last_reported":1698260707,"current_range_meters":0,"station_id":"ce4bh692rcd13ifvqea0","pricing_plan_id":"free"},{"bike_id":"eec3faad-0f71-4680-becd-ef885ef9861d","system_id":"levelo_inurba_marseille","lat":43.292642,"lon":5.384254,"is_reserved":false,"is_disabled":false,"rental_uris":{"android":"levelo://app?vid=eec3faad-0f71-4680-becd-ef885ef9861d","ios":"levelo://app?vid=eec3faad-0f71-4680-becd-ef885ef9861d"},"vehicle_type_id":"4","last_reported":1698260707,"current_range_meters":1200,"station_id":"ce4bh692rcd13ifvqea0","pricing_plan_id":"free"},{"bike_id":"0c2a179d-e4c7-4b3a-86fe-2e59606724d4","system_id":"levelo_inurba_marseille","lat":43.3103,"lon":5.39965,"is_reserved":false,"is_disabled":false,"rental_uris":{"android":"levelo://app?vid=0c2a179d-e4c7-4b3a-86fe-2e59606724d4","ios":"levelo://app?vid=0c2a179d-e4c7-4b3a-86fe-2e59606724d4"},"vehicle_type_id":"4","last_reported":1698260707,"current_range_meters":4000,"station_id":"","pricing_plan_id":"free"},{"bike_id":"9b5c6371-8e23-4d23-a9c1-d5c6f28924b5","system_id":"levelo_inurba_marseille","lat":43.330442,"lon":5.389148,"is_reserved":false,"is_disabled":false,"rental_uris":{"android":"levelo://app?vid=9b5c6371-8e23-4d23-a9c1-d5c6f28924b5","ios":"levelo://app?vid=9b5c6371-8e23-4d23-a9c1-d5c6f28924b5"},"vehicle_type_id":"4","last_reported":1698260707,"current_range_meters":5600,"station_id":"ce4bhr92rcd13ifvqhrg","pricing_plan_id":"free"},{"bike_id":"09f3b5bc-5a59-49ae-8378-af30dac36712","system_id":"levelo_inurba_marseille","lat":43.330442,"lon":5.389148,"is_reserved":false,"is_disabled":false,"rental_uris":{"android":"levelo://app?vid=09f3b5bc-5a59-49ae-8378-af30dac36712","ios":"levelo://app?vid=09f3b5bc-5a59-49ae-8378-af30dac36712"},"vehicle_type_id":"4","last_reported":1698260707,"current_range_meters":18400,"station_id":"ce4bhr92rcd13ifvqhrg","pricing_plan_id":"free"},{"bike_id":"b153249a-f852-42f9-aa2f-3f9473f32e57","system_id":"levelo_inurba_marseille","lat":43.290995,"lon":5.381361,"is_reserved":false,"is_disabled":false,"rental_uris":{"android":"levelo://app?vid=b153249a-f852-42f9-aa2f-3f9473f32e57","ios":"levelo://app?vid=b153249a-f852-42f9-aa2f-3f9473f32e57"},"vehicle_type_id":"4","last_reported":1698260707,"current_range_meters":0,"station_id":"ce4bh512rcd13ifvqe2g","pricing_plan_id":"free"},{"bike_id":"57b3cd0e-a27d-4d4d-a191-fd39b6ded141","system_id":"levelo_inurba_marseille","lat":43.290995,"lon":5.381361,"is_reserved":false,"is_disabled":false,"rental_uris":{"android":"levelo://app?vid=57b3cd0e-a27d-4d4d-a191-fd39b6ded141","ios":"levelo://app?vid=57b3cd0e-a27d-4d4d-a191-fd39b6ded141"},"vehicle_type_id":"4","last_reported":1698260707,"current_range_meters":0,"station_id":"ce4bh512rcd13ifvqe2g","pricing_plan_id":"free"},{"bike_id":"fc7f0597-463c-4bc9-91d4-ab6dbf14847e","system_id":"levelo_inurba_marseille","lat":43.290995,"lon":5.381361,"is_reserved":false,"is_disabled":false,"rental_uris":{"android":"levelo://app?vid=fc7f0597-463c-4bc9-91d4-ab6dbf14847e","ios":"levelo://app?vid=fc7f0597-463c-4bc9-91d4-ab6dbf14847e"},"vehicle_type_id":"4","last_reported":1698260707,"current_range_meters":6400,"station_id":"ce4bh512rcd13ifvqe2g","pricing_plan_id":"free"},{"bike_id":"85f0e69a-0e71-49f5-86ce-26fa411acc76","system_id":"levelo_inurba_marseille","lat":43.290995,"lon":5.381361,"is_reserved":false,"is_disabled":false,"rental_uris":{"android":"levelo://app?vid=85f0e69a-0e71-49f5-86ce-26fa411acc76","ios":"levelo://app?vid=85f0e69a-0e71-49f5-86ce-26fa411acc76"},"vehicle_type_id":"4","last_reported":1698260707,"current_range_meters":1200,"station_id":"ce4bh512rcd13ifvqe2g","pricing_plan_id":"free"},{"bike_id":"1fa04dcd-2fc4-44f0-8afe-4e34c95d3bbd","system_id":"levelo_inurba_marseille","lat":43.289743,"lon":5.378304,"is_reserved":false,"is_disabled":false,"rental_uris":{"android":"levelo://app?vid=1fa04dcd-2fc4-44f0-8afe-4e34c95d3bbd","ios":"levelo://app?vid=1fa04dcd-2fc4-44f0-8afe-4e34c95d3bbd"},"vehicle_type_id":"4","last_reported":1698260707,"current_range_meters":7200,"station_id":"ce4bh9p2rcd13ifvqed0","pricing_plan_id":"free"},{"bike_id":"18825ba8-97bc-4e09-9861-1713005b8805","system_id":"levelo_inurba_marseille","lat":43.289741,"lon":5.378306,"is_reserved":false,"is_disabled":false,"rental_uris":{"android":"levelo://app?vid=18825ba8-97bc-4e09-9861-1713005b8805","ios":"levelo://app?vid=18825ba8-97bc-4e09-9861-1713005b8805"},"vehicle_type_id":"4","last_reported":1698260707,"current_range_meters":24400,"station_id":"ce4bh9p2rcd13ifvqed0","pricing_plan_id":"free"},{"bike_id":"46dc7910-13f9-4218-bd82-979895208dee","system_id":"levelo_inurba_marseille","lat":43.297815,"lon":5.393548,"is_reserved":false,"is_disabled":false,"rental_uris":{"android":"levelo://app?vid=46dc7910-13f9-4218-bd82-979895208dee","ios":"levelo://app?vid=46dc7910-13f9-4218-bd82-979895208dee"},"vehicle_type_id":"4","last_reported":1698260707,"current_range_meters":10400,"station_id":"chh1huq6cuj3fo74tm60","pricing_plan_id":"free"},{"bike_id":"f626e914-e995-4d19-8cf3-3d7c9cb00e0a","system_id":"levelo_inurba_marseille","lat":43.295169,"lon":5.390426,"is_reserved":false,"is_disabled":false,"rental_uris":{"android":"levelo://app?vid=f626e914-e995-4d19-8cf3-3d7c9cb00e0a","ios":"levelo://app?vid=f626e914-e995-4d19-8cf3-3d7c9cb00e0a"},"vehicle_type_id":"4","last_reported":1698260707,"current_range_meters":24000,"station_id":"ce4bh3p2rcd13ifvqdp0","pricing_plan_id":"free"},{"bike_id":"e83fbc8f-2fd0-4e36-9470-c88de7e51abd","system_id":"levelo_inurba_marseille","lat":43.297815,"lon":5.393548,"is_reserved":false,"is_disabled":false,"rental_uris":{"android":"levelo://app?vid=e83fbc8f-2fd0-4e36-9470-c88de7e51abd","ios":"levelo://app?vid=e83fbc8f-2fd0-4e36-9470-c88de7e51abd"},"vehicle_type_id":"4","last_reported":1698260707,"current_range_meters":22800,"station_id":"chh1huq6cuj3fo74tm60","pricing_plan_id":"free"},{"bike_id":"b4c3e820-b475-433d-812f-48ac7ff47373","system_id":"levelo_inurba_marseille","lat":43.297815,"lon":5.393548,"is_reserved":false,"is_disabled":false,"rental_uris":{"android":"levelo://app?vid=b4c3e820-b475-433d-812f-48ac7ff47373","ios":"levelo://app?vid=b4c3e820-b475-433d-812f-48ac7ff47373"},"vehicle_type_id":"4","last_reported":1698260707,"current_range_meters":20400,"station_id":"chh1huq6cuj3fo74tm60","pricing_plan_id":"free"},{"bike_id":"c6f28e8f-6df4-4167-bcf8-53fe44f69f83","system_id":"levelo_inurba_marseille","lat":43.297815,"lon":5.393548,"is_reserved":false,"is_disabled":false,"rental_uris":{"android":"levelo://app?vid=c6f28e8f-6df4-4167-bcf8-53fe44f69f83","ios":"levelo://app?vid=c6f28e8f-6df4-4167-bcf8-53fe44f69f83"},"vehicle_type_id":"4","last_reported":1698260707,"current_range_meters":17200,"station_id":"chh1huq6cuj3fo74tm60","pricing_plan_id":"free"},{"bike_id":"d851fcba-1df6-49c1-8b71-5edf4949b44a","system_id":"levelo_inurba_marseille","lat":43.295169,"lon":5.390426,"is_reserved":false,"is_disabled":false,"rental_uris":{"android":"levelo://app?vid=d851fcba-1df6-49c1-8b71-5edf4949b44a","ios":"levelo://app?vid=d851fcba-1df6-49c1-8b71-5edf4949b44a"},"vehicle_type_id":"4","last_reported":1698260707,"current_range_meters":27600,"station_id":"ce4bh3p2rcd13ifvqdp0","pricing_plan_id":"free"},{"bike_id":"ab51b868-9039-4f20-9410-ebbb073477ac","system_id":"levelo_inurba_marseille","lat":43.295169,"lon":5.390426,"is_reserved":false,"is_disabled":false,"rental_uris":{"android":"levelo://app?vid=ab51b868-9039-4f20-9410-ebbb073477ac","ios":"levelo://app?vid=ab51b868-9039-4f20-9410-ebbb073477ac"},"vehicle_type_id":"4","last_reported":1698260707,"current_range_meters":23200,"station_id":"ce4bh3p2rcd13ifvqdp0","pricing_plan_id":"free"},{"bike_id":"889eecdb-8a38-4c74-a602-25c352cfc7be","system_id":"levelo_inurba_marseille","lat":43.308416,"lon":5.400247,"is_reserved":false,"is_disabled":false,"rental_uris":{"android":"levelo://app?vid=889eecdb-8a38-4c74-a602-25c352cfc7be","ios":"levelo://app?vid=889eecdb-8a38-4c74-a602-25c352cfc7be"},"vehicle_type_id":"4","last_reported":1698260707,"current_range_meters":6800,"station_id":"","pricing_plan_id":"free"},{"bike_id":"2ec45f65-3d22-4c4c-aed1-8a56239d653d","system_id":"levelo_inurba_marseille","lat":43.28856,"lon":5.358371,"is_reserved":false,"is_disabled":false,"rental_uris":{"android":"levelo://app?vid=2ec45f65-3d22-4c4c-aed1-8a56239d653d","ios":"levelo://app?vid=2ec45f65-3d22-4c4c-aed1-8a56239d653d"},"vehicle_type_id":"4","last_reported":1698260707,"current_range_meters":19200,"station_id":"ce4bhb12rcd13ifvqem0","pricing_plan_id":"free"},{"bike_id":"7d84b52e-f05d-4178-8d61-2b51e797422a","system_id":"levelo_inurba_marseille","lat":43.28856,"lon":5.358371,"is_reserved":false,"is_disabled":false,"rental_uris":{"android":"levelo://app?vid=7d84b52e-f05d-4178-8d61-2b51e797422a","ios":"levelo://app?vid=7d84b52e-f05d-4178-8d61-2b51e797422a"},"vehicle_type_id":"4","last_reported":1698260707,"current_range_meters":22000,"station_id":"ce4bhb12rcd13ifvqem0","pricing_plan_id":"free"},{"bike_id":"b2097a90-cbd9-4c9d-8c31-071e6ef98d62","system_id":"levelo_inurba_marseille","lat":43.28856,"lon":5.358371,"is_reserved":false,"is_disabled":false,"rental_uris":{"android":"levelo://app?vid=b2097a90-cbd9-4c9d-8c31-071e6ef98d62","ios":"levelo://app?vid=b2097a90-cbd9-4c9d-8c31-071e6ef98d62"},"vehicle_type_id":"4","last_reported":1698260707,"current_range_meters":4400,"station_id":"ce4bhb12rcd13ifvqem0","pricing_plan_id":"free"},{"bike_id":"5d046ebb-8272-4857-aa8a-27d434fd2f7c","system_id":"levelo_inurba_marseille","lat":43.28856,"lon":5.358371,"is_reserved":false,"is_disabled":false,"rental_uris":{"android":"levelo://app?vid=5d046ebb-8272-4857-aa8a-27d434fd2f7c","ios":"levelo://app?vid=5d046ebb-8272-4857-aa8a-27d434fd2f7c"},"vehicle_type_id":"4","last_reported":1698260707,"current_range_meters":4400,"station_id":"ce4bhb12rcd13ifvqem0","pricing_plan_id":"free"},{"bike_id":"a007dfc7-1d72-4088-8241-220817db1127","system_id":"levelo_inurba_marseille","lat":43.33741,"lon":5.3747,"is_reserved":false,"is_disabled":false,"rental_uris":{"android":"levelo://app?vid=a007dfc7-1d72-4088-8241-220817db1127","ios":"levelo://app?vid=a007dfc7-1d72-4088-8241-220817db1127"},"vehicle_type_id":"4","last_reported":1698260707,"current_range_meters":25200,"station_id":"","pricing_plan_id":"free"},{"bike_id":"5f976d03-cd24-411b-b6da-05a72ca86ca0","system_id":"levelo_inurba_marseille","lat":43.309313,"lon":5.40141,"is_reserved":false,"is_disabled":false,"rental_uris":{"android":"levelo://app?vid=5f976d03-cd24-411b-b6da-05a72ca86ca0","ios":"levelo://app?vid=5f976d03-cd24-411b-b6da-05a72ca86ca0"},"vehicle_type_id":"4","last_reported":1698260707,"current_range_meters":20400,"station_id":"ce4bgvp2rcd13ifvqct0","pricing_plan_id":"free"},{"bike_id":"09ae4e30-6faa-4ae8-ae8e-1bee55e46480","system_id":"levelo_inurba_marseille","lat":43.30932,"lon":5.40144,"is_reserved":false,"is_disabled":false,"rental_uris":{"android":"levelo://app?vid=09ae4e30-6faa-4ae8-ae8e-1bee55e46480","ios":"levelo://app?vid=09ae4e30-6faa-4ae8-ae8e-1bee55e46480"},"vehicle_type_id":"4","last_reported":1698260707,"current_range_meters":4400,"station_id":"ce4bgvp2rcd13ifvqct0","pricing_plan_id":"free"},{"bike_id":"dfc5ce82-1809-44a1-9157-83f39ffa4c6c","system_id":"levelo_inurba_marseille","lat":43.30919,"lon":5.40151,"is_reserved":false,"is_disabled":false,"rental_uris":{"android":"levelo://app?vid=dfc5ce82-1809-44a1-9157-83f39ffa4c6c","ios":"levelo://app?vid=dfc5ce82-1809-44a1-9157-83f39ffa4c6c"},"vehicle_type_id":"4","last_reported":1698260707,"current_range_meters":7200,"station_id":"ce4bgvp2rcd13ifvqct0","pricing_plan_id":"free"},{"bike_id":"e061c448-124e-4067-b786-259ad7d1914c","system_id":"levelo_inurba_marseille","lat":43.30922,"lon":5.40152,"is_reserved":false,"is_disabled":false,"rental_uris":{"android":"levelo://app?vid=e061c448-124e-4067-b786-259ad7d1914c","ios":"levelo://app?vid=e061c448-124e-4067-b786-259ad7d1914c"},"vehicle_type_id":"4","last_reported":1698260707,"current_range_meters":3200,"station_id":"ce4bgvp2rcd13ifvqct0","pricing_plan_id":"free"},{"bike_id":"b05c9310-6428-4ba2-b298-64f0bd0008f3","system_id":"levelo_inurba_marseille","lat":43.309371,"lon":5.401449,"is_reserved":false,"is_disabled":false,"rental_uris":{"android":"levelo://app?vid=b05c9310-6428-4ba2-b298-64f0bd0008f3","ios":"levelo://app?vid=b05c9310-6428-4ba2-b298-64f0bd0008f3"},"vehicle_type_id":"4","last_reported":1698260707,"current_range_meters":12000,"station_id":"ce4bgvp2rcd13ifvqct0","pricing_plan_id":"free"},{"bike_id":"62852e53-31e1-4e84-af7c-62be77ff611c","system_id":"levelo_inurba_marseille","lat":43.30642,"lon":5.401031,"is_reserved":false,"is_disabled":false,"rental_uris":{"android":"levelo://app?vid=62852e53-31e1-4e84-af7c-62be77ff611c","ios":"levelo://app?vid=62852e53-31e1-4e84-af7c-62be77ff611c"},"vehicle_type_id":"4","last_reported":1698260707,"current_range_meters":0,"station_id":"ce4bh112rcd13ifvqda0","pricing_plan_id":"free"},{"bike_id":"7db3c8c1-0b87-45ef-bc36-bbd8fbfbbd14","system_id":"levelo_inurba_marseille","lat":43.306412,"lon":5.401035,"is_reserved":false,"is_disabled":false,"rental_uris":{"android":"levelo://app?vid=7db3c8c1-0b87-45ef-bc36-bbd8fbfbbd14","ios":"levelo://app?vid=7db3c8c1-0b87-45ef-bc36-bbd8fbfbbd14"},"vehicle_type_id":"4","last_reported":1698260707,"current_range_meters":20400,"station_id":"ce4bh112rcd13ifvqda0","pricing_plan_id":"free"},{"bike_id":"fdc2ebe5-7556-43ea-8ce2-79e7996844c9","system_id":"levelo_inurba_marseille","lat":43.306412,"lon":5.401035,"is_reserved":false,"is_disabled":false,"rental_uris":{"android":"levelo://app?vid=fdc2ebe5-7556-43ea-8ce2-79e7996844c9","ios":"levelo://app?vid=fdc2ebe5-7556-43ea-8ce2-79e7996844c9"},"vehicle_type_id":"4","last_reported":1698260707,"current_range_meters":11200,"station_id":"ce4bh112rcd13ifvqda0","pricing_plan_id":"free"},{"bike_id":"698c0686-f994-4344-97ce-2615fceb3a63","system_id":"levelo_inurba_marseille","lat":43.30642,"lon":5.401031,"is_reserved":false,"is_disabled":false,"rental_uris":{"android":"levelo://app?vid=698c0686-f994-4344-97ce-2615fceb3a63","ios":"levelo://app?vid=698c0686-f994-4344-97ce-2615fceb3a63"},"vehicle_type_id":"4","last_reported":1698260707,"current_range_meters":16000,"station_id":"ce4bh112rcd13ifvqda0","pricing_plan_id":"free"},{"bike_id":"34bef2bb-5c6d-4315-ba1e-eeb3de85ed61","system_id":"levelo_inurba_marseille","lat":43.306523,"lon":5.40101,"is_reserved":false,"is_disabled":false,"rental_uris":{"android":"levelo://app?vid=34bef2bb-5c6d-4315-ba1e-eeb3de85ed61","ios":"levelo://app?vid=34bef2bb-5c6d-4315-ba1e-eeb3de85ed61"},"vehicle_type_id":"4","last_reported":1698260707,"current_range_meters":1200,"station_id":"ce4bh112rcd13ifvqda0","pricing_plan_id":"free"},{"bike_id":"d48aa80e-202d-432f-a3be-cd35017d3b11","system_id":"levelo_inurba_marseille","lat":43.306552,"lon":5.401083,"is_reserved":false,"is_disabled":false,"rental_uris":{"android":"levelo://app?vid=d48aa80e-202d-432f-a3be-cd35017d3b11","ios":"levelo://app?vid=d48aa80e-202d-432f-a3be-cd35017d3b11"},"vehicle_type_id":"4","last_reported":1698260707,"current_range_meters":16400,"station_id":"ce4bh112rcd13ifvqda0","pricing_plan_id":"free"},{"bike_id":"662308b2-799a-4bc2-bede-37cee6f73cfd","system_id":"levelo_inurba_marseille","lat":43.306412,"lon":5.401035,"is_reserved":false,"is_disabled":false,"rental_uris":{"android":"levelo://app?vid=662308b2-799a-4bc2-bede-37cee6f73cfd","ios":"levelo://app?vid=662308b2-799a-4bc2-bede-37cee6f73cfd"},"vehicle_type_id":"4","last_reported":1698260707,"current_range_meters":0,"station_id":"ce4bh112rcd13ifvqda0","pricing_plan_id":"free"},{"bike_id":"50c99965-153e-436f-a63b-df1b9dc5441c","system_id":"levelo_inurba_marseille","lat":43.30142,"lon":5.39865,"is_reserved":false,"is_disabled":false,"rental_uris":{"android":"levelo://app?vid=50c99965-153e-436f-a63b-df1b9dc5441c","ios":"levelo://app?vid=50c99965-153e-436f-a63b-df1b9dc5441c"},"vehicle_type_id":"4","last_reported":1698260707,"current_range_meters":5600,"station_id":"ce4bh0h2rcd13ifvqd40","pricing_plan_id":"free"},{"bike_id":"04fbf717-1d60-43f2-a280-6e179780e948","system_id":"levelo_inurba_marseille","lat":43.298681,"lon":5.397225,"is_reserved":false,"is_disabled":false,"rental_uris":{"android":"levelo://app?vid=04fbf717-1d60-43f2-a280-6e179780e948","ios":"levelo://app?vid=04fbf717-1d60-43f2-a280-6e179780e948"},"vehicle_type_id":"4","last_reported":1698260707,"current_range_meters":28000,"station_id":"ce4bh0h2rcd13ifvqd50","pricing_plan_id":"free"},{"bike_id":"12357f24-d245-4a22-af48-6fd99e045404","system_id":"levelo_inurba_marseille","lat":43.286961,"lon":5.373785,"is_reserved":false,"is_disabled":false,"rental_uris":{"android":"levelo://app?vid=12357f24-d245-4a22-af48-6fd99e045404","ios":"levelo://app?vid=12357f24-d245-4a22-af48-6fd99e045404"},"vehicle_type_id":"4","last_reported":1698260707,"current_range_meters":0,"station_id":"ce4bh3p2rcd13ifvqdq0","pricing_plan_id":"free"},{"bike_id":"3f20156a-58e0-49ab-ad33-70cff1bf9fa5","system_id":"levelo_inurba_marseille","lat":43.286593,"lon":5.363346,"is_reserved":false,"is_disabled":false,"rental_uris":{"android":"levelo://app?vid=3f20156a-58e0-49ab-ad33-70cff1bf9fa5","ios":"levelo://app?vid=3f20156a-58e0-49ab-ad33-70cff1bf9fa5"},"vehicle_type_id":"4","last_reported":1698260707,"current_range_meters":0,"station_id":"ce4bhah2rcd13ifvqej0","pricing_plan_id":"free"},{"bike_id":"d805f97b-7ed9-43b4-940e-2d5d2fbb64e0","system_id":"levelo_inurba_marseille","lat":43.286961,"lon":5.373785,"is_reserved":false,"is_disabled":false,"rental_uris":{"android":"levelo://app?vid=d805f97b-7ed9-43b4-940e-2d5d2fbb64e0","ios":"levelo://app?vid=d805f97b-7ed9-43b4-940e-2d5d2fbb64e0"},"vehicle_type_id":"4","last_reported":1698260707,"current_range_meters":8800,"station_id":"ce4bh3p2rcd13ifvqdq0","pricing_plan_id":"free"},{"bike_id":"ffaa1f7b-136c-4dd5-8523-8285bd3beb22","system_id":"levelo_inurba_marseille","lat":43.286961,"lon":5.373785,"is_reserved":false,"is_disabled":false,"rental_uris":{"android":"levelo://app?vid=ffaa1f7b-136c-4dd5-8523-8285bd3beb22","ios":"levelo://app?vid=ffaa1f7b-136c-4dd5-8523-8285bd3beb22"},"vehicle_type_id":"4","last_reported":1698260707,"current_range_meters":10800,"station_id":"ce4bh3p2rcd13ifvqdq0","pricing_plan_id":"free"},{"bike_id":"ecc6d933-3ed7-4728-a6bd-767b8dac5921","system_id":"levelo_inurba_marseille","lat":43.28664,"lon":5.36344,"is_reserved":false,"is_disabled":false,"rental_uris":{"android":"levelo://app?vid=ecc6d933-3ed7-4728-a6bd-767b8dac5921","ios":"levelo://app?vid=ecc6d933-3ed7-4728-a6bd-767b8dac5921"},"vehicle_type_id":"4","last_reported":1698260707,"current_range_meters":24400,"station_id":"ce4bhah2rcd13ifvqej0","pricing_plan_id":"free"},{"bike_id":"03425871-7106-4c1f-a630-04addf00d7b8","system_id":"levelo_inurba_marseille","lat":43.286961,"lon":5.373785,"is_reserved":false,"is_disabled":false,"rental_uris":{"android":"levelo://app?vid=03425871-7106-4c1f-a630-04addf00d7b8","ios":"levelo://app?vid=03425871-7106-4c1f-a630-04addf00d7b8"},"vehicle_type_id":"4","last_reported":1698260707,"current_range_meters":26000,"station_id":"ce4bh3p2rcd13ifvqdq0","pricing_plan_id":"free"},{"bike_id":"f49ddbf6-b9f2-4176-b1a5-267de3a7320e","system_id":"levelo_inurba_marseille","lat":43.286593,"lon":5.363346,"is_reserved":false,"is_disabled":false,"rental_uris":{"android":"levelo://app?vid=f49ddbf6-b9f2-4176-b1a5-267de3a7320e","ios":"levelo://app?vid=f49ddbf6-b9f2-4176-b1a5-267de3a7320e"},"vehicle_type_id":"4","last_reported":1698260707,"current_range_meters":26400,"station_id":"ce4bhah2rcd13ifvqej0","pricing_plan_id":"free"},{"bike_id":"ffef3c1d-2192-49c5-bbd2-2cc602d3905f","system_id":"levelo_inurba_marseille","lat":43.286593,"lon":5.363346,"is_reserved":false,"is_disabled":false,"rental_uris":{"android":"levelo://app?vid=ffef3c1d-2192-49c5-bbd2-2cc602d3905f","ios":"levelo://app?vid=ffef3c1d-2192-49c5-bbd2-2cc602d3905f"},"vehicle_type_id":"4","last_reported":1698260707,"current_range_meters":25600,"station_id":"ce4bhah2rcd13ifvqej0","pricing_plan_id":"free"},{"bike_id":"fec6295e-5920-44a5-a5c2-e8c39be6b72c","system_id":"levelo_inurba_marseille","lat":43.286961,"lon":5.373785,"is_reserved":false,"is_disabled":false,"rental_uris":{"android":"levelo://app?vid=fec6295e-5920-44a5-a5c2-e8c39be6b72c","ios":"levelo://app?vid=fec6295e-5920-44a5-a5c2-e8c39be6b72c"},"vehicle_type_id":"4","last_reported":1698260707,"current_range_meters":0,"station_id":"ce4bh3p2rcd13ifvqdq0","pricing_plan_id":"free"},{"bike_id":"26e203c7-fe1b-41e7-ab2c-25a2b5bce00a","system_id":"levelo_inurba_marseille","lat":43.286593,"lon":5.363346,"is_reserved":false,"is_disabled":false,"rental_uris":{"android":"levelo://app?vid=26e203c7-fe1b-41e7-ab2c-25a2b5bce00a","ios":"levelo://app?vid=26e203c7-fe1b-41e7-ab2c-25a2b5bce00a"},"vehicle_type_id":"4","last_reported":1698260707,"current_range_meters":2800,"station_id":"ce4bhah2rcd13ifvqej0","pricing_plan_id":"free"},{"bike_id":"f93aa65e-353d-4da8-a57b-b0c0882a969b","system_id":"levelo_inurba_marseille","lat":43.286961,"lon":5.373785,"is_reserved":false,"is_disabled":false,"rental_uris":{"android":"levelo://app?vid=f93aa65e-353d-4da8-a57b-b0c0882a969b","ios":"levelo://app?vid=f93aa65e-353d-4da8-a57b-b0c0882a969b"},"vehicle_type_id":"4","last_reported":1698260707,"current_range_meters":20800,"station_id":"ce4bh3p2rcd13ifvqdq0","pricing_plan_id":"free"},{"bike_id":"3952e635-2195-40f6-8a09-820c3bef683a","system_id":"levelo_inurba_marseille","lat":43.286593,"lon":5.363346,"is_reserved":false,"is_disabled":false,"rental_uris":{"android":"levelo://app?vid=3952e635-2195-40f6-8a09-820c3bef683a","ios":"levelo://app?vid=3952e635-2195-40f6-8a09-820c3bef683a"},"vehicle_type_id":"4","last_reported":1698260707,"current_range_meters":30400,"station_id":"ce4bhah2rcd13ifvqej0","pricing_plan_id":"free"},{"bike_id":"63fdda5a-6cb6-40de-bbc1-125098377625","system_id":"levelo_inurba_marseille","lat":43.28693,"lon":5.37381,"is_reserved":false,"is_disabled":false,"rental_uris":{"android":"levelo://app?vid=63fdda5a-6cb6-40de-bbc1-125098377625","ios":"levelo://app?vid=63fdda5a-6cb6-40de-bbc1-125098377625"},"vehicle_type_id":"4","last_reported":1698260707,"current_range_meters":3600,"station_id":"ce4bh3p2rcd13ifvqdq0","pricing_plan_id":"free"},{"bike_id":"9b463d85-47cb-4cda-8cbe-1ca2ad27dca2","system_id":"levelo_inurba_marseille","lat":43.286593,"lon":5.363346,"is_reserved":false,"is_disabled":false,"rental_uris":{"android":"levelo://app?vid=9b463d85-47cb-4cda-8cbe-1ca2ad27dca2","ios":"levelo://app?vid=9b463d85-47cb-4cda-8cbe-1ca2ad27dca2"},"vehicle_type_id":"4","last_reported":1698260707,"current_range_meters":29200,"station_id":"ce4bhah2rcd13ifvqej0","pricing_plan_id":"free"},{"bike_id":"5600c6b4-c727-4766-87a6-a9c7d5d24323","system_id":"levelo_inurba_marseille","lat":43.286961,"lon":5.373785,"is_reserved":false,"is_disabled":false,"rental_uris":{"android":"levelo://app?vid=5600c6b4-c727-4766-87a6-a9c7d5d24323","ios":"levelo://app?vid=5600c6b4-c727-4766-87a6-a9c7d5d24323"},"vehicle_type_id":"4","last_reported":1698260707,"current_range_meters":8000,"station_id":"ce4bh3p2rcd13ifvqdq0","pricing_plan_id":"free"},{"bike_id":"93f4c4a6-845f-4fdd-8604-4efa479f872e","system_id":"levelo_inurba_marseille","lat":43.28692,"lon":5.37388,"is_reserved":false,"is_disabled":false,"rental_uris":{"android":"levelo://app?vid=93f4c4a6-845f-4fdd-8604-4efa479f872e","ios":"levelo://app?vid=93f4c4a6-845f-4fdd-8604-4efa479f872e"},"vehicle_type_id":"4","last_reported":1698260707,"current_range_meters":26400,"station_id":"ce4bh3p2rcd13ifvqdq0","pricing_plan_id":"free"},{"bike_id":"ceb5f9e3-e211-4802-a311-4c93b3effcdc","system_id":"levelo_inurba_marseille","lat":43.286593,"lon":5.363346,"is_reserved":false,"is_disabled":false,"rental_uris":{"android":"levelo://app?vid=ceb5f9e3-e211-4802-a311-4c93b3effcdc","ios":"levelo://app?vid=ceb5f9e3-e211-4802-a311-4c93b3effcdc"},"vehicle_type_id":"4","last_reported":1698260707,"current_range_meters":27600,"station_id":"ce4bhah2rcd13ifvqej0","pricing_plan_id":"free"},{"bike_id":"8bf5d594-b53f-45ac-a3e7-02f9c127dcc8","system_id":"levelo_inurba_marseille","lat":43.286591,"lon":5.363346,"is_reserved":false,"is_disabled":false,"rental_uris":{"android":"levelo://app?vid=8bf5d594-b53f-45ac-a3e7-02f9c127dcc8","ios":"levelo://app?vid=8bf5d594-b53f-45ac-a3e7-02f9c127dcc8"},"vehicle_type_id":"4","last_reported":1698260707,"current_range_meters":4000,"station_id":"ce4bhah2rcd13ifvqej0","pricing_plan_id":"free"},{"bike_id":"7889a249-7a62-4cdb-a576-3a01404b30c8","system_id":"levelo_inurba_marseille","lat":43.28999,"lon":5.385535,"is_reserved":false,"is_disabled":false,"rental_uris":{"android":"levelo://app?vid=7889a249-7a62-4cdb-a576-3a01404b30c8","ios":"levelo://app?vid=7889a249-7a62-4cdb-a576-3a01404b30c8"},"vehicle_type_id":"4","last_reported":1698260707,"current_range_meters":6800,"station_id":"","pricing_plan_id":"free"},{"bike_id":"709dccd6-575a-40ca-8990-af4f502c7676","system_id":"levelo_inurba_marseille","lat":43.29038,"lon":5.38643,"is_reserved":false,"is_disabled":false,"rental_uris":{"android":"levelo://app?vid=709dccd6-575a-40ca-8990-af4f502c7676","ios":"levelo://app?vid=709dccd6-575a-40ca-8990-af4f502c7676"},"vehicle_type_id":"4","last_reported":1698260707,"current_range_meters":20800,"station_id":"ce4bh4p2rcd13ifvqe0g","pricing_plan_id":"free"},{"bike_id":"b993ffba-782f-40eb-8d7c-3fe2a3b1ab34","system_id":"levelo_inurba_marseille","lat":43.290318,"lon":5.386323,"is_reserved":false,"is_disabled":false,"rental_uris":{"android":"levelo://app?vid=b993ffba-782f-40eb-8d7c-3fe2a3b1ab34","ios":"levelo://app?vid=b993ffba-782f-40eb-8d7c-3fe2a3b1ab34"},"vehicle_type_id":"4","last_reported":1698260707,"current_range_meters":0,"station_id":"ce4bh4p2rcd13ifvqe0g","pricing_plan_id":"free"},{"bike_id":"1d19e83d-52b0-41ac-8b4a-fdd4738d5b64","system_id":"levelo_inurba_marseille","lat":43.302576,"lon":5.400559,"is_reserved":false,"is_disabled":false,"rental_uris":{"android":"levelo://app?vid=1d19e83d-52b0-41ac-8b4a-fdd4738d5b64","ios":"levelo://app?vid=1d19e83d-52b0-41ac-8b4a-fdd4738d5b64"},"vehicle_type_id":"4","last_reported":1698260707,"current_range_meters":11200,"station_id":"","pricing_plan_id":"free"},{"bike_id":"df14529c-32da-47b1-b9f9-b5d4eddaddb2","system_id":"levelo_inurba_marseille","lat":43.2904,"lon":5.38653,"is_reserved":false,"is_disabled":false,"rental_uris":{"android":"levelo://app?vid=df14529c-32da-47b1-b9f9-b5d4eddaddb2","ios":"levelo://app?vid=df14529c-32da-47b1-b9f9-b5d4eddaddb2"},"vehicle_type_id":"4","last_reported":1698260707,"current_range_meters":22400,"station_id":"ce4bh4p2rcd13ifvqe0g","pricing_plan_id":"free"},{"bike_id":"4a577476-bc95-4e7a-87c0-e3ac3de861eb","system_id":"levelo_inurba_marseille","lat":43.302759,"lon":5.400793,"is_reserved":false,"is_disabled":false,"rental_uris":{"android":"levelo://app?vid=4a577476-bc95-4e7a-87c0-e3ac3de861eb","ios":"levelo://app?vid=4a577476-bc95-4e7a-87c0-e3ac3de861eb"},"vehicle_type_id":"4","last_reported":1698260707,"current_range_meters":400,"station_id":"ce4bgvh2rcd13ifvqcs0","pricing_plan_id":"free"},{"bike_id":"ef319202-01bb-4cfb-a4bb-02063b2c842d","system_id":"levelo_inurba_marseille","lat":43.29038,"lon":5.38654,"is_reserved":false,"is_disabled":false,"rental_uris":{"android":"levelo://app?vid=ef319202-01bb-4cfb-a4bb-02063b2c842d","ios":"levelo://app?vid=ef319202-01bb-4cfb-a4bb-02063b2c842d"},"vehicle_type_id":"4","last_reported":1698260707,"current_range_meters":23600,"station_id":"ce4bh4p2rcd13ifvqe0g","pricing_plan_id":"free"},{"bike_id":"5b21c32e-68a9-4ece-afb4-807a43d1abe6","system_id":"levelo_inurba_marseille","lat":43.29503,"lon":5.39409,"is_reserved":false,"is_disabled":false,"rental_uris":{"android":"levelo://app?vid=5b21c32e-68a9-4ece-afb4-807a43d1abe6","ios":"levelo://app?vid=5b21c32e-68a9-4ece-afb4-807a43d1abe6"},"vehicle_type_id":"4","last_reported":1698260707,"current_range_meters":0,"station_id":"ce4bh292rcd13ifvqdf0","pricing_plan_id":"free"},{"bike_id":"a9ca9cac-c9ff-47c5-99a8-e0c578ff5555","system_id":"levelo_inurba_marseille","lat":43.302759,"lon":5.400793,"is_reserved":false,"is_disabled":false,"rental_uris":{"android":"levelo://app?vid=a9ca9cac-c9ff-47c5-99a8-e0c578ff5555","ios":"levelo://app?vid=a9ca9cac-c9ff-47c5-99a8-e0c578ff5555"},"vehicle_type_id":"4","last_reported":1698260707,"current_range_meters":4000,"station_id":"ce4bgvh2rcd13ifvqcs0","pricing_plan_id":"free"},{"bike_id":"9814e9c9-7fe0-42d0-ba36-b29c325733cd","system_id":"levelo_inurba_marseille","lat":43.290258,"lon":5.38636,"is_reserved":false,"is_disabled":false,"rental_uris":{"android":"levelo://app?vid=9814e9c9-7fe0-42d0-ba36-b29c325733cd","ios":"levelo://app?vid=9814e9c9-7fe0-42d0-ba36-b29c325733cd"},"vehicle_type_id":"4","last_reported":1698260707,"current_range_meters":7200,"station_id":"ce4bh4p2rcd13ifvqe0g","pricing_plan_id":"free"},{"bike_id":"f61ebd50-140d-4624-8703-81f5c576fea1","system_id":"levelo_inurba_marseille","lat":43.290308,"lon":5.386486,"is_reserved":false,"is_disabled":false,"rental_uris":{"android":"levelo://app?vid=f61ebd50-140d-4624-8703-81f5c576fea1","ios":"levelo://app?vid=f61ebd50-140d-4624-8703-81f5c576fea1"},"vehicle_type_id":"4","last_reported":1698260707,"current_range_meters":15600,"station_id":"ce4bh4p2rcd13ifvqe0g","pricing_plan_id":"free"},{"bike_id":"738bac65-d5a3-4b42-8072-72a442e59df0","system_id":"levelo_inurba_marseille","lat":43.28923,"lon":5.38399,"is_reserved":false,"is_disabled":false,"rental_uris":{"android":"levelo://app?vid=738bac65-d5a3-4b42-8072-72a442e59df0","ios":"levelo://app?vid=738bac65-d5a3-4b42-8072-72a442e59df0"},"vehicle_type_id":"4","last_reported":1698260707,"current_range_meters":20800,"station_id":"ce4bh612rcd13ifvqe6g","pricing_plan_id":"free"},{"bike_id":"5c80ce04-dfab-48f2-8d29-5797bd1ba3e5","system_id":"levelo_inurba_marseille","lat":43.29037,"lon":5.3867,"is_reserved":false,"is_disabled":false,"rental_uris":{"android":"levelo://app?vid=5c80ce04-dfab-48f2-8d29-5797bd1ba3e5","ios":"levelo://app?vid=5c80ce04-dfab-48f2-8d29-5797bd1ba3e5"},"vehicle_type_id":"4","last_reported":1698260707,"current_range_meters":13200,"station_id":"ce4bh4p2rcd13ifvqe0g","pricing_plan_id":"free"},{"bike_id":"77c718d6-bddc-4a80-b18d-72b11e0c8aa2","system_id":"levelo_inurba_marseille","lat":43.302759,"lon":5.400793,"is_reserved":false,"is_disabled":false,"rental_uris":{"android":"levelo://app?vid=77c718d6-bddc-4a80-b18d-72b11e0c8aa2","ios":"levelo://app?vid=77c718d6-bddc-4a80-b18d-72b11e0c8aa2"},"vehicle_type_id":"4","last_reported":1698260707,"current_range_meters":22800,"station_id":"ce4bgvh2rcd13ifvqcs0","pricing_plan_id":"free"},{"bike_id":"34615546-5f2b-4a52-b230-6b89efac73f7","system_id":"levelo_inurba_marseille","lat":43.302759,"lon":5.400793,"is_reserved":false,"is_disabled":false,"rental_uris":{"android":"levelo://app?vid=34615546-5f2b-4a52-b230-6b89efac73f7","ios":"levelo://app?vid=34615546-5f2b-4a52-b230-6b89efac73f7"},"vehicle_type_id":"4","last_reported":1698260707,"current_range_meters":22800,"station_id":"ce4bgvh2rcd13ifvqcs0","pricing_plan_id":"free"},{"bike_id":"c833ce2e-4216-48bc-b22e-bb9aeccb46c3","system_id":"levelo_inurba_marseille","lat":43.302759,"lon":5.400793,"is_reserved":false,"is_disabled":false,"rental_uris":{"android":"levelo://app?vid=c833ce2e-4216-48bc-b22e-bb9aeccb46c3","ios":"levelo://app?vid=c833ce2e-4216-48bc-b22e-bb9aeccb46c3"},"vehicle_type_id":"4","last_reported":1698260707,"current_range_meters":6400,"station_id":"ce4bgvh2rcd13ifvqcs0","pricing_plan_id":"free"},{"bike_id":"4c81fbb4-f722-4ece-bc38-cb0126b89e1b","system_id":"levelo_inurba_marseille","lat":43.28614,"lon":5.37065,"is_reserved":false,"is_disabled":false,"rental_uris":{"android":"levelo://app?vid=4c81fbb4-f722-4ece-bc38-cb0126b89e1b","ios":"levelo://app?vid=4c81fbb4-f722-4ece-bc38-cb0126b89e1b"},"vehicle_type_id":"4","last_reported":1698260707,"current_range_meters":27600,"station_id":"ce4bht12rcd13ifvqi60","pricing_plan_id":"free"},{"bike_id":"1b1109cc-de8a-42d8-a26b-2acda52637c6","system_id":"levelo_inurba_marseille","lat":43.286039,"lon":5.370681,"is_reserved":false,"is_disabled":false,"rental_uris":{"android":"levelo://app?vid=1b1109cc-de8a-42d8-a26b-2acda52637c6","ios":"levelo://app?vid=1b1109cc-de8a-42d8-a26b-2acda52637c6"},"vehicle_type_id":"4","last_reported":1698260707,"current_range_meters":19200,"station_id":"ce4bht12rcd13ifvqi60","pricing_plan_id":"free"},{"bike_id":"809b93d6-82eb-4d9a-9cf9-6c6ac27dcc76","system_id":"levelo_inurba_marseille","lat":43.287184,"lon":5.37937,"is_reserved":false,"is_disabled":false,"rental_uris":{"android":"levelo://app?vid=809b93d6-82eb-4d9a-9cf9-6c6ac27dcc76","ios":"levelo://app?vid=809b93d6-82eb-4d9a-9cf9-6c6ac27dcc76"},"vehicle_type_id":"4","last_reported":1698260707,"current_range_meters":24800,"station_id":"ce4bh9p2rcd13ifvqec0","pricing_plan_id":"free"},{"bike_id":"bc368e20-93c0-495a-bb4f-cd8ed7ee7f0d","system_id":"levelo_inurba_marseille","lat":43.335307,"lon":5.388143,"is_reserved":false,"is_disabled":false,"rental_uris":{"android":"levelo://app?vid=bc368e20-93c0-495a-bb4f-cd8ed7ee7f0d","ios":"levelo://app?vid=bc368e20-93c0-495a-bb4f-cd8ed7ee7f0d"},"vehicle_type_id":"4","last_reported":1698260707,"current_range_meters":2000,"station_id":"","pricing_plan_id":"free"},{"bike_id":"5308dd92-0eb4-4581-9e2b-19673ce4400f","system_id":"levelo_inurba_marseille","lat":43.316455,"lon":5.404355,"is_reserved":false,"is_disabled":false,"rental_uris":{"android":"levelo://app?vid=5308dd92-0eb4-4581-9e2b-19673ce4400f","ios":"levelo://app?vid=5308dd92-0eb4-4581-9e2b-19673ce4400f"},"vehicle_type_id":"4","last_reported":1698260707,"current_range_meters":0,"station_id":"ce4bh012rcd13ifvqd00","pricing_plan_id":"free"},{"bike_id":"b966346c-1c30-4a74-b975-53abc4db3121","system_id":"levelo_inurba_marseille","lat":43.31646,"lon":5.40439,"is_reserved":false,"is_disabled":false,"rental_uris":{"android":"levelo://app?vid=b966346c-1c30-4a74-b975-53abc4db3121","ios":"levelo://app?vid=b966346c-1c30-4a74-b975-53abc4db3121"},"vehicle_type_id":"4","last_reported":1698260707,"current_range_meters":5200,"station_id":"ce4bh012rcd13ifvqd00","pricing_plan_id":"free"},{"bike_id":"d5d57e62-3887-4006-9d09-9c3d4727ab86","system_id":"levelo_inurba_marseille","lat":43.31649,"lon":5.40441,"is_reserved":false,"is_disabled":false,"rental_uris":{"android":"levelo://app?vid=d5d57e62-3887-4006-9d09-9c3d4727ab86","ios":"levelo://app?vid=d5d57e62-3887-4006-9d09-9c3d4727ab86"},"vehicle_type_id":"4","last_reported":1698260707,"current_range_meters":22000,"station_id":"ce4bh012rcd13ifvqd00","pricing_plan_id":"free"},{"bike_id":"8ada65a2-14d8-4c84-8297-4563b2c566df","system_id":"levelo_inurba_marseille","lat":43.291994,"lon":5.392907,"is_reserved":false,"is_disabled":false,"rental_uris":{"android":"levelo://app?vid=8ada65a2-14d8-4c84-8297-4563b2c566df","ios":"levelo://app?vid=8ada65a2-14d8-4c84-8297-4563b2c566df"},"vehicle_type_id":"4","last_reported":1698260707,"current_range_meters":14800,"station_id":"ce4bh192rcd13ifvqdd0","pricing_plan_id":"free"},{"bike_id":"86e2a0cb-26dc-4e5c-acfa-28774ac9b725","system_id":"levelo_inurba_marseille","lat":43.29195,"lon":5.39315,"is_reserved":false,"is_disabled":false,"rental_uris":{"android":"levelo://app?vid=86e2a0cb-26dc-4e5c-acfa-28774ac9b725","ios":"levelo://app?vid=86e2a0cb-26dc-4e5c-acfa-28774ac9b725"},"vehicle_type_id":"4","last_reported":1698260707,"current_range_meters":6800,"station_id":"ce4bh192rcd13ifvqdd0","pricing_plan_id":"free"},