{"last_updated":1738678105,"ttl":60,"version":"2.2","data":{"bikes":[{"bike_id":"a6accd57-54cf-4d44-87f9-766d1013e2f7","system_id":"levelo_inurba_marseille","lat":43.26023,"lon":5.3755,"is_reserved":false,"is_disabled":false,"rental_uris":{"android":"levelo://app?vid=a6accd57-54cf-4d44-87f9-766d1013e2f7","ios":"levelo://app?vid=a6accd57-54cf-4d44-87f9-766d1013e2f7"},"vehicle_type_id":"4","last_reported":1738678105,"current_range_meters":36800,"station_id":"ce4bhgh2rcd13ifvqfa0","pricing_plan_id":"cebpf4jnsgd1na2vs0mg"},{"bike_id":"4166f30a-72db-41d5-b2ba-dfec6ab056dc","system_id":"levelo_inurba_marseille","lat":43.27937,"lon":5.4103,"is_reserved":false,"is_disabled":false,"rental_uris":{"android":"levelo://app?vid=4166f30a-72db-41d5-b2ba-dfec6ab056dc","ios":"levelo://app?vid=4166f30a-72db-41d5-b2ba-dfec6ab056dc"},"vehicle_type_id":"4","last_reported":1738678105,"current_range_meters":38800,"station_id":"ce4bhnp2rcd13ifvqh0g","pricing_plan_id":"cebpf4jnsgd1na2vs0mg"},{"bike_id":"1ae6562d-660e-4805-b9fa-ffde6ca908d4","system_id":"levelo_inurba_marseille","lat":43.28696,"lon":5.37414,"is_reserved":false,"is_disabled":false,"rental_uris":{"android":"levelo://app?vid=1ae6562d-660e-4805-b9fa-ffde6ca908d4","ios":"levelo://app?vid=1ae6562d-660e-4805-b9fa-ffde6ca908d4"},"vehicle_type_id":"4","last_reported":1738678105,"current_range_meters":32000,"station_id":"ce4bh3p2rcd13ifvqdq0","pricing_plan_id":"cebpf4jnsgd1na2vs0mg"},{"bike_id":"5de6f6e1-3eb6-4936-9461-f12693c42397","system_id":"levelo_inurba_marseille","lat":43.27372,"lon":5.36251,"is_reserved":false,"is_disabled":false,"rental_uris":{"android":"levelo://app?vid=5de6f6e1-3eb6-4936-9461-f12693c42397","ios":"levelo://app?vid=5de6f6e1-3eb6-4936-9461-f12693c42397"},"vehicle_type_id":"4","last_reported":1738678105,"current_range_meters":18000,"station_id":"ce4bhbh2rcd13ifvqeo0","pricing_plan_id":"cebpf4jnsgd1na2vs0mg"},{"bike_id":"30a877c0-3bac-4df1-a6c7-56ed3f59496a","system_id":"levelo_inurba_marseille","lat":43.30146,"lon":5.37418,"is_reserved":false,"is_disabled":false,"rental_uris":{"android":"levelo://app?vid=30a877c0-3bac-4df1-a6c7-56ed3f59496a","ios":"levelo://app?vid=30a877c0-3bac-4df1-a6c7-56ed3f59496a"},"vehicle_type_id":"4","last_reported":1738678105,"current_range_meters":23200,"station_id":"ce4bgs92rcd13ifvqcc0","pricing_plan_id":"cebpf4jnsgd1na2vs0mg"},{"bike_id":"53a9d8da-5f7e-48a8-b489-8866ab88b092","system_id":"levelo_inurba_marseille","lat":43.28266,"lon":5.3505,"is_reserved":false,"is_disabled":false,"rental_uris":{"android":"levelo://app?vid=53a9d8da-5f7e-48a8-b489-8866ab88b092","ios":"levelo://app?vid=53a9d8da-5f7e-48a8-b489-8866ab88b092"},"vehicle_type_id":"4","last_reported":1738678105,"current_range_meters":39200,"station_id":"ce4bhbp2rcd13ifvqerg","pricing_plan_id":"cebpf4jnsgd1na2vs0mg"},{"bike_id":"27a9b4df-b659-41ae-bc37-cfb29e251d05","system_id":"levelo_inurba_marseille","lat":43.30323,"lon":5.36899,"is_reserved":false,"is_disabled":false,"rental_uris":{"android":"levelo://app?vid=27a9b4df-b659-41ae-bc37-cfb29e251d05","ios":"levelo://app?vid=27a9b4df-b659-41ae-bc37-cfb29e251d05"},"vehicle_type_id":"4","last_reported":1738678105,"current_range_meters":39200,"station_id":"ce4bgqh2rcd13ifvqc5g","pricing_plan_id":"cebpf4jnsgd1na2vs0mg"},{"bike_id":"c3d081d5-4d92-46ae-b635-182bf30c7a9e","system_id":"levelo_inurba_marseille","lat":43.305296,"lon":5.36551,"is_reserved":false,"is_disabled":false,"rental_uris":{"android":"levelo://app?vid=c3d081d5-4d92-46ae-b635-182bf30c7a9e","ios":"levelo://app?vid=c3d081d5-4d92-46ae-b635-182bf30c7a9e"},"vehicle_type_id":"4","last_reported":1738678105,"current_range_meters":27600,"station_id":"ce4bgs12rcd13ifvqcag","pricing_plan_id":"cebpf4jnsgd1na2vs0mg"},{"bike_id":"4036b069-edc0-42e9-b0d2-dbeb71929a3b","system_id":"levelo_inurba_marseille","lat":43.30285,"lon":5.37699,"is_reserved":false,"is_disabled":false,"rental_uris":{"android":"levelo://app?vid=4036b069-edc0-42e9-b0d2-dbeb71929a3b","ios":"levelo://app?vid=4036b069-edc0-42e9-b0d2-dbeb71929a3b"},"vehicle_type_id":"4","last_reported":1738678105,"current_range_meters":32400,"station_id":"ce4bguh2rcd13ifvqcj0","pricing_plan_id":"cebpf4jnsgd1na2vs0mg"},{"bike_id":"14bca0f9-bd06-46cc-aece-48948311478b","system_id":"levelo_inurba_marseille","lat":43.31069,"lon":5.38351,"is_reserved":false,"is_disabled":false,"rental_uris":{"android":"levelo://app?vid=14bca0f9-bd06-46cc-aece-48948311478b","ios":"levelo://app?vid=14bca0f9-bd06-46cc-aece-48948311478b"},"vehicle_type_id":"4","last_reported":1738678105,"current_range_meters":7200,"station_id":"ce4bgv92rcd13ifvqcr0","pricing_plan_id":"cebpf4jnsgd1na2vs0mg"},{"bike_id":"218cf88c-674f-46a7-9455-3b01fdb97c07","system_id":"levelo_inurba_marseille","lat":43.2315,"lon":5.43696,"is_reserved":false,"is_disabled":false,"rental_uris":{"android":"levelo://app?vid=218cf88c-674f-46a7-9455-3b01fdb97c07","ios":"levelo://app?vid=218cf88c-674f-46a7-9455-3b01fdb97c07"},"vehicle_type_id":"4","last_reported":1738678105,"current_range_meters":38800,"station_id":"ce4bhmp2rcd13ifvqgog","pricing_plan_id":"cebpf4jnsgd1na2vs0mg"},{"bike_id":"4adc5aab-b210-4641-aba5-160a4e23aeb0","system_id":"levelo_inurba_marseille","lat":43.29617,"lon":5.37165,"is_reserved":false,"is_disabled":false,"rental_uris":{"android":"levelo://app?vid=4adc5aab-b210-4641-aba5-160a4e23aeb0","ios":"levelo://app?vid=4adc5aab-b210-4641-aba5-160a4e23aeb0"},"vehicle_type_id":"4","last_reported":1738678105,"current_range_meters":37600,"station_id":"ce4bgnh2rcd13ifvqc0g","pricing_plan_id":"cebpf4jnsgd1na2vs0mg"},{"bike_id":"03e56226-a4a2-447a-b0ef-d77b2ac074e2","system_id":"levelo_inurba_marseille","lat":43.24103,"lon":5.37693,"is_reserved":false,"is_disabled":false,"rental_uris":{"android":"levelo://app?vid=03e56226-a4a2-447a-b0ef-d77b2ac074e2","ios":"levelo://app?vid=03e56226-a4a2-447a-b0ef-d77b2ac074e2"},"vehicle_type_id":"4","last_reported":1738678105,"current_range_meters":26800,"station_id":"","pricing_plan_id":"cebpf4jnsgd1na2vs0mg"},{"bike_id":"0e63df9e-4a66-4743-a66a-9109cf23f449","system_id":"levelo_inurba_marseille","lat":43.30908,"lon":5.36842,"is_reserved":false,"is_disabled":false,"rental_uris":{"android":"levelo://app?vid=0e63df9e-4a66-4743-a66a-9109cf23f449","ios":"levelo://app?vid=0e63df9e-4a66-4743-a66a-9109cf23f449"},"vehicle_type_id":"4","last_reported":1738678105,"current_range_meters":21600,"station_id":"ce4bgn92rcd13ifvqbvg","pricing_plan_id":"cebpf4jnsgd1na2vs0mg"},{"bike_id":"7863b9f3-4b57-455e-8624-a6a075799264","system_id":"levelo_inurba_marseille","lat":43.26681,"lon":5.38263,"is_reserved":false,"is_disabled":false,"rental_uris":{"android":"levelo://app?vid=7863b9f3-4b57-455e-8624-a6a075799264","ios":"levelo://app?vid=7863b9f3-4b57-455e-8624-a6a075799264"},"vehicle_type_id":"4","last_reported":1738678105,"current_range_meters":38800,"station_id":"ce4bhg92rcd13ifvqf90","pricing_plan_id":"cebpf4jnsgd1na2vs0mg"},{"bike_id":"a17ca27d-9d6a-41cc-b224-f81c94cf33b7","system_id":"levelo_inurba_marseille","lat":43.29036,"lon":5.39969,"is_reserved":false,"is_disabled":true,"rental_uris":{"android":"levelo://app?vid=a17ca27d-9d6a-41cc-b224-f81c94cf33b7","ios":"levelo://app?vid=a17ca27d-9d6a-41cc-b224-f81c94cf33b7"},"vehicle_type_id":"4","last_reported":1738678105,"current_range_meters":2000,"station_id":"ce4bh392rcd13ifvqdm0","pricing_plan_id":"cebpf4jnsgd1na2vs0mg"},{"bike_id":"ab0b6329-8448-4e17-8b0d-f17e0a460b82","system_id":"levelo_inurba_marseille","lat":43.29305,"lon":5.36857,"is_reserved":false,"is_disabled":false,"rental_uris":{"android":"levelo://app?vid=ab0b6329-8448-4e17-8b0d-f17e0a460b82","ios":"levelo://app?vid=ab0b6329-8448-4e17-8b0d-f17e0a460b82"},"vehicle_type_id":"4","last_reported":1738678105,"current_range_meters":36800,"station_id":"ce4bhbp2rcd13ifvqesg","pricing_plan_id":"cebpf4jnsgd1na2vs0mg"},{"bike_id":"3d3eb82d-1896-4634-86b4-d89d88b9cf37","system_id":"levelo_inurba_marseille","lat":43.29064,"lon":5.37174,"is_reserved":false,"is_disabled":false,"rental_uris":{"android":"levelo://app?vid=3d3eb82d-1896-4634-86b4-d89d88b9cf37","ios":"levelo://app?vid=3d3eb82d-1896-4634-86b4-d89d88b9cf37"},"vehicle_type_id":"4","last_reported":1738678105,"current_range_meters":36800,"station_id":"ce4bh5p2rcd13ifvqe4g","pricing_plan_id":"cebpf4jnsgd1na2vs0mg"},{"bike_id":"c835a4f7-cc05-45bd-a5f6-1bed625cc89d","system_id":"levelo_inurba_marseille","lat":43.24079,"lon":5.37754,"is_reserved":false,"is_disabled":false,"rental_uris":{"android":"levelo://app?vid=c835a4f7-cc05-45bd-a5f6-1bed625cc89d","ios":"levelo://app?vid=c835a4f7-cc05-45bd-a5f6-1bed625cc89d"},"vehicle_type_id":"4","last_reported":1738678105,"current_range_meters":38800,"station_id":"ce4bhnp2rcd13ifvqgvg","pricing_plan_id":"cebpf4jnsgd1na2vs0mg"},{"bike_id":"dafd10ed-96a4-4fae-a2bc-6ff46c93b8d6","system_id":"levelo_inurba_marseille","lat":43.26219,"lon":5.37452,"is_reserved":false,"is_disabled":false,"rental_uris":{"android":"levelo://app?vid=dafd10ed-96a4-4fae-a2bc-6ff46c93b8d6","ios":"levelo://app?vid=dafd10ed-96a4-4fae-a2bc-6ff46c93b8d6"},"vehicle_type_id":"4","last_reported":1738678105,"current_range_meters":2800,"station_id":"ce4bhgp2rcd13ifvqfc0","pricing_plan_id":"cebpf4jnsgd1na2vs0mg"},{"bike_id":"f88e9836-7d29-4bff-b116-30872ae8c64b","system_id":"levelo_inurba_marseille","lat":43.27984,"lon":5.41631,"is_reserved":false,"is_disabled":false,"rental_uris":{"android":"levelo://app?vid=f88e9836-7d29-4bff-b116-30872ae8c64b","ios":"levelo://app?vid=f88e9836-7d29-4bff-b116-30872ae8c64b"},"vehicle_type_id":"4","last_reported":1738678105,"current_range_meters":38800,"station_id":"ce4bho12rcd13ifvqh1g","pricing_plan_id":"cebpf4jnsgd1na2vs0mg"},{"bike_id":"585548c3-dfea-4775-b261-9cda396a75ed","system_id":"levelo_inurba_marseille","lat":43.30919,"lon":5.4013,"is_reserved":false,"is_disabled":true,"rental_uris":{"android":"levelo://app?vid=585548c3-dfea-4775-b261-9cda396a75ed","ios":"levelo://app?vid=585548c3-dfea-4775-b261-9cda396a75ed"},"vehicle_type_id":"4","last_reported":1738678105,"current_range_meters":38800,"station_id":"ce4bgvp2rcd13ifvqct0","pricing_plan_id":"cebpf4jnsgd1na2vs0mg"},{"bike_id":"c5bc887f-937a-4827-8fcd-0e5d0dcc3dcb","system_id":"levelo_inurba_marseille","lat":43.30576,"lon":5.36541,"is_reserved":false,"is_disabled":false,"rental_uris":{"android":"levelo://app?vid=c5bc887f-937a-4827-8fcd-0e5d0dcc3dcb","ios":"levelo://app?vid=c5bc887f-937a-4827-8fcd-0e5d0dcc3dcb"},"vehicle_type_id":"4","last_reported":1738678105,"current_range_meters":33600,"station_id":"ce4bgs12rcd13ifvqcag","pricing_plan_id":"cebpf4jnsgd1na2vs0mg"},{"bike_id":"67c05317-f96b-455e-b667-2df88196c1c2","system_id":"levelo_inurba_marseille","lat":43.29575,"lon":5.37524,"is_reserved":false,"is_disabled":false,"rental_uris":{"android":"levelo://app?vid=67c05317-f96b-455e-b667-2df88196c1c2","ios":"levelo://app?vid=67c05317-f96b-455e-b667-2df88196c1c2"},"vehicle_type_id":"4","last_reported":1738678105,"current_range_meters":32000,"station_id":"ce4bgh92rcd13ifvqb50","pricing_plan_id":"cebpf4jnsgd1na2vs0mg"},{"bike_id":"b011ebf9-c847-456d-877a-df15c2d17a06","system_id":"levelo_inurba_marseille","lat":43.28067,"lon":5.39657,"is_reserved":false,"is_disabled":false,"rental_uris":{"android":"levelo://app?vid=b011ebf9-c847-456d-877a-df15c2d17a06","ios":"levelo://app?vid=b011ebf9-c847-456d-877a-df15c2d17a06"},"vehicle_type_id":"4","last_reported":1738678105,"current_range_meters":38800,"station_id":"ce4bho12rcd13ifvqh2g","pricing_plan_id":"cebpf4jnsgd1na2vs0mg"},{"bike_id":"832999f0-c04f-44d1-bc21-6c254510930a","system_id":"levelo_inurba_marseille","lat":43.24636,"lon":5.38902,"is_reserved":false,"is_disabled":false,"rental_uris":{"android":"levelo://app?vid=832999f0-c04f-44d1-bc21-6c254510930a","ios":"levelo://app?vid=832999f0-c04f-44d1-bc21-6c254510930a"},"vehicle_type_id":"4","last_reported":1738678105,"current_range_meters":36000,"station_id":"ce4bhg12rcd13ifvqf60","pricing_plan_id":"cebpf4jnsgd1na2vs0mg"},{"bike_id":"820e8ef9-125b-498e-aafa-fafccb5e57f1","system_id":"levelo_inurba_marseille","lat":43.30541,"lon":5.36691,"is_reserved":false,"is_disabled":false,"rental_uris":{"android":"levelo://app?vid=820e8ef9-125b-498e-aafa-fafccb5e57f1","ios":"levelo://app?vid=820e8ef9-125b-498e-aafa-fafccb5e57f1"},"vehicle_type_id":"4","last_reported":1738678105,"current_range_meters":24000,"station_id":"ce4bgrp2rcd13ifvqc9g","pricing_plan_id":"cebpf4jnsgd1na2vs0mg"},{"bike_id":"75069a50-5192-4281-b196-e250931917ed","system_id":"levelo_inurba_marseille","lat":43.28483,"lon":5.3857,"is_reserved":false,"is_disabled":false,"rental_uris":{"android":"levelo://app?vid=75069a50-5192-4281-b196-e250931917ed","ios":"levelo://app?vid=75069a50-5192-4281-b196-e250931917ed"},"vehicle_type_id":"4","last_reported":1738678105,"current_range_meters":38000,"station_id":"ce4bh8p2rcd13ifvqeb0","pricing_plan_id":"cebpf4jnsgd1na2vs0mg"},{"bike_id":"c92d27b3-011a-4b9b-85d3-c7a68cdf0054","system_id":"levelo_inurba_marseille","lat":43.324777,"lon":5.365669,"is_reserved":false,"is_disabled":true,"rental_uris":{"android":"levelo://app?vid=c92d27b3-011a-4b9b-85d3-c7a68cdf0054","ios":"levelo://app?vid=c92d27b3-011a-4b9b-85d3-c7a68cdf0054"},"vehicle_type_id":"4","last_reported":1738678105,"current_range_meters":16800,"station_id":"","pricing_plan_id":"cebpf4jnsgd1na2vs0mg"},{"bike_id":"3e574816-3754-460d-8072-f6ebe3757ea0","system_id":"levelo_inurba_marseille","lat":43.32365,"lon":5.36755,"is_reserved":false,"is_disabled":false,"rental_uris":{"android":"levelo://app?vid=3e574816-3754-460d-8072-f6ebe3757ea0","ios":"levelo://app?vid=3e574816-3754-460d-8072-f6ebe3757ea0"},"vehicle_type_id":"4","last_reported":1738678105,"current_range_meters":17600,"station_id":"ce4bhsh2rcd13ifvqi2g","pricing_plan_id":"cebpf4jnsgd1na2vs0mg"},{"bike_id":"46f85741-547f-4c61-ad56-e23bee10013f","system_id":"levelo_inurba_marseille","lat":43.28487,"lon":5.38583,"is_reserved":false,"is_disabled":false,"rental_uris":{"android":"levelo://app?vid=46f85741-547f-4c61-ad56-e23bee10013f","ios":"levelo://app?vid=46f85741-547f-4c61-ad56-e23bee10013f"},"vehicle_type_id":"4","last_reported":1738678105,"current_range_meters":36000,"station_id":"ce4bh8p2rcd13ifvqeb0","pricing_plan_id":"cebpf4jnsgd1na2vs0mg"},{"bike_id":"8b1e7f8a-7c3f-4d9e-8bf3-cb3f074b5821","system_id":"levelo_inurba_marseille","lat":43.29201,"lon":5.35802,"is_reserved":false,"is_disabled":false,"rental_uris":{"android":"levelo://app?vid=8b1e7f8a-7c3f-4d9e-8bf3-cb3f074b5821","ios":"levelo://app?vid=8b1e7f8a-7c3f-4d9e-8bf3-cb3f074b5821"},"vehicle_type_id":"4","last_reported":1738678105,"current_range_meters":27200,"station_id":"ce4bhb12rcd13ifvqel0","pricing_plan_id":"cebpf4jnsgd1na2vs0mg"},{"bike_id":"a1a7079b-68b5-45ca-9af8-b6bc9f7cd559","system_id":"levelo_inurba_marseille","lat":43.22934,"lon":5.35384,"is_reserved":false,"is_disabled":false,"rental_uris":{"android":"levelo://app?vid=a1a7079b-68b5-45ca-9af8-b6bc9f7cd559","ios":"levelo://app?vid=a1a7079b-68b5-45ca-9af8-b6bc9f7cd559"},"vehicle_type_id":"4","last_reported":1738678105,"current_range_meters":39200,"station_id":"cpo3532slgdg3j2ikp40","pricing_plan_id":"cebpf4jnsgd1na2vs0mg"},{"bike_id":"391156ab-23e6-4087-9fff-4d00554806c8","system_id":"levelo_inurba_marseille","lat":43.27549,"lon":5.38416,"is_reserved":false,"is_disabled":false,"rental_uris":{"android":"levelo://app?vid=391156ab-23e6-4087-9fff-4d00554806c8","ios":"levelo://app?vid=391156ab-23e6-4087-9fff-4d00554806c8"},"vehicle_type_id":"4","last_reported":1738678105,"current_range_meters":32800,"station_id":"ce4bhh92rcd13ifvqfi0","pricing_plan_id":"cebpf4jnsgd1na2vs0mg"},{"bike_id":"c5d244f0-0f80-49dd-80ea-357f59117f57","system_id":"levelo_inurba_marseille","lat":43.30454,"lon":5.36915,"is_reserved":false,"is_disabled":false,"rental_uris":{"android":"levelo://app?vid=c5d244f0-0f80-49dd-80ea-357f59117f57","ios":"levelo://app?vid=c5d244f0-0f80-49dd-80ea-357f59117f57"},"vehicle_type_id":"4","last_reported":1738678105,"current_range_meters":23200,"station_id":"","pricing_plan_id":"cebpf4jnsgd1na2vs0mg"},{"bike_id":"cc6882dc-c292-40fb-8164-0c7aad10a6e6","system_id":"levelo_inurba_marseille","lat":43.31362,"lon":5.36704,"is_reserved":false,"is_disabled":false,"rental_uris":{"android":"levelo://app?vid=cc6882dc-c292-40fb-8164-0c7aad10a6e6","ios":"levelo://app?vid=cc6882dc-c292-40fb-8164-0c7aad10a6e6"},"vehicle_type_id":"4","last_reported":1738678105,"current_range_meters":38800,"station_id":"ce4bgr92rcd13ifvqc6g","pricing_plan_id":"cebpf4jnsgd1na2vs0mg"},{"bike_id":"7a2d1c7c-697f-41e7-9a56-3b4fb1b139f2","system_id":"levelo_inurba_marseille","lat":43.23165,"lon":5.43694,"is_reserved":false,"is_disabled":false,"rental_uris":{"android":"levelo://app?vid=7a2d1c7c-697f-41e7-9a56-3b4fb1b139f2","ios":"levelo://app?vid=7a2d1c7c-697f-41e7-9a56-3b4fb1b139f2"},"vehicle_type_id":"4","last_reported":1738678105,"current_range_meters":38800,"station_id":"ce4bhmp2rcd13ifvqgog","pricing_plan_id":"cebpf4jnsgd1na2vs0mg"},{"bike_id":"dbf7072a-7876-4e1d-a586-d51c7ff2c81e","system_id":"levelo_inurba_marseille","lat":43.31325,"lon":5.39673,"is_reserved":false,"is_disabled":false,"rental_uris":{"android":"levelo://app?vid=dbf7072a-7876-4e1d-a586-d51c7ff2c81e","ios":"levelo://app?vid=dbf7072a-7876-4e1d-a586-d51c7ff2c81e"},"vehicle_type_id":"4","last_reported":1738678105,"current_range_meters":28800,"station_id":"ce4bgvp2rcd13ifvqcu0","pricing_plan_id":"cebpf4jnsgd1na2vs0mg"},{"bike_id":"fff747a3-bd82-458d-baaa-d1987fbbf2c0","system_id":"levelo_inurba_marseille","lat":43.24567,"lon":5.39547,"is_reserved":false,"is_disabled":true,"rental_uris":{"android":"levelo://app?vid=fff747a3-bd82-458d-baaa-d1987fbbf2c0","ios":"levelo://app?vid=fff747a3-bd82-458d-baaa-d1987fbbf2c0"},"vehicle_type_id":"4","last_reported":1738678105,"current_range_meters":1600,"station_id":"ce4bhlp2rcd13ifvqgjg","pricing_plan_id":"cebpf4jnsgd1na2vs0mg"},{"bike_id":"38d9c123-c80e-4d99-abd9-1554da4e609f","system_id":"levelo_inurba_marseille","lat":43.25068,"lon":5.38933,"is_reserved":false,"is_disabled":false,"rental_uris":{"android":"levelo://app?vid=38d9c123-c80e-4d99-abd9-1554da4e609f","ios":"levelo://app?vid=38d9c123-c80e-4d99-abd9-1554da4e609f"},"vehicle_type_id":"4","last_reported":1738678105,"current_range_meters":27200,"station_id":"","pricing_plan_id":"cebpf4jnsgd1na2vs0mg"},{"bike_id":"59dd133c-061d-4f4a-a45d-70a61141ac66","system_id":"levelo_inurba_marseille","lat":43.30138,"lon":5.38059,"is_reserved":false,"is_disabled":false,"rental_uris":{"android":"levelo://app?vid=59dd133c-061d-4f4a-a45d-70a61141ac66","ios":"levelo://app?vid=59dd133c-061d-4f4a-a45d-70a61141ac66"},"vehicle_type_id":"4","last_reported":1738678105,"current_range_meters":3600,"station_id":"ce4bgjp2rcd13ifvqbh0","pricing_plan_id":"cebpf4jnsgd1na2vs0mg"},{"bike_id":"b2a6436f-4c95-46dd-a3bd-6af91e9591d2","system_id":"levelo_inurba_marseille","lat":43.25594,"lon":5.38228,"is_reserved":false,"is_disabled":false,"rental_uris":{"android":"levelo://app?vid=b2a6436f-4c95-46dd-a3bd-6af91e9591d2","ios":"levelo://app?vid=b2a6436f-4c95-46dd-a3bd-6af91e9591d2"},"vehicle_type_id":"4","last_reported":1738678105,"current_range_meters":18800,"station_id":"ce4bhih2rcd13ifvqfs0","pricing_plan_id":"cebpf4jnsgd1na2vs0mg"},{"bike_id":"bae04b91-7c9b-40e4-9325-58877cce4c07","system_id":"levelo_inurba_marseille","lat":43.30531,"lon":5.36553,"is_reserved":false,"is_disabled":false,"rental_uris":{"android":"levelo://app?vid=bae04b91-7c9b-40e4-9325-58877cce4c07","ios":"levelo://app?vid=bae04b91-7c9b-40e4-9325-58877cce4c07"},"vehicle_type_id":"4","last_reported":1738678105,"current_range_meters":12000,"station_id":"ce4bgs12rcd13ifvqcag","pricing_plan_id":"cebpf4jnsgd1na2vs0mg"},{"bike_id":"6b6931d0-0980-4149-ab67-87441dabb850","system_id":"levelo_inurba_marseille","lat":43.26212,"lon":5.37438,"is_reserved":false,"is_disabled":false,"rental_uris":{"android":"levelo://app?vid=6b6931d0-0980-4149-ab67-87441dabb850","ios":"levelo://app?vid=6b6931d0-0980-4149-ab67-87441dabb850"},"vehicle_type_id":"4","last_reported":1738678105,"current_range_meters":25600,"station_id":"ce4bhgp2rcd13ifvqfc0","pricing_plan_id":"cebpf4jnsgd1na2vs0mg"},{"bike_id":"36aab991-c8ad-4b9b-9159-cf5af6e561ef","system_id":"levelo_inurba_marseille","lat":43.32541,"lon":5.41442,"is_reserved":false,"is_disabled":false,"rental_uris":{"android":"levelo://app?vid=36aab991-c8ad-4b9b-9159-cf5af6e561ef","ios":"levelo://app?vid=36aab991-c8ad-4b9b-9159-cf5af6e561ef"},"vehicle_type_id":"4","last_reported":1738678105,"current_range_meters":37600,"station_id":"ce4bhq12rcd13ifvqhhg","pricing_plan_id":"cebpf4jnsgd1na2vs0mg"},{"bike_id":"f49399e3-6204-4840-b71d-d4fdec09f64b","system_id":"levelo_inurba_marseille","lat":43.25947,"lon":5.4091,"is_reserved":false,"is_disabled":false,"rental_uris":{"android":"levelo://app?vid=f49399e3-6204-4840-b71d-d4fdec09f64b","ios":"levelo://app?vid=f49399e3-6204-4840-b71d-d4fdec09f64b"},"vehicle_type_id":"4","last_reported":1738678105,"current_range_meters":28400,"station_id":"ce4bhm92rcd13ifvqglg","pricing_plan_id":"cebpf4jnsgd1na2vs0mg"},{"bike_id":"f21116ca-67bc-4609-9094-fdf20274272a","system_id":"levelo_inurba_marseille","lat":43.29904,"lon":5.37478,"is_reserved":false,"is_disabled":false,"rental_uris":{"android":"levelo://app?vid=f21116ca-67bc-4609-9094-fdf20274272a","ios":"levelo://app?vid=f21116ca-67bc-4609-9094-fdf20274272a"},"vehicle_type_id":"4","last_reported":1738678105,"current_range_meters":6800,"station_id":"ce4bgjh2rcd13ifvqbg0","pricing_plan_id":"cebpf4jnsgd1na2vs0mg"},{"bike_id":"e90d0944-f2bb-491f-89e1-eb7bfd7fdaa0","system_id":"levelo_inurba_marseille","lat":43.30941,"lon":5.40136,"is_reserved":false,"is_disabled":false,"rental_uris":{"android":"levelo://app?vid=e90d0944-f2bb-491f-89e1-eb7bfd7fdaa0","ios":"levelo://app?vid=e90d0944-f2bb-491f-89e1-eb7bfd7fdaa0"},"vehicle_type_id":"4","last_reported":1738678105,"current_range_meters":38800,"station_id":"ce4bgvp2rcd13ifvqct0","pricing_plan_id":"cebpf4jnsgd1na2vs0mg"},{"bike_id":"288c225c-8493-4dd6-87b3-e92abeb7bae7","system_id":"levelo_inurba_marseille","lat":43.31334,"lon":5.39689,"is_reserved":false,"is_disabled":false,"rental_uris":{"android":"levelo://app?vid=288c225c-8493-4dd6-87b3-e92abeb7bae7","ios":"levelo://app?vid=288c225c-8493-4dd6-87b3-e92abeb7bae7"},"vehicle_type_id":"4","last_reported":1738678105,"current_range_meters":28000,"station_id":"ce4bgvp2rcd13ifvqcu0","pricing_plan_id":"cebpf4jnsgd1na2vs0mg"},{"bike_id":"3c8e5445-cf86-469e-9c11-4a5caaef9b7e","system_id":"levelo_inurba_marseille","lat":43.24645,"lon":5.38894,"is_reserved":false,"is_disabled":false,"rental_uris":{"android":"levelo://app?vid=3c8e5445-cf86-469e-9c11-4a5caaef9b7e","ios":"levelo://app?vid=3c8e5445-cf86-469e-9c11-4a5caaef9b7e"},"vehicle_type_id":"4","last_reported":1738678105,"current_range_meters":38000,"station_id":"ce4bhg12rcd13ifvqf60","pricing_plan_id":"cebpf4jnsgd1na2vs0mg"},{"bike_id":"1d60f086-cd14-4073-95d3-13fbf3ef7193","system_id":"levelo_inurba_marseille","lat":43.29304,"lon":5.3718,"is_reserved":false,"is_disabled":false,"rental_uris":{"android":"levelo://app?vid=1d60f086-cd14-4073-95d3-13fbf3ef7193","ios":"levelo://app?vid=1d60f086-cd14-4073-95d3-13fbf3ef7193"},"vehicle_type_id":"4","last_reported":1738678105,"current_range_meters":36400,"station_id":"ce4bgh92rcd13ifvqb40","pricing_plan_id":"cebpf4jnsgd1na2vs0mg"},{"bike_id":"6fafb546-83a9-43cd-873b-ab349d5bf11d","system_id":"levelo_inurba_marseille","lat":43.28484,"lon":5.38565,"is_reserved":false,"is_disabled":false,"rental_uris":{"android":"levelo://app?vid=6fafb546-83a9-43cd-873b-ab349d5bf11d","ios":"levelo://app?vid=6fafb546-83a9-43cd-873b-ab349d5bf11d"},"vehicle_type_id":"4","last_reported":1738678105,"current_range_meters":38800,"station_id":"ce4bh8p2rcd13ifvqeb0","pricing_plan_id":"cebpf4jnsgd1na2vs0mg"},{"bike_id":"ccbad14e-ae29-476e-ba29-f8f9b75e5b67","system_id":"levelo_inurba_marseille","lat":43.29276,"lon":5.40122,"is_reserved":false,"is_disabled":false,"rental_uris":{"android":"levelo://app?vid=ccbad14e-ae29-476e-ba29-f8f9b75e5b67","ios":"levelo://app?vid=ccbad14e-ae29-476e-ba29-f8f9b75e5b67"},"vehicle_type_id":"4","last_reported":1738678105,"current_range_meters":33600,"station_id":"ce4bh312rcd13ifvqdk0","pricing_plan_id":"cebpf4jnsgd1na2vs0mg"},{"bike_id":"f4f85c9d-eef3-428f-852f-bdec020e6d55","system_id":"levelo_inurba_marseille","lat":43.31074,"lon":5.38347,"is_reserved":false,"is_disabled":false,"rental_uris":{"android":"levelo://app?vid=f4f85c9d-eef3-428f-852f-bdec020e6d55","ios":"levelo://app?vid=f4f85c9d-eef3-428f-852f-bdec020e6d55"},"vehicle_type_id":"4","last_reported":1738678105,"current_range_meters":25200,"station_id":"ce4bgv92rcd13ifvqcr0","pricing_plan_id":"cebpf4jnsgd1na2vs0mg"},{"bike_id":"30d68ac6-7ba6-4749-8154-bf914e372a6a","system_id":"levelo_inurba_marseille","lat":43.32364,"lon":5.3888,"is_reserved":false,"is_disabled":false,"rental_uris":{"android":"levelo://app?vid=30d68ac6-7ba6-4749-8154-bf914e372a6a","ios":"levelo://app?vid=30d68ac6-7ba6-4749-8154-bf914e372a6a"},"vehicle_type_id":"4","last_reported":1738678105,"current_range_meters":37600,"station_id":"ce4bhqp2rcd13ifvqhog","pricing_plan_id":"cebpf4jnsgd1na2vs0mg"},{"bike_id":"b284150a-1067-4aa5-90f6-f676e7ff4ddd","system_id":"levelo_inurba_marseille","lat":43.2963,"lon":5.40579,"is_reserved":false,"is_disabled":false,"rental_uris":{"android":"levelo://app?vid=b284150a-1067-4aa5-90f6-f676e7ff4ddd","ios":"levelo://app?vid=b284150a-1067-4aa5-90f6-f676e7ff4ddd"},"vehicle_type_id":"4","last_reported":1738678105,"current_range_meters":34000,"station_id":"ce4bh0h2rcd13ifvqd60","pricing_plan_id":"cebpf4jnsgd1na2vs0mg"},{"bike_id":"70db77fa-5101-4cc3-b5ef-7ecd27e20697","system_id":"levelo_inurba_marseille","lat":43.23057,"lon":5.35493,"is_reserved":false,"is_disabled":false,"rental_uris":{"android":"levelo://app?vid=70db77fa-5101-4cc3-b5ef-7ecd27e20697","ios":"levelo://app?vid=70db77fa-5101-4cc3-b5ef-7ecd27e20697"},"vehicle_type_id":"4","last_reported":1738678105,"current_range_meters":24000,"station_id":"cpo3342slgdg3j2ifvpg","pricing_plan_id":"cebpf4jnsgd1na2vs0mg"},{"bike_id":"47835302-4051-4ddc-bf72-ddbdf3a013d2","system_id":"levelo_inurba_marseille","lat":43.2971,"lon":5.36609,"is_reserved":false,"is_disabled":false,"rental_uris":{"android":"levelo://app?vid=47835302-4051-4ddc-bf72-ddbdf3a013d2","ios":"levelo://app?vid=47835302-4051-4ddc-bf72-ddbdf3a013d2"},"vehicle_type_id":"4","last_reported":1738678105,"current_range_meters":17200,"station_id":"ce4bgn12rcd13ifvqbt0","pricing_plan_id":"cebpf4jnsgd1na2vs0mg"},{"bike_id":"e33c097b-83d0-40ec-9fbf-364e5b0a9ef8","system_id":"levelo_inurba_marseille","lat":43.23204,"lon":5.35548,"is_reserved":false,"is_disabled":false,"rental_uris":{"android":"levelo://app?vid=e33c097b-83d0-40ec-9fbf-364e5b0a9ef8","ios":"levelo://app?vid=e33c097b-83d0-40ec-9fbf-364e5b0a9ef8"},"vehicle_type_id":"4","last_reported":1738678105,"current_range_meters":38800,"station_id":"ce4bhu92rcd13ifvqi70","pricing_plan_id":"cebpf4jnsgd1na2vs0mg"},{"bike_id":"ee341683-1a77-4804-b12a-d2775c1030ab","system_id":"levelo_inurba_marseille","lat":43.30802,"lon":5.38156,"is_reserved":false,"is_disabled":true,"rental_uris":{"android":"levelo://app?vid=ee341683-1a77-4804-b12a-d2775c1030ab","ios":"levelo://app?vid=ee341683-1a77-4804-b12a-d2775c1030ab"},"vehicle_type_id":"4","last_reported":1738678105,"current_range_meters":0,"station_id":"ce4bgt12rcd13ifvqce0","pricing_plan_id":"cebpf4jnsgd1na2vs0mg"},{"bike_id":"b673a51b-e449-44e6-aaf8-41a8861ba64f","system_id":"levelo_inurba_marseille","lat":43.29717,"lon":5.37688,"is_reserved":false,"is_disabled":false,"rental_uris":{"android":"levelo://app?vid=b673a51b-e449-44e6-aaf8-41a8861ba64f","ios":"levelo://app?vid=b673a51b-e449-44e6-aaf8-41a8861ba64f"},"vehicle_type_id":"4","last_reported":1738678105,"current_range_meters":25600,"station_id":"ce4bgkh2rcd13ifvqbl0","pricing_plan_id":"cebpf4jnsgd1na2vs0mg"},{"bike_id":"e846aafb-b669-47a6-804f-67c674e843e6","system_id":"levelo_inurba_marseille","lat":43.29015,"lon":5.35608,"is_reserved":false,"is_disabled":false,"rental_uris":{"android":"levelo://app?vid=e846aafb-b669-47a6-804f-67c674e843e6","ios":"levelo://app?vid=e846aafb-b669-47a6-804f-67c674e843e6"},"vehicle_type_id":"4","last_reported":1738678105,"current_range_meters":22000,"station_id":"ce4bhb92rcd13ifvqen0","pricing_plan_id":"cebpf4jnsgd1na2vs0mg"},{"bike_id":"0e775c38-7145-4e54-8c6f-1ded1dd2ad0f","system_id":"levelo_inurba_marseille","lat":43.24549,"lon":5.39522,"is_reserved":false,"is_disabled":false,"rental_uris":{"android":"levelo://app?vid=0e775c38-7145-4e54-8c6f-1ded1dd2ad0f","ios":"levelo://app?vid=0e775c38-7145-4e54-8c6f-1ded1dd2ad0f"},"vehicle_type_id":"4","last_reported":1738678105,"current_range_meters":38800,"station_id":"ce4bhlp2rcd13ifvqgjg","pricing_plan_id":"cebpf4jnsgd1na2vs0mg"},{"bike_id":"087030d9-e5e2-496a-a083-b7c401a9076d","system_id":"levelo_inurba_marseille","lat":43.26207,"lon":5.37436,"is_reserved":false,"is_disabled":false,"rental_uris":{"android":"levelo://app?vid=087030d9-e5e2-496a-a083-b7c401a9076d","ios":"levelo://app?vid=087030d9-e5e2-496a-a083-b7c401a9076d"},"vehicle_type_id":"4","last_reported":1738678105,"current_range_meters":38800,"station_id":"ce4bhgp2rcd13ifvqfc0","pricing_plan_id":"cebpf4jnsgd1na2vs0mg"},{"bike_id":"89e0fb27-5f26-4cfe-9f61-e8651117733f","system_id":"levelo_inurba_marseille","lat":43.22933,"lon":5.35379,"is_reserved":false,"is_disabled":false,"rental_uris":{"android":"levelo://app?vid=89e0fb27-5f26-4cfe-9f61-e8651117733f","ios":"levelo://app?vid=89e0fb27-5f26-4cfe-9f61-e8651117733f"},"vehicle_type_id":"4","last_reported":1738678105,"current_range_meters":37600,"station_id":"cpo3532slgdg3j2ikp40","pricing_plan_id":"cebpf4jnsgd1na2vs0mg"},{"bike_id":"23c2312a-5007-4c8a-a123-f9a5a9881062","system_id":"levelo_inurba_marseille","lat":43.30155,"lon":5.37435,"is_reserved":false,"is_disabled":false,"rental_uris":{"android":"levelo://app?vid=23c2312a-5007-4c8a-a123-f9a5a9881062","ios":"levelo://app?vid=23c2312a-5007-4c8a-a123-f9a5a9881062"},"vehicle_type_id":"4","last_reported":1738678105,"current_range_meters":32000,"station_id":"ce4bgs92rcd13ifvqcc0","pricing_plan_id":"cebpf4jnsgd1na2vs0mg"},{"bike_id":"0e0e09f3-3368-4d43-8d28-fd4ca9389196","system_id":"levelo_inurba_marseille","lat":43.25001,"lon":5.38922,"is_reserved":false,"is_disabled":false,"rental_uris":{"android":"levelo://app?vid=0e0e09f3-3368-4d43-8d28-fd4ca9389196","ios":"levelo://app?vid=0e0e09f3-3368-4d43-8d28-fd4ca9389196"},"vehicle_type_id":"4","last_reported":1738678105,"current_range_meters":38800,"station_id":"ce4bhgp2rcd13ifvqfd0","pricing_plan_id":"cebpf4jnsgd1na2vs0mg"},{"bike_id":"cf35fcd1-1247-4717-973b-71c5eca0afbd","system_id":"levelo_inurba_marseille","lat":43.24393,"lon":5.37063,"is_reserved":false,"is_disabled":false,"rental_uris":{"android":"levelo://app?vid=cf35fcd1-1247-4717-973b-71c5eca0afbd","ios":"levelo://app?vid=cf35fcd1-1247-4717-973b-71c5eca0afbd"},"vehicle_type_id":"4","last_reported":1738678105,"current_range_meters":22800,"station_id":"ce4bhhh2rcd13ifvqfk0","pricing_plan_id":"cebpf4jnsgd1na2vs0mg"},{"bike_id":"d66f66f4-d296-4c99-9fd4-3aa0faa733eb","system_id":"levelo_inurba_marseille","lat":43.2826,"lon":5.35049,"is_reserved":false,"is_disabled":false,"rental_uris":{"android":"levelo://app?vid=d66f66f4-d296-4c99-9fd4-3aa0faa733eb","ios":"levelo://app?vid=d66f66f4-d296-4c99-9fd4-3aa0faa733eb"},"vehicle_type_id":"4","last_reported":1738678105,"current_range_meters":22800,"station_id":"ce4bhbp2rcd13ifvqerg","pricing_plan_id":"cebpf4jnsgd1na2vs0mg"},{"bike_id":"f469f869-7059-4d2b-b3d4-8bcd20ad4980","system_id":"levelo_inurba_marseille","lat":43.29225,"lon":5.36072,"is_reserved":false,"is_disabled":false,"rental_uris":{"android":"levelo://app?vid=f469f869-7059-4d2b-b3d4-8bcd20ad4980","ios":"levelo://app?vid=f469f869-7059-4d2b-b3d4-8bcd20ad4980"},"vehicle_type_id":"4","last_reported":1738678105,"current_range_meters":38400,"station_id":"ce4bhbh2rcd13ifvqeqg","pricing_plan_id":"cebpf4jnsgd1na2vs0mg"},{"bike_id":"73ce5867-64af-413e-8de7-68ce3423aed3","system_id":"levelo_inurba_marseille","lat":43.24072,"lon":5.37749,"is_reserved":false,"is_disabled":false,"rental_uris":{"android":"levelo://app?vid=73ce5867-64af-413e-8de7-68ce3423aed3","ios":"levelo://app?vid=73ce5867-64af-413e-8de7-68ce3423aed3"},"vehicle_type_id":"4","last_reported":1738678105,"current_range_meters":24800,"station_id":"ce4bhnp2rcd13ifvqgvg","pricing_plan_id":"cebpf4jnsgd1na2vs0mg"},{"bike_id":"40b564fd-d6af-48bb-8bad-945e9f4b2e6c","system_id":"levelo_inurba_marseille","lat":43.23146,"lon":5.43712,"is_reserved":false,"is_disabled":false,"rental_uris":{"android":"levelo://app?vid=40b564fd-d6af-48bb-8bad-945e9f4b2e6c","ios":"levelo://app?vid=40b564fd-d6af-48bb-8bad-945e9f4b2e6c"},"vehicle_type_id":"4","last_reported":1738678105,"current_range_meters":15200,"station_id":"ce4bhmp2rcd13ifvqgog","pricing_plan_id":"cebpf4jnsgd1na2vs0mg"},{"bike_id":"20bed491-cc82-4c28-9828-d43fe6cb2a93","system_id":"levelo_inurba_marseille","lat":43.31229,"lon":5.36866,"is_reserved":false,"is_disabled":false,"rental_uris":{"android":"levelo://app?vid=20bed491-cc82-4c28-9828-d43fe6cb2a93","ios":"levelo://app?vid=20bed491-cc82-4c28-9828-d43fe6cb2a93"},"vehicle_type_id":"4","last_reported":1738678105,"current_range_meters":28000,"station_id":"ce4bgl92rcd13ifvqbq0","pricing_plan_id":"cebpf4jnsgd1na2vs0mg"},{"bike_id":"32e6d52c-451d-44c8-bc83-05971874b121","system_id":"levelo_inurba_marseille","lat":43.28418,"lon":5.34976,"is_reserved":false,"is_disabled":false,"rental_uris":{"android":"levelo://app?vid=32e6d52c-451d-44c8-bc83-05971874b121","ios":"levelo://app?vid=32e6d52c-451d-44c8-bc83-05971874b121"},"vehicle_type_id":"4","last_reported":1738678105,"current_range_meters":3600,"station_id":"ce4bhbh2rcd13ifvqepg","pricing_plan_id":"cebpf4jnsgd1na2vs0mg"},{"bike_id":"9a246337-8b93-40ac-8041-a37c41945aaf","system_id":"levelo_inurba_marseille","lat":43.26952,"lon":5.40244,"is_reserved":false,"is_disabled":false,"rental_uris":{"android":"levelo://app?vid=9a246337-8b93-40ac-8041-a37c41945aaf","ios":"levelo://app?vid=9a246337-8b93-40ac-8041-a37c41945aaf"},"vehicle_type_id":"4","last_reported":1738678105,"current_range_meters":24400,"station_id":"cjm6bp8fraef2m0cb0m0","pricing_plan_id":"cebpf4jnsgd1na2vs0mg"},{"bike_id":"7c8b5db2-a7e4-491a-b7d5-94dc69c11823","system_id":"levelo_inurba_marseille","lat":43.3231,"lon":5.38265,"is_reserved":false,"is_disabled":false,"rental_uris":{"android":"levelo://app?vid=7c8b5db2-a7e4-491a-b7d5-94dc69c11823","ios":"levelo://app?vid=7c8b5db2-a7e4-491a-b7d5-94dc69c11823"},"vehicle_type_id":"4","last_reported":1738678105,"current_range_meters":24800,"station_id":"ce4bhr12rcd13ifvqhqg","pricing_plan_id":"cebpf4jnsgd1na2vs0mg"},{"bike_id":"278902b4-7b50-4f46-8ac1-6d0f29cc8638","system_id":"levelo_inurba_marseille","lat":43.24373,"lon":5.37051,"is_reserved":false,"is_disabled":false,"rental_uris":{"android":"levelo://app?vid=278902b4-7b50-4f46-8ac1-6d0f29cc8638","ios":"levelo://app?vid=278902b4-7b50-4f46-8ac1-6d0f29cc8638"},"vehicle_type_id":"4","last_reported":1738678105,"current_range_meters":38000,"station_id":"ce4bhhh2rcd13ifvqfk0","pricing_plan_id":"cebpf4jnsgd1na2vs0mg"},{"bike_id":"892d3765-5c4a-4b7c-80bb-37a8d91fb9fc","system_id":"levelo_inurba_marseille","lat":43.27321,"lon":5.39111,"is_reserved":false,"is_disabled":false,"rental_uris":{"android":"levelo://app?vid=892d3765-5c4a-4b7c-80bb-37a8d91fb9fc","ios":"levelo://app?vid=892d3765-5c4a-4b7c-80bb-37a8d91fb9fc"},"vehicle_type_id":"4","last_reported":1738678105,"current_range_meters":8800,"station_id":"ce4bhgp2rcd13ifvqfe0","pricing_plan_id":"cebpf4jnsgd1na2vs0mg"},{"bike_id":"627a885c-a87f-4969-94e6-10f46516b6d8","system_id":"levelo_inurba_marseille","lat":43.30457,"lon":5.37896,"is_reserved":false,"is_disabled":false,"rental_uris":{"android":"levelo://app?vid=627a885c-a87f-4969-94e6-10f46516b6d8","ios":"levelo://app?vid=627a885c-a87f-4969-94e6-10f46516b6d8"},"vehicle_type_id":"4","last_reported":1738678105,"current_range_meters":35600,"station_id":"ce4bgup2rcd13ifvqcn0","pricing_plan_id":"cebpf4jnsgd1na2vs0mg"},{"bike_id":"6fa79bc3-5660-4d29-be61-52a79198f322","system_id":"levelo_inurba_marseille","lat":43.30938,"lon":5.40144,"is_reserved":false,"is_disabled":false,"rental_uris":{"android":"levelo://app?vid=6fa79bc3-5660-4d29-be61-52a79198f322","ios":"levelo://app?vid=6fa79bc3-5660-4d29-be61-52a79198f322"},"vehicle_type_id":"4","last_reported":1738678105,"current_range_meters":28000,"station_id":"ce4bgvp2rcd13ifvqct0","pricing_plan_id":"cebpf4jnsgd1na2vs0mg"},{"bike_id":"3ab0ceb6-cd89-477f-8038-1be761eb4bda","system_id":"levelo_inurba_marseille","lat":43.29221,"lon":5.36052,"is_reserved":false,"is_disabled":true,"rental_uris":{"android":"levelo://app?vid=3ab0ceb6-cd89-477f-8038-1be761eb4bda","ios":"levelo://app?vid=3ab0ceb6-cd89-477f-8038-1be761eb4bda"},"vehicle_type_id":"4","last_reported":1738678105,"current_range_meters":12800,"station_id":"","pricing_plan_id":"cebpf4jnsgd1na2vs0mg"},{"bike_id":"140f4ebf-a919-4d57-b203-1e4dc6d2a63f","system_id":"levelo_inurba_marseille","lat":43.29793,"lon":5.38096,"is_reserved":false,"is_disabled":true,"rental_uris":{"android":"levelo://app?vid=140f4ebf-a919-4d57-b203-1e4dc6d2a63f","ios":"levelo://app?vid=140f4ebf-a919-4d57-b203-1e4dc6d2a63f"},"vehicle_type_id":"4","last_reported":1738678105,"current_range_meters":0,"station_id":"ce4bgip2rcd13ifvqbb0","pricing_plan_id":"cebpf4jnsgd1na2vs0mg"},{"bike_id":"f876c5f4-d351-4f17-9695-ad6fce8ba38c","system_id":"levelo_inurba_marseille","lat":43.24086,"lon":5.37758,"is_reserved":false,"is_disabled":false,"rental_uris":{"android":"levelo://app?vid=f876c5f4-d351-4f17-9695-ad6fce8ba38c","ios":"levelo://app?vid=f876c5f4-d351-4f17-9695-ad6fce8ba38c"},"vehicle_type_id":"4","last_reported":1738678105,"current_range_meters":25200,"station_id":"ce4bhnp2rcd13ifvqgvg","pricing_plan_id":"cebpf4jnsgd1na2vs0mg"},{"bike_id":"e40f9edb-09d6-4f03-aa3e-db6a097a5060","system_id":"levelo_inurba_marseille","lat":43.23068,"lon":5.35497,"is_reserved":false,"is_disabled":false,"rental_uris":{"android":"levelo://app?vid=e40f9edb-09d6-4f03-aa3e-db6a097a5060","ios":"levelo://app?vid=e40f9edb-09d6-4f03-aa3e-db6a097a5060"},"vehicle_type_id":"4","last_reported":1738678105,"current_range_meters":26000,"station_id":"cpo3342slgdg3j2ifvpg","pricing_plan_id":"cebpf4jnsgd1na2vs0mg"},{"bike_id":"a7707bf1-29c6-4f48-976f-2880303742fc","system_id":"levelo_inurba_marseille","lat":43.29518,"lon":5.39029,"is_reserved":false,"is_disabled":true,"rental_uris":{"android":"levelo://app?vid=a7707bf1-29c6-4f48-976f-2880303742fc","ios":"levelo://app?vid=a7707bf1-29c6-4f48-976f-2880303742fc"},"vehicle_type_id":"4","last_reported":1738678105,"current_range_meters":14000,"station_id":"ce4bh3p2rcd13ifvqdp0","pricing_plan_id":"cebpf4jnsgd1na2vs0mg"},{"bike_id":"3756bd28-c99b-413c-854e-aa0ddfc617c2","system_id":"levelo_inurba_marseille","lat":43.29712,"lon":5.36606,"is_reserved":false,"is_disabled":false,"rental_uris":{"android":"levelo://app?vid=3756bd28-c99b-413c-854e-aa0ddfc617c2","ios":"levelo://app?vid=3756bd28-c99b-413c-854e-aa0ddfc617c2"},"vehicle_type_id":"4","last_reported":1738678105,"current_range_meters":32000,"station_id":"ce4bgn12rcd13ifvqbt0","pricing_plan_id":"cebpf4jnsgd1na2vs0mg"},{"bike_id":"4ba0208b-a237-4fb4-9d2e-1d8063b17b57","system_id":"levelo_inurba_marseille","lat":43.25916,"lon":5.40901,"is_reserved":false,"is_disabled":false,"rental_uris":{"android":"levelo://app?vid=4ba0208b-a237-4fb4-9d2e-1d8063b17b57","ios":"levelo://app?vid=4ba0208b-a237-4fb4-9d2e-1d8063b17b57"},"vehicle_type_id":"4","last_reported":1738678105,"current_range_meters":22800,"station_id":"ce4bhm92rcd13ifvqglg","pricing_plan_id":"cebpf4jnsgd1na2vs0mg"},{"bike_id":"e04a84fa-f329-4358-a002-83d6217f5fb0","system_id":"levelo_inurba_marseille","lat":43.29786,"lon":5.37107,"is_reserved":false,"is_disabled":false,"rental_uris":{"android":"levelo://app?vid=e04a84fa-f329-4358-a002-83d6217f5fb0","ios":"levelo://app?vid=e04a84fa-f329-4358-a002-83d6217f5fb0"},"vehicle_type_id":"4","last_reported":1738678105,"current_range_meters":38000,"station_id":"ce4bgop2rcd13ifvqc1g","pricing_plan_id":"cebpf4jnsgd1na2vs0mg"},{"bike_id":"50ee8942-1d13-4c5e-aedb-f758874f8fb0","system_id":"levelo_inurba_marseille","lat":43.30127,"lon":5.39865,"is_reserved":false,"is_disabled":false,"rental_uris":{"android":"levelo://app?vid=50ee8942-1d13-4c5e-aedb-f758874f8fb0","ios":"levelo://app?vid=50ee8942-1d13-4c5e-aedb-f758874f8fb0"},"vehicle_type_id":"4","last_reported":1738678105,"current_range_meters":9200,"station_id":"ce4bh0h2rcd13ifvqd40","pricing_plan_id":"cebpf4jnsgd1na2vs0mg"},{"bike_id":"5105e794-8f56-4998-b5ce-9b5937c2a99c","system_id":"levelo_inurba_marseille","lat":43.32638,"lon":5.41021,"is_reserved":false,"is_disabled":false,"rental_uris":{"android":"levelo://app?vid=5105e794-8f56-4998-b5ce-9b5937c2a99c","ios":"levelo://app?vid=5105e794-8f56-4998-b5ce-9b5937c2a99c"},"vehicle_type_id":"4","last_reported":1738678105,"current_range_meters":32400,"station_id":"ce4bhpp2rcd13ifvqhgg","pricing_plan_id":"cebpf4jnsgd1na2vs0mg"},{"bike_id":"abfef716-ff8e-455a-bfdf-1757c8e08e3b","system_id":"levelo_inurba_marseille","lat":43.30599,"lon":5.37222,"is_reserved":false,"is_disabled":false,"rental_uris":{"android":"levelo://app?vid=abfef716-ff8e-455a-bfdf-1757c8e08e3b","ios":"levelo://app?vid=abfef716-ff8e-455a-bfdf-1757c8e08e3b"},"vehicle_type_id":"4","last_reported":1738678105,"current_range_meters":38800,"station_id":"ce4bgqh2rcd13ifvqc4g","pricing_plan_id":"cebpf4jnsgd1na2vs0mg"},{"bike_id":"8c0f28f0-c587-4374-8c95-376d0641de2d","system_id":"levelo_inurba_marseille","lat":43.2992,"lon":5.37478,"is_reserved":false,"is_disabled":false,"rental_uris":{"android":"levelo://app?vid=8c0f28f0-c587-4374-8c95-376d0641de2d","ios":"levelo://app?vid=8c0f28f0-c587-4374-8c95-376d0641de2d"},"vehicle_type_id":"4","last_reported":1738678105,"current_range_meters":25600,"station_id":"ce4bgjh2rcd13ifvqbg0","pricing_plan_id":"cebpf4jnsgd1na2vs0mg"},{"bike_id":"f99c2d6a-f6bd-43c9-9b5e-96aec13e4155","system_id":"levelo_inurba_marseille","lat":43.3137,"lon":5.36692,"is_reserved":false,"is_disabled":false,"rental_uris":{"android":"levelo://app?vid=f99c2d6a-f6bd-43c9-9b5e-96aec13e4155","ios":"levelo://app?vid=f99c2d6a-f6bd-43c9-9b5e-96aec13e4155"},"vehicle_type_id":"4","last_reported":1738678105,"current_range_meters":38800,"station_id":"ce4bgr92rcd13ifvqc6g","pricing_plan_id":"cebpf4jnsgd1na2vs0mg"},{"bike_id":"3356b867-8857-44a4-9882-de148bdf9b77","system_id":"levelo_inurba_marseille","lat":43.29931,"lon":5.37475,"is_reserved":false,"is_disabled":false,"rental_uris":{"android":"levelo://app?vid=3356b867-8857-44a4-9882-de148bdf9b77","ios":"levelo://app?vid=3356b867-8857-44a4-9882-de148bdf9b77"},"vehicle_type_id":"4","last_reported":1738678105,"current_range_meters":18000,"station_id":"ce4bgjh2rcd13ifvqbg0","pricing_plan_id":"cebpf4jnsgd1na2vs0mg"},{"bike_id":"8bd0bcf7-fa94-4026-af26-7fa3cb43e236","system_id":"levelo_inurba_marseille","lat":43.31073,"lon":5.38353,"is_reserved":false,"is_disabled":false,"rental_uris":{"android":"levelo://app?vid=8bd0bcf7-fa94-4026-af26-7fa3cb43e236","ios":"levelo://app?vid=8bd0bcf7-fa94-4026-af26-7fa3cb43e236"},"vehicle_type_id":"4","last_reported":1738678105,"current_range_meters":23200,"station_id":"ce4bgv92rcd13ifvqcr0","pricing_plan_id":"cebpf4jnsgd1na2vs0mg"},{"bike_id":"e03edca6-4218-46bc-9ea0-3ea480d64f36","system_id":"levelo_inurba_marseille","lat":43.2962,"lon":5.37713,"is_reserved":false,"is_disabled":false,"rental_uris":{"android":"levelo://app?vid=e03edca6-4218-46bc-9ea0-3ea480d64f36","ios":"levelo://app?vid=e03edca6-4218-46bc-9ea0-3ea480d64f36"},"vehicle_type_id":"4","last_reported":1738678105,"current_range_meters":35600,"station_id":"ce4bgi92rcd13ifvqb90","pricing_plan_id":"cebpf4jnsgd1na2vs0mg"},{"bike_id":"f74b4b88-f10b-40e1-a6e5-13216996c734","system_id":"levelo_inurba_marseille","lat":43.27941,"lon":5.41041,"is_reserved":false,"is_disabled":false,"rental_uris":{"android":"levelo://app?vid=f74b4b88-f10b-40e1-a6e5-13216996c734","ios":"levelo://app?vid=f74b4b88-f10b-40e1-a6e5-13216996c734"},"vehicle_type_id":"4","last_reported":1738678105,"current_range_meters":33600,"station_id":"ce4bhnp2rcd13ifvqh0g","pricing_plan_id":"cebpf4jnsgd1na2vs0mg"},{"bike_id":"28bb841b-94b3-4842-8d56-4fd8bc4ce1ed","system_id":"levelo_inurba_marseille","lat":43.24549,"lon":5.39526,"is_reserved":false,"is_disabled":false,"rental_uris":{"android":"levelo://app?vid=28bb841b-94b3-4842-8d56-4fd8bc4ce1ed","ios":"levelo://app?vid=28bb841b-94b3-4842-8d56-4fd8bc4ce1ed"},"vehicle_type_id":"4","last_reported":1738678105,"current_range_meters":11200,"station_id":"ce4bhlp2rcd13ifvqgjg","pricing_plan_id":"cebpf4jnsgd1na2vs0mg"},{"bike_id":"19c7a087-c6ce-48e8-b53a-d3b89213b68d","system_id":"levelo_inurba_marseille","lat":43.27316,"lon":5.39098,"is_reserved":false,"is_disabled":true,"rental_uris":{"android":"levelo://app?vid=19c7a087-c6ce-48e8-b53a-d3b89213b68d","ios":"levelo://app?vid=19c7a087-c6ce-48e8-b53a-d3b89213b68d"},"vehicle_type_id":"4","last_reported":1738678105,"current_range_meters":1600,"station_id":"ce4bhgp2rcd13ifvqfe0","pricing_plan_id":"cebpf4jnsgd1na2vs0mg"},{"bike_id":"1247e56b-ab9c-48cc-8c8f-a48a5e66a3bb","system_id":"levelo_inurba_marseille","lat":43.2828,"lon":5.3507,"is_reserved":false,"is_disabled":false,"rental_uris":{"android":"levelo://app?vid=1247e56b-ab9c-48cc-8c8f-a48a5e66a3bb","ios":"levelo://app?vid=1247e56b-ab9c-48cc-8c8f-a48a5e66a3bb"},"vehicle_type_id":"4","last_reported":1738678105,"current_range_meters":27600,"station_id":"ce4bhbp2rcd13ifvqerg","pricing_plan_id":"cebpf4jnsgd1na2vs0mg"},{"bike_id":"e270e9c9-c637-4eec-85ca-20047cef130b","system_id":"levelo_inurba_marseille","lat":43.23162,"lon":5.43696,"is_reserved":false,"is_disabled":false,"rental_uris":{"android":"levelo://app?vid=e270e9c9-c637-4eec-85ca-20047cef130b","ios":"levelo://app?vid=e270e9c9-c637-4eec-85ca-20047cef130b"},"vehicle_type_id":"4","last_reported":1738678105,"current_range_meters":38000,"station_id":"ce4bhmp2rcd13ifvqgog","pricing_plan_id":"cebpf4jnsgd1na2vs0mg"},{"bike_id":"dfe4a7c7-0508-43ad-a0c0-ea841f1a5151","system_id":"levelo_inurba_marseille","lat":43.31209,"lon":5.36854,"is_reserved":false,"is_disabled":false,"rental_uris":{"android":"levelo://app?vid=dfe4a7c7-0508-43ad-a0c0-ea841f1a5151","ios":"levelo://app?vid=dfe4a7c7-0508-43ad-a0c0-ea841f1a5151"},"vehicle_type_id":"4","last_reported":1738678105,"current_range_meters":34000,"station_id":"ce4bgl92rcd13ifvqbq0","pricing_plan_id":"cebpf4jnsgd1na2vs0mg"},{"bike_id":"2596d18e-5a51-415d-81d9-dda15ef753ca","system_id":"levelo_inurba_marseille","lat":43.29628,"lon":5.37166,"is_reserved":false,"is_disabled":false,"rental_uris":{"android":"levelo://app?vid=2596d18e-5a51-415d-81d9-dda15ef753ca","ios":"levelo://app?vid=2596d18e-5a51-415d-81d9-dda15ef753ca"},"vehicle_type_id":"4","last_reported":1738678105,"current_range_meters":37600,"station_id":"ce4bgnh2rcd13ifvqc0g","pricing_plan_id":"cebpf4jnsgd1na2vs0mg"},{"bike_id":"cb0238c2-4a63-49e4-a81d-cb761e159ecc","system_id":"levelo_inurba_marseille","lat":43.29002,"lon":5.35608,"is_reserved":false,"is_disabled":false,"rental_uris":{"android":"levelo://app?vid=cb0238c2-4a63-49e4-a81d-cb761e159ecc","ios":"levelo://app?vid=cb0238c2-4a63-49e4-a81d-cb761e159ecc"},"vehicle_type_id":"4","last_reported":1738678105,"current_range_meters":38800,"station_id":"ce4bhb92rcd13ifvqen0","pricing_plan_id":"cebpf4jnsgd1na2vs0mg"},{"bike_id":"8bd3ef89-4d48-42b3-8d94-f04f70b798d2","system_id":"levelo_inurba_marseille","lat":43.28718,"lon":5.379305,"is_reserved":false,"is_disabled":false,"rental_uris":{"android":"levelo://app?vid=8bd3ef89-4d48-42b3-8d94-f04f70b798d2","ios":"levelo://app?vid=8bd3ef89-4d48-42b3-8d94-f04f70b798d2"},"vehicle_type_id":"4","last_reported":1738678105,"current_range_meters":34000,"station_id":"ce4bh9p2rcd13ifvqec0","pricing_plan_id":"cebpf4jnsgd1na2vs0mg"},{"bike_id":"005249ad-a5ba-4e73-997c-32d7121f7635","system_id":"levelo_inurba_marseille","lat":43.27918,"lon":5.39579,"is_reserved":false,"is_disabled":false,"rental_uris":{"android":"levelo://app?vid=005249ad-a5ba-4e73-997c-32d7121f7635","ios":"levelo://app?vid=005249ad-a5ba-4e73-997c-32d7121f7635"},"vehicle_type_id":"4","last_reported":1738678105,"current_range_meters":29600,"station_id":"ce4bhf92rcd13ifvqf40","pricing_plan_id":"cebpf4jnsgd1na2vs0mg"},{"bike_id":"284984b1-0b04-4286-8de9-da966b43349a","system_id":"levelo_inurba_marseille","lat":43.24665,"lon":5.38162,"is_reserved":false,"is_disabled":false,"rental_uris":{"android":"levelo://app?vid=284984b1-0b04-4286-8de9-da966b43349a","ios":"levelo://app?vid=284984b1-0b04-4286-8de9-da966b43349a"},"vehicle_type_id":"4","last_reported":1738678105,"current_range_meters":32800,"station_id":"ce4bhih2rcd13ifvqfr0","pricing_plan_id":"cebpf4jnsgd1na2vs0mg"},{"bike_id":"e6084c4a-6f17-4598-bd83-e190055a7ca3","system_id":"levelo_inurba_marseille","lat":43.29506,"lon":5.37498,"is_reserved":false,"is_disabled":false,"rental_uris":{"android":"levelo://app?vid=e6084c4a-6f17-4598-bd83-e190055a7ca3","ios":"levelo://app?vid=e6084c4a-6f17-4598-bd83-e190055a7ca3"},"vehicle_type_id":"4","last_reported":1738678105,"current_range_meters":38800,"station_id":"ce4bgkp2rcd13ifvqbmg","pricing_plan_id":"cebpf4jnsgd1na2vs0mg"},{"bike_id":"49043dcc-dc87-4f32-9b9e-584978211017","system_id":"levelo_inurba_marseille","lat":43.30139,"lon":5.37429,"is_reserved":false,"is_disabled":false,"rental_uris":{"android":"levelo://app?vid=49043dcc-dc87-4f32-9b9e-584978211017","ios":"levelo://app?vid=49043dcc-dc87-4f32-9b9e-584978211017"},"vehicle_type_id":"4","last_reported":1738678105,"current_range_meters":38400,"station_id":"ce4bgs92rcd13ifvqcc0","pricing_plan_id":"cebpf4jnsgd1na2vs0mg"},{"bike_id":"88f6ec14-1047-428a-bfc8-ed7564b679d3","system_id":"levelo_inurba_marseille","lat":43.24393,"lon":5.37055,"is_reserved":false,"is_disabled":false,"rental_uris":{"android":"levelo://app?vid=88f6ec14-1047-428a-bfc8-ed7564b679d3","ios":"levelo://app?vid=88f6ec14-1047-428a-bfc8-ed7564b679d3"},"vehicle_type_id":"4","last_reported":1738678105,"current_range_meters":38800,"station_id":"ce4bhhh2rcd13ifvqfk0","pricing_plan_id":"cebpf4jnsgd1na2vs0mg"},{"bike_id":"941a420b-bcd5-4f63-a1ba-5c15116a6c1e","system_id":"levelo_inurba_marseille","lat":43.29231,"lon":5.36389,"is_reserved":false,"is_disabled":false,"rental_uris":{"android":"levelo://app?vid=941a420b-bcd5-4f63-a1ba-5c15116a6c1e","ios":"levelo://app?vid=941a420b-bcd5-4f63-a1ba-5c15116a6c1e"},"vehicle_type_id":"4","last_reported":1738678105,"current_range_meters":38000,"station_id":"","pricing_plan_id":"cebpf4jnsgd1na2vs0mg"},{"bike_id":"c2f56d98-13cf-4dda-9ec0-55377c5c8c90","system_id":"levelo_inurba_marseille","lat":43.3089,"lon":5.39634,"is_reserved":false,"is_disabled":false,"rental_uris":{"android":"levelo://app?vid=c2f56d98-13cf-4dda-9ec0-55377c5c8c90","ios":"levelo://app?vid=c2f56d98-13cf-4dda-9ec0-55377c5c8c90"},"vehicle_type_id":"4","last_reported":1738678105,"current_range_meters":38800,"station_id":"ce4bh012rcd13ifvqcv0","pricing_plan_id":"cebpf4jnsgd1na2vs0mg"},{"bike_id":"ac10ecdc-782c-467c-8065-29ce4e1b1aab","system_id":"levelo_inurba_marseille","lat":43.32649,"lon":5.40994,"is_reserved":false,"is_disabled":false,"rental_uris":{"android":"levelo://app?vid=ac10ecdc-782c-467c-8065-29ce4e1b1aab","ios":"levelo://app?vid=ac10ecdc-782c-467c-8065-29ce4e1b1aab"},"vehicle_type_id":"4","last_reported":1738678105,"current_range_meters":2800,"station_id":"ce4bhpp2rcd13ifvqhgg","pricing_plan_id":"cebpf4jnsgd1na2vs0mg"},{"bike_id":"352d595e-1fe6-4582-beb8-01e7d677d0ed","system_id":"levelo_inurba_marseille","lat":43.2396,"lon":5.36623,"is_reserved":false,"is_disabled":false,"rental_uris":{"android":"levelo://app?vid=352d595e-1fe6-4582-beb8-01e7d677d0ed","ios":"levelo://app?vid=352d595e-1fe6-4582-beb8-01e7d677d0ed"},"vehicle_type_id":"4","last_reported":1738678105,"current_range_meters":3200,"station_id":"ce4bhi12rcd13ifvqfp0","pricing_plan_id":"cebpf4jnsgd1na2vs0mg"},{"bike_id":"c19b3c74-f079-41ca-a5e6-f86d20b3a1ed","system_id":"levelo_inurba_marseille","lat":43.28422,"lon":5.34993,"is_reserved":false,"is_disabled":false,"rental_uris":{"android":"levelo://app?vid=c19b3c74-f079-41ca-a5e6-f86d20b3a1ed","ios":"levelo://app?vid=c19b3c74-f079-41ca-a5e6-f86d20b3a1ed"},"vehicle_type_id":"4","last_reported":1738678105,"current_range_meters":20000,"station_id":"ce4bhbh2rcd13ifvqepg","pricing_plan_id":"cebpf4jnsgd1na2vs0mg"},{"bike_id":"3894dca2-273b-40ed-8be2-d6f8dae96388","system_id":"levelo_inurba_marseille","lat":43.286018,"lon":5.350964,"is_reserved":false,"is_disabled":true,"rental_uris":{"android":"levelo://app?vid=3894dca2-273b-40ed-8be2-d6f8dae96388","ios":"levelo://app?vid=3894dca2-273b-40ed-8be2-d6f8dae96388"},"vehicle_type_id":"4","last_reported":1738678105,"current_range_meters":0,"station_id":"ce4bhch2rcd13ifvqeug","pricing_plan_id":"cebpf4jnsgd1na2vs0mg"},{"bike_id":"03215b30-aa65-4b10-b451-ed50967ec88e","system_id":"levelo_inurba_marseille","lat":43.34459,"lon":5.35948,"is_reserved":false,"is_disabled":true,"rental_uris":{"android":"levelo://app?vid=03215b30-aa65-4b10-b451-ed50967ec88e","ios":"levelo://app?vid=03215b30-aa65-4b10-b451-ed50967ec88e"},"vehicle_type_id":"4","last_reported":1738678105,"current_range_meters":0,"station_id":"","pricing_plan_id":"cebpf4jnsgd1na2vs0mg"},{"bike_id":"0fb02cec-7836-4b36-93b8-2b6e57059f6d","system_id":"levelo_inurba_marseille","lat":43.29915,"lon":5.3747,"is_reserved":false,"is_disabled":false,"rental_uris":{"android":"levelo://app?vid=0fb02cec-7836-4b36-93b8-2b6e57059f6d","ios":"levelo://app?vid=0fb02cec-7836-4b36-93b8-2b6e57059f6d"},"vehicle_type_id":"4","last_reported":1738678105,"current_range_meters":20800,"station_id":"ce4bgjh2rcd13ifvqbg0","pricing_plan_id":"cebpf4jnsgd1na2vs0mg"},{"bike_id":"3646b458-ebfa-4892-b059-5c47546195db","system_id":"levelo_inurba_marseille","lat":43.304905,"lon":5.37918,"is_reserved":false,"is_disabled":false,"rental_uris":{"android":"levelo://app?vid=3646b458-ebfa-4892-b059-5c47546195db","ios":"levelo://app?vid=3646b458-ebfa-4892-b059-5c47546195db"},"vehicle_type_id":"4","last_reported":1738678105,"current_range_meters":34800,"station_id":"ce4bgup2rcd13ifvqcn0","pricing_plan_id":"cebpf4jnsgd1na2vs0mg"},{"bike_id":"d1d51ec2-e1ab-4b92-9a4b-f935b04ef436","system_id":"levelo_inurba_marseille","lat":43.2502,"lon":5.38915,"is_reserved":false,"is_disabled":false,"rental_uris":{"android":"levelo://app?vid=d1d51ec2-e1ab-4b92-9a4b-f935b04ef436","ios":"levelo://app?vid=d1d51ec2-e1ab-4b92-9a4b-f935b04ef436"},"vehicle_type_id":"4","last_reported":1738678105,"current_range_meters":24400,"station_id":"ce4bhgp2rcd13ifvqfd0","pricing_plan_id":"cebpf4jnsgd1na2vs0mg"},{"bike_id":"102b9f2d-4c9c-4720-8aef-3f4ab487e1a0","system_id":"levelo_inurba_marseille","lat":43.32364,"lon":5.38877,"is_reserved":false,"is_disabled":false,"rental_uris":{"android":"levelo://app?vid=102b9f2d-4c9c-4720-8aef-3f4ab487e1a0","ios":"levelo://app?vid=102b9f2d-4c9c-4720-8aef-3f4ab487e1a0"},"vehicle_type_id":"4","last_reported":1738678105,"current_range_meters":11200,"station_id":"ce4bhqp2rcd13ifvqhog","pricing_plan_id":"cebpf4jnsgd1na2vs0mg"},{"bike_id":"7a2080c9-d44a-471c-9acd-526428e8e5dc","system_id":"levelo_inurba_marseille","lat":43.22937,"lon":5.35379,"is_reserved":false,"is_disabled":false,"rental_uris":{"android":"levelo://app?vid=7a2080c9-d44a-471c-9acd-526428e8e5dc","ios":"levelo://app?vid=7a2080c9-d44a-471c-9acd-526428e8e5dc"},"vehicle_type_id":"4","last_reported":1738678105,"current_range_meters":39200,"station_id":"cpo3532slgdg3j2ikp40","pricing_plan_id":"cebpf4jnsgd1na2vs0mg"},{"bike_id":"63048f82-d2f8-4892-b5b3-d703ed24ef1c","system_id":"levelo_inurba_marseille","lat":43.29002,"lon":5.35606,"is_reserved":false,"is_disabled":false,"rental_uris":{"android":"levelo://app?vid=63048f82-d2f8-4892-b5b3-d703ed24ef1c","ios":"levelo://app?vid=63048f82-d2f8-4892-b5b3-d703ed24ef1c"},"vehicle_type_id":"4","last_reported":1738678105,"current_range_meters":38000,"station_id":"ce4bhb92rcd13ifvqen0","pricing_plan_id":"cebpf4jnsgd1na2vs0mg"},{"bike_id":"1bdf073d-c097-4150-87c6-187750a9dea9","system_id":"levelo_inurba_marseille","lat":43.26212,"lon":5.37447,"is_reserved":false,"is_disabled":false,"rental_uris":{"android":"levelo://app?vid=1bdf073d-c097-4150-87c6-187750a9dea9","ios":"levelo://app?vid=1bdf073d-c097-4150-87c6-187750a9dea9"},"vehicle_type_id":"4","last_reported":1738678105,"current_range_meters":38400,"station_id":"ce4bhgp2rcd13ifvqfc0","pricing_plan_id":"cebpf4jnsgd1na2vs0mg"},{"bike_id":"e1b8d326-0e2d-44fe-af7d-6098c1ca1806","system_id":"levelo_inurba_marseille","lat":43.29915,"lon":5.37461,"is_reserved":false,"is_disabled":false,"rental_uris":{"android":"levelo://app?vid=e1b8d326-0e2d-44fe-af7d-6098c1ca1806","ios":"levelo://app?vid=e1b8d326-0e2d-44fe-af7d-6098c1ca1806"},"vehicle_type_id":"4","last_reported":1738678105,"current_range_meters":16400,"station_id":"ce4bgjh2rcd13ifvqbg0","pricing_plan_id":"cebpf4jnsgd1na2vs0mg"},{"bike_id":"43d88c9c-d0eb-4b4f-b95e-e1d05d1ad7b8","system_id":"levelo_inurba_marseille","lat":43.29621,"lon":5.37166,"is_reserved":false,"is_disabled":false,"rental_uris":{"android":"levelo://app?vid=43d88c9c-d0eb-4b4f-b95e-e1d05d1ad7b8","ios":"levelo://app?vid=43d88c9c-d0eb-4b4f-b95e-e1d05d1ad7b8"},"vehicle_type_id":"4","last_reported":1738678105,"current_range_meters":27600,"station_id":"ce4bgnh2rcd13ifvqc0g","pricing_plan_id":"cebpf4jnsgd1na2vs0mg"},{"bike_id":"7fbea1ed-9953-4891-b9fe-ad84cdd12b3a","system_id":"levelo_inurba_marseille","lat":43.28935,"lon":5.38374,"is_reserved":false,"is_disabled":false,"rental_uris":{"android":"levelo://app?vid=7fbea1ed-9953-4891-b9fe-ad84cdd12b3a","ios":"levelo://app?vid=7fbea1ed-9953-4891-b9fe-ad84cdd12b3a"},"vehicle_type_id":"4","last_reported":1738678105,"current_range_meters":39200,"station_id":"ce4bh612rcd13ifvqe6g","pricing_plan_id":"cebpf4jnsgd1na2vs0mg"},{"bike_id":"6dfe34ee-89dc-4687-a40b-bb003e3c18c6","system_id":"levelo_inurba_marseille","lat":43.28103,"lon":5.3785,"is_reserved":false,"is_disabled":true,"rental_uris":{"android":"levelo://app?vid=6dfe34ee-89dc-4687-a40b-bb003e3c18c6","ios":"levelo://app?vid=6dfe34ee-89dc-4687-a40b-bb003e3c18c6"},"vehicle_type_id":"4","last_reported":1738678105,"current_range_meters":38800,"station_id":"ce4bha12rcd13ifvqee0","pricing_plan_id":"cebpf4jnsgd1na2vs0mg"},{"bike_id":"0bb638d0-2838-47fa-8a2d-f175e9aec41a","system_id":"levelo_inurba_marseille","lat":43.23954,"lon":5.36631,"is_reserved":false,"is_disabled":false,"rental_uris":{"android":"levelo://app?vid=0bb638d0-2838-47fa-8a2d-f175e9aec41a","ios":"levelo://app?vid=0bb638d0-2838-47fa-8a2d-f175e9aec41a"},"vehicle_type_id":"4","last_reported":1738678105,"current_range_meters":14400,"station_id":"ce4bhi12rcd13ifvqfp0","pricing_plan_id":"cebpf4jnsgd1na2vs0mg"},{"bike_id":"527225ef-7ea1-4609-aded-699f77a699d2","system_id":"levelo_inurba_marseille","lat":43.30541,"lon":5.36675,"is_reserved":false,"is_disabled":false,"rental_uris":{"android":"levelo://app?vid=527225ef-7ea1-4609-aded-699f77a699d2","ios":"levelo://app?vid=527225ef-7ea1-4609-aded-699f77a699d2"},"vehicle_type_id":"4","last_reported":1738678105,"current_range_meters":28000,"station_id":"ce4bgrp2rcd13ifvqc9g","pricing_plan_id":"cebpf4jnsgd1na2vs0mg"},{"bike_id":"2fed9ba3-3909-423b-8e60-69abd9978d73","system_id":"levelo_inurba_marseille","lat":43.268078,"lon":5.402596,"is_reserved":false,"is_disabled":false,"rental_uris":{"android":"levelo://app?vid=2fed9ba3-3909-423b-8e60-69abd9978d73","ios":"levelo://app?vid=2fed9ba3-3909-423b-8e60-69abd9978d73"},"vehicle_type_id":"4","last_reported":1738678105,"current_range_meters":38800,"station_id":"ce501612rcd8frsf0b60","pricing_plan_id":"cebpf4jnsgd1na2vs0mg"},{"bike_id":"03b24e23-d3c3-4423-b318-648d65503344","system_id":"levelo_inurba_marseille","lat":43.296059,"lon":5.381021,"is_reserved":false,"is_disabled":false,"rental_uris":{"android":"levelo://app?vid=03b24e23-d3c3-4423-b318-648d65503344","ios":"levelo://app?vid=03b24e23-d3c3-4423-b318-648d65503344"},"vehicle_type_id":"4","last_reported":1738678105,"current_range_meters":24800,"station_id":"ce4bgl12rcd13ifvqbo0","pricing_plan_id":"cebpf4jnsgd1na2vs0mg"},{"bike_id":"d83008f8-7777-4dc5-a56b-8434cb6a396f","system_id":"levelo_inurba_marseille","lat":43.28474,"lon":5.3856,"is_reserved":false,"is_disabled":false,"rental_uris":{"android":"levelo://app?vid=d83008f8-7777-4dc5-a56b-8434cb6a396f","ios":"levelo://app?vid=d83008f8-7777-4dc5-a56b-8434cb6a396f"},"vehicle_type_id":"4","last_reported":1738678105,"current_range_meters":27600,"station_id":"ce4bh8p2rcd13ifvqeb0","pricing_plan_id":"cebpf4jnsgd1na2vs0mg"},{"bike_id":"a2360890-da0d-437a-916b-04e787d9f58a","system_id":"levelo_inurba_marseille","lat":43.32477,"lon":5.36561,"is_reserved":false,"is_disabled":false,"rental_uris":{"android":"levelo://app?vid=a2360890-da0d-437a-916b-04e787d9f58a","ios":"levelo://app?vid=a2360890-da0d-437a-916b-04e787d9f58a"},"vehicle_type_id":"4","last_reported":1738678105,"current_range_meters":34000,"station_id":"ce4bhs12rcd13ifvqhvg","pricing_plan_id":"cebpf4jnsgd1na2vs0mg"},{"bike_id":"3f254f7e-7246-4fc8-b757-04b3b5a4e69f","system_id":"levelo_inurba_marseille","lat":43.28834,"lon":5.35872,"is_reserved":false,"is_disabled":false,"rental_uris":{"android":"levelo://app?vid=3f254f7e-7246-4fc8-b757-04b3b5a4e69f","ios":"levelo://app?vid=3f254f7e-7246-4fc8-b757-04b3b5a4e69f"},"vehicle_type_id":"4","last_reported":1738678105,"current_range_meters":38000,"station_id":"ce4bhb12rcd13ifvqem0","pricing_plan_id":"cebpf4jnsgd1na2vs0mg"},{"bike_id":"6e7c1ac2-e791-43c7-8c36-9db37854d07d","system_id":"levelo_inurba_marseille","lat":43.28605,"lon":5.35086,"is_reserved":false,"is_disabled":true,"rental_uris":{"android":"levelo://app?vid=6e7c1ac2-e791-43c7-8c36-9db37854d07d","ios":"levelo://app?vid=6e7c1ac2-e791-43c7-8c36-9db37854d07d"},"vehicle_type_id":"4","last_reported":1738678105,"current_range_meters":25600,"station_id":"ce4bhch2rcd13ifvqeug","pricing_plan_id":"cebpf4jnsgd1na2vs0mg"},{"bike_id":"dc7046c0-2c32-461f-9598-e9cad1a0e646","system_id":"levelo_inurba_marseille","lat":43.27055,"lon":5.40252,"is_reserved":false,"is_disabled":false,"rental_uris":{"android":"levelo://app?vid=dc7046c0-2c32-461f-9598-e9cad1a0e646","ios":"levelo://app?vid=dc7046c0-2c32-461f-9598-e9cad1a0e646"},"vehicle_type_id":"4","last_reported":1738678105,"current_range_meters":10800,"station_id":"ce4bhk92rcd13ifvqgc0","pricing_plan_id":"cebpf4jnsgd1na2vs0mg"},{"bike_id":"1418b524-1535-4478-a5d6-289886b7efa0","system_id":"levelo_inurba_marseille","lat":43.28147,"lon":5.4264,"is_reserved":false,"is_disabled":false,"rental_uris":{"android":"levelo://app?vid=1418b524-1535-4478-a5d6-289886b7efa0","ios":"levelo://app?vid=1418b524-1535-4478-a5d6-289886b7efa0"},"vehicle_type_id":"4","last_reported":1738678105,"current_range_meters":36800,"station_id":"ce4bhnh2rcd13ifvqgug","pricing_plan_id":"cebpf4jnsgd1na2vs0mg"},{"bike_id":"5ad205ad-0d69-4753-84e2-abba1deb90a7","system_id":"levelo_inurba_marseille","lat":43.29007,"lon":5.35615,"is_reserved":false,"is_disabled":false,"rental_uris":{"android":"levelo://app?vid=5ad205ad-0d69-4753-84e2-abba1deb90a7","ios":"levelo://app?vid=5ad205ad-0d69-4753-84e2-abba1deb90a7"},"vehicle_type_id":"4","last_reported":1738678105,"current_range_meters":32000,"station_id":"ce4bhb92rcd13ifvqen0","pricing_plan_id":"cebpf4jnsgd1na2vs0mg"},{"bike_id":"bf6dd667-72c6-49d3-b7e1-1c153a2edfa1","system_id":"levelo_inurba_marseille","lat":43.29211,"lon":5.36058,"is_reserved":false,"is_disabled":false,"rental_uris":{"android":"levelo://app?vid=bf6dd667-72c6-49d3-b7e1-1c153a2edfa1","ios":"levelo://app?vid=bf6dd667-72c6-49d3-b7e1-1c153a2edfa1"},"vehicle_type_id":"4","last_reported":1738678105,"current_range_meters":6000,"station_id":"ce4bhbh2rcd13ifvqeqg","pricing_plan_id":"cebpf4jnsgd1na2vs0mg"},{"bike_id":"f8a64017-c9fd-4970-b9ef-56d8f996ff24","system_id":"levelo_inurba_marseille","lat":43.29607,"lon":5.3772,"is_reserved":false,"is_disabled":false,"rental_uris":{"android":"levelo://app?vid=f8a64017-c9fd-4970-b9ef-56d8f996ff24","ios":"levelo://app?vid=f8a64017-c9fd-4970-b9ef-56d8f996ff24"},"vehicle_type_id":"4","last_reported":1738678105,"current_range_meters":38400,"station_id":"ce4bgi92rcd13ifvqb90","pricing_plan_id":"cebpf4jnsgd1na2vs0mg"},{"bike_id":"a0e59078-9c20-4a69-9691-e9604e2a9a8c","system_id":"levelo_inurba_marseille","lat":43.30468,"lon":5.37914,"is_reserved":false,"is_disabled":false,"rental_uris":{"android":"levelo://app?vid=a0e59078-9c20-4a69-9691-e9604e2a9a8c","ios":"levelo://app?vid=a0e59078-9c20-4a69-9691-e9604e2a9a8c"},"vehicle_type_id":"4","last_reported":1738678105,"current_range_meters":12000,"station_id":"ce4bgup2rcd13ifvqcn0","pricing_plan_id":"cebpf4jnsgd1na2vs0mg"},{"bike_id":"91d68664-789f-4fee-a0ce-6243151d200f","system_id":"levelo_inurba_marseille","lat":43.29001,"lon":5.3561,"is_reserved":false,"is_disabled":false,"rental_uris":{"android":"levelo://app?vid=91d68664-789f-4fee-a0ce-6243151d200f","ios":"levelo://app?vid=91d68664-789f-4fee-a0ce-6243151d200f"},"vehicle_type_id":"4","last_reported":1738678105,"current_range_meters":12400,"station_id":"ce4bhb92rcd13ifvqen0","pricing_plan_id":"cebpf4jnsgd1na2vs0mg"},{"bike_id":"25a25fe7-e9c6-4107-ae06-8b148f630206","system_id":"levelo_inurba_marseille","lat":43.2987,"lon":5.39731,"is_reserved":false,"is_disabled":false,"rental_uris":{"android":"levelo://app?vid=25a25fe7-e9c6-4107-ae06-8b148f630206","ios":"levelo://app?vid=25a25fe7-e9c6-4107-ae06-8b148f630206"},"vehicle_type_id":"4","last_reported":1738678105,"current_range_meters":38000,"station_id":"ce4bh0h2rcd13ifvqd50","pricing_plan_id":"cebpf4jnsgd1na2vs0mg"},{"bike_id":"500afc4d-31f5-4e89-a324-9368e8311dcf","system_id":"levelo_inurba_marseille","lat":43.26559,"lon":5.37284,"is_reserved":false,"is_disabled":false,"rental_uris":{"android":"levelo://app?vid=500afc4d-31f5-4e89-a324-9368e8311dcf","ios":"levelo://app?vid=500afc4d-31f5-4e89-a324-9368e8311dcf"},"vehicle_type_id":"4","last_reported":1738678105,"current_range_meters":2800,"station_id":"ce4bhg12rcd13ifvqf70","pricing_plan_id":"cebpf4jnsgd1na2vs0mg"},{"bike_id":"ba9659b0-1bff-4bf9-aec7-272758d875e8","system_id":"levelo_inurba_marseille","lat":43.29779,"lon":5.36228,"is_reserved":false,"is_disabled":false,"rental_uris":{"android":"levelo://app?vid=ba9659b0-1bff-4bf9-aec7-272758d875e8","ios":"levelo://app?vid=ba9659b0-1bff-4bf9-aec7-272758d875e8"},"vehicle_type_id":"4","last_reported":1738678105,"current_range_meters":27600,"station_id":"","pricing_plan_id":"cebpf4jnsgd1na2vs0mg"},{"bike_id":"6c03cfb2-11ac-4743-91f2-a12a7c7f9958","system_id":"levelo_inurba_marseille","lat":43.2657,"lon":5.39008,"is_reserved":false,"is_disabled":false,"rental_uris":{"android":"levelo://app?vid=6c03cfb2-11ac-4743-91f2-a12a7c7f9958","ios":"levelo://app?vid=6c03cfb2-11ac-4743-91f2-a12a7c7f9958"},"vehicle_type_id":"4","last_reported":1738678105,"current_range_meters":22800,"station_id":"ce4bhe12rcd13ifvqf30","pricing_plan_id":"cebpf4jnsgd1na2vs0mg"},{"bike_id":"6ca538a1-194b-40b1-bd8f-7954b3f28f56","system_id":"levelo_inurba_marseille","lat":43.26565,"lon":5.38991,"is_reserved":false,"is_disabled":false,"rental_uris":{"android":"levelo://app?vid=6ca538a1-194b-40b1-bd8f-7954b3f28f56","ios":"levelo://app?vid=6ca538a1-194b-40b1-bd8f-7954b3f28f56"},"vehicle_type_id":"4","last_reported":1738678105,"current_range_meters":17200,"station_id":"ce4bhe12rcd13ifvqf30","pricing_plan_id":"cebpf4jnsgd1na2vs0mg"},{"bike_id":"d017a21b-7b58-4514-bf06-3b19fe96541c","system_id":"levelo_inurba_marseille","lat":43.2828,"lon":5.35069,"is_reserved":false,"is_disabled":false,"rental_uris":{"android":"levelo://app?vid=d017a21b-7b58-4514-bf06-3b19fe96541c","ios":"levelo://app?vid=d017a21b-7b58-4514-bf06-3b19fe96541c"},"vehicle_type_id":"4","last_reported":1738678105,"current_range_meters":37600,"station_id":"ce4bhbp2rcd13ifvqerg","pricing_plan_id":"cebpf4jnsgd1na2vs0mg"},{"bike_id":"48457462-e2e5-4b0c-9657-da77fe2191e8","system_id":"levelo_inurba_marseille","lat":43.30555,"lon":5.36555,"is_reserved":false,"is_disabled":false,"rental_uris":{"android":"levelo://app?vid=48457462-e2e5-4b0c-9657-da77fe2191e8","ios":"levelo://app?vid=48457462-e2e5-4b0c-9657-da77fe2191e8"},"vehicle_type_id":"4","last_reported":1738678105,"current_range_meters":24400,"station_id":"ce4bgs12rcd13ifvqcag","pricing_plan_id":"cebpf4jnsgd1na2vs0mg"},{"bike_id":"a9ee38d0-21e8-4d99-8e3f-cc643e32473e","system_id":"levelo_inurba_marseille","lat":43.27818,"lon":5.40722,"is_reserved":false,"is_disabled":false,"rental_uris":{"android":"levelo://app?vid=a9ee38d0-21e8-4d99-8e3f-cc643e32473e","ios":"levelo://app?vid=a9ee38d0-21e8-4d99-8e3f-cc643e32473e"},"vehicle_type_id":"4","last_reported":1738678105,"current_range_meters":38800,"station_id":"ce4bhnh2rcd13ifvqgtg","pricing_plan_id":"cebpf4jnsgd1na2vs0mg"},{"bike_id":"d2fbd47d-3a23-4a2b-8dce-41b42b58af9a","system_id":"levelo_inurba_marseille","lat":43.30561,"lon":5.38442,"is_reserved":false,"is_disabled":false,"rental_uris":{"android":"levelo://app?vid=d2fbd47d-3a23-4a2b-8dce-41b42b58af9a","ios":"levelo://app?vid=d2fbd47d-3a23-4a2b-8dce-41b42b58af9a"},"vehicle_type_id":"4","last_reported":1738678105,"current_range_meters":38800,"station_id":"ce4bgg92rcd13ifvqb30","pricing_plan_id":"cebpf4jnsgd1na2vs0mg"},{"bike_id":"630dd466-e4dd-4ada-8a39-01e92abf0818","system_id":"levelo_inurba_marseille","lat":43.26222,"lon":5.37441,"is_reserved":false,"is_disabled":false,"rental_uris":{"android":"levelo://app?vid=630dd466-e4dd-4ada-8a39-01e92abf0818","ios":"levelo://app?vid=630dd466-e4dd-4ada-8a39-01e92abf0818"},"vehicle_type_id":"4","last_reported":1738678105,"current_range_meters":33600,"station_id":"ce4bhgp2rcd13ifvqfc0","pricing_plan_id":"cebpf4jnsgd1na2vs0mg"},{"bike_id":"e98cc244-36f8-4837-b472-5623abe61dbc","system_id":"levelo_inurba_marseille","lat":43.30213,"lon":5.39471,"is_reserved":false,"is_disabled":false,"rental_uris":{"android":"levelo://app?vid=e98cc244-36f8-4837-b472-5623abe61dbc","ios":"levelo://app?vid=e98cc244-36f8-4837-b472-5623abe61dbc"},"vehicle_type_id":"4","last_reported":1738678105,"current_range_meters":35600,"station_id":"ce4bh0p2rcd13ifvqd70","pricing_plan_id":"cebpf4jnsgd1na2vs0mg"},{"bike_id":"1346407d-913f-48b4-b78e-8a03cf936ba7","system_id":"levelo_inurba_marseille","lat":43.2803,"lon":5.36943,"is_reserved":false,"is_disabled":false,"rental_uris":{"android":"levelo://app?vid=1346407d-913f-48b4-b78e-8a03cf936ba7","ios":"levelo://app?vid=1346407d-913f-48b4-b78e-8a03cf936ba7"},"vehicle_type_id":"4","last_reported":1738678105,"current_range_meters":28400,"station_id":"ce4bha12rcd13ifvqef0","pricing_plan_id":"cebpf4jnsgd1na2vs0mg"},{"bike_id":"3034d64e-f78e-468c-b4d6-2520a053438f","system_id":"levelo_inurba_marseille","lat":43.231881,"lon":5.399868,"is_reserved":false,"is_disabled":false,"rental_uris":{"android":"levelo://app?vid=3034d64e-f78e-468c-b4d6-2520a053438f","ios":"levelo://app?vid=3034d64e-f78e-468c-b4d6-2520a053438f"},"vehicle_type_id":"4","last_reported":1738678105,"current_range_meters":38800,"station_id":"ce4bhn12rcd13ifvqgqg","pricing_plan_id":"cebpf4jnsgd1na2vs0mg"},{"bike_id":"cc29db30-f2f1-468a-a201-3c6c24c1d6c0","system_id":"levelo_inurba_marseille","lat":43.295997,"lon":5.377203,"is_reserved":false,"is_disabled":false,"rental_uris":{"android":"levelo://app?vid=cc29db30-f2f1-468a-a201-3c6c24c1d6c0","ios":"levelo://app?vid=cc29db30-f2f1-468a-a201-3c6c24c1d6c0"},"vehicle_type_id":"4","last_reported":1738678105,"current_range_meters":37600,"station_id":"ce4bgi92rcd13ifvqb90","pricing_plan_id":"cebpf4jnsgd1na2vs0mg"},{"bike_id":"343ee9fa-65bc-44d7-b41c-f81f2cce2b1a","system_id":"levelo_inurba_marseille","lat":43.23149,"lon":5.43705,"is_reserved":false,"is_disabled":false,"rental_uris":{"android":"levelo://app?vid=343ee9fa-65bc-44d7-b41c-f81f2cce2b1a","ios":"levelo://app?vid=343ee9fa-65bc-44d7-b41c-f81f2cce2b1a"},"vehicle_type_id":"4","last_reported":1738678105,"current_range_meters":23200,"station_id":"ce4bhmp2rcd13ifvqgog","pricing_plan_id":"cebpf4jnsgd1na2vs0mg"},{"bike_id":"e06118ec-db63-413d-bbf1-9124c17209a1","system_id":"levelo_inurba_marseille","lat":43.29623,"lon":5.37721,"is_reserved":false,"is_disabled":false,"rental_uris":{"android":"levelo://app?vid=e06118ec-db63-413d-bbf1-9124c17209a1","ios":"levelo://app?vid=e06118ec-db63-413d-bbf1-9124c17209a1"},"vehicle_type_id":"4","last_reported":1738678105,"current_range_meters":20400,"station_id":"ce4bgi92rcd13ifvqb90","pricing_plan_id":"cebpf4jnsgd1na2vs0mg"},{"bike_id":"e0b7832f-97d2-4f58-baa9-94fdcba30305","system_id":"levelo_inurba_marseille","lat":43.2961,"lon":5.37173,"is_reserved":false,"is_disabled":false,"rental_uris":{"android":"levelo://app?vid=e0b7832f-97d2-4f58-baa9-94fdcba30305","ios":"levelo://app?vid=e0b7832f-97d2-4f58-baa9-94fdcba30305"},"vehicle_type_id":"4","last_reported":1738678105,"current_range_meters":36400,"station_id":"ce4bgnh2rcd13ifvqc0g","pricing_plan_id":"cebpf4jnsgd1na2vs0mg"},{"bike_id":"7f87d5fc-9445-41df-bd3e-5287cb6adb70","system_id":"levelo_inurba_marseille","lat":43.26818,"lon":5.40257,"is_reserved":false,"is_disabled":false,"rental_uris":{"android":"levelo://app?vid=7f87d5fc-9445-41df-bd3e-5287cb6adb70","ios":"levelo://app?vid=7f87d5fc-9445-41df-bd3e-5287cb6adb70"},"vehicle_type_id":"4","last_reported":1738678105,"current_range_meters":9600,"station_id":"ce501612rcd8frsf0b60","pricing_plan_id":"cebpf4jnsgd1na2vs0mg"},{"bike_id":"26d50996-2c19-48f1-bdd6-eba75f8cc07f","system_id":"levelo_inurba_marseille","lat":43.28462,"lon":5.3855,"is_reserved":false,"is_disabled":false,"rental_uris":{"android":"levelo://app?vid=26d50996-2c19-48f1-bdd6-eba75f8cc07f","ios":"levelo://app?vid=26d50996-2c19-48f1-bdd6-eba75f8cc07f"},"vehicle_type_id":"4","last_reported":1738678105,"current_range_meters":16800,"station_id":"ce4bh8p2rcd13ifvqeb0","pricing_plan_id":"cebpf4jnsgd1na2vs0mg"},{"bike_id":"e214cb68-bd90-4283-80e9-951f93a1751c","system_id":"levelo_inurba_marseille","lat":43.32341,"lon":5.40611,"is_reserved":false,"is_disabled":false,"rental_uris":{"android":"levelo://app?vid=e214cb68-bd90-4283-80e9-951f93a1751c","ios":"levelo://app?vid=e214cb68-bd90-4283-80e9-951f93a1751c"},"vehicle_type_id":"4","last_reported":1738678105,"current_range_meters":38800,"station_id":"ce4bhq92rcd13ifvqhjg","pricing_plan_id":"cebpf4jnsgd1na2vs0mg"},{"bike_id":"649599e3-9252-4d00-ad77-a8ea70e06ee9","system_id":"levelo_inurba_marseille","lat":43.29256,"lon":5.36083,"is_reserved":false,"is_disabled":false,"rental_uris":{"android":"levelo://app?vid=649599e3-9252-4d00-ad77-a8ea70e06ee9","ios":"levelo://app?vid=649599e3-9252-4d00-ad77-a8ea70e06ee9"},"vehicle_type_id":"4","last_reported":1738678105,"current_range_meters":36800,"station_id":"ce4bhbh2rcd13ifvqeqg","pricing_plan_id":"cebpf4jnsgd1na2vs0mg"},{"bike_id":"a7dc0848-081a-4438-bce6-7e161a91f066","system_id":"levelo_inurba_marseille","lat":43.281683,"lon":5.4263,"is_reserved":false,"is_disabled":false,"rental_uris":{"android":"levelo://app?vid=a7dc0848-081a-4438-bce6-7e161a91f066","ios":"levelo://app?vid=a7dc0848-081a-4438-bce6-7e161a91f066"},"vehicle_type_id":"4","last_reported":1738678105,"current_range_meters":34800,"station_id":"ce4bhnh2rcd13ifvqgug","pricing_plan_id":"cebpf4jnsgd1na2vs0mg"},{"bike_id":"e3440001-9507-49ef-b7e9-8f2b450a52cb","system_id":"levelo_inurba_marseille","lat":43.29063,"lon":5.37157,"is_reserved":false,"is_disabled":false,"rental_uris":{"android":"levelo://app?vid=e3440001-9507-49ef-b7e9-8f2b450a52cb","ios":"levelo://app?vid=e3440001-9507-49ef-b7e9-8f2b450a52cb"},"vehicle_type_id":"4","last_reported":1738678105,"current_range_meters":37600,"station_id":"ce4bh5p2rcd13ifvqe4g","pricing_plan_id":"cebpf4jnsgd1na2vs0mg"},{"bike_id":"efb4e0c5-012a-40d5-b751-7a0e28f587ae","system_id":"levelo_inurba_marseille","lat":43.28274,"lon":5.35065,"is_reserved":false,"is_disabled":false,"rental_uris":{"android":"levelo://app?vid=efb4e0c5-012a-40d5-b751-7a0e28f587ae","ios":"levelo://app?vid=efb4e0c5-012a-40d5-b751-7a0e28f587ae"},"vehicle_type_id":"4","last_reported":1738678105,"current_range_meters":7200,"station_id":"ce4bhbp2rcd13ifvqerg","pricing_plan_id":"cebpf4jnsgd1na2vs0mg"},{"bike_id":"2055a81d-8e5e-4bf5-b5e1-2fc40f396b7c","system_id":"levelo_inurba_marseille","lat":43.30541,"lon":5.38429,"is_reserved":false,"is_disabled":true,"rental_uris":{"android":"levelo://app?vid=2055a81d-8e5e-4bf5-b5e1-2fc40f396b7c","ios":"levelo://app?vid=2055a81d-8e5e-4bf5-b5e1-2fc40f396b7c"},"vehicle_type_id":"4","last_reported":1738678105,"current_range_meters":32400,"station_id":"ce4bgg92rcd13ifvqb30","pricing_plan_id":"cebpf4jnsgd1na2vs0mg"},{"bike_id":"4e115706-dda5-4286-b487-8f0777838c31","system_id":"levelo_inurba_marseille","lat":43.25079,"lon":5.39509,"is_reserved":false,"is_disabled":false,"rental_uris":{"android":"levelo://app?vid=4e115706-dda5-4286-b487-8f0777838c31","ios":"levelo://app?vid=4e115706-dda5-4286-b487-8f0777838c31"},"vehicle_type_id":"4","last_reported":1738678105,"current_range_meters":38400,"station_id":"ce4bhm12rcd13ifvqgkg","pricing_plan_id":"cebpf4jnsgd1na2vs0mg"},{"bike_id":"c8bd1d84-2291-473f-ab82-361f165fe1db","system_id":"levelo_inurba_marseille","lat":43.24148,"lon":5.36412,"is_reserved":false,"is_disabled":false,"rental_uris":{"android":"levelo://app?vid=c8bd1d84-2291-473f-ab82-361f165fe1db","ios":"levelo://app?vid=c8bd1d84-2291-473f-ab82-361f165fe1db"},"vehicle_type_id":"4","last_reported":1738678105,"current_range_meters":38400,"station_id":"cpo36qri1sfpv3e86is0","pricing_plan_id":"cebpf4jnsgd1na2vs0mg"},{"bike_id":"da05f112-ffb2-4f41-a3cb-99544f3f7f0e","system_id":"levelo_inurba_marseille","lat":43.30623,"lon":5.36605,"is_reserved":false,"is_disabled":false,"rental_uris":{"android":"levelo://app?vid=da05f112-ffb2-4f41-a3cb-99544f3f7f0e","ios":"levelo://app?vid=da05f112-ffb2-4f41-a3cb-99544f3f7f0e"},"vehicle_type_id":"4","last_reported":1738678105,"current_range_meters":33200,"station_id":"ce4bgrp2rcd13ifvqc9g","pricing_plan_id":"cebpf4jnsgd1na2vs0mg"},{"bike_id":"bb846df9-2969-480a-aed6-edbcf9c326fb","system_id":"levelo_inurba_marseille","lat":43.24811,"lon":5.37461,"is_reserved":false,"is_disabled":false,"rental_uris":{"android":"levelo://app?vid=bb846df9-2969-480a-aed6-edbcf9c326fb","ios":"levelo://app?vid=bb846df9-2969-480a-aed6-edbcf9c326fb"},"vehicle_type_id":"4","last_reported":1738678105,"current_range_meters":24800,"station_id":"ce4bhgh2rcd13ifvqfb0","pricing_plan_id":"cebpf4jnsgd1na2vs0mg"},{"bike_id":"f7b06ef1-8fe2-49dc-97bf-948e009e701e","system_id":"levelo_inurba_marseille","lat":43.29254,"lon":5.38427,"is_reserved":false,"is_disabled":true,"rental_uris":{"android":"levelo://app?vid=f7b06ef1-8fe2-49dc-97bf-948e009e701e","ios":"levelo://app?vid=f7b06ef1-8fe2-49dc-97bf-948e009e701e"},"vehicle_type_id":"4","last_reported":1738678105,"current_range_meters":12400,"station_id":"ce4bh692rcd13ifvqea0","pricing_plan_id":"cebpf4jnsgd1na2vs0mg"},{"bike_id":"cd07e062-2af1-406e-bcb9-5f1ec4730937","system_id":"levelo_inurba_marseille","lat":43.23067,"lon":5.35502,"is_reserved":false,"is_disabled":false,"rental_uris":{"android":"levelo://app?vid=cd07e062-2af1-406e-bcb9-5f1ec4730937","ios":"levelo://app?vid=cd07e062-2af1-406e-bcb9-5f1ec4730937"},"vehicle_type_id":"4","last_reported":1738678105,"current_range_meters":8800,"station_id":"cpo3342slgdg3j2ifvpg","pricing_plan_id":"cebpf4jnsgd1na2vs0mg"},{"bike_id":"11b8b287-bde4-4378-b391-34ac670e07e4","system_id":"levelo_inurba_marseille","lat":43.26557,"lon":5.37303,"is_reserved":false,"is_disabled":false,"rental_uris":{"android":"levelo://app?vid=11b8b287-bde4-4378-b391-34ac670e07e4","ios":"levelo://app?vid=11b8b287-bde4-4378-b391-34ac670e07e4"},"vehicle_type_id":"4","last_reported":1738678105,"current_range_meters":18800,"station_id":"ce4bhg12rcd13ifvqf70","pricing_plan_id":"cebpf4jnsgd1na2vs0mg"},{"bike_id":"bf95080f-c0ed-4616-baa6-e8bcc2888302","system_id":"levelo_inurba_marseille","lat":43.31716,"lon":5.37732,"is_reserved":false,"is_disabled":false,"rental_uris":{"android":"levelo://app?vid=bf95080f-c0ed-4616-baa6-e8bcc2888302","ios":"levelo://app?vid=bf95080f-c0ed-4616-baa6-e8bcc2888302"},"vehicle_type_id":"4","last_reported":1738678105,"current_range_meters":19200,"station_id":"ce4bgth2rcd13ifvqch0","pricing_plan_id":"cebpf4jnsgd1na2vs0mg"},{"bike_id":"516f2549-79cf-4297-a0ad-3d3f06a71f80","system_id":"levelo_inurba_marseille","lat":43.31715,"lon":5.42406,"is_reserved":false,"is_disabled":true,"rental_uris":{"android":"levelo://app?vid=516f2549-79cf-4297-a0ad-3d3f06a71f80","ios":"levelo://app?vid=516f2549-79cf-4297-a0ad-3d3f06a71f80"},"vehicle_type_id":"4","last_reported":1738678105,"current_range_meters":2800,"station_id":"ce4bhp92rcd13ifvqhbg","pricing_plan_id":"cebpf4jnsgd1na2vs0mg"},{"bike_id":"bf9e18d8-cd54-411a-89f5-523c49f67351","system_id":"levelo_inurba_marseille","lat":43.29624,"lon":5.40586,"is_reserved":false,"is_disabled":false,"rental_uris":{"android":"levelo://app?vid=bf9e18d8-cd54-411a-89f5-523c49f67351","ios":"levelo://app?vid=bf9e18d8-cd54-411a-89f5-523c49f67351"},"vehicle_type_id":"4","last_reported":1738678105,"current_range_meters":38400,"station_id":"ce4bh0h2rcd13ifvqd60","pricing_plan_id":"cebpf4jnsgd1na2vs0mg"},{"bike_id":"45a7daa2-2a2e-4454-90c3-1009aaecc5bd","system_id":"levelo_inurba_marseille","lat":43.231949,"lon":5.355504,"is_reserved":false,"is_disabled":false,"rental_uris":{"android":"levelo://app?vid=45a7daa2-2a2e-4454-90c3-1009aaecc5bd","ios":"levelo://app?vid=45a7daa2-2a2e-4454-90c3-1009aaecc5bd"},"vehicle_type_id":"4","last_reported":1738678105,"current_range_meters":8800,"station_id":"ce4bhu92rcd13ifvqi70","pricing_plan_id":"cebpf4jnsgd1na2vs0mg"},{"bike_id":"9a446ecb-286d-41ee-a575-c1cc7de2f3c0","system_id":"levelo_inurba_marseille","lat":43.27492,"lon":5.42434,"is_reserved":false,"is_disabled":false,"rental_uris":{"android":"levelo://app?vid=9a446ecb-286d-41ee-a575-c1cc7de2f3c0","ios":"levelo://app?vid=9a446ecb-286d-41ee-a575-c1cc7de2f3c0"},"vehicle_type_id":"4","last_reported":1738678105,"current_range_meters":23200,"station_id":"ce4bhn92rcd13ifvqgrg","pricing_plan_id":"cebpf4jnsgd1na2vs0mg"},{"bike_id":"a6059ada-c807-4a86-93f6-086e00bcd80e","system_id":"levelo_inurba_marseille","lat":43.29022,"lon":5.38138,"is_reserved":false,"is_disabled":false,"rental_uris":{"android":"levelo://app?vid=a6059ada-c807-4a86-93f6-086e00bcd80e","ios":"levelo://app?vid=a6059ada-c807-4a86-93f6-086e00bcd80e"},"vehicle_type_id":"4","last_reported":1738678105,"current_range_meters":24400,"station_id":"ce4bh4p2rcd13ifvqe1g","pricing_plan_id":"cebpf4jnsgd1na2vs0mg"},{"bike_id":"cb360eae-9e0a-4706-ac77-865a26f70022","system_id":"levelo_inurba_marseille","lat":43.23153,"lon":5.43708,"is_reserved":false,"is_disabled":false,"rental_uris":{"android":"levelo://app?vid=cb360eae-9e0a-4706-ac77-865a26f70022","ios":"levelo://app?vid=cb360eae-9e0a-4706-ac77-865a26f70022"},"vehicle_type_id":"4","last_reported":1738678105,"current_range_meters":17200,"station_id":"ce4bhmp2rcd13ifvqgog","pricing_plan_id":"cebpf4jnsgd1na2vs0mg"},{"bike_id":"35798297-b936-47d1-8a98-bfdb50e14c75","system_id":"levelo_inurba_marseille","lat":43.32085,"lon":5.43292,"is_reserved":false,"is_disabled":true,"rental_uris":{"android":"levelo://app?vid=35798297-b936-47d1-8a98-bfdb50e14c75","ios":"levelo://app?vid=35798297-b936-47d1-8a98-bfdb50e14c75"},"vehicle_type_id":"4","last_reported":1738678105,"current_range_meters":37600,"station_id":"","pricing_plan_id":"cebpf4jnsgd1na2vs0mg"},{"bike_id":"e6dc612f-7f56-4634-8aac-2cfefb7b3910","system_id":"levelo_inurba_marseille","lat":43.282737,"lon":5.350806,"is_reserved":false,"is_disabled":true,"rental_uris":{"android":"levelo://app?vid=e6dc612f-7f56-4634-8aac-2cfefb7b3910","ios":"levelo://app?vid=e6dc612f-7f56-4634-8aac-2cfefb7b3910"},"vehicle_type_id":"4","last_reported":1738678105,"current_range_meters":31200,"station_id":"ce4bhbp2rcd13ifvqerg","pricing_plan_id":"cebpf4jnsgd1na2vs0mg"},{"bike_id":"aadee2f8-9876-4c83-8d73-556586b3e2d5","system_id":"levelo_inurba_marseille","lat":43.30471,"lon":5.37907,"is_reserved":false,"is_disabled":false,"rental_uris":{"android":"levelo://app?vid=aadee2f8-9876-4c83-8d73-556586b3e2d5","ios":"levelo://app?vid=aadee2f8-9876-4c83-8d73-556586b3e2d5"},"vehicle_type_id":"4","last_reported":1738678105,"current_range_meters":24800,"station_id":"ce4bgup2rcd13ifvqcn0","pricing_plan_id":"cebpf4jnsgd1na2vs0mg"},{"bike_id":"28f8a7f5-18be-410d-ba36-c7b54e69eef0","system_id":"levelo_inurba_marseille","lat":43.30564,"lon":5.36542,"is_reserved":false,"is_disabled":false,"rental_uris":{"android":"levelo://app?vid=28f8a7f5-18be-410d-ba36-c7b54e69eef0","ios":"levelo://app?vid=28f8a7f5-18be-410d-ba36-c7b54e69eef0"},"vehicle_type_id":"4","last_reported":1738678105,"current_range_meters":11200,"station_id":"ce4bgs12rcd13ifvqcag","pricing_plan_id":"cebpf4jnsgd1na2vs0mg"},{"bike_id":"ee13c032-0e42-4f91-a465-49bdd34c58f2","system_id":"levelo_inurba_marseille","lat":43.2797,"lon":5.38748,"is_reserved":false,"is_disabled":true,"rental_uris":{"android":"levelo://app?vid=ee13c032-0e42-4f91-a465-49bdd34c58f2","ios":"levelo://app?vid=ee13c032-0e42-4f91-a465-49bdd34c58f2"},"vehicle_type_id":"4","last_reported":1738678105,"current_range_meters":1200,"station_id":"ce4bhg12rcd13ifvqf80","pricing_plan_id":"cebpf4jnsgd1na2vs0mg"},{"bike_id":"6f9927f3-89e8-428e-a7c5-3161168910d7","system_id":"levelo_inurba_marseille","lat":43.29274,"lon":5.38436,"is_reserved":false,"is_disabled":false,"rental_uris":{"android":"levelo://app?vid=6f9927f3-89e8-428e-a7c5-3161168910d7","ios":"levelo://app?vid=6f9927f3-89e8-428e-a7c5-3161168910d7"},"vehicle_type_id":"4","last_reported":1738678105,"current_range_meters":17200,"station_id":"ce4bh692rcd13ifvqea0","pricing_plan_id":"cebpf4jnsgd1na2vs0mg"},{"bike_id":"ae14429a-f4ea-4b32-930e-11b78348d0f8","system_id":"levelo_inurba_marseille","lat":43.27837,"lon":5.39207,"is_reserved":false,"is_disabled":false,"rental_uris":{"android":"levelo://app?vid=ae14429a-f4ea-4b32-930e-11b78348d0f8","ios":"levelo://app?vid=ae14429a-f4ea-4b32-930e-11b78348d0f8"},"vehicle_type_id":"4","last_reported":1738678105,"current_range_meters":26800,"station_id":"ce4bhjp2rcd13ifvqga0","pricing_plan_id":"cebpf4jnsgd1na2vs0mg"},{"bike_id":"28874a6a-c29f-4898-a48b-7e8f53dfe034","system_id":"levelo_inurba_marseille","lat":43.29632,"lon":5.40598,"is_reserved":false,"is_disabled":false,"rental_uris":{"android":"levelo://app?vid=28874a6a-c29f-4898-a48b-7e8f53dfe034","ios":"levelo://app?vid=28874a6a-c29f-4898-a48b-7e8f53dfe034"},"vehicle_type_id":"4","last_reported":1738678105,"current_range_meters":26800,"station_id":"ce4bh0h2rcd13ifvqd60","pricing_plan_id":"cebpf4jnsgd1na2vs0mg"},{"bike_id":"c6544a4f-c228-46ff-937e-d2fb821e8bc8","system_id":"levelo_inurba_marseille","lat":43.28729,"lon":5.36082,"is_reserved":false,"is_disabled":false,"rental_uris":{"android":"levelo://app?vid=c6544a4f-c228-46ff-937e-d2fb821e8bc8","ios":"levelo://app?vid=c6544a4f-c228-46ff-937e-d2fb821e8bc8"},"vehicle_type_id":"4","last_reported":1738678105,"current_range_meters":38000,"station_id":"","pricing_plan_id":"cebpf4jnsgd1na2vs0mg"},{"bike_id":"6bb18b6b-35db-4080-8375-2a2e83c6fc4b","system_id":"levelo_inurba_marseille","lat":43.23161,"lon":5.437,"is_reserved":false,"is_disabled":true,"rental_uris":{"android":"levelo://app?vid=6bb18b6b-35db-4080-8375-2a2e83c6fc4b","ios":"levelo://app?vid=6bb18b6b-35db-4080-8375-2a2e83c6fc4b"},"vehicle_type_id":"4","last_reported":1738678105,"current_range_meters":39200,"station_id":"ce4bhmp2rcd13ifvqgog","pricing_plan_id":"cebpf4jnsgd1na2vs0mg"},{"bike_id":"6e575a77-4030-4c2e-9e08-85a8d2317500","system_id":"levelo_inurba_marseille","lat":43.27507,"lon":5.42482,"is_reserved":false,"is_disabled":true,"rental_uris":{"android":"levelo://app?vid=6e575a77-4030-4c2e-9e08-85a8d2317500","ios":"levelo://app?vid=6e575a77-4030-4c2e-9e08-85a8d2317500"},"vehicle_type_id":"4","last_reported":1738678105,"current_range_meters":0,"station_id":"ce4bhn92rcd13ifvqgrg","pricing_plan_id":"cebpf4jnsgd1na2vs0mg"},{"bike_id":"78457c84-afc4-43eb-9af0-e6a59bca3ee6","system_id":"levelo_inurba_marseille","lat":43.27496,"lon":5.42453,"is_reserved":false,"is_disabled":false,"rental_uris":{"android":"levelo://app?vid=78457c84-afc4-43eb-9af0-e6a59bca3ee6","ios":"levelo://app?vid=78457c84-afc4-43eb-9af0-e6a59bca3ee6"},"vehicle_type_id":"4","last_reported":1738678105,"current_range_meters":8400,"station_id":"ce4bhn92rcd13ifvqgrg","pricing_plan_id":"cebpf4jnsgd1na2vs0mg"},{"bike_id":"787b7837-f258-4886-bbf5-841ee39c0166","system_id":"levelo_inurba_marseille","lat":43.28282,"lon":5.35041,"is_reserved":false,"is_disabled":true,"rental_uris":{"android":"levelo://app?vid=787b7837-f258-4886-bbf5-841ee39c0166","ios":"levelo://app?vid=787b7837-f258-4886-bbf5-841ee39c0166"},"vehicle_type_id":"4","last_reported":1738678105,"current_range_meters":37600,"station_id":"ce4bhbp2rcd13ifvqerg","pricing_plan_id":"cebpf4jnsgd1na2vs0mg"},{"bike_id":"35e9be92-813b-4a24-804a-34341a2b466d","system_id":"levelo_inurba_marseille","lat":43.26494,"lon":5.39552,"is_reserved":false,"is_disabled":false,"rental_uris":{"android":"levelo://app?vid=35e9be92-813b-4a24-804a-34341a2b466d","ios":"levelo://app?vid=35e9be92-813b-4a24-804a-34341a2b466d"},"vehicle_type_id":"4","last_reported":1738678105,"current_range_meters":38800,"station_id":"ce4bhi12rcd13ifvqfq0","pricing_plan_id":"cebpf4jnsgd1na2vs0mg"},{"bike_id":"f554b947-83c1-4903-8d42-99f15d0817e7","system_id":"levelo_inurba_marseille","lat":43.284735,"lon":5.385392,"is_reserved":false,"is_disabled":false,"rental_uris":{"android":"levelo://app?vid=f554b947-83c1-4903-8d42-99f15d0817e7","ios":"levelo://app?vid=f554b947-83c1-4903-8d42-99f15d0817e7"},"vehicle_type_id":"4","last_reported":1738678105,"current_range_meters":30400,"station_id":"ce4bh8p2rcd13ifvqeb0","pricing_plan_id":"cebpf4jnsgd1na2vs0mg"},{"bike_id":"e3c6399d-b2a8-46bb-92d8-89ae30f82186","system_id":"levelo_inurba_marseille","lat":43.25581,"lon":5.38227,"is_reserved":false,"is_disabled":true,"rental_uris":{"android":"levelo://app?vid=e3c6399d-b2a8-46bb-92d8-89ae30f82186","ios":"levelo://app?vid=e3c6399d-b2a8-46bb-92d8-89ae30f82186"},"vehicle_type_id":"4","last_reported":1738678105,"current_range_meters":0,"station_id":"ce4bhih2rcd13ifvqfs0","pricing_plan_id":"cebpf4jnsgd1na2vs0mg"},{"bike_id":"6f5a1112-5cfe-4ef0-a162-b9d7e241b871","system_id":"levelo_inurba_marseille","lat":43.3052,"lon":5.36681,"is_reserved":false,"is_disabled":false,"rental_uris":{"android":"levelo://app?vid=6f5a1112-5cfe-4ef0-a162-b9d7e241b871","ios":"levelo://app?vid=6f5a1112-5cfe-4ef0-a162-b9d7e241b871"},"vehicle_type_id":"4","last_reported":1738678105,"current_range_meters":37600,"station_id":"ce4bgrp2rcd13ifvqc9g","pricing_plan_id":"cebpf4jnsgd1na2vs0mg"},{"bike_id":"7abb2d48-2f13-4d6d-991f-410034d4efbb","system_id":"levelo_inurba_marseille","lat":43.30279,"lon":5.37699,"is_reserved":false,"is_disabled":false,"rental_uris":{"android":"levelo://app?vid=7abb2d48-2f13-4d6d-991f-410034d4efbb","ios":"levelo://app?vid=7abb2d48-2f13-4d6d-991f-410034d4efbb"},"vehicle_type_id":"4","last_reported":1738678105,"current_range_meters":33600,"station_id":"ce4bguh2rcd13ifvqcj0","pricing_plan_id":"cebpf4jnsgd1na2vs0mg"},{"bike_id":"f6f9c5d7-fee9-4b06-9191-c33f8cd66530","system_id":"levelo_inurba_marseille","lat":43.275642,"lon":5.384312,"is_reserved":false,"is_disabled":false,"rental_uris":{"android":"levelo://app?vid=f6f9c5d7-fee9-4b06-9191-c33f8cd66530","ios":"levelo://app?vid=f6f9c5d7-fee9-4b06-9191-c33f8cd66530"},"vehicle_type_id":"4","last_reported":1738678105,"current_range_meters":9200,"station_id":"ce4bhh92rcd13ifvqfi0","pricing_plan_id":"cebpf4jnsgd1na2vs0mg"},{"bike_id":"eac8e106-76e0-4f1b-81af-4eaefecd2501","system_id":"levelo_inurba_marseille","lat":43.25019,"lon":5.38924,"is_reserved":false,"is_disabled":false,"rental_uris":{"android":"levelo://app?vid=eac8e106-76e0-4f1b-81af-4eaefecd2501","ios":"levelo://app?vid=eac8e106-76e0-4f1b-81af-4eaefecd2501"},"vehicle_type_id":"4","last_reported":1738678105,"current_range_meters":16000,"station_id":"ce4bhgp2rcd13ifvqfd0","pricing_plan_id":"cebpf4jnsgd1na2vs0mg"},{"bike_id":"e8c0d652-28f3-4f82-b6bb-9e11ae34bf36","system_id":"levelo_inurba_marseille","lat":43.3057,"lon":5.36537,"is_reserved":false,"is_disabled":false,"rental_uris":{"android":"levelo://app?vid=e8c0d652-28f3-4f82-b6bb-9e11ae34bf36","ios":"levelo://app?vid=e8c0d652-28f3-4f82-b6bb-9e11ae34bf36"},"vehicle_type_id":"4","last_reported":1738678105,"current_range_meters":30000,"station_id":"ce4bgs12rcd13ifvqcag","pricing_plan_id":"cebpf4jnsgd1na2vs0mg"},{"bike_id":"ba537e52-b6a4-4fb8-962a-acb6382a42d6","system_id":"levelo_inurba_marseille","lat":43.29797,"lon":5.38094,"is_reserved":false,"is_disabled":false,"rental_uris":{"android":"levelo://app?vid=ba537e52-b6a4-4fb8-962a-acb6382a42d6","ios":"levelo://app?vid=ba537e52-b6a4-4fb8-962a-acb6382a42d6"},"vehicle_type_id":"4","last_reported":1738678105,"current_range_meters":26800,"station_id":"ce4bgip2rcd13ifvqbb0","pricing_plan_id":"cebpf4jnsgd1na2vs0mg"},{"bike_id":"5d854341-693a-4482-8cbe-e11dc185dc60","system_id":"levelo_inurba_marseille","lat":43.30153,"lon":5.39878,"is_reserved":false,"is_disabled":false,"rental_uris":{"android":"levelo://app?vid=5d854341-693a-4482-8cbe-e11dc185dc60","ios":"levelo://app?vid=5d854341-693a-4482-8cbe-e11dc185dc60"},"vehicle_type_id":"4","last_reported":1738678105,"current_range_meters":36400,"station_id":"ce4bh0h2rcd13ifvqd40","pricing_plan_id":"cebpf4jnsgd1na2vs0mg"},{"bike_id":"d4ffe583-ef40-47b9-8ba7-967cd30d3ef2","system_id":"levelo_inurba_marseille","lat":43.28834,"lon":5.3586,"is_reserved":false,"is_disabled":false,"rental_uris":{"android":"levelo://app?vid=d4ffe583-ef40-47b9-8ba7-967cd30d3ef2","ios":"levelo://app?vid=d4ffe583-ef40-47b9-8ba7-967cd30d3ef2"},"vehicle_type_id":"4","last_reported":1738678105,"current_range_meters":37600,"station_id":"ce4bhb12rcd13ifvqem0","pricing_plan_id":"cebpf4jnsgd1na2vs0mg"},{"bike_id":"ca323e49-2dde-48c0-826a-4601a6d26e60","system_id":"levelo_inurba_marseille","lat":43.27621,"lon":5.36118,"is_reserved":false,"is_disabled":false,"rental_uris":{"android":"levelo://app?vid=ca323e49-2dde-48c0-826a-4601a6d26e60","ios":"levelo://app?vid=ca323e49-2dde-48c0-826a-4601a6d26e60"},"vehicle_type_id":"4","last_reported":1738678105,"current_range_meters":38800,"station_id":"ce4bgj92rcd13ifvqbe0","pricing_plan_id":"cebpf4jnsgd1na2vs0mg"},{"bike_id":"61ceb31b-03f6-4213-9b34-0374ee45b479","system_id":"levelo_inurba_marseille","lat":43.32107,"lon":5.36773,"is_reserved":false,"is_disabled":false,"rental_uris":{"android":"levelo://app?vid=61ceb31b-03f6-4213-9b34-0374ee45b479","ios":"levelo://app?vid=61ceb31b-03f6-4213-9b34-0374ee45b479"},"vehicle_type_id":"4","last_reported":1738678105,"current_range_meters":24800,"station_id":"ce4bhrh2rcd13ifvqhug","pricing_plan_id":"cebpf4jnsgd1na2vs0mg"},{"bike_id":"841f4406-cdff-4b3f-8ab5-ee007941dd38","system_id":"levelo_inurba_marseille","lat":43.2895,"lon":5.36395,"is_reserved":false,"is_disabled":false,"rental_uris":{"android":"levelo://app?vid=841f4406-cdff-4b3f-8ab5-ee007941dd38","ios":"levelo://app?vid=841f4406-cdff-4b3f-8ab5-ee007941dd38"},"vehicle_type_id":"4","last_reported":1738678105,"current_range_meters":36000,"station_id":"ce4bhc92rcd13ifvqetg","pricing_plan_id":"cebpf4jnsgd1na2vs0mg"},{"bike_id":"5bc6287f-5ed6-4b7e-a064-4a574b583e66","system_id":"levelo_inurba_marseille","lat":43.30143,"lon":5.37423,"is_reserved":false,"is_disabled":false,"rental_uris":{"android":"levelo://app?vid=5bc6287f-5ed6-4b7e-a064-4a574b583e66","ios":"levelo://app?vid=5bc6287f-5ed6-4b7e-a064-4a574b583e66"},"vehicle_type_id":"4","last_reported":1738678105,"current_range_meters":26800,"station_id":"ce4bgs92rcd13ifvqcc0","pricing_plan_id":"cebpf4jnsgd1na2vs0mg"},{"bike_id":"45558e41-2602-4f88-886b-86eaba41d2ae","system_id":"levelo_inurba_marseille","lat":43.30203,"lon":5.3947,"is_reserved":false,"is_disabled":false,"rental_uris":{"android":"levelo://app?vid=45558e41-2602-4f88-886b-86eaba41d2ae","ios":"levelo://app?vid=45558e41-2602-4f88-886b-86eaba41d2ae"},"vehicle_type_id":"4","last_reported":1738678105,"current_range_meters":38800,"station_id":"ce4bh0p2rcd13ifvqd70","pricing_plan_id":"cebpf4jnsgd1na2vs0mg"},{"bike_id":"aca7f856-95b0-4e97-8a0a-cf9d567272bd","system_id":"levelo_inurba_marseille","lat":43.23059,"lon":5.35484,"is_reserved":false,"is_disabled":false,"rental_uris":{"android":"levelo://app?vid=aca7f856-95b0-4e97-8a0a-cf9d567272bd","ios":"levelo://app?vid=aca7f856-95b0-4e97-8a0a-cf9d567272bd"},"vehicle_type_id":"4","last_reported":1738678105,"current_range_meters":33600,"station_id":"cpo3342slgdg3j2ifvpg","pricing_plan_id":"cebpf4jnsgd1na2vs0mg"},{"bike_id":"66ad8793-4f95-45a0-a366-f3e0edeffe23","system_id":"levelo_inurba_marseille","lat":43.29199,"lon":5.35803,"is_reserved":false,"is_disabled":false,"rental_uris":{"android":"levelo://app?vid=66ad8793-4f95-45a0-a366-f3e0edeffe23","ios":"levelo://app?vid=66ad8793-4f95-45a0-a366-f3e0edeffe23"},"vehicle_type_id":"4","last_reported":1738678105,"current_range_meters":39200,"station_id":"ce4bhb12rcd13ifvqel0","pricing_plan_id":"cebpf4jnsgd1na2vs0mg"},{"bike_id":"e5f34f7c-c503-40c2-aeb7-a92c676b8443","system_id":"levelo_inurba_marseille","lat":43.28707,"lon":5.39985,"is_reserved":false,"is_disabled":true,"rental_uris":{"android":"levelo://app?vid=e5f34f7c-c503-40c2-aeb7-a92c676b8443","ios":"levelo://app?vid=e5f34f7c-c503-40c2-aeb7-a92c676b8443"},"vehicle_type_id":"4","last_reported":1738678105,"current_range_meters":0,"station_id":"ce4bho92rcd13ifvqh3g","pricing_plan_id":"cebpf4jnsgd1na2vs0mg"},{"bike_id":"06b948e0-80a8-479d-b506-6c0e8883522c","system_id":"levelo_inurba_marseille","lat":43.30538,"lon":5.36694,"is_reserved":false,"is_disabled":false,"rental_uris":{"android":"levelo://app?vid=06b948e0-80a8-479d-b506-6c0e8883522c","ios":"levelo://app?vid=06b948e0-80a8-479d-b506-6c0e8883522c"},"vehicle_type_id":"4","last_reported":1738678105,"current_range_meters":36800,"station_id":"ce4bgrp2rcd13ifvqc9g","pricing_plan_id":"cebpf4jnsgd1na2vs0mg"},{"bike_id":"982759eb-b654-4e86-8e5f-84ccdf0fd4f4","system_id":"levelo_inurba_marseille","lat":43.308,"lon":5.37653,"is_reserved":false,"is_disabled":false,"rental_uris":{"android":"levelo://app?vid=982759eb-b654-4e86-8e5f-84ccdf0fd4f4","ios":"levelo://app?vid=982759eb-b654-4e86-8e5f-84ccdf0fd4f4"},"vehicle_type_id":"4","last_reported":1738678105,"current_range_meters":38800,"station_id":"ce4bgv92rcd13ifvqcq0","pricing_plan_id":"cebpf4jnsgd1na2vs0mg"},{"bike_id":"41fc22b2-e4a5-4bf7-8b06-f43e582920bd","system_id":"levelo_inurba_marseille","lat":43.29626,"lon":5.3773,"is_reserved":false,"is_disabled":false,"rental_uris":{"android":"levelo://app?vid=41fc22b2-e4a5-4bf7-8b06-f43e582920bd","ios":"levelo://app?vid=41fc22b2-e4a5-4bf7-8b06-f43e582920bd"},"vehicle_type_id":"4","last_reported":1738678105,"current_range_meters":38000,"station_id":"ce4bgi92rcd13ifvqb90","pricing_plan_id":"cebpf4jnsgd1na2vs0mg"},{"bike_id":"f22ab9c4-4472-465c-9846-9bcae534d3af","system_id":"levelo_inurba_marseille","lat":43.32332,"lon":5.36693,"is_reserved":false,"is_disabled":false,"rental_uris":{"android":"levelo://app?vid=f22ab9c4-4472-465c-9846-9bcae534d3af","ios":"levelo://app?vid=f22ab9c4-4472-465c-9846-9bcae534d3af"},"vehicle_type_id":"4","last_reported":1738678105,"current_range_meters":30000,"station_id":"ce4bhsh2rcd13ifvqi2g","pricing_plan_id":"cebpf4jnsgd1na2vs0mg"},{"bike_id":"c51d39ba-4b67-43e5-88d6-3fc25608739e","system_id":"levelo_inurba_marseille","lat":43.28423,"lon":5.34998,"is_reserved":false,"is_disabled":false,"rental_uris":{"android":"levelo://app?vid=c51d39ba-4b67-43e5-88d6-3fc25608739e","ios":"levelo://app?vid=c51d39ba-4b67-43e5-88d6-3fc25608739e"},"vehicle_type_id":"4","last_reported":1738678105,"current_range_meters":23200,"station_id":"ce4bhbh2rcd13ifvqepg","pricing_plan_id":"cebpf4jnsgd1na2vs0mg"},