{"last_updated":1736943416,"ttl":60,"version":"2.2","data":{"bikes":[{"bike_id":"cf61a128-7154-4627-99f7-ea8283c4a30b","system_id":"levelo_inurba_marseille","lat":43.28726,"lon":5.37939,"is_reserved":false,"is_disabled":false,"rental_uris":{"android":"levelo://app?vid=cf61a128-7154-4627-99f7-ea8283c4a30b","ios":"levelo://app?vid=cf61a128-7154-4627-99f7-ea8283c4a30b"},"vehicle_type_id":"4","last_reported":1736943416,"current_range_meters":30400,"station_id":"ce4bh9p2rcd13ifvqec0","pricing_plan_id":"cebpf4jnsgd1na2vs0mg"},{"bike_id":"8950994e-141b-4c16-ae82-ef1e6827f7d4","system_id":"levelo_inurba_marseille","lat":43.27814,"lon":5.40718,"is_reserved":false,"is_disabled":true,"rental_uris":{"android":"levelo://app?vid=8950994e-141b-4c16-ae82-ef1e6827f7d4","ios":"levelo://app?vid=8950994e-141b-4c16-ae82-ef1e6827f7d4"},"vehicle_type_id":"4","last_reported":1736943416,"current_range_meters":1200,"station_id":"ce4bhnh2rcd13ifvqgtg","pricing_plan_id":"cebpf4jnsgd1na2vs0mg"},{"bike_id":"7a72545f-9a71-4607-8efa-50a109de5e77","system_id":"levelo_inurba_marseille","lat":43.28403,"lon":5.37502,"is_reserved":false,"is_disabled":false,"rental_uris":{"android":"levelo://app?vid=7a72545f-9a71-4607-8efa-50a109de5e77","ios":"levelo://app?vid=7a72545f-9a71-4607-8efa-50a109de5e77"},"vehicle_type_id":"4","last_reported":1736943416,"current_range_meters":11200,"station_id":"ce4bh412rcd13ifvqds0","pricing_plan_id":"cebpf4jnsgd1na2vs0mg"},{"bike_id":"718c9118-aa38-4068-ab28-25c5d78b6f1e","system_id":"levelo_inurba_marseille","lat":43.337563,"lon":5.374573,"is_reserved":false,"is_disabled":false,"rental_uris":{"android":"levelo://app?vid=718c9118-aa38-4068-ab28-25c5d78b6f1e","ios":"levelo://app?vid=718c9118-aa38-4068-ab28-25c5d78b6f1e"},"vehicle_type_id":"4","last_reported":1736943416,"current_range_meters":36000,"station_id":"","pricing_plan_id":"cebpf4jnsgd1na2vs0mg"},{"bike_id":"46cd3a02-8b2f-4b2e-a52d-372b2e1329e8","system_id":"levelo_inurba_marseille","lat":43.29053,"lon":5.35912,"is_reserved":false,"is_disabled":false,"rental_uris":{"android":"levelo://app?vid=46cd3a02-8b2f-4b2e-a52d-372b2e1329e8","ios":"levelo://app?vid=46cd3a02-8b2f-4b2e-a52d-372b2e1329e8"},"vehicle_type_id":"4","last_reported":1736943416,"current_range_meters":30800,"station_id":"ce4bha92rcd13ifvqeg0","pricing_plan_id":"cebpf4jnsgd1na2vs0mg"},{"bike_id":"3bfa0ac1-21fc-4cf0-8611-33fa510f902d","system_id":"levelo_inurba_marseille","lat":43.24171,"lon":5.36408,"is_reserved":false,"is_disabled":false,"rental_uris":{"android":"levelo://app?vid=3bfa0ac1-21fc-4cf0-8611-33fa510f902d","ios":"levelo://app?vid=3bfa0ac1-21fc-4cf0-8611-33fa510f902d"},"vehicle_type_id":"4","last_reported":1736943416,"current_range_meters":9600,"station_id":"cpo36qri1sfpv3e86is0","pricing_plan_id":"cebpf4jnsgd1na2vs0mg"},{"bike_id":"459eda55-c02d-48e5-b482-24c6e37a8793","system_id":"levelo_inurba_marseille","lat":43.28468,"lon":5.39194,"is_reserved":false,"is_disabled":true,"rental_uris":{"android":"levelo://app?vid=459eda55-c02d-48e5-b482-24c6e37a8793","ios":"levelo://app?vid=459eda55-c02d-48e5-b482-24c6e37a8793"},"vehicle_type_id":"4","last_reported":1736943416,"current_range_meters":11200,"station_id":"ce4bhoh2rcd13ifvqh5g","pricing_plan_id":"cebpf4jnsgd1na2vs0mg"},{"bike_id":"89fcc9a4-94e9-40fd-96bc-65298ed41a65","system_id":"levelo_inurba_marseille","lat":43.325,"lon":5.39473,"is_reserved":false,"is_disabled":false,"rental_uris":{"android":"levelo://app?vid=89fcc9a4-94e9-40fd-96bc-65298ed41a65","ios":"levelo://app?vid=89fcc9a4-94e9-40fd-96bc-65298ed41a65"},"vehicle_type_id":"4","last_reported":1736943416,"current_range_meters":34000,"station_id":"","pricing_plan_id":"cebpf4jnsgd1na2vs0mg"},{"bike_id":"878534d1-15c7-4a7c-a66c-98476ebcd35b","system_id":"levelo_inurba_marseille","lat":43.30431,"lon":5.38889,"is_reserved":false,"is_disabled":false,"rental_uris":{"android":"levelo://app?vid=878534d1-15c7-4a7c-a66c-98476ebcd35b","ios":"levelo://app?vid=878534d1-15c7-4a7c-a66c-98476ebcd35b"},"vehicle_type_id":"4","last_reported":1736943416,"current_range_meters":8400,"station_id":"ce4bgk12rcd13ifvqbi0","pricing_plan_id":"cebpf4jnsgd1na2vs0mg"},{"bike_id":"0e30ba35-2371-403c-8514-2c5732b01080","system_id":"levelo_inurba_marseille","lat":43.27323,"lon":5.39128,"is_reserved":false,"is_disabled":false,"rental_uris":{"android":"levelo://app?vid=0e30ba35-2371-403c-8514-2c5732b01080","ios":"levelo://app?vid=0e30ba35-2371-403c-8514-2c5732b01080"},"vehicle_type_id":"4","last_reported":1736943416,"current_range_meters":26000,"station_id":"ce4bhgp2rcd13ifvqfe0","pricing_plan_id":"cebpf4jnsgd1na2vs0mg"},{"bike_id":"f0504886-b52f-4e05-be73-582259b14a46","system_id":"levelo_inurba_marseille","lat":43.25502,"lon":5.37651,"is_reserved":false,"is_disabled":false,"rental_uris":{"android":"levelo://app?vid=f0504886-b52f-4e05-be73-582259b14a46","ios":"levelo://app?vid=f0504886-b52f-4e05-be73-582259b14a46"},"vehicle_type_id":"4","last_reported":1736943416,"current_range_meters":4000,"station_id":"ce4bhh12rcd13ifvqff0","pricing_plan_id":"cebpf4jnsgd1na2vs0mg"},{"bike_id":"97903855-f25c-43cc-b88c-126a24e533ad","system_id":"levelo_inurba_marseille","lat":43.29,"lon":5.35616,"is_reserved":false,"is_disabled":false,"rental_uris":{"android":"levelo://app?vid=97903855-f25c-43cc-b88c-126a24e533ad","ios":"levelo://app?vid=97903855-f25c-43cc-b88c-126a24e533ad"},"vehicle_type_id":"4","last_reported":1736943416,"current_range_meters":39200,"station_id":"ce4bhb92rcd13ifvqen0","pricing_plan_id":"cebpf4jnsgd1na2vs0mg"},{"bike_id":"5bb5758f-37be-496e-ac0a-3712e6b43125","system_id":"levelo_inurba_marseille","lat":43.26215,"lon":5.37928,"is_reserved":false,"is_disabled":false,"rental_uris":{"android":"levelo://app?vid=5bb5758f-37be-496e-ac0a-3712e6b43125","ios":"levelo://app?vid=5bb5758f-37be-496e-ac0a-3712e6b43125"},"vehicle_type_id":"4","last_reported":1736943416,"current_range_meters":38800,"station_id":"ce4bhjp2rcd13ifvqg90","pricing_plan_id":"cebpf4jnsgd1na2vs0mg"},{"bike_id":"4fa358ca-b741-467a-a03f-b8033021b471","system_id":"levelo_inurba_marseille","lat":43.337571,"lon":5.374567,"is_reserved":false,"is_disabled":false,"rental_uris":{"android":"levelo://app?vid=4fa358ca-b741-467a-a03f-b8033021b471","ios":"levelo://app?vid=4fa358ca-b741-467a-a03f-b8033021b471"},"vehicle_type_id":"4","last_reported":1736943416,"current_range_meters":36800,"station_id":"","pricing_plan_id":"cebpf4jnsgd1na2vs0mg"},{"bike_id":"6c72276d-8e89-4c2f-8150-2735b7561b95","system_id":"levelo_inurba_marseille","lat":43.2751,"lon":5.42456,"is_reserved":false,"is_disabled":true,"rental_uris":{"android":"levelo://app?vid=6c72276d-8e89-4c2f-8150-2735b7561b95","ios":"levelo://app?vid=6c72276d-8e89-4c2f-8150-2735b7561b95"},"vehicle_type_id":"4","last_reported":1736943416,"current_range_meters":0,"station_id":"ce4bhn92rcd13ifvqgrg","pricing_plan_id":"cebpf4jnsgd1na2vs0mg"},{"bike_id":"989f84fa-3f19-457c-ad4d-d9116d78d499","system_id":"levelo_inurba_marseille","lat":43.29922,"lon":5.37476,"is_reserved":false,"is_disabled":false,"rental_uris":{"android":"levelo://app?vid=989f84fa-3f19-457c-ad4d-d9116d78d499","ios":"levelo://app?vid=989f84fa-3f19-457c-ad4d-d9116d78d499"},"vehicle_type_id":"4","last_reported":1736943416,"current_range_meters":12000,"station_id":"ce4bgjh2rcd13ifvqbg0","pricing_plan_id":"cebpf4jnsgd1na2vs0mg"},{"bike_id":"04ca7d58-6107-4c23-b020-0d87521c21e5","system_id":"levelo_inurba_marseille","lat":43.29192,"lon":5.35817,"is_reserved":false,"is_disabled":false,"rental_uris":{"android":"levelo://app?vid=04ca7d58-6107-4c23-b020-0d87521c21e5","ios":"levelo://app?vid=04ca7d58-6107-4c23-b020-0d87521c21e5"},"vehicle_type_id":"4","last_reported":1736943416,"current_range_meters":38800,"station_id":"ce4bhb12rcd13ifvqel0","pricing_plan_id":"cebpf4jnsgd1na2vs0mg"},{"bike_id":"6cf1ef65-b448-4034-8c81-a102abe157e0","system_id":"levelo_inurba_marseille","lat":43.29728,"lon":5.3767,"is_reserved":false,"is_disabled":false,"rental_uris":{"android":"levelo://app?vid=6cf1ef65-b448-4034-8c81-a102abe157e0","ios":"levelo://app?vid=6cf1ef65-b448-4034-8c81-a102abe157e0"},"vehicle_type_id":"4","last_reported":1736943416,"current_range_meters":34000,"station_id":"ce4bgkh2rcd13ifvqbl0","pricing_plan_id":"cebpf4jnsgd1na2vs0mg"},{"bike_id":"820401aa-6b5d-445d-88d7-5c01350bb21e","system_id":"levelo_inurba_marseille","lat":43.2973,"lon":5.37692,"is_reserved":false,"is_disabled":false,"rental_uris":{"android":"levelo://app?vid=820401aa-6b5d-445d-88d7-5c01350bb21e","ios":"levelo://app?vid=820401aa-6b5d-445d-88d7-5c01350bb21e"},"vehicle_type_id":"4","last_reported":1736943416,"current_range_meters":37600,"station_id":"ce4bgkh2rcd13ifvqbl0","pricing_plan_id":"cebpf4jnsgd1na2vs0mg"},{"bike_id":"b336eecc-71fb-4827-b601-9992e4d0e91e","system_id":"levelo_inurba_marseille","lat":43.30305,"lon":5.36904,"is_reserved":false,"is_disabled":false,"rental_uris":{"android":"levelo://app?vid=b336eecc-71fb-4827-b601-9992e4d0e91e","ios":"levelo://app?vid=b336eecc-71fb-4827-b601-9992e4d0e91e"},"vehicle_type_id":"4","last_reported":1736943416,"current_range_meters":38800,"station_id":"ce4bgqh2rcd13ifvqc5g","pricing_plan_id":"cebpf4jnsgd1na2vs0mg"},{"bike_id":"1546f697-d82b-4e5d-a850-a9023302096e","system_id":"levelo_inurba_marseille","lat":43.25014,"lon":5.38934,"is_reserved":false,"is_disabled":false,"rental_uris":{"android":"levelo://app?vid=1546f697-d82b-4e5d-a850-a9023302096e","ios":"levelo://app?vid=1546f697-d82b-4e5d-a850-a9023302096e"},"vehicle_type_id":"4","last_reported":1736943416,"current_range_meters":38800,"station_id":"ce4bhgp2rcd13ifvqfd0","pricing_plan_id":"cebpf4jnsgd1na2vs0mg"},{"bike_id":"af2f813c-ac38-467d-8db3-9626511a69c0","system_id":"levelo_inurba_marseille","lat":43.29825,"lon":5.39721,"is_reserved":false,"is_disabled":false,"rental_uris":{"android":"levelo://app?vid=af2f813c-ac38-467d-8db3-9626511a69c0","ios":"levelo://app?vid=af2f813c-ac38-467d-8db3-9626511a69c0"},"vehicle_type_id":"4","last_reported":1736943416,"current_range_meters":33600,"station_id":"ce4bgup2rcd13ifvqco0","pricing_plan_id":"cebpf4jnsgd1na2vs0mg"},{"bike_id":"a05bd889-5f47-4435-a653-f868055678ed","system_id":"levelo_inurba_marseille","lat":43.25005,"lon":5.38932,"is_reserved":false,"is_disabled":false,"rental_uris":{"android":"levelo://app?vid=a05bd889-5f47-4435-a653-f868055678ed","ios":"levelo://app?vid=a05bd889-5f47-4435-a653-f868055678ed"},"vehicle_type_id":"4","last_reported":1736943416,"current_range_meters":27600,"station_id":"ce4bhgp2rcd13ifvqfd0","pricing_plan_id":"cebpf4jnsgd1na2vs0mg"},{"bike_id":"5dc3dd3e-37d2-4dd0-b33d-d2f8ed1e3625","system_id":"levelo_inurba_marseille","lat":43.2594,"lon":5.40915,"is_reserved":false,"is_disabled":false,"rental_uris":{"android":"levelo://app?vid=5dc3dd3e-37d2-4dd0-b33d-d2f8ed1e3625","ios":"levelo://app?vid=5dc3dd3e-37d2-4dd0-b33d-d2f8ed1e3625"},"vehicle_type_id":"4","last_reported":1736943416,"current_range_meters":7200,"station_id":"ce4bhm92rcd13ifvqglg","pricing_plan_id":"cebpf4jnsgd1na2vs0mg"},{"bike_id":"5dc6373f-d02a-4f47-afad-7fc7817b37be","system_id":"levelo_inurba_marseille","lat":43.26787,"lon":5.39411,"is_reserved":false,"is_disabled":false,"rental_uris":{"android":"levelo://app?vid=5dc6373f-d02a-4f47-afad-7fc7817b37be","ios":"levelo://app?vid=5dc6373f-d02a-4f47-afad-7fc7817b37be"},"vehicle_type_id":"4","last_reported":1736943416,"current_range_meters":16000,"station_id":"ce4bhh12rcd13ifvqfg0","pricing_plan_id":"cebpf4jnsgd1na2vs0mg"},{"bike_id":"ae5947c9-e1d7-47d4-aa65-2a6be661e306","system_id":"levelo_inurba_marseille","lat":43.25946,"lon":5.4082,"is_reserved":false,"is_disabled":false,"rental_uris":{"android":"levelo://app?vid=ae5947c9-e1d7-47d4-aa65-2a6be661e306","ios":"levelo://app?vid=ae5947c9-e1d7-47d4-aa65-2a6be661e306"},"vehicle_type_id":"4","last_reported":1736943416,"current_range_meters":30400,"station_id":"ce4bhm92rcd13ifvqglg","pricing_plan_id":"cebpf4jnsgd1na2vs0mg"},{"bike_id":"6451e2ed-7def-45ea-94da-bf390bc8af85","system_id":"levelo_inurba_marseille","lat":43.25008,"lon":5.38932,"is_reserved":false,"is_disabled":false,"rental_uris":{"android":"levelo://app?vid=6451e2ed-7def-45ea-94da-bf390bc8af85","ios":"levelo://app?vid=6451e2ed-7def-45ea-94da-bf390bc8af85"},"vehicle_type_id":"4","last_reported":1736943416,"current_range_meters":30400,"station_id":"ce4bhgp2rcd13ifvqfd0","pricing_plan_id":"cebpf4jnsgd1na2vs0mg"},{"bike_id":"8407a36e-c4a3-4734-83db-62091b367019","system_id":"levelo_inurba_marseille","lat":43.32645,"lon":5.40987,"is_reserved":false,"is_disabled":false,"rental_uris":{"android":"levelo://app?vid=8407a36e-c4a3-4734-83db-62091b367019","ios":"levelo://app?vid=8407a36e-c4a3-4734-83db-62091b367019"},"vehicle_type_id":"4","last_reported":1736943416,"current_range_meters":27600,"station_id":"ce4bhpp2rcd13ifvqhgg","pricing_plan_id":"cebpf4jnsgd1na2vs0mg"},{"bike_id":"cbdd97a4-499e-4a2f-9aef-de63b1e35fd4","system_id":"levelo_inurba_marseille","lat":43.23153,"lon":5.43736,"is_reserved":false,"is_disabled":false,"rental_uris":{"android":"levelo://app?vid=cbdd97a4-499e-4a2f-9aef-de63b1e35fd4","ios":"levelo://app?vid=cbdd97a4-499e-4a2f-9aef-de63b1e35fd4"},"vehicle_type_id":"4","last_reported":1736943416,"current_range_meters":8800,"station_id":"ce4bhmp2rcd13ifvqgog","pricing_plan_id":"cebpf4jnsgd1na2vs0mg"},{"bike_id":"b544ab56-db1f-459e-a299-93f0621b7554","system_id":"levelo_inurba_marseille","lat":43.26559,"lon":5.37282,"is_reserved":false,"is_disabled":false,"rental_uris":{"android":"levelo://app?vid=b544ab56-db1f-459e-a299-93f0621b7554","ios":"levelo://app?vid=b544ab56-db1f-459e-a299-93f0621b7554"},"vehicle_type_id":"4","last_reported":1736943416,"current_range_meters":28000,"station_id":"ce4bhg12rcd13ifvqf70","pricing_plan_id":"cebpf4jnsgd1na2vs0mg"},{"bike_id":"f3bd38ac-eea2-480d-a878-4e088a2d97b2","system_id":"levelo_inurba_marseille","lat":43.27945,"lon":5.41062,"is_reserved":false,"is_disabled":false,"rental_uris":{"android":"levelo://app?vid=f3bd38ac-eea2-480d-a878-4e088a2d97b2","ios":"levelo://app?vid=f3bd38ac-eea2-480d-a878-4e088a2d97b2"},"vehicle_type_id":"4","last_reported":1736943416,"current_range_meters":7200,"station_id":"ce4bhnp2rcd13ifvqh0g","pricing_plan_id":"cebpf4jnsgd1na2vs0mg"},{"bike_id":"b5b35795-e161-424f-b97b-0ae8d9b8c970","system_id":"levelo_inurba_marseille","lat":43.2956,"lon":5.42331,"is_reserved":false,"is_disabled":false,"rental_uris":{"android":"levelo://app?vid=b5b35795-e161-424f-b97b-0ae8d9b8c970","ios":"levelo://app?vid=b5b35795-e161-424f-b97b-0ae8d9b8c970"},"vehicle_type_id":"4","last_reported":1736943416,"current_range_meters":38800,"station_id":"ce4bhph2rcd13ifvqhdg","pricing_plan_id":"cebpf4jnsgd1na2vs0mg"},{"bike_id":"a402044d-1041-4786-a63f-9d18af3bc82f","system_id":"levelo_inurba_marseille","lat":43.24185,"lon":5.36392,"is_reserved":false,"is_disabled":false,"rental_uris":{"android":"levelo://app?vid=a402044d-1041-4786-a63f-9d18af3bc82f","ios":"levelo://app?vid=a402044d-1041-4786-a63f-9d18af3bc82f"},"vehicle_type_id":"4","last_reported":1736943416,"current_range_meters":36800,"station_id":"cpo36qri1sfpv3e86is0","pricing_plan_id":"cebpf4jnsgd1na2vs0mg"},{"bike_id":"0a894bfa-7c41-4e7a-92e0-afeaf0790304","system_id":"levelo_inurba_marseille","lat":43.34142,"lon":5.40905,"is_reserved":false,"is_disabled":false,"rental_uris":{"android":"levelo://app?vid=0a894bfa-7c41-4e7a-92e0-afeaf0790304","ios":"levelo://app?vid=0a894bfa-7c41-4e7a-92e0-afeaf0790304"},"vehicle_type_id":"4","last_reported":1736943416,"current_range_meters":6000,"station_id":"ce4bhqh2rcd13ifvqhlg","pricing_plan_id":"cebpf4jnsgd1na2vs0mg"},{"bike_id":"c8334207-f5c0-442a-8167-934adbff4575","system_id":"levelo_inurba_marseille","lat":43.250837,"lon":5.395203,"is_reserved":false,"is_disabled":false,"rental_uris":{"android":"levelo://app?vid=c8334207-f5c0-442a-8167-934adbff4575","ios":"levelo://app?vid=c8334207-f5c0-442a-8167-934adbff4575"},"vehicle_type_id":"4","last_reported":1736943416,"current_range_meters":17200,"station_id":"ce4bhm12rcd13ifvqgkg","pricing_plan_id":"cebpf4jnsgd1na2vs0mg"},{"bike_id":"902edfe6-251a-49fc-8548-2023567b8c62","system_id":"levelo_inurba_marseille","lat":43.30276,"lon":5.36906,"is_reserved":false,"is_disabled":false,"rental_uris":{"android":"levelo://app?vid=902edfe6-251a-49fc-8548-2023567b8c62","ios":"levelo://app?vid=902edfe6-251a-49fc-8548-2023567b8c62"},"vehicle_type_id":"4","last_reported":1736943416,"current_range_meters":38800,"station_id":"ce4bgqh2rcd13ifvqc5g","pricing_plan_id":"cebpf4jnsgd1na2vs0mg"},{"bike_id":"4e98bc14-30bb-4b0d-977c-6476716423cb","system_id":"levelo_inurba_marseille","lat":43.31176,"lon":5.38707,"is_reserved":false,"is_disabled":false,"rental_uris":{"android":"levelo://app?vid=4e98bc14-30bb-4b0d-977c-6476716423cb","ios":"levelo://app?vid=4e98bc14-30bb-4b0d-977c-6476716423cb"},"vehicle_type_id":"4","last_reported":1736943416,"current_range_meters":38400,"station_id":"ce4bgv12rcd13ifvqcp0","pricing_plan_id":"cebpf4jnsgd1na2vs0mg"},{"bike_id":"c8e997c0-8580-4d0f-8d9f-0766596381e1","system_id":"levelo_inurba_marseille","lat":43.33918,"lon":5.37562,"is_reserved":false,"is_disabled":true,"rental_uris":{"android":"levelo://app?vid=c8e997c0-8580-4d0f-8d9f-0766596381e1","ios":"levelo://app?vid=c8e997c0-8580-4d0f-8d9f-0766596381e1"},"vehicle_type_id":"4","last_reported":1736943416,"current_range_meters":0,"station_id":"","pricing_plan_id":"cebpf4jnsgd1na2vs0mg"},{"bike_id":"acc23c47-025b-4391-bcf7-d2065d1113b4","system_id":"levelo_inurba_marseille","lat":43.29785,"lon":5.37085,"is_reserved":false,"is_disabled":false,"rental_uris":{"android":"levelo://app?vid=acc23c47-025b-4391-bcf7-d2065d1113b4","ios":"levelo://app?vid=acc23c47-025b-4391-bcf7-d2065d1113b4"},"vehicle_type_id":"4","last_reported":1736943416,"current_range_meters":24400,"station_id":"ce4bgop2rcd13ifvqc1g","pricing_plan_id":"cebpf4jnsgd1na2vs0mg"},{"bike_id":"bd5da2b9-821b-4856-906f-02c1d137a6a3","system_id":"levelo_inurba_marseille","lat":43.32663,"lon":5.40987,"is_reserved":false,"is_disabled":false,"rental_uris":{"android":"levelo://app?vid=bd5da2b9-821b-4856-906f-02c1d137a6a3","ios":"levelo://app?vid=bd5da2b9-821b-4856-906f-02c1d137a6a3"},"vehicle_type_id":"4","last_reported":1736943416,"current_range_meters":37600,"station_id":"ce4bhpp2rcd13ifvqhgg","pricing_plan_id":"cebpf4jnsgd1na2vs0mg"},{"bike_id":"a5ecd0d8-5bb0-4305-b746-ec5c7edf2618","system_id":"levelo_inurba_marseille","lat":43.30593,"lon":5.39314,"is_reserved":false,"is_disabled":false,"rental_uris":{"android":"levelo://app?vid=a5ecd0d8-5bb0-4305-b746-ec5c7edf2618","ios":"levelo://app?vid=a5ecd0d8-5bb0-4305-b746-ec5c7edf2618"},"vehicle_type_id":"4","last_reported":1736943416,"current_range_meters":23200,"station_id":"ce4bh0p2rcd13ifvqd80","pricing_plan_id":"cebpf4jnsgd1na2vs0mg"},{"bike_id":"b64cf5a1-d6d2-4a63-8926-05ab7c10bc26","system_id":"levelo_inurba_marseille","lat":43.298004,"lon":5.380782,"is_reserved":false,"is_disabled":false,"rental_uris":{"android":"levelo://app?vid=b64cf5a1-d6d2-4a63-8926-05ab7c10bc26","ios":"levelo://app?vid=b64cf5a1-d6d2-4a63-8926-05ab7c10bc26"},"vehicle_type_id":"4","last_reported":1736943416,"current_range_meters":36800,"station_id":"ce4bguh2rcd13ifvqckg","pricing_plan_id":"cebpf4jnsgd1na2vs0mg"},{"bike_id":"8eff47bf-722d-4b65-8b63-34f023354a24","system_id":"levelo_inurba_marseille","lat":43.29532,"lon":5.38542,"is_reserved":false,"is_disabled":false,"rental_uris":{"android":"levelo://app?vid=8eff47bf-722d-4b65-8b63-34f023354a24","ios":"levelo://app?vid=8eff47bf-722d-4b65-8b63-34f023354a24"},"vehicle_type_id":"4","last_reported":1736943416,"current_range_meters":20800,"station_id":"ce4bgih2rcd13ifvqba0","pricing_plan_id":"cebpf4jnsgd1na2vs0mg"},{"bike_id":"82380831-e3d0-49e7-8c57-7140c02ddad6","system_id":"levelo_inurba_marseille","lat":43.28941,"lon":5.36641,"is_reserved":false,"is_disabled":false,"rental_uris":{"android":"levelo://app?vid=82380831-e3d0-49e7-8c57-7140c02ddad6","ios":"levelo://app?vid=82380831-e3d0-49e7-8c57-7140c02ddad6"},"vehicle_type_id":"4","last_reported":1736943416,"current_range_meters":21600,"station_id":"ce4bhap2rcd13ifvqek0","pricing_plan_id":"cebpf4jnsgd1na2vs0mg"},{"bike_id":"78b241fc-6a1f-4845-9d44-b3ac1cdfbbd2","system_id":"levelo_inurba_marseille","lat":43.28679,"lon":5.38664,"is_reserved":false,"is_disabled":false,"rental_uris":{"android":"levelo://app?vid=78b241fc-6a1f-4845-9d44-b3ac1cdfbbd2","ios":"levelo://app?vid=78b241fc-6a1f-4845-9d44-b3ac1cdfbbd2"},"vehicle_type_id":"4","last_reported":1736943416,"current_range_meters":38800,"station_id":"ce4bh492rcd13ifvqdug","pricing_plan_id":"cebpf4jnsgd1na2vs0mg"},{"bike_id":"35684c41-94c5-43dd-a14c-75899bb896a1","system_id":"levelo_inurba_marseille","lat":43.31004,"lon":5.40071,"is_reserved":false,"is_disabled":false,"rental_uris":{"android":"levelo://app?vid=35684c41-94c5-43dd-a14c-75899bb896a1","ios":"levelo://app?vid=35684c41-94c5-43dd-a14c-75899bb896a1"},"vehicle_type_id":"4","last_reported":1736943416,"current_range_meters":38800,"station_id":"","pricing_plan_id":"cebpf4jnsgd1na2vs0mg"},{"bike_id":"e81ef256-d7a3-4c28-9bcc-58b1fdfe2d9d","system_id":"levelo_inurba_marseille","lat":43.25119,"lon":5.4036,"is_reserved":false,"is_disabled":false,"rental_uris":{"android":"levelo://app?vid=e81ef256-d7a3-4c28-9bcc-58b1fdfe2d9d","ios":"levelo://app?vid=e81ef256-d7a3-4c28-9bcc-58b1fdfe2d9d"},"vehicle_type_id":"4","last_reported":1736943416,"current_range_meters":38000,"station_id":"ce4bhlh2rcd13ifvqgig","pricing_plan_id":"cebpf4jnsgd1na2vs0mg"},{"bike_id":"db27b2af-171c-4aa7-b50e-e2ab13f4af0b","system_id":"levelo_inurba_marseille","lat":43.30525,"lon":5.365405,"is_reserved":false,"is_disabled":false,"rental_uris":{"android":"levelo://app?vid=db27b2af-171c-4aa7-b50e-e2ab13f4af0b","ios":"levelo://app?vid=db27b2af-171c-4aa7-b50e-e2ab13f4af0b"},"vehicle_type_id":"4","last_reported":1736943416,"current_range_meters":12000,"station_id":"ce4bgs12rcd13ifvqcag","pricing_plan_id":"cebpf4jnsgd1na2vs0mg"},{"bike_id":"a56bdbd1-df7d-41ba-9f3e-507b8a4b3e97","system_id":"levelo_inurba_marseille","lat":43.29614,"lon":5.37165,"is_reserved":false,"is_disabled":false,"rental_uris":{"android":"levelo://app?vid=a56bdbd1-df7d-41ba-9f3e-507b8a4b3e97","ios":"levelo://app?vid=a56bdbd1-df7d-41ba-9f3e-507b8a4b3e97"},"vehicle_type_id":"4","last_reported":1736943416,"current_range_meters":20400,"station_id":"ce4bgnh2rcd13ifvqc0g","pricing_plan_id":"cebpf4jnsgd1na2vs0mg"},{"bike_id":"f8800adc-29e9-47fc-86f1-25a46dbbb4db","system_id":"levelo_inurba_marseille","lat":43.30555,"lon":5.36549,"is_reserved":false,"is_disabled":false,"rental_uris":{"android":"levelo://app?vid=f8800adc-29e9-47fc-86f1-25a46dbbb4db","ios":"levelo://app?vid=f8800adc-29e9-47fc-86f1-25a46dbbb4db"},"vehicle_type_id":"4","last_reported":1736943416,"current_range_meters":11600,"station_id":"ce4bgs12rcd13ifvqcag","pricing_plan_id":"cebpf4jnsgd1na2vs0mg"},{"bike_id":"192943ff-6579-4067-8b54-834fbf6d8760","system_id":"levelo_inurba_marseille","lat":43.27638,"lon":5.36111,"is_reserved":false,"is_disabled":false,"rental_uris":{"android":"levelo://app?vid=192943ff-6579-4067-8b54-834fbf6d8760","ios":"levelo://app?vid=192943ff-6579-4067-8b54-834fbf6d8760"},"vehicle_type_id":"4","last_reported":1736943416,"current_range_meters":38000,"station_id":"ce4bgj92rcd13ifvqbe0","pricing_plan_id":"cebpf4jnsgd1na2vs0mg"},{"bike_id":"fea1b24d-bbfb-474a-b028-8645483cd7e6","system_id":"levelo_inurba_marseille","lat":43.27174,"lon":5.41021,"is_reserved":false,"is_disabled":false,"rental_uris":{"android":"levelo://app?vid=fea1b24d-bbfb-474a-b028-8645483cd7e6","ios":"levelo://app?vid=fea1b24d-bbfb-474a-b028-8645483cd7e6"},"vehicle_type_id":"4","last_reported":1736943416,"current_range_meters":37600,"station_id":"","pricing_plan_id":"cebpf4jnsgd1na2vs0mg"},{"bike_id":"1455126f-f41c-4f0c-a717-77bb0d641fab","system_id":"levelo_inurba_marseille","lat":43.28269,"lon":5.35071,"is_reserved":false,"is_disabled":false,"rental_uris":{"android":"levelo://app?vid=1455126f-f41c-4f0c-a717-77bb0d641fab","ios":"levelo://app?vid=1455126f-f41c-4f0c-a717-77bb0d641fab"},"vehicle_type_id":"4","last_reported":1736943416,"current_range_meters":38800,"station_id":"ce4bhbp2rcd13ifvqerg","pricing_plan_id":"cebpf4jnsgd1na2vs0mg"},{"bike_id":"98c9b57f-b727-44d5-ab39-539e4817921c","system_id":"levelo_inurba_marseille","lat":43.26692,"lon":5.38281,"is_reserved":false,"is_disabled":false,"rental_uris":{"android":"levelo://app?vid=98c9b57f-b727-44d5-ab39-539e4817921c","ios":"levelo://app?vid=98c9b57f-b727-44d5-ab39-539e4817921c"},"vehicle_type_id":"4","last_reported":1736943416,"current_range_meters":34800,"station_id":"ce4bhg92rcd13ifvqf90","pricing_plan_id":"cebpf4jnsgd1na2vs0mg"},{"bike_id":"ee7f42a8-2e75-4caf-83ac-f0d2be05f889","system_id":"levelo_inurba_marseille","lat":43.27943,"lon":5.41045,"is_reserved":false,"is_disabled":false,"rental_uris":{"android":"levelo://app?vid=ee7f42a8-2e75-4caf-83ac-f0d2be05f889","ios":"levelo://app?vid=ee7f42a8-2e75-4caf-83ac-f0d2be05f889"},"vehicle_type_id":"4","last_reported":1736943416,"current_range_meters":3200,"station_id":"ce4bhnp2rcd13ifvqh0g","pricing_plan_id":"cebpf4jnsgd1na2vs0mg"},{"bike_id":"0ada6c01-b17d-4394-a9d3-60e5c6157127","system_id":"levelo_inurba_marseille","lat":43.32002,"lon":5.38128,"is_reserved":false,"is_disabled":false,"rental_uris":{"android":"levelo://app?vid=0ada6c01-b17d-4394-a9d3-60e5c6157127","ios":"levelo://app?vid=0ada6c01-b17d-4394-a9d3-60e5c6157127"},"vehicle_type_id":"4","last_reported":1736943416,"current_range_meters":38800,"station_id":"ce4bhr12rcd13ifvqhpg","pricing_plan_id":"cebpf4jnsgd1na2vs0mg"},{"bike_id":"0de1c0c3-224c-470c-9c40-92abbb1e542e","system_id":"levelo_inurba_marseille","lat":43.27436,"lon":5.39419,"is_reserved":false,"is_disabled":true,"rental_uris":{"android":"levelo://app?vid=0de1c0c3-224c-470c-9c40-92abbb1e542e","ios":"levelo://app?vid=0de1c0c3-224c-470c-9c40-92abbb1e542e"},"vehicle_type_id":"4","last_reported":1736943416,"current_range_meters":28000,"station_id":"ce4bhdp2rcd13ifvqf20","pricing_plan_id":"cebpf4jnsgd1na2vs0mg"},{"bike_id":"73f1c851-1049-430e-8368-87296464dcce","system_id":"levelo_inurba_marseille","lat":43.32493,"lon":5.36577,"is_reserved":false,"is_disabled":false,"rental_uris":{"android":"levelo://app?vid=73f1c851-1049-430e-8368-87296464dcce","ios":"levelo://app?vid=73f1c851-1049-430e-8368-87296464dcce"},"vehicle_type_id":"4","last_reported":1736943416,"current_range_meters":33200,"station_id":"ce4bhs12rcd13ifvqhvg","pricing_plan_id":"cebpf4jnsgd1na2vs0mg"},{"bike_id":"c056450f-8550-4ac8-ba65-6c2e707fee50","system_id":"levelo_inurba_marseille","lat":43.26506,"lon":5.39534,"is_reserved":false,"is_disabled":false,"rental_uris":{"android":"levelo://app?vid=c056450f-8550-4ac8-ba65-6c2e707fee50","ios":"levelo://app?vid=c056450f-8550-4ac8-ba65-6c2e707fee50"},"vehicle_type_id":"4","last_reported":1736943416,"current_range_meters":38000,"station_id":"ce4bhi12rcd13ifvqfq0","pricing_plan_id":"cebpf4jnsgd1na2vs0mg"},{"bike_id":"1f149e26-9d4e-4970-96ec-1b76430b914b","system_id":"levelo_inurba_marseille","lat":43.24386,"lon":5.37058,"is_reserved":false,"is_disabled":false,"rental_uris":{"android":"levelo://app?vid=1f149e26-9d4e-4970-96ec-1b76430b914b","ios":"levelo://app?vid=1f149e26-9d4e-4970-96ec-1b76430b914b"},"vehicle_type_id":"4","last_reported":1736943416,"current_range_meters":37600,"station_id":"ce4bhhh2rcd13ifvqfk0","pricing_plan_id":"cebpf4jnsgd1na2vs0mg"},{"bike_id":"65c493dc-e380-453a-a199-e2eedd9d9d7e","system_id":"levelo_inurba_marseille","lat":43.31073,"lon":5.38368,"is_reserved":false,"is_disabled":false,"rental_uris":{"android":"levelo://app?vid=65c493dc-e380-453a-a199-e2eedd9d9d7e","ios":"levelo://app?vid=65c493dc-e380-453a-a199-e2eedd9d9d7e"},"vehicle_type_id":"4","last_reported":1736943416,"current_range_meters":5600,"station_id":"ce4bgv92rcd13ifvqcr0","pricing_plan_id":"cebpf4jnsgd1na2vs0mg"},{"bike_id":"a235d4c7-e88f-4930-bce7-a68fc4a31a60","system_id":"levelo_inurba_marseille","lat":43.29282,"lon":5.40121,"is_reserved":false,"is_disabled":true,"rental_uris":{"android":"levelo://app?vid=a235d4c7-e88f-4930-bce7-a68fc4a31a60","ios":"levelo://app?vid=a235d4c7-e88f-4930-bce7-a68fc4a31a60"},"vehicle_type_id":"4","last_reported":1736943416,"current_range_meters":1200,"station_id":"ce4bh312rcd13ifvqdk0","pricing_plan_id":"cebpf4jnsgd1na2vs0mg"},{"bike_id":"28402812-2437-4cb5-805b-4b740e765b45","system_id":"levelo_inurba_marseille","lat":43.30547,"lon":5.36533,"is_reserved":false,"is_disabled":false,"rental_uris":{"android":"levelo://app?vid=28402812-2437-4cb5-805b-4b740e765b45","ios":"levelo://app?vid=28402812-2437-4cb5-805b-4b740e765b45"},"vehicle_type_id":"4","last_reported":1736943416,"current_range_meters":30800,"station_id":"ce4bgs12rcd13ifvqcag","pricing_plan_id":"cebpf4jnsgd1na2vs0mg"},{"bike_id":"a1a925c1-025a-4e52-b724-c9c5776b8317","system_id":"levelo_inurba_marseille","lat":43.25114,"lon":5.4034,"is_reserved":false,"is_disabled":false,"rental_uris":{"android":"levelo://app?vid=a1a925c1-025a-4e52-b724-c9c5776b8317","ios":"levelo://app?vid=a1a925c1-025a-4e52-b724-c9c5776b8317"},"vehicle_type_id":"4","last_reported":1736943416,"current_range_meters":38800,"station_id":"ce4bhlh2rcd13ifvqgig","pricing_plan_id":"cebpf4jnsgd1na2vs0mg"},{"bike_id":"e33339f2-b70f-41b1-b7e1-5fbb564813c9","system_id":"levelo_inurba_marseille","lat":43.28425,"lon":5.34977,"is_reserved":false,"is_disabled":false,"rental_uris":{"android":"levelo://app?vid=e33339f2-b70f-41b1-b7e1-5fbb564813c9","ios":"levelo://app?vid=e33339f2-b70f-41b1-b7e1-5fbb564813c9"},"vehicle_type_id":"4","last_reported":1736943416,"current_range_meters":33600,"station_id":"ce4bhbh2rcd13ifvqepg","pricing_plan_id":"cebpf4jnsgd1na2vs0mg"},{"bike_id":"2f7f8f97-233b-49c1-a73b-02bd22f3a824","system_id":"levelo_inurba_marseille","lat":43.26689,"lon":5.38274,"is_reserved":false,"is_disabled":false,"rental_uris":{"android":"levelo://app?vid=2f7f8f97-233b-49c1-a73b-02bd22f3a824","ios":"levelo://app?vid=2f7f8f97-233b-49c1-a73b-02bd22f3a824"},"vehicle_type_id":"4","last_reported":1736943416,"current_range_meters":38800,"station_id":"ce4bhg92rcd13ifvqf90","pricing_plan_id":"cebpf4jnsgd1na2vs0mg"},{"bike_id":"2c839bfc-228b-4afd-9c45-0e54b8f36672","system_id":"levelo_inurba_marseille","lat":43.24649,"lon":5.389,"is_reserved":false,"is_disabled":false,"rental_uris":{"android":"levelo://app?vid=2c839bfc-228b-4afd-9c45-0e54b8f36672","ios":"levelo://app?vid=2c839bfc-228b-4afd-9c45-0e54b8f36672"},"vehicle_type_id":"4","last_reported":1736943416,"current_range_meters":38800,"station_id":"ce4bhg12rcd13ifvqf60","pricing_plan_id":"cebpf4jnsgd1na2vs0mg"},{"bike_id":"f7e79d84-5de4-4c8b-b433-e0fffb166893","system_id":"levelo_inurba_marseille","lat":43.25115,"lon":5.40324,"is_reserved":false,"is_disabled":false,"rental_uris":{"android":"levelo://app?vid=f7e79d84-5de4-4c8b-b433-e0fffb166893","ios":"levelo://app?vid=f7e79d84-5de4-4c8b-b433-e0fffb166893"},"vehicle_type_id":"4","last_reported":1736943416,"current_range_meters":26800,"station_id":"ce4bhlh2rcd13ifvqgig","pricing_plan_id":"cebpf4jnsgd1na2vs0mg"},{"bike_id":"01e45b5e-8c47-4546-9f69-1bd9e1bd9177","system_id":"levelo_inurba_marseille","lat":43.2396,"lon":5.366313,"is_reserved":false,"is_disabled":false,"rental_uris":{"android":"levelo://app?vid=01e45b5e-8c47-4546-9f69-1bd9e1bd9177","ios":"levelo://app?vid=01e45b5e-8c47-4546-9f69-1bd9e1bd9177"},"vehicle_type_id":"4","last_reported":1736943416,"current_range_meters":33200,"station_id":"ce4bhi12rcd13ifvqfp0","pricing_plan_id":"cebpf4jnsgd1na2vs0mg"},{"bike_id":"755e5c0a-8de7-4ee5-9d4e-5ec609711170","system_id":"levelo_inurba_marseille","lat":43.2961,"lon":5.38151,"is_reserved":false,"is_disabled":true,"rental_uris":{"android":"levelo://app?vid=755e5c0a-8de7-4ee5-9d4e-5ec609711170","ios":"levelo://app?vid=755e5c0a-8de7-4ee5-9d4e-5ec609711170"},"vehicle_type_id":"4","last_reported":1736943416,"current_range_meters":27600,"station_id":"ce4bgl12rcd13ifvqbo0","pricing_plan_id":"cebpf4jnsgd1na2vs0mg"},{"bike_id":"96ccea46-02c2-4804-b27b-a98e43e1a3e5","system_id":"levelo_inurba_marseille","lat":43.30502,"lon":5.36521,"is_reserved":false,"is_disabled":false,"rental_uris":{"android":"levelo://app?vid=96ccea46-02c2-4804-b27b-a98e43e1a3e5","ios":"levelo://app?vid=96ccea46-02c2-4804-b27b-a98e43e1a3e5"},"vehicle_type_id":"4","last_reported":1736943416,"current_range_meters":22000,"station_id":"","pricing_plan_id":"cebpf4jnsgd1na2vs0mg"},{"bike_id":"fa0f0594-5d1d-46eb-8344-bf961f94b942","system_id":"levelo_inurba_marseille","lat":43.30553,"lon":5.36542,"is_reserved":false,"is_disabled":false,"rental_uris":{"android":"levelo://app?vid=fa0f0594-5d1d-46eb-8344-bf961f94b942","ios":"levelo://app?vid=fa0f0594-5d1d-46eb-8344-bf961f94b942"},"vehicle_type_id":"4","last_reported":1736943416,"current_range_meters":17600,"station_id":"ce4bgs12rcd13ifvqcag","pricing_plan_id":"cebpf4jnsgd1na2vs0mg"},{"bike_id":"a15980ac-c225-4e68-8982-6cc8c4cbfd79","system_id":"levelo_inurba_marseille","lat":43.23203,"lon":5.35543,"is_reserved":false,"is_disabled":false,"rental_uris":{"android":"levelo://app?vid=a15980ac-c225-4e68-8982-6cc8c4cbfd79","ios":"levelo://app?vid=a15980ac-c225-4e68-8982-6cc8c4cbfd79"},"vehicle_type_id":"4","last_reported":1736943416,"current_range_meters":38800,"station_id":"ce4bhu92rcd13ifvqi70","pricing_plan_id":"cebpf4jnsgd1na2vs0mg"},{"bike_id":"c1e4c3f1-3e89-4762-b660-b562a1538ef0","system_id":"levelo_inurba_marseille","lat":43.25157,"lon":5.40401,"is_reserved":false,"is_disabled":false,"rental_uris":{"android":"levelo://app?vid=c1e4c3f1-3e89-4762-b660-b562a1538ef0","ios":"levelo://app?vid=c1e4c3f1-3e89-4762-b660-b562a1538ef0"},"vehicle_type_id":"4","last_reported":1736943416,"current_range_meters":38800,"station_id":"ce4bhlh2rcd13ifvqgig","pricing_plan_id":"cebpf4jnsgd1na2vs0mg"},{"bike_id":"7e4e894b-55a3-4abc-a034-b2312538f587","system_id":"levelo_inurba_marseille","lat":43.2319,"lon":5.39991,"is_reserved":false,"is_disabled":false,"rental_uris":{"android":"levelo://app?vid=7e4e894b-55a3-4abc-a034-b2312538f587","ios":"levelo://app?vid=7e4e894b-55a3-4abc-a034-b2312538f587"},"vehicle_type_id":"4","last_reported":1736943416,"current_range_meters":9200,"station_id":"ce4bhn12rcd13ifvqgqg","pricing_plan_id":"cebpf4jnsgd1na2vs0mg"},{"bike_id":"1220920c-3aff-4780-8f25-3fbd4fd7f8a9","system_id":"levelo_inurba_marseille","lat":43.31725,"lon":5.42397,"is_reserved":false,"is_disabled":false,"rental_uris":{"android":"levelo://app?vid=1220920c-3aff-4780-8f25-3fbd4fd7f8a9","ios":"levelo://app?vid=1220920c-3aff-4780-8f25-3fbd4fd7f8a9"},"vehicle_type_id":"4","last_reported":1736943416,"current_range_meters":6400,"station_id":"ce4bhp92rcd13ifvqhbg","pricing_plan_id":"cebpf4jnsgd1na2vs0mg"},{"bike_id":"3f353f68-5e84-440a-8aa4-e38b867cc45f","system_id":"levelo_inurba_marseille","lat":43.30449,"lon":5.38887,"is_reserved":false,"is_disabled":false,"rental_uris":{"android":"levelo://app?vid=3f353f68-5e84-440a-8aa4-e38b867cc45f","ios":"levelo://app?vid=3f353f68-5e84-440a-8aa4-e38b867cc45f"},"vehicle_type_id":"4","last_reported":1736943416,"current_range_meters":8400,"station_id":"ce4bgk12rcd13ifvqbi0","pricing_plan_id":"cebpf4jnsgd1na2vs0mg"},{"bike_id":"5ff5140a-2a8f-4905-8712-eb67584199e2","system_id":"levelo_inurba_marseille","lat":43.23964,"lon":5.36694,"is_reserved":false,"is_disabled":false,"rental_uris":{"android":"levelo://app?vid=5ff5140a-2a8f-4905-8712-eb67584199e2","ios":"levelo://app?vid=5ff5140a-2a8f-4905-8712-eb67584199e2"},"vehicle_type_id":"4","last_reported":1736943416,"current_range_meters":25600,"station_id":"ce4bhi12rcd13ifvqfp0","pricing_plan_id":"cebpf4jnsgd1na2vs0mg"},{"bike_id":"2bbcf8ee-c6a6-4c7a-acbd-6a2ca2b743a3","system_id":"levelo_inurba_marseille","lat":43.31711,"lon":5.37755,"is_reserved":false,"is_disabled":false,"rental_uris":{"android":"levelo://app?vid=2bbcf8ee-c6a6-4c7a-acbd-6a2ca2b743a3","ios":"levelo://app?vid=2bbcf8ee-c6a6-4c7a-acbd-6a2ca2b743a3"},"vehicle_type_id":"4","last_reported":1736943416,"current_range_meters":28400,"station_id":"ce4bgth2rcd13ifvqch0","pricing_plan_id":"cebpf4jnsgd1na2vs0mg"},{"bike_id":"d7ba0e14-4cde-4fb3-9b34-12776f6cec7d","system_id":"levelo_inurba_marseille","lat":43.30201,"lon":5.366158,"is_reserved":false,"is_disabled":false,"rental_uris":{"android":"levelo://app?vid=d7ba0e14-4cde-4fb3-9b34-12776f6cec7d","ios":"levelo://app?vid=d7ba0e14-4cde-4fb3-9b34-12776f6cec7d"},"vehicle_type_id":"4","last_reported":1736943416,"current_range_meters":39200,"station_id":"ce4bgrh2rcd13ifvqc8g","pricing_plan_id":"cebpf4jnsgd1na2vs0mg"},{"bike_id":"51bb6953-dea8-4e82-96bf-52696267905f","system_id":"levelo_inurba_marseille","lat":43.2306,"lon":5.35511,"is_reserved":false,"is_disabled":false,"rental_uris":{"android":"levelo://app?vid=51bb6953-dea8-4e82-96bf-52696267905f","ios":"levelo://app?vid=51bb6953-dea8-4e82-96bf-52696267905f"},"vehicle_type_id":"4","last_reported":1736943416,"current_range_meters":38800,"station_id":"cpo3342slgdg3j2ifvpg","pricing_plan_id":"cebpf4jnsgd1na2vs0mg"},{"bike_id":"8c6739ac-fc4b-4446-93e5-573627213987","system_id":"levelo_inurba_marseille","lat":43.27873,"lon":5.41085,"is_reserved":false,"is_disabled":false,"rental_uris":{"android":"levelo://app?vid=8c6739ac-fc4b-4446-93e5-573627213987","ios":"levelo://app?vid=8c6739ac-fc4b-4446-93e5-573627213987"},"vehicle_type_id":"4","last_reported":1736943416,"current_range_meters":16800,"station_id":"","pricing_plan_id":"cebpf4jnsgd1na2vs0mg"},{"bike_id":"160a5279-70f0-45c5-b10f-6293400ce19d","system_id":"levelo_inurba_marseille","lat":43.290534,"lon":5.359088,"is_reserved":false,"is_disabled":false,"rental_uris":{"android":"levelo://app?vid=160a5279-70f0-45c5-b10f-6293400ce19d","ios":"levelo://app?vid=160a5279-70f0-45c5-b10f-6293400ce19d"},"vehicle_type_id":"4","last_reported":1736943416,"current_range_meters":38800,"station_id":"ce4bha92rcd13ifvqeg0","pricing_plan_id":"cebpf4jnsgd1na2vs0mg"},{"bike_id":"d7be02d2-8ee2-44da-9eab-4a852529345b","system_id":"levelo_inurba_marseille","lat":43.29802,"lon":5.40406,"is_reserved":false,"is_disabled":false,"rental_uris":{"android":"levelo://app?vid=d7be02d2-8ee2-44da-9eab-4a852529345b","ios":"levelo://app?vid=d7be02d2-8ee2-44da-9eab-4a852529345b"},"vehicle_type_id":"4","last_reported":1736943416,"current_range_meters":27600,"station_id":"ce4bh112rcd13ifvqd90","pricing_plan_id":"cebpf4jnsgd1na2vs0mg"},{"bike_id":"c3fd4a15-54c7-4bf7-8e92-aec52d2a8162","system_id":"levelo_inurba_marseille","lat":43.26693,"lon":5.38252,"is_reserved":false,"is_disabled":false,"rental_uris":{"android":"levelo://app?vid=c3fd4a15-54c7-4bf7-8e92-aec52d2a8162","ios":"levelo://app?vid=c3fd4a15-54c7-4bf7-8e92-aec52d2a8162"},"vehicle_type_id":"4","last_reported":1736943416,"current_range_meters":32800,"station_id":"ce4bhg92rcd13ifvqf90","pricing_plan_id":"cebpf4jnsgd1na2vs0mg"},{"bike_id":"a3919318-bf6c-4fd7-a53c-94839662c2dc","system_id":"levelo_inurba_marseille","lat":43.33032,"lon":5.39027,"is_reserved":false,"is_disabled":false,"rental_uris":{"android":"levelo://app?vid=a3919318-bf6c-4fd7-a53c-94839662c2dc","ios":"levelo://app?vid=a3919318-bf6c-4fd7-a53c-94839662c2dc"},"vehicle_type_id":"4","last_reported":1736943416,"current_range_meters":38800,"station_id":"ce4bhr92rcd13ifvqhrg","pricing_plan_id":"cebpf4jnsgd1na2vs0mg"},{"bike_id":"4017ab03-9eb7-4763-bf3d-91dc7392eac1","system_id":"levelo_inurba_marseille","lat":43.29003,"lon":5.35606,"is_reserved":false,"is_disabled":false,"rental_uris":{"android":"levelo://app?vid=4017ab03-9eb7-4763-bf3d-91dc7392eac1","ios":"levelo://app?vid=4017ab03-9eb7-4763-bf3d-91dc7392eac1"},"vehicle_type_id":"4","last_reported":1736943416,"current_range_meters":35200,"station_id":"ce4bhb92rcd13ifvqen0","pricing_plan_id":"cebpf4jnsgd1na2vs0mg"},{"bike_id":"1a88b36a-bdcc-4ab6-a257-59715f73d204","system_id":"levelo_inurba_marseille","lat":43.26686,"lon":5.38286,"is_reserved":false,"is_disabled":false,"rental_uris":{"android":"levelo://app?vid=1a88b36a-bdcc-4ab6-a257-59715f73d204","ios":"levelo://app?vid=1a88b36a-bdcc-4ab6-a257-59715f73d204"},"vehicle_type_id":"4","last_reported":1736943416,"current_range_meters":25600,"station_id":"ce4bhg92rcd13ifvqf90","pricing_plan_id":"cebpf4jnsgd1na2vs0mg"},{"bike_id":"f6b5a21b-caca-4bab-9767-62a516c88435","system_id":"levelo_inurba_marseille","lat":43.24641,"lon":5.38908,"is_reserved":false,"is_disabled":false,"rental_uris":{"android":"levelo://app?vid=f6b5a21b-caca-4bab-9767-62a516c88435","ios":"levelo://app?vid=f6b5a21b-caca-4bab-9767-62a516c88435"},"vehicle_type_id":"4","last_reported":1736943416,"current_range_meters":38800,"station_id":"ce4bhg12rcd13ifvqf60","pricing_plan_id":"cebpf4jnsgd1na2vs0mg"},{"bike_id":"1ab3f322-8e8f-40bf-b46a-ad736fdeffee","system_id":"levelo_inurba_marseille","lat":43.23161,"lon":5.43729,"is_reserved":false,"is_disabled":false,"rental_uris":{"android":"levelo://app?vid=1ab3f322-8e8f-40bf-b46a-ad736fdeffee","ios":"levelo://app?vid=1ab3f322-8e8f-40bf-b46a-ad736fdeffee"},"vehicle_type_id":"4","last_reported":1736943416,"current_range_meters":38000,"station_id":"ce4bhmp2rcd13ifvqgog","pricing_plan_id":"cebpf4jnsgd1na2vs0mg"},{"bike_id":"53206026-addf-4a65-8fa0-3fc174184ef4","system_id":"levelo_inurba_marseille","lat":43.31759,"lon":5.39019,"is_reserved":false,"is_disabled":false,"rental_uris":{"android":"levelo://app?vid=53206026-addf-4a65-8fa0-3fc174184ef4","ios":"levelo://app?vid=53206026-addf-4a65-8fa0-3fc174184ef4"},"vehicle_type_id":"4","last_reported":1736943416,"current_range_meters":28800,"station_id":"ce4bhqp2rcd13ifvqhng","pricing_plan_id":"cebpf4jnsgd1na2vs0mg"},{"bike_id":"6eddaf7b-03fe-476e-879c-0d6b089c6a0c","system_id":"levelo_inurba_marseille","lat":43.30552,"lon":5.36536,"is_reserved":false,"is_disabled":false,"rental_uris":{"android":"levelo://app?vid=6eddaf7b-03fe-476e-879c-0d6b089c6a0c","ios":"levelo://app?vid=6eddaf7b-03fe-476e-879c-0d6b089c6a0c"},"vehicle_type_id":"4","last_reported":1736943416,"current_range_meters":38800,"station_id":"ce4bgs12rcd13ifvqcag","pricing_plan_id":"cebpf4jnsgd1na2vs0mg"},{"bike_id":"a56bdef2-14b8-4e02-b3bc-538917283971","system_id":"levelo_inurba_marseille","lat":43.25096,"lon":5.39511,"is_reserved":false,"is_disabled":false,"rental_uris":{"android":"levelo://app?vid=a56bdef2-14b8-4e02-b3bc-538917283971","ios":"levelo://app?vid=a56bdef2-14b8-4e02-b3bc-538917283971"},"vehicle_type_id":"4","last_reported":1736943416,"current_range_meters":28000,"station_id":"ce4bhm12rcd13ifvqgkg","pricing_plan_id":"cebpf4jnsgd1na2vs0mg"},{"bike_id":"595c43f9-e732-431c-b61a-7e3290289a54","system_id":"levelo_inurba_marseille","lat":43.30299,"lon":5.37699,"is_reserved":false,"is_disabled":false,"rental_uris":{"android":"levelo://app?vid=595c43f9-e732-431c-b61a-7e3290289a54","ios":"levelo://app?vid=595c43f9-e732-431c-b61a-7e3290289a54"},"vehicle_type_id":"4","last_reported":1736943416,"current_range_meters":37600,"station_id":"ce4bguh2rcd13ifvqcj0","pricing_plan_id":"cebpf4jnsgd1na2vs0mg"},{"bike_id":"2578cab6-a967-48c2-884c-de4de961fa05","system_id":"levelo_inurba_marseille","lat":43.2593,"lon":5.40913,"is_reserved":false,"is_disabled":false,"rental_uris":{"android":"levelo://app?vid=2578cab6-a967-48c2-884c-de4de961fa05","ios":"levelo://app?vid=2578cab6-a967-48c2-884c-de4de961fa05"},"vehicle_type_id":"4","last_reported":1736943416,"current_range_meters":8000,"station_id":"ce4bhm92rcd13ifvqglg","pricing_plan_id":"cebpf4jnsgd1na2vs0mg"},{"bike_id":"2b509872-0c42-4b3b-b1f3-9064279d9152","system_id":"levelo_inurba_marseille","lat":43.29296,"lon":5.37461,"is_reserved":false,"is_disabled":false,"rental_uris":{"android":"levelo://app?vid=2b509872-0c42-4b3b-b1f3-9064279d9152","ios":"levelo://app?vid=2b509872-0c42-4b3b-b1f3-9064279d9152"},"vehicle_type_id":"4","last_reported":1736943416,"current_range_meters":21600,"station_id":"ce4bgi12rcd13ifvqb70","pricing_plan_id":"cebpf4jnsgd1na2vs0mg"},{"bike_id":"4910e2a6-aa83-47ed-a0a8-0864750d3580","system_id":"levelo_inurba_marseille","lat":43.27949,"lon":5.41041,"is_reserved":false,"is_disabled":false,"rental_uris":{"android":"levelo://app?vid=4910e2a6-aa83-47ed-a0a8-0864750d3580","ios":"levelo://app?vid=4910e2a6-aa83-47ed-a0a8-0864750d3580"},"vehicle_type_id":"4","last_reported":1736943416,"current_range_meters":3600,"station_id":"ce4bhnp2rcd13ifvqh0g","pricing_plan_id":"cebpf4jnsgd1na2vs0mg"},{"bike_id":"e5b9252e-eebf-4c90-b028-b53cc4934330","system_id":"levelo_inurba_marseille","lat":43.30348,"lon":5.41881,"is_reserved":false,"is_disabled":true,"rental_uris":{"android":"levelo://app?vid=e5b9252e-eebf-4c90-b028-b53cc4934330","ios":"levelo://app?vid=e5b9252e-eebf-4c90-b028-b53cc4934330"},"vehicle_type_id":"4","last_reported":1736943416,"current_range_meters":17200,"station_id":"ce4bhop2rcd13ifvqh7g","pricing_plan_id":"cebpf4jnsgd1na2vs0mg"},{"bike_id":"67bd9303-2476-4c24-8a03-ea63b405ba3f","system_id":"levelo_inurba_marseille","lat":43.25828,"lon":5.39435,"is_reserved":false,"is_disabled":false,"rental_uris":{"android":"levelo://app?vid=67bd9303-2476-4c24-8a03-ea63b405ba3f","ios":"levelo://app?vid=67bd9303-2476-4c24-8a03-ea63b405ba3f"},"vehicle_type_id":"4","last_reported":1736943416,"current_range_meters":32000,"station_id":"ce4bhip2rcd13ifvqft0","pricing_plan_id":"cebpf4jnsgd1na2vs0mg"},{"bike_id":"041b27fe-f947-45fe-8459-73eedb41d5f5","system_id":"levelo_inurba_marseille","lat":43.23151,"lon":5.43711,"is_reserved":false,"is_disabled":false,"rental_uris":{"android":"levelo://app?vid=041b27fe-f947-45fe-8459-73eedb41d5f5","ios":"levelo://app?vid=041b27fe-f947-45fe-8459-73eedb41d5f5"},"vehicle_type_id":"4","last_reported":1736943416,"current_range_meters":27200,"station_id":"ce4bhmp2rcd13ifvqgog","pricing_plan_id":"cebpf4jnsgd1na2vs0mg"},{"bike_id":"30cc888a-fdf7-41aa-8fb2-d46ec5802ae1","system_id":"levelo_inurba_marseille","lat":43.328576,"lon":5.399856,"is_reserved":false,"is_disabled":true,"rental_uris":{"android":"levelo://app?vid=30cc888a-fdf7-41aa-8fb2-d46ec5802ae1","ios":"levelo://app?vid=30cc888a-fdf7-41aa-8fb2-d46ec5802ae1"},"vehicle_type_id":"4","last_reported":1736943416,"current_range_meters":0,"station_id":"","pricing_plan_id":"cebpf4jnsgd1na2vs0mg"},{"bike_id":"e17794bf-b1eb-45df-be8f-d7ddd5466ade","system_id":"levelo_inurba_marseille","lat":43.3095,"lon":5.39034,"is_reserved":false,"is_disabled":false,"rental_uris":{"android":"levelo://app?vid=e17794bf-b1eb-45df-be8f-d7ddd5466ade","ios":"levelo://app?vid=e17794bf-b1eb-45df-be8f-d7ddd5466ade"},"vehicle_type_id":"4","last_reported":1736943416,"current_range_meters":27200,"station_id":"ce4bgup2rcd13ifvqco0","pricing_plan_id":"cebpf4jnsgd1na2vs0mg"},{"bike_id":"b9208aad-92b3-49df-9852-56bf76c4b6c2","system_id":"levelo_inurba_marseille","lat":43.27913,"lon":5.39569,"is_reserved":false,"is_disabled":false,"rental_uris":{"android":"levelo://app?vid=b9208aad-92b3-49df-9852-56bf76c4b6c2","ios":"levelo://app?vid=b9208aad-92b3-49df-9852-56bf76c4b6c2"},"vehicle_type_id":"4","last_reported":1736943416,"current_range_meters":38800,"station_id":"ce4bhf92rcd13ifvqf40","pricing_plan_id":"cebpf4jnsgd1na2vs0mg"},{"bike_id":"db11193f-e588-4a85-900e-70724fc8f9fe","system_id":"levelo_inurba_marseille","lat":43.29007,"lon":5.356,"is_reserved":false,"is_disabled":false,"rental_uris":{"android":"levelo://app?vid=db11193f-e588-4a85-900e-70724fc8f9fe","ios":"levelo://app?vid=db11193f-e588-4a85-900e-70724fc8f9fe"},"vehicle_type_id":"4","last_reported":1736943416,"current_range_meters":28000,"station_id":"ce4bhb92rcd13ifvqen0","pricing_plan_id":"cebpf4jnsgd1na2vs0mg"},{"bike_id":"bf9fa473-406d-4cf1-9a0a-a19c23399b29","system_id":"levelo_inurba_marseille","lat":43.31327,"lon":5.39706,"is_reserved":false,"is_disabled":false,"rental_uris":{"android":"levelo://app?vid=bf9fa473-406d-4cf1-9a0a-a19c23399b29","ios":"levelo://app?vid=bf9fa473-406d-4cf1-9a0a-a19c23399b29"},"vehicle_type_id":"4","last_reported":1736943416,"current_range_meters":29600,"station_id":"ce4bgvp2rcd13ifvqcu0","pricing_plan_id":"cebpf4jnsgd1na2vs0mg"},{"bike_id":"0adbfa65-465c-487a-8c44-6247250163c9","system_id":"levelo_inurba_marseille","lat":43.31289,"lon":5.36857,"is_reserved":false,"is_disabled":true,"rental_uris":{"android":"levelo://app?vid=0adbfa65-465c-487a-8c44-6247250163c9","ios":"levelo://app?vid=0adbfa65-465c-487a-8c44-6247250163c9"},"vehicle_type_id":"4","last_reported":1736943416,"current_range_meters":6000,"station_id":"ce4bgl92rcd13ifvqbq0","pricing_plan_id":"cebpf4jnsgd1na2vs0mg"},{"bike_id":"04deccb6-f313-44bf-8fcb-bffda4962049","system_id":"levelo_inurba_marseille","lat":43.27933,"lon":5.41065,"is_reserved":false,"is_disabled":false,"rental_uris":{"android":"levelo://app?vid=04deccb6-f313-44bf-8fcb-bffda4962049","ios":"levelo://app?vid=04deccb6-f313-44bf-8fcb-bffda4962049"},"vehicle_type_id":"4","last_reported":1736943416,"current_range_meters":26800,"station_id":"ce4bhnp2rcd13ifvqh0g","pricing_plan_id":"cebpf4jnsgd1na2vs0mg"},{"bike_id":"d8e3941b-0cae-4b8e-ae3c-c34a4b3b2c65","system_id":"levelo_inurba_marseille","lat":43.32001,"lon":5.38155,"is_reserved":false,"is_disabled":false,"rental_uris":{"android":"levelo://app?vid=d8e3941b-0cae-4b8e-ae3c-c34a4b3b2c65","ios":"levelo://app?vid=d8e3941b-0cae-4b8e-ae3c-c34a4b3b2c65"},"vehicle_type_id":"4","last_reported":1736943416,"current_range_meters":38800,"station_id":"ce4bhr12rcd13ifvqhpg","pricing_plan_id":"cebpf4jnsgd1na2vs0mg"},{"bike_id":"c02c5aca-281f-4099-8057-4fb2de6cd133","system_id":"levelo_inurba_marseille","lat":43.29716,"lon":5.3662,"is_reserved":false,"is_disabled":false,"rental_uris":{"android":"levelo://app?vid=c02c5aca-281f-4099-8057-4fb2de6cd133","ios":"levelo://app?vid=c02c5aca-281f-4099-8057-4fb2de6cd133"},"vehicle_type_id":"4","last_reported":1736943416,"current_range_meters":20400,"station_id":"ce4bgn12rcd13ifvqbt0","pricing_plan_id":"cebpf4jnsgd1na2vs0mg"},{"bike_id":"6d6efd1d-5fec-4e49-911a-42400bc6ab1e","system_id":"levelo_inurba_marseille","lat":43.33029,"lon":5.39055,"is_reserved":false,"is_disabled":false,"rental_uris":{"android":"levelo://app?vid=6d6efd1d-5fec-4e49-911a-42400bc6ab1e","ios":"levelo://app?vid=6d6efd1d-5fec-4e49-911a-42400bc6ab1e"},"vehicle_type_id":"4","last_reported":1736943416,"current_range_meters":9200,"station_id":"ce4bhr92rcd13ifvqhrg","pricing_plan_id":"cebpf4jnsgd1na2vs0mg"},{"bike_id":"7e78c8f6-b1dd-47b0-b4b4-66a78794741c","system_id":"levelo_inurba_marseille","lat":43.29715,"lon":5.37695,"is_reserved":false,"is_disabled":false,"rental_uris":{"android":"levelo://app?vid=7e78c8f6-b1dd-47b0-b4b4-66a78794741c","ios":"levelo://app?vid=7e78c8f6-b1dd-47b0-b4b4-66a78794741c"},"vehicle_type_id":"4","last_reported":1736943416,"current_range_meters":35600,"station_id":"ce4bgkh2rcd13ifvqbl0","pricing_plan_id":"cebpf4jnsgd1na2vs0mg"},{"bike_id":"e02a9549-b281-4f69-a34c-4208f5511fef","system_id":"levelo_inurba_marseille","lat":43.25005,"lon":5.38927,"is_reserved":false,"is_disabled":false,"rental_uris":{"android":"levelo://app?vid=e02a9549-b281-4f69-a34c-4208f5511fef","ios":"levelo://app?vid=e02a9549-b281-4f69-a34c-4208f5511fef"},"vehicle_type_id":"4","last_reported":1736943416,"current_range_meters":10800,"station_id":"ce4bhgp2rcd13ifvqfd0","pricing_plan_id":"cebpf4jnsgd1na2vs0mg"},{"bike_id":"a1cbf57f-0d37-4cde-a4f4-e53c7978be93","system_id":"levelo_inurba_marseille","lat":43.26072,"lon":5.39398,"is_reserved":false,"is_disabled":false,"rental_uris":{"android":"levelo://app?vid=a1cbf57f-0d37-4cde-a4f4-e53c7978be93","ios":"levelo://app?vid=a1cbf57f-0d37-4cde-a4f4-e53c7978be93"},"vehicle_type_id":"4","last_reported":1736943416,"current_range_meters":8000,"station_id":"ce4bhh92rcd13ifvqfj0","pricing_plan_id":"cebpf4jnsgd1na2vs0mg"},{"bike_id":"97556e75-7204-4b65-8a16-3a64c05240d6","system_id":"levelo_inurba_marseille","lat":43.301446,"lon":5.38087,"is_reserved":false,"is_disabled":false,"rental_uris":{"android":"levelo://app?vid=97556e75-7204-4b65-8a16-3a64c05240d6","ios":"levelo://app?vid=97556e75-7204-4b65-8a16-3a64c05240d6"},"vehicle_type_id":"4","last_reported":1736943416,"current_range_meters":38000,"station_id":"ce4bgjp2rcd13ifvqbh0","pricing_plan_id":"cebpf4jnsgd1na2vs0mg"},{"bike_id":"20b42ccb-0411-4ccb-9208-7ac954900656","system_id":"levelo_inurba_marseille","lat":43.31342,"lon":5.36724,"is_reserved":false,"is_disabled":false,"rental_uris":{"android":"levelo://app?vid=20b42ccb-0411-4ccb-9208-7ac954900656","ios":"levelo://app?vid=20b42ccb-0411-4ccb-9208-7ac954900656"},"vehicle_type_id":"4","last_reported":1736943416,"current_range_meters":8800,"station_id":"ce4bgr92rcd13ifvqc6g","pricing_plan_id":"cebpf4jnsgd1na2vs0mg"},{"bike_id":"7a26b63c-652f-4d2d-8353-1a9dfb4e945a","system_id":"levelo_inurba_marseille","lat":43.33711,"lon":5.39181,"is_reserved":false,"is_disabled":false,"rental_uris":{"android":"levelo://app?vid=7a26b63c-652f-4d2d-8353-1a9dfb4e945a","ios":"levelo://app?vid=7a26b63c-652f-4d2d-8353-1a9dfb4e945a"},"vehicle_type_id":"4","last_reported":1736943416,"current_range_meters":38000,"station_id":"ce4bhr92rcd13ifvqhsg","pricing_plan_id":"cebpf4jnsgd1na2vs0mg"},{"bike_id":"a81a2459-2154-41ba-9be9-79a97f1efda4","system_id":"levelo_inurba_marseille","lat":43.25009,"lon":5.38944,"is_reserved":false,"is_disabled":false,"rental_uris":{"android":"levelo://app?vid=a81a2459-2154-41ba-9be9-79a97f1efda4","ios":"levelo://app?vid=a81a2459-2154-41ba-9be9-79a97f1efda4"},"vehicle_type_id":"4","last_reported":1736943416,"current_range_meters":10000,"station_id":"ce4bhgp2rcd13ifvqfd0","pricing_plan_id":"cebpf4jnsgd1na2vs0mg"},{"bike_id":"beae90ea-de3b-4a50-b97e-d77bd8538a84","system_id":"levelo_inurba_marseille","lat":43.23145,"lon":5.43726,"is_reserved":false,"is_disabled":false,"rental_uris":{"android":"levelo://app?vid=beae90ea-de3b-4a50-b97e-d77bd8538a84","ios":"levelo://app?vid=beae90ea-de3b-4a50-b97e-d77bd8538a84"},"vehicle_type_id":"4","last_reported":1736943416,"current_range_meters":8400,"station_id":"ce4bhmp2rcd13ifvqgog","pricing_plan_id":"cebpf4jnsgd1na2vs0mg"},{"bike_id":"d6c4e32b-6ea9-4f17-90c5-f831deea104e","system_id":"levelo_inurba_marseille","lat":43.29676,"lon":5.37289,"is_reserved":false,"is_disabled":false,"rental_uris":{"android":"levelo://app?vid=d6c4e32b-6ea9-4f17-90c5-f831deea104e","ios":"levelo://app?vid=d6c4e32b-6ea9-4f17-90c5-f831deea104e"},"vehicle_type_id":"4","last_reported":1736943416,"current_range_meters":38800,"station_id":"ce4bgk12rcd13ifvqbj0","pricing_plan_id":"cebpf4jnsgd1na2vs0mg"},{"bike_id":"0517fa6d-8607-459e-9672-c7cb7e305df1","system_id":"levelo_inurba_marseille","lat":43.24648,"lon":5.38886,"is_reserved":false,"is_disabled":false,"rental_uris":{"android":"levelo://app?vid=0517fa6d-8607-459e-9672-c7cb7e305df1","ios":"levelo://app?vid=0517fa6d-8607-459e-9672-c7cb7e305df1"},"vehicle_type_id":"4","last_reported":1736943416,"current_range_meters":26000,"station_id":"ce4bhg12rcd13ifvqf60","pricing_plan_id":"cebpf4jnsgd1na2vs0mg"},{"bike_id":"35ed7f23-2bde-4c61-a81a-799b6ee7629f","system_id":"levelo_inurba_marseille","lat":43.27982,"lon":5.40999,"is_reserved":false,"is_disabled":false,"rental_uris":{"android":"levelo://app?vid=35ed7f23-2bde-4c61-a81a-799b6ee7629f","ios":"levelo://app?vid=35ed7f23-2bde-4c61-a81a-799b6ee7629f"},"vehicle_type_id":"4","last_reported":1736943416,"current_range_meters":4800,"station_id":"","pricing_plan_id":"cebpf4jnsgd1na2vs0mg"},{"bike_id":"5f23a61a-7e7d-465e-942d-98e84a6e0f49","system_id":"levelo_inurba_marseille","lat":43.24818,"lon":5.37473,"is_reserved":false,"is_disabled":false,"rental_uris":{"android":"levelo://app?vid=5f23a61a-7e7d-465e-942d-98e84a6e0f49","ios":"levelo://app?vid=5f23a61a-7e7d-465e-942d-98e84a6e0f49"},"vehicle_type_id":"4","last_reported":1736943416,"current_range_meters":28800,"station_id":"ce4bhgh2rcd13ifvqfb0","pricing_plan_id":"cebpf4jnsgd1na2vs0mg"},{"bike_id":"f6bb3330-51df-4aaa-8269-ab7638db39bd","system_id":"levelo_inurba_marseille","lat":43.24382,"lon":5.37052,"is_reserved":false,"is_disabled":false,"rental_uris":{"android":"levelo://app?vid=f6bb3330-51df-4aaa-8269-ab7638db39bd","ios":"levelo://app?vid=f6bb3330-51df-4aaa-8269-ab7638db39bd"},"vehicle_type_id":"4","last_reported":1736943416,"current_range_meters":31200,"station_id":"ce4bhhh2rcd13ifvqfk0","pricing_plan_id":"cebpf4jnsgd1na2vs0mg"},{"bike_id":"198897f2-d98b-469d-9893-cf67a03acff7","system_id":"levelo_inurba_marseille","lat":43.25122,"lon":5.40319,"is_reserved":false,"is_disabled":false,"rental_uris":{"android":"levelo://app?vid=198897f2-d98b-469d-9893-cf67a03acff7","ios":"levelo://app?vid=198897f2-d98b-469d-9893-cf67a03acff7"},"vehicle_type_id":"4","last_reported":1736943416,"current_range_meters":38800,"station_id":"ce4bhlh2rcd13ifvqgig","pricing_plan_id":"cebpf4jnsgd1na2vs0mg"},{"bike_id":"28fdba24-e4dd-42f3-aed2-9fd37f7e166c","system_id":"levelo_inurba_marseille","lat":43.30549,"lon":5.36557,"is_reserved":false,"is_disabled":false,"rental_uris":{"android":"levelo://app?vid=28fdba24-e4dd-42f3-aed2-9fd37f7e166c","ios":"levelo://app?vid=28fdba24-e4dd-42f3-aed2-9fd37f7e166c"},"vehicle_type_id":"4","last_reported":1736943416,"current_range_meters":22400,"station_id":"ce4bgs12rcd13ifvqcag","pricing_plan_id":"cebpf4jnsgd1na2vs0mg"},{"bike_id":"0d8320dd-c907-4677-a780-3aeb42477e84","system_id":"levelo_inurba_marseille","lat":43.25085,"lon":5.39513,"is_reserved":false,"is_disabled":false,"rental_uris":{"android":"levelo://app?vid=0d8320dd-c907-4677-a780-3aeb42477e84","ios":"levelo://app?vid=0d8320dd-c907-4677-a780-3aeb42477e84"},"vehicle_type_id":"4","last_reported":1736943416,"current_range_meters":33200,"station_id":"ce4bhm12rcd13ifvqgkg","pricing_plan_id":"cebpf4jnsgd1na2vs0mg"},{"bike_id":"b8e687c6-adfc-4ee4-94a9-355eb2cf0afc","system_id":"levelo_inurba_marseille","lat":43.33613,"lon":5.41038,"is_reserved":false,"is_disabled":false,"rental_uris":{"android":"levelo://app?vid=b8e687c6-adfc-4ee4-94a9-355eb2cf0afc","ios":"levelo://app?vid=b8e687c6-adfc-4ee4-94a9-355eb2cf0afc"},"vehicle_type_id":"4","last_reported":1736943416,"current_range_meters":28400,"station_id":"ce4bhqh2rcd13ifvqhmg","pricing_plan_id":"cebpf4jnsgd1na2vs0mg"},{"bike_id":"293537b8-faa4-4512-9781-add1f5857757","system_id":"levelo_inurba_marseille","lat":43.27349,"lon":5.36226,"is_reserved":false,"is_disabled":false,"rental_uris":{"android":"levelo://app?vid=293537b8-faa4-4512-9781-add1f5857757","ios":"levelo://app?vid=293537b8-faa4-4512-9781-add1f5857757"},"vehicle_type_id":"4","last_reported":1736943416,"current_range_meters":38800,"station_id":"ce4bhbh2rcd13ifvqeo0","pricing_plan_id":"cebpf4jnsgd1na2vs0mg"},{"bike_id":"ae6a24c6-71f9-417a-adfe-c09c90280637","system_id":"levelo_inurba_marseille","lat":43.26553,"lon":5.37297,"is_reserved":false,"is_disabled":false,"rental_uris":{"android":"levelo://app?vid=ae6a24c6-71f9-417a-adfe-c09c90280637","ios":"levelo://app?vid=ae6a24c6-71f9-417a-adfe-c09c90280637"},"vehicle_type_id":"4","last_reported":1736943416,"current_range_meters":38000,"station_id":"ce4bhg12rcd13ifvqf70","pricing_plan_id":"cebpf4jnsgd1na2vs0mg"},{"bike_id":"5af21288-6a78-4bf0-98f0-2634bd9f0280","system_id":"levelo_inurba_marseille","lat":43.29774,"lon":5.37093,"is_reserved":false,"is_disabled":false,"rental_uris":{"android":"levelo://app?vid=5af21288-6a78-4bf0-98f0-2634bd9f0280","ios":"levelo://app?vid=5af21288-6a78-4bf0-98f0-2634bd9f0280"},"vehicle_type_id":"4","last_reported":1736943416,"current_range_meters":36000,"station_id":"ce4bgop2rcd13ifvqc1g","pricing_plan_id":"cebpf4jnsgd1na2vs0mg"},{"bike_id":"60c48e84-151f-4edd-83cd-789ff87c7f63","system_id":"levelo_inurba_marseille","lat":43.28709,"lon":5.37399,"is_reserved":false,"is_disabled":true,"rental_uris":{"android":"levelo://app?vid=60c48e84-151f-4edd-83cd-789ff87c7f63","ios":"levelo://app?vid=60c48e84-151f-4edd-83cd-789ff87c7f63"},"vehicle_type_id":"4","last_reported":1736943416,"current_range_meters":28800,"station_id":"ce4bh3p2rcd13ifvqdq0","pricing_plan_id":"cebpf4jnsgd1na2vs0mg"},{"bike_id":"f1036ab1-b811-4922-904f-86bc500d1757","system_id":"levelo_inurba_marseille","lat":43.29781,"lon":5.37112,"is_reserved":false,"is_disabled":false,"rental_uris":{"android":"levelo://app?vid=f1036ab1-b811-4922-904f-86bc500d1757","ios":"levelo://app?vid=f1036ab1-b811-4922-904f-86bc500d1757"},"vehicle_type_id":"4","last_reported":1736943416,"current_range_meters":32000,"station_id":"ce4bgop2rcd13ifvqc1g","pricing_plan_id":"cebpf4jnsgd1na2vs0mg"},{"bike_id":"dc373159-b1bc-4866-873c-40aeed7bd691","system_id":"levelo_inurba_marseille","lat":43.32659,"lon":5.40997,"is_reserved":false,"is_disabled":false,"rental_uris":{"android":"levelo://app?vid=dc373159-b1bc-4866-873c-40aeed7bd691","ios":"levelo://app?vid=dc373159-b1bc-4866-873c-40aeed7bd691"},"vehicle_type_id":"4","last_reported":1736943416,"current_range_meters":34000,"station_id":"ce4bhpp2rcd13ifvqhgg","pricing_plan_id":"cebpf4jnsgd1na2vs0mg"},{"bike_id":"e05770dc-4ca5-42f6-8928-9e060772c93d","system_id":"levelo_inurba_marseille","lat":43.32364,"lon":5.38878,"is_reserved":false,"is_disabled":false,"rental_uris":{"android":"levelo://app?vid=e05770dc-4ca5-42f6-8928-9e060772c93d","ios":"levelo://app?vid=e05770dc-4ca5-42f6-8928-9e060772c93d"},"vehicle_type_id":"4","last_reported":1736943416,"current_range_meters":37600,"station_id":"ce4bhqp2rcd13ifvqhog","pricing_plan_id":"cebpf4jnsgd1na2vs0mg"},{"bike_id":"c8de285e-f994-4047-a644-4e5fe5b91bb3","system_id":"levelo_inurba_marseille","lat":43.28274,"lon":5.35076,"is_reserved":false,"is_disabled":false,"rental_uris":{"android":"levelo://app?vid=c8de285e-f994-4047-a644-4e5fe5b91bb3","ios":"levelo://app?vid=c8de285e-f994-4047-a644-4e5fe5b91bb3"},"vehicle_type_id":"4","last_reported":1736943416,"current_range_meters":14800,"station_id":"ce4bhbp2rcd13ifvqerg","pricing_plan_id":"cebpf4jnsgd1na2vs0mg"},{"bike_id":"de05f028-7450-4792-8d5b-e268410faa9d","system_id":"levelo_inurba_marseille","lat":43.3209,"lon":5.36779,"is_reserved":false,"is_disabled":false,"rental_uris":{"android":"levelo://app?vid=de05f028-7450-4792-8d5b-e268410faa9d","ios":"levelo://app?vid=de05f028-7450-4792-8d5b-e268410faa9d"},"vehicle_type_id":"4","last_reported":1736943416,"current_range_meters":25200,"station_id":"ce4bhrh2rcd13ifvqhug","pricing_plan_id":"cebpf4jnsgd1na2vs0mg"},{"bike_id":"128fe01a-858f-4113-aaae-f85887d222c3","system_id":"levelo_inurba_marseille","lat":43.28726,"lon":5.36091,"is_reserved":false,"is_disabled":false,"rental_uris":{"android":"levelo://app?vid=128fe01a-858f-4113-aaae-f85887d222c3","ios":"levelo://app?vid=128fe01a-858f-4113-aaae-f85887d222c3"},"vehicle_type_id":"4","last_reported":1736943416,"current_range_meters":38800,"station_id":"cki0cbj6b192h4jlfktg","pricing_plan_id":"cebpf4jnsgd1na2vs0mg"},{"bike_id":"b354b3ea-f7ff-42ac-a645-9e5cbfe3e2e2","system_id":"levelo_inurba_marseille","lat":43.30549,"lon":5.36553,"is_reserved":false,"is_disabled":false,"rental_uris":{"android":"levelo://app?vid=b354b3ea-f7ff-42ac-a645-9e5cbfe3e2e2","ios":"levelo://app?vid=b354b3ea-f7ff-42ac-a645-9e5cbfe3e2e2"},"vehicle_type_id":"4","last_reported":1736943416,"current_range_meters":38800,"station_id":"ce4bgs12rcd13ifvqcag","pricing_plan_id":"cebpf4jnsgd1na2vs0mg"},{"bike_id":"cef1f805-e505-4850-808f-da5aac9ab77d","system_id":"levelo_inurba_marseille","lat":43.2901,"lon":5.35615,"is_reserved":false,"is_disabled":false,"rental_uris":{"android":"levelo://app?vid=cef1f805-e505-4850-808f-da5aac9ab77d","ios":"levelo://app?vid=cef1f805-e505-4850-808f-da5aac9ab77d"},"vehicle_type_id":"4","last_reported":1736943416,"current_range_meters":38800,"station_id":"ce4bhb92rcd13ifvqen0","pricing_plan_id":"cebpf4jnsgd1na2vs0mg"},{"bike_id":"99540f24-8a13-4aa8-a3ac-7949f221b6b3","system_id":"levelo_inurba_marseille","lat":43.29804,"lon":5.3711,"is_reserved":false,"is_disabled":false,"rental_uris":{"android":"levelo://app?vid=99540f24-8a13-4aa8-a3ac-7949f221b6b3","ios":"levelo://app?vid=99540f24-8a13-4aa8-a3ac-7949f221b6b3"},"vehicle_type_id":"4","last_reported":1736943416,"current_range_meters":14400,"station_id":"ce4bgop2rcd13ifvqc1g","pricing_plan_id":"cebpf4jnsgd1na2vs0mg"},{"bike_id":"02d44c0a-962d-4386-a061-0ad017a5041a","system_id":"levelo_inurba_marseille","lat":43.27572,"lon":5.38416,"is_reserved":false,"is_disabled":false,"rental_uris":{"android":"levelo://app?vid=02d44c0a-962d-4386-a061-0ad017a5041a","ios":"levelo://app?vid=02d44c0a-962d-4386-a061-0ad017a5041a"},"vehicle_type_id":"4","last_reported":1736943416,"current_range_meters":14800,"station_id":"ce4bhh92rcd13ifvqfi0","pricing_plan_id":"cebpf4jnsgd1na2vs0mg"},{"bike_id":"29f8b52d-1b60-455c-8e64-474feab0ffde","system_id":"levelo_inurba_marseille","lat":43.27055,"lon":5.40263,"is_reserved":false,"is_disabled":false,"rental_uris":{"android":"levelo://app?vid=29f8b52d-1b60-455c-8e64-474feab0ffde","ios":"levelo://app?vid=29f8b52d-1b60-455c-8e64-474feab0ffde"},"vehicle_type_id":"4","last_reported":1736943416,"current_range_meters":34000,"station_id":"ce4bhk92rcd13ifvqgc0","pricing_plan_id":"cebpf4jnsgd1na2vs0mg"},{"bike_id":"e6842a28-eee2-4900-8592-83fcf62857f0","system_id":"levelo_inurba_marseille","lat":43.30275,"lon":5.37707,"is_reserved":false,"is_disabled":false,"rental_uris":{"android":"levelo://app?vid=e6842a28-eee2-4900-8592-83fcf62857f0","ios":"levelo://app?vid=e6842a28-eee2-4900-8592-83fcf62857f0"},"vehicle_type_id":"4","last_reported":1736943416,"current_range_meters":27600,"station_id":"ce4bguh2rcd13ifvqcj0","pricing_plan_id":"cebpf4jnsgd1na2vs0mg"},{"bike_id":"9103cd03-2458-4dea-b02d-dbf913fda4bd","system_id":"levelo_inurba_marseille","lat":43.2917,"lon":5.37155,"is_reserved":false,"is_disabled":false,"rental_uris":{"android":"levelo://app?vid=9103cd03-2458-4dea-b02d-dbf913fda4bd","ios":"levelo://app?vid=9103cd03-2458-4dea-b02d-dbf913fda4bd"},"vehicle_type_id":"4","last_reported":1736943416,"current_range_meters":38000,"station_id":"ce4bha92rcd13ifvqeh0","pricing_plan_id":"cebpf4jnsgd1na2vs0mg"},{"bike_id":"3fdc4ea1-4430-4f32-ad65-09309d1bf813","system_id":"levelo_inurba_marseille","lat":43.29597,"lon":5.37705,"is_reserved":false,"is_disabled":false,"rental_uris":{"android":"levelo://app?vid=3fdc4ea1-4430-4f32-ad65-09309d1bf813","ios":"levelo://app?vid=3fdc4ea1-4430-4f32-ad65-09309d1bf813"},"vehicle_type_id":"4","last_reported":1736943416,"current_range_meters":19600,"station_id":"ce4bgi92rcd13ifvqb90","pricing_plan_id":"cebpf4jnsgd1na2vs0mg"},{"bike_id":"2d7f3353-743b-41e1-85f2-e32181d4ae48","system_id":"levelo_inurba_marseille","lat":43.319943,"lon":5.381516,"is_reserved":false,"is_disabled":false,"rental_uris":{"android":"levelo://app?vid=2d7f3353-743b-41e1-85f2-e32181d4ae48","ios":"levelo://app?vid=2d7f3353-743b-41e1-85f2-e32181d4ae48"},"vehicle_type_id":"4","last_reported":1736943416,"current_range_meters":37600,"station_id":"ce4bhr12rcd13ifvqhpg","pricing_plan_id":"cebpf4jnsgd1na2vs0mg"},{"bike_id":"511cb4a9-2f4b-4d3e-be2f-819d95791ee6","system_id":"levelo_inurba_marseille","lat":43.27987,"lon":5.4166,"is_reserved":false,"is_disabled":true,"rental_uris":{"android":"levelo://app?vid=511cb4a9-2f4b-4d3e-be2f-819d95791ee6","ios":"levelo://app?vid=511cb4a9-2f4b-4d3e-be2f-819d95791ee6"},"vehicle_type_id":"4","last_reported":1736943416,"current_range_meters":35200,"station_id":"ce4bho12rcd13ifvqh1g","pricing_plan_id":"cebpf4jnsgd1na2vs0mg"},{"bike_id":"a5363ee0-da13-4aaa-bb1f-804032b4e8dd","system_id":"levelo_inurba_marseille","lat":43.30202,"lon":5.36623,"is_reserved":false,"is_disabled":false,"rental_uris":{"android":"levelo://app?vid=a5363ee0-da13-4aaa-bb1f-804032b4e8dd","ios":"levelo://app?vid=a5363ee0-da13-4aaa-bb1f-804032b4e8dd"},"vehicle_type_id":"4","last_reported":1736943416,"current_range_meters":27200,"station_id":"ce4bgrh2rcd13ifvqc8g","pricing_plan_id":"cebpf4jnsgd1na2vs0mg"},{"bike_id":"a2416806-79c7-43e5-806b-68ab3111f8b7","system_id":"levelo_inurba_marseille","lat":43.25927,"lon":5.40893,"is_reserved":false,"is_disabled":false,"rental_uris":{"android":"levelo://app?vid=a2416806-79c7-43e5-806b-68ab3111f8b7","ios":"levelo://app?vid=a2416806-79c7-43e5-806b-68ab3111f8b7"},"vehicle_type_id":"4","last_reported":1736943416,"current_range_meters":20400,"station_id":"ce4bhm92rcd13ifvqglg","pricing_plan_id":"cebpf4jnsgd1na2vs0mg"},{"bike_id":"e8acc705-335d-4fdf-812f-adb357a0f9f3","system_id":"levelo_inurba_marseille","lat":43.28,"lon":5.40013,"is_reserved":false,"is_disabled":false,"rental_uris":{"android":"levelo://app?vid=e8acc705-335d-4fdf-812f-adb357a0f9f3","ios":"levelo://app?vid=e8acc705-335d-4fdf-812f-adb357a0f9f3"},"vehicle_type_id":"4","last_reported":1736943416,"current_range_meters":38000,"station_id":"ce4bho92rcd13ifvqh4g","pricing_plan_id":"cebpf4jnsgd1na2vs0mg"},{"bike_id":"22045315-1b89-42e5-92f2-597283ef610b","system_id":"levelo_inurba_marseille","lat":43.23184,"lon":5.40001,"is_reserved":false,"is_disabled":false,"rental_uris":{"android":"levelo://app?vid=22045315-1b89-42e5-92f2-597283ef610b","ios":"levelo://app?vid=22045315-1b89-42e5-92f2-597283ef610b"},"vehicle_type_id":"4","last_reported":1736943416,"current_range_meters":38400,"station_id":"ce4bhn12rcd13ifvqgqg","pricing_plan_id":"cebpf4jnsgd1na2vs0mg"},{"bike_id":"07707271-2e63-4e44-8938-6537d0cfbbe2","system_id":"levelo_inurba_marseille","lat":43.31724,"lon":5.42395,"is_reserved":false,"is_disabled":false,"rental_uris":{"android":"levelo://app?vid=07707271-2e63-4e44-8938-6537d0cfbbe2","ios":"levelo://app?vid=07707271-2e63-4e44-8938-6537d0cfbbe2"},"vehicle_type_id":"4","last_reported":1736943416,"current_range_meters":26800,"station_id":"ce4bhp92rcd13ifvqhbg","pricing_plan_id":"cebpf4jnsgd1na2vs0mg"},{"bike_id":"b583689d-4b3b-4fec-a4c3-0358dd755494","system_id":"levelo_inurba_marseille","lat":43.26705,"lon":5.38301,"is_reserved":false,"is_disabled":false,"rental_uris":{"android":"levelo://app?vid=b583689d-4b3b-4fec-a4c3-0358dd755494","ios":"levelo://app?vid=b583689d-4b3b-4fec-a4c3-0358dd755494"},"vehicle_type_id":"4","last_reported":1736943416,"current_range_meters":28000,"station_id":"ce4bhg92rcd13ifvqf90","pricing_plan_id":"cebpf4jnsgd1na2vs0mg"},{"bike_id":"bdbd16f5-cde6-4c85-958e-8f9700189ae9","system_id":"levelo_inurba_marseille","lat":43.31355,"lon":5.36747,"is_reserved":false,"is_disabled":false,"rental_uris":{"android":"levelo://app?vid=bdbd16f5-cde6-4c85-958e-8f9700189ae9","ios":"levelo://app?vid=bdbd16f5-cde6-4c85-958e-8f9700189ae9"},"vehicle_type_id":"4","last_reported":1736943416,"current_range_meters":35600,"station_id":"ce4bgr92rcd13ifvqc6g","pricing_plan_id":"cebpf4jnsgd1na2vs0mg"},{"bike_id":"e4259690-3fb4-4dd4-b235-d449ed58344f","system_id":"levelo_inurba_marseille","lat":43.26559,"lon":5.37288,"is_reserved":false,"is_disabled":false,"rental_uris":{"android":"levelo://app?vid=e4259690-3fb4-4dd4-b235-d449ed58344f","ios":"levelo://app?vid=e4259690-3fb4-4dd4-b235-d449ed58344f"},"vehicle_type_id":"4","last_reported":1736943416,"current_range_meters":27200,"station_id":"ce4bhg12rcd13ifvqf70","pricing_plan_id":"cebpf4jnsgd1na2vs0mg"},{"bike_id":"8534aaf4-535f-4db5-8998-0f97ef68ef36","system_id":"levelo_inurba_marseille","lat":43.24384,"lon":5.3708,"is_reserved":false,"is_disabled":false,"rental_uris":{"android":"levelo://app?vid=8534aaf4-535f-4db5-8998-0f97ef68ef36","ios":"levelo://app?vid=8534aaf4-535f-4db5-8998-0f97ef68ef36"},"vehicle_type_id":"4","last_reported":1736943416,"current_range_meters":16000,"station_id":"ce4bhhh2rcd13ifvqfk0","pricing_plan_id":"cebpf4jnsgd1na2vs0mg"},{"bike_id":"b2c33e7b-da8a-4cda-ab12-4bcf5000aca5","system_id":"levelo_inurba_marseille","lat":43.27627,"lon":5.36102,"is_reserved":false,"is_disabled":false,"rental_uris":{"android":"levelo://app?vid=b2c33e7b-da8a-4cda-ab12-4bcf5000aca5","ios":"levelo://app?vid=b2c33e7b-da8a-4cda-ab12-4bcf5000aca5"},"vehicle_type_id":"4","last_reported":1736943416,"current_range_meters":28400,"station_id":"ce4bgj92rcd13ifvqbe0","pricing_plan_id":"cebpf4jnsgd1na2vs0mg"},{"bike_id":"24f4a3c7-d4be-4ffa-8d9a-de7724acc46c","system_id":"levelo_inurba_marseille","lat":43.32103,"lon":5.36787,"is_reserved":false,"is_disabled":false,"rental_uris":{"android":"levelo://app?vid=24f4a3c7-d4be-4ffa-8d9a-de7724acc46c","ios":"levelo://app?vid=24f4a3c7-d4be-4ffa-8d9a-de7724acc46c"},"vehicle_type_id":"4","last_reported":1736943416,"current_range_meters":36400,"station_id":"ce4bhrh2rcd13ifvqhug","pricing_plan_id":"cebpf4jnsgd1na2vs0mg"},{"bike_id":"6972ffb5-b91e-4711-9114-1e0ca2451244","system_id":"levelo_inurba_marseille","lat":43.30541,"lon":5.36712,"is_reserved":false,"is_disabled":false,"rental_uris":{"android":"levelo://app?vid=6972ffb5-b91e-4711-9114-1e0ca2451244","ios":"levelo://app?vid=6972ffb5-b91e-4711-9114-1e0ca2451244"},"vehicle_type_id":"4","last_reported":1736943416,"current_range_meters":23200,"station_id":"ce4bgrp2rcd13ifvqc9g","pricing_plan_id":"cebpf4jnsgd1na2vs0mg"},{"bike_id":"6c02ae22-4e33-4b73-a0d5-7fa499611cc2","system_id":"levelo_inurba_marseille","lat":43.23171,"lon":5.43727,"is_reserved":false,"is_disabled":false,"rental_uris":{"android":"levelo://app?vid=6c02ae22-4e33-4b73-a0d5-7fa499611cc2","ios":"levelo://app?vid=6c02ae22-4e33-4b73-a0d5-7fa499611cc2"},"vehicle_type_id":"4","last_reported":1736943416,"current_range_meters":38000,"station_id":"ce4bhmp2rcd13ifvqgog","pricing_plan_id":"cebpf4jnsgd1na2vs0mg"},{"bike_id":"02908220-1c55-4c15-9a97-ca442f0ecb98","system_id":"levelo_inurba_marseille","lat":43.23158,"lon":5.43721,"is_reserved":false,"is_disabled":false,"rental_uris":{"android":"levelo://app?vid=02908220-1c55-4c15-9a97-ca442f0ecb98","ios":"levelo://app?vid=02908220-1c55-4c15-9a97-ca442f0ecb98"},"vehicle_type_id":"4","last_reported":1736943416,"current_range_meters":39200,"station_id":"ce4bhmp2rcd13ifvqgog","pricing_plan_id":"cebpf4jnsgd1na2vs0mg"},{"bike_id":"42ddda52-c472-4a4b-a671-bb3529780a3a","system_id":"levelo_inurba_marseille","lat":43.240821,"lon":5.378169,"is_reserved":false,"is_disabled":false,"rental_uris":{"android":"levelo://app?vid=42ddda52-c472-4a4b-a671-bb3529780a3a","ios":"levelo://app?vid=42ddda52-c472-4a4b-a671-bb3529780a3a"},"vehicle_type_id":"4","last_reported":1736943416,"current_range_meters":32800,"station_id":"ce4bhnp2rcd13ifvqgvg","pricing_plan_id":"cebpf4jnsgd1na2vs0mg"},{"bike_id":"1ac66b2f-3713-43a8-bee1-1a7f413f5233","system_id":"levelo_inurba_marseille","lat":43.24179,"lon":5.39744,"is_reserved":false,"is_disabled":false,"rental_uris":{"android":"levelo://app?vid=1ac66b2f-3713-43a8-bee1-1a7f413f5233","ios":"levelo://app?vid=1ac66b2f-3713-43a8-bee1-1a7f413f5233"},"vehicle_type_id":"4","last_reported":1736943416,"current_range_meters":32400,"station_id":"ce4bhn12rcd13ifvqgpg","pricing_plan_id":"cebpf4jnsgd1na2vs0mg"},{"bike_id":"3e618921-f70c-4f3b-8d1c-6babd8a43885","system_id":"levelo_inurba_marseille","lat":43.29714,"lon":5.37701,"is_reserved":false,"is_disabled":false,"rental_uris":{"android":"levelo://app?vid=3e618921-f70c-4f3b-8d1c-6babd8a43885","ios":"levelo://app?vid=3e618921-f70c-4f3b-8d1c-6babd8a43885"},"vehicle_type_id":"4","last_reported":1736943416,"current_range_meters":30400,"station_id":"ce4bgkh2rcd13ifvqbl0","pricing_plan_id":"cebpf4jnsgd1na2vs0mg"},{"bike_id":"c15f24fd-270c-49ce-be5d-511315904b57","system_id":"levelo_inurba_marseille","lat":43.29905,"lon":5.43664,"is_reserved":false,"is_disabled":true,"rental_uris":{"android":"levelo://app?vid=c15f24fd-270c-49ce-be5d-511315904b57","ios":"levelo://app?vid=c15f24fd-270c-49ce-be5d-511315904b57"},"vehicle_type_id":"4","last_reported":1736943416,"current_range_meters":0,"station_id":"ce4bhpp2rcd13ifvqhfg","pricing_plan_id":"cebpf4jnsgd1na2vs0mg"},{"bike_id":"4eca376c-b7de-4e43-8dc3-374a00806d1c","system_id":"levelo_inurba_marseille","lat":43.28624,"lon":5.35925,"is_reserved":false,"is_disabled":false,"rental_uris":{"android":"levelo://app?vid=4eca376c-b7de-4e43-8dc3-374a00806d1c","ios":"levelo://app?vid=4eca376c-b7de-4e43-8dc3-374a00806d1c"},"vehicle_type_id":"4","last_reported":1736943416,"current_range_meters":24000,"station_id":"","pricing_plan_id":"cebpf4jnsgd1na2vs0mg"},{"bike_id":"8b8ca2fa-cd05-4891-8062-7fc017abac4d","system_id":"levelo_inurba_marseille","lat":43.31712,"lon":5.37764,"is_reserved":false,"is_disabled":false,"rental_uris":{"android":"levelo://app?vid=8b8ca2fa-cd05-4891-8062-7fc017abac4d","ios":"levelo://app?vid=8b8ca2fa-cd05-4891-8062-7fc017abac4d"},"vehicle_type_id":"4","last_reported":1736943416,"current_range_meters":36400,"station_id":"ce4bgth2rcd13ifvqch0","pricing_plan_id":"cebpf4jnsgd1na2vs0mg"},{"bike_id":"e65f38d5-6017-4a2a-a823-9db3d7e3ecc2","system_id":"levelo_inurba_marseille","lat":43.26557,"lon":5.37283,"is_reserved":false,"is_disabled":false,"rental_uris":{"android":"levelo://app?vid=e65f38d5-6017-4a2a-a823-9db3d7e3ecc2","ios":"levelo://app?vid=e65f38d5-6017-4a2a-a823-9db3d7e3ecc2"},"vehicle_type_id":"4","last_reported":1736943416,"current_range_meters":22000,"station_id":"ce4bhg12rcd13ifvqf70","pricing_plan_id":"cebpf4jnsgd1na2vs0mg"},{"bike_id":"41922604-c7b8-4e93-9da5-3903771d7233","system_id":"levelo_inurba_marseille","lat":43.24812,"lon":5.37462,"is_reserved":false,"is_disabled":false,"rental_uris":{"android":"levelo://app?vid=41922604-c7b8-4e93-9da5-3903771d7233","ios":"levelo://app?vid=41922604-c7b8-4e93-9da5-3903771d7233"},"vehicle_type_id":"4","last_reported":1736943416,"current_range_meters":17200,"station_id":"ce4bhgh2rcd13ifvqfb0","pricing_plan_id":"cebpf4jnsgd1na2vs0mg"},{"bike_id":"0072ca8f-8b6f-4b97-9a44-43eca30c0313","system_id":"levelo_inurba_marseille","lat":43.31177,"lon":5.38723,"is_reserved":false,"is_disabled":false,"rental_uris":{"android":"levelo://app?vid=0072ca8f-8b6f-4b97-9a44-43eca30c0313","ios":"levelo://app?vid=0072ca8f-8b6f-4b97-9a44-43eca30c0313"},"vehicle_type_id":"4","last_reported":1736943416,"current_range_meters":8000,"station_id":"ce4bgv12rcd13ifvqcp0","pricing_plan_id":"cebpf4jnsgd1na2vs0mg"},{"bike_id":"7257a8fe-38cd-4601-aa67-4532f538d662","system_id":"levelo_inurba_marseille","lat":43.26234,"lon":5.37467,"is_reserved":false,"is_disabled":false,"rental_uris":{"android":"levelo://app?vid=7257a8fe-38cd-4601-aa67-4532f538d662","ios":"levelo://app?vid=7257a8fe-38cd-4601-aa67-4532f538d662"},"vehicle_type_id":"4","last_reported":1736943416,"current_range_meters":24800,"station_id":"ce4bhgp2rcd13ifvqfc0","pricing_plan_id":"cebpf4jnsgd1na2vs0mg"},{"bike_id":"d2cbab28-a637-458b-95f2-8d44f859c91d","system_id":"levelo_inurba_marseille","lat":43.33022,"lon":5.39048,"is_reserved":false,"is_disabled":false,"rental_uris":{"android":"levelo://app?vid=d2cbab28-a637-458b-95f2-8d44f859c91d","ios":"levelo://app?vid=d2cbab28-a637-458b-95f2-8d44f859c91d"},"vehicle_type_id":"4","last_reported":1736943416,"current_range_meters":24800,"station_id":"ce4bhr92rcd13ifvqhrg","pricing_plan_id":"cebpf4jnsgd1na2vs0mg"},{"bike_id":"8394f5a8-31fa-4d89-9cc7-8ec508751ca2","system_id":"levelo_inurba_marseille","lat":43.25858,"lon":5.39891,"is_reserved":false,"is_disabled":false,"rental_uris":{"android":"levelo://app?vid=8394f5a8-31fa-4d89-9cc7-8ec508751ca2","ios":"levelo://app?vid=8394f5a8-31fa-4d89-9cc7-8ec508751ca2"},"vehicle_type_id":"4","last_reported":1736943416,"current_range_meters":12800,"station_id":"ce4bhl92rcd13ifvqghg","pricing_plan_id":"cebpf4jnsgd1na2vs0mg"},{"bike_id":"bb804e28-0607-493e-806c-37e58a339016","system_id":"levelo_inurba_marseille","lat":43.25816,"lon":5.39442,"is_reserved":false,"is_disabled":false,"rental_uris":{"android":"levelo://app?vid=bb804e28-0607-493e-806c-37e58a339016","ios":"levelo://app?vid=bb804e28-0607-493e-806c-37e58a339016"},"vehicle_type_id":"4","last_reported":1736943416,"current_range_meters":38000,"station_id":"ce4bhip2rcd13ifvqft0","pricing_plan_id":"cebpf4jnsgd1na2vs0mg"},{"bike_id":"b22d77c3-f37f-47b6-bfd3-17f35050e9db","system_id":"levelo_inurba_marseille","lat":43.27628,"lon":5.36147,"is_reserved":false,"is_disabled":false,"rental_uris":{"android":"levelo://app?vid=b22d77c3-f37f-47b6-bfd3-17f35050e9db","ios":"levelo://app?vid=b22d77c3-f37f-47b6-bfd3-17f35050e9db"},"vehicle_type_id":"4","last_reported":1736943416,"current_range_meters":2800,"station_id":"ce4bgj92rcd13ifvqbe0","pricing_plan_id":"cebpf4jnsgd1na2vs0mg"},{"bike_id":"cb1e2b1c-f8d7-4cb8-aaa2-00d5e7f3fd54","system_id":"levelo_inurba_marseille","lat":43.32344,"lon":5.40624,"is_reserved":false,"is_disabled":false,"rental_uris":{"android":"levelo://app?vid=cb1e2b1c-f8d7-4cb8-aaa2-00d5e7f3fd54","ios":"levelo://app?vid=cb1e2b1c-f8d7-4cb8-aaa2-00d5e7f3fd54"},"vehicle_type_id":"4","last_reported":1736943416,"current_range_meters":29600,"station_id":"ce4bhq92rcd13ifvqhjg","pricing_plan_id":"cebpf4jnsgd1na2vs0mg"},{"bike_id":"489255cf-6ef8-4acc-9a59-3fc2634d71c8","system_id":"levelo_inurba_marseille","lat":43.26558,"lon":5.37284,"is_reserved":false,"is_disabled":false,"rental_uris":{"android":"levelo://app?vid=489255cf-6ef8-4acc-9a59-3fc2634d71c8","ios":"levelo://app?vid=489255cf-6ef8-4acc-9a59-3fc2634d71c8"},"vehicle_type_id":"4","last_reported":1736943416,"current_range_meters":34000,"station_id":"ce4bhg12rcd13ifvqf70","pricing_plan_id":"cebpf4jnsgd1na2vs0mg"},{"bike_id":"17fbe066-9bc9-4967-80bc-cbe70e18d732","system_id":"levelo_inurba_marseille","lat":43.2319,"lon":5.39997,"is_reserved":false,"is_disabled":false,"rental_uris":{"android":"levelo://app?vid=17fbe066-9bc9-4967-80bc-cbe70e18d732","ios":"levelo://app?vid=17fbe066-9bc9-4967-80bc-cbe70e18d732"},"vehicle_type_id":"4","last_reported":1736943416,"current_range_meters":33200,"station_id":"ce4bhn12rcd13ifvqgqg","pricing_plan_id":"cebpf4jnsgd1na2vs0mg"},{"bike_id":"50434e67-9533-4a76-b193-31fac01668f6","system_id":"levelo_inurba_marseille","lat":43.27319,"lon":5.39102,"is_reserved":false,"is_disabled":false,"rental_uris":{"android":"levelo://app?vid=50434e67-9533-4a76-b193-31fac01668f6","ios":"levelo://app?vid=50434e67-9533-4a76-b193-31fac01668f6"},"vehicle_type_id":"4","last_reported":1736943416,"current_range_meters":38800,"station_id":"ce4bhgp2rcd13ifvqfe0","pricing_plan_id":"cebpf4jnsgd1na2vs0mg"},{"bike_id":"8ee1990f-924a-4bd0-a1c5-4a2148732998","system_id":"levelo_inurba_marseille","lat":43.23151,"lon":5.43704,"is_reserved":false,"is_disabled":false,"rental_uris":{"android":"levelo://app?vid=8ee1990f-924a-4bd0-a1c5-4a2148732998","ios":"levelo://app?vid=8ee1990f-924a-4bd0-a1c5-4a2148732998"},"vehicle_type_id":"4","last_reported":1736943416,"current_range_meters":22000,"station_id":"ce4bhmp2rcd13ifvqgog","pricing_plan_id":"cebpf4jnsgd1na2vs0mg"},{"bike_id":"dc49e1db-bead-444a-bbf8-a19de758039b","system_id":"levelo_inurba_marseille","lat":43.33114,"lon":5.3822,"is_reserved":false,"is_disabled":false,"rental_uris":{"android":"levelo://app?vid=dc49e1db-bead-444a-bbf8-a19de758039b","ios":"levelo://app?vid=dc49e1db-bead-444a-bbf8-a19de758039b"},"vehicle_type_id":"4","last_reported":1736943416,"current_range_meters":24400,"station_id":"","pricing_plan_id":"cebpf4jnsgd1na2vs0mg"},{"bike_id":"20a1cd7a-e7b7-4a01-ab93-6bf738c2ec89","system_id":"levelo_inurba_marseille","lat":43.28703,"lon":5.37395,"is_reserved":false,"is_disabled":false,"rental_uris":{"android":"levelo://app?vid=20a1cd7a-e7b7-4a01-ab93-6bf738c2ec89","ios":"levelo://app?vid=20a1cd7a-e7b7-4a01-ab93-6bf738c2ec89"},"vehicle_type_id":"4","last_reported":1736943416,"current_range_meters":38800,"station_id":"ce4bh3p2rcd13ifvqdq0","pricing_plan_id":"cebpf4jnsgd1na2vs0mg"},{"bike_id":"27175032-8397-4c53-a234-a3d78fb4a4e2","system_id":"levelo_inurba_marseille","lat":43.27815,"lon":5.40712,"is_reserved":false,"is_disabled":false,"rental_uris":{"android":"levelo://app?vid=27175032-8397-4c53-a234-a3d78fb4a4e2","ios":"levelo://app?vid=27175032-8397-4c53-a234-a3d78fb4a4e2"},"vehicle_type_id":"4","last_reported":1736943416,"current_range_meters":27600,"station_id":"ce4bhnh2rcd13ifvqgtg","pricing_plan_id":"cebpf4jnsgd1na2vs0mg"},{"bike_id":"f15d55d3-6b0a-4ea3-b664-c2a77586c703","system_id":"levelo_inurba_marseille","lat":43.31229,"lon":5.36872,"is_reserved":false,"is_disabled":false,"rental_uris":{"android":"levelo://app?vid=f15d55d3-6b0a-4ea3-b664-c2a77586c703","ios":"levelo://app?vid=f15d55d3-6b0a-4ea3-b664-c2a77586c703"},"vehicle_type_id":"4","last_reported":1736943416,"current_range_meters":30800,"station_id":"ce4bgl92rcd13ifvqbq0","pricing_plan_id":"cebpf4jnsgd1na2vs0mg"},{"bike_id":"59e39e6e-07d2-4c0d-a96b-2eece172dc89","system_id":"levelo_inurba_marseille","lat":43.26213,"lon":5.37437,"is_reserved":false,"is_disabled":true,"rental_uris":{"android":"levelo://app?vid=59e39e6e-07d2-4c0d-a96b-2eece172dc89","ios":"levelo://app?vid=59e39e6e-07d2-4c0d-a96b-2eece172dc89"},"vehicle_type_id":"4","last_reported":1736943416,"current_range_meters":38800,"station_id":"ce4bhgp2rcd13ifvqfc0","pricing_plan_id":"cebpf4jnsgd1na2vs0mg"},{"bike_id":"84d068aa-4e56-4b4b-adec-2f2d20f5e5ca","system_id":"levelo_inurba_marseille","lat":43.29841,"lon":5.36327,"is_reserved":false,"is_disabled":false,"rental_uris":{"android":"levelo://app?vid=84d068aa-4e56-4b4b-adec-2f2d20f5e5ca","ios":"levelo://app?vid=84d068aa-4e56-4b4b-adec-2f2d20f5e5ca"},"vehicle_type_id":"4","last_reported":1736943416,"current_range_meters":38800,"station_id":"ce4bgpp2rcd13ifvqc3g","pricing_plan_id":"cebpf4jnsgd1na2vs0mg"},{"bike_id":"71ecee77-b8fc-4b04-b1f6-cea15de9e39d","system_id":"levelo_inurba_marseille","lat":43.25118,"lon":5.40322,"is_reserved":false,"is_disabled":false,"rental_uris":{"android":"levelo://app?vid=71ecee77-b8fc-4b04-b1f6-cea15de9e39d","ios":"levelo://app?vid=71ecee77-b8fc-4b04-b1f6-cea15de9e39d"},"vehicle_type_id":"4","last_reported":1736943416,"current_range_meters":18000,"station_id":"ce4bhlh2rcd13ifvqgig","pricing_plan_id":"cebpf4jnsgd1na2vs0mg"},{"bike_id":"0f2fc33a-dd07-43b0-a263-065a69bf42ea","system_id":"levelo_inurba_marseille","lat":43.26055,"lon":5.39396,"is_reserved":false,"is_disabled":false,"rental_uris":{"android":"levelo://app?vid=0f2fc33a-dd07-43b0-a263-065a69bf42ea","ios":"levelo://app?vid=0f2fc33a-dd07-43b0-a263-065a69bf42ea"},"vehicle_type_id":"4","last_reported":1736943416,"current_range_meters":38400,"station_id":"ce4bhh92rcd13ifvqfj0","pricing_plan_id":"cebpf4jnsgd1na2vs0mg"},{"bike_id":"e244918c-eee4-486c-8b77-df4ce1861dcd","system_id":"levelo_inurba_marseille","lat":43.27662,"lon":5.38901,"is_reserved":false,"is_disabled":false,"rental_uris":{"android":"levelo://app?vid=e244918c-eee4-486c-8b77-df4ce1861dcd","ios":"levelo://app?vid=e244918c-eee4-486c-8b77-df4ce1861dcd"},"vehicle_type_id":"4","last_reported":1736943416,"current_range_meters":4000,"station_id":"ce4bhi12rcd13ifvqfo0","pricing_plan_id":"cebpf4jnsgd1na2vs0mg"},{"bike_id":"2d288410-fb65-4415-b421-b41729abee62","system_id":"levelo_inurba_marseille","lat":43.27937,"lon":5.41045,"is_reserved":false,"is_disabled":false,"rental_uris":{"android":"levelo://app?vid=2d288410-fb65-4415-b421-b41729abee62","ios":"levelo://app?vid=2d288410-fb65-4415-b421-b41729abee62"},"vehicle_type_id":"4","last_reported":1736943416,"current_range_meters":32400,"station_id":"ce4bhnp2rcd13ifvqh0g","pricing_plan_id":"cebpf4jnsgd1na2vs0mg"},{"bike_id":"a2acbd59-835d-49a5-be65-bf1391599127","system_id":"levelo_inurba_marseille","lat":43.25936,"lon":5.40898,"is_reserved":false,"is_disabled":false,"rental_uris":{"android":"levelo://app?vid=a2acbd59-835d-49a5-be65-bf1391599127","ios":"levelo://app?vid=a2acbd59-835d-49a5-be65-bf1391599127"},"vehicle_type_id":"4","last_reported":1736943416,"current_range_meters":17200,"station_id":"ce4bhm92rcd13ifvqglg","pricing_plan_id":"cebpf4jnsgd1na2vs0mg"},{"bike_id":"c0fd2063-31ae-4171-af17-771dbb4fa212","system_id":"levelo_inurba_marseille","lat":43.22942,"lon":5.35389,"is_reserved":false,"is_disabled":false,"rental_uris":{"android":"levelo://app?vid=c0fd2063-31ae-4171-af17-771dbb4fa212","ios":"levelo://app?vid=c0fd2063-31ae-4171-af17-771dbb4fa212"},"vehicle_type_id":"4","last_reported":1736943416,"current_range_meters":38800,"station_id":"cpo3532slgdg3j2ikp40","pricing_plan_id":"cebpf4jnsgd1na2vs0mg"},{"bike_id":"7b2751da-c371-44e2-98c9-6eeeee6b9d45","system_id":"levelo_inurba_marseille","lat":43.2593,"lon":5.40881,"is_reserved":false,"is_disabled":false,"rental_uris":{"android":"levelo://app?vid=7b2751da-c371-44e2-98c9-6eeeee6b9d45","ios":"levelo://app?vid=7b2751da-c371-44e2-98c9-6eeeee6b9d45"},"vehicle_type_id":"4","last_reported":1736943416,"current_range_meters":32400,"station_id":"ce4bhm92rcd13ifvqglg","pricing_plan_id":"cebpf4jnsgd1na2vs0mg"},{"bike_id":"85e89f97-5835-4284-9d45-07cdabdff905","system_id":"levelo_inurba_marseille","lat":43.28939,"lon":5.38403,"is_reserved":false,"is_disabled":false,"rental_uris":{"android":"levelo://app?vid=85e89f97-5835-4284-9d45-07cdabdff905","ios":"levelo://app?vid=85e89f97-5835-4284-9d45-07cdabdff905"},"vehicle_type_id":"4","last_reported":1736943416,"current_range_meters":20400,"station_id":"ce4bh612rcd13ifvqe6g","pricing_plan_id":"cebpf4jnsgd1na2vs0mg"},{"bike_id":"73c49789-f682-4291-b183-cd469bff96fa","system_id":"levelo_inurba_marseille","lat":43.23159,"lon":5.43721,"is_reserved":false,"is_disabled":false,"rental_uris":{"android":"levelo://app?vid=73c49789-f682-4291-b183-cd469bff96fa","ios":"levelo://app?vid=73c49789-f682-4291-b183-cd469bff96fa"},"vehicle_type_id":"4","last_reported":1736943416,"current_range_meters":34800,"station_id":"ce4bhmp2rcd13ifvqgog","pricing_plan_id":"cebpf4jnsgd1na2vs0mg"},{"bike_id":"d90d8471-9b4e-4ba1-9bfc-2d169c0d69c5","system_id":"levelo_inurba_marseille","lat":43.27068,"lon":5.4026,"is_reserved":false,"is_disabled":false,"rental_uris":{"android":"levelo://app?vid=d90d8471-9b4e-4ba1-9bfc-2d169c0d69c5","ios":"levelo://app?vid=d90d8471-9b4e-4ba1-9bfc-2d169c0d69c5"},"vehicle_type_id":"4","last_reported":1736943416,"current_range_meters":25200,"station_id":"ce4bhk92rcd13ifvqgc0","pricing_plan_id":"cebpf4jnsgd1na2vs0mg"},{"bike_id":"d7d0eb5c-ac49-4cac-82a9-d4f4545c4291","system_id":"levelo_inurba_marseille","lat":43.29097,"lon":5.38133,"is_reserved":false,"is_disabled":true,"rental_uris":{"android":"levelo://app?vid=d7d0eb5c-ac49-4cac-82a9-d4f4545c4291","ios":"levelo://app?vid=d7d0eb5c-ac49-4cac-82a9-d4f4545c4291"},"vehicle_type_id":"4","last_reported":1736943416,"current_range_meters":800,"station_id":"ce4bh512rcd13ifvqe2g","pricing_plan_id":"cebpf4jnsgd1na2vs0mg"},{"bike_id":"4fcc1908-dbb1-4637-a5c7-041abdcb6bdd","system_id":"levelo_inurba_marseille","lat":43.30531,"lon":5.36533,"is_reserved":false,"is_disabled":false,"rental_uris":{"android":"levelo://app?vid=4fcc1908-dbb1-4637-a5c7-041abdcb6bdd","ios":"levelo://app?vid=4fcc1908-dbb1-4637-a5c7-041abdcb6bdd"},"vehicle_type_id":"4","last_reported":1736943416,"current_range_meters":38000,"station_id":"ce4bgs12rcd13ifvqcag","pricing_plan_id":"cebpf4jnsgd1na2vs0mg"},{"bike_id":"8e1700e2-2825-47f3-9373-6fc227095b7d","system_id":"levelo_inurba_marseille","lat":43.2417,"lon":5.36403,"is_reserved":false,"is_disabled":false,"rental_uris":{"android":"levelo://app?vid=8e1700e2-2825-47f3-9373-6fc227095b7d","ios":"levelo://app?vid=8e1700e2-2825-47f3-9373-6fc227095b7d"},"vehicle_type_id":"4","last_reported":1736943416,"current_range_meters":36400,"station_id":"cpo36qri1sfpv3e86is0","pricing_plan_id":"cebpf4jnsgd1na2vs0mg"},{"bike_id":"c1d95d81-2534-491b-af2b-6abc5ddcbfd4","system_id":"levelo_inurba_marseille","lat":43.32025,"lon":5.41565,"is_reserved":false,"is_disabled":false,"rental_uris":{"android":"levelo://app?vid=c1d95d81-2534-491b-af2b-6abc5ddcbfd4","ios":"levelo://app?vid=c1d95d81-2534-491b-af2b-6abc5ddcbfd4"},"vehicle_type_id":"4","last_reported":1736943416,"current_range_meters":27200,"station_id":"ce4bhq92rcd13ifvqhkg","pricing_plan_id":"cebpf4jnsgd1na2vs0mg"},{"bike_id":"f0a5246f-a04e-4913-a007-7b1de0fa333b","system_id":"levelo_inurba_marseille","lat":43.31237,"lon":5.36872,"is_reserved":false,"is_disabled":false,"rental_uris":{"android":"levelo://app?vid=f0a5246f-a04e-4913-a007-7b1de0fa333b","ios":"levelo://app?vid=f0a5246f-a04e-4913-a007-7b1de0fa333b"},"vehicle_type_id":"4","last_reported":1736943416,"current_range_meters":36400,"station_id":"ce4bgl92rcd13ifvqbq0","pricing_plan_id":"cebpf4jnsgd1na2vs0mg"},{"bike_id":"4a4d296c-e71a-4d73-8515-0b49a9079d8d","system_id":"levelo_inurba_marseille","lat":43.23186,"lon":5.39984,"is_reserved":false,"is_disabled":false,"rental_uris":{"android":"levelo://app?vid=4a4d296c-e71a-4d73-8515-0b49a9079d8d","ios":"levelo://app?vid=4a4d296c-e71a-4d73-8515-0b49a9079d8d"},"vehicle_type_id":"4","last_reported":1736943416,"current_range_meters":39200,"station_id":"ce4bhn12rcd13ifvqgqg","pricing_plan_id":"cebpf4jnsgd1na2vs0mg"},{"bike_id":"b8e79c63-32ff-4e91-8cf6-f3207702e9aa","system_id":"levelo_inurba_marseille","lat":43.29007,"lon":5.35618,"is_reserved":false,"is_disabled":false,"rental_uris":{"android":"levelo://app?vid=b8e79c63-32ff-4e91-8cf6-f3207702e9aa","ios":"levelo://app?vid=b8e79c63-32ff-4e91-8cf6-f3207702e9aa"},"vehicle_type_id":"4","last_reported":1736943416,"current_range_meters":39200,"station_id":"ce4bhb92rcd13ifvqen0","pricing_plan_id":"cebpf4jnsgd1na2vs0mg"},{"bike_id":"d28c64db-672d-4dc2-9aa8-36d7327fadae","system_id":"levelo_inurba_marseille","lat":43.31437,"lon":5.37415,"is_reserved":false,"is_disabled":false,"rental_uris":{"android":"levelo://app?vid=d28c64db-672d-4dc2-9aa8-36d7327fadae","ios":"levelo://app?vid=d28c64db-672d-4dc2-9aa8-36d7327fadae"},"vehicle_type_id":"4","last_reported":1736943416,"current_range_meters":8000,"station_id":"","pricing_plan_id":"cebpf4jnsgd1na2vs0mg"},{"bike_id":"b438a536-2826-455d-89c2-219747efc24e","system_id":"levelo_inurba_marseille","lat":43.27359,"lon":5.36247,"is_reserved":false,"is_disabled":false,"rental_uris":{"android":"levelo://app?vid=b438a536-2826-455d-89c2-219747efc24e","ios":"levelo://app?vid=b438a536-2826-455d-89c2-219747efc24e"},"vehicle_type_id":"4","last_reported":1736943416,"current_range_meters":38000,"station_id":"ce4bhbh2rcd13ifvqeo0","pricing_plan_id":"cebpf4jnsgd1na2vs0mg"},{"bike_id":"6027163c-6e0b-44a2-bfed-3a477a83b455","system_id":"levelo_inurba_marseille","lat":43.317023,"lon":5.377625,"is_reserved":false,"is_disabled":true,"rental_uris":{"android":"levelo://app?vid=6027163c-6e0b-44a2-bfed-3a477a83b455","ios":"levelo://app?vid=6027163c-6e0b-44a2-bfed-3a477a83b455"},"vehicle_type_id":"4","last_reported":1736943416,"current_range_meters":38800,"station_id":"ce4bgth2rcd13ifvqch0","pricing_plan_id":"cebpf4jnsgd1na2vs0mg"},{"bike_id":"d4f5581a-3d89-4d33-bdd6-d3fc59c07e88","system_id":"levelo_inurba_marseille","lat":43.28716,"lon":5.37936,"is_reserved":false,"is_disabled":false,"rental_uris":{"android":"levelo://app?vid=d4f5581a-3d89-4d33-bdd6-d3fc59c07e88","ios":"levelo://app?vid=d4f5581a-3d89-4d33-bdd6-d3fc59c07e88"},"vehicle_type_id":"4","last_reported":1736943416,"current_range_meters":16400,"station_id":"ce4bh9p2rcd13ifvqec0","pricing_plan_id":"cebpf4jnsgd1na2vs0mg"},{"bike_id":"e1bd985f-ac67-4d02-b09b-b5d2b74cd95a","system_id":"levelo_inurba_marseille","lat":43.28447,"lon":5.39197,"is_reserved":false,"is_disabled":false,"rental_uris":{"android":"levelo://app?vid=e1bd985f-ac67-4d02-b09b-b5d2b74cd95a","ios":"levelo://app?vid=e1bd985f-ac67-4d02-b09b-b5d2b74cd95a"},"vehicle_type_id":"4","last_reported":1736943416,"current_range_meters":16800,"station_id":"ce4bhoh2rcd13ifvqh5g","pricing_plan_id":"cebpf4jnsgd1na2vs0mg"},{"bike_id":"2f583df8-7c5b-472c-a0c7-fb2c4c603593","system_id":"levelo_inurba_marseille","lat":43.29554,"lon":5.42294,"is_reserved":false,"is_disabled":true,"rental_uris":{"android":"levelo://app?vid=2f583df8-7c5b-472c-a0c7-fb2c4c603593","ios":"levelo://app?vid=2f583df8-7c5b-472c-a0c7-fb2c4c603593"},"vehicle_type_id":"4","last_reported":1736943416,"current_range_meters":800,"station_id":"ce4bhph2rcd13ifvqhdg","pricing_plan_id":"cebpf4jnsgd1na2vs0mg"},{"bike_id":"d8d709c6-f8f0-459f-ad06-8a95819b6737","system_id":"levelo_inurba_marseille","lat":43.29556,"lon":5.42295,"is_reserved":false,"is_disabled":false,"rental_uris":{"android":"levelo://app?vid=d8d709c6-f8f0-459f-ad06-8a95819b6737","ios":"levelo://app?vid=d8d709c6-f8f0-459f-ad06-8a95819b6737"},"vehicle_type_id":"4","last_reported":1736943416,"current_range_meters":33600,"station_id":"ce4bhph2rcd13ifvqhdg","pricing_plan_id":"cebpf4jnsgd1na2vs0mg"},{"bike_id":"33dbaf2b-0f18-4fa2-bf11-95540a9fbc76","system_id":"levelo_inurba_marseille","lat":43.26041,"lon":5.37542,"is_reserved":false,"is_disabled":false,"rental_uris":{"android":"levelo://app?vid=33dbaf2b-0f18-4fa2-bf11-95540a9fbc76","ios":"levelo://app?vid=33dbaf2b-0f18-4fa2-bf11-95540a9fbc76"},"vehicle_type_id":"4","last_reported":1736943416,"current_range_meters":32400,"station_id":"ce4bhgh2rcd13ifvqfa0","pricing_plan_id":"cebpf4jnsgd1na2vs0mg"},{"bike_id":"246593fd-d2b3-476d-9597-67df66b33060","system_id":"levelo_inurba_marseille","lat":43.28047,"lon":5.36944,"is_reserved":false,"is_disabled":true,"rental_uris":{"android":"levelo://app?vid=246593fd-d2b3-476d-9597-67df66b33060","ios":"levelo://app?vid=246593fd-d2b3-476d-9597-67df66b33060"},"vehicle_type_id":"4","last_reported":1736943416,"current_range_meters":4000,"station_id":"ce4bha12rcd13ifvqef0","pricing_plan_id":"cebpf4jnsgd1na2vs0mg"},{"bike_id":"df1f997f-5dd3-4499-9559-a5d2d38cb8f5","system_id":"levelo_inurba_marseille","lat":43.31535,"lon":5.37184,"is_reserved":false,"is_disabled":false,"rental_uris":{"android":"levelo://app?vid=df1f997f-5dd3-4499-9559-a5d2d38cb8f5","ios":"levelo://app?vid=df1f997f-5dd3-4499-9559-a5d2d38cb8f5"},"vehicle_type_id":"4","last_reported":1736943416,"current_range_meters":38800,"station_id":"","pricing_plan_id":"cebpf4jnsgd1na2vs0mg"},{"bike_id":"60d4c354-e223-4871-b993-94eceb4df85b","system_id":"levelo_inurba_marseille","lat":43.26192,"lon":5.37458,"is_reserved":false,"is_disabled":false,"rental_uris":{"android":"levelo://app?vid=60d4c354-e223-4871-b993-94eceb4df85b","ios":"levelo://app?vid=60d4c354-e223-4871-b993-94eceb4df85b"},"vehicle_type_id":"4","last_reported":1736943416,"current_range_meters":30800,"station_id":"ce4bhgp2rcd13ifvqfc0","pricing_plan_id":"cebpf4jnsgd1na2vs0mg"},{"bike_id":"fc79b901-74ef-4a8e-9529-6af86f9e5e3a","system_id":"levelo_inurba_marseille","lat":43.27836,"lon":5.40723,"is_reserved":false,"is_disabled":false,"rental_uris":{"android":"levelo://app?vid=fc79b901-74ef-4a8e-9529-6af86f9e5e3a","ios":"levelo://app?vid=fc79b901-74ef-4a8e-9529-6af86f9e5e3a"},"vehicle_type_id":"4","last_reported":1736943416,"current_range_meters":35200,"station_id":"ce4bhnh2rcd13ifvqgtg","pricing_plan_id":"cebpf4jnsgd1na2vs0mg"},{"bike_id":"aeb5487d-fd89-43a6-99c8-e0a00c2e3943","system_id":"levelo_inurba_marseille","lat":43.3016,"lon":5.38101,"is_reserved":false,"is_disabled":false,"rental_uris":{"android":"levelo://app?vid=aeb5487d-fd89-43a6-99c8-e0a00c2e3943","ios":"levelo://app?vid=aeb5487d-fd89-43a6-99c8-e0a00c2e3943"},"vehicle_type_id":"4","last_reported":1736943416,"current_range_meters":38000,"station_id":"ce4bgjp2rcd13ifvqbh0","pricing_plan_id":"cebpf4jnsgd1na2vs0mg"},{"bike_id":"20f47a16-142e-4016-b800-916ad9b55947","system_id":"levelo_inurba_marseille","lat":43.27623,"lon":5.36137,"is_reserved":false,"is_disabled":false,"rental_uris":{"android":"levelo://app?vid=20f47a16-142e-4016-b800-916ad9b55947","ios":"levelo://app?vid=20f47a16-142e-4016-b800-916ad9b55947"},"vehicle_type_id":"4","last_reported":1736943416,"current_range_meters":38800,"station_id":"ce4bgj92rcd13ifvqbe0","pricing_plan_id":"cebpf4jnsgd1na2vs0mg"},{"bike_id":"5b8ab369-8d52-45f4-9fc5-94dd70055afe","system_id":"levelo_inurba_marseille","lat":43.2668,"lon":5.38281,"is_reserved":false,"is_disabled":false,"rental_uris":{"android":"levelo://app?vid=5b8ab369-8d52-45f4-9fc5-94dd70055afe","ios":"levelo://app?vid=5b8ab369-8d52-45f4-9fc5-94dd70055afe"},"vehicle_type_id":"4","last_reported":1736943416,"current_range_meters":30400,"station_id":"ce4bhg92rcd13ifvqf90","pricing_plan_id":"cebpf4jnsgd1na2vs0mg"},{"bike_id":"61a827c0-c64e-4471-b7c3-a271fc1ef410","system_id":"levelo_inurba_marseille","lat":43.25869,"lon":5.399,"is_reserved":false,"is_disabled":false,"rental_uris":{"android":"levelo://app?vid=61a827c0-c64e-4471-b7c3-a271fc1ef410","ios":"levelo://app?vid=61a827c0-c64e-4471-b7c3-a271fc1ef410"},"vehicle_type_id":"4","last_reported":1736943416,"current_range_meters":36800,"station_id":"ce4bhl92rcd13ifvqghg","pricing_plan_id":"cebpf4jnsgd1na2vs0mg"},