{"last_updated":1686409552,"ttl":30,"version":"2.2","data":{"bikes":[{"bike_id":"e215e44b-264e-4626-ae88-2d3a12aefe09","system_id":"levelo_inurba_marseille","lat":43.309076,"lon":5.368465,"is_reserved":false,"is_disabled":false,"rental_uris":{"android":"levelo://app?vid=e215e44b-264e-4626-ae88-2d3a12aefe09","ios":"levelo://app?vid=e215e44b-264e-4626-ae88-2d3a12aefe09"},"vehicle_type_id":"4","last_reported":1686409553,"current_range_meters":13200,"station_id":"ce4bgn92rcd13ifvqbvg","pricing_plan_id":"free"},{"bike_id":"dd739637-44ff-43b8-bcaa-a5b402376d9d","system_id":"levelo_inurba_marseille","lat":43.314811,"lon":5.373103,"is_reserved":false,"is_disabled":false,"rental_uris":{"android":"levelo://app?vid=dd739637-44ff-43b8-bcaa-a5b402376d9d","ios":"levelo://app?vid=dd739637-44ff-43b8-bcaa-a5b402376d9d"},"vehicle_type_id":"4","last_reported":1686409553,"current_range_meters":30800,"station_id":"ce4bgt12rcd13ifvqcd0","pricing_plan_id":"free"},{"bike_id":"fdc7ba17-bdd6-4339-8f2f-bc9b0a656f4b","system_id":"levelo_inurba_marseille","lat":43.314811,"lon":5.373104,"is_reserved":false,"is_disabled":false,"rental_uris":{"android":"levelo://app?vid=fdc7ba17-bdd6-4339-8f2f-bc9b0a656f4b","ios":"levelo://app?vid=fdc7ba17-bdd6-4339-8f2f-bc9b0a656f4b"},"vehicle_type_id":"4","last_reported":1686409553,"current_range_meters":5200,"station_id":"ce4bgt12rcd13ifvqcd0","pricing_plan_id":"free"},{"bike_id":"2dbc8303-1e1a-4d08-9dee-6babc9247d38","system_id":"levelo_inurba_marseille","lat":43.3069,"lon":5.36608,"is_reserved":false,"is_disabled":false,"rental_uris":{"android":"levelo://app?vid=2dbc8303-1e1a-4d08-9dee-6babc9247d38","ios":"levelo://app?vid=2dbc8303-1e1a-4d08-9dee-6babc9247d38"},"vehicle_type_id":"4","last_reported":1686409553,"current_range_meters":25200,"station_id":"","pricing_plan_id":"free"},{"bike_id":"05099349-337b-4d46-ab01-0da7287ec5ff","system_id":"levelo_inurba_marseille","lat":43.309076,"lon":5.368465,"is_reserved":false,"is_disabled":false,"rental_uris":{"android":"levelo://app?vid=05099349-337b-4d46-ab01-0da7287ec5ff","ios":"levelo://app?vid=05099349-337b-4d46-ab01-0da7287ec5ff"},"vehicle_type_id":"4","last_reported":1686409553,"current_range_meters":28800,"station_id":"ce4bgn92rcd13ifvqbvg","pricing_plan_id":"free"},{"bike_id":"726e69fe-0789-44cc-8872-aafade0684ce","system_id":"levelo_inurba_marseille","lat":43.306,"lon":5.36574,"is_reserved":false,"is_disabled":false,"rental_uris":{"android":"levelo://app?vid=726e69fe-0789-44cc-8872-aafade0684ce","ios":"levelo://app?vid=726e69fe-0789-44cc-8872-aafade0684ce"},"vehicle_type_id":"4","last_reported":1686409553,"current_range_meters":8800,"station_id":"","pricing_plan_id":"free"},{"bike_id":"e13287f9-25c2-4ec5-8ab9-d8a96da95b66","system_id":"levelo_inurba_marseille","lat":43.31749,"lon":5.37472,"is_reserved":false,"is_disabled":false,"rental_uris":{"android":"levelo://app?vid=e13287f9-25c2-4ec5-8ab9-d8a96da95b66","ios":"levelo://app?vid=e13287f9-25c2-4ec5-8ab9-d8a96da95b66"},"vehicle_type_id":"4","last_reported":1686409553,"current_range_meters":12400,"station_id":"","pricing_plan_id":"free"},{"bike_id":"12a9cd77-87f2-467d-a292-41b2c8e1f05a","system_id":"levelo_inurba_marseille","lat":43.30529,"lon":5.36561,"is_reserved":false,"is_disabled":false,"rental_uris":{"android":"levelo://app?vid=12a9cd77-87f2-467d-a292-41b2c8e1f05a","ios":"levelo://app?vid=12a9cd77-87f2-467d-a292-41b2c8e1f05a"},"vehicle_type_id":"4","last_reported":1686409553,"current_range_meters":13600,"station_id":"","pricing_plan_id":"free"},{"bike_id":"a43dfa61-899d-484d-a02a-70b3c4ce07a1","system_id":"levelo_inurba_marseille","lat":43.311125,"lon":5.377624,"is_reserved":false,"is_disabled":false,"rental_uris":{"android":"levelo://app?vid=a43dfa61-899d-484d-a02a-70b3c4ce07a1","ios":"levelo://app?vid=a43dfa61-899d-484d-a02a-70b3c4ce07a1"},"vehicle_type_id":"4","last_reported":1686409553,"current_range_meters":29600,"station_id":"ce4bgt92rcd13ifvqcg0","pricing_plan_id":"free"},{"bike_id":"6ca7f4f0-9c0c-44fb-aa3e-979faab6c99c","system_id":"levelo_inurba_marseille","lat":43.30587,"lon":5.37443,"is_reserved":false,"is_disabled":false,"rental_uris":{"android":"levelo://app?vid=6ca7f4f0-9c0c-44fb-aa3e-979faab6c99c","ios":"levelo://app?vid=6ca7f4f0-9c0c-44fb-aa3e-979faab6c99c"},"vehicle_type_id":"4","last_reported":1686409553,"current_range_meters":29600,"station_id":"","pricing_plan_id":"free"},{"bike_id":"8eca7e10-d6e4-4c71-9168-0a9e8f05aff4","system_id":"levelo_inurba_marseille","lat":43.31083,"lon":5.3799,"is_reserved":false,"is_disabled":false,"rental_uris":{"android":"levelo://app?vid=8eca7e10-d6e4-4c71-9168-0a9e8f05aff4","ios":"levelo://app?vid=8eca7e10-d6e4-4c71-9168-0a9e8f05aff4"},"vehicle_type_id":"4","last_reported":1686409553,"current_range_meters":16400,"station_id":"","pricing_plan_id":"free"},{"bike_id":"a7ef6819-2138-44d4-9dd5-01d5593dd9c2","system_id":"levelo_inurba_marseille","lat":43.31592,"lon":5.38075,"is_reserved":false,"is_disabled":false,"rental_uris":{"android":"levelo://app?vid=a7ef6819-2138-44d4-9dd5-01d5593dd9c2","ios":"levelo://app?vid=a7ef6819-2138-44d4-9dd5-01d5593dd9c2"},"vehicle_type_id":"4","last_reported":1686409553,"current_range_meters":15600,"station_id":"ce4bhsp2rcd13ifvqi50","pricing_plan_id":"free"},{"bike_id":"a755cb6f-c4df-4c8d-86d1-18f98b34aa93","system_id":"levelo_inurba_marseille","lat":43.31595,"lon":5.38086,"is_reserved":false,"is_disabled":false,"rental_uris":{"android":"levelo://app?vid=a755cb6f-c4df-4c8d-86d1-18f98b34aa93","ios":"levelo://app?vid=a755cb6f-c4df-4c8d-86d1-18f98b34aa93"},"vehicle_type_id":"4","last_reported":1686409553,"current_range_meters":24400,"station_id":"","pricing_plan_id":"free"},{"bike_id":"826649aa-06ae-481c-852d-dd8bc0cd1fa7","system_id":"levelo_inurba_marseille","lat":43.30143,"lon":5.37413,"is_reserved":false,"is_disabled":false,"rental_uris":{"android":"levelo://app?vid=826649aa-06ae-481c-852d-dd8bc0cd1fa7","ios":"levelo://app?vid=826649aa-06ae-481c-852d-dd8bc0cd1fa7"},"vehicle_type_id":"4","last_reported":1686409553,"current_range_meters":1600,"station_id":"ce4bgs92rcd13ifvqcc0","pricing_plan_id":"free"},{"bike_id":"3eef39ae-76b4-4d9f-a29e-cc1ca2d4c0d8","system_id":"levelo_inurba_marseille","lat":43.30143,"lon":5.37413,"is_reserved":false,"is_disabled":false,"rental_uris":{"android":"levelo://app?vid=3eef39ae-76b4-4d9f-a29e-cc1ca2d4c0d8","ios":"levelo://app?vid=3eef39ae-76b4-4d9f-a29e-cc1ca2d4c0d8"},"vehicle_type_id":"4","last_reported":1686409553,"current_range_meters":17600,"station_id":"ce4bgs92rcd13ifvqcc0","pricing_plan_id":"free"},{"bike_id":"b111a937-5f12-4efd-9d72-8f1518bd588a","system_id":"levelo_inurba_marseille","lat":43.30143,"lon":5.37413,"is_reserved":false,"is_disabled":false,"rental_uris":{"android":"levelo://app?vid=b111a937-5f12-4efd-9d72-8f1518bd588a","ios":"levelo://app?vid=b111a937-5f12-4efd-9d72-8f1518bd588a"},"vehicle_type_id":"4","last_reported":1686409553,"current_range_meters":28800,"station_id":"ce4bgs92rcd13ifvqcc0","pricing_plan_id":"free"},{"bike_id":"431a1f72-4fd7-41f8-a460-490c3ad60c19","system_id":"levelo_inurba_marseille","lat":43.32832,"lon":5.36681,"is_reserved":false,"is_disabled":false,"rental_uris":{"android":"levelo://app?vid=431a1f72-4fd7-41f8-a460-490c3ad60c19","ios":"levelo://app?vid=431a1f72-4fd7-41f8-a460-490c3ad60c19"},"vehicle_type_id":"4","last_reported":1686409553,"current_range_meters":31200,"station_id":"ce4bhs92rcd13ifvqi0g","pricing_plan_id":"free"},{"bike_id":"ef113ebd-504e-4171-965a-bb2c481d7b30","system_id":"levelo_inurba_marseille","lat":43.328371,"lon":5.366909,"is_reserved":false,"is_disabled":false,"rental_uris":{"android":"levelo://app?vid=ef113ebd-504e-4171-965a-bb2c481d7b30","ios":"levelo://app?vid=ef113ebd-504e-4171-965a-bb2c481d7b30"},"vehicle_type_id":"4","last_reported":1686409553,"current_range_meters":10000,"station_id":"ce4bhs92rcd13ifvqi0g","pricing_plan_id":"free"},{"bike_id":"a171b683-f844-4b6f-8205-0c579bd8e9e8","system_id":"levelo_inurba_marseille","lat":43.32837,"lon":5.36687,"is_reserved":false,"is_disabled":false,"rental_uris":{"android":"levelo://app?vid=a171b683-f844-4b6f-8205-0c579bd8e9e8","ios":"levelo://app?vid=a171b683-f844-4b6f-8205-0c579bd8e9e8"},"vehicle_type_id":"4","last_reported":1686409553,"current_range_meters":31200,"station_id":"ce4bhs92rcd13ifvqi0g","pricing_plan_id":"free"},{"bike_id":"1a47bd56-433a-416e-a163-a36006028b27","system_id":"levelo_inurba_marseille","lat":43.29709,"lon":5.36615,"is_reserved":false,"is_disabled":false,"rental_uris":{"android":"levelo://app?vid=1a47bd56-433a-416e-a163-a36006028b27","ios":"levelo://app?vid=1a47bd56-433a-416e-a163-a36006028b27"},"vehicle_type_id":"4","last_reported":1686409553,"current_range_meters":11200,"station_id":"","pricing_plan_id":"free"},{"bike_id":"03114c25-71f1-4ffc-b23f-3909ed4d045b","system_id":"levelo_inurba_marseille","lat":43.29702,"lon":5.36609,"is_reserved":false,"is_disabled":false,"rental_uris":{"android":"levelo://app?vid=03114c25-71f1-4ffc-b23f-3909ed4d045b","ios":"levelo://app?vid=03114c25-71f1-4ffc-b23f-3909ed4d045b"},"vehicle_type_id":"4","last_reported":1686409553,"current_range_meters":12400,"station_id":"","pricing_plan_id":"free"},{"bike_id":"c4ab7e87-b6d4-454e-b866-dc4008206273","system_id":"levelo_inurba_marseille","lat":43.29573,"lon":5.367355,"is_reserved":false,"is_disabled":false,"rental_uris":{"android":"levelo://app?vid=c4ab7e87-b6d4-454e-b866-dc4008206273","ios":"levelo://app?vid=c4ab7e87-b6d4-454e-b866-dc4008206273"},"vehicle_type_id":"4","last_reported":1686409553,"current_range_meters":13600,"station_id":"ce4bgph2rcd13ifvqc2g","pricing_plan_id":"free"},{"bike_id":"7f02ef36-f4cc-4c7d-a9a7-2bb12953b96b","system_id":"levelo_inurba_marseille","lat":43.296131,"lon":5.370791,"is_reserved":false,"is_disabled":false,"rental_uris":{"android":"levelo://app?vid=7f02ef36-f4cc-4c7d-a9a7-2bb12953b96b","ios":"levelo://app?vid=7f02ef36-f4cc-4c7d-a9a7-2bb12953b96b"},"vehicle_type_id":"4","last_reported":1686409553,"current_range_meters":0,"station_id":"ce4bgnh2rcd13ifvqc0g","pricing_plan_id":"free"},{"bike_id":"f65d5ddd-7331-44f2-9ebd-dd0af43e85b0","system_id":"levelo_inurba_marseille","lat":43.296198,"lon":5.371515,"is_reserved":false,"is_disabled":false,"rental_uris":{"android":"levelo://app?vid=f65d5ddd-7331-44f2-9ebd-dd0af43e85b0","ios":"levelo://app?vid=f65d5ddd-7331-44f2-9ebd-dd0af43e85b0"},"vehicle_type_id":"4","last_reported":1686409553,"current_range_meters":24400,"station_id":"","pricing_plan_id":"free"},{"bike_id":"935b332f-952f-4ebf-be0d-d9c5078a71e3","system_id":"levelo_inurba_marseille","lat":43.296131,"lon":5.370773,"is_reserved":false,"is_disabled":false,"rental_uris":{"android":"levelo://app?vid=935b332f-952f-4ebf-be0d-d9c5078a71e3","ios":"levelo://app?vid=935b332f-952f-4ebf-be0d-d9c5078a71e3"},"vehicle_type_id":"4","last_reported":1686409553,"current_range_meters":3600,"station_id":"ce4bgnh2rcd13ifvqc0g","pricing_plan_id":"free"},{"bike_id":"b71e3585-bc1d-4382-91dc-97b725f753c8","system_id":"levelo_inurba_marseille","lat":43.31758,"lon":5.39021,"is_reserved":false,"is_disabled":false,"rental_uris":{"android":"levelo://app?vid=b71e3585-bc1d-4382-91dc-97b725f753c8","ios":"levelo://app?vid=b71e3585-bc1d-4382-91dc-97b725f753c8"},"vehicle_type_id":"4","last_reported":1686409553,"current_range_meters":22000,"station_id":"ce4bhqp2rcd13ifvqhng","pricing_plan_id":"free"},{"bike_id":"74839099-fc2e-4e4c-82a7-c4d5209c2e4c","system_id":"levelo_inurba_marseille","lat":43.29579,"lon":5.37519,"is_reserved":false,"is_disabled":false,"rental_uris":{"android":"levelo://app?vid=74839099-fc2e-4e4c-82a7-c4d5209c2e4c","ios":"levelo://app?vid=74839099-fc2e-4e4c-82a7-c4d5209c2e4c"},"vehicle_type_id":"4","last_reported":1686409553,"current_range_meters":0,"station_id":"ce4bgh92rcd13ifvqb50","pricing_plan_id":"free"},{"bike_id":"27371c48-9af9-4f86-84ee-19a55a5650d6","system_id":"levelo_inurba_marseille","lat":43.32367,"lon":5.388836,"is_reserved":false,"is_disabled":false,"rental_uris":{"android":"levelo://app?vid=27371c48-9af9-4f86-84ee-19a55a5650d6","ios":"levelo://app?vid=27371c48-9af9-4f86-84ee-19a55a5650d6"},"vehicle_type_id":"4","last_reported":1686409553,"current_range_meters":20400,"station_id":"ce4bhqp2rcd13ifvqhog","pricing_plan_id":"free"},{"bike_id":"3b15afa4-92a5-4de4-b099-d1a73d024711","system_id":"levelo_inurba_marseille","lat":43.323663,"lon":5.388856,"is_reserved":false,"is_disabled":false,"rental_uris":{"android":"levelo://app?vid=3b15afa4-92a5-4de4-b099-d1a73d024711","ios":"levelo://app?vid=3b15afa4-92a5-4de4-b099-d1a73d024711"},"vehicle_type_id":"4","last_reported":1686409553,"current_range_meters":16400,"station_id":"ce4bhqp2rcd13ifvqhog","pricing_plan_id":"free"},{"bike_id":"61e4ccfd-dc98-4837-8123-2dfa5e087f42","system_id":"levelo_inurba_marseille","lat":43.293723,"lon":5.378443,"is_reserved":false,"is_disabled":false,"rental_uris":{"android":"levelo://app?vid=61e4ccfd-dc98-4837-8123-2dfa5e087f42","ios":"levelo://app?vid=61e4ccfd-dc98-4837-8123-2dfa5e087f42"},"vehicle_type_id":"4","last_reported":1686409553,"current_range_meters":3600,"station_id":"","pricing_plan_id":"free"},{"bike_id":"da18d172-afc3-458c-ace5-86828bf8296b","system_id":"levelo_inurba_marseille","lat":43.291768,"lon":5.371482,"is_reserved":false,"is_disabled":false,"rental_uris":{"android":"levelo://app?vid=da18d172-afc3-458c-ace5-86828bf8296b","ios":"levelo://app?vid=da18d172-afc3-458c-ace5-86828bf8296b"},"vehicle_type_id":"4","last_reported":1686409553,"current_range_meters":4800,"station_id":"","pricing_plan_id":"free"},{"bike_id":"9969741e-f828-4106-8bf0-854d4ada209c","system_id":"levelo_inurba_marseille","lat":43.291994,"lon":5.357886,"is_reserved":false,"is_disabled":false,"rental_uris":{"android":"levelo://app?vid=9969741e-f828-4106-8bf0-854d4ada209c","ios":"levelo://app?vid=9969741e-f828-4106-8bf0-854d4ada209c"},"vehicle_type_id":"4","last_reported":1686409553,"current_range_meters":0,"station_id":"ce4bhb12rcd13ifvqel0","pricing_plan_id":"free"},{"bike_id":"222d3d2b-027a-414f-9511-29463d6b9bd6","system_id":"levelo_inurba_marseille","lat":43.291994,"lon":5.357886,"is_reserved":false,"is_disabled":false,"rental_uris":{"android":"levelo://app?vid=222d3d2b-027a-414f-9511-29463d6b9bd6","ios":"levelo://app?vid=222d3d2b-027a-414f-9511-29463d6b9bd6"},"vehicle_type_id":"4","last_reported":1686409553,"current_range_meters":30000,"station_id":"ce4bhb12rcd13ifvqel0","pricing_plan_id":"free"},{"bike_id":"e3f8aec6-fa0c-4394-b548-23a57205c581","system_id":"levelo_inurba_marseille","lat":43.313291,"lon":5.396838,"is_reserved":false,"is_disabled":false,"rental_uris":{"android":"levelo://app?vid=e3f8aec6-fa0c-4394-b548-23a57205c581","ios":"levelo://app?vid=e3f8aec6-fa0c-4394-b548-23a57205c581"},"vehicle_type_id":"4","last_reported":1686409553,"current_range_meters":17200,"station_id":"ce4bgvp2rcd13ifvqcu0","pricing_plan_id":"free"},{"bike_id":"c47af8b8-6951-404a-99f8-7c08d49f4249","system_id":"levelo_inurba_marseille","lat":43.291994,"lon":5.357886,"is_reserved":false,"is_disabled":false,"rental_uris":{"android":"levelo://app?vid=c47af8b8-6951-404a-99f8-7c08d49f4249","ios":"levelo://app?vid=c47af8b8-6951-404a-99f8-7c08d49f4249"},"vehicle_type_id":"4","last_reported":1686409553,"current_range_meters":3200,"station_id":"ce4bhb12rcd13ifvqel0","pricing_plan_id":"free"},{"bike_id":"87fa12ed-a782-4c9b-9373-741251f01aa0","system_id":"levelo_inurba_marseille","lat":43.289468,"lon":5.363719,"is_reserved":false,"is_disabled":false,"rental_uris":{"android":"levelo://app?vid=87fa12ed-a782-4c9b-9373-741251f01aa0","ios":"levelo://app?vid=87fa12ed-a782-4c9b-9373-741251f01aa0"},"vehicle_type_id":"4","last_reported":1686409553,"current_range_meters":18000,"station_id":"ce4bhc92rcd13ifvqetg","pricing_plan_id":"free"},{"bike_id":"35464206-9a73-4733-8168-ad047277cab7","system_id":"levelo_inurba_marseille","lat":43.292644,"lon":5.384257,"is_reserved":false,"is_disabled":false,"rental_uris":{"android":"levelo://app?vid=35464206-9a73-4733-8168-ad047277cab7","ios":"levelo://app?vid=35464206-9a73-4733-8168-ad047277cab7"},"vehicle_type_id":"4","last_reported":1686409553,"current_range_meters":8000,"station_id":"ce4bh692rcd13ifvqea0","pricing_plan_id":"free"},{"bike_id":"ad0e5a40-a494-46ae-8d59-67a49cc9aaa8","system_id":"levelo_inurba_marseille","lat":43.3304,"lon":5.38918,"is_reserved":false,"is_disabled":false,"rental_uris":{"android":"levelo://app?vid=ad0e5a40-a494-46ae-8d59-67a49cc9aaa8","ios":"levelo://app?vid=ad0e5a40-a494-46ae-8d59-67a49cc9aaa8"},"vehicle_type_id":"4","last_reported":1686409553,"current_range_meters":29600,"station_id":"ce4bhr92rcd13ifvqhrg","pricing_plan_id":"free"},{"bike_id":"7fce0007-dfe1-4093-abb9-37e244007690","system_id":"levelo_inurba_marseille","lat":43.3304,"lon":5.38921,"is_reserved":false,"is_disabled":false,"rental_uris":{"android":"levelo://app?vid=7fce0007-dfe1-4093-abb9-37e244007690","ios":"levelo://app?vid=7fce0007-dfe1-4093-abb9-37e244007690"},"vehicle_type_id":"4","last_reported":1686409553,"current_range_meters":20400,"station_id":"ce4bhr92rcd13ifvqhrg","pricing_plan_id":"free"},{"bike_id":"a3067db6-708f-4456-9ed4-674de3c80a10","system_id":"levelo_inurba_marseille","lat":43.33042,"lon":5.3892,"is_reserved":false,"is_disabled":false,"rental_uris":{"android":"levelo://app?vid=a3067db6-708f-4456-9ed4-674de3c80a10","ios":"levelo://app?vid=a3067db6-708f-4456-9ed4-674de3c80a10"},"vehicle_type_id":"4","last_reported":1686409553,"current_range_meters":24400,"station_id":"ce4bhr92rcd13ifvqhrg","pricing_plan_id":"free"},{"bike_id":"2f8ed551-5c9d-452e-8fa4-5f9a4afa60bd","system_id":"levelo_inurba_marseille","lat":43.239588,"lon":5.366238,"is_reserved":false,"is_disabled":false,"rental_uris":{"android":"levelo://app?vid=2f8ed551-5c9d-452e-8fa4-5f9a4afa60bd","ios":"levelo://app?vid=2f8ed551-5c9d-452e-8fa4-5f9a4afa60bd"},"vehicle_type_id":"4","last_reported":1686409553,"current_range_meters":9200,"station_id":"ce4bhi12rcd13ifvqfp0","pricing_plan_id":"free"},{"bike_id":"42ad6575-0945-4cf8-a1f2-a4cb03d6eb24","system_id":"levelo_inurba_marseille","lat":43.33043,"lon":5.3892,"is_reserved":false,"is_disabled":false,"rental_uris":{"android":"levelo://app?vid=42ad6575-0945-4cf8-a1f2-a4cb03d6eb24","ios":"levelo://app?vid=42ad6575-0945-4cf8-a1f2-a4cb03d6eb24"},"vehicle_type_id":"4","last_reported":1686409553,"current_range_meters":15600,"station_id":"ce4bhr92rcd13ifvqhrg","pricing_plan_id":"free"},{"bike_id":"c7bc314c-1932-4f8c-a361-67dd1d4af65d","system_id":"levelo_inurba_marseille","lat":43.33045,"lon":5.38917,"is_reserved":false,"is_disabled":false,"rental_uris":{"android":"levelo://app?vid=c7bc314c-1932-4f8c-a361-67dd1d4af65d","ios":"levelo://app?vid=c7bc314c-1932-4f8c-a361-67dd1d4af65d"},"vehicle_type_id":"4","last_reported":1686409553,"current_range_meters":29600,"station_id":"ce4bhr92rcd13ifvqhrg","pricing_plan_id":"free"},{"bike_id":"259dbe85-13bd-4e52-ba69-b09d9c1a589d","system_id":"levelo_inurba_marseille","lat":43.33045,"lon":5.38919,"is_reserved":false,"is_disabled":false,"rental_uris":{"android":"levelo://app?vid=259dbe85-13bd-4e52-ba69-b09d9c1a589d","ios":"levelo://app?vid=259dbe85-13bd-4e52-ba69-b09d9c1a589d"},"vehicle_type_id":"4","last_reported":1686409553,"current_range_meters":28400,"station_id":"ce4bhr92rcd13ifvqhrg","pricing_plan_id":"free"},{"bike_id":"301f3f51-3eb4-41f9-a440-e35beb54dbac","system_id":"levelo_inurba_marseille","lat":43.3304,"lon":5.38927,"is_reserved":false,"is_disabled":false,"rental_uris":{"android":"levelo://app?vid=301f3f51-3eb4-41f9-a440-e35beb54dbac","ios":"levelo://app?vid=301f3f51-3eb4-41f9-a440-e35beb54dbac"},"vehicle_type_id":"4","last_reported":1686409553,"current_range_meters":28800,"station_id":"ce4bhr92rcd13ifvqhrg","pricing_plan_id":"free"},{"bike_id":"eebb0572-4916-4105-a791-7d74572be411","system_id":"levelo_inurba_marseille","lat":43.290103,"lon":5.356114,"is_reserved":false,"is_disabled":false,"rental_uris":{"android":"levelo://app?vid=eebb0572-4916-4105-a791-7d74572be411","ios":"levelo://app?vid=eebb0572-4916-4105-a791-7d74572be411"},"vehicle_type_id":"4","last_reported":1686409553,"current_range_meters":4800,"station_id":"ce4bhb92rcd13ifvqen0","pricing_plan_id":"free"},{"bike_id":"1b939177-0237-4780-b111-85edc5797407","system_id":"levelo_inurba_marseille","lat":43.295169,"lon":5.390426,"is_reserved":false,"is_disabled":false,"rental_uris":{"android":"levelo://app?vid=1b939177-0237-4780-b111-85edc5797407","ios":"levelo://app?vid=1b939177-0237-4780-b111-85edc5797407"},"vehicle_type_id":"4","last_reported":1686409553,"current_range_meters":0,"station_id":"ce4bh3p2rcd13ifvqdp0","pricing_plan_id":"free"},{"bike_id":"0b1f9d9c-5624-47c8-b24b-0026ae87ef7c","system_id":"levelo_inurba_marseille","lat":43.295169,"lon":5.390426,"is_reserved":false,"is_disabled":false,"rental_uris":{"android":"levelo://app?vid=0b1f9d9c-5624-47c8-b24b-0026ae87ef7c","ios":"levelo://app?vid=0b1f9d9c-5624-47c8-b24b-0026ae87ef7c"},"vehicle_type_id":"4","last_reported":1686409553,"current_range_meters":18800,"station_id":"ce4bh3p2rcd13ifvqdp0","pricing_plan_id":"free"},{"bike_id":"d1e79c47-88c0-41ec-bfd8-d2ccd28a6cf0","system_id":"levelo_inurba_marseille","lat":43.33737,"lon":5.37452,"is_reserved":false,"is_disabled":false,"rental_uris":{"android":"levelo://app?vid=d1e79c47-88c0-41ec-bfd8-d2ccd28a6cf0","ios":"levelo://app?vid=d1e79c47-88c0-41ec-bfd8-d2ccd28a6cf0"},"vehicle_type_id":"4","last_reported":1686409553,"current_range_meters":30800,"station_id":"","pricing_plan_id":"free"},{"bike_id":"265c0905-166c-408b-8d33-95a8e86424e1","system_id":"levelo_inurba_marseille","lat":43.337582,"lon":5.374483,"is_reserved":false,"is_disabled":false,"rental_uris":{"android":"levelo://app?vid=265c0905-166c-408b-8d33-95a8e86424e1","ios":"levelo://app?vid=265c0905-166c-408b-8d33-95a8e86424e1"},"vehicle_type_id":"4","last_reported":1686409553,"current_range_meters":16000,"station_id":"","pricing_plan_id":"free"},{"bike_id":"fb041ec1-b611-46eb-9d8b-3229cfb3396a","system_id":"levelo_inurba_marseille","lat":43.33768,"lon":5.37459,"is_reserved":false,"is_disabled":false,"rental_uris":{"android":"levelo://app?vid=fb041ec1-b611-46eb-9d8b-3229cfb3396a","ios":"levelo://app?vid=fb041ec1-b611-46eb-9d8b-3229cfb3396a"},"vehicle_type_id":"4","last_reported":1686409553,"current_range_meters":23200,"station_id":"","pricing_plan_id":"free"},{"bike_id":"6deb8aa9-ce3a-441d-8e0f-9784180fcc6c","system_id":"levelo_inurba_marseille","lat":43.29524,"lon":5.39402,"is_reserved":false,"is_disabled":false,"rental_uris":{"android":"levelo://app?vid=6deb8aa9-ce3a-441d-8e0f-9784180fcc6c","ios":"levelo://app?vid=6deb8aa9-ce3a-441d-8e0f-9784180fcc6c"},"vehicle_type_id":"4","last_reported":1686409553,"current_range_meters":0,"station_id":"ce4bh292rcd13ifvqdf0","pricing_plan_id":"free"},{"bike_id":"f66dec85-9d81-4874-8225-e2025381d677","system_id":"levelo_inurba_marseille","lat":43.287184,"lon":5.37937,"is_reserved":false,"is_disabled":false,"rental_uris":{"android":"levelo://app?vid=f66dec85-9d81-4874-8225-e2025381d677","ios":"levelo://app?vid=f66dec85-9d81-4874-8225-e2025381d677"},"vehicle_type_id":"4","last_reported":1686409553,"current_range_meters":28400,"station_id":"ce4bh9p2rcd13ifvqec0","pricing_plan_id":"free"},{"bike_id":"cd502e9f-4196-47ea-88c0-ee0c78af166f","system_id":"levelo_inurba_marseille","lat":43.291994,"lon":5.392907,"is_reserved":false,"is_disabled":false,"rental_uris":{"android":"levelo://app?vid=cd502e9f-4196-47ea-88c0-ee0c78af166f","ios":"levelo://app?vid=cd502e9f-4196-47ea-88c0-ee0c78af166f"},"vehicle_type_id":"4","last_reported":1686409553,"current_range_meters":3600,"station_id":"ce4bh192rcd13ifvqdd0","pricing_plan_id":"free"},{"bike_id":"1f9120d2-0e7b-4722-90c6-1f2f7ffe9f47","system_id":"levelo_inurba_marseille","lat":43.2846,"lon":5.3589,"is_reserved":false,"is_disabled":false,"rental_uris":{"android":"levelo://app?vid=1f9120d2-0e7b-4722-90c6-1f2f7ffe9f47","ios":"levelo://app?vid=1f9120d2-0e7b-4722-90c6-1f2f7ffe9f47"},"vehicle_type_id":"4","last_reported":1686409553,"current_range_meters":21600,"station_id":"ce4bhah2rcd13ifvqei0","pricing_plan_id":"free"},{"bike_id":"6bf52bf0-1337-4037-80f8-b7d219738e48","system_id":"levelo_inurba_marseille","lat":43.296263,"lon":5.40601,"is_reserved":false,"is_disabled":false,"rental_uris":{"android":"levelo://app?vid=6bf52bf0-1337-4037-80f8-b7d219738e48","ios":"levelo://app?vid=6bf52bf0-1337-4037-80f8-b7d219738e48"},"vehicle_type_id":"4","last_reported":1686409553,"current_range_meters":24400,"station_id":"ce4bh0h2rcd13ifvqd60","pricing_plan_id":"free"},{"bike_id":"7cee8e31-41b5-4468-a73a-b60780607147","system_id":"levelo_inurba_marseille","lat":43.33621,"lon":5.39214,"is_reserved":false,"is_disabled":false,"rental_uris":{"android":"levelo://app?vid=7cee8e31-41b5-4468-a73a-b60780607147","ios":"levelo://app?vid=7cee8e31-41b5-4468-a73a-b60780607147"},"vehicle_type_id":"4","last_reported":1686409553,"current_range_meters":2000,"station_id":"","pricing_plan_id":"free"},{"bike_id":"06cff570-236d-434b-b41a-bcb364e7356f","system_id":"levelo_inurba_marseille","lat":43.32332,"lon":5.40614,"is_reserved":false,"is_disabled":false,"rental_uris":{"android":"levelo://app?vid=06cff570-236d-434b-b41a-bcb364e7356f","ios":"levelo://app?vid=06cff570-236d-434b-b41a-bcb364e7356f"},"vehicle_type_id":"4","last_reported":1686409553,"current_range_meters":29200,"station_id":"ce4bhq92rcd13ifvqhjg","pricing_plan_id":"free"},{"bike_id":"6bf636eb-4301-4688-82ef-9efd8d93c418","system_id":"levelo_inurba_marseille","lat":43.323464,"lon":5.406297,"is_reserved":false,"is_disabled":false,"rental_uris":{"android":"levelo://app?vid=6bf636eb-4301-4688-82ef-9efd8d93c418","ios":"levelo://app?vid=6bf636eb-4301-4688-82ef-9efd8d93c418"},"vehicle_type_id":"4","last_reported":1686409553,"current_range_meters":31200,"station_id":"ce4bhq92rcd13ifvqhjg","pricing_plan_id":"free"},{"bike_id":"a3079b4d-45c0-4654-a084-416319c5cab5","system_id":"levelo_inurba_marseille","lat":43.32344,"lon":5.40613,"is_reserved":false,"is_disabled":false,"rental_uris":{"android":"levelo://app?vid=a3079b4d-45c0-4654-a084-416319c5cab5","ios":"levelo://app?vid=a3079b4d-45c0-4654-a084-416319c5cab5"},"vehicle_type_id":"4","last_reported":1686409553,"current_range_meters":31200,"station_id":"ce4bhq92rcd13ifvqhjg","pricing_plan_id":"free"},{"bike_id":"4ba20453-31de-4115-ac71-aad53c16ef43","system_id":"levelo_inurba_marseille","lat":43.323464,"lon":5.406297,"is_reserved":false,"is_disabled":false,"rental_uris":{"android":"levelo://app?vid=4ba20453-31de-4115-ac71-aad53c16ef43","ios":"levelo://app?vid=4ba20453-31de-4115-ac71-aad53c16ef43"},"vehicle_type_id":"4","last_reported":1686409553,"current_range_meters":29600,"station_id":"ce4bhq92rcd13ifvqhjg","pricing_plan_id":"free"},{"bike_id":"deb583eb-96fb-4a10-97e9-a4d5ee7da756","system_id":"levelo_inurba_marseille","lat":43.32339,"lon":5.40619,"is_reserved":false,"is_disabled":false,"rental_uris":{"android":"levelo://app?vid=deb583eb-96fb-4a10-97e9-a4d5ee7da756","ios":"levelo://app?vid=deb583eb-96fb-4a10-97e9-a4d5ee7da756"},"vehicle_type_id":"4","last_reported":1686409553,"current_range_meters":11200,"station_id":"ce4bhq92rcd13ifvqhjg","pricing_plan_id":"free"},{"bike_id":"7d89e3b5-958d-47f6-80fa-adc2175a1ff9","system_id":"levelo_inurba_marseille","lat":43.3234,"lon":5.40622,"is_reserved":false,"is_disabled":false,"rental_uris":{"android":"levelo://app?vid=7d89e3b5-958d-47f6-80fa-adc2175a1ff9","ios":"levelo://app?vid=7d89e3b5-958d-47f6-80fa-adc2175a1ff9"},"vehicle_type_id":"4","last_reported":1686409553,"current_range_meters":31200,"station_id":"ce4bhq92rcd13ifvqhjg","pricing_plan_id":"free"},{"bike_id":"64eead76-2dc1-42bd-a4a2-05cec358379d","system_id":"levelo_inurba_marseille","lat":43.32339,"lon":5.40624,"is_reserved":false,"is_disabled":false,"rental_uris":{"android":"levelo://app?vid=64eead76-2dc1-42bd-a4a2-05cec358379d","ios":"levelo://app?vid=64eead76-2dc1-42bd-a4a2-05cec358379d"},"vehicle_type_id":"4","last_reported":1686409553,"current_range_meters":30000,"station_id":"ce4bhq92rcd13ifvqhjg","pricing_plan_id":"free"},{"bike_id":"30333e77-7cc7-4ad5-b030-c99c7af00601","system_id":"levelo_inurba_marseille","lat":43.3234,"lon":5.40626,"is_reserved":false,"is_disabled":false,"rental_uris":{"android":"levelo://app?vid=30333e77-7cc7-4ad5-b030-c99c7af00601","ios":"levelo://app?vid=30333e77-7cc7-4ad5-b030-c99c7af00601"},"vehicle_type_id":"4","last_reported":1686409553,"current_range_meters":31200,"station_id":"ce4bhq92rcd13ifvqhjg","pricing_plan_id":"free"},{"bike_id":"664960d4-4a99-4775-a29d-ad121a6c6787","system_id":"levelo_inurba_marseille","lat":43.32262,"lon":5.40673,"is_reserved":false,"is_disabled":false,"rental_uris":{"android":"levelo://app?vid=664960d4-4a99-4775-a29d-ad121a6c6787","ios":"levelo://app?vid=664960d4-4a99-4775-a29d-ad121a6c6787"},"vehicle_type_id":"4","last_reported":1686409553,"current_range_meters":26800,"station_id":"","pricing_plan_id":"free"},{"bike_id":"ef85de32-f8b4-482c-b903-790b53a3c38b","system_id":"levelo_inurba_marseille","lat":43.284217,"lon":5.349697,"is_reserved":false,"is_disabled":false,"rental_uris":{"android":"levelo://app?vid=ef85de32-f8b4-482c-b903-790b53a3c38b","ios":"levelo://app?vid=ef85de32-f8b4-482c-b903-790b53a3c38b"},"vehicle_type_id":"4","last_reported":1686409553,"current_range_meters":17200,"station_id":"ce4bhbh2rcd13ifvqepg","pricing_plan_id":"free"},{"bike_id":"a643a83b-a5ef-4f3f-875f-0262d73d607b","system_id":"levelo_inurba_marseille","lat":43.284217,"lon":5.349697,"is_reserved":false,"is_disabled":false,"rental_uris":{"android":"levelo://app?vid=a643a83b-a5ef-4f3f-875f-0262d73d607b","ios":"levelo://app?vid=a643a83b-a5ef-4f3f-875f-0262d73d607b"},"vehicle_type_id":"4","last_reported":1686409553,"current_range_meters":18000,"station_id":"ce4bhbh2rcd13ifvqepg","pricing_plan_id":"free"},{"bike_id":"13f74546-9d81-4824-beec-d88c93b558db","system_id":"levelo_inurba_marseille","lat":43.284217,"lon":5.349697,"is_reserved":false,"is_disabled":false,"rental_uris":{"android":"levelo://app?vid=13f74546-9d81-4824-beec-d88c93b558db","ios":"levelo://app?vid=13f74546-9d81-4824-beec-d88c93b558db"},"vehicle_type_id":"4","last_reported":1686409553,"current_range_meters":31600,"station_id":"ce4bhbh2rcd13ifvqepg","pricing_plan_id":"free"},{"bike_id":"b7e03f48-5fe9-4645-9d25-150f16e5077e","system_id":"levelo_inurba_marseille","lat":43.284217,"lon":5.349697,"is_reserved":false,"is_disabled":false,"rental_uris":{"android":"levelo://app?vid=b7e03f48-5fe9-4645-9d25-150f16e5077e","ios":"levelo://app?vid=b7e03f48-5fe9-4645-9d25-150f16e5077e"},"vehicle_type_id":"4","last_reported":1686409553,"current_range_meters":1600,"station_id":"ce4bhbh2rcd13ifvqepg","pricing_plan_id":"free"},{"bike_id":"0e494344-b347-419e-8b11-06848bfd47b5","system_id":"levelo_inurba_marseille","lat":43.28424,"lon":5.34978,"is_reserved":false,"is_disabled":false,"rental_uris":{"android":"levelo://app?vid=0e494344-b347-419e-8b11-06848bfd47b5","ios":"levelo://app?vid=0e494344-b347-419e-8b11-06848bfd47b5"},"vehicle_type_id":"4","last_reported":1686409553,"current_range_meters":27200,"station_id":"ce4bhbh2rcd13ifvqepg","pricing_plan_id":"free"},{"bike_id":"74d08e2e-228d-4313-8062-b45a1c099c78","system_id":"levelo_inurba_marseille","lat":43.284219,"lon":5.3497,"is_reserved":false,"is_disabled":false,"rental_uris":{"android":"levelo://app?vid=74d08e2e-228d-4313-8062-b45a1c099c78","ios":"levelo://app?vid=74d08e2e-228d-4313-8062-b45a1c099c78"},"vehicle_type_id":"4","last_reported":1686409553,"current_range_meters":19600,"station_id":"ce4bhbh2rcd13ifvqepg","pricing_plan_id":"free"},{"bike_id":"3995147e-b202-41cc-bfb3-c573ccf06be5","system_id":"levelo_inurba_marseille","lat":43.2842,"lon":5.3498,"is_reserved":false,"is_disabled":false,"rental_uris":{"android":"levelo://app?vid=3995147e-b202-41cc-bfb3-c573ccf06be5","ios":"levelo://app?vid=3995147e-b202-41cc-bfb3-c573ccf06be5"},"vehicle_type_id":"4","last_reported":1686409553,"current_range_meters":23200,"station_id":"ce4bhbh2rcd13ifvqepg","pricing_plan_id":"free"},{"bike_id":"ae232d39-b160-410f-a53c-e104a0631f2e","system_id":"levelo_inurba_marseille","lat":43.32415,"lon":5.40678,"is_reserved":false,"is_disabled":false,"rental_uris":{"android":"levelo://app?vid=ae232d39-b160-410f-a53c-e104a0631f2e","ios":"levelo://app?vid=ae232d39-b160-410f-a53c-e104a0631f2e"},"vehicle_type_id":"4","last_reported":1686409553,"current_range_meters":16400,"station_id":"","pricing_plan_id":"free"},{"bike_id":"532f0edf-f7af-46f5-b3f7-9d4cedfb4e95","system_id":"levelo_inurba_marseille","lat":43.284217,"lon":5.349697,"is_reserved":false,"is_disabled":false,"rental_uris":{"android":"levelo://app?vid=532f0edf-f7af-46f5-b3f7-9d4cedfb4e95","ios":"levelo://app?vid=532f0edf-f7af-46f5-b3f7-9d4cedfb4e95"},"vehicle_type_id":"4","last_reported":1686409553,"current_range_meters":8400,"station_id":"ce4bhbh2rcd13ifvqepg","pricing_plan_id":"free"},{"bike_id":"4daa7a7c-a1c7-4074-95ce-6d87dd240792","system_id":"levelo_inurba_marseille","lat":43.284217,"lon":5.349697,"is_reserved":false,"is_disabled":false,"rental_uris":{"android":"levelo://app?vid=4daa7a7c-a1c7-4074-95ce-6d87dd240792","ios":"levelo://app?vid=4daa7a7c-a1c7-4074-95ce-6d87dd240792"},"vehicle_type_id":"4","last_reported":1686409553,"current_range_meters":20800,"station_id":"ce4bhbh2rcd13ifvqepg","pricing_plan_id":"free"},{"bike_id":"8b6af94a-0117-4eb3-b0e9-4561b3a7288b","system_id":"levelo_inurba_marseille","lat":43.284219,"lon":5.3497,"is_reserved":false,"is_disabled":false,"rental_uris":{"android":"levelo://app?vid=8b6af94a-0117-4eb3-b0e9-4561b3a7288b","ios":"levelo://app?vid=8b6af94a-0117-4eb3-b0e9-4561b3a7288b"},"vehicle_type_id":"4","last_reported":1686409553,"current_range_meters":10000,"station_id":"ce4bhbh2rcd13ifvqepg","pricing_plan_id":"free"},{"bike_id":"2d14b4c2-2e61-4ed5-a255-8a538d545bbe","system_id":"levelo_inurba_marseille","lat":43.284219,"lon":5.3497,"is_reserved":false,"is_disabled":false,"rental_uris":{"android":"levelo://app?vid=2d14b4c2-2e61-4ed5-a255-8a538d545bbe","ios":"levelo://app?vid=2d14b4c2-2e61-4ed5-a255-8a538d545bbe"},"vehicle_type_id":"4","last_reported":1686409553,"current_range_meters":6000,"station_id":"ce4bhbh2rcd13ifvqepg","pricing_plan_id":"free"},{"bike_id":"fd03dd65-1a8d-4968-99b1-4065e57b6080","system_id":"levelo_inurba_marseille","lat":43.284219,"lon":5.3497,"is_reserved":false,"is_disabled":false,"rental_uris":{"android":"levelo://app?vid=fd03dd65-1a8d-4968-99b1-4065e57b6080","ios":"levelo://app?vid=fd03dd65-1a8d-4968-99b1-4065e57b6080"},"vehicle_type_id":"4","last_reported":1686409553,"current_range_meters":31600,"station_id":"ce4bhbh2rcd13ifvqepg","pricing_plan_id":"free"},{"bike_id":"d929b18d-c0c6-48fe-ac92-7bf004dca400","system_id":"levelo_inurba_marseille","lat":43.292724,"lon":5.401131,"is_reserved":false,"is_disabled":false,"rental_uris":{"android":"levelo://app?vid=d929b18d-c0c6-48fe-ac92-7bf004dca400","ios":"levelo://app?vid=d929b18d-c0c6-48fe-ac92-7bf004dca400"},"vehicle_type_id":"4","last_reported":1686409553,"current_range_meters":2000,"station_id":"ce4bh312rcd13ifvqdk0","pricing_plan_id":"free"},{"bike_id":"b2a3bd8f-d2dd-4a72-9078-7c25c71fc259","system_id":"levelo_inurba_marseille","lat":43.282744,"lon":5.350533,"is_reserved":false,"is_disabled":false,"rental_uris":{"android":"levelo://app?vid=b2a3bd8f-d2dd-4a72-9078-7c25c71fc259","ios":"levelo://app?vid=b2a3bd8f-d2dd-4a72-9078-7c25c71fc259"},"vehicle_type_id":"4","last_reported":1686409553,"current_range_meters":400,"station_id":"ce4bhbp2rcd13ifvqerg","pricing_plan_id":"free"},{"bike_id":"d3c3fd6c-baa4-42bb-ad0a-384ff9298a60","system_id":"levelo_inurba_marseille","lat":43.282744,"lon":5.350533,"is_reserved":false,"is_disabled":false,"rental_uris":{"android":"levelo://app?vid=d3c3fd6c-baa4-42bb-ad0a-384ff9298a60","ios":"levelo://app?vid=d3c3fd6c-baa4-42bb-ad0a-384ff9298a60"},"vehicle_type_id":"4","last_reported":1686409553,"current_range_meters":23200,"station_id":"ce4bhbp2rcd13ifvqerg","pricing_plan_id":"free"},{"bike_id":"d94b0696-99a3-4b98-9cfe-f9249495411e","system_id":"levelo_inurba_marseille","lat":43.28272,"lon":5.35072,"is_reserved":false,"is_disabled":false,"rental_uris":{"android":"levelo://app?vid=d94b0696-99a3-4b98-9cfe-f9249495411e","ios":"levelo://app?vid=d94b0696-99a3-4b98-9cfe-f9249495411e"},"vehicle_type_id":"4","last_reported":1686409553,"current_range_meters":29200,"station_id":"ce4bhbp2rcd13ifvqerg","pricing_plan_id":"free"},{"bike_id":"7f49c3b3-6582-46ab-be3c-b20f304c9277","system_id":"levelo_inurba_marseille","lat":43.282744,"lon":5.350533,"is_reserved":false,"is_disabled":false,"rental_uris":{"android":"levelo://app?vid=7f49c3b3-6582-46ab-be3c-b20f304c9277","ios":"levelo://app?vid=7f49c3b3-6582-46ab-be3c-b20f304c9277"},"vehicle_type_id":"4","last_reported":1686409553,"current_range_meters":12800,"station_id":"ce4bhbp2rcd13ifvqerg","pricing_plan_id":"free"},{"bike_id":"898fb4a7-87ac-4741-94c3-4b1787037d21","system_id":"levelo_inurba_marseille","lat":43.282744,"lon":5.350533,"is_reserved":false,"is_disabled":false,"rental_uris":{"android":"levelo://app?vid=898fb4a7-87ac-4741-94c3-4b1787037d21","ios":"levelo://app?vid=898fb4a7-87ac-4741-94c3-4b1787037d21"},"vehicle_type_id":"4","last_reported":1686409553,"current_range_meters":1600,"station_id":"ce4bhbp2rcd13ifvqerg","pricing_plan_id":"free"},{"bike_id":"6a9ee82a-7c0c-469f-a1cd-c06b1edb001a","system_id":"levelo_inurba_marseille","lat":43.282744,"lon":5.350533,"is_reserved":false,"is_disabled":false,"rental_uris":{"android":"levelo://app?vid=6a9ee82a-7c0c-469f-a1cd-c06b1edb001a","ios":"levelo://app?vid=6a9ee82a-7c0c-469f-a1cd-c06b1edb001a"},"vehicle_type_id":"4","last_reported":1686409553,"current_range_meters":800,"station_id":"ce4bhbp2rcd13ifvqerg","pricing_plan_id":"free"},{"bike_id":"b1325a42-75a5-4180-9f74-c37590acb834","system_id":"levelo_inurba_marseille","lat":43.28269,"lon":5.35069,"is_reserved":false,"is_disabled":false,"rental_uris":{"android":"levelo://app?vid=b1325a42-75a5-4180-9f74-c37590acb834","ios":"levelo://app?vid=b1325a42-75a5-4180-9f74-c37590acb834"},"vehicle_type_id":"4","last_reported":1686409553,"current_range_meters":13600,"station_id":"ce4bhbp2rcd13ifvqerg","pricing_plan_id":"free"},{"bike_id":"c64c84bb-60d9-4e53-8568-31cc3a149348","system_id":"levelo_inurba_marseille","lat":43.282744,"lon":5.350533,"is_reserved":false,"is_disabled":false,"rental_uris":{"android":"levelo://app?vid=c64c84bb-60d9-4e53-8568-31cc3a149348","ios":"levelo://app?vid=c64c84bb-60d9-4e53-8568-31cc3a149348"},"vehicle_type_id":"4","last_reported":1686409553,"current_range_meters":18800,"station_id":"ce4bhbp2rcd13ifvqerg","pricing_plan_id":"free"},{"bike_id":"c536a795-b0a8-4c54-b517-aaa08684e20d","system_id":"levelo_inurba_marseille","lat":43.28271,"lon":5.35054,"is_reserved":false,"is_disabled":false,"rental_uris":{"android":"levelo://app?vid=c536a795-b0a8-4c54-b517-aaa08684e20d","ios":"levelo://app?vid=c536a795-b0a8-4c54-b517-aaa08684e20d"},"vehicle_type_id":"4","last_reported":1686409553,"current_range_meters":19200,"station_id":"ce4bhbp2rcd13ifvqerg","pricing_plan_id":"free"},{"bike_id":"6378b6f1-5d1b-475a-8ad8-b54513272e4b","system_id":"levelo_inurba_marseille","lat":43.282754,"lon":5.350519,"is_reserved":false,"is_disabled":false,"rental_uris":{"android":"levelo://app?vid=6378b6f1-5d1b-475a-8ad8-b54513272e4b","ios":"levelo://app?vid=6378b6f1-5d1b-475a-8ad8-b54513272e4b"},"vehicle_type_id":"4","last_reported":1686409553,"current_range_meters":12000,"station_id":"ce4bhbp2rcd13ifvqerg","pricing_plan_id":"free"},{"bike_id":"a104cdc4-a09d-4b67-8feb-d08b199368f9","system_id":"levelo_inurba_marseille","lat":43.282744,"lon":5.350533,"is_reserved":false,"is_disabled":false,"rental_uris":{"android":"levelo://app?vid=a104cdc4-a09d-4b67-8feb-d08b199368f9","ios":"levelo://app?vid=a104cdc4-a09d-4b67-8feb-d08b199368f9"},"vehicle_type_id":"4","last_reported":1686409553,"current_range_meters":31200,"station_id":"ce4bhbp2rcd13ifvqerg","pricing_plan_id":"free"},{"bike_id":"79aa243d-4f55-4ebe-9878-a0a73a9e5163","system_id":"levelo_inurba_marseille","lat":43.28039,"lon":5.36944,"is_reserved":false,"is_disabled":false,"rental_uris":{"android":"levelo://app?vid=79aa243d-4f55-4ebe-9878-a0a73a9e5163","ios":"levelo://app?vid=79aa243d-4f55-4ebe-9878-a0a73a9e5163"},"vehicle_type_id":"4","last_reported":1686409553,"current_range_meters":1200,"station_id":"ce4bha12rcd13ifvqef0","pricing_plan_id":"free"},{"bike_id":"31f06fcf-ac15-410a-8bfc-a05c15234907","system_id":"levelo_inurba_marseille","lat":43.28033,"lon":5.3694,"is_reserved":false,"is_disabled":false,"rental_uris":{"android":"levelo://app?vid=31f06fcf-ac15-410a-8bfc-a05c15234907","ios":"levelo://app?vid=31f06fcf-ac15-410a-8bfc-a05c15234907"},"vehicle_type_id":"4","last_reported":1686409553,"current_range_meters":800,"station_id":"ce4bha12rcd13ifvqef0","pricing_plan_id":"free"},{"bike_id":"a57c6844-9f00-4422-85f1-0397f35b9de0","system_id":"levelo_inurba_marseille","lat":43.279742,"lon":5.38744,"is_reserved":false,"is_disabled":false,"rental_uris":{"android":"levelo://app?vid=a57c6844-9f00-4422-85f1-0397f35b9de0","ios":"levelo://app?vid=a57c6844-9f00-4422-85f1-0397f35b9de0"},"vehicle_type_id":"4","last_reported":1686409553,"current_range_meters":11600,"station_id":"ce4bhg12rcd13ifvqf80","pricing_plan_id":"free"},{"bike_id":"17331dc8-a779-4580-8bf0-178711255078","system_id":"levelo_inurba_marseille","lat":43.27627,"lon":5.36111,"is_reserved":false,"is_disabled":false,"rental_uris":{"android":"levelo://app?vid=17331dc8-a779-4580-8bf0-178711255078","ios":"levelo://app?vid=17331dc8-a779-4580-8bf0-178711255078"},"vehicle_type_id":"4","last_reported":1686409553,"current_range_meters":18400,"station_id":"ce4bgj92rcd13ifvqbe0","pricing_plan_id":"free"},{"bike_id":"43112a9b-8679-475a-aaca-fd59c43b6424","system_id":"levelo_inurba_marseille","lat":43.27624,"lon":5.36108,"is_reserved":false,"is_disabled":false,"rental_uris":{"android":"levelo://app?vid=43112a9b-8679-475a-aaca-fd59c43b6424","ios":"levelo://app?vid=43112a9b-8679-475a-aaca-fd59c43b6424"},"vehicle_type_id":"4","last_reported":1686409553,"current_range_meters":12400,"station_id":"ce4bgj92rcd13ifvqbe0","pricing_plan_id":"free"},{"bike_id":"75a15711-2934-4b04-a3d6-96cd11f4d1c0","system_id":"levelo_inurba_marseille","lat":43.27623,"lon":5.36105,"is_reserved":false,"is_disabled":false,"rental_uris":{"android":"levelo://app?vid=75a15711-2934-4b04-a3d6-96cd11f4d1c0","ios":"levelo://app?vid=75a15711-2934-4b04-a3d6-96cd11f4d1c0"},"vehicle_type_id":"4","last_reported":1686409553,"current_range_meters":28000,"station_id":"ce4bgj92rcd13ifvqbe0","pricing_plan_id":"free"},{"bike_id":"085bd568-ec40-4961-8fff-65962dfcc170","system_id":"levelo_inurba_marseille","lat":43.32547,"lon":5.41434,"is_reserved":false,"is_disabled":false,"rental_uris":{"android":"levelo://app?vid=085bd568-ec40-4961-8fff-65962dfcc170","ios":"levelo://app?vid=085bd568-ec40-4961-8fff-65962dfcc170"},"vehicle_type_id":"4","last_reported":1686409553,"current_range_meters":29600,"station_id":"ce4bhq12rcd13ifvqhhg","pricing_plan_id":"free"},{"bike_id":"05dca622-a28a-48ef-bc84-b7db9c17ce32","system_id":"levelo_inurba_marseille","lat":43.27618,"lon":5.36129,"is_reserved":false,"is_disabled":false,"rental_uris":{"android":"levelo://app?vid=05dca622-a28a-48ef-bc84-b7db9c17ce32","ios":"levelo://app?vid=05dca622-a28a-48ef-bc84-b7db9c17ce32"},"vehicle_type_id":"4","last_reported":1686409553,"current_range_meters":18000,"station_id":"ce4bgj92rcd13ifvqbe0","pricing_plan_id":"free"},{"bike_id":"171f6bf5-7b7c-4bc3-9616-19f4d5b31424","system_id":"levelo_inurba_marseille","lat":43.27615,"lon":5.36114,"is_reserved":false,"is_disabled":false,"rental_uris":{"android":"levelo://app?vid=171f6bf5-7b7c-4bc3-9616-19f4d5b31424","ios":"levelo://app?vid=171f6bf5-7b7c-4bc3-9616-19f4d5b31424"},"vehicle_type_id":"4","last_reported":1686409553,"current_range_meters":27200,"station_id":"ce4bgj92rcd13ifvqbe0","pricing_plan_id":"free"},{"bike_id":"85d5c54d-96e5-47f6-b866-dc748bb91c9c","system_id":"levelo_inurba_marseille","lat":43.2761,"lon":5.36111,"is_reserved":false,"is_disabled":false,"rental_uris":{"android":"levelo://app?vid=85d5c54d-96e5-47f6-b866-dc748bb91c9c","ios":"levelo://app?vid=85d5c54d-96e5-47f6-b866-dc748bb91c9c"},"vehicle_type_id":"4","last_reported":1686409553,"current_range_meters":30000,"station_id":"ce4bgj92rcd13ifvqbe0","pricing_plan_id":"free"},{"bike_id":"af8dad28-7b98-4e3a-8524-46830d8dd8d4","system_id":"levelo_inurba_marseille","lat":43.273613,"lon":5.362705,"is_reserved":false,"is_disabled":false,"rental_uris":{"android":"levelo://app?vid=af8dad28-7b98-4e3a-8524-46830d8dd8d4","ios":"levelo://app?vid=af8dad28-7b98-4e3a-8524-46830d8dd8d4"},"vehicle_type_id":"4","last_reported":1686409553,"current_range_meters":21600,"station_id":"ce4bhbh2rcd13ifvqeo0","pricing_plan_id":"free"},{"bike_id":"a63860f2-47dd-47f9-8188-40a8e13c1211","system_id":"levelo_inurba_marseille","lat":43.303837,"lon":5.418724,"is_reserved":false,"is_disabled":false,"rental_uris":{"android":"levelo://app?vid=a63860f2-47dd-47f9-8188-40a8e13c1211","ios":"levelo://app?vid=a63860f2-47dd-47f9-8188-40a8e13c1211"},"vehicle_type_id":"4","last_reported":1686409553,"current_range_meters":9200,"station_id":"ce4bhop2rcd13ifvqh7g","pricing_plan_id":"free"},{"bike_id":"8962942e-3f1b-4a14-93c3-2f9d844340c1","system_id":"levelo_inurba_marseille","lat":43.303837,"lon":5.418724,"is_reserved":false,"is_disabled":false,"rental_uris":{"android":"levelo://app?vid=8962942e-3f1b-4a14-93c3-2f9d844340c1","ios":"levelo://app?vid=8962942e-3f1b-4a14-93c3-2f9d844340c1"},"vehicle_type_id":"4","last_reported":1686409553,"current_range_meters":4400,"station_id":"ce4bhop2rcd13ifvqh7g","pricing_plan_id":"free"},{"bike_id":"0bd633d0-f784-44c5-9717-6aaffcaa83b8","system_id":"levelo_inurba_marseille","lat":43.273613,"lon":5.362705,"is_reserved":false,"is_disabled":false,"rental_uris":{"android":"levelo://app?vid=0bd633d0-f784-44c5-9717-6aaffcaa83b8","ios":"levelo://app?vid=0bd633d0-f784-44c5-9717-6aaffcaa83b8"},"vehicle_type_id":"4","last_reported":1686409553,"current_range_meters":8000,"station_id":"ce4bhbh2rcd13ifvqeo0","pricing_plan_id":"free"},{"bike_id":"df093a98-a561-4ded-a657-5255cbcfc7ea","system_id":"levelo_inurba_marseille","lat":43.33607,"lon":5.41027,"is_reserved":false,"is_disabled":false,"rental_uris":{"android":"levelo://app?vid=df093a98-a561-4ded-a657-5255cbcfc7ea","ios":"levelo://app?vid=df093a98-a561-4ded-a657-5255cbcfc7ea"},"vehicle_type_id":"4","last_reported":1686409553,"current_range_meters":24400,"station_id":"ce4bhqh2rcd13ifvqhmg","pricing_plan_id":"free"},{"bike_id":"f8ae5919-c2ef-4b19-a11a-3cc1188cf06c","system_id":"levelo_inurba_marseille","lat":43.33612,"lon":5.410321,"is_reserved":false,"is_disabled":false,"rental_uris":{"android":"levelo://app?vid=f8ae5919-c2ef-4b19-a11a-3cc1188cf06c","ios":"levelo://app?vid=f8ae5919-c2ef-4b19-a11a-3cc1188cf06c"},"vehicle_type_id":"4","last_reported":1686409553,"current_range_meters":25600,"station_id":"ce4bhqh2rcd13ifvqhmg","pricing_plan_id":"free"},{"bike_id":"37ecb6e8-c1b3-4f2e-86bf-39f53df8abcf","system_id":"levelo_inurba_marseille","lat":43.336134,"lon":5.410341,"is_reserved":false,"is_disabled":false,"rental_uris":{"android":"levelo://app?vid=37ecb6e8-c1b3-4f2e-86bf-39f53df8abcf","ios":"levelo://app?vid=37ecb6e8-c1b3-4f2e-86bf-39f53df8abcf"},"vehicle_type_id":"4","last_reported":1686409553,"current_range_meters":31200,"station_id":"ce4bhqh2rcd13ifvqhmg","pricing_plan_id":"free"},{"bike_id":"5d0612c0-b331-4e83-89f4-48858ddc4741","system_id":"levelo_inurba_marseille","lat":43.33615,"lon":5.41021,"is_reserved":false,"is_disabled":false,"rental_uris":{"android":"levelo://app?vid=5d0612c0-b331-4e83-89f4-48858ddc4741","ios":"levelo://app?vid=5d0612c0-b331-4e83-89f4-48858ddc4741"},"vehicle_type_id":"4","last_reported":1686409553,"current_range_meters":31200,"station_id":"ce4bhqh2rcd13ifvqhmg","pricing_plan_id":"free"},{"bike_id":"10518075-c62b-4cdb-9a18-1770f2f5fc73","system_id":"levelo_inurba_marseille","lat":43.273125,"lon":5.390731,"is_reserved":false,"is_disabled":false,"rental_uris":{"android":"levelo://app?vid=10518075-c62b-4cdb-9a18-1770f2f5fc73","ios":"levelo://app?vid=10518075-c62b-4cdb-9a18-1770f2f5fc73"},"vehicle_type_id":"4","last_reported":1686409553,"current_range_meters":24400,"station_id":"ce4bhgp2rcd13ifvqfe0","pricing_plan_id":"free"},{"bike_id":"1e50d4c5-46cf-4d7c-9130-3b1369edbffb","system_id":"levelo_inurba_marseille","lat":43.27219,"lon":5.39172,"is_reserved":false,"is_disabled":false,"rental_uris":{"android":"levelo://app?vid=1e50d4c5-46cf-4d7c-9130-3b1369edbffb","ios":"levelo://app?vid=1e50d4c5-46cf-4d7c-9130-3b1369edbffb"},"vehicle_type_id":"4","last_reported":1686409553,"current_range_meters":20400,"station_id":"","pricing_plan_id":"free"},{"bike_id":"6d2849e3-d193-485d-8a38-d584bd967709","system_id":"levelo_inurba_marseille","lat":43.278128,"lon":5.407195,"is_reserved":false,"is_disabled":false,"rental_uris":{"android":"levelo://app?vid=6d2849e3-d193-485d-8a38-d584bd967709","ios":"levelo://app?vid=6d2849e3-d193-485d-8a38-d584bd967709"},"vehicle_type_id":"4","last_reported":1686409553,"current_range_meters":13600,"station_id":"ce4bhnh2rcd13ifvqgtg","pricing_plan_id":"free"},{"bike_id":"8a202aff-cbb0-43f3-b489-101d7c6e86a6","system_id":"levelo_inurba_marseille","lat":43.278128,"lon":5.407195,"is_reserved":false,"is_disabled":false,"rental_uris":{"android":"levelo://app?vid=8a202aff-cbb0-43f3-b489-101d7c6e86a6","ios":"levelo://app?vid=8a202aff-cbb0-43f3-b489-101d7c6e86a6"},"vehicle_type_id":"4","last_reported":1686409553,"current_range_meters":10000,"station_id":"ce4bhnh2rcd13ifvqgtg","pricing_plan_id":"free"},{"bike_id":"07c85940-82af-42f5-ad8b-6bdd579ed77b","system_id":"levelo_inurba_marseille","lat":43.278128,"lon":5.407195,"is_reserved":false,"is_disabled":false,"rental_uris":{"android":"levelo://app?vid=07c85940-82af-42f5-ad8b-6bdd579ed77b","ios":"levelo://app?vid=07c85940-82af-42f5-ad8b-6bdd579ed77b"},"vehicle_type_id":"4","last_reported":1686409553,"current_range_meters":8800,"station_id":"ce4bhnh2rcd13ifvqgtg","pricing_plan_id":"free"},{"bike_id":"a51fc33f-6585-4846-a506-85ddb3ff2ab1","system_id":"levelo_inurba_marseille","lat":43.278128,"lon":5.407195,"is_reserved":false,"is_disabled":false,"rental_uris":{"android":"levelo://app?vid=a51fc33f-6585-4846-a506-85ddb3ff2ab1","ios":"levelo://app?vid=a51fc33f-6585-4846-a506-85ddb3ff2ab1"},"vehicle_type_id":"4","last_reported":1686409553,"current_range_meters":2800,"station_id":"ce4bhnh2rcd13ifvqgtg","pricing_plan_id":"free"},{"bike_id":"20cba8e7-a136-41dd-8486-68d3a53739d3","system_id":"levelo_inurba_marseille","lat":43.269319,"lon":5.389397,"is_reserved":false,"is_disabled":false,"rental_uris":{"android":"levelo://app?vid=20cba8e7-a136-41dd-8486-68d3a53739d3","ios":"levelo://app?vid=20cba8e7-a136-41dd-8486-68d3a53739d3"},"vehicle_type_id":"4","last_reported":1686409553,"current_range_meters":12000,"station_id":"ce4bhhh2rcd13ifvqfl0","pricing_plan_id":"free"},{"bike_id":"09706511-9637-4cfb-a8cf-69d9cc386777","system_id":"levelo_inurba_marseille","lat":43.26521,"lon":5.38019,"is_reserved":false,"is_disabled":false,"rental_uris":{"android":"levelo://app?vid=09706511-9637-4cfb-a8cf-69d9cc386777","ios":"levelo://app?vid=09706511-9637-4cfb-a8cf-69d9cc386777"},"vehicle_type_id":"4","last_reported":1686409553,"current_range_meters":28800,"station_id":"","pricing_plan_id":"free"},{"bike_id":"bfc7ded9-a13c-47b6-9fe6-81e225e7df81","system_id":"levelo_inurba_marseille","lat":43.267966,"lon":5.393976,"is_reserved":false,"is_disabled":false,"rental_uris":{"android":"levelo://app?vid=bfc7ded9-a13c-47b6-9fe6-81e225e7df81","ios":"levelo://app?vid=bfc7ded9-a13c-47b6-9fe6-81e225e7df81"},"vehicle_type_id":"4","last_reported":1686409553,"current_range_meters":0,"station_id":"ce4bhh12rcd13ifvqfg0","pricing_plan_id":"free"},{"bike_id":"011803f9-4713-425b-a291-b6d9e38e93d7","system_id":"levelo_inurba_marseille","lat":43.267966,"lon":5.393976,"is_reserved":false,"is_disabled":false,"rental_uris":{"android":"levelo://app?vid=011803f9-4713-425b-a291-b6d9e38e93d7","ios":"levelo://app?vid=011803f9-4713-425b-a291-b6d9e38e93d7"},"vehicle_type_id":"4","last_reported":1686409553,"current_range_meters":2400,"station_id":"ce4bhh12rcd13ifvqfg0","pricing_plan_id":"free"},{"bike_id":"6b4a9cbf-d332-48fc-9508-efa2509e634d","system_id":"levelo_inurba_marseille","lat":43.261782,"lon":5.374515,"is_reserved":false,"is_disabled":false,"rental_uris":{"android":"levelo://app?vid=6b4a9cbf-d332-48fc-9508-efa2509e634d","ios":"levelo://app?vid=6b4a9cbf-d332-48fc-9508-efa2509e634d"},"vehicle_type_id":"4","last_reported":1686409553,"current_range_meters":25600,"station_id":"ce4bhgp2rcd13ifvqfc0","pricing_plan_id":"free"},{"bike_id":"8ddcf036-d32e-42b0-8b96-263a17df2631","system_id":"levelo_inurba_marseille","lat":43.261782,"lon":5.374515,"is_reserved":false,"is_disabled":false,"rental_uris":{"android":"levelo://app?vid=8ddcf036-d32e-42b0-8b96-263a17df2631","ios":"levelo://app?vid=8ddcf036-d32e-42b0-8b96-263a17df2631"},"vehicle_type_id":"4","last_reported":1686409553,"current_range_meters":0,"station_id":"ce4bhgp2rcd13ifvqfc0","pricing_plan_id":"free"},{"bike_id":"6d81ec35-3369-4328-861a-fe9b0271f9b3","system_id":"levelo_inurba_marseille","lat":43.261782,"lon":5.374515,"is_reserved":false,"is_disabled":false,"rental_uris":{"android":"levelo://app?vid=6d81ec35-3369-4328-861a-fe9b0271f9b3","ios":"levelo://app?vid=6d81ec35-3369-4328-861a-fe9b0271f9b3"},"vehicle_type_id":"4","last_reported":1686409553,"current_range_meters":12800,"station_id":"ce4bhgp2rcd13ifvqfc0","pricing_plan_id":"free"},{"bike_id":"6853ea80-78f9-4825-8105-002e10c67b8f","system_id":"levelo_inurba_marseille","lat":43.33322,"lon":5.43138,"is_reserved":false,"is_disabled":false,"rental_uris":{"android":"levelo://app?vid=6853ea80-78f9-4825-8105-002e10c67b8f","ios":"levelo://app?vid=6853ea80-78f9-4825-8105-002e10c67b8f"},"vehicle_type_id":"4","last_reported":1686409553,"current_range_meters":18800,"station_id":"","pricing_plan_id":"free"},{"bike_id":"bc41b096-2417-41b8-bb28-e2887c870558","system_id":"levelo_inurba_marseille","lat":43.261782,"lon":5.374515,"is_reserved":false,"is_disabled":false,"rental_uris":{"android":"levelo://app?vid=bc41b096-2417-41b8-bb28-e2887c870558","ios":"levelo://app?vid=bc41b096-2417-41b8-bb28-e2887c870558"},"vehicle_type_id":"4","last_reported":1686409553,"current_range_meters":6000,"station_id":"ce4bhgp2rcd13ifvqfc0","pricing_plan_id":"free"},{"bike_id":"a3965860-f44e-42a1-a2f0-c79963e641e4","system_id":"levelo_inurba_marseille","lat":43.261782,"lon":5.374515,"is_reserved":false,"is_disabled":false,"rental_uris":{"android":"levelo://app?vid=a3965860-f44e-42a1-a2f0-c79963e641e4","ios":"levelo://app?vid=a3965860-f44e-42a1-a2f0-c79963e641e4"},"vehicle_type_id":"4","last_reported":1686409553,"current_range_meters":18800,"station_id":"ce4bhgp2rcd13ifvqfc0","pricing_plan_id":"free"},{"bike_id":"447c63d4-a54e-46c0-af21-498e3fcd85ce","system_id":"levelo_inurba_marseille","lat":43.3331,"lon":5.43149,"is_reserved":false,"is_disabled":false,"rental_uris":{"android":"levelo://app?vid=447c63d4-a54e-46c0-af21-498e3fcd85ce","ios":"levelo://app?vid=447c63d4-a54e-46c0-af21-498e3fcd85ce"},"vehicle_type_id":"4","last_reported":1686409553,"current_range_meters":21600,"station_id":"","pricing_plan_id":"free"},{"bike_id":"d1ec23aa-41f6-44c8-b08d-1930ca296976","system_id":"levelo_inurba_marseille","lat":43.27183,"lon":5.40994,"is_reserved":false,"is_disabled":false,"rental_uris":{"android":"levelo://app?vid=d1ec23aa-41f6-44c8-b08d-1930ca296976","ios":"levelo://app?vid=d1ec23aa-41f6-44c8-b08d-1930ca296976"},"vehicle_type_id":"4","last_reported":1686409553,"current_range_meters":10400,"station_id":"","pricing_plan_id":"free"},{"bike_id":"8e920f77-983f-4229-98ed-76d9d541cfc9","system_id":"levelo_inurba_marseille","lat":43.27174,"lon":5.4099,"is_reserved":false,"is_disabled":false,"rental_uris":{"android":"levelo://app?vid=8e920f77-983f-4229-98ed-76d9d541cfc9","ios":"levelo://app?vid=8e920f77-983f-4229-98ed-76d9d541cfc9"},"vehicle_type_id":"4","last_reported":1686409553,"current_range_meters":12400,"station_id":"","pricing_plan_id":"free"},{"bike_id":"387dda57-7343-4db6-bc10-20db60e7dca6","system_id":"levelo_inurba_marseille","lat":43.27167,"lon":5.40993,"is_reserved":false,"is_disabled":false,"rental_uris":{"android":"levelo://app?vid=387dda57-7343-4db6-bc10-20db60e7dca6","ios":"levelo://app?vid=387dda57-7343-4db6-bc10-20db60e7dca6"},"vehicle_type_id":"4","last_reported":1686409553,"current_range_meters":6000,"station_id":"","pricing_plan_id":"free"},{"bike_id":"b68d94c1-d8f9-47ba-90a5-cde785a39a81","system_id":"levelo_inurba_marseille","lat":43.267959,"lon":5.402685,"is_reserved":false,"is_disabled":false,"rental_uris":{"android":"levelo://app?vid=b68d94c1-d8f9-47ba-90a5-cde785a39a81","ios":"levelo://app?vid=b68d94c1-d8f9-47ba-90a5-cde785a39a81"},"vehicle_type_id":"4","last_reported":1686409553,"current_range_meters":20800,"station_id":"ce501612rcd8frsf0b60","pricing_plan_id":"free"},{"bike_id":"a3d8898c-42ea-4424-b229-590f5f81bdad","system_id":"levelo_inurba_marseille","lat":43.26361,"lon":5.39258,"is_reserved":false,"is_disabled":false,"rental_uris":{"android":"levelo://app?vid=a3d8898c-42ea-4424-b229-590f5f81bdad","ios":"levelo://app?vid=a3d8898c-42ea-4424-b229-590f5f81bdad"},"vehicle_type_id":"4","last_reported":1686409553,"current_range_meters":16000,"station_id":"","pricing_plan_id":"free"},{"bike_id":"097beb3b-9a36-41ee-8ce6-343e3d2e510f","system_id":"levelo_inurba_marseille","lat":43.298768,"lon":5.43643,"is_reserved":false,"is_disabled":false,"rental_uris":{"android":"levelo://app?vid=097beb3b-9a36-41ee-8ce6-343e3d2e510f","ios":"levelo://app?vid=097beb3b-9a36-41ee-8ce6-343e3d2e510f"},"vehicle_type_id":"4","last_reported":1686409553,"current_range_meters":31600,"station_id":"ce4bhpp2rcd13ifvqhfg","pricing_plan_id":"free"},{"bike_id":"a5b17771-de25-459f-a635-b718575b3b69","system_id":"levelo_inurba_marseille","lat":43.29896,"lon":5.43668,"is_reserved":false,"is_disabled":false,"rental_uris":{"android":"levelo://app?vid=a5b17771-de25-459f-a635-b718575b3b69","ios":"levelo://app?vid=a5b17771-de25-459f-a635-b718575b3b69"},"vehicle_type_id":"4","last_reported":1686409553,"current_range_meters":21600,"station_id":"","pricing_plan_id":"free"},{"bike_id":"c016c470-7922-442c-b063-3ad017bc7301","system_id":"levelo_inurba_marseille","lat":43.298768,"lon":5.43643,"is_reserved":false,"is_disabled":false,"rental_uris":{"android":"levelo://app?vid=c016c470-7922-442c-b063-3ad017bc7301","ios":"levelo://app?vid=c016c470-7922-442c-b063-3ad017bc7301"},"vehicle_type_id":"4","last_reported":1686409553,"current_range_meters":27600,"station_id":"ce4bhpp2rcd13ifvqhfg","pricing_plan_id":"free"},{"bike_id":"c5b1b24f-38bd-408d-b236-f0471fb0b24b","system_id":"levelo_inurba_marseille","lat":43.298768,"lon":5.43643,"is_reserved":false,"is_disabled":false,"rental_uris":{"android":"levelo://app?vid=c5b1b24f-38bd-408d-b236-f0471fb0b24b","ios":"levelo://app?vid=c5b1b24f-38bd-408d-b236-f0471fb0b24b"},"vehicle_type_id":"4","last_reported":1686409553,"current_range_meters":28400,"station_id":"ce4bhpp2rcd13ifvqhfg","pricing_plan_id":"free"},{"bike_id":"0abd466f-ae7a-4789-a218-e3b2c168a2b3","system_id":"levelo_inurba_marseille","lat":43.25961,"lon":5.3755,"is_reserved":false,"is_disabled":false,"rental_uris":{"android":"levelo://app?vid=0abd466f-ae7a-4789-a218-e3b2c168a2b3","ios":"levelo://app?vid=0abd466f-ae7a-4789-a218-e3b2c168a2b3"},"vehicle_type_id":"4","last_reported":1686409553,"current_range_meters":2000,"station_id":"","pricing_plan_id":"free"},{"bike_id":"8bae052b-3edc-4345-85b1-d116189b7c89","system_id":"levelo_inurba_marseille","lat":43.33408,"lon":5.43453,"is_reserved":false,"is_disabled":false,"rental_uris":{"android":"levelo://app?vid=8bae052b-3edc-4345-85b1-d116189b7c89","ios":"levelo://app?vid=8bae052b-3edc-4345-85b1-d116189b7c89"},"vehicle_type_id":"4","last_reported":1686409553,"current_range_meters":13200,"station_id":"","pricing_plan_id":"free"},{"bike_id":"6b97c008-b652-45d7-97ca-be4c16d26e6d","system_id":"levelo_inurba_marseille","lat":43.2579,"lon":5.37642,"is_reserved":false,"is_disabled":false,"rental_uris":{"android":"levelo://app?vid=6b97c008-b652-45d7-97ca-be4c16d26e6d","ios":"levelo://app?vid=6b97c008-b652-45d7-97ca-be4c16d26e6d"},"vehicle_type_id":"4","last_reported":1686409553,"current_range_meters":31600,"station_id":"","pricing_plan_id":"free"},{"bike_id":"bd5da142-9e08-421a-929d-5d8b54469f1b","system_id":"levelo_inurba_marseille","lat":43.26789,"lon":5.4114,"is_reserved":false,"is_disabled":false,"rental_uris":{"android":"levelo://app?vid=bd5da142-9e08-421a-929d-5d8b54469f1b","ios":"levelo://app?vid=bd5da142-9e08-421a-929d-5d8b54469f1b"},"vehicle_type_id":"4","last_reported":1686409553,"current_range_meters":16000,"station_id":"","pricing_plan_id":"free"},{"bike_id":"c6a5b0d2-7aea-44ce-a90a-0183bf8c8f1d","system_id":"levelo_inurba_marseille","lat":43.26085,"lon":5.39396,"is_reserved":false,"is_disabled":false,"rental_uris":{"android":"levelo://app?vid=c6a5b0d2-7aea-44ce-a90a-0183bf8c8f1d","ios":"levelo://app?vid=c6a5b0d2-7aea-44ce-a90a-0183bf8c8f1d"},"vehicle_type_id":"4","last_reported":1686409553,"current_range_meters":30800,"station_id":"ce4bhh92rcd13ifvqfj0","pricing_plan_id":"free"},{"bike_id":"bd393ba6-9f6c-4434-97b8-98ad4e99d35b","system_id":"levelo_inurba_marseille","lat":43.2607,"lon":5.393983,"is_reserved":false,"is_disabled":false,"rental_uris":{"android":"levelo://app?vid=bd393ba6-9f6c-4434-97b8-98ad4e99d35b","ios":"levelo://app?vid=bd393ba6-9f6c-4434-97b8-98ad4e99d35b"},"vehicle_type_id":"4","last_reported":1686409553,"current_range_meters":0,"station_id":"ce4bhh92rcd13ifvqfj0","pricing_plan_id":"free"},{"bike_id":"a781a343-b241-4f95-ab3c-8b2df648c6cb","system_id":"levelo_inurba_marseille","lat":43.33312,"lon":5.44167,"is_reserved":false,"is_disabled":false,"rental_uris":{"android":"levelo://app?vid=a781a343-b241-4f95-ab3c-8b2df648c6cb","ios":"levelo://app?vid=a781a343-b241-4f95-ab3c-8b2df648c6cb"},"vehicle_type_id":"4","last_reported":1686409553,"current_range_meters":5600,"station_id":"","pricing_plan_id":"free"},{"bike_id":"55512ea1-081c-4d17-bc61-a2c2b24ee984","system_id":"levelo_inurba_marseille","lat":43.25502,"lon":5.3762,"is_reserved":false,"is_disabled":false,"rental_uris":{"android":"levelo://app?vid=55512ea1-081c-4d17-bc61-a2c2b24ee984","ios":"levelo://app?vid=55512ea1-081c-4d17-bc61-a2c2b24ee984"},"vehicle_type_id":"4","last_reported":1686409553,"current_range_meters":400,"station_id":"","pricing_plan_id":"free"},{"bike_id":"ea75c2c5-8561-4314-a103-38c08005ff32","system_id":"levelo_inurba_marseille","lat":43.270721,"lon":5.422764,"is_reserved":false,"is_disabled":false,"rental_uris":{"android":"levelo://app?vid=ea75c2c5-8561-4314-a103-38c08005ff32","ios":"levelo://app?vid=ea75c2c5-8561-4314-a103-38c08005ff32"},"vehicle_type_id":"4","last_reported":1686409553,"current_range_meters":7200,"station_id":"ce4bhk92rcd13ifvqgb0","pricing_plan_id":"free"},{"bike_id":"aa069271-70bd-41fe-9bb6-f9833cddad4b","system_id":"levelo_inurba_marseille","lat":43.270721,"lon":5.422764,"is_reserved":false,"is_disabled":false,"rental_uris":{"android":"levelo://app?vid=aa069271-70bd-41fe-9bb6-f9833cddad4b","ios":"levelo://app?vid=aa069271-70bd-41fe-9bb6-f9833cddad4b"},"vehicle_type_id":"4","last_reported":1686409553,"current_range_meters":28400,"station_id":"ce4bhk92rcd13ifvqgb0","pricing_plan_id":"free"},{"bike_id":"d04cbe18-3b19-4b0e-ba62-bae70613db62","system_id":"levelo_inurba_marseille","lat":43.270721,"lon":5.422764,"is_reserved":false,"is_disabled":false,"rental_uris":{"android":"levelo://app?vid=d04cbe18-3b19-4b0e-ba62-bae70613db62","ios":"levelo://app?vid=d04cbe18-3b19-4b0e-ba62-bae70613db62"},"vehicle_type_id":"4","last_reported":1686409553,"current_range_meters":18400,"station_id":"ce4bhk92rcd13ifvqgb0","pricing_plan_id":"free"},{"bike_id":"57e86920-7d70-4682-924a-b979814588c2","system_id":"levelo_inurba_marseille","lat":43.27074,"lon":5.42281,"is_reserved":false,"is_disabled":false,"rental_uris":{"android":"levelo://app?vid=57e86920-7d70-4682-924a-b979814588c2","ios":"levelo://app?vid=57e86920-7d70-4682-924a-b979814588c2"},"vehicle_type_id":"4","last_reported":1686409553,"current_range_meters":0,"station_id":"ce4bhk92rcd13ifvqgb0","pricing_plan_id":"free"},{"bike_id":"14b7b405-3eb1-4c27-8c2e-1daca363610b","system_id":"levelo_inurba_marseille","lat":43.252,"lon":5.37418,"is_reserved":false,"is_disabled":false,"rental_uris":{"android":"levelo://app?vid=14b7b405-3eb1-4c27-8c2e-1daca363610b","ios":"levelo://app?vid=14b7b405-3eb1-4c27-8c2e-1daca363610b"},"vehicle_type_id":"4","last_reported":1686409553,"current_range_meters":10000,"station_id":"","pricing_plan_id":"free"},{"bike_id":"c7a251c8-7175-4365-8820-1bf9e5c921de","system_id":"levelo_inurba_marseille","lat":43.259009,"lon":5.40929,"is_reserved":false,"is_disabled":false,"rental_uris":{"android":"levelo://app?vid=c7a251c8-7175-4365-8820-1bf9e5c921de","ios":"levelo://app?vid=c7a251c8-7175-4365-8820-1bf9e5c921de"},"vehicle_type_id":"4","last_reported":1686409553,"current_range_meters":15200,"station_id":"ce4bhm92rcd13ifvqglg","pricing_plan_id":"free"},{"bike_id":"15bddbe3-cea7-458d-b416-6cab0cc9912d","system_id":"levelo_inurba_marseille","lat":43.250966,"lon":5.395186,"is_reserved":false,"is_disabled":false,"rental_uris":{"android":"levelo://app?vid=15bddbe3-cea7-458d-b416-6cab0cc9912d","ios":"levelo://app?vid=15bddbe3-cea7-458d-b416-6cab0cc9912d"},"vehicle_type_id":"4","last_reported":1686409553,"current_range_meters":20400,"station_id":"ce4bhm12rcd13ifvqgkg","pricing_plan_id":"free"},{"bike_id":"af1bf2bd-7a21-4b22-8e14-04cbb78e10c4","system_id":"levelo_inurba_marseille","lat":43.250966,"lon":5.395186,"is_reserved":false,"is_disabled":false,"rental_uris":{"android":"levelo://app?vid=af1bf2bd-7a21-4b22-8e14-04cbb78e10c4","ios":"levelo://app?vid=af1bf2bd-7a21-4b22-8e14-04cbb78e10c4"},"vehicle_type_id":"4","last_reported":1686409553,"current_range_meters":30800,"station_id":"ce4bhm12rcd13ifvqgkg","pricing_plan_id":"free"},{"bike_id":"db00ed7a-320f-49c3-8ab0-2e56afe5c7ac","system_id":"levelo_inurba_marseille","lat":43.24693,"lon":5.382096,"is_reserved":false,"is_disabled":false,"rental_uris":{"android":"levelo://app?vid=db00ed7a-320f-49c3-8ab0-2e56afe5c7ac","ios":"levelo://app?vid=db00ed7a-320f-49c3-8ab0-2e56afe5c7ac"},"vehicle_type_id":"4","last_reported":1686409553,"current_range_meters":21200,"station_id":"ce4bhih2rcd13ifvqfr0","pricing_plan_id":"free"},{"bike_id":"8c1d53ba-5a6e-4bae-8086-4dbf4d87f924","system_id":"levelo_inurba_marseille","lat":43.24401,"lon":5.37105,"is_reserved":false,"is_disabled":false,"rental_uris":{"android":"levelo://app?vid=8c1d53ba-5a6e-4bae-8086-4dbf4d87f924","ios":"levelo://app?vid=8c1d53ba-5a6e-4bae-8086-4dbf4d87f924"},"vehicle_type_id":"4","last_reported":1686409553,"current_range_meters":31200,"station_id":"ce4bhhh2rcd13ifvqfk0","pricing_plan_id":"free"},{"bike_id":"1227dc2a-9bdc-4049-b2c7-b5334441853e","system_id":"levelo_inurba_marseille","lat":43.24399,"lon":5.37062,"is_reserved":false,"is_disabled":false,"rental_uris":{"android":"levelo://app?vid=1227dc2a-9bdc-4049-b2c7-b5334441853e","ios":"levelo://app?vid=1227dc2a-9bdc-4049-b2c7-b5334441853e"},"vehicle_type_id":"4","last_reported":1686409553,"current_range_meters":31200,"station_id":"ce4bhhh2rcd13ifvqfk0","pricing_plan_id":"free"},{"bike_id":"dca6758a-ee10-4d75-8c86-655388458808","system_id":"levelo_inurba_marseille","lat":43.24397,"lon":5.37061,"is_reserved":false,"is_disabled":false,"rental_uris":{"android":"levelo://app?vid=dca6758a-ee10-4d75-8c86-655388458808","ios":"levelo://app?vid=dca6758a-ee10-4d75-8c86-655388458808"},"vehicle_type_id":"4","last_reported":1686409553,"current_range_meters":31200,"station_id":"ce4bhhh2rcd13ifvqfk0","pricing_plan_id":"free"},{"bike_id":"25bcd3a9-8493-4634-a8bb-e70b6f11eacf","system_id":"levelo_inurba_marseille","lat":43.24397,"lon":5.37064,"is_reserved":false,"is_disabled":false,"rental_uris":{"android":"levelo://app?vid=25bcd3a9-8493-4634-a8bb-e70b6f11eacf","ios":"levelo://app?vid=25bcd3a9-8493-4634-a8bb-e70b6f11eacf"},"vehicle_type_id":"4","last_reported":1686409553,"current_range_meters":15600,"station_id":"ce4bhhh2rcd13ifvqfk0","pricing_plan_id":"free"},{"bike_id":"0623acf4-c8e3-4d75-8831-52fee9b6b6c1","system_id":"levelo_inurba_marseille","lat":43.24396,"lon":5.3706,"is_reserved":false,"is_disabled":false,"rental_uris":{"android":"levelo://app?vid=0623acf4-c8e3-4d75-8831-52fee9b6b6c1","ios":"levelo://app?vid=0623acf4-c8e3-4d75-8831-52fee9b6b6c1"},"vehicle_type_id":"4","last_reported":1686409553,"current_range_meters":30800,"station_id":"ce4bhhh2rcd13ifvqfk0","pricing_plan_id":"free"},{"bike_id":"ff67980c-e942-41a2-afd5-d730171b87d1","system_id":"levelo_inurba_marseille","lat":43.26681,"lon":5.382694,"is_reserved":false,"is_disabled":false,"rental_uris":{"android":"levelo://app?vid=ff67980c-e942-41a2-afd5-d730171b87d1","ios":"levelo://app?vid=ff67980c-e942-41a2-afd5-d730171b87d1"},"vehicle_type_id":"4","last_reported":1686409553,"current_range_meters":6400,"station_id":"ce4bhg92rcd13ifvqf90","pricing_plan_id":"free"},{"bike_id":"9b875834-ef58-4b67-b657-04938c1a41a4","system_id":"levelo_inurba_marseille","lat":43.24394,"lon":5.37057,"is_reserved":false,"is_disabled":false,"rental_uris":{"android":"levelo://app?vid=9b875834-ef58-4b67-b657-04938c1a41a4","ios":"levelo://app?vid=9b875834-ef58-4b67-b657-04938c1a41a4"},"vehicle_type_id":"4","last_reported":1686409553,"current_range_meters":10800,"station_id":"ce4bhhh2rcd13ifvqfk0","pricing_plan_id":"free"},{"bike_id":"c2955ade-e6ed-4972-a733-0f9f5e6029ea","system_id":"levelo_inurba_marseille","lat":43.24394,"lon":5.37062,"is_reserved":false,"is_disabled":false,"rental_uris":{"android":"levelo://app?vid=c2955ade-e6ed-4972-a733-0f9f5e6029ea","ios":"levelo://app?vid=c2955ade-e6ed-4972-a733-0f9f5e6029ea"},"vehicle_type_id":"4","last_reported":1686409553,"current_range_meters":31200,"station_id":"ce4bhhh2rcd13ifvqfk0","pricing_plan_id":"free"},{"bike_id":"18575e53-4c72-4b7d-ba2c-f9ccb5a9bb57","system_id":"levelo_inurba_marseille","lat":43.24393,"lon":5.3706,"is_reserved":false,"is_disabled":false,"rental_uris":{"android":"levelo://app?vid=18575e53-4c72-4b7d-ba2c-f9ccb5a9bb57","ios":"levelo://app?vid=18575e53-4c72-4b7d-ba2c-f9ccb5a9bb57"},"vehicle_type_id":"4","last_reported":1686409553,"current_range_meters":27600,"station_id":"ce4bhhh2rcd13ifvqfk0","pricing_plan_id":"free"},{"bike_id":"247523c1-c843-4288-9a14-de6d0d5c7bd6","system_id":"levelo_inurba_marseille","lat":43.243884,"lon":5.370736,"is_reserved":false,"is_disabled":false,"rental_uris":{"android":"levelo://app?vid=247523c1-c843-4288-9a14-de6d0d5c7bd6","ios":"levelo://app?vid=247523c1-c843-4288-9a14-de6d0d5c7bd6"},"vehicle_type_id":"4","last_reported":1686409553,"current_range_meters":28400,"station_id":"ce4bhhh2rcd13ifvqfk0","pricing_plan_id":"free"},{"bike_id":"b553b423-b707-4419-b673-a45e7ae47314","system_id":"levelo_inurba_marseille","lat":43.24392,"lon":5.37051,"is_reserved":false,"is_disabled":false,"rental_uris":{"android":"levelo://app?vid=b553b423-b707-4419-b673-a45e7ae47314","ios":"levelo://app?vid=b553b423-b707-4419-b673-a45e7ae47314"},"vehicle_type_id":"4","last_reported":1686409553,"current_range_meters":23600,"station_id":"ce4bhhh2rcd13ifvqfk0","pricing_plan_id":"free"},{"bike_id":"16ce2be6-1b62-45ba-b5ed-98cdd9eee085","system_id":"levelo_inurba_marseille","lat":43.24391,"lon":5.37057,"is_reserved":false,"is_disabled":false,"rental_uris":{"android":"levelo://app?vid=16ce2be6-1b62-45ba-b5ed-98cdd9eee085","ios":"levelo://app?vid=16ce2be6-1b62-45ba-b5ed-98cdd9eee085"},"vehicle_type_id":"4","last_reported":1686409553,"current_range_meters":28000,"station_id":"ce4bhhh2rcd13ifvqfk0","pricing_plan_id":"free"},{"bike_id":"c904bb70-52f7-4acd-b805-03764bc58b61","system_id":"levelo_inurba_marseille","lat":43.24391,"lon":5.37061,"is_reserved":false,"is_disabled":false,"rental_uris":{"android":"levelo://app?vid=c904bb70-52f7-4acd-b805-03764bc58b61","ios":"levelo://app?vid=c904bb70-52f7-4acd-b805-03764bc58b61"},"vehicle_type_id":"4","last_reported":1686409553,"current_range_meters":24400,"station_id":"ce4bhhh2rcd13ifvqfk0","pricing_plan_id":"free"},{"bike_id":"825fe104-cf1a-4c0e-ade8-004f212f62ae","system_id":"levelo_inurba_marseille","lat":43.24389,"lon":5.37049,"is_reserved":false,"is_disabled":false,"rental_uris":{"android":"levelo://app?vid=825fe104-cf1a-4c0e-ade8-004f212f62ae","ios":"levelo://app?vid=825fe104-cf1a-4c0e-ade8-004f212f62ae"},"vehicle_type_id":"4","last_reported":1686409553,"current_range_meters":31200,"station_id":"ce4bhhh2rcd13ifvqfk0","pricing_plan_id":"free"},{"bike_id":"72bd4f7a-7727-4e38-aacd-5263c17c6a47","system_id":"levelo_inurba_marseille","lat":43.24389,"lon":5.37061,"is_reserved":false,"is_disabled":false,"rental_uris":{"android":"levelo://app?vid=72bd4f7a-7727-4e38-aacd-5263c17c6a47","ios":"levelo://app?vid=72bd4f7a-7727-4e38-aacd-5263c17c6a47"},"vehicle_type_id":"4","last_reported":1686409553,"current_range_meters":1200,"station_id":"ce4bhhh2rcd13ifvqfk0","pricing_plan_id":"free"},{"bike_id":"7d1c37de-a401-4b19-b825-934f2323170a","system_id":"levelo_inurba_marseille","lat":43.24388,"lon":5.37053,"is_reserved":false,"is_disabled":false,"rental_uris":{"android":"levelo://app?vid=7d1c37de-a401-4b19-b825-934f2323170a","ios":"levelo://app?vid=7d1c37de-a401-4b19-b825-934f2323170a"},"vehicle_type_id":"4","last_reported":1686409553,"current_range_meters":31200,"station_id":"ce4bhhh2rcd13ifvqfk0","pricing_plan_id":"free"},{"bike_id":"7b92bb4e-c37f-408a-b8c5-8d9651549545","system_id":"levelo_inurba_marseille","lat":43.29012,"lon":5.45985,"is_reserved":false,"is_disabled":false,"rental_uris":{"android":"levelo://app?vid=7b92bb4e-c37f-408a-b8c5-8d9651549545","ios":"levelo://app?vid=7b92bb4e-c37f-408a-b8c5-8d9651549545"},"vehicle_type_id":"4","last_reported":1686409553,"current_range_meters":21600,"station_id":"","pricing_plan_id":"free"},{"bike_id":"7fc773ec-539a-420e-957f-61ba5e71cf04","system_id":"levelo_inurba_marseille","lat":43.24079,"lon":5.37751,"is_reserved":false,"is_disabled":false,"rental_uris":{"android":"levelo://app?vid=7fc773ec-539a-420e-957f-61ba5e71cf04","ios":"levelo://app?vid=7fc773ec-539a-420e-957f-61ba5e71cf04"},"vehicle_type_id":"4","last_reported":1686409553,"current_range_meters":0,"station_id":"","pricing_plan_id":"free"},{"bike_id":"25db8a86-5754-48f7-b189-acc941bbd24c","system_id":"levelo_inurba_marseille","lat":43.24079,"lon":5.37752,"is_reserved":false,"is_disabled":false,"rental_uris":{"android":"levelo://app?vid=25db8a86-5754-48f7-b189-acc941bbd24c","ios":"levelo://app?vid=25db8a86-5754-48f7-b189-acc941bbd24c"},"vehicle_type_id":"4","last_reported":1686409553,"current_range_meters":25600,"station_id":"","pricing_plan_id":"free"},{"bike_id":"1b83fc1e-5595-4ec6-9249-9d2f23a6015f","system_id":"levelo_inurba_marseille","lat":43.24079,"lon":5.37753,"is_reserved":false,"is_disabled":false,"rental_uris":{"android":"levelo://app?vid=1b83fc1e-5595-4ec6-9249-9d2f23a6015f","ios":"levelo://app?vid=1b83fc1e-5595-4ec6-9249-9d2f23a6015f"},"vehicle_type_id":"4","last_reported":1686409553,"current_range_meters":30800,"station_id":"","pricing_plan_id":"free"},{"bike_id":"27945972-c64b-41af-99fe-7112e3494202","system_id":"levelo_inurba_marseille","lat":43.239588,"lon":5.366238,"is_reserved":false,"is_disabled":false,"rental_uris":{"android":"levelo://app?vid=27945972-c64b-41af-99fe-7112e3494202","ios":"levelo://app?vid=27945972-c64b-41af-99fe-7112e3494202"},"vehicle_type_id":"4","last_reported":1686409553,"current_range_meters":31200,"station_id":"ce4bhi12rcd13ifvqfp0","pricing_plan_id":"free"},{"bike_id":"2584cd1f-2dbb-4a60-8dcd-6546963a2b07","system_id":"levelo_inurba_marseille","lat":43.23968,"lon":5.36628,"is_reserved":false,"is_disabled":false,"rental_uris":{"android":"levelo://app?vid=2584cd1f-2dbb-4a60-8dcd-6546963a2b07","ios":"levelo://app?vid=2584cd1f-2dbb-4a60-8dcd-6546963a2b07"},"vehicle_type_id":"4","last_reported":1686409553,"current_range_meters":2400,"station_id":"ce4bhi12rcd13ifvqfp0","pricing_plan_id":"free"},{"bike_id":"67dc2350-e95d-4247-a209-6e7b32f29a69","system_id":"levelo_inurba_marseille","lat":43.239588,"lon":5.366238,"is_reserved":false,"is_disabled":false,"rental_uris":{"android":"levelo://app?vid=67dc2350-e95d-4247-a209-6e7b32f29a69","ios":"levelo://app?vid=67dc2350-e95d-4247-a209-6e7b32f29a69"},"vehicle_type_id":"4","last_reported":1686409553,"current_range_meters":30800,"station_id":"ce4bhi12rcd13ifvqfp0","pricing_plan_id":"free"},{"bike_id":"8b16062a-c58a-4010-9e3d-b4569c7365db","system_id":"levelo_inurba_marseille","lat":43.239588,"lon":5.366238,"is_reserved":false,"is_disabled":false,"rental_uris":{"android":"levelo://app?vid=8b16062a-c58a-4010-9e3d-b4569c7365db","ios":"levelo://app?vid=8b16062a-c58a-4010-9e3d-b4569c7365db"},"vehicle_type_id":"4","last_reported":1686409553,"current_range_meters":31200,"station_id":"ce4bhi12rcd13ifvqfp0","pricing_plan_id":"free"},{"bike_id":"1cc0b8cc-9d7a-49e5-a60e-c3d6ae7bcaf8","system_id":"levelo_inurba_marseille","lat":43.239588,"lon":5.366238,"is_reserved":false,"is_disabled":false,"rental_uris":{"android":"levelo://app?vid=1cc0b8cc-9d7a-49e5-a60e-c3d6ae7bcaf8","ios":"levelo://app?vid=1cc0b8cc-9d7a-49e5-a60e-c3d6ae7bcaf8"},"vehicle_type_id":"4","last_reported":1686409553,"current_range_meters":31200,"station_id":"ce4bhi12rcd13ifvqfp0","pricing_plan_id":"free"},{"bike_id":"69184114-195c-4df5-a151-9f7f0940c853","system_id":"levelo_inurba_marseille","lat":43.23964,"lon":5.36633,"is_reserved":false,"is_disabled":false,"rental_uris":{"android":"levelo://app?vid=69184114-195c-4df5-a151-9f7f0940c853","ios":"levelo://app?vid=69184114-195c-4df5-a151-9f7f0940c853"},"vehicle_type_id":"4","last_reported":1686409553,"current_range_meters":1200,"station_id":"ce4bhi12rcd13ifvqfp0","pricing_plan_id":"free"},{"bike_id":"0c3f4394-2f3b-4370-bb9c-df89f20e9e25","system_id":"levelo_inurba_marseille","lat":43.239588,"lon":5.366238,"is_reserved":false,"is_disabled":false,"rental_uris":{"android":"levelo://app?vid=0c3f4394-2f3b-4370-bb9c-df89f20e9e25","ios":"levelo://app?vid=0c3f4394-2f3b-4370-bb9c-df89f20e9e25"},"vehicle_type_id":"4","last_reported":1686409553,"current_range_meters":31200,"station_id":"ce4bhi12rcd13ifvqfp0","pricing_plan_id":"free"},{"bike_id":"ceffc2f7-1542-4520-918e-b13be3161448","system_id":"levelo_inurba_marseille","lat":43.239588,"lon":5.366238,"is_reserved":false,"is_disabled":false,"rental_uris":{"android":"levelo://app?vid=ceffc2f7-1542-4520-918e-b13be3161448","ios":"levelo://app?vid=ceffc2f7-1542-4520-918e-b13be3161448"},"vehicle_type_id":"4","last_reported":1686409553,"current_range_meters":31200,"station_id":"ce4bhi12rcd13ifvqfp0","pricing_plan_id":"free"},{"bike_id":"1707f9ff-3376-47fc-9171-2ddf1808db19","system_id":"levelo_inurba_marseille","lat":43.23962,"lon":5.36637,"is_reserved":false,"is_disabled":false,"rental_uris":{"android":"levelo://app?vid=1707f9ff-3376-47fc-9171-2ddf1808db19","ios":"levelo://app?vid=1707f9ff-3376-47fc-9171-2ddf1808db19"},"vehicle_type_id":"4","last_reported":1686409553,"current_range_meters":22400,"station_id":"ce4bhi12rcd13ifvqfp0","pricing_plan_id":"free"},{"bike_id":"435d10fb-9121-48fa-b51f-654aa6400079","system_id":"levelo_inurba_marseille","lat":43.23962,"lon":5.3662,"is_reserved":false,"is_disabled":false,"rental_uris":{"android":"levelo://app?vid=435d10fb-9121-48fa-b51f-654aa6400079","ios":"levelo://app?vid=435d10fb-9121-48fa-b51f-654aa6400079"},"vehicle_type_id":"4","last_reported":1686409553,"current_range_meters":31200,"station_id":"ce4bhi12rcd13ifvqfp0","pricing_plan_id":"free"},{"bike_id":"10b985bc-dbbb-4b3f-b9ff-a94f30249cc5","system_id":"levelo_inurba_marseille","lat":43.239588,"lon":5.366238,"is_reserved":false,"is_disabled":false,"rental_uris":{"android":"levelo://app?vid=10b985bc-dbbb-4b3f-b9ff-a94f30249cc5","ios":"levelo://app?vid=10b985bc-dbbb-4b3f-b9ff-a94f30249cc5"},"vehicle_type_id":"4","last_reported":1686409553,"current_range_meters":31200,"station_id":"ce4bhi12rcd13ifvqfp0","pricing_plan_id":"free"},{"bike_id":"3ee610d8-bac0-431d-b945-fc08ee18c7b2","system_id":"levelo_inurba_marseille","lat":43.239588,"lon":5.366238,"is_reserved":false,"is_disabled":false,"rental_uris":{"android":"levelo://app?vid=3ee610d8-bac0-431d-b945-fc08ee18c7b2","ios":"levelo://app?vid=3ee610d8-bac0-431d-b945-fc08ee18c7b2"},"vehicle_type_id":"4","last_reported":1686409553,"current_range_meters":31200,"station_id":"ce4bhi12rcd13ifvqfp0","pricing_plan_id":"free"},{"bike_id":"9c45b4dc-f2b0-4cb1-ac0b-38e567eab0f1","system_id":"levelo_inurba_marseille","lat":43.239588,"lon":5.366238,"is_reserved":false,"is_disabled":false,"rental_uris":{"android":"levelo://app?vid=9c45b4dc-f2b0-4cb1-ac0b-38e567eab0f1","ios":"levelo://app?vid=9c45b4dc-f2b0-4cb1-ac0b-38e567eab0f1"},"vehicle_type_id":"4","last_reported":1686409553,"current_range_meters":31200,"station_id":"ce4bhi12rcd13ifvqfp0","pricing_plan_id":"free"},{"bike_id":"3c5a2977-99df-47cf-a20c-2678d51c59a2","system_id":"levelo_inurba_marseille","lat":43.239588,"lon":5.366238,"is_reserved":false,"is_disabled":false,"rental_uris":{"android":"levelo://app?vid=3c5a2977-99df-47cf-a20c-2678d51c59a2","ios":"levelo://app?vid=3c5a2977-99df-47cf-a20c-2678d51c59a2"},"vehicle_type_id":"4","last_reported":1686409553,"current_range_meters":20800,"station_id":"ce4bhi12rcd13ifvqfp0","pricing_plan_id":"free"},{"bike_id":"bec3a7d7-d1c5-4dd0-aebb-d67a51390251","system_id":"levelo_inurba_marseille","lat":43.23956,"lon":5.36623,"is_reserved":false,"is_disabled":false,"rental_uris":{"android":"levelo://app?vid=bec3a7d7-d1c5-4dd0-aebb-d67a51390251","ios":"levelo://app?vid=bec3a7d7-d1c5-4dd0-aebb-d67a51390251"},"vehicle_type_id":"4","last_reported":1686409553,"current_range_meters":30400,"station_id":"ce4bhi12rcd13ifvqfp0","pricing_plan_id":"free"},{"bike_id":"5f5eba71-f80f-4b67-aeae-249c03e867fe","system_id":"levelo_inurba_marseille","lat":43.23953,"lon":5.36631,"is_reserved":false,"is_disabled":false,"rental_uris":{"android":"levelo://app?vid=5f5eba71-f80f-4b67-aeae-249c03e867fe","ios":"levelo://app?vid=5f5eba71-f80f-4b67-aeae-249c03e867fe"},"vehicle_type_id":"4","last_reported":1686409553,"current_range_meters":17600,"station_id":"ce4bhi12rcd13ifvqfp0","pricing_plan_id":"free"},{"bike_id":"61d89c20-8209-4999-bd71-dfeabf43a3c0","system_id":"levelo_inurba_marseille","lat":43.241782,"lon":5.397261,"is_reserved":false,"is_disabled":false,"rental_uris":{"android":"levelo://app?vid=61d89c20-8209-4999-bd71-dfeabf43a3c0","ios":"levelo://app?vid=61d89c20-8209-4999-bd71-dfeabf43a3c0"},"vehicle_type_id":"4","last_reported":1686409553,"current_range_meters":24400,"station_id":"ce4bhn12rcd13ifvqgpg","pricing_plan_id":"free"},{"bike_id":"3c0d63a1-bf77-4a3b-9def-ae8da33f563f","system_id":"levelo_inurba_marseille","lat":43.23855,"lon":5.38974,"is_reserved":false,"is_disabled":false,"rental_uris":{"android":"levelo://app?vid=3c0d63a1-bf77-4a3b-9def-ae8da33f563f","ios":"levelo://app?vid=3c0d63a1-bf77-4a3b-9def-ae8da33f563f"},"vehicle_type_id":"4","last_reported":1686409553,"current_range_meters":4800,"station_id":"","pricing_plan_id":"free"},{"bike_id":"12de3828-4c9c-4f12-a7b0-5aa63b2a0c06","system_id":"levelo_inurba_marseille","lat":43.24836,"lon":5.42359,"is_reserved":false,"is_disabled":false,"rental_uris":{"android":"levelo://app?vid=12de3828-4c9c-4f12-a7b0-5aa63b2a0c06","ios":"levelo://app?vid=12de3828-4c9c-4f12-a7b0-5aa63b2a0c06"},"vehicle_type_id":"4","last_reported":1686409553,"current_range_meters":19200,"station_id":"","pricing_plan_id":"free"},{"bike_id":"704fa338-0c43-46ca-af8a-c318d5ffb80a","system_id":"levelo_inurba_marseille","lat":43.231923,"lon":5.355545,"is_reserved":false,"is_disabled":false,"rental_uris":{"android":"levelo://app?vid=704fa338-0c43-46ca-af8a-c318d5ffb80a","ios":"levelo://app?vid=704fa338-0c43-46ca-af8a-c318d5ffb80a"},"vehicle_type_id":"4","last_reported":1686409553,"current_range_meters":21200,"station_id":"ce4bhu92rcd13ifvqi70","pricing_plan_id":"free"},{"bike_id":"c7866afb-9c17-411d-bfe5-3aea0bab1746","system_id":"levelo_inurba_marseille","lat":43.231923,"lon":5.355545,"is_reserved":false,"is_disabled":false,"rental_uris":{"android":"levelo://app?vid=c7866afb-9c17-411d-bfe5-3aea0bab1746","ios":"levelo://app?vid=c7866afb-9c17-411d-bfe5-3aea0bab1746"},"vehicle_type_id":"4","last_reported":1686409553,"current_range_meters":21600,"station_id":"ce4bhu92rcd13ifvqi70","pricing_plan_id":"free"},{"bike_id":"e99badbb-f446-41e2-9ad4-266bf474b983","system_id":"levelo_inurba_marseille","lat":43.23197,"lon":5.35554,"is_reserved":false,"is_disabled":false,"rental_uris":{"android":"levelo://app?vid=e99badbb-f446-41e2-9ad4-266bf474b983","ios":"levelo://app?vid=e99badbb-f446-41e2-9ad4-266bf474b983"},"vehicle_type_id":"4","last_reported":1686409553,"current_range_meters":31200,"station_id":"ce4bhu92rcd13ifvqi70","pricing_plan_id":"free"},{"bike_id":"80eb19c5-a6be-4dfc-ac40-db7ceaa57b2e","system_id":"levelo_inurba_marseille","lat":43.231923,"lon":5.355545,"is_reserved":false,"is_disabled":false,"rental_uris":{"android":"levelo://app?vid=80eb19c5-a6be-4dfc-ac40-db7ceaa57b2e","ios":"levelo://app?vid=80eb19c5-a6be-4dfc-ac40-db7ceaa57b2e"},"vehicle_type_id":"4","last_reported":1686409553,"current_range_meters":30800,"station_id":"ce4bhu92rcd13ifvqi70","pricing_plan_id":"free"},{"bike_id":"ec6b3be4-a338-4e7d-8f4c-cddaffb9a8fd","system_id":"levelo_inurba_marseille","lat":43.23197,"lon":5.35548,"is_reserved":false,"is_disabled":false,"rental_uris":{"android":"levelo://app?vid=ec6b3be4-a338-4e7d-8f4c-cddaffb9a8fd","ios":"levelo://app?vid=ec6b3be4-a338-4e7d-8f4c-cddaffb9a8fd"},"vehicle_type_id":"4","last_reported":1686409553,"current_range_meters":16400,"station_id":"ce4bhu92rcd13ifvqi70","pricing_plan_id":"free"},{"bike_id":"cec825f8-8f0d-45c5-accb-8e7888085299","system_id":"levelo_inurba_marseille","lat":43.23196,"lon":5.3555,"is_reserved":false,"is_disabled":false,"rental_uris":{"android":"levelo://app?vid=cec825f8-8f0d-45c5-accb-8e7888085299","ios":"levelo://app?vid=cec825f8-8f0d-45c5-accb-8e7888085299"},"vehicle_type_id":"4","last_reported":1686409553,"current_range_meters":31200,"station_id":"ce4bhu92rcd13ifvqi70","pricing_plan_id":"free"},{"bike_id":"0a59d98a-cb5b-422e-b761-8bf64f3c7b44","system_id":"levelo_inurba_marseille","lat":43.23196,"lon":5.35545,"is_reserved":false,"is_disabled":false,"rental_uris":{"android":"levelo://app?vid=0a59d98a-cb5b-422e-b761-8bf64f3c7b44","ios":"levelo://app?vid=0a59d98a-cb5b-422e-b761-8bf64f3c7b44"},"vehicle_type_id":"4","last_reported":1686409553,"current_range_meters":8400,"station_id":"ce4bhu92rcd13ifvqi70","pricing_plan_id":"free"},{"bike_id":"56bdac69-3383-4316-9324-dda0dfd1bebb","system_id":"levelo_inurba_marseille","lat":43.231923,"lon":5.355545,"is_reserved":false,"is_disabled":false,"rental_uris":{"android":"levelo://app?vid=56bdac69-3383-4316-9324-dda0dfd1bebb","ios":"levelo://app?vid=56bdac69-3383-4316-9324-dda0dfd1bebb"},"vehicle_type_id":"4","last_reported":1686409553,"current_range_meters":25200,"station_id":"ce4bhu92rcd13ifvqi70","pricing_plan_id":"free"},{"bike_id":"6c2145dc-59f8-4db6-baaa-a82744d5dd10","system_id":"levelo_inurba_marseille","lat":43.23195,"lon":5.35552,"is_reserved":false,"is_disabled":false,"rental_uris":{"android":"levelo://app?vid=6c2145dc-59f8-4db6-baaa-a82744d5dd10","ios":"levelo://app?vid=6c2145dc-59f8-4db6-baaa-a82744d5dd10"},"vehicle_type_id":"4","last_reported":1686409553,"current_range_meters":5600,"station_id":"ce4bhu92rcd13ifvqi70","pricing_plan_id":"free"},{"bike_id":"caaba9e1-90eb-4e70-b41e-a2f6cceb3da1","system_id":"levelo_inurba_marseille","lat":43.23195,"lon":5.3555,"is_reserved":false,"is_disabled":false,"rental_uris":{"android":"levelo://app?vid=caaba9e1-90eb-4e70-b41e-a2f6cceb3da1","ios":"levelo://app?vid=caaba9e1-90eb-4e70-b41e-a2f6cceb3da1"},"vehicle_type_id":"4","last_reported":1686409553,"current_range_meters":16400,"station_id":"ce4bhu92rcd13ifvqi70","pricing_plan_id":"free"},{"bike_id":"731cffbc-d0bd-405b-8741-a7d2f946b334","system_id":"levelo_inurba_marseille","lat":43.23194,"lon":5.35556,"is_reserved":false,"is_disabled":false,"rental_uris":{"android":"levelo://app?vid=731cffbc-d0bd-405b-8741-a7d2f946b334","ios":"levelo://app?vid=731cffbc-d0bd-405b-8741-a7d2f946b334"},"vehicle_type_id":"4","last_reported":1686409553,"current_range_meters":13600,"station_id":"ce4bhu92rcd13ifvqi70","pricing_plan_id":"free"},{"bike_id":"44f3ed5f-c298-4574-bb2d-b892142e84f8","system_id":"levelo_inurba_marseille","lat":43.231923,"lon":5.355545,"is_reserved":false,"is_disabled":false,"rental_uris":{"android":"levelo://app?vid=44f3ed5f-c298-4574-bb2d-b892142e84f8","ios":"levelo://app?vid=44f3ed5f-c298-4574-bb2d-b892142e84f8"},"vehicle_type_id":"4","last_reported":1686409553,"current_range_meters":21600,"station_id":"ce4bhu92rcd13ifvqi70","pricing_plan_id":"free"},{"bike_id":"d100295d-222c-4a6e-bade-c0d4ef03aa57","system_id":"levelo_inurba_marseille","lat":43.23193,"lon":5.35565,"is_reserved":false,"is_disabled":false,"rental_uris":{"android":"levelo://app?vid=d100295d-222c-4a6e-bade-c0d4ef03aa57","ios":"levelo://app?vid=d100295d-222c-4a6e-bade-c0d4ef03aa57"},"vehicle_type_id":"4","last_reported":1686409553,"current_range_meters":31200,"station_id":"ce4bhu92rcd13ifvqi70","pricing_plan_id":"free"},{"bike_id":"77400c20-8c62-47eb-ad48-a75bee632309","system_id":"levelo_inurba_marseille","lat":43.23194,"lon":5.35549,"is_reserved":false,"is_disabled":false,"rental_uris":{"android":"levelo://app?vid=77400c20-8c62-47eb-ad48-a75bee632309","ios":"levelo://app?vid=77400c20-8c62-47eb-ad48-a75bee632309"},"vehicle_type_id":"4","last_reported":1686409553,"current_range_meters":23200,"station_id":"ce4bhu92rcd13ifvqi70","pricing_plan_id":"free"},{"bike_id":"b1f84c24-aa7b-4456-8073-658fede9c75e","system_id":"levelo_inurba_marseille","lat":43.23194,"lon":5.35547,"is_reserved":false,"is_disabled":false,"rental_uris":{"android":"levelo://app?vid=b1f84c24-aa7b-4456-8073-658fede9c75e","ios":"levelo://app?vid=b1f84c24-aa7b-4456-8073-658fede9c75e"},"vehicle_type_id":"4","last_reported":1686409553,"current_range_meters":10400,"station_id":"ce4bhu92rcd13ifvqi70","pricing_plan_id":"free"},{"bike_id":"2285596b-418c-4ae4-adeb-01942313177b","system_id":"levelo_inurba_marseille","lat":43.23193,"lon":5.35558,"is_reserved":false,"is_disabled":false,"rental_uris":{"android":"levelo://app?vid=2285596b-418c-4ae4-adeb-01942313177b","ios":"levelo://app?vid=2285596b-418c-4ae4-adeb-01942313177b"},"vehicle_type_id":"4","last_reported":1686409553,"current_range_meters":2000,"station_id":"ce4bhu92rcd13ifvqi70","pricing_plan_id":"free"},{"bike_id":"718bf399-2a1b-4e23-8a46-7027c392538e","system_id":"levelo_inurba_marseille","lat":43.23193,"lon":5.35558,"is_reserved":false,"is_disabled":false,"rental_uris":{"android":"levelo://app?vid=718bf399-2a1b-4e23-8a46-7027c392538e","ios":"levelo://app?vid=718bf399-2a1b-4e23-8a46-7027c392538e"},"vehicle_type_id":"4","last_reported":1686409553,"current_range_meters":27200,"station_id":"ce4bhu92rcd13ifvqi70","pricing_plan_id":"free"},{"bike_id":"a4b9f7be-1974-42d2-b1b1-9fa6651fa4cc","system_id":"levelo_inurba_marseille","lat":43.23193,"lon":5.35557,"is_reserved":false,"is_disabled":false,"rental_uris":{"android":"levelo://app?vid=a4b9f7be-1974-42d2-b1b1-9fa6651fa4cc","ios":"levelo://app?vid=a4b9f7be-1974-42d2-b1b1-9fa6651fa4cc"},"vehicle_type_id":"4","last_reported":1686409553,"current_range_meters":0,"station_id":"ce4bhu92rcd13ifvqi70","pricing_plan_id":"free"},{"bike_id":"c3c01aaf-ceb9-49d5-8698-3e197097ce72","system_id":"levelo_inurba_marseille","lat":43.23193,"lon":5.35557,"is_reserved":false,"is_disabled":false,"rental_uris":{"android":"levelo://app?vid=c3c01aaf-ceb9-49d5-8698-3e197097ce72","ios":"levelo://app?vid=c3c01aaf-ceb9-49d5-8698-3e197097ce72"},"vehicle_type_id":"4","last_reported":1686409553,"current_range_meters":26400,"station_id":"ce4bhu92rcd13ifvqi70","pricing_plan_id":"free"},{"bike_id":"6fe4d5f9-fc0d-4509-8325-9e7e23bf55ba","system_id":"levelo_inurba_marseille","lat":43.23194,"lon":5.35543,"is_reserved":false,"is_disabled":false,"rental_uris":{"android":"levelo://app?vid=6fe4d5f9-fc0d-4509-8325-9e7e23bf55ba","ios":"levelo://app?vid=6fe4d5f9-fc0d-4509-8325-9e7e23bf55ba"},"vehicle_type_id":"4","last_reported":1686409553,"current_range_meters":25200,"station_id":"ce4bhu92rcd13ifvqi70","pricing_plan_id":"free"},{"bike_id":"47b318f5-394e-4a50-80ef-6c63cd1a123f","system_id":"levelo_inurba_marseille","lat":43.23193,"lon":5.35556,"is_reserved":false,"is_disabled":false,"rental_uris":{"android":"levelo://app?vid=47b318f5-394e-4a50-80ef-6c63cd1a123f","ios":"levelo://app?vid=47b318f5-394e-4a50-80ef-6c63cd1a123f"},"vehicle_type_id":"4","last_reported":1686409553,"current_range_meters":30800,"station_id":"ce4bhu92rcd13ifvqi70","pricing_plan_id":"free"},{"bike_id":"ca0b21d8-b9ee-4471-b50f-ca10ab96d89a","system_id":"levelo_inurba_marseille","lat":43.23193,"lon":5.35555,"is_reserved":false,"is_disabled":false,"rental_uris":{"android":"levelo://app?vid=ca0b21d8-b9ee-4471-b50f-ca10ab96d89a","ios":"levelo://app?vid=ca0b21d8-b9ee-4471-b50f-ca10ab96d89a"},"vehicle_type_id":"4","last_reported":1686409553,"current_range_meters":12000,"station_id":"ce4bhu92rcd13ifvqi70","pricing_plan_id":"free"},{"bike_id":"5aec3ab7-104f-47ae-b2db-db3d74746044","system_id":"levelo_inurba_marseille","lat":43.23192,"lon":5.35562,"is_reserved":false,"is_disabled":false,"rental_uris":{"android":"levelo://app?vid=5aec3ab7-104f-47ae-b2db-db3d74746044","ios":"levelo://app?vid=5aec3ab7-104f-47ae-b2db-db3d74746044"},"vehicle_type_id":"4","last_reported":1686409553,"current_range_meters":8800,"station_id":"ce4bhu92rcd13ifvqi70","pricing_plan_id":"free"},{"bike_id":"31f4c02b-2fdf-4a4d-bf17-a3af95f75eb6","system_id":"levelo_inurba_marseille","lat":43.23192,"lon":5.35557,"is_reserved":false,"is_disabled":false,"rental_uris":{"android":"levelo://app?vid=31f4c02b-2fdf-4a4d-bf17-a3af95f75eb6","ios":"levelo://app?vid=31f4c02b-2fdf-4a4d-bf17-a3af95f75eb6"},"vehicle_type_id":"4","last_reported":1686409553,"current_range_meters":14400,"station_id":"ce4bhu92rcd13ifvqi70","pricing_plan_id":"free"},{"bike_id":"78a54dc7-693a-4f46-8e16-80770ef75069","system_id":"levelo_inurba_marseille","lat":43.23192,"lon":5.35555,"is_reserved":false,"is_disabled":false,"rental_uris":{"android":"levelo://app?vid=78a54dc7-693a-4f46-8e16-80770ef75069","ios":"levelo://app?vid=78a54dc7-693a-4f46-8e16-80770ef75069"},"vehicle_type_id":"4","last_reported":1686409553,"current_range_meters":4000,"station_id":"ce4bhu92rcd13ifvqi70","pricing_plan_id":"free"},{"bike_id":"36e83f6a-d78b-4c61-b605-737239a53f34","system_id":"levelo_inurba_marseille","lat":43.23192,"lon":5.35551,"is_reserved":false,"is_disabled":false,"rental_uris":{"android":"levelo://app?vid=36e83f6a-d78b-4c61-b605-737239a53f34","ios":"levelo://app?vid=36e83f6a-d78b-4c61-b605-737239a53f34"},"vehicle_type_id":"4","last_reported":1686409553,"current_range_meters":31200,"station_id":"ce4bhu92rcd13ifvqi70","pricing_plan_id":"free"},{"bike_id":"c63bbd7d-e8bf-4b1a-8c3d-53c96a698b13","system_id":"levelo_inurba_marseille","lat":43.23192,"lon":5.35548,"is_reserved":false,"is_disabled":false,"rental_uris":{"android":"levelo://app?vid=c63bbd7d-e8bf-4b1a-8c3d-53c96a698b13","ios":"levelo://app?vid=c63bbd7d-e8bf-4b1a-8c3d-53c96a698b13"},"vehicle_type_id":"4","last_reported":1686409553,"current_range_meters":31200,"station_id":"ce4bhu92rcd13ifvqi70","pricing_plan_id":"free"},{"bike_id":"0632bb34-94c8-4a7b-8eba-739fab22c488","system_id":"levelo_inurba_marseille","lat":43.231923,"lon":5.355545,"is_reserved":false,"is_disabled":false,"rental_uris":{"android":"levelo://app?vid=0632bb34-94c8-4a7b-8eba-739fab22c488","ios":"levelo://app?vid=0632bb34-94c8-4a7b-8eba-739fab22c488"},"vehicle_type_id":"4","last_reported":1686409553,"current_range_meters":31200,"station_id":"ce4bhu92rcd13ifvqi70","pricing_plan_id":"free"},{"bike_id":"0b5585a7-1d9a-45ab-965c-a3ad5f00595e","system_id":"levelo_inurba_marseille","lat":43.23191,"lon":5.35557,"is_reserved":false,"is_disabled":false,"rental_uris":{"android":"levelo://app?vid=0b5585a7-1d9a-45ab-965c-a3ad5f00595e","ios":"levelo://app?vid=0b5585a7-1d9a-45ab-965c-a3ad5f00595e"},"vehicle_type_id":"4","last_reported":1686409553,"current_range_meters":16400,"station_id":"ce4bhu92rcd13ifvqi70","pricing_plan_id":"free"},{"bike_id":"bf034299-5ddd-4db8-98ab-9d09d56751fe","system_id":"levelo_inurba_marseille","lat":43.23191,"lon":5.35556,"is_reserved":false,"is_disabled":false,"rental_uris":{"android":"levelo://app?vid=bf034299-5ddd-4db8-98ab-9d09d56751fe","ios":"levelo://app?vid=bf034299-5ddd-4db8-98ab-9d09d56751fe"},"vehicle_type_id":"4","last_reported":1686409553,"current_range_meters":14400,"station_id":"ce4bhu92rcd13ifvqi70","pricing_plan_id":"free"},{"bike_id":"2aae4bed-9cf6-4c5c-b245-93cfa99ea9f7","system_id":"levelo_inurba_marseille","lat":43.23191,"lon":5.35554,"is_reserved":false,"is_disabled":false,"rental_uris":{"android":"levelo://app?vid=2aae4bed-9cf6-4c5c-b245-93cfa99ea9f7","ios":"levelo://app?vid=2aae4bed-9cf6-4c5c-b245-93cfa99ea9f7"},"vehicle_type_id":"4","last_reported":1686409553,"current_range_meters":26800,"station_id":"ce4bhu92rcd13ifvqi70","pricing_plan_id":"free"},{"bike_id":"aa5198ae-fb4d-4888-b807-d3bd63fcc7ff","system_id":"levelo_inurba_marseille","lat":43.23191,"lon":5.35551,"is_reserved":false,"is_disabled":false,"rental_uris":{"android":"levelo://app?vid=aa5198ae-fb4d-4888-b807-d3bd63fcc7ff","ios":"levelo://app?vid=aa5198ae-fb4d-4888-b807-d3bd63fcc7ff"},"vehicle_type_id":"4","last_reported":1686409553,"current_range_meters":31200,"station_id":"ce4bhu92rcd13ifvqi70","pricing_plan_id":"free"},{"bike_id":"c31a7f84-c211-4a3e-9152-e65dcd906432","system_id":"levelo_inurba_marseille","lat":43.231923,"lon":5.355545,"is_reserved":false,"is_disabled":false,"rental_uris":{"android":"levelo://app?vid=c31a7f84-c211-4a3e-9152-e65dcd906432","ios":"levelo://app?vid=c31a7f84-c211-4a3e-9152-e65dcd906432"},"vehicle_type_id":"4","last_reported":1686409553,"current_range_meters":13600,"station_id":"ce4bhu92rcd13ifvqi70","pricing_plan_id":"free"},{"bike_id":"987badf1-6864-4d73-bd5a-9314b906e12a","system_id":"levelo_inurba_marseille","lat":43.2319,"lon":5.35558,"is_reserved":false,"is_disabled":false,"rental_uris":{"android":"levelo://app?vid=987badf1-6864-4d73-bd5a-9314b906e12a","ios":"levelo://app?vid=987badf1-6864-4d73-bd5a-9314b906e12a"},"vehicle_type_id":"4","last_reported":1686409553,"current_range_meters":25200,"station_id":"ce4bhu92rcd13ifvqi70","pricing_plan_id":"free"},{"bike_id":"07bcb0f7-f0a9-4259-aad7-e6b3a6654585","system_id":"levelo_inurba_marseille","lat":43.231923,"lon":5.355545,"is_reserved":false,"is_disabled":false,"rental_uris":{"android":"levelo://app?vid=07bcb0f7-f0a9-4259-aad7-e6b3a6654585","ios":"levelo://app?vid=07bcb0f7-f0a9-4259-aad7-e6b3a6654585"},"vehicle_type_id":"4","last_reported":1686409553,"current_range_meters":29200,"station_id":"ce4bhu92rcd13ifvqi70","pricing_plan_id":"free"},{"bike_id":"a0952f2b-d31a-496b-9aa3-f4ebb14eb140","system_id":"levelo_inurba_marseille","lat":43.23191,"lon":5.3554,"is_reserved":false,"is_disabled":false,"rental_uris":{"android":"levelo://app?vid=a0952f2b-d31a-496b-9aa3-f4ebb14eb140","ios":"levelo://app?vid=a0952f2b-d31a-496b-9aa3-f4ebb14eb140"},"vehicle_type_id":"4","last_reported":1686409553,"current_range_meters":400,"station_id":"ce4bhu92rcd13ifvqi70","pricing_plan_id":"free"},{"bike_id":"485013d1-5df6-4574-9c4d-cf8754513f02","system_id":"levelo_inurba_marseille","lat":43.23189,"lon":5.35562,"is_reserved":false,"is_disabled":false,"rental_uris":{"android":"levelo://app?vid=485013d1-5df6-4574-9c4d-cf8754513f02","ios":"levelo://app?vid=485013d1-5df6-4574-9c4d-cf8754513f02"},"vehicle_type_id":"4","last_reported":1686409553,"current_range_meters":18800,"station_id":"ce4bhu92rcd13ifvqi70","pricing_plan_id":"free"},