{"last_updated":1700582971,"ttl":30,"version":"2.2","data":{"bikes":[{"bike_id":"26e7b343-18c1-44cc-82a9-2d6c111b040e","system_id":"levelo_inurba_marseille","lat":43.31358,"lon":5.36717,"is_reserved":false,"is_disabled":false,"rental_uris":{"android":"levelo://app?vid=26e7b343-18c1-44cc-82a9-2d6c111b040e","ios":"levelo://app?vid=26e7b343-18c1-44cc-82a9-2d6c111b040e"},"vehicle_type_id":"4","last_reported":1700582971,"current_range_meters":30000,"station_id":"ce4bgr92rcd13ifvqc6g","pricing_plan_id":"free"},{"bike_id":"3995c520-8591-4e25-9185-f6ff7761a402","system_id":"levelo_inurba_marseille","lat":43.312239,"lon":5.368562,"is_reserved":false,"is_disabled":false,"rental_uris":{"android":"levelo://app?vid=3995c520-8591-4e25-9185-f6ff7761a402","ios":"levelo://app?vid=3995c520-8591-4e25-9185-f6ff7761a402"},"vehicle_type_id":"4","last_reported":1700582971,"current_range_meters":30400,"station_id":"ce4bgl92rcd13ifvqbq0","pricing_plan_id":"free"},{"bike_id":"8311aee2-2b33-4bba-bd8e-a2e4a38116a9","system_id":"levelo_inurba_marseille","lat":43.312239,"lon":5.368562,"is_reserved":false,"is_disabled":false,"rental_uris":{"android":"levelo://app?vid=8311aee2-2b33-4bba-bd8e-a2e4a38116a9","ios":"levelo://app?vid=8311aee2-2b33-4bba-bd8e-a2e4a38116a9"},"vehicle_type_id":"4","last_reported":1700582971,"current_range_meters":31200,"station_id":"ce4bgl92rcd13ifvqbq0","pricing_plan_id":"free"},{"bike_id":"78617399-35cd-4c14-863b-edfa628818e4","system_id":"levelo_inurba_marseille","lat":43.312239,"lon":5.368562,"is_reserved":false,"is_disabled":false,"rental_uris":{"android":"levelo://app?vid=78617399-35cd-4c14-863b-edfa628818e4","ios":"levelo://app?vid=78617399-35cd-4c14-863b-edfa628818e4"},"vehicle_type_id":"4","last_reported":1700582971,"current_range_meters":31200,"station_id":"ce4bgl92rcd13ifvqbq0","pricing_plan_id":"free"},{"bike_id":"1feddad9-6e26-4a3a-a41f-9e5c39c820f4","system_id":"levelo_inurba_marseille","lat":43.312239,"lon":5.368562,"is_reserved":false,"is_disabled":false,"rental_uris":{"android":"levelo://app?vid=1feddad9-6e26-4a3a-a41f-9e5c39c820f4","ios":"levelo://app?vid=1feddad9-6e26-4a3a-a41f-9e5c39c820f4"},"vehicle_type_id":"4","last_reported":1700582971,"current_range_meters":31200,"station_id":"ce4bgl92rcd13ifvqbq0","pricing_plan_id":"free"},{"bike_id":"eeef4dbc-7602-4f26-b2c1-c3771c9b5dae","system_id":"levelo_inurba_marseille","lat":43.31157,"lon":5.36893,"is_reserved":false,"is_disabled":false,"rental_uris":{"android":"levelo://app?vid=eeef4dbc-7602-4f26-b2c1-c3771c9b5dae","ios":"levelo://app?vid=eeef4dbc-7602-4f26-b2c1-c3771c9b5dae"},"vehicle_type_id":"4","last_reported":1700582971,"current_range_meters":0,"station_id":"","pricing_plan_id":"free"},{"bike_id":"14ead429-c547-47ed-a35b-85841b61ca40","system_id":"levelo_inurba_marseille","lat":43.30844,"lon":5.36878,"is_reserved":false,"is_disabled":false,"rental_uris":{"android":"levelo://app?vid=14ead429-c547-47ed-a35b-85841b61ca40","ios":"levelo://app?vid=14ead429-c547-47ed-a35b-85841b61ca40"},"vehicle_type_id":"4","last_reported":1700582971,"current_range_meters":16000,"station_id":"","pricing_plan_id":"free"},{"bike_id":"5ac9392c-70b1-47c8-a257-da2d2fb98a13","system_id":"levelo_inurba_marseille","lat":43.309039,"lon":5.371797,"is_reserved":false,"is_disabled":false,"rental_uris":{"android":"levelo://app?vid=5ac9392c-70b1-47c8-a257-da2d2fb98a13","ios":"levelo://app?vid=5ac9392c-70b1-47c8-a257-da2d2fb98a13"},"vehicle_type_id":"4","last_reported":1700582971,"current_range_meters":30000,"station_id":"ce4bguh2rcd13ifvqckg","pricing_plan_id":"free"},{"bike_id":"2bc311dc-da0b-403e-8cae-84f8764bc67c","system_id":"levelo_inurba_marseille","lat":43.30679,"lon":5.3679,"is_reserved":false,"is_disabled":false,"rental_uris":{"android":"levelo://app?vid=2bc311dc-da0b-403e-8cae-84f8764bc67c","ios":"levelo://app?vid=2bc311dc-da0b-403e-8cae-84f8764bc67c"},"vehicle_type_id":"4","last_reported":1700582971,"current_range_meters":2800,"station_id":"","pricing_plan_id":"free"},{"bike_id":"44f2b40b-8d78-4d20-8a98-9f27adcf3e8f","system_id":"levelo_inurba_marseille","lat":43.305712,"lon":5.365641,"is_reserved":false,"is_disabled":false,"rental_uris":{"android":"levelo://app?vid=44f2b40b-8d78-4d20-8a98-9f27adcf3e8f","ios":"levelo://app?vid=44f2b40b-8d78-4d20-8a98-9f27adcf3e8f"},"vehicle_type_id":"4","last_reported":1700582971,"current_range_meters":14000,"station_id":"ce4bgs12rcd13ifvqcag","pricing_plan_id":"free"},{"bike_id":"bcc37eeb-1cc1-41b0-b665-d7cb115367ac","system_id":"levelo_inurba_marseille","lat":43.30554,"lon":5.36544,"is_reserved":false,"is_disabled":false,"rental_uris":{"android":"levelo://app?vid=bcc37eeb-1cc1-41b0-b665-d7cb115367ac","ios":"levelo://app?vid=bcc37eeb-1cc1-41b0-b665-d7cb115367ac"},"vehicle_type_id":"4","last_reported":1700582971,"current_range_meters":8000,"station_id":"ce4bgs12rcd13ifvqcag","pricing_plan_id":"free"},{"bike_id":"2f1d284a-4d86-4336-8aee-b7d1760d258c","system_id":"levelo_inurba_marseille","lat":43.305368,"lon":5.367343,"is_reserved":false,"is_disabled":false,"rental_uris":{"android":"levelo://app?vid=2f1d284a-4d86-4336-8aee-b7d1760d258c","ios":"levelo://app?vid=2f1d284a-4d86-4336-8aee-b7d1760d258c"},"vehicle_type_id":"4","last_reported":1700582971,"current_range_meters":0,"station_id":"ce4bgrp2rcd13ifvqc9g","pricing_plan_id":"free"},{"bike_id":"790d8068-0ca3-4ee2-ac94-5b1995eb78d3","system_id":"levelo_inurba_marseille","lat":43.319694,"lon":5.370985,"is_reserved":false,"is_disabled":false,"rental_uris":{"android":"levelo://app?vid=790d8068-0ca3-4ee2-ac94-5b1995eb78d3","ios":"levelo://app?vid=790d8068-0ca3-4ee2-ac94-5b1995eb78d3"},"vehicle_type_id":"4","last_reported":1700582971,"current_range_meters":0,"station_id":"","pricing_plan_id":"free"},{"bike_id":"82821295-fba0-4476-8256-65addd2e1153","system_id":"levelo_inurba_marseille","lat":43.30518,"lon":5.36727,"is_reserved":false,"is_disabled":false,"rental_uris":{"android":"levelo://app?vid=82821295-fba0-4476-8256-65addd2e1153","ios":"levelo://app?vid=82821295-fba0-4476-8256-65addd2e1153"},"vehicle_type_id":"4","last_reported":1700582971,"current_range_meters":0,"station_id":"ce4bgrp2rcd13ifvqc9g","pricing_plan_id":"free"},{"bike_id":"da2ce6b1-462a-40c3-a86a-e5a4801ec7f4","system_id":"levelo_inurba_marseille","lat":43.305989,"lon":5.37225,"is_reserved":false,"is_disabled":false,"rental_uris":{"android":"levelo://app?vid=da2ce6b1-462a-40c3-a86a-e5a4801ec7f4","ios":"levelo://app?vid=da2ce6b1-462a-40c3-a86a-e5a4801ec7f4"},"vehicle_type_id":"4","last_reported":1700582971,"current_range_meters":29600,"station_id":"ce4bgqh2rcd13ifvqc4g","pricing_plan_id":"free"},{"bike_id":"e34cb1cb-fb30-4da2-8b97-f6d335fed1dc","system_id":"levelo_inurba_marseille","lat":43.31116,"lon":5.37774,"is_reserved":false,"is_disabled":false,"rental_uris":{"android":"levelo://app?vid=e34cb1cb-fb30-4da2-8b97-f6d335fed1dc","ios":"levelo://app?vid=e34cb1cb-fb30-4da2-8b97-f6d335fed1dc"},"vehicle_type_id":"4","last_reported":1700582971,"current_range_meters":6800,"station_id":"ce4bgt92rcd13ifvqcg0","pricing_plan_id":"free"},{"bike_id":"8585ecd2-99d8-404d-ad71-78642227d32a","system_id":"levelo_inurba_marseille","lat":43.31114,"lon":5.37782,"is_reserved":false,"is_disabled":false,"rental_uris":{"android":"levelo://app?vid=8585ecd2-99d8-404d-ad71-78642227d32a","ios":"levelo://app?vid=8585ecd2-99d8-404d-ad71-78642227d32a"},"vehicle_type_id":"4","last_reported":1700582971,"current_range_meters":10000,"station_id":"ce4bgt92rcd13ifvqcg0","pricing_plan_id":"free"},{"bike_id":"06284047-1e80-4933-bc3c-a8606f20a4a9","system_id":"levelo_inurba_marseille","lat":43.308173,"lon":5.376713,"is_reserved":false,"is_disabled":false,"rental_uris":{"android":"levelo://app?vid=06284047-1e80-4933-bc3c-a8606f20a4a9","ios":"levelo://app?vid=06284047-1e80-4933-bc3c-a8606f20a4a9"},"vehicle_type_id":"4","last_reported":1700582971,"current_range_meters":19600,"station_id":"ce4bgv92rcd13ifvqcq0","pricing_plan_id":"free"},{"bike_id":"a6feeec9-5dd7-4b2d-b405-66b738201918","system_id":"levelo_inurba_marseille","lat":43.317075,"lon":5.377367,"is_reserved":false,"is_disabled":false,"rental_uris":{"android":"levelo://app?vid=a6feeec9-5dd7-4b2d-b405-66b738201918","ios":"levelo://app?vid=a6feeec9-5dd7-4b2d-b405-66b738201918"},"vehicle_type_id":"4","last_reported":1700582971,"current_range_meters":17600,"station_id":"ce4bgth2rcd13ifvqch0","pricing_plan_id":"free"},{"bike_id":"2ce5132d-f2ee-4f4f-a626-f6e4cb8f725d","system_id":"levelo_inurba_marseille","lat":43.30304,"lon":5.36925,"is_reserved":false,"is_disabled":false,"rental_uris":{"android":"levelo://app?vid=2ce5132d-f2ee-4f4f-a626-f6e4cb8f725d","ios":"levelo://app?vid=2ce5132d-f2ee-4f4f-a626-f6e4cb8f725d"},"vehicle_type_id":"4","last_reported":1700582971,"current_range_meters":0,"station_id":"ce4bgqh2rcd13ifvqc5g","pricing_plan_id":"free"},{"bike_id":"65d0661a-1a1b-4639-bb28-4807f1680ce8","system_id":"levelo_inurba_marseille","lat":43.301811,"lon":5.366198,"is_reserved":false,"is_disabled":false,"rental_uris":{"android":"levelo://app?vid=65d0661a-1a1b-4639-bb28-4807f1680ce8","ios":"levelo://app?vid=65d0661a-1a1b-4639-bb28-4807f1680ce8"},"vehicle_type_id":"4","last_reported":1700582971,"current_range_meters":0,"station_id":"ce4bgt12rcd13ifvqce0","pricing_plan_id":"free"},{"bike_id":"008f63dc-f81e-4a38-81e4-35adf686c76a","system_id":"levelo_inurba_marseille","lat":43.30462,"lon":5.3791,"is_reserved":false,"is_disabled":false,"rental_uris":{"android":"levelo://app?vid=008f63dc-f81e-4a38-81e4-35adf686c76a","ios":"levelo://app?vid=008f63dc-f81e-4a38-81e4-35adf686c76a"},"vehicle_type_id":"4","last_reported":1700582971,"current_range_meters":0,"station_id":"ce4bgup2rcd13ifvqcn0","pricing_plan_id":"free"},{"bike_id":"a0c175c7-8763-48b2-96c0-ee3535174374","system_id":"levelo_inurba_marseille","lat":43.324771,"lon":5.36557,"is_reserved":false,"is_disabled":false,"rental_uris":{"android":"levelo://app?vid=a0c175c7-8763-48b2-96c0-ee3535174374","ios":"levelo://app?vid=a0c175c7-8763-48b2-96c0-ee3535174374"},"vehicle_type_id":"4","last_reported":1700582971,"current_range_meters":0,"station_id":"ce4bhs12rcd13ifvqhvg","pricing_plan_id":"free"},{"bike_id":"adf8e755-dfea-4901-95cd-4ff5567f7d01","system_id":"levelo_inurba_marseille","lat":43.302817,"lon":5.377055,"is_reserved":false,"is_disabled":false,"rental_uris":{"android":"levelo://app?vid=adf8e755-dfea-4901-95cd-4ff5567f7d01","ios":"levelo://app?vid=adf8e755-dfea-4901-95cd-4ff5567f7d01"},"vehicle_type_id":"4","last_reported":1700582971,"current_range_meters":24800,"station_id":"ce4bguh2rcd13ifvqcj0","pricing_plan_id":"free"},{"bike_id":"4848f78f-c4ff-4ded-b7fb-cb43a97b6b8b","system_id":"levelo_inurba_marseille","lat":43.319935,"lon":5.381699,"is_reserved":false,"is_disabled":false,"rental_uris":{"android":"levelo://app?vid=4848f78f-c4ff-4ded-b7fb-cb43a97b6b8b","ios":"levelo://app?vid=4848f78f-c4ff-4ded-b7fb-cb43a97b6b8b"},"vehicle_type_id":"4","last_reported":1700582971,"current_range_meters":3200,"station_id":"ce4bhr12rcd13ifvqhpg","pricing_plan_id":"free"},{"bike_id":"510d0105-b866-48bb-8bdb-59b0079c0d7a","system_id":"levelo_inurba_marseille","lat":43.319935,"lon":5.381699,"is_reserved":false,"is_disabled":false,"rental_uris":{"android":"levelo://app?vid=510d0105-b866-48bb-8bdb-59b0079c0d7a","ios":"levelo://app?vid=510d0105-b866-48bb-8bdb-59b0079c0d7a"},"vehicle_type_id":"4","last_reported":1700582971,"current_range_meters":26400,"station_id":"ce4bhr12rcd13ifvqhpg","pricing_plan_id":"free"},{"bike_id":"4b4fe3d7-722a-45a1-81fc-9a019167f268","system_id":"levelo_inurba_marseille","lat":43.319935,"lon":5.381699,"is_reserved":false,"is_disabled":false,"rental_uris":{"android":"levelo://app?vid=4b4fe3d7-722a-45a1-81fc-9a019167f268","ios":"levelo://app?vid=4b4fe3d7-722a-45a1-81fc-9a019167f268"},"vehicle_type_id":"4","last_reported":1700582971,"current_range_meters":26000,"station_id":"ce4bhr12rcd13ifvqhpg","pricing_plan_id":"free"},{"bike_id":"65af8b06-b16c-42ac-afb6-cff547802b15","system_id":"levelo_inurba_marseille","lat":43.313571,"lon":5.384829,"is_reserved":false,"is_disabled":false,"rental_uris":{"android":"levelo://app?vid=65af8b06-b16c-42ac-afb6-cff547802b15","ios":"levelo://app?vid=65af8b06-b16c-42ac-afb6-cff547802b15"},"vehicle_type_id":"4","last_reported":1700582971,"current_range_meters":3600,"station_id":"ce4bgt92rcd13ifvqcf0","pricing_plan_id":"free"},{"bike_id":"d65383e9-6396-40b7-9a32-bc7e3d42949d","system_id":"levelo_inurba_marseille","lat":43.313571,"lon":5.384829,"is_reserved":false,"is_disabled":false,"rental_uris":{"android":"levelo://app?vid=d65383e9-6396-40b7-9a32-bc7e3d42949d","ios":"levelo://app?vid=d65383e9-6396-40b7-9a32-bc7e3d42949d"},"vehicle_type_id":"4","last_reported":1700582971,"current_range_meters":13200,"station_id":"ce4bgt92rcd13ifvqcf0","pricing_plan_id":"free"},{"bike_id":"534c7baa-3659-4630-b6d9-601b3f673d12","system_id":"levelo_inurba_marseille","lat":43.298433,"lon":5.362774,"is_reserved":false,"is_disabled":false,"rental_uris":{"android":"levelo://app?vid=534c7baa-3659-4630-b6d9-601b3f673d12","ios":"levelo://app?vid=534c7baa-3659-4630-b6d9-601b3f673d12"},"vehicle_type_id":"4","last_reported":1700582971,"current_range_meters":31200,"station_id":"ce4bgpp2rcd13ifvqc3g","pricing_plan_id":"free"},{"bike_id":"993dee35-c43b-43ab-95f0-72dc8dd1c23f","system_id":"levelo_inurba_marseille","lat":43.311722,"lon":5.387247,"is_reserved":false,"is_disabled":false,"rental_uris":{"android":"levelo://app?vid=993dee35-c43b-43ab-95f0-72dc8dd1c23f","ios":"levelo://app?vid=993dee35-c43b-43ab-95f0-72dc8dd1c23f"},"vehicle_type_id":"4","last_reported":1700582971,"current_range_meters":1600,"station_id":"ce4bgv12rcd13ifvqcp0","pricing_plan_id":"free"},{"bike_id":"d9a95eb2-3ca7-4d5c-ae71-fae5be7a5a02","system_id":"levelo_inurba_marseille","lat":43.29811,"lon":5.37099,"is_reserved":false,"is_disabled":false,"rental_uris":{"android":"levelo://app?vid=d9a95eb2-3ca7-4d5c-ae71-fae5be7a5a02","ios":"levelo://app?vid=d9a95eb2-3ca7-4d5c-ae71-fae5be7a5a02"},"vehicle_type_id":"4","last_reported":1700582971,"current_range_meters":15600,"station_id":"ce4bgop2rcd13ifvqc1g","pricing_plan_id":"free"},{"bike_id":"9f0f4961-1f05-43ad-9173-d5cbfdfedbd7","system_id":"levelo_inurba_marseille","lat":43.2978,"lon":5.371185,"is_reserved":false,"is_disabled":false,"rental_uris":{"android":"levelo://app?vid=9f0f4961-1f05-43ad-9173-d5cbfdfedbd7","ios":"levelo://app?vid=9f0f4961-1f05-43ad-9173-d5cbfdfedbd7"},"vehicle_type_id":"4","last_reported":1700582971,"current_range_meters":14800,"station_id":"ce4bgop2rcd13ifvqc1g","pricing_plan_id":"free"},{"bike_id":"6505f04c-d84b-437d-884a-0cc6aada90c0","system_id":"levelo_inurba_marseille","lat":43.322872,"lon":5.382756,"is_reserved":false,"is_disabled":false,"rental_uris":{"android":"levelo://app?vid=6505f04c-d84b-437d-884a-0cc6aada90c0","ios":"levelo://app?vid=6505f04c-d84b-437d-884a-0cc6aada90c0"},"vehicle_type_id":"4","last_reported":1700582971,"current_range_meters":27600,"station_id":"ce4bhr12rcd13ifvqhqg","pricing_plan_id":"free"},{"bike_id":"48fd418e-bec3-41e1-98ed-3d58346f79f0","system_id":"levelo_inurba_marseille","lat":43.322872,"lon":5.382756,"is_reserved":false,"is_disabled":false,"rental_uris":{"android":"levelo://app?vid=48fd418e-bec3-41e1-98ed-3d58346f79f0","ios":"levelo://app?vid=48fd418e-bec3-41e1-98ed-3d58346f79f0"},"vehicle_type_id":"4","last_reported":1700582971,"current_range_meters":12400,"station_id":"ce4bhr12rcd13ifvqhqg","pricing_plan_id":"free"},{"bike_id":"24256210-dd9b-4e06-8284-ac9b4520be6f","system_id":"levelo_inurba_marseille","lat":43.32828,"lon":5.36682,"is_reserved":false,"is_disabled":false,"rental_uris":{"android":"levelo://app?vid=24256210-dd9b-4e06-8284-ac9b4520be6f","ios":"levelo://app?vid=24256210-dd9b-4e06-8284-ac9b4520be6f"},"vehicle_type_id":"4","last_reported":1700582971,"current_range_meters":0,"station_id":"ce4bhs92rcd13ifvqi0g","pricing_plan_id":"free"},{"bike_id":"14acb05e-e6f7-4d1a-9ccf-9d030d00cc86","system_id":"levelo_inurba_marseille","lat":43.297163,"lon":5.365866,"is_reserved":false,"is_disabled":false,"rental_uris":{"android":"levelo://app?vid=14acb05e-e6f7-4d1a-9ccf-9d030d00cc86","ios":"levelo://app?vid=14acb05e-e6f7-4d1a-9ccf-9d030d00cc86"},"vehicle_type_id":"4","last_reported":1700582971,"current_range_meters":17600,"station_id":"ce4bgn12rcd13ifvqbt0","pricing_plan_id":"free"},{"bike_id":"33f7a205-a0fa-45aa-8dec-d47c850fa3fa","system_id":"levelo_inurba_marseille","lat":43.29732,"lon":5.37011,"is_reserved":false,"is_disabled":false,"rental_uris":{"android":"levelo://app?vid=33f7a205-a0fa-45aa-8dec-d47c850fa3fa","ios":"levelo://app?vid=33f7a205-a0fa-45aa-8dec-d47c850fa3fa"},"vehicle_type_id":"4","last_reported":1700582971,"current_range_meters":400,"station_id":"","pricing_plan_id":"free"},{"bike_id":"03b9f08a-1465-4da2-9ec0-c62d6806a4b5","system_id":"levelo_inurba_marseille","lat":43.297163,"lon":5.365866,"is_reserved":false,"is_disabled":false,"rental_uris":{"android":"levelo://app?vid=03b9f08a-1465-4da2-9ec0-c62d6806a4b5","ios":"levelo://app?vid=03b9f08a-1465-4da2-9ec0-c62d6806a4b5"},"vehicle_type_id":"4","last_reported":1700582971,"current_range_meters":20800,"station_id":"ce4bgn12rcd13ifvqbt0","pricing_plan_id":"free"},{"bike_id":"83f2f6aa-1183-430e-ae98-82626c4206f3","system_id":"levelo_inurba_marseille","lat":43.297163,"lon":5.365866,"is_reserved":false,"is_disabled":false,"rental_uris":{"android":"levelo://app?vid=83f2f6aa-1183-430e-ae98-82626c4206f3","ios":"levelo://app?vid=83f2f6aa-1183-430e-ae98-82626c4206f3"},"vehicle_type_id":"4","last_reported":1700582971,"current_range_meters":7200,"station_id":"ce4bgn12rcd13ifvqbt0","pricing_plan_id":"free"},{"bike_id":"c180b649-cea0-4239-8dcb-73a3e522760e","system_id":"levelo_inurba_marseille","lat":43.297163,"lon":5.365866,"is_reserved":false,"is_disabled":false,"rental_uris":{"android":"levelo://app?vid=c180b649-cea0-4239-8dcb-73a3e522760e","ios":"levelo://app?vid=c180b649-cea0-4239-8dcb-73a3e522760e"},"vehicle_type_id":"4","last_reported":1700582971,"current_range_meters":23600,"station_id":"ce4bgn12rcd13ifvqbt0","pricing_plan_id":"free"},{"bike_id":"d057e447-5cce-4125-adc8-5ddc9a1beb92","system_id":"levelo_inurba_marseille","lat":43.297163,"lon":5.365866,"is_reserved":false,"is_disabled":false,"rental_uris":{"android":"levelo://app?vid=d057e447-5cce-4125-adc8-5ddc9a1beb92","ios":"levelo://app?vid=d057e447-5cce-4125-adc8-5ddc9a1beb92"},"vehicle_type_id":"4","last_reported":1700582971,"current_range_meters":31200,"station_id":"ce4bgn12rcd13ifvqbt0","pricing_plan_id":"free"},{"bike_id":"783342ce-8ac5-4c1f-9714-c7220172d6a0","system_id":"levelo_inurba_marseille","lat":43.297163,"lon":5.365866,"is_reserved":false,"is_disabled":false,"rental_uris":{"android":"levelo://app?vid=783342ce-8ac5-4c1f-9714-c7220172d6a0","ios":"levelo://app?vid=783342ce-8ac5-4c1f-9714-c7220172d6a0"},"vehicle_type_id":"4","last_reported":1700582971,"current_range_meters":3600,"station_id":"ce4bgn12rcd13ifvqbt0","pricing_plan_id":"free"},{"bike_id":"f5cff1e3-9353-4069-b401-bbe8edb1f41d","system_id":"levelo_inurba_marseille","lat":43.29717,"lon":5.37693,"is_reserved":false,"is_disabled":false,"rental_uris":{"android":"levelo://app?vid=f5cff1e3-9353-4069-b401-bbe8edb1f41d","ios":"levelo://app?vid=f5cff1e3-9353-4069-b401-bbe8edb1f41d"},"vehicle_type_id":"4","last_reported":1700582971,"current_range_meters":0,"station_id":"ce4bgkh2rcd13ifvqbl0","pricing_plan_id":"free"},{"bike_id":"7ac58192-a4fe-4246-8e7e-a1e28f1e2590","system_id":"levelo_inurba_marseille","lat":43.299028,"lon":5.381509,"is_reserved":false,"is_disabled":false,"rental_uris":{"android":"levelo://app?vid=7ac58192-a4fe-4246-8e7e-a1e28f1e2590","ios":"levelo://app?vid=7ac58192-a4fe-4246-8e7e-a1e28f1e2590"},"vehicle_type_id":"4","last_reported":1700582971,"current_range_meters":6000,"station_id":"ce4bgj12rcd13ifvqbc0","pricing_plan_id":"free"},{"bike_id":"9fb402a7-7a41-4473-81d2-1fec663a6035","system_id":"levelo_inurba_marseille","lat":43.3056,"lon":5.38874,"is_reserved":false,"is_disabled":false,"rental_uris":{"android":"levelo://app?vid=9fb402a7-7a41-4473-81d2-1fec663a6035","ios":"levelo://app?vid=9fb402a7-7a41-4473-81d2-1fec663a6035"},"vehicle_type_id":"4","last_reported":1700582971,"current_range_meters":28800,"station_id":"","pricing_plan_id":"free"},{"bike_id":"9908ba4c-5f1c-4ed2-804b-5dc0fe54431e","system_id":"levelo_inurba_marseille","lat":43.29618,"lon":5.37702,"is_reserved":false,"is_disabled":false,"rental_uris":{"android":"levelo://app?vid=9908ba4c-5f1c-4ed2-804b-5dc0fe54431e","ios":"levelo://app?vid=9908ba4c-5f1c-4ed2-804b-5dc0fe54431e"},"vehicle_type_id":"4","last_reported":1700582971,"current_range_meters":19600,"station_id":"","pricing_plan_id":"free"},{"bike_id":"3059d4c1-3d42-4321-a339-0fea9a03ef82","system_id":"levelo_inurba_marseille","lat":43.328154,"lon":5.380034,"is_reserved":false,"is_disabled":false,"rental_uris":{"android":"levelo://app?vid=3059d4c1-3d42-4321-a339-0fea9a03ef82","ios":"levelo://app?vid=3059d4c1-3d42-4321-a339-0fea9a03ef82"},"vehicle_type_id":"4","last_reported":1700582971,"current_range_meters":0,"station_id":"","pricing_plan_id":"free"},{"bike_id":"89f976c3-d432-406a-8160-d715434e97db","system_id":"levelo_inurba_marseille","lat":43.296146,"lon":5.377153,"is_reserved":false,"is_disabled":false,"rental_uris":{"android":"levelo://app?vid=89f976c3-d432-406a-8160-d715434e97db","ios":"levelo://app?vid=89f976c3-d432-406a-8160-d715434e97db"},"vehicle_type_id":"4","last_reported":1700582971,"current_range_meters":29600,"station_id":"","pricing_plan_id":"free"},{"bike_id":"61f925e7-4449-47a8-a203-3dbe9fa0ddf1","system_id":"levelo_inurba_marseille","lat":43.295748,"lon":5.37522,"is_reserved":false,"is_disabled":false,"rental_uris":{"android":"levelo://app?vid=61f925e7-4449-47a8-a203-3dbe9fa0ddf1","ios":"levelo://app?vid=61f925e7-4449-47a8-a203-3dbe9fa0ddf1"},"vehicle_type_id":"4","last_reported":1700582971,"current_range_meters":15600,"station_id":"ce4bgh92rcd13ifvqb50","pricing_plan_id":"free"},{"bike_id":"49b71375-99d5-4453-a80d-805a96083de9","system_id":"levelo_inurba_marseille","lat":43.29969,"lon":5.38495,"is_reserved":false,"is_disabled":false,"rental_uris":{"android":"levelo://app?vid=49b71375-99d5-4453-a80d-805a96083de9","ios":"levelo://app?vid=49b71375-99d5-4453-a80d-805a96083de9"},"vehicle_type_id":"4","last_reported":1700582971,"current_range_meters":0,"station_id":"ce4bgj92rcd13ifvqbd0","pricing_plan_id":"free"},{"bike_id":"d4da279c-335b-47ba-9560-3c5b62f864ca","system_id":"levelo_inurba_marseille","lat":43.29519,"lon":5.37512,"is_reserved":false,"is_disabled":false,"rental_uris":{"android":"levelo://app?vid=d4da279c-335b-47ba-9560-3c5b62f864ca","ios":"levelo://app?vid=d4da279c-335b-47ba-9560-3c5b62f864ca"},"vehicle_type_id":"4","last_reported":1700582971,"current_range_meters":0,"station_id":"ce4bgkp2rcd13ifvqbmg","pricing_plan_id":"free"},{"bike_id":"6b621983-5e9e-42f7-990d-ad5a093820d2","system_id":"levelo_inurba_marseille","lat":43.293801,"lon":5.363066,"is_reserved":false,"is_disabled":false,"rental_uris":{"android":"levelo://app?vid=6b621983-5e9e-42f7-990d-ad5a093820d2","ios":"levelo://app?vid=6b621983-5e9e-42f7-990d-ad5a093820d2"},"vehicle_type_id":"4","last_reported":1700582971,"current_range_meters":15600,"station_id":"","pricing_plan_id":"free"},{"bike_id":"61b99a2c-5c1e-42aa-9522-76e386183545","system_id":"levelo_inurba_marseille","lat":43.32367,"lon":5.388836,"is_reserved":false,"is_disabled":false,"rental_uris":{"android":"levelo://app?vid=61b99a2c-5c1e-42aa-9522-76e386183545","ios":"levelo://app?vid=61b99a2c-5c1e-42aa-9522-76e386183545"},"vehicle_type_id":"4","last_reported":1700582971,"current_range_meters":21600,"station_id":"ce4bhqp2rcd13ifvqhog","pricing_plan_id":"free"},{"bike_id":"5dc9fd55-c7fd-4cd7-bf8b-d185aa1d4438","system_id":"levelo_inurba_marseille","lat":43.32367,"lon":5.388836,"is_reserved":false,"is_disabled":false,"rental_uris":{"android":"levelo://app?vid=5dc9fd55-c7fd-4cd7-bf8b-d185aa1d4438","ios":"levelo://app?vid=5dc9fd55-c7fd-4cd7-bf8b-d185aa1d4438"},"vehicle_type_id":"4","last_reported":1700582971,"current_range_meters":6800,"station_id":"ce4bhqp2rcd13ifvqhog","pricing_plan_id":"free"},{"bike_id":"d08f04bf-d1cb-49fb-9aa7-04e7f7676b3c","system_id":"levelo_inurba_marseille","lat":43.32342,"lon":5.38947,"is_reserved":false,"is_disabled":false,"rental_uris":{"android":"levelo://app?vid=d08f04bf-d1cb-49fb-9aa7-04e7f7676b3c","ios":"levelo://app?vid=d08f04bf-d1cb-49fb-9aa7-04e7f7676b3c"},"vehicle_type_id":"4","last_reported":1700582971,"current_range_meters":0,"station_id":"","pricing_plan_id":"free"},{"bike_id":"000a1eb4-5f16-4189-9490-a7ba0d9e03b6","system_id":"levelo_inurba_marseille","lat":43.29601,"lon":5.381084,"is_reserved":false,"is_disabled":false,"rental_uris":{"android":"levelo://app?vid=000a1eb4-5f16-4189-9490-a7ba0d9e03b6","ios":"levelo://app?vid=000a1eb4-5f16-4189-9490-a7ba0d9e03b6"},"vehicle_type_id":"4","last_reported":1700582971,"current_range_meters":18400,"station_id":"ce4bgl12rcd13ifvqbo0","pricing_plan_id":"free"},{"bike_id":"5d657723-f477-4d48-b4ea-495622fff855","system_id":"levelo_inurba_marseille","lat":43.293249,"lon":5.371578,"is_reserved":false,"is_disabled":false,"rental_uris":{"android":"levelo://app?vid=5d657723-f477-4d48-b4ea-495622fff855","ios":"levelo://app?vid=5d657723-f477-4d48-b4ea-495622fff855"},"vehicle_type_id":"4","last_reported":1700582971,"current_range_meters":6400,"station_id":"ce4bgh92rcd13ifvqb40","pricing_plan_id":"free"},{"bike_id":"d55660d8-7e78-4028-9183-4fa0a3b71661","system_id":"levelo_inurba_marseille","lat":43.29303,"lon":5.37168,"is_reserved":false,"is_disabled":false,"rental_uris":{"android":"levelo://app?vid=d55660d8-7e78-4028-9183-4fa0a3b71661","ios":"levelo://app?vid=d55660d8-7e78-4028-9183-4fa0a3b71661"},"vehicle_type_id":"4","last_reported":1700582971,"current_range_meters":29200,"station_id":"ce4bgh92rcd13ifvqb40","pricing_plan_id":"free"},{"bike_id":"8466f93f-039a-4456-bff5-52ed8175ab07","system_id":"levelo_inurba_marseille","lat":43.29304,"lon":5.37181,"is_reserved":false,"is_disabled":false,"rental_uris":{"android":"levelo://app?vid=8466f93f-039a-4456-bff5-52ed8175ab07","ios":"levelo://app?vid=8466f93f-039a-4456-bff5-52ed8175ab07"},"vehicle_type_id":"4","last_reported":1700582971,"current_range_meters":5200,"station_id":"ce4bgh92rcd13ifvqb40","pricing_plan_id":"free"},{"bike_id":"c6cd72ec-269c-441b-aab9-5d8fd345e6f4","system_id":"levelo_inurba_marseille","lat":43.292749,"lon":5.368402,"is_reserved":false,"is_disabled":false,"rental_uris":{"android":"levelo://app?vid=c6cd72ec-269c-441b-aab9-5d8fd345e6f4","ios":"levelo://app?vid=c6cd72ec-269c-441b-aab9-5d8fd345e6f4"},"vehicle_type_id":"4","last_reported":1700582971,"current_range_meters":15200,"station_id":"ce4bhbp2rcd13ifvqesg","pricing_plan_id":"free"},{"bike_id":"56976b36-0d06-4b7b-9507-582ab8ce8f96","system_id":"levelo_inurba_marseille","lat":43.29291,"lon":5.37471,"is_reserved":false,"is_disabled":false,"rental_uris":{"android":"levelo://app?vid=56976b36-0d06-4b7b-9507-582ab8ce8f96","ios":"levelo://app?vid=56976b36-0d06-4b7b-9507-582ab8ce8f96"},"vehicle_type_id":"4","last_reported":1700582971,"current_range_meters":13600,"station_id":"ce4bgi12rcd13ifvqb70","pricing_plan_id":"free"},{"bike_id":"679d6013-5f69-4199-b7a0-04df5acc415a","system_id":"levelo_inurba_marseille","lat":43.292775,"lon":5.374845,"is_reserved":false,"is_disabled":false,"rental_uris":{"android":"levelo://app?vid=679d6013-5f69-4199-b7a0-04df5acc415a","ios":"levelo://app?vid=679d6013-5f69-4199-b7a0-04df5acc415a"},"vehicle_type_id":"4","last_reported":1700582971,"current_range_meters":29600,"station_id":"ce4bgi12rcd13ifvqb70","pricing_plan_id":"free"},{"bike_id":"bac2928f-6218-4e86-8f96-12351ddfdb33","system_id":"levelo_inurba_marseille","lat":43.292311,"lon":5.360731,"is_reserved":false,"is_disabled":false,"rental_uris":{"android":"levelo://app?vid=bac2928f-6218-4e86-8f96-12351ddfdb33","ios":"levelo://app?vid=bac2928f-6218-4e86-8f96-12351ddfdb33"},"vehicle_type_id":"4","last_reported":1700582971,"current_range_meters":0,"station_id":"ce4bhbh2rcd13ifvqeqg","pricing_plan_id":"free"},{"bike_id":"3e1f6fba-bd31-4475-9e9c-511b99d8ffe8","system_id":"levelo_inurba_marseille","lat":43.29891,"lon":5.38899,"is_reserved":false,"is_disabled":false,"rental_uris":{"android":"levelo://app?vid=3e1f6fba-bd31-4475-9e9c-511b99d8ffe8","ios":"levelo://app?vid=3e1f6fba-bd31-4475-9e9c-511b99d8ffe8"},"vehicle_type_id":"4","last_reported":1700582971,"current_range_meters":19600,"station_id":"ce4bh392rcd13ifvqdl0","pricing_plan_id":"free"},{"bike_id":"3867cfa2-c63d-4656-9a98-2eddd4ac9d53","system_id":"levelo_inurba_marseille","lat":43.30085,"lon":5.390856,"is_reserved":false,"is_disabled":false,"rental_uris":{"android":"levelo://app?vid=3867cfa2-c63d-4656-9a98-2eddd4ac9d53","ios":"levelo://app?vid=3867cfa2-c63d-4656-9a98-2eddd4ac9d53"},"vehicle_type_id":"4","last_reported":1700582971,"current_range_meters":0,"station_id":"ce4bh192rcd13ifvqdb0","pricing_plan_id":"free"},{"bike_id":"2155f597-ce4b-4754-857d-d986478a73cd","system_id":"levelo_inurba_marseille","lat":43.298764,"lon":5.388973,"is_reserved":false,"is_disabled":false,"rental_uris":{"android":"levelo://app?vid=2155f597-ce4b-4754-857d-d986478a73cd","ios":"levelo://app?vid=2155f597-ce4b-4754-857d-d986478a73cd"},"vehicle_type_id":"4","last_reported":1700582971,"current_range_meters":23200,"station_id":"ce4bh392rcd13ifvqdl0","pricing_plan_id":"free"},{"bike_id":"a8161492-93de-4272-8abb-7687531251be","system_id":"levelo_inurba_marseille","lat":43.291671,"lon":5.371575,"is_reserved":false,"is_disabled":false,"rental_uris":{"android":"levelo://app?vid=a8161492-93de-4272-8abb-7687531251be","ios":"levelo://app?vid=a8161492-93de-4272-8abb-7687531251be"},"vehicle_type_id":"4","last_reported":1700582971,"current_range_meters":18400,"station_id":"ce4bha92rcd13ifvqeh0","pricing_plan_id":"free"},{"bike_id":"80915a53-8f33-44e0-89e2-75aed183279f","system_id":"levelo_inurba_marseille","lat":43.291671,"lon":5.371575,"is_reserved":false,"is_disabled":false,"rental_uris":{"android":"levelo://app?vid=80915a53-8f33-44e0-89e2-75aed183279f","ios":"levelo://app?vid=80915a53-8f33-44e0-89e2-75aed183279f"},"vehicle_type_id":"4","last_reported":1700582971,"current_range_meters":17600,"station_id":"ce4bha92rcd13ifvqeh0","pricing_plan_id":"free"},{"bike_id":"a0a59234-cd60-4cb0-b19a-4111a1836e7f","system_id":"levelo_inurba_marseille","lat":43.2925,"lon":5.37634,"is_reserved":false,"is_disabled":false,"rental_uris":{"android":"levelo://app?vid=a0a59234-cd60-4cb0-b19a-4111a1836e7f","ios":"levelo://app?vid=a0a59234-cd60-4cb0-b19a-4111a1836e7f"},"vehicle_type_id":"4","last_reported":1700582971,"current_range_meters":30800,"station_id":"ce4bgi12rcd13ifvqb80","pricing_plan_id":"free"},{"bike_id":"57f44b69-73b1-41bd-9290-75d70d868ba6","system_id":"levelo_inurba_marseille","lat":43.309047,"lon":5.396551,"is_reserved":false,"is_disabled":false,"rental_uris":{"android":"levelo://app?vid=57f44b69-73b1-41bd-9290-75d70d868ba6","ios":"levelo://app?vid=57f44b69-73b1-41bd-9290-75d70d868ba6"},"vehicle_type_id":"4","last_reported":1700582971,"current_range_meters":7600,"station_id":"ce4bh012rcd13ifvqcv0","pricing_plan_id":"free"},{"bike_id":"4fdc9e0d-d2b1-4468-a601-87ceee55ecf0","system_id":"levelo_inurba_marseille","lat":43.31334,"lon":5.3969,"is_reserved":false,"is_disabled":false,"rental_uris":{"android":"levelo://app?vid=4fdc9e0d-d2b1-4468-a601-87ceee55ecf0","ios":"levelo://app?vid=4fdc9e0d-d2b1-4468-a601-87ceee55ecf0"},"vehicle_type_id":"4","last_reported":1700582971,"current_range_meters":17600,"station_id":"ce4bgvp2rcd13ifvqcu0","pricing_plan_id":"free"},{"bike_id":"cdfd4d0a-14e5-4e93-b6b8-0b2e2f85621f","system_id":"levelo_inurba_marseille","lat":43.31325,"lon":5.39693,"is_reserved":false,"is_disabled":false,"rental_uris":{"android":"levelo://app?vid=cdfd4d0a-14e5-4e93-b6b8-0b2e2f85621f","ios":"levelo://app?vid=cdfd4d0a-14e5-4e93-b6b8-0b2e2f85621f"},"vehicle_type_id":"4","last_reported":1700582971,"current_range_meters":2800,"station_id":"ce4bgvp2rcd13ifvqcu0","pricing_plan_id":"free"},{"bike_id":"e0eeb1a2-c7ba-4e33-b105-8041252d3b97","system_id":"levelo_inurba_marseille","lat":43.313291,"lon":5.396838,"is_reserved":false,"is_disabled":false,"rental_uris":{"android":"levelo://app?vid=e0eeb1a2-c7ba-4e33-b105-8041252d3b97","ios":"levelo://app?vid=e0eeb1a2-c7ba-4e33-b105-8041252d3b97"},"vehicle_type_id":"4","last_reported":1700582971,"current_range_meters":26000,"station_id":"ce4bgvp2rcd13ifvqcu0","pricing_plan_id":"free"},{"bike_id":"0e371213-826b-4112-b210-dd636c64b44d","system_id":"levelo_inurba_marseille","lat":43.313291,"lon":5.396838,"is_reserved":false,"is_disabled":false,"rental_uris":{"android":"levelo://app?vid=0e371213-826b-4112-b210-dd636c64b44d","ios":"levelo://app?vid=0e371213-826b-4112-b210-dd636c64b44d"},"vehicle_type_id":"4","last_reported":1700582971,"current_range_meters":17600,"station_id":"ce4bgvp2rcd13ifvqcu0","pricing_plan_id":"free"},{"bike_id":"6494da38-9c02-4ca9-b844-19624091eadd","system_id":"levelo_inurba_marseille","lat":43.309038,"lon":5.396546,"is_reserved":false,"is_disabled":false,"rental_uris":{"android":"levelo://app?vid=6494da38-9c02-4ca9-b844-19624091eadd","ios":"levelo://app?vid=6494da38-9c02-4ca9-b844-19624091eadd"},"vehicle_type_id":"4","last_reported":1700582971,"current_range_meters":21600,"station_id":"ce4bh012rcd13ifvqcv0","pricing_plan_id":"free"},{"bike_id":"1d10a1b1-d55f-4279-928a-9c6858f32ca9","system_id":"levelo_inurba_marseille","lat":43.33241,"lon":5.38047,"is_reserved":false,"is_disabled":false,"rental_uris":{"android":"levelo://app?vid=1d10a1b1-d55f-4279-928a-9c6858f32ca9","ios":"levelo://app?vid=1d10a1b1-d55f-4279-928a-9c6858f32ca9"},"vehicle_type_id":"4","last_reported":1700582971,"current_range_meters":3200,"station_id":"","pricing_plan_id":"free"},{"bike_id":"1f0bd1f5-0541-4942-9295-0faebbeb6ceb","system_id":"levelo_inurba_marseille","lat":43.29529,"lon":5.385581,"is_reserved":false,"is_disabled":false,"rental_uris":{"android":"levelo://app?vid=1f0bd1f5-0541-4942-9295-0faebbeb6ceb","ios":"levelo://app?vid=1f0bd1f5-0541-4942-9295-0faebbeb6ceb"},"vehicle_type_id":"4","last_reported":1700582971,"current_range_meters":6400,"station_id":"ce4bgih2rcd13ifvqba0","pricing_plan_id":"free"},{"bike_id":"4909455d-0167-44f4-b385-9cdcec4b5078","system_id":"levelo_inurba_marseille","lat":43.29529,"lon":5.385581,"is_reserved":false,"is_disabled":false,"rental_uris":{"android":"levelo://app?vid=4909455d-0167-44f4-b385-9cdcec4b5078","ios":"levelo://app?vid=4909455d-0167-44f4-b385-9cdcec4b5078"},"vehicle_type_id":"4","last_reported":1700582971,"current_range_meters":4000,"station_id":"ce4bgih2rcd13ifvqba0","pricing_plan_id":"free"},{"bike_id":"a9c8fc0d-e609-4cf0-9b80-7613dcccccb9","system_id":"levelo_inurba_marseille","lat":43.290779,"lon":5.371482,"is_reserved":false,"is_disabled":false,"rental_uris":{"android":"levelo://app?vid=a9c8fc0d-e609-4cf0-9b80-7613dcccccb9","ios":"levelo://app?vid=a9c8fc0d-e609-4cf0-9b80-7613dcccccb9"},"vehicle_type_id":"4","last_reported":1700582971,"current_range_meters":19200,"station_id":"ce4bh5p2rcd13ifvqe4g","pricing_plan_id":"free"},{"bike_id":"cf1ff025-5fa9-4d45-aa63-b2ace7bbcf60","system_id":"levelo_inurba_marseille","lat":43.294153,"lon":5.386305,"is_reserved":false,"is_disabled":false,"rental_uris":{"android":"levelo://app?vid=cf1ff025-5fa9-4d45-aa63-b2ace7bbcf60","ios":"levelo://app?vid=cf1ff025-5fa9-4d45-aa63-b2ace7bbcf60"},"vehicle_type_id":"4","last_reported":1700582971,"current_range_meters":2400,"station_id":"ce4bh2h2rcd13ifvqdh0","pricing_plan_id":"free"},{"bike_id":"9ec99bab-114a-4a96-84d4-36b28d9962e9","system_id":"levelo_inurba_marseille","lat":43.294153,"lon":5.386305,"is_reserved":false,"is_disabled":false,"rental_uris":{"android":"levelo://app?vid=9ec99bab-114a-4a96-84d4-36b28d9962e9","ios":"levelo://app?vid=9ec99bab-114a-4a96-84d4-36b28d9962e9"},"vehicle_type_id":"4","last_reported":1700582971,"current_range_meters":26400,"station_id":"ce4bh2h2rcd13ifvqdh0","pricing_plan_id":"free"},{"bike_id":"023a52c2-980b-4324-b824-107b86b09ef1","system_id":"levelo_inurba_marseille","lat":43.289184,"lon":5.366408,"is_reserved":false,"is_disabled":false,"rental_uris":{"android":"levelo://app?vid=023a52c2-980b-4324-b824-107b86b09ef1","ios":"levelo://app?vid=023a52c2-980b-4324-b824-107b86b09ef1"},"vehicle_type_id":"4","last_reported":1700582971,"current_range_meters":23600,"station_id":"ce4bhap2rcd13ifvqek0","pricing_plan_id":"free"},{"bike_id":"c79ad178-6704-4ec1-8efc-fc1a1828fdb5","system_id":"levelo_inurba_marseille","lat":43.290995,"lon":5.381361,"is_reserved":false,"is_disabled":false,"rental_uris":{"android":"levelo://app?vid=c79ad178-6704-4ec1-8efc-fc1a1828fdb5","ios":"levelo://app?vid=c79ad178-6704-4ec1-8efc-fc1a1828fdb5"},"vehicle_type_id":"4","last_reported":1700582971,"current_range_meters":22800,"station_id":"ce4bh512rcd13ifvqe2g","pricing_plan_id":"free"},{"bike_id":"c0691913-4d43-42af-9fa5-975aa1a8621b","system_id":"levelo_inurba_marseille","lat":43.29098,"lon":5.38143,"is_reserved":false,"is_disabled":false,"rental_uris":{"android":"levelo://app?vid=c0691913-4d43-42af-9fa5-975aa1a8621b","ios":"levelo://app?vid=c0691913-4d43-42af-9fa5-975aa1a8621b"},"vehicle_type_id":"4","last_reported":1700582971,"current_range_meters":0,"station_id":"ce4bh512rcd13ifvqe2g","pricing_plan_id":"free"},{"bike_id":"a10a1f00-1bfa-4a79-a6c3-8582fa0026b7","system_id":"levelo_inurba_marseille","lat":43.289468,"lon":5.363719,"is_reserved":false,"is_disabled":false,"rental_uris":{"android":"levelo://app?vid=a10a1f00-1bfa-4a79-a6c3-8582fa0026b7","ios":"levelo://app?vid=a10a1f00-1bfa-4a79-a6c3-8582fa0026b7"},"vehicle_type_id":"4","last_reported":1700582971,"current_range_meters":9600,"station_id":"ce4bhc92rcd13ifvqetg","pricing_plan_id":"free"},{"bike_id":"db8873c0-9325-49fe-a417-aff34c8fa470","system_id":"levelo_inurba_marseille","lat":43.2901,"lon":5.381269,"is_reserved":false,"is_disabled":false,"rental_uris":{"android":"levelo://app?vid=db8873c0-9325-49fe-a417-aff34c8fa470","ios":"levelo://app?vid=db8873c0-9325-49fe-a417-aff34c8fa470"},"vehicle_type_id":"4","last_reported":1700582971,"current_range_meters":26000,"station_id":"ce4bh4p2rcd13ifvqe1g","pricing_plan_id":"free"},{"bike_id":"aad9a792-6976-4183-919a-aef819ff2e25","system_id":"levelo_inurba_marseille","lat":43.31251,"lon":5.40162,"is_reserved":false,"is_disabled":false,"rental_uris":{"android":"levelo://app?vid=aad9a792-6976-4183-919a-aef819ff2e25","ios":"levelo://app?vid=aad9a792-6976-4183-919a-aef819ff2e25"},"vehicle_type_id":"4","last_reported":1700582971,"current_range_meters":2800,"station_id":"","pricing_plan_id":"free"},{"bike_id":"b9fb3fc9-63bf-4e27-a9c7-37fffc43f549","system_id":"levelo_inurba_marseille","lat":43.309371,"lon":5.401449,"is_reserved":false,"is_disabled":false,"rental_uris":{"android":"levelo://app?vid=b9fb3fc9-63bf-4e27-a9c7-37fffc43f549","ios":"levelo://app?vid=b9fb3fc9-63bf-4e27-a9c7-37fffc43f549"},"vehicle_type_id":"4","last_reported":1700582971,"current_range_meters":0,"station_id":"ce4bgvp2rcd13ifvqct0","pricing_plan_id":"free"},{"bike_id":"5507820e-03fd-4a79-b77b-0944d20a5941","system_id":"levelo_inurba_marseille","lat":43.30642,"lon":5.401031,"is_reserved":false,"is_disabled":false,"rental_uris":{"android":"levelo://app?vid=5507820e-03fd-4a79-b77b-0944d20a5941","ios":"levelo://app?vid=5507820e-03fd-4a79-b77b-0944d20a5941"},"vehicle_type_id":"4","last_reported":1700582971,"current_range_meters":16800,"station_id":"ce4bh112rcd13ifvqda0","pricing_plan_id":"free"},{"bike_id":"2b3f4cef-d88a-414c-b2cc-9d2a98e793f1","system_id":"levelo_inurba_marseille","lat":43.33761,"lon":5.37491,"is_reserved":false,"is_disabled":false,"rental_uris":{"android":"levelo://app?vid=2b3f4cef-d88a-414c-b2cc-9d2a98e793f1","ios":"levelo://app?vid=2b3f4cef-d88a-414c-b2cc-9d2a98e793f1"},"vehicle_type_id":"4","last_reported":1700582971,"current_range_meters":10800,"station_id":"","pricing_plan_id":"free"},{"bike_id":"c23a038d-8fe5-437f-bbe5-513359d786e1","system_id":"levelo_inurba_marseille","lat":43.33764,"lon":5.3748,"is_reserved":false,"is_disabled":false,"rental_uris":{"android":"levelo://app?vid=c23a038d-8fe5-437f-bbe5-513359d786e1","ios":"levelo://app?vid=c23a038d-8fe5-437f-bbe5-513359d786e1"},"vehicle_type_id":"4","last_reported":1700582971,"current_range_meters":30400,"station_id":"","pricing_plan_id":"free"},{"bike_id":"dedd3e4f-e4e1-4fe0-afd5-fc320bdd5588","system_id":"levelo_inurba_marseille","lat":43.33764,"lon":5.37481,"is_reserved":false,"is_disabled":false,"rental_uris":{"android":"levelo://app?vid=dedd3e4f-e4e1-4fe0-afd5-fc320bdd5588","ios":"levelo://app?vid=dedd3e4f-e4e1-4fe0-afd5-fc320bdd5588"},"vehicle_type_id":"4","last_reported":1700582971,"current_range_meters":27200,"station_id":"","pricing_plan_id":"free"},{"bike_id":"df522568-577a-405e-8dcc-435e40821b2a","system_id":"levelo_inurba_marseille","lat":43.301117,"lon":5.398795,"is_reserved":false,"is_disabled":false,"rental_uris":{"android":"levelo://app?vid=df522568-577a-405e-8dcc-435e40821b2a","ios":"levelo://app?vid=df522568-577a-405e-8dcc-435e40821b2a"},"vehicle_type_id":"4","last_reported":1700582971,"current_range_meters":8400,"station_id":"ce4bh0h2rcd13ifvqd40","pricing_plan_id":"free"},{"bike_id":"6298ab44-e22f-4103-9ff4-41a8d61ef266","system_id":"levelo_inurba_marseille","lat":43.28727,"lon":5.36078,"is_reserved":false,"is_disabled":false,"rental_uris":{"android":"levelo://app?vid=6298ab44-e22f-4103-9ff4-41a8d61ef266","ios":"levelo://app?vid=6298ab44-e22f-4103-9ff4-41a8d61ef266"},"vehicle_type_id":"4","last_reported":1700582971,"current_range_meters":26400,"station_id":"cki0cbj6b192h4jlfktg","pricing_plan_id":"free"},{"bike_id":"81864dee-10e8-406d-8ecc-9548c82a8422","system_id":"levelo_inurba_marseille","lat":43.301117,"lon":5.398795,"is_reserved":false,"is_disabled":false,"rental_uris":{"android":"levelo://app?vid=81864dee-10e8-406d-8ecc-9548c82a8422","ios":"levelo://app?vid=81864dee-10e8-406d-8ecc-9548c82a8422"},"vehicle_type_id":"4","last_reported":1700582971,"current_range_meters":20000,"station_id":"ce4bh0h2rcd13ifvqd40","pricing_plan_id":"free"},{"bike_id":"04e0aa43-0cdf-4248-931b-634e4467fa2b","system_id":"levelo_inurba_marseille","lat":43.295196,"lon":5.39397,"is_reserved":false,"is_disabled":false,"rental_uris":{"android":"levelo://app?vid=04e0aa43-0cdf-4248-931b-634e4467fa2b","ios":"levelo://app?vid=04e0aa43-0cdf-4248-931b-634e4467fa2b"},"vehicle_type_id":"4","last_reported":1700582971,"current_range_meters":22400,"station_id":"ce4bh292rcd13ifvqdf0","pricing_plan_id":"free"},{"bike_id":"726eabb6-3288-4d69-b4a2-a9e9ec00a55a","system_id":"levelo_inurba_marseille","lat":43.297774,"lon":5.370875,"is_reserved":false,"is_disabled":false,"rental_uris":{"android":"levelo://app?vid=726eabb6-3288-4d69-b4a2-a9e9ec00a55a","ios":"levelo://app?vid=726eabb6-3288-4d69-b4a2-a9e9ec00a55a"},"vehicle_type_id":"4","last_reported":1700582971,"current_range_meters":27600,"station_id":"ce4bgop2rcd13ifvqc1g","pricing_plan_id":"free"},{"bike_id":"25d09539-b216-4228-9e16-fca7c309398f","system_id":"levelo_inurba_marseille","lat":43.29044,"lon":5.3863,"is_reserved":false,"is_disabled":false,"rental_uris":{"android":"levelo://app?vid=25d09539-b216-4228-9e16-fca7c309398f","ios":"levelo://app?vid=25d09539-b216-4228-9e16-fca7c309398f"},"vehicle_type_id":"4","last_reported":1700582971,"current_range_meters":23600,"station_id":"ce4bh4p2rcd13ifvqe0g","pricing_plan_id":"free"},{"bike_id":"9db11418-7c69-4c55-a83b-e3e4d2066fdd","system_id":"levelo_inurba_marseille","lat":43.29038,"lon":5.38637,"is_reserved":false,"is_disabled":false,"rental_uris":{"android":"levelo://app?vid=9db11418-7c69-4c55-a83b-e3e4d2066fdd","ios":"levelo://app?vid=9db11418-7c69-4c55-a83b-e3e4d2066fdd"},"vehicle_type_id":"4","last_reported":1700582971,"current_range_meters":18800,"station_id":"ce4bh4p2rcd13ifvqe0g","pricing_plan_id":"free"},{"bike_id":"b4dc6cc6-9cec-4bdb-9032-a1f4a459ca19","system_id":"levelo_inurba_marseille","lat":43.286775,"lon":5.37395,"is_reserved":false,"is_disabled":false,"rental_uris":{"android":"levelo://app?vid=b4dc6cc6-9cec-4bdb-9032-a1f4a459ca19","ios":"levelo://app?vid=b4dc6cc6-9cec-4bdb-9032-a1f4a459ca19"},"vehicle_type_id":"4","last_reported":1700582971,"current_range_meters":22800,"station_id":"ce4bh3p2rcd13ifvqdq0","pricing_plan_id":"free"},{"bike_id":"f3348be7-a6fa-448f-8c51-9fc39bbbe3e3","system_id":"levelo_inurba_marseille","lat":43.29029,"lon":5.38648,"is_reserved":false,"is_disabled":false,"rental_uris":{"android":"levelo://app?vid=f3348be7-a6fa-448f-8c51-9fc39bbbe3e3","ios":"levelo://app?vid=f3348be7-a6fa-448f-8c51-9fc39bbbe3e3"},"vehicle_type_id":"4","last_reported":1700582971,"current_range_meters":17200,"station_id":"ce4bh4p2rcd13ifvqe0g","pricing_plan_id":"free"},{"bike_id":"587797ad-7dfe-49a2-9404-a32255c8619a","system_id":"levelo_inurba_marseille","lat":43.286152,"lon":5.370623,"is_reserved":false,"is_disabled":false,"rental_uris":{"android":"levelo://app?vid=587797ad-7dfe-49a2-9404-a32255c8619a","ios":"levelo://app?vid=587797ad-7dfe-49a2-9404-a32255c8619a"},"vehicle_type_id":"4","last_reported":1700582971,"current_range_meters":23600,"station_id":"ce4bht12rcd13ifvqi60","pricing_plan_id":"free"},{"bike_id":"103037f0-b8c2-4b7e-bb4e-0c3ed55d65e6","system_id":"levelo_inurba_marseille","lat":43.286144,"lon":5.370633,"is_reserved":false,"is_disabled":false,"rental_uris":{"android":"levelo://app?vid=103037f0-b8c2-4b7e-bb4e-0c3ed55d65e6","ios":"levelo://app?vid=103037f0-b8c2-4b7e-bb4e-0c3ed55d65e6"},"vehicle_type_id":"4","last_reported":1700582971,"current_range_meters":18400,"station_id":"ce4bht12rcd13ifvqi60","pricing_plan_id":"free"},{"bike_id":"ac363c2c-32f2-4e6c-8ef5-18d6bdb60313","system_id":"levelo_inurba_marseille","lat":43.286113,"lon":5.370593,"is_reserved":false,"is_disabled":false,"rental_uris":{"android":"levelo://app?vid=ac363c2c-32f2-4e6c-8ef5-18d6bdb60313","ios":"levelo://app?vid=ac363c2c-32f2-4e6c-8ef5-18d6bdb60313"},"vehicle_type_id":"4","last_reported":1700582971,"current_range_meters":31200,"station_id":"ce4bht12rcd13ifvqi60","pricing_plan_id":"free"},{"bike_id":"ec674212-850b-48f0-b3d6-75680a199197","system_id":"levelo_inurba_marseille","lat":43.286114,"lon":5.37062,"is_reserved":false,"is_disabled":false,"rental_uris":{"android":"levelo://app?vid=ec674212-850b-48f0-b3d6-75680a199197","ios":"levelo://app?vid=ec674212-850b-48f0-b3d6-75680a199197"},"vehicle_type_id":"4","last_reported":1700582971,"current_range_meters":16000,"station_id":"ce4bht12rcd13ifvqi60","pricing_plan_id":"free"},{"bike_id":"c5a98dac-59d5-4fd6-9129-9cb3bf341204","system_id":"levelo_inurba_marseille","lat":43.28611,"lon":5.37064,"is_reserved":false,"is_disabled":false,"rental_uris":{"android":"levelo://app?vid=c5a98dac-59d5-4fd6-9129-9cb3bf341204","ios":"levelo://app?vid=c5a98dac-59d5-4fd6-9129-9cb3bf341204"},"vehicle_type_id":"4","last_reported":1700582971,"current_range_meters":31200,"station_id":"ce4bht12rcd13ifvqi60","pricing_plan_id":"free"},{"bike_id":"e20842cd-8eea-4741-8c73-0475dbb8d81a","system_id":"levelo_inurba_marseille","lat":43.286039,"lon":5.370681,"is_reserved":false,"is_disabled":false,"rental_uris":{"android":"levelo://app?vid=e20842cd-8eea-4741-8c73-0475dbb8d81a","ios":"levelo://app?vid=e20842cd-8eea-4741-8c73-0475dbb8d81a"},"vehicle_type_id":"4","last_reported":1700582971,"current_range_meters":31200,"station_id":"ce4bht12rcd13ifvqi60","pricing_plan_id":"free"},{"bike_id":"cac30199-50d3-4c7e-a9d5-5457f5c00cd6","system_id":"levelo_inurba_marseille","lat":43.28724,"lon":5.3794,"is_reserved":false,"is_disabled":false,"rental_uris":{"android":"levelo://app?vid=cac30199-50d3-4c7e-a9d5-5457f5c00cd6","ios":"levelo://app?vid=cac30199-50d3-4c7e-a9d5-5457f5c00cd6"},"vehicle_type_id":"4","last_reported":1700582971,"current_range_meters":16400,"station_id":"ce4bh9p2rcd13ifvqec0","pricing_plan_id":"free"},{"bike_id":"c7a74c15-3242-464b-bb42-9521e868f854","system_id":"levelo_inurba_marseille","lat":43.284534,"lon":5.358662,"is_reserved":false,"is_disabled":false,"rental_uris":{"android":"levelo://app?vid=c7a74c15-3242-464b-bb42-9521e868f854","ios":"levelo://app?vid=c7a74c15-3242-464b-bb42-9521e868f854"},"vehicle_type_id":"4","last_reported":1700582971,"current_range_meters":21200,"station_id":"ce4bhah2rcd13ifvqei0","pricing_plan_id":"free"},{"bike_id":"4a40b4a9-e10b-4654-8c45-b3e8598373c1","system_id":"levelo_inurba_marseille","lat":43.284534,"lon":5.358662,"is_reserved":false,"is_disabled":false,"rental_uris":{"android":"levelo://app?vid=4a40b4a9-e10b-4654-8c45-b3e8598373c1","ios":"levelo://app?vid=4a40b4a9-e10b-4654-8c45-b3e8598373c1"},"vehicle_type_id":"4","last_reported":1700582971,"current_range_meters":20000,"station_id":"ce4bhah2rcd13ifvqei0","pricing_plan_id":"free"},{"bike_id":"88bb81a1-f30b-46c6-b403-9167110de5cb","system_id":"levelo_inurba_marseille","lat":43.284534,"lon":5.358662,"is_reserved":false,"is_disabled":false,"rental_uris":{"android":"levelo://app?vid=88bb81a1-f30b-46c6-b403-9167110de5cb","ios":"levelo://app?vid=88bb81a1-f30b-46c6-b403-9167110de5cb"},"vehicle_type_id":"4","last_reported":1700582971,"current_range_meters":24000,"station_id":"ce4bhah2rcd13ifvqei0","pricing_plan_id":"free"},{"bike_id":"7d67e984-52a6-4692-96a1-8211adec0e3c","system_id":"levelo_inurba_marseille","lat":43.284534,"lon":5.358662,"is_reserved":false,"is_disabled":false,"rental_uris":{"android":"levelo://app?vid=7d67e984-52a6-4692-96a1-8211adec0e3c","ios":"levelo://app?vid=7d67e984-52a6-4692-96a1-8211adec0e3c"},"vehicle_type_id":"4","last_reported":1700582971,"current_range_meters":0,"station_id":"ce4bhah2rcd13ifvqei0","pricing_plan_id":"free"},{"bike_id":"9996c2c5-2c7f-48f8-abba-c12b74a36428","system_id":"levelo_inurba_marseille","lat":43.284534,"lon":5.358662,"is_reserved":false,"is_disabled":false,"rental_uris":{"android":"levelo://app?vid=9996c2c5-2c7f-48f8-abba-c12b74a36428","ios":"levelo://app?vid=9996c2c5-2c7f-48f8-abba-c12b74a36428"},"vehicle_type_id":"4","last_reported":1700582971,"current_range_meters":12000,"station_id":"ce4bhah2rcd13ifvqei0","pricing_plan_id":"free"},{"bike_id":"4439280f-268d-4264-b4ac-ff9b05ce61fb","system_id":"levelo_inurba_marseille","lat":43.28453,"lon":5.359,"is_reserved":false,"is_disabled":false,"rental_uris":{"android":"levelo://app?vid=4439280f-268d-4264-b4ac-ff9b05ce61fb","ios":"levelo://app?vid=4439280f-268d-4264-b4ac-ff9b05ce61fb"},"vehicle_type_id":"4","last_reported":1700582971,"current_range_meters":0,"station_id":"ce4bhah2rcd13ifvqei0","pricing_plan_id":"free"},{"bike_id":"de1fd897-c6c6-4280-9366-feaa2fc03aeb","system_id":"levelo_inurba_marseille","lat":43.284534,"lon":5.358662,"is_reserved":false,"is_disabled":false,"rental_uris":{"android":"levelo://app?vid=de1fd897-c6c6-4280-9366-feaa2fc03aeb","ios":"levelo://app?vid=de1fd897-c6c6-4280-9366-feaa2fc03aeb"},"vehicle_type_id":"4","last_reported":1700582971,"current_range_meters":21600,"station_id":"ce4bhah2rcd13ifvqei0","pricing_plan_id":"free"},{"bike_id":"a84c2444-e465-41d3-8f72-4f1d38fc5ade","system_id":"levelo_inurba_marseille","lat":43.294314,"lon":5.397498,"is_reserved":false,"is_disabled":false,"rental_uris":{"android":"levelo://app?vid=a84c2444-e465-41d3-8f72-4f1d38fc5ade","ios":"levelo://app?vid=a84c2444-e465-41d3-8f72-4f1d38fc5ade"},"vehicle_type_id":"4","last_reported":1700582971,"current_range_meters":1600,"station_id":"ce4bh3h2rcd13ifvqdo0","pricing_plan_id":"free"},{"bike_id":"36043778-724e-41cd-9ad0-4790e36fb65d","system_id":"levelo_inurba_marseille","lat":43.285848,"lon":5.350787,"is_reserved":false,"is_disabled":false,"rental_uris":{"android":"levelo://app?vid=36043778-724e-41cd-9ad0-4790e36fb65d","ios":"levelo://app?vid=36043778-724e-41cd-9ad0-4790e36fb65d"},"vehicle_type_id":"4","last_reported":1700582971,"current_range_meters":1200,"station_id":"ce4bhch2rcd13ifvqeug","pricing_plan_id":"free"},{"bike_id":"93591452-78a8-4deb-aa6d-58319e661151","system_id":"levelo_inurba_marseille","lat":43.286086,"lon":5.351127,"is_reserved":false,"is_disabled":false,"rental_uris":{"android":"levelo://app?vid=93591452-78a8-4deb-aa6d-58319e661151","ios":"levelo://app?vid=93591452-78a8-4deb-aa6d-58319e661151"},"vehicle_type_id":"4","last_reported":1700582971,"current_range_meters":26400,"station_id":"ce4bhch2rcd13ifvqeug","pricing_plan_id":"free"},{"bike_id":"b70a713d-7935-402b-ae9b-c2cf3b6d312c","system_id":"levelo_inurba_marseille","lat":43.283998,"lon":5.375062,"is_reserved":false,"is_disabled":false,"rental_uris":{"android":"levelo://app?vid=b70a713d-7935-402b-ae9b-c2cf3b6d312c","ios":"levelo://app?vid=b70a713d-7935-402b-ae9b-c2cf3b6d312c"},"vehicle_type_id":"4","last_reported":1700582971,"current_range_meters":0,"station_id":"ce4bh412rcd13ifvqds0","pricing_plan_id":"free"},{"bike_id":"4eac7119-4f95-49c3-9041-f22b7b001fe3","system_id":"levelo_inurba_marseille","lat":43.295713,"lon":5.399639,"is_reserved":false,"is_disabled":false,"rental_uris":{"android":"levelo://app?vid=4eac7119-4f95-49c3-9041-f22b7b001fe3","ios":"levelo://app?vid=4eac7119-4f95-49c3-9041-f22b7b001fe3"},"vehicle_type_id":"4","last_reported":1700582971,"current_range_meters":26400,"station_id":"ce4bh312rcd13ifvqdj0","pricing_plan_id":"free"},{"bike_id":"3afb65f6-9db1-466b-bea1-28fdfda16dcb","system_id":"levelo_inurba_marseille","lat":43.319179,"lon":5.407725,"is_reserved":false,"is_disabled":false,"rental_uris":{"android":"levelo://app?vid=3afb65f6-9db1-466b-bea1-28fdfda16dcb","ios":"levelo://app?vid=3afb65f6-9db1-466b-bea1-28fdfda16dcb"},"vehicle_type_id":"4","last_reported":1700582971,"current_range_meters":11200,"station_id":"ce4bhq12rcd13ifvqhig","pricing_plan_id":"free"},{"bike_id":"35b19955-8c3e-4374-b999-0b151664b0e8","system_id":"levelo_inurba_marseille","lat":43.33237,"lon":5.3985,"is_reserved":false,"is_disabled":false,"rental_uris":{"android":"levelo://app?vid=35b19955-8c3e-4374-b999-0b151664b0e8","ios":"levelo://app?vid=35b19955-8c3e-4374-b999-0b151664b0e8"},"vehicle_type_id":"4","last_reported":1700582971,"current_range_meters":0,"station_id":"","pricing_plan_id":"free"},{"bike_id":"e57c9540-512f-4490-8f63-010ef0e8c825","system_id":"levelo_inurba_marseille","lat":43.284219,"lon":5.3497,"is_reserved":false,"is_disabled":false,"rental_uris":{"android":"levelo://app?vid=e57c9540-512f-4490-8f63-010ef0e8c825","ios":"levelo://app?vid=e57c9540-512f-4490-8f63-010ef0e8c825"},"vehicle_type_id":"4","last_reported":1700582971,"current_range_meters":13600,"station_id":"ce4bhbh2rcd13ifvqepg","pricing_plan_id":"free"},{"bike_id":"a915fd1c-9128-4c2f-bc4f-b0c446622785","system_id":"levelo_inurba_marseille","lat":43.284217,"lon":5.349697,"is_reserved":false,"is_disabled":false,"rental_uris":{"android":"levelo://app?vid=a915fd1c-9128-4c2f-bc4f-b0c446622785","ios":"levelo://app?vid=a915fd1c-9128-4c2f-bc4f-b0c446622785"},"vehicle_type_id":"4","last_reported":1700582971,"current_range_meters":20400,"station_id":"ce4bhbh2rcd13ifvqepg","pricing_plan_id":"free"},{"bike_id":"d2e7ab97-9267-41a3-8b04-f8477a9944f2","system_id":"levelo_inurba_marseille","lat":43.292724,"lon":5.401131,"is_reserved":false,"is_disabled":false,"rental_uris":{"android":"levelo://app?vid=d2e7ab97-9267-41a3-8b04-f8477a9944f2","ios":"levelo://app?vid=d2e7ab97-9267-41a3-8b04-f8477a9944f2"},"vehicle_type_id":"4","last_reported":1700582971,"current_range_meters":5200,"station_id":"ce4bh312rcd13ifvqdk0","pricing_plan_id":"free"},{"bike_id":"7f725ca0-ccba-470c-a9d5-f62ddebfdf03","system_id":"levelo_inurba_marseille","lat":43.292724,"lon":5.401131,"is_reserved":false,"is_disabled":false,"rental_uris":{"android":"levelo://app?vid=7f725ca0-ccba-470c-a9d5-f62ddebfdf03","ios":"levelo://app?vid=7f725ca0-ccba-470c-a9d5-f62ddebfdf03"},"vehicle_type_id":"4","last_reported":1700582971,"current_range_meters":27600,"station_id":"ce4bh312rcd13ifvqdk0","pricing_plan_id":"free"},{"bike_id":"fe529568-d163-40e1-980d-c96f2fc68f9b","system_id":"levelo_inurba_marseille","lat":43.29268,"lon":5.40119,"is_reserved":false,"is_disabled":false,"rental_uris":{"android":"levelo://app?vid=fe529568-d163-40e1-980d-c96f2fc68f9b","ios":"levelo://app?vid=fe529568-d163-40e1-980d-c96f2fc68f9b"},"vehicle_type_id":"4","last_reported":1700582971,"current_range_meters":10000,"station_id":"ce4bh312rcd13ifvqdk0","pricing_plan_id":"free"},{"bike_id":"9e880838-dc0a-4d86-b8f0-e826daa8140b","system_id":"levelo_inurba_marseille","lat":43.282754,"lon":5.350519,"is_reserved":false,"is_disabled":false,"rental_uris":{"android":"levelo://app?vid=9e880838-dc0a-4d86-b8f0-e826daa8140b","ios":"levelo://app?vid=9e880838-dc0a-4d86-b8f0-e826daa8140b"},"vehicle_type_id":"4","last_reported":1700582971,"current_range_meters":31200,"station_id":"ce4bhbp2rcd13ifvqerg","pricing_plan_id":"free"},{"bike_id":"2aa17e7e-9b3b-46fa-94e7-eb7b52fe904e","system_id":"levelo_inurba_marseille","lat":43.282754,"lon":5.350519,"is_reserved":false,"is_disabled":false,"rental_uris":{"android":"levelo://app?vid=2aa17e7e-9b3b-46fa-94e7-eb7b52fe904e","ios":"levelo://app?vid=2aa17e7e-9b3b-46fa-94e7-eb7b52fe904e"},"vehicle_type_id":"4","last_reported":1700582971,"current_range_meters":22800,"station_id":"ce4bhbp2rcd13ifvqerg","pricing_plan_id":"free"},{"bike_id":"74e481aa-25b5-4f5b-b8cd-79b4a634f242","system_id":"levelo_inurba_marseille","lat":43.282729,"lon":5.350633,"is_reserved":false,"is_disabled":false,"rental_uris":{"android":"levelo://app?vid=74e481aa-25b5-4f5b-b8cd-79b4a634f242","ios":"levelo://app?vid=74e481aa-25b5-4f5b-b8cd-79b4a634f242"},"vehicle_type_id":"4","last_reported":1700582971,"current_range_meters":31200,"station_id":"ce4bhbp2rcd13ifvqerg","pricing_plan_id":"free"},{"bike_id":"44afae0c-c610-4e0b-8b8e-f5ebf3d20f32","system_id":"levelo_inurba_marseille","lat":43.282744,"lon":5.350533,"is_reserved":false,"is_disabled":false,"rental_uris":{"android":"levelo://app?vid=44afae0c-c610-4e0b-8b8e-f5ebf3d20f32","ios":"levelo://app?vid=44afae0c-c610-4e0b-8b8e-f5ebf3d20f32"},"vehicle_type_id":"4","last_reported":1700582971,"current_range_meters":11200,"station_id":"ce4bhbp2rcd13ifvqerg","pricing_plan_id":"free"},{"bike_id":"eace2be8-2781-4338-ba7d-44b9df37bcb4","system_id":"levelo_inurba_marseille","lat":43.280382,"lon":5.369291,"is_reserved":false,"is_disabled":false,"rental_uris":{"android":"levelo://app?vid=eace2be8-2781-4338-ba7d-44b9df37bcb4","ios":"levelo://app?vid=eace2be8-2781-4338-ba7d-44b9df37bcb4"},"vehicle_type_id":"4","last_reported":1700582971,"current_range_meters":31200,"station_id":"ce4bha12rcd13ifvqef0","pricing_plan_id":"free"},{"bike_id":"aa4139f5-27aa-49e1-a8f1-fc54a1da2de8","system_id":"levelo_inurba_marseille","lat":43.280382,"lon":5.369291,"is_reserved":false,"is_disabled":false,"rental_uris":{"android":"levelo://app?vid=aa4139f5-27aa-49e1-a8f1-fc54a1da2de8","ios":"levelo://app?vid=aa4139f5-27aa-49e1-a8f1-fc54a1da2de8"},"vehicle_type_id":"4","last_reported":1700582971,"current_range_meters":16000,"station_id":"ce4bha12rcd13ifvqef0","pricing_plan_id":"free"},{"bike_id":"5e4ef7db-4482-4feb-8b0a-cd6d841e2690","system_id":"levelo_inurba_marseille","lat":43.28036,"lon":5.36941,"is_reserved":false,"is_disabled":false,"rental_uris":{"android":"levelo://app?vid=5e4ef7db-4482-4feb-8b0a-cd6d841e2690","ios":"levelo://app?vid=5e4ef7db-4482-4feb-8b0a-cd6d841e2690"},"vehicle_type_id":"4","last_reported":1700582971,"current_range_meters":31200,"station_id":"ce4bha12rcd13ifvqef0","pricing_plan_id":"free"},{"bike_id":"de9729da-ff3c-4566-8638-db94e35c0a21","system_id":"levelo_inurba_marseille","lat":43.280382,"lon":5.369291,"is_reserved":false,"is_disabled":false,"rental_uris":{"android":"levelo://app?vid=de9729da-ff3c-4566-8638-db94e35c0a21","ios":"levelo://app?vid=de9729da-ff3c-4566-8638-db94e35c0a21"},"vehicle_type_id":"4","last_reported":1700582971,"current_range_meters":27600,"station_id":"ce4bha12rcd13ifvqef0","pricing_plan_id":"free"},{"bike_id":"18d0461f-d49d-4e2f-ab5c-2ea3878c2244","system_id":"levelo_inurba_marseille","lat":43.281044,"lon":5.378308,"is_reserved":false,"is_disabled":false,"rental_uris":{"android":"levelo://app?vid=18d0461f-d49d-4e2f-ab5c-2ea3878c2244","ios":"levelo://app?vid=18d0461f-d49d-4e2f-ab5c-2ea3878c2244"},"vehicle_type_id":"4","last_reported":1700582971,"current_range_meters":16000,"station_id":"ce4bha12rcd13ifvqee0","pricing_plan_id":"free"},{"bike_id":"eff96cc1-0cf4-4d32-96fa-360c8e15736d","system_id":"levelo_inurba_marseille","lat":43.29041,"lon":5.399634,"is_reserved":false,"is_disabled":false,"rental_uris":{"android":"levelo://app?vid=eff96cc1-0cf4-4d32-96fa-360c8e15736d","ios":"levelo://app?vid=eff96cc1-0cf4-4d32-96fa-360c8e15736d"},"vehicle_type_id":"4","last_reported":1700582971,"current_range_meters":27200,"station_id":"ce4bh392rcd13ifvqdm0","pricing_plan_id":"free"},{"bike_id":"509ce05d-f28e-4592-a7ac-527cf193038a","system_id":"levelo_inurba_marseille","lat":43.29635,"lon":5.40609,"is_reserved":false,"is_disabled":false,"rental_uris":{"android":"levelo://app?vid=509ce05d-f28e-4592-a7ac-527cf193038a","ios":"levelo://app?vid=509ce05d-f28e-4592-a7ac-527cf193038a"},"vehicle_type_id":"4","last_reported":1700582971,"current_range_meters":0,"station_id":"ce4bh0h2rcd13ifvqd60","pricing_plan_id":"free"},{"bike_id":"f13306e2-e2ce-43cb-a19a-09e09da513de","system_id":"levelo_inurba_marseille","lat":43.285683,"lon":5.39509,"is_reserved":false,"is_disabled":false,"rental_uris":{"android":"levelo://app?vid=f13306e2-e2ce-43cb-a19a-09e09da513de","ios":"levelo://app?vid=f13306e2-e2ce-43cb-a19a-09e09da513de"},"vehicle_type_id":"4","last_reported":1700582971,"current_range_meters":30000,"station_id":"ce4bh292rcd13ifvqdg0","pricing_plan_id":"free"},{"bike_id":"019f1de0-99db-4a55-b278-f7262cf4cd36","system_id":"levelo_inurba_marseille","lat":43.304188,"lon":5.412904,"is_reserved":false,"is_disabled":false,"rental_uris":{"android":"levelo://app?vid=019f1de0-99db-4a55-b278-f7262cf4cd36","ios":"levelo://app?vid=019f1de0-99db-4a55-b278-f7262cf4cd36"},"vehicle_type_id":"4","last_reported":1700582971,"current_range_meters":26000,"station_id":"ce4bhop2rcd13ifvqh8g","pricing_plan_id":"free"},{"bike_id":"75fd5ca3-7d41-440e-852a-c3ae92ac06d2","system_id":"levelo_inurba_marseille","lat":43.304188,"lon":5.412904,"is_reserved":false,"is_disabled":false,"rental_uris":{"android":"levelo://app?vid=75fd5ca3-7d41-440e-852a-c3ae92ac06d2","ios":"levelo://app?vid=75fd5ca3-7d41-440e-852a-c3ae92ac06d2"},"vehicle_type_id":"4","last_reported":1700582971,"current_range_meters":17600,"station_id":"ce4bhop2rcd13ifvqh8g","pricing_plan_id":"free"},{"bike_id":"bba658ea-e4a6-4432-8184-8bffc394f14c","system_id":"levelo_inurba_marseille","lat":43.279087,"lon":5.380114,"is_reserved":false,"is_disabled":false,"rental_uris":{"android":"levelo://app?vid=bba658ea-e4a6-4432-8184-8bffc394f14c","ios":"levelo://app?vid=bba658ea-e4a6-4432-8184-8bffc394f14c"},"vehicle_type_id":"4","last_reported":1700582971,"current_range_meters":19600,"station_id":"ce4bhf92rcd13ifvqf50","pricing_plan_id":"free"},{"bike_id":"74634203-d31e-4486-a673-ef391b072317","system_id":"levelo_inurba_marseille","lat":43.287154,"lon":5.399979,"is_reserved":false,"is_disabled":false,"rental_uris":{"android":"levelo://app?vid=74634203-d31e-4486-a673-ef391b072317","ios":"levelo://app?vid=74634203-d31e-4486-a673-ef391b072317"},"vehicle_type_id":"4","last_reported":1700582971,"current_range_meters":17600,"station_id":"ce4bho92rcd13ifvqh3g","pricing_plan_id":"free"},{"bike_id":"c83277ad-83df-4455-90b6-892645a9c56e","system_id":"levelo_inurba_marseille","lat":43.287154,"lon":5.399979,"is_reserved":false,"is_disabled":false,"rental_uris":{"android":"levelo://app?vid=c83277ad-83df-4455-90b6-892645a9c56e","ios":"levelo://app?vid=c83277ad-83df-4455-90b6-892645a9c56e"},"vehicle_type_id":"4","last_reported":1700582971,"current_range_meters":0,"station_id":"ce4bho92rcd13ifvqh3g","pricing_plan_id":"free"},{"bike_id":"a874a212-1201-45ab-a14a-5df8f8dbce48","system_id":"levelo_inurba_marseille","lat":43.320045,"lon":5.415048,"is_reserved":false,"is_disabled":false,"rental_uris":{"android":"levelo://app?vid=a874a212-1201-45ab-a14a-5df8f8dbce48","ios":"levelo://app?vid=a874a212-1201-45ab-a14a-5df8f8dbce48"},"vehicle_type_id":"4","last_reported":1700582971,"current_range_meters":20800,"station_id":"ce4bhq92rcd13ifvqhkg","pricing_plan_id":"free"},{"bike_id":"cf7c6503-d761-4e4a-b826-f55f74848caf","system_id":"levelo_inurba_marseille","lat":43.34879,"lon":5.375106,"is_reserved":false,"is_disabled":false,"rental_uris":{"android":"levelo://app?vid=cf7c6503-d761-4e4a-b826-f55f74848caf","ios":"levelo://app?vid=cf7c6503-d761-4e4a-b826-f55f74848caf"},"vehicle_type_id":"4","last_reported":1700582971,"current_range_meters":9200,"station_id":"","pricing_plan_id":"free"},{"bike_id":"1302f470-c1f2-467c-aeed-0195fb05718b","system_id":"levelo_inurba_marseille","lat":43.27622,"lon":5.36107,"is_reserved":false,"is_disabled":false,"rental_uris":{"android":"levelo://app?vid=1302f470-c1f2-467c-aeed-0195fb05718b","ios":"levelo://app?vid=1302f470-c1f2-467c-aeed-0195fb05718b"},"vehicle_type_id":"4","last_reported":1700582971,"current_range_meters":0,"station_id":"ce4bgj92rcd13ifvqbe0","pricing_plan_id":"free"},{"bike_id":"816f27d5-5f25-49c1-a06b-fcd04fa1602e","system_id":"levelo_inurba_marseille","lat":43.27618,"lon":5.361009,"is_reserved":false,"is_disabled":false,"rental_uris":{"android":"levelo://app?vid=816f27d5-5f25-49c1-a06b-fcd04fa1602e","ios":"levelo://app?vid=816f27d5-5f25-49c1-a06b-fcd04fa1602e"},"vehicle_type_id":"4","last_reported":1700582971,"current_range_meters":2000,"station_id":"ce4bgj92rcd13ifvqbe0","pricing_plan_id":"free"},{"bike_id":"9737e539-2e21-4941-bd3e-9957ac0b49fb","system_id":"levelo_inurba_marseille","lat":43.289741,"lon":5.378306,"is_reserved":false,"is_disabled":false,"rental_uris":{"android":"levelo://app?vid=9737e539-2e21-4941-bd3e-9957ac0b49fb","ios":"levelo://app?vid=9737e539-2e21-4941-bd3e-9957ac0b49fb"},"vehicle_type_id":"4","last_reported":1700582971,"current_range_meters":20400,"station_id":"ce4bh9p2rcd13ifvqed0","pricing_plan_id":"free"},{"bike_id":"d63f0213-db4d-4ade-9fb5-b0161bcbc51a","system_id":"levelo_inurba_marseille","lat":43.27914,"lon":5.3878,"is_reserved":false,"is_disabled":false,"rental_uris":{"android":"levelo://app?vid=d63f0213-db4d-4ade-9fb5-b0161bcbc51a","ios":"levelo://app?vid=d63f0213-db4d-4ade-9fb5-b0161bcbc51a"},"vehicle_type_id":"4","last_reported":1700582971,"current_range_meters":400,"station_id":"","pricing_plan_id":"free"},{"bike_id":"d0bb53f7-f1b8-4609-a668-27efdac67f66","system_id":"levelo_inurba_marseille","lat":43.278017,"lon":5.388337,"is_reserved":false,"is_disabled":false,"rental_uris":{"android":"levelo://app?vid=d0bb53f7-f1b8-4609-a668-27efdac67f66","ios":"levelo://app?vid=d0bb53f7-f1b8-4609-a668-27efdac67f66"},"vehicle_type_id":"4","last_reported":1700582971,"current_range_meters":0,"station_id":"","pricing_plan_id":"free"},{"bike_id":"85b609e4-1aa1-4e92-979c-561b76e16b4b","system_id":"levelo_inurba_marseille","lat":43.278401,"lon":5.392152,"is_reserved":false,"is_disabled":false,"rental_uris":{"android":"levelo://app?vid=85b609e4-1aa1-4e92-979c-561b76e16b4b","ios":"levelo://app?vid=85b609e4-1aa1-4e92-979c-561b76e16b4b"},"vehicle_type_id":"4","last_reported":1700582971,"current_range_meters":8400,"station_id":"ce4bhjp2rcd13ifvqga0","pricing_plan_id":"free"},{"bike_id":"9f93b728-7103-4224-9b7f-2088914938d9","system_id":"levelo_inurba_marseille","lat":43.273609,"lon":5.362708,"is_reserved":false,"is_disabled":false,"rental_uris":{"android":"levelo://app?vid=9f93b728-7103-4224-9b7f-2088914938d9","ios":"levelo://app?vid=9f93b728-7103-4224-9b7f-2088914938d9"},"vehicle_type_id":"4","last_reported":1700582971,"current_range_meters":19200,"station_id":"ce4bhbh2rcd13ifvqeo0","pricing_plan_id":"free"},{"bike_id":"2e7e4415-3cfc-419c-b42b-8894df53c11c","system_id":"levelo_inurba_marseille","lat":43.275625,"lon":5.384392,"is_reserved":false,"is_disabled":false,"rental_uris":{"android":"levelo://app?vid=2e7e4415-3cfc-419c-b42b-8894df53c11c","ios":"levelo://app?vid=2e7e4415-3cfc-419c-b42b-8894df53c11c"},"vehicle_type_id":"4","last_reported":1700582971,"current_range_meters":12000,"station_id":"ce4bhh92rcd13ifvqfi0","pricing_plan_id":"free"},{"bike_id":"37d486b1-0291-4be9-bf91-4d3d93e45274","system_id":"levelo_inurba_marseille","lat":43.2737,"lon":5.36255,"is_reserved":false,"is_disabled":false,"rental_uris":{"android":"levelo://app?vid=37d486b1-0291-4be9-bf91-4d3d93e45274","ios":"levelo://app?vid=37d486b1-0291-4be9-bf91-4d3d93e45274"},"vehicle_type_id":"4","last_reported":1700582971,"current_range_meters":25200,"station_id":"ce4bhbh2rcd13ifvqeo0","pricing_plan_id":"free"},{"bike_id":"1f3e2ef8-cb78-42ff-8d25-7d6acdb17be1","system_id":"levelo_inurba_marseille","lat":43.273609,"lon":5.362708,"is_reserved":false,"is_disabled":false,"rental_uris":{"android":"levelo://app?vid=1f3e2ef8-cb78-42ff-8d25-7d6acdb17be1","ios":"levelo://app?vid=1f3e2ef8-cb78-42ff-8d25-7d6acdb17be1"},"vehicle_type_id":"4","last_reported":1700582971,"current_range_meters":30000,"station_id":"ce4bhbh2rcd13ifvqeo0","pricing_plan_id":"free"},{"bike_id":"bee6a77f-1712-426f-aff6-87e4b0d31a95","system_id":"levelo_inurba_marseille","lat":43.276771,"lon":5.388799,"is_reserved":false,"is_disabled":false,"rental_uris":{"android":"levelo://app?vid=bee6a77f-1712-426f-aff6-87e4b0d31a95","ios":"levelo://app?vid=bee6a77f-1712-426f-aff6-87e4b0d31a95"},"vehicle_type_id":"4","last_reported":1700582971,"current_range_meters":0,"station_id":"ce4bhi12rcd13ifvqfo0","pricing_plan_id":"free"},{"bike_id":"76806d14-b2f6-4691-b212-4b5259d5c33e","system_id":"levelo_inurba_marseille","lat":43.276769,"lon":5.388787,"is_reserved":false,"is_disabled":false,"rental_uris":{"android":"levelo://app?vid=76806d14-b2f6-4691-b212-4b5259d5c33e","ios":"levelo://app?vid=76806d14-b2f6-4691-b212-4b5259d5c33e"},"vehicle_type_id":"4","last_reported":1700582971,"current_range_meters":2400,"station_id":"ce4bhi12rcd13ifvqfo0","pricing_plan_id":"free"},{"bike_id":"ea9395ba-848d-4b14-a825-97ff6e1f8b26","system_id":"levelo_inurba_marseille","lat":43.276771,"lon":5.388799,"is_reserved":false,"is_disabled":false,"rental_uris":{"android":"levelo://app?vid=ea9395ba-848d-4b14-a825-97ff6e1f8b26","ios":"levelo://app?vid=ea9395ba-848d-4b14-a825-97ff6e1f8b26"},"vehicle_type_id":"4","last_reported":1700582971,"current_range_meters":13200,"station_id":"ce4bhi12rcd13ifvqfo0","pricing_plan_id":"free"},{"bike_id":"62dd3884-ddd9-406c-ae48-09e095032c83","system_id":"levelo_inurba_marseille","lat":43.279952,"lon":5.400085,"is_reserved":false,"is_disabled":false,"rental_uris":{"android":"levelo://app?vid=62dd3884-ddd9-406c-ae48-09e095032c83","ios":"levelo://app?vid=62dd3884-ddd9-406c-ae48-09e095032c83"},"vehicle_type_id":"4","last_reported":1700582971,"current_range_meters":21200,"station_id":"ce4bho92rcd13ifvqh4g","pricing_plan_id":"free"},{"bike_id":"820381c9-b308-4eef-b1a1-8306431e7961","system_id":"levelo_inurba_marseille","lat":43.273125,"lon":5.390731,"is_reserved":false,"is_disabled":false,"rental_uris":{"android":"levelo://app?vid=820381c9-b308-4eef-b1a1-8306431e7961","ios":"levelo://app?vid=820381c9-b308-4eef-b1a1-8306431e7961"},"vehicle_type_id":"4","last_reported":1700582971,"current_range_meters":0,"station_id":"ce4bhgp2rcd13ifvqfe0","pricing_plan_id":"free"},{"bike_id":"85375067-7b3c-493f-96be-cbc5d1f59f62","system_id":"levelo_inurba_marseille","lat":43.274103,"lon":5.394016,"is_reserved":false,"is_disabled":false,"rental_uris":{"android":"levelo://app?vid=85375067-7b3c-493f-96be-cbc5d1f59f62","ios":"levelo://app?vid=85375067-7b3c-493f-96be-cbc5d1f59f62"},"vehicle_type_id":"4","last_reported":1700582971,"current_range_meters":27200,"station_id":"ce4bhdp2rcd13ifvqf20","pricing_plan_id":"free"},{"bike_id":"7d2a2814-12cc-4da1-81e8-c0798cda3c36","system_id":"levelo_inurba_marseille","lat":43.295511,"lon":5.422926,"is_reserved":false,"is_disabled":false,"rental_uris":{"android":"levelo://app?vid=7d2a2814-12cc-4da1-81e8-c0798cda3c36","ios":"levelo://app?vid=7d2a2814-12cc-4da1-81e8-c0798cda3c36"},"vehicle_type_id":"4","last_reported":1700582971,"current_range_meters":24400,"station_id":"ce4bhph2rcd13ifvqhdg","pricing_plan_id":"free"},{"bike_id":"e66dacf1-aa13-4c9b-b2a6-7b260fce58f1","system_id":"levelo_inurba_marseille","lat":43.295511,"lon":5.422926,"is_reserved":false,"is_disabled":false,"rental_uris":{"android":"levelo://app?vid=e66dacf1-aa13-4c9b-b2a6-7b260fce58f1","ios":"levelo://app?vid=e66dacf1-aa13-4c9b-b2a6-7b260fce58f1"},"vehicle_type_id":"4","last_reported":1700582971,"current_range_meters":30000,"station_id":"ce4bhph2rcd13ifvqhdg","pricing_plan_id":"free"},{"bike_id":"cbc2fb9f-e1d7-438a-87af-611b36f7eeb3","system_id":"levelo_inurba_marseille","lat":43.271891,"lon":5.392412,"is_reserved":false,"is_disabled":false,"rental_uris":{"android":"levelo://app?vid=cbc2fb9f-e1d7-438a-87af-611b36f7eeb3","ios":"levelo://app?vid=cbc2fb9f-e1d7-438a-87af-611b36f7eeb3"},"vehicle_type_id":"4","last_reported":1700582971,"current_range_meters":0,"station_id":"","pricing_plan_id":"free"},{"bike_id":"474f7aba-5f35-44e2-9d1a-fef41660758d","system_id":"levelo_inurba_marseille","lat":43.27814,"lon":5.40712,"is_reserved":false,"is_disabled":false,"rental_uris":{"android":"levelo://app?vid=474f7aba-5f35-44e2-9d1a-fef41660758d","ios":"levelo://app?vid=474f7aba-5f35-44e2-9d1a-fef41660758d"},"vehicle_type_id":"4","last_reported":1700582971,"current_range_meters":31200,"station_id":"ce4bhnh2rcd13ifvqgtg","pricing_plan_id":"free"},{"bike_id":"38816ba9-255f-46cf-9a27-40a9421f349e","system_id":"levelo_inurba_marseille","lat":43.26942,"lon":5.38641,"is_reserved":false,"is_disabled":false,"rental_uris":{"android":"levelo://app?vid=38816ba9-255f-46cf-9a27-40a9421f349e","ios":"levelo://app?vid=38816ba9-255f-46cf-9a27-40a9421f349e"},"vehicle_type_id":"4","last_reported":1700582971,"current_range_meters":0,"station_id":"ce4bhh92rcd13ifvqfh0","pricing_plan_id":"free"},{"bike_id":"0efbdbbc-dd4e-439a-a563-2c2e43873a82","system_id":"levelo_inurba_marseille","lat":43.279465,"lon":5.410561,"is_reserved":false,"is_disabled":false,"rental_uris":{"android":"levelo://app?vid=0efbdbbc-dd4e-439a-a563-2c2e43873a82","ios":"levelo://app?vid=0efbdbbc-dd4e-439a-a563-2c2e43873a82"},"vehicle_type_id":"4","last_reported":1700582971,"current_range_meters":10800,"station_id":"ce4bhnp2rcd13ifvqh0g","pricing_plan_id":"free"},{"bike_id":"b917c19a-863c-40d8-aae1-dce47c94bffa","system_id":"levelo_inurba_marseille","lat":43.27089,"lon":5.39392,"is_reserved":false,"is_disabled":false,"rental_uris":{"android":"levelo://app?vid=b917c19a-863c-40d8-aae1-dce47c94bffa","ios":"levelo://app?vid=b917c19a-863c-40d8-aae1-dce47c94bffa"},"vehicle_type_id":"4","last_reported":1700582971,"current_range_meters":20400,"station_id":"","pricing_plan_id":"free"},{"bike_id":"be19b6bc-3f21-490e-92b7-2ed7d476706b","system_id":"levelo_inurba_marseille","lat":43.26556,"lon":5.3729,"is_reserved":false,"is_disabled":false,"rental_uris":{"android":"levelo://app?vid=be19b6bc-3f21-490e-92b7-2ed7d476706b","ios":"levelo://app?vid=be19b6bc-3f21-490e-92b7-2ed7d476706b"},"vehicle_type_id":"4","last_reported":1700582971,"current_range_meters":23600,"station_id":"ce4bhg12rcd13ifvqf70","pricing_plan_id":"free"},{"bike_id":"148eff6f-eafd-4f00-888a-9a7e04faedb9","system_id":"levelo_inurba_marseille","lat":43.26554,"lon":5.37289,"is_reserved":false,"is_disabled":false,"rental_uris":{"android":"levelo://app?vid=148eff6f-eafd-4f00-888a-9a7e04faedb9","ios":"levelo://app?vid=148eff6f-eafd-4f00-888a-9a7e04faedb9"},"vehicle_type_id":"4","last_reported":1700582971,"current_range_meters":31200,"station_id":"ce4bhg12rcd13ifvqf70","pricing_plan_id":"free"},{"bike_id":"c4bf4638-d0be-4870-a4c9-6cc014208aed","system_id":"levelo_inurba_marseille","lat":43.326053,"lon":5.429943,"is_reserved":false,"is_disabled":false,"rental_uris":{"android":"levelo://app?vid=c4bf4638-d0be-4870-a4c9-6cc014208aed","ios":"levelo://app?vid=c4bf4638-d0be-4870-a4c9-6cc014208aed"},"vehicle_type_id":"4","last_reported":1700582971,"current_range_meters":0,"station_id":"","pricing_plan_id":"free"},{"bike_id":"28e8ce00-6b21-4e06-9930-c7c4408cc650","system_id":"levelo_inurba_marseille","lat":43.326174,"lon":5.430584,"is_reserved":false,"is_disabled":false,"rental_uris":{"android":"levelo://app?vid=28e8ce00-6b21-4e06-9930-c7c4408cc650","ios":"levelo://app?vid=28e8ce00-6b21-4e06-9930-c7c4408cc650"},"vehicle_type_id":"4","last_reported":1700582971,"current_range_meters":10000,"station_id":"","pricing_plan_id":"free"},{"bike_id":"bfd0f117-f6cc-40e3-8c3c-9532c9a0e193","system_id":"levelo_inurba_marseille","lat":43.265714,"lon":5.372891,"is_reserved":false,"is_disabled":false,"rental_uris":{"android":"levelo://app?vid=bfd0f117-f6cc-40e3-8c3c-9532c9a0e193","ios":"levelo://app?vid=bfd0f117-f6cc-40e3-8c3c-9532c9a0e193"},"vehicle_type_id":"4","last_reported":1700582971,"current_range_meters":10400,"station_id":"ce4bhg12rcd13ifvqf70","pricing_plan_id":"free"},{"bike_id":"4026488f-59f8-4363-9b8b-83bd4e835be6","system_id":"levelo_inurba_marseille","lat":43.26789,"lon":5.39414,"is_reserved":false,"is_disabled":false,"rental_uris":{"android":"levelo://app?vid=4026488f-59f8-4363-9b8b-83bd4e835be6","ios":"levelo://app?vid=4026488f-59f8-4363-9b8b-83bd4e835be6"},"vehicle_type_id":"4","last_reported":1700582971,"current_range_meters":23200,"station_id":"ce4bhh12rcd13ifvqfg0","pricing_plan_id":"free"},{"bike_id":"264e9b48-7eaa-4140-9fc9-09ee9c3eaf71","system_id":"levelo_inurba_marseille","lat":43.267966,"lon":5.393976,"is_reserved":false,"is_disabled":false,"rental_uris":{"android":"levelo://app?vid=264e9b48-7eaa-4140-9fc9-09ee9c3eaf71","ios":"levelo://app?vid=264e9b48-7eaa-4140-9fc9-09ee9c3eaf71"},"vehicle_type_id":"4","last_reported":1700582971,"current_range_meters":29600,"station_id":"ce4bhh12rcd13ifvqfg0","pricing_plan_id":"free"},{"bike_id":"4ad910e5-bd21-4dbe-8255-50701622875d","system_id":"levelo_inurba_marseille","lat":43.267966,"lon":5.393976,"is_reserved":false,"is_disabled":false,"rental_uris":{"android":"levelo://app?vid=4ad910e5-bd21-4dbe-8255-50701622875d","ios":"levelo://app?vid=4ad910e5-bd21-4dbe-8255-50701622875d"},"vehicle_type_id":"4","last_reported":1700582971,"current_range_meters":22000,"station_id":"ce4bhh12rcd13ifvqfg0","pricing_plan_id":"free"},{"bike_id":"faaafe44-cf50-4e24-84b6-ca73bea6f60c","system_id":"levelo_inurba_marseille","lat":43.26781,"lon":5.39412,"is_reserved":false,"is_disabled":false,"rental_uris":{"android":"levelo://app?vid=faaafe44-cf50-4e24-84b6-ca73bea6f60c","ios":"levelo://app?vid=faaafe44-cf50-4e24-84b6-ca73bea6f60c"},"vehicle_type_id":"4","last_reported":1700582971,"current_range_meters":24800,"station_id":"ce4bhh12rcd13ifvqfg0","pricing_plan_id":"free"},{"bike_id":"adbb4cc7-c682-47c5-bbf0-648ae0ba2327","system_id":"levelo_inurba_marseille","lat":43.27087,"lon":5.40319,"is_reserved":false,"is_disabled":false,"rental_uris":{"android":"levelo://app?vid=adbb4cc7-c682-47c5-bbf0-648ae0ba2327","ios":"levelo://app?vid=adbb4cc7-c682-47c5-bbf0-648ae0ba2327"},"vehicle_type_id":"4","last_reported":1700582971,"current_range_meters":26400,"station_id":"","pricing_plan_id":"free"},{"bike_id":"66b2515e-c03e-4d42-9f88-3cf07a78c36b","system_id":"levelo_inurba_marseille","lat":43.308051,"lon":5.43527,"is_reserved":false,"is_disabled":false,"rental_uris":{"android":"levelo://app?vid=66b2515e-c03e-4d42-9f88-3cf07a78c36b","ios":"levelo://app?vid=66b2515e-c03e-4d42-9f88-3cf07a78c36b"},"vehicle_type_id":"4","last_reported":1700582971,"current_range_meters":31200,"station_id":"ce4bhph2rcd13ifvqheg","pricing_plan_id":"free"},{"bike_id":"14dd760e-98e7-4902-a598-fbbdee56f6f5","system_id":"levelo_inurba_marseille","lat":43.26569,"lon":5.39009,"is_reserved":false,"is_disabled":false,"rental_uris":{"android":"levelo://app?vid=14dd760e-98e7-4902-a598-fbbdee56f6f5","ios":"levelo://app?vid=14dd760e-98e7-4902-a598-fbbdee56f6f5"},"vehicle_type_id":"4","last_reported":1700582971,"current_range_meters":17200,"station_id":"ce4bhe12rcd13ifvqf30","pricing_plan_id":"free"},{"bike_id":"6d124c28-4f95-4695-8f27-46dc9529c47c","system_id":"levelo_inurba_marseille","lat":43.308051,"lon":5.43527,"is_reserved":false,"is_disabled":false,"rental_uris":{"android":"levelo://app?vid=6d124c28-4f95-4695-8f27-46dc9529c47c","ios":"levelo://app?vid=6d124c28-4f95-4695-8f27-46dc9529c47c"},"vehicle_type_id":"4","last_reported":1700582971,"current_range_meters":20800,"station_id":"ce4bhph2rcd13ifvqheg","pricing_plan_id":"free"},{"bike_id":"4980be0d-b714-4a27-9c35-e2e9ce54aab8","system_id":"levelo_inurba_marseille","lat":43.261782,"lon":5.374515,"is_reserved":false,"is_disabled":false,"rental_uris":{"android":"levelo://app?vid=4980be0d-b714-4a27-9c35-e2e9ce54aab8","ios":"levelo://app?vid=4980be0d-b714-4a27-9c35-e2e9ce54aab8"},"vehicle_type_id":"4","last_reported":1700582971,"current_range_meters":29200,"station_id":"ce4bhgp2rcd13ifvqfc0","pricing_plan_id":"free"},{"bike_id":"b71f1b0d-44ce-4f5c-bbc9-4eb263e6513d","system_id":"levelo_inurba_marseille","lat":43.261782,"lon":5.374515,"is_reserved":false,"is_disabled":false,"rental_uris":{"android":"levelo://app?vid=b71f1b0d-44ce-4f5c-bbc9-4eb263e6513d","ios":"levelo://app?vid=b71f1b0d-44ce-4f5c-bbc9-4eb263e6513d"},"vehicle_type_id":"4","last_reported":1700582971,"current_range_meters":30000,"station_id":"ce4bhgp2rcd13ifvqfc0","pricing_plan_id":"free"},{"bike_id":"59fc5e92-6467-4b2f-9cd4-5ca91bf74406","system_id":"levelo_inurba_marseille","lat":43.267959,"lon":5.402685,"is_reserved":false,"is_disabled":false,"rental_uris":{"android":"levelo://app?vid=59fc5e92-6467-4b2f-9cd4-5ca91bf74406","ios":"levelo://app?vid=59fc5e92-6467-4b2f-9cd4-5ca91bf74406"},"vehicle_type_id":"4","last_reported":1700582971,"current_range_meters":18400,"station_id":"ce501612rcd8frsf0b60","pricing_plan_id":"free"},{"bike_id":"cb16d7ee-4d8d-44c4-bc7a-142b1234ab63","system_id":"levelo_inurba_marseille","lat":43.31725,"lon":5.43786,"is_reserved":false,"is_disabled":false,"rental_uris":{"android":"levelo://app?vid=cb16d7ee-4d8d-44c4-bc7a-142b1234ab63","ios":"levelo://app?vid=cb16d7ee-4d8d-44c4-bc7a-142b1234ab63"},"vehicle_type_id":"4","last_reported":1700582971,"current_range_meters":6400,"station_id":"","pricing_plan_id":"free"},{"bike_id":"49a31422-5d81-4e67-953b-55705c98f239","system_id":"levelo_inurba_marseille","lat":43.279836,"lon":5.423146,"is_reserved":false,"is_disabled":false,"rental_uris":{"android":"levelo://app?vid=49a31422-5d81-4e67-953b-55705c98f239","ios":"levelo://app?vid=49a31422-5d81-4e67-953b-55705c98f239"},"vehicle_type_id":"4","last_reported":1700582971,"current_range_meters":28400,"station_id":"","pricing_plan_id":"free"},{"bike_id":"08fe1057-f796-44fc-8436-36a631179caa","system_id":"levelo_inurba_marseille","lat":43.298768,"lon":5.43643,"is_reserved":false,"is_disabled":false,"rental_uris":{"android":"levelo://app?vid=08fe1057-f796-44fc-8436-36a631179caa","ios":"levelo://app?vid=08fe1057-f796-44fc-8436-36a631179caa"},"vehicle_type_id":"4","last_reported":1700582971,"current_range_meters":31600,"station_id":"ce4bhpp2rcd13ifvqhfg","pricing_plan_id":"free"},{"bike_id":"301a69a6-6c81-400d-a329-74c05904f5b5","system_id":"levelo_inurba_marseille","lat":43.298768,"lon":5.43643,"is_reserved":false,"is_disabled":false,"rental_uris":{"android":"levelo://app?vid=301a69a6-6c81-400d-a329-74c05904f5b5","ios":"levelo://app?vid=301a69a6-6c81-400d-a329-74c05904f5b5"},"vehicle_type_id":"4","last_reported":1700582971,"current_range_meters":13600,"station_id":"ce4bhpp2rcd13ifvqhfg","pricing_plan_id":"free"},{"bike_id":"82601332-b84c-40dc-b91b-8eb858de0a32","system_id":"levelo_inurba_marseille","lat":43.260225,"lon":5.375455,"is_reserved":false,"is_disabled":false,"rental_uris":{"android":"levelo://app?vid=82601332-b84c-40dc-b91b-8eb858de0a32","ios":"levelo://app?vid=82601332-b84c-40dc-b91b-8eb858de0a32"},"vehicle_type_id":"4","last_reported":1700582971,"current_range_meters":31200,"station_id":"ce4bhgh2rcd13ifvqfa0","pricing_plan_id":"free"},{"bike_id":"29f175b5-743c-498f-abb4-778278fb62c6","system_id":"levelo_inurba_marseille","lat":43.2603,"lon":5.37549,"is_reserved":false,"is_disabled":false,"rental_uris":{"android":"levelo://app?vid=29f175b5-743c-498f-abb4-778278fb62c6","ios":"levelo://app?vid=29f175b5-743c-498f-abb4-778278fb62c6"},"vehicle_type_id":"4","last_reported":1700582971,"current_range_meters":26000,"station_id":"ce4bhgh2rcd13ifvqfa0","pricing_plan_id":"free"},{"bike_id":"6749ab58-0b98-424b-8251-11fb09896190","system_id":"levelo_inurba_marseille","lat":43.281548,"lon":5.42643,"is_reserved":false,"is_disabled":false,"rental_uris":{"android":"levelo://app?vid=6749ab58-0b98-424b-8251-11fb09896190","ios":"levelo://app?vid=6749ab58-0b98-424b-8251-11fb09896190"},"vehicle_type_id":"4","last_reported":1700582971,"current_range_meters":24000,"station_id":"ce4bhnh2rcd13ifvqgug","pricing_plan_id":"free"},{"bike_id":"fc574104-aad8-4373-a22d-c754bea64dab","system_id":"levelo_inurba_marseille","lat":43.281548,"lon":5.42643,"is_reserved":false,"is_disabled":false,"rental_uris":{"android":"levelo://app?vid=fc574104-aad8-4373-a22d-c754bea64dab","ios":"levelo://app?vid=fc574104-aad8-4373-a22d-c754bea64dab"},"vehicle_type_id":"4","last_reported":1700582971,"current_range_meters":31200,"station_id":"ce4bhnh2rcd13ifvqgug","pricing_plan_id":"free"},{"bike_id":"568b950f-0e3b-4b64-9112-8f5fbd71096f","system_id":"levelo_inurba_marseille","lat":43.281548,"lon":5.42643,"is_reserved":false,"is_disabled":false,"rental_uris":{"android":"levelo://app?vid=568b950f-0e3b-4b64-9112-8f5fbd71096f","ios":"levelo://app?vid=568b950f-0e3b-4b64-9112-8f5fbd71096f"},"vehicle_type_id":"4","last_reported":1700582971,"current_range_meters":27200,"station_id":"ce4bhnh2rcd13ifvqgug","pricing_plan_id":"free"},{"bike_id":"f19c8d77-3f76-4a7d-a9c2-f1db721040bc","system_id":"levelo_inurba_marseille","lat":43.281548,"lon":5.42643,"is_reserved":false,"is_disabled":false,"rental_uris":{"android":"levelo://app?vid=f19c8d77-3f76-4a7d-a9c2-f1db721040bc","ios":"levelo://app?vid=f19c8d77-3f76-4a7d-a9c2-f1db721040bc"},"vehicle_type_id":"4","last_reported":1700582971,"current_range_meters":17600,"station_id":"ce4bhnh2rcd13ifvqgug","pricing_plan_id":"free"},{"bike_id":"970884b5-feab-4a74-b5a3-4c9605fe5a34","system_id":"levelo_inurba_marseille","lat":43.26071,"lon":5.39386,"is_reserved":false,"is_disabled":false,"rental_uris":{"android":"levelo://app?vid=970884b5-feab-4a74-b5a3-4c9605fe5a34","ios":"levelo://app?vid=970884b5-feab-4a74-b5a3-4c9605fe5a34"},"vehicle_type_id":"4","last_reported":1700582971,"current_range_meters":4400,"station_id":"ce4bhh92rcd13ifvqfj0","pricing_plan_id":"free"},{"bike_id":"6b188708-9907-4cc6-a7fa-bcdecbd5a74b","system_id":"levelo_inurba_marseille","lat":43.27495,"lon":5.42454,"is_reserved":false,"is_disabled":false,"rental_uris":{"android":"levelo://app?vid=6b188708-9907-4cc6-a7fa-bcdecbd5a74b","ios":"levelo://app?vid=6b188708-9907-4cc6-a7fa-bcdecbd5a74b"},"vehicle_type_id":"4","last_reported":1700582971,"current_range_meters":5200,"station_id":"ce4bhn92rcd13ifvqgrg","pricing_plan_id":"free"},{"bike_id":"4341206d-54ae-4ec8-b897-cb975421fa13","system_id":"levelo_inurba_marseille","lat":43.260902,"lon":5.397644,"is_reserved":false,"is_disabled":false,"rental_uris":{"android":"levelo://app?vid=4341206d-54ae-4ec8-b897-cb975421fa13","ios":"levelo://app?vid=4341206d-54ae-4ec8-b897-cb975421fa13"},"vehicle_type_id":"4","last_reported":1700582971,"current_range_meters":24800,"station_id":"ce4bhi12rcd13ifvqfq0","pricing_plan_id":"free"},{"bike_id":"9fb33827-24d6-460c-83e1-62ba6447884a","system_id":"levelo_inurba_marseille","lat":43.25827,"lon":5.39436,"is_reserved":false,"is_disabled":false,"rental_uris":{"android":"levelo://app?vid=9fb33827-24d6-460c-83e1-62ba6447884a","ios":"levelo://app?vid=9fb33827-24d6-460c-83e1-62ba6447884a"},"vehicle_type_id":"4","last_reported":1700582971,"current_range_meters":24800,"station_id":"ce4bhip2rcd13ifvqft0","pricing_plan_id":"free"},{"bike_id":"9147145f-2fec-4bf3-ba63-71674a72d1aa","system_id":"levelo_inurba_marseille","lat":43.255755,"lon":5.38239,"is_reserved":false,"is_disabled":false,"rental_uris":{"android":"levelo://app?vid=9147145f-2fec-4bf3-ba63-71674a72d1aa","ios":"levelo://app?vid=9147145f-2fec-4bf3-ba63-71674a72d1aa"},"vehicle_type_id":"4","last_reported":1700582971,"current_range_meters":31200,"station_id":"ce4bhih2rcd13ifvqfs0","pricing_plan_id":"free"},{"bike_id":"1ce8110d-f7a7-45f0-ae91-3e537895d679","system_id":"levelo_inurba_marseille","lat":43.258224,"lon":5.394369,"is_reserved":false,"is_disabled":false,"rental_uris":{"android":"levelo://app?vid=1ce8110d-f7a7-45f0-ae91-3e537895d679","ios":"levelo://app?vid=1ce8110d-f7a7-45f0-ae91-3e537895d679"},"vehicle_type_id":"4","last_reported":1700582971,"current_range_meters":30400,"station_id":"ce4bhip2rcd13ifvqft0","pricing_plan_id":"free"},{"bike_id":"04bb3993-7df0-4611-b671-63861d1ec3cc","system_id":"levelo_inurba_marseille","lat":43.25574,"lon":5.38244,"is_reserved":false,"is_disabled":false,"rental_uris":{"android":"levelo://app?vid=04bb3993-7df0-4611-b671-63861d1ec3cc","ios":"levelo://app?vid=04bb3993-7df0-4611-b671-63861d1ec3cc"},"vehicle_type_id":"4","last_reported":1700582971,"current_range_meters":27200,"station_id":"ce4bhih2rcd13ifvqfs0","pricing_plan_id":"free"},{"bike_id":"c8d7b901-f1fd-4b2f-803b-d31a03226e99","system_id":"levelo_inurba_marseille","lat":43.25573,"lon":5.38247,"is_reserved":false,"is_disabled":false,"rental_uris":{"android":"levelo://app?vid=c8d7b901-f1fd-4b2f-803b-d31a03226e99","ios":"levelo://app?vid=c8d7b901-f1fd-4b2f-803b-d31a03226e99"},"vehicle_type_id":"4","last_reported":1700582971,"current_range_meters":25600,"station_id":"ce4bhih2rcd13ifvqfs0","pricing_plan_id":"free"},{"bike_id":"36a74bc1-bb50-405d-af18-ef2a48635754","system_id":"levelo_inurba_marseille","lat":43.25571,"lon":5.38243,"is_reserved":false,"is_disabled":false,"rental_uris":{"android":"levelo://app?vid=36a74bc1-bb50-405d-af18-ef2a48635754","ios":"levelo://app?vid=36a74bc1-bb50-405d-af18-ef2a48635754"},"vehicle_type_id":"4","last_reported":1700582971,"current_range_meters":28400,"station_id":"ce4bhih2rcd13ifvqfs0","pricing_plan_id":"free"},{"bike_id":"522b8731-7b91-44c4-8102-44fe1295efd1","system_id":"levelo_inurba_marseille","lat":43.2557,"lon":5.38243,"is_reserved":false,"is_disabled":false,"rental_uris":{"android":"levelo://app?vid=522b8731-7b91-44c4-8102-44fe1295efd1","ios":"levelo://app?vid=522b8731-7b91-44c4-8102-44fe1295efd1"},"vehicle_type_id":"4","last_reported":1700582971,"current_range_meters":30000,"station_id":"ce4bhih2rcd13ifvqfs0","pricing_plan_id":"free"},{"bike_id":"d8d330bd-d352-4e59-8efa-8f453a0d9a5f","system_id":"levelo_inurba_marseille","lat":43.254947,"lon":5.376454,"is_reserved":false,"is_disabled":false,"rental_uris":{"android":"levelo://app?vid=d8d330bd-d352-4e59-8efa-8f453a0d9a5f","ios":"levelo://app?vid=d8d330bd-d352-4e59-8efa-8f453a0d9a5f"},"vehicle_type_id":"4","last_reported":1700582971,"current_range_meters":22800,"station_id":"ce4bhh12rcd13ifvqff0","pricing_plan_id":"free"},{"bike_id":"50df5295-39ed-49df-97e2-2a7038f553d2","system_id":"levelo_inurba_marseille","lat":43.254947,"lon":5.376454,"is_reserved":false,"is_disabled":false,"rental_uris":{"android":"levelo://app?vid=50df5295-39ed-49df-97e2-2a7038f553d2","ios":"levelo://app?vid=50df5295-39ed-49df-97e2-2a7038f553d2"},"vehicle_type_id":"4","last_reported":1700582971,"current_range_meters":18800,"station_id":"ce4bhh12rcd13ifvqff0","pricing_plan_id":"free"},{"bike_id":"0be7ea84-e4e9-4d7f-97f3-aff26c039302","system_id":"levelo_inurba_marseille","lat":43.254947,"lon":5.376454,"is_reserved":false,"is_disabled":false,"rental_uris":{"android":"levelo://app?vid=0be7ea84-e4e9-4d7f-97f3-aff26c039302","ios":"levelo://app?vid=0be7ea84-e4e9-4d7f-97f3-aff26c039302"},"vehicle_type_id":"4","last_reported":1700582971,"current_range_meters":31200,"station_id":"ce4bhh12rcd13ifvqff0","pricing_plan_id":"free"},{"bike_id":"cfdc423c-18ac-4b18-badc-13e244b42e4a","system_id":"levelo_inurba_marseille","lat":43.26967,"lon":5.42151,"is_reserved":false,"is_disabled":false,"rental_uris":{"android":"levelo://app?vid=cfdc423c-18ac-4b18-badc-13e244b42e4a","ios":"levelo://app?vid=cfdc423c-18ac-4b18-badc-13e244b42e4a"},"vehicle_type_id":"4","last_reported":1700582971,"current_range_meters":15200,"station_id":"","pricing_plan_id":"free"},{"bike_id":"174d0c99-9fe8-458a-ae07-86cca108a6c3","system_id":"levelo_inurba_marseille","lat":43.25934,"lon":5.40899,"is_reserved":false,"is_disabled":false,"rental_uris":{"android":"levelo://app?vid=174d0c99-9fe8-458a-ae07-86cca108a6c3","ios":"levelo://app?vid=174d0c99-9fe8-458a-ae07-86cca108a6c3"},"vehicle_type_id":"4","last_reported":1700582971,"current_range_meters":18000,"station_id":"ce4bhm92rcd13ifvqglg","pricing_plan_id":"free"},{"bike_id":"eedf2e51-beb6-448c-9be8-f02e29717301","system_id":"levelo_inurba_marseille","lat":43.257079,"lon":5.411051,"is_reserved":false,"is_disabled":false,"rental_uris":{"android":"levelo://app?vid=eedf2e51-beb6-448c-9be8-f02e29717301","ios":"levelo://app?vid=eedf2e51-beb6-448c-9be8-f02e29717301"},"vehicle_type_id":"4","last_reported":1700582971,"current_range_meters":31600,"station_id":"ce4bhkp2rcd13ifvqgd0","pricing_plan_id":"free"},{"bike_id":"e0f0120a-ca66-4df9-91cd-0c7193cc61a0","system_id":"levelo_inurba_marseille","lat":43.257079,"lon":5.411051,"is_reserved":false,"is_disabled":false,"rental_uris":{"android":"levelo://app?vid=e0f0120a-ca66-4df9-91cd-0c7193cc61a0","ios":"levelo://app?vid=e0f0120a-ca66-4df9-91cd-0c7193cc61a0"},"vehicle_type_id":"4","last_reported":1700582971,"current_range_meters":8000,"station_id":"ce4bhkp2rcd13ifvqgd0","pricing_plan_id":"free"},{"bike_id":"832d8a69-b697-439b-8650-0a3f49af7624","system_id":"levelo_inurba_marseille","lat":43.257079,"lon":5.411051,"is_reserved":false,"is_disabled":false,"rental_uris":{"android":"levelo://app?vid=832d8a69-b697-439b-8650-0a3f49af7624","ios":"levelo://app?vid=832d8a69-b697-439b-8650-0a3f49af7624"},"vehicle_type_id":"4","last_reported":1700582971,"current_range_meters":8400,"station_id":"ce4bhkp2rcd13ifvqgd0","pricing_plan_id":"free"},{"bike_id":"f00d3aa8-7d79-43dd-ba25-be162b260ce4","system_id":"levelo_inurba_marseille","lat":43.25002,"lon":5.38915,"is_reserved":false,"is_disabled":false,"rental_uris":{"android":"levelo://app?vid=f00d3aa8-7d79-43dd-ba25-be162b260ce4","ios":"levelo://app?vid=f00d3aa8-7d79-43dd-ba25-be162b260ce4"},"vehicle_type_id":"4","last_reported":1700582971,"current_range_meters":400,"station_id":"ce4bhgp2rcd13ifvqfd0","pricing_plan_id":"free"},{"bike_id":"8d9c33cb-ad73-4547-aeb7-8c83b86f779f","system_id":"levelo_inurba_marseille","lat":43.24672,"lon":5.38179,"is_reserved":false,"is_disabled":false,"rental_uris":{"android":"levelo://app?vid=8d9c33cb-ad73-4547-aeb7-8c83b86f779f","ios":"levelo://app?vid=8d9c33cb-ad73-4547-aeb7-8c83b86f779f"},"vehicle_type_id":"4","last_reported":1700582971,"current_range_meters":9600,"station_id":"ce4bhih2rcd13ifvqfr0","pricing_plan_id":"free"},{"bike_id":"3d07ad4f-3ff5-4d94-9003-ead11c4a9a51","system_id":"levelo_inurba_marseille","lat":43.24664,"lon":5.38166,"is_reserved":false,"is_disabled":false,"rental_uris":{"android":"levelo://app?vid=3d07ad4f-3ff5-4d94-9003-ead11c4a9a51","ios":"levelo://app?vid=3d07ad4f-3ff5-4d94-9003-ead11c4a9a51"},"vehicle_type_id":"4","last_reported":1700582971,"current_range_meters":25600,"station_id":"ce4bhih2rcd13ifvqfr0","pricing_plan_id":"free"},{"bike_id":"a4efbd27-19fd-43d0-bce3-7517b9daee23","system_id":"levelo_inurba_marseille","lat":43.24693,"lon":5.382096,"is_reserved":false,"is_disabled":false,"rental_uris":{"android":"levelo://app?vid=a4efbd27-19fd-43d0-bce3-7517b9daee23","ios":"levelo://app?vid=a4efbd27-19fd-43d0-bce3-7517b9daee23"},"vehicle_type_id":"4","last_reported":1700582971,"current_range_meters":13200,"station_id":"ce4bhih2rcd13ifvqfr0","pricing_plan_id":"free"},{"bike_id":"a7ab689a-ba6e-40b1-a957-7e863d056c8a","system_id":"levelo_inurba_marseille","lat":43.24693,"lon":5.382096,"is_reserved":false,"is_disabled":false,"rental_uris":{"android":"levelo://app?vid=a7ab689a-ba6e-40b1-a957-7e863d056c8a","ios":"levelo://app?vid=a7ab689a-ba6e-40b1-a957-7e863d056c8a"},"vehicle_type_id":"4","last_reported":1700582971,"current_range_meters":6000,"station_id":"ce4bhih2rcd13ifvqfr0","pricing_plan_id":"free"},{"bike_id":"9adf3080-2f08-48e2-83a4-c90a3f350d39","system_id":"levelo_inurba_marseille","lat":43.25102,"lon":5.403214,"is_reserved":false,"is_disabled":false,"rental_uris":{"android":"levelo://app?vid=9adf3080-2f08-48e2-83a4-c90a3f350d39","ios":"levelo://app?vid=9adf3080-2f08-48e2-83a4-c90a3f350d39"},"vehicle_type_id":"4","last_reported":1700582971,"current_range_meters":22000,"station_id":"ce4bhlh2rcd13ifvqgig","pricing_plan_id":"free"},{"bike_id":"eb10f71c-022a-4ced-aa93-f38579b049af","system_id":"levelo_inurba_marseille","lat":43.25102,"lon":5.403214,"is_reserved":false,"is_disabled":false,"rental_uris":{"android":"levelo://app?vid=eb10f71c-022a-4ced-aa93-f38579b049af","ios":"levelo://app?vid=eb10f71c-022a-4ced-aa93-f38579b049af"},"vehicle_type_id":"4","last_reported":1700582971,"current_range_meters":26400,"station_id":"ce4bhlh2rcd13ifvqgig","pricing_plan_id":"free"},{"bike_id":"fb851b94-54e9-4e23-9ea1-dfd3e92146f8","system_id":"levelo_inurba_marseille","lat":43.25102,"lon":5.403214,"is_reserved":false,"is_disabled":false,"rental_uris":{"android":"levelo://app?vid=fb851b94-54e9-4e23-9ea1-dfd3e92146f8","ios":"levelo://app?vid=fb851b94-54e9-4e23-9ea1-dfd3e92146f8"},"vehicle_type_id":"4","last_reported":1700582971,"current_range_meters":24800,"station_id":"ce4bhlh2rcd13ifvqgig","pricing_plan_id":"free"},{"bike_id":"0a05b42b-6a1c-46da-ba67-363adf685045","system_id":"levelo_inurba_marseille","lat":43.246461,"lon":5.389014,"is_reserved":false,"is_disabled":false,"rental_uris":{"android":"levelo://app?vid=0a05b42b-6a1c-46da-ba67-363adf685045","ios":"levelo://app?vid=0a05b42b-6a1c-46da-ba67-363adf685045"},"vehicle_type_id":"4","last_reported":1700582971,"current_range_meters":26800,"station_id":"ce4bhg12rcd13ifvqf60","pricing_plan_id":"free"},{"bike_id":"f4229e84-d64e-4754-8dac-327acf0c03eb","system_id":"levelo_inurba_marseille","lat":43.24641,"lon":5.38895,"is_reserved":false,"is_disabled":false,"rental_uris":{"android":"levelo://app?vid=f4229e84-d64e-4754-8dac-327acf0c03eb","ios":"levelo://app?vid=f4229e84-d64e-4754-8dac-327acf0c03eb"},"vehicle_type_id":"4","last_reported":1700582971,"current_range_meters":2400,"station_id":"ce4bhg12rcd13ifvqf60","pricing_plan_id":"free"},{"bike_id":"f983691e-d292-42f7-b39f-8d2bbcd3c71e","system_id":"levelo_inurba_marseille","lat":43.243884,"lon":5.370737,"is_reserved":false,"is_disabled":false,"rental_uris":{"android":"levelo://app?vid=f983691e-d292-42f7-b39f-8d2bbcd3c71e","ios":"levelo://app?vid=f983691e-d292-42f7-b39f-8d2bbcd3c71e"},"vehicle_type_id":"4","last_reported":1700582971,"current_range_meters":24000,"station_id":"ce4bhhh2rcd13ifvqfk0","pricing_plan_id":"free"},{"bike_id":"918795c6-dcb6-4e5e-b1b2-675de633ffb9","system_id":"levelo_inurba_marseille","lat":43.243884,"lon":5.370737,"is_reserved":false,"is_disabled":false,"rental_uris":{"android":"levelo://app?vid=918795c6-dcb6-4e5e-b1b2-675de633ffb9","ios":"levelo://app?vid=918795c6-dcb6-4e5e-b1b2-675de633ffb9"},"vehicle_type_id":"4","last_reported":1700582971,"current_range_meters":2800,"station_id":"ce4bhhh2rcd13ifvqfk0","pricing_plan_id":"free"},{"bike_id":"1c3b3fbf-16e6-4c64-8912-b929533aeb49","system_id":"levelo_inurba_marseille","lat":43.243884,"lon":5.370737,"is_reserved":false,"is_disabled":false,"rental_uris":{"android":"levelo://app?vid=1c3b3fbf-16e6-4c64-8912-b929533aeb49","ios":"levelo://app?vid=1c3b3fbf-16e6-4c64-8912-b929533aeb49"},"vehicle_type_id":"4","last_reported":1700582971,"current_range_meters":28000,"station_id":"ce4bhhh2rcd13ifvqfk0","pricing_plan_id":"free"},