{"last_updated":1692810223,"ttl":30,"version":"2.2","data":{"bikes":[{"bike_id":"f22ca441-4e4e-4660-b824-b2f46943e54d","system_id":"levelo_inurba_marseille","lat":43.312239,"lon":5.368562,"is_reserved":false,"is_disabled":false,"rental_uris":{"android":"levelo://app?vid=f22ca441-4e4e-4660-b824-b2f46943e54d","ios":"levelo://app?vid=f22ca441-4e4e-4660-b824-b2f46943e54d"},"vehicle_type_id":"4","last_reported":1692810241,"current_range_meters":31600,"station_id":"ce4bgl92rcd13ifvqbq0","pricing_plan_id":"free"},{"bike_id":"d2be997d-44d2-40a5-bb20-02aeaaf65fa5","system_id":"levelo_inurba_marseille","lat":43.314811,"lon":5.373103,"is_reserved":false,"is_disabled":false,"rental_uris":{"android":"levelo://app?vid=d2be997d-44d2-40a5-bb20-02aeaaf65fa5","ios":"levelo://app?vid=d2be997d-44d2-40a5-bb20-02aeaaf65fa5"},"vehicle_type_id":"4","last_reported":1692810241,"current_range_meters":31600,"station_id":"ce4bgt12rcd13ifvqcd0","pricing_plan_id":"free"},{"bike_id":"9fbe6e18-d192-44c2-98b5-cafb68b41aa4","system_id":"levelo_inurba_marseille","lat":43.30532,"lon":5.36522,"is_reserved":false,"is_disabled":false,"rental_uris":{"android":"levelo://app?vid=9fbe6e18-d192-44c2-98b5-cafb68b41aa4","ios":"levelo://app?vid=9fbe6e18-d192-44c2-98b5-cafb68b41aa4"},"vehicle_type_id":"4","last_reported":1692810241,"current_range_meters":22000,"station_id":"ce4bgs12rcd13ifvqcag","pricing_plan_id":"free"},{"bike_id":"4cc223a3-c6de-4249-84ee-da92e1aebbfe","system_id":"levelo_inurba_marseille","lat":43.311125,"lon":5.377624,"is_reserved":false,"is_disabled":false,"rental_uris":{"android":"levelo://app?vid=4cc223a3-c6de-4249-84ee-da92e1aebbfe","ios":"levelo://app?vid=4cc223a3-c6de-4249-84ee-da92e1aebbfe"},"vehicle_type_id":"4","last_reported":1692810241,"current_range_meters":2400,"station_id":"ce4bgt92rcd13ifvqcg0","pricing_plan_id":"free"},{"bike_id":"51117683-369e-4f79-9f4e-b728e7c1bd96","system_id":"levelo_inurba_marseille","lat":43.317075,"lon":5.377367,"is_reserved":false,"is_disabled":false,"rental_uris":{"android":"levelo://app?vid=51117683-369e-4f79-9f4e-b728e7c1bd96","ios":"levelo://app?vid=51117683-369e-4f79-9f4e-b728e7c1bd96"},"vehicle_type_id":"4","last_reported":1692810241,"current_range_meters":13200,"station_id":"ce4bgth2rcd13ifvqch0","pricing_plan_id":"free"},{"bike_id":"874e34a8-80c1-4d79-8e18-aa1bd38adad4","system_id":"levelo_inurba_marseille","lat":43.317065,"lon":5.377313,"is_reserved":false,"is_disabled":false,"rental_uris":{"android":"levelo://app?vid=874e34a8-80c1-4d79-8e18-aa1bd38adad4","ios":"levelo://app?vid=874e34a8-80c1-4d79-8e18-aa1bd38adad4"},"vehicle_type_id":"4","last_reported":1692810241,"current_range_meters":0,"station_id":"ce4bgth2rcd13ifvqch0","pricing_plan_id":"free"},{"bike_id":"237c1187-0b1e-4a6a-83f3-89fcb0ea5cea","system_id":"levelo_inurba_marseille","lat":43.307967,"lon":5.381529,"is_reserved":false,"is_disabled":false,"rental_uris":{"android":"levelo://app?vid=237c1187-0b1e-4a6a-83f3-89fcb0ea5cea","ios":"levelo://app?vid=237c1187-0b1e-4a6a-83f3-89fcb0ea5cea"},"vehicle_type_id":"4","last_reported":1692810241,"current_range_meters":0,"station_id":"ce4bgt92rcd13ifvqcg0","pricing_plan_id":"free"},{"bike_id":"a40e6d25-c7ca-41a5-a889-17baba859658","system_id":"levelo_inurba_marseille","lat":43.304606,"lon":5.379026,"is_reserved":false,"is_disabled":false,"rental_uris":{"android":"levelo://app?vid=a40e6d25-c7ca-41a5-a889-17baba859658","ios":"levelo://app?vid=a40e6d25-c7ca-41a5-a889-17baba859658"},"vehicle_type_id":"4","last_reported":1692810241,"current_range_meters":28800,"station_id":"ce4bgup2rcd13ifvqcn0","pricing_plan_id":"free"},{"bike_id":"8b933cfc-6004-4ac6-a449-d02d8eb0edd2","system_id":"levelo_inurba_marseille","lat":43.304606,"lon":5.379026,"is_reserved":false,"is_disabled":false,"rental_uris":{"android":"levelo://app?vid=8b933cfc-6004-4ac6-a449-d02d8eb0edd2","ios":"levelo://app?vid=8b933cfc-6004-4ac6-a449-d02d8eb0edd2"},"vehicle_type_id":"4","last_reported":1692810241,"current_range_meters":0,"station_id":"ce4bgup2rcd13ifvqcn0","pricing_plan_id":"free"},{"bike_id":"5be708f1-9aa7-489a-b1f6-f4b2c5e6f6d5","system_id":"levelo_inurba_marseille","lat":43.319935,"lon":5.381699,"is_reserved":false,"is_disabled":false,"rental_uris":{"android":"levelo://app?vid=5be708f1-9aa7-489a-b1f6-f4b2c5e6f6d5","ios":"levelo://app?vid=5be708f1-9aa7-489a-b1f6-f4b2c5e6f6d5"},"vehicle_type_id":"4","last_reported":1692810241,"current_range_meters":22000,"station_id":"ce4bhr12rcd13ifvqhpg","pricing_plan_id":"free"},{"bike_id":"18a7557d-46d7-460f-bbdc-f4bb847e80b0","system_id":"levelo_inurba_marseille","lat":43.313571,"lon":5.384829,"is_reserved":false,"is_disabled":false,"rental_uris":{"android":"levelo://app?vid=18a7557d-46d7-460f-bbdc-f4bb847e80b0","ios":"levelo://app?vid=18a7557d-46d7-460f-bbdc-f4bb847e80b0"},"vehicle_type_id":"4","last_reported":1692810241,"current_range_meters":28000,"station_id":"ce4bgt92rcd13ifvqcf0","pricing_plan_id":"free"},{"bike_id":"c2b72669-3a97-43b6-9c07-9f0284532a5a","system_id":"levelo_inurba_marseille","lat":43.313575,"lon":5.384918,"is_reserved":false,"is_disabled":false,"rental_uris":{"android":"levelo://app?vid=c2b72669-3a97-43b6-9c07-9f0284532a5a","ios":"levelo://app?vid=c2b72669-3a97-43b6-9c07-9f0284532a5a"},"vehicle_type_id":"4","last_reported":1692810241,"current_range_meters":0,"station_id":"","pricing_plan_id":"free"},{"bike_id":"547efd34-645f-4524-be6c-5acf963c9744","system_id":"levelo_inurba_marseille","lat":43.313571,"lon":5.384829,"is_reserved":false,"is_disabled":false,"rental_uris":{"android":"levelo://app?vid=547efd34-645f-4524-be6c-5acf963c9744","ios":"levelo://app?vid=547efd34-645f-4524-be6c-5acf963c9744"},"vehicle_type_id":"4","last_reported":1692810241,"current_range_meters":30800,"station_id":"ce4bgt92rcd13ifvqcf0","pricing_plan_id":"free"},{"bike_id":"95dc9ecf-047e-4c3a-bb12-a5676cb36ad4","system_id":"levelo_inurba_marseille","lat":43.3216,"lon":5.38166,"is_reserved":false,"is_disabled":false,"rental_uris":{"android":"levelo://app?vid=95dc9ecf-047e-4c3a-bb12-a5676cb36ad4","ios":"levelo://app?vid=95dc9ecf-047e-4c3a-bb12-a5676cb36ad4"},"vehicle_type_id":"4","last_reported":1692810241,"current_range_meters":2800,"station_id":"","pricing_plan_id":"free"},{"bike_id":"1d698fdf-26f3-4e5c-8734-9e768e18748b","system_id":"levelo_inurba_marseille","lat":43.30529,"lon":5.3842,"is_reserved":false,"is_disabled":false,"rental_uris":{"android":"levelo://app?vid=1d698fdf-26f3-4e5c-8734-9e768e18748b","ios":"levelo://app?vid=1d698fdf-26f3-4e5c-8734-9e768e18748b"},"vehicle_type_id":"4","last_reported":1692810241,"current_range_meters":26400,"station_id":"ce4bgg92rcd13ifvqb30","pricing_plan_id":"free"},{"bike_id":"35eec3a1-aa54-4990-8eb4-78e6c0dd24d0","system_id":"levelo_inurba_marseille","lat":43.29936,"lon":5.37509,"is_reserved":false,"is_disabled":false,"rental_uris":{"android":"levelo://app?vid=35eec3a1-aa54-4990-8eb4-78e6c0dd24d0","ios":"levelo://app?vid=35eec3a1-aa54-4990-8eb4-78e6c0dd24d0"},"vehicle_type_id":"4","last_reported":1692810241,"current_range_meters":20400,"station_id":"ce4bgjh2rcd13ifvqbg0","pricing_plan_id":"free"},{"bike_id":"b885f463-e8c5-42cc-902f-7152167ce1c7","system_id":"levelo_inurba_marseille","lat":43.299243,"lon":5.37481,"is_reserved":false,"is_disabled":false,"rental_uris":{"android":"levelo://app?vid=b885f463-e8c5-42cc-902f-7152167ce1c7","ios":"levelo://app?vid=b885f463-e8c5-42cc-902f-7152167ce1c7"},"vehicle_type_id":"4","last_reported":1692810241,"current_range_meters":31200,"station_id":"ce4bgjh2rcd13ifvqbg0","pricing_plan_id":"free"},{"bike_id":"2f9e2def-2173-4eb4-a460-9a385f59debe","system_id":"levelo_inurba_marseille","lat":43.299243,"lon":5.374807,"is_reserved":false,"is_disabled":false,"rental_uris":{"android":"levelo://app?vid=2f9e2def-2173-4eb4-a460-9a385f59debe","ios":"levelo://app?vid=2f9e2def-2173-4eb4-a460-9a385f59debe"},"vehicle_type_id":"4","last_reported":1692810241,"current_range_meters":31200,"station_id":"ce4bgjh2rcd13ifvqbg0","pricing_plan_id":"free"},{"bike_id":"7c7eb772-6478-4409-aee8-55b707db6117","system_id":"levelo_inurba_marseille","lat":43.311722,"lon":5.387247,"is_reserved":false,"is_disabled":false,"rental_uris":{"android":"levelo://app?vid=7c7eb772-6478-4409-aee8-55b707db6117","ios":"levelo://app?vid=7c7eb772-6478-4409-aee8-55b707db6117"},"vehicle_type_id":"4","last_reported":1692810241,"current_range_meters":5600,"station_id":"ce4bgv12rcd13ifvqcp0","pricing_plan_id":"free"},{"bike_id":"8442e0d6-6f5d-497a-b7ac-862ba22925f2","system_id":"levelo_inurba_marseille","lat":43.328371,"lon":5.366909,"is_reserved":false,"is_disabled":false,"rental_uris":{"android":"levelo://app?vid=8442e0d6-6f5d-497a-b7ac-862ba22925f2","ios":"levelo://app?vid=8442e0d6-6f5d-497a-b7ac-862ba22925f2"},"vehicle_type_id":"4","last_reported":1692810241,"current_range_meters":27600,"station_id":"ce4bhs92rcd13ifvqi0g","pricing_plan_id":"free"},{"bike_id":"30b50c15-c563-4e17-a5d3-c3aadc823af3","system_id":"levelo_inurba_marseille","lat":43.32823,"lon":5.36676,"is_reserved":false,"is_disabled":false,"rental_uris":{"android":"levelo://app?vid=30b50c15-c563-4e17-a5d3-c3aadc823af3","ios":"levelo://app?vid=30b50c15-c563-4e17-a5d3-c3aadc823af3"},"vehicle_type_id":"4","last_reported":1692810241,"current_range_meters":30000,"station_id":"ce4bhs92rcd13ifvqi0g","pricing_plan_id":"free"},{"bike_id":"fd21f7b8-5ddf-4b3f-af44-0b0a085a0bc2","system_id":"levelo_inurba_marseille","lat":43.328371,"lon":5.366909,"is_reserved":false,"is_disabled":false,"rental_uris":{"android":"levelo://app?vid=fd21f7b8-5ddf-4b3f-af44-0b0a085a0bc2","ios":"levelo://app?vid=fd21f7b8-5ddf-4b3f-af44-0b0a085a0bc2"},"vehicle_type_id":"4","last_reported":1692810241,"current_range_meters":16800,"station_id":"ce4bhs92rcd13ifvqi0g","pricing_plan_id":"free"},{"bike_id":"7c14a9ce-0e8c-41a7-8b8e-5fd17185ca64","system_id":"levelo_inurba_marseille","lat":43.32826,"lon":5.36682,"is_reserved":false,"is_disabled":false,"rental_uris":{"android":"levelo://app?vid=7c14a9ce-0e8c-41a7-8b8e-5fd17185ca64","ios":"levelo://app?vid=7c14a9ce-0e8c-41a7-8b8e-5fd17185ca64"},"vehicle_type_id":"4","last_reported":1692810241,"current_range_meters":24000,"station_id":"ce4bhs92rcd13ifvqi0g","pricing_plan_id":"free"},{"bike_id":"435a3706-3dbd-4c33-942a-739ec967eecf","system_id":"levelo_inurba_marseille","lat":43.32833,"lon":5.36679,"is_reserved":false,"is_disabled":false,"rental_uris":{"android":"levelo://app?vid=435a3706-3dbd-4c33-942a-739ec967eecf","ios":"levelo://app?vid=435a3706-3dbd-4c33-942a-739ec967eecf"},"vehicle_type_id":"4","last_reported":1692810241,"current_range_meters":3600,"station_id":"ce4bhs92rcd13ifvqi0g","pricing_plan_id":"free"},{"bike_id":"dd789220-e7b5-42c1-b9dc-dc4243148021","system_id":"levelo_inurba_marseille","lat":43.297163,"lon":5.365866,"is_reserved":false,"is_disabled":false,"rental_uris":{"android":"levelo://app?vid=dd789220-e7b5-42c1-b9dc-dc4243148021","ios":"levelo://app?vid=dd789220-e7b5-42c1-b9dc-dc4243148021"},"vehicle_type_id":"4","last_reported":1692810241,"current_range_meters":31200,"station_id":"ce4bgn12rcd13ifvqbt0","pricing_plan_id":"free"},{"bike_id":"d3139180-8ba9-4c91-b6e4-8baae3c22113","system_id":"levelo_inurba_marseille","lat":43.29623,"lon":5.3715,"is_reserved":false,"is_disabled":false,"rental_uris":{"android":"levelo://app?vid=d3139180-8ba9-4c91-b6e4-8baae3c22113","ios":"levelo://app?vid=d3139180-8ba9-4c91-b6e4-8baae3c22113"},"vehicle_type_id":"4","last_reported":1692810241,"current_range_meters":26400,"station_id":"","pricing_plan_id":"free"},{"bike_id":"05d45659-d901-4147-8679-eaf7f1c8ede6","system_id":"levelo_inurba_marseille","lat":43.29621,"lon":5.37156,"is_reserved":false,"is_disabled":false,"rental_uris":{"android":"levelo://app?vid=05d45659-d901-4147-8679-eaf7f1c8ede6","ios":"levelo://app?vid=05d45659-d901-4147-8679-eaf7f1c8ede6"},"vehicle_type_id":"4","last_reported":1692810241,"current_range_meters":4400,"station_id":"","pricing_plan_id":"free"},{"bike_id":"bb155e93-116e-494a-9911-2df351c7dae8","system_id":"levelo_inurba_marseille","lat":43.29625,"lon":5.37196,"is_reserved":false,"is_disabled":false,"rental_uris":{"android":"levelo://app?vid=bb155e93-116e-494a-9911-2df351c7dae8","ios":"levelo://app?vid=bb155e93-116e-494a-9911-2df351c7dae8"},"vehicle_type_id":"4","last_reported":1692810241,"current_range_meters":24400,"station_id":"","pricing_plan_id":"free"},{"bike_id":"57fadba7-ebe1-402b-bcbb-8264bad86cb7","system_id":"levelo_inurba_marseille","lat":43.29584,"lon":5.36742,"is_reserved":false,"is_disabled":false,"rental_uris":{"android":"levelo://app?vid=57fadba7-ebe1-402b-bcbb-8264bad86cb7","ios":"levelo://app?vid=57fadba7-ebe1-402b-bcbb-8264bad86cb7"},"vehicle_type_id":"4","last_reported":1692810241,"current_range_meters":31200,"station_id":"ce4bgph2rcd13ifvqc2g","pricing_plan_id":"free"},{"bike_id":"97865c6c-f3f7-47ef-a4c9-bb75aee3cccd","system_id":"levelo_inurba_marseille","lat":43.30951,"lon":5.39031,"is_reserved":false,"is_disabled":false,"rental_uris":{"android":"levelo://app?vid=97865c6c-f3f7-47ef-a4c9-bb75aee3cccd","ios":"levelo://app?vid=97865c6c-f3f7-47ef-a4c9-bb75aee3cccd"},"vehicle_type_id":"4","last_reported":1692810241,"current_range_meters":27600,"station_id":"ce4bgup2rcd13ifvqco0","pricing_plan_id":"free"},{"bike_id":"2c93ce6f-c5e1-4ec9-9941-ebb7469bb8f2","system_id":"levelo_inurba_marseille","lat":43.317557,"lon":5.390173,"is_reserved":false,"is_disabled":false,"rental_uris":{"android":"levelo://app?vid=2c93ce6f-c5e1-4ec9-9941-ebb7469bb8f2","ios":"levelo://app?vid=2c93ce6f-c5e1-4ec9-9941-ebb7469bb8f2"},"vehicle_type_id":"4","last_reported":1692810241,"current_range_meters":31600,"station_id":"ce4bhqp2rcd13ifvqhng","pricing_plan_id":"free"},{"bike_id":"1ca225b8-01e5-4f36-b42e-079112ba21ad","system_id":"levelo_inurba_marseille","lat":43.317557,"lon":5.390173,"is_reserved":false,"is_disabled":false,"rental_uris":{"android":"levelo://app?vid=1ca225b8-01e5-4f36-b42e-079112ba21ad","ios":"levelo://app?vid=1ca225b8-01e5-4f36-b42e-079112ba21ad"},"vehicle_type_id":"4","last_reported":1692810241,"current_range_meters":25200,"station_id":"ce4bhqp2rcd13ifvqhng","pricing_plan_id":"free"},{"bike_id":"a4df99ce-0488-49dd-a888-94686f562e88","system_id":"levelo_inurba_marseille","lat":43.295748,"lon":5.37522,"is_reserved":false,"is_disabled":false,"rental_uris":{"android":"levelo://app?vid=a4df99ce-0488-49dd-a888-94686f562e88","ios":"levelo://app?vid=a4df99ce-0488-49dd-a888-94686f562e88"},"vehicle_type_id":"4","last_reported":1692810241,"current_range_meters":27600,"station_id":"ce4bgh92rcd13ifvqb50","pricing_plan_id":"free"},{"bike_id":"01dafb02-0839-458d-9846-62bf51346216","system_id":"levelo_inurba_marseille","lat":43.304274,"lon":5.388873,"is_reserved":false,"is_disabled":false,"rental_uris":{"android":"levelo://app?vid=01dafb02-0839-458d-9846-62bf51346216","ios":"levelo://app?vid=01dafb02-0839-458d-9846-62bf51346216"},"vehicle_type_id":"4","last_reported":1692810241,"current_range_meters":10800,"station_id":"ce4bgk12rcd13ifvqbi0","pricing_plan_id":"free"},{"bike_id":"952a19e7-6602-41c3-942f-79cfb514366f","system_id":"levelo_inurba_marseille","lat":43.29756,"lon":5.38091,"is_reserved":false,"is_disabled":false,"rental_uris":{"android":"levelo://app?vid=952a19e7-6602-41c3-942f-79cfb514366f","ios":"levelo://app?vid=952a19e7-6602-41c3-942f-79cfb514366f"},"vehicle_type_id":"4","last_reported":1692810241,"current_range_meters":28000,"station_id":"","pricing_plan_id":"free"},{"bike_id":"329b52da-6179-4119-8885-76b50cbdc2a9","system_id":"levelo_inurba_marseille","lat":43.299724,"lon":5.384848,"is_reserved":false,"is_disabled":false,"rental_uris":{"android":"levelo://app?vid=329b52da-6179-4119-8885-76b50cbdc2a9","ios":"levelo://app?vid=329b52da-6179-4119-8885-76b50cbdc2a9"},"vehicle_type_id":"4","last_reported":1692810241,"current_range_meters":20400,"station_id":"ce4bgj92rcd13ifvqbd0","pricing_plan_id":"free"},{"bike_id":"e42cf054-b642-4490-b699-bd180160d099","system_id":"levelo_inurba_marseille","lat":43.299717,"lon":5.384845,"is_reserved":false,"is_disabled":false,"rental_uris":{"android":"levelo://app?vid=e42cf054-b642-4490-b699-bd180160d099","ios":"levelo://app?vid=e42cf054-b642-4490-b699-bd180160d099"},"vehicle_type_id":"4","last_reported":1692810241,"current_range_meters":22000,"station_id":"ce4bgj92rcd13ifvqbd0","pricing_plan_id":"free"},{"bike_id":"00883cd9-a56a-4720-bb55-237d0136a4a1","system_id":"levelo_inurba_marseille","lat":43.32365,"lon":5.3888,"is_reserved":false,"is_disabled":false,"rental_uris":{"android":"levelo://app?vid=00883cd9-a56a-4720-bb55-237d0136a4a1","ios":"levelo://app?vid=00883cd9-a56a-4720-bb55-237d0136a4a1"},"vehicle_type_id":"4","last_reported":1692810241,"current_range_meters":29600,"station_id":"ce4bhqp2rcd13ifvqhog","pricing_plan_id":"free"},{"bike_id":"c1cdb875-f813-4f6f-b1a4-a785ab78e3a9","system_id":"levelo_inurba_marseille","lat":43.32367,"lon":5.388836,"is_reserved":false,"is_disabled":false,"rental_uris":{"android":"levelo://app?vid=c1cdb875-f813-4f6f-b1a4-a785ab78e3a9","ios":"levelo://app?vid=c1cdb875-f813-4f6f-b1a4-a785ab78e3a9"},"vehicle_type_id":"4","last_reported":1692810241,"current_range_meters":24000,"station_id":"ce4bhqp2rcd13ifvqhog","pricing_plan_id":"free"},{"bike_id":"27db1c5c-9b52-4a11-892e-c73197b7190e","system_id":"levelo_inurba_marseille","lat":43.29601,"lon":5.381084,"is_reserved":false,"is_disabled":false,"rental_uris":{"android":"levelo://app?vid=27db1c5c-9b52-4a11-892e-c73197b7190e","ios":"levelo://app?vid=27db1c5c-9b52-4a11-892e-c73197b7190e"},"vehicle_type_id":"4","last_reported":1692810241,"current_range_meters":27600,"station_id":"ce4bgl12rcd13ifvqbo0","pricing_plan_id":"free"},{"bike_id":"084c881d-7521-471b-9bdb-eb840d5748b0","system_id":"levelo_inurba_marseille","lat":43.292749,"lon":5.368402,"is_reserved":false,"is_disabled":false,"rental_uris":{"android":"levelo://app?vid=084c881d-7521-471b-9bdb-eb840d5748b0","ios":"levelo://app?vid=084c881d-7521-471b-9bdb-eb840d5748b0"},"vehicle_type_id":"4","last_reported":1692810241,"current_range_meters":26800,"station_id":"ce4bhbp2rcd13ifvqesg","pricing_plan_id":"free"},{"bike_id":"38fef587-7cc5-4800-b069-87b8f296a10a","system_id":"levelo_inurba_marseille","lat":43.293009,"lon":5.374584,"is_reserved":false,"is_disabled":false,"rental_uris":{"android":"levelo://app?vid=38fef587-7cc5-4800-b069-87b8f296a10a","ios":"levelo://app?vid=38fef587-7cc5-4800-b069-87b8f296a10a"},"vehicle_type_id":"4","last_reported":1692810241,"current_range_meters":31200,"station_id":"ce4bgi12rcd13ifvqb70","pricing_plan_id":"free"},{"bike_id":"0724f352-a262-45b7-9b71-9a09ff17d945","system_id":"levelo_inurba_marseille","lat":43.303002,"lon":5.392142,"is_reserved":false,"is_disabled":false,"rental_uris":{"android":"levelo://app?vid=0724f352-a262-45b7-9b71-9a09ff17d945","ios":"levelo://app?vid=0724f352-a262-45b7-9b71-9a09ff17d945"},"vehicle_type_id":"4","last_reported":1692810241,"current_range_meters":26400,"station_id":"ce4bgkh2rcd13ifvqbk0","pricing_plan_id":"free"},{"bike_id":"59d4a7cc-c4d8-47e1-a63f-2e26b5d209c3","system_id":"levelo_inurba_marseille","lat":43.2938,"lon":5.37847,"is_reserved":false,"is_disabled":false,"rental_uris":{"android":"levelo://app?vid=59d4a7cc-c4d8-47e1-a63f-2e26b5d209c3","ios":"levelo://app?vid=59d4a7cc-c4d8-47e1-a63f-2e26b5d209c3"},"vehicle_type_id":"4","last_reported":1692810241,"current_range_meters":30800,"station_id":"ce4bgjh2rcd13ifvqbf0","pricing_plan_id":"free"},{"bike_id":"d64ffc6d-c167-4d88-960d-f2c242b95a23","system_id":"levelo_inurba_marseille","lat":43.292311,"lon":5.360731,"is_reserved":false,"is_disabled":false,"rental_uris":{"android":"levelo://app?vid=d64ffc6d-c167-4d88-960d-f2c242b95a23","ios":"levelo://app?vid=d64ffc6d-c167-4d88-960d-f2c242b95a23"},"vehicle_type_id":"4","last_reported":1692810241,"current_range_meters":22400,"station_id":"ce4bhbh2rcd13ifvqeqg","pricing_plan_id":"free"},{"bike_id":"ea3bfede-b445-4fce-9c23-bea1b32eb2e6","system_id":"levelo_inurba_marseille","lat":43.298759,"lon":5.388753,"is_reserved":false,"is_disabled":false,"rental_uris":{"android":"levelo://app?vid=ea3bfede-b445-4fce-9c23-bea1b32eb2e6","ios":"levelo://app?vid=ea3bfede-b445-4fce-9c23-bea1b32eb2e6"},"vehicle_type_id":"4","last_reported":1692810241,"current_range_meters":18400,"station_id":"ce4bh392rcd13ifvqdl0","pricing_plan_id":"free"},{"bike_id":"2ac3f875-55f4-4f3f-b9e7-72e6a607385f","system_id":"levelo_inurba_marseille","lat":43.29139,"lon":5.36636,"is_reserved":false,"is_disabled":false,"rental_uris":{"android":"levelo://app?vid=2ac3f875-55f4-4f3f-b9e7-72e6a607385f","ios":"levelo://app?vid=2ac3f875-55f4-4f3f-b9e7-72e6a607385f"},"vehicle_type_id":"4","last_reported":1692810241,"current_range_meters":0,"station_id":"","pricing_plan_id":"free"},{"bike_id":"346f165c-eba3-44c4-9015-32258c98298b","system_id":"levelo_inurba_marseille","lat":43.29202,"lon":5.35855,"is_reserved":false,"is_disabled":false,"rental_uris":{"android":"levelo://app?vid=346f165c-eba3-44c4-9015-32258c98298b","ios":"levelo://app?vid=346f165c-eba3-44c4-9015-32258c98298b"},"vehicle_type_id":"4","last_reported":1692810241,"current_range_meters":0,"station_id":"","pricing_plan_id":"free"},{"bike_id":"99b9987e-908a-4260-a461-eaed7aed1285","system_id":"levelo_inurba_marseille","lat":43.29122,"lon":5.36341,"is_reserved":false,"is_disabled":false,"rental_uris":{"android":"levelo://app?vid=99b9987e-908a-4260-a461-eaed7aed1285","ios":"levelo://app?vid=99b9987e-908a-4260-a461-eaed7aed1285"},"vehicle_type_id":"4","last_reported":1692810241,"current_range_meters":31200,"station_id":"ce4bhc92rcd13ifvqetg","pricing_plan_id":"free"},{"bike_id":"6fad2a44-8a78-4dc8-baf6-8bacfc91953b","system_id":"levelo_inurba_marseille","lat":43.291956,"lon":5.358025,"is_reserved":false,"is_disabled":false,"rental_uris":{"android":"levelo://app?vid=6fad2a44-8a78-4dc8-baf6-8bacfc91953b","ios":"levelo://app?vid=6fad2a44-8a78-4dc8-baf6-8bacfc91953b"},"vehicle_type_id":"4","last_reported":1692810241,"current_range_meters":13200,"station_id":"ce4bhb12rcd13ifvqel0","pricing_plan_id":"free"},{"bike_id":"24c76979-d190-4d81-814b-7d3e758dccb8","system_id":"levelo_inurba_marseille","lat":43.29195,"lon":5.35799,"is_reserved":false,"is_disabled":false,"rental_uris":{"android":"levelo://app?vid=24c76979-d190-4d81-814b-7d3e758dccb8","ios":"levelo://app?vid=24c76979-d190-4d81-814b-7d3e758dccb8"},"vehicle_type_id":"4","last_reported":1692810241,"current_range_meters":17600,"station_id":"ce4bhb12rcd13ifvqel0","pricing_plan_id":"free"},{"bike_id":"4d41146a-fabf-4c07-9fca-007275a5119a","system_id":"levelo_inurba_marseille","lat":43.313303,"lon":5.396861,"is_reserved":false,"is_disabled":false,"rental_uris":{"android":"levelo://app?vid=4d41146a-fabf-4c07-9fca-007275a5119a","ios":"levelo://app?vid=4d41146a-fabf-4c07-9fca-007275a5119a"},"vehicle_type_id":"4","last_reported":1692810241,"current_range_meters":3600,"station_id":"ce4bgvp2rcd13ifvqcu0","pricing_plan_id":"free"},{"bike_id":"2289af19-6eb5-4def-953d-a6ebaeffdf77","system_id":"levelo_inurba_marseille","lat":43.31333,"lon":5.39694,"is_reserved":false,"is_disabled":false,"rental_uris":{"android":"levelo://app?vid=2289af19-6eb5-4def-953d-a6ebaeffdf77","ios":"levelo://app?vid=2289af19-6eb5-4def-953d-a6ebaeffdf77"},"vehicle_type_id":"4","last_reported":1692810241,"current_range_meters":4000,"station_id":"ce4bgvp2rcd13ifvqcu0","pricing_plan_id":"free"},{"bike_id":"91e82b71-612b-45ac-85e5-3b6588c321c1","system_id":"levelo_inurba_marseille","lat":43.2953,"lon":5.3854,"is_reserved":false,"is_disabled":false,"rental_uris":{"android":"levelo://app?vid=91e82b71-612b-45ac-85e5-3b6588c321c1","ios":"levelo://app?vid=91e82b71-612b-45ac-85e5-3b6588c321c1"},"vehicle_type_id":"4","last_reported":1692810241,"current_range_meters":6000,"station_id":"","pricing_plan_id":"free"},{"bike_id":"39b5b5cf-86ef-48ea-a176-58e554756417","system_id":"levelo_inurba_marseille","lat":43.302008,"lon":5.394694,"is_reserved":false,"is_disabled":false,"rental_uris":{"android":"levelo://app?vid=39b5b5cf-86ef-48ea-a176-58e554756417","ios":"levelo://app?vid=39b5b5cf-86ef-48ea-a176-58e554756417"},"vehicle_type_id":"4","last_reported":1692810241,"current_range_meters":31200,"station_id":"ce4bh0p2rcd13ifvqd70","pricing_plan_id":"free"},{"bike_id":"f4c6e5ae-3941-4d55-8837-975a8c6f7eb9","system_id":"levelo_inurba_marseille","lat":43.29529,"lon":5.385581,"is_reserved":false,"is_disabled":false,"rental_uris":{"android":"levelo://app?vid=f4c6e5ae-3941-4d55-8837-975a8c6f7eb9","ios":"levelo://app?vid=f4c6e5ae-3941-4d55-8837-975a8c6f7eb9"},"vehicle_type_id":"4","last_reported":1692810241,"current_range_meters":26800,"station_id":"ce4bgih2rcd13ifvqba0","pricing_plan_id":"free"},{"bike_id":"8242bb46-fc48-48ce-ac30-1a3ee571ba78","system_id":"levelo_inurba_marseille","lat":43.29089,"lon":5.35611,"is_reserved":false,"is_disabled":false,"rental_uris":{"android":"levelo://app?vid=8242bb46-fc48-48ce-ac30-1a3ee571ba78","ios":"levelo://app?vid=8242bb46-fc48-48ce-ac30-1a3ee571ba78"},"vehicle_type_id":"4","last_reported":1692810241,"current_range_meters":13200,"station_id":"","pricing_plan_id":"free"},{"bike_id":"be46a554-0cc5-4a95-96fe-378347bdbdaf","system_id":"levelo_inurba_marseille","lat":43.29416,"lon":5.38626,"is_reserved":false,"is_disabled":false,"rental_uris":{"android":"levelo://app?vid=be46a554-0cc5-4a95-96fe-378347bdbdaf","ios":"levelo://app?vid=be46a554-0cc5-4a95-96fe-378347bdbdaf"},"vehicle_type_id":"4","last_reported":1692810241,"current_range_meters":24400,"station_id":"ce4bh2h2rcd13ifvqdh0","pricing_plan_id":"free"},{"bike_id":"9780b4e9-e9eb-4cd3-9a1d-858c0bd52127","system_id":"levelo_inurba_marseille","lat":43.28924,"lon":5.36285,"is_reserved":false,"is_disabled":false,"rental_uris":{"android":"levelo://app?vid=9780b4e9-e9eb-4cd3-9a1d-858c0bd52127","ios":"levelo://app?vid=9780b4e9-e9eb-4cd3-9a1d-858c0bd52127"},"vehicle_type_id":"4","last_reported":1692810241,"current_range_meters":10800,"station_id":"","pricing_plan_id":"free"},{"bike_id":"2e81c2a6-fce3-421a-8f80-2140f5bf78b6","system_id":"levelo_inurba_marseille","lat":43.28923,"lon":5.36275,"is_reserved":false,"is_disabled":false,"rental_uris":{"android":"levelo://app?vid=2e81c2a6-fce3-421a-8f80-2140f5bf78b6","ios":"levelo://app?vid=2e81c2a6-fce3-421a-8f80-2140f5bf78b6"},"vehicle_type_id":"4","last_reported":1692810241,"current_range_meters":31200,"station_id":"","pricing_plan_id":"free"},{"bike_id":"89b4d088-e354-4da7-8612-7221116b800d","system_id":"levelo_inurba_marseille","lat":43.292644,"lon":5.384257,"is_reserved":false,"is_disabled":false,"rental_uris":{"android":"levelo://app?vid=89b4d088-e354-4da7-8612-7221116b800d","ios":"levelo://app?vid=89b4d088-e354-4da7-8612-7221116b800d"},"vehicle_type_id":"4","last_reported":1692810241,"current_range_meters":2800,"station_id":"ce4bh692rcd13ifvqea0","pricing_plan_id":"free"},{"bike_id":"a47e4c8c-27b0-41a1-b1ff-c70e5e5998df","system_id":"levelo_inurba_marseille","lat":43.2892,"lon":5.36261,"is_reserved":false,"is_disabled":false,"rental_uris":{"android":"levelo://app?vid=a47e4c8c-27b0-41a1-b1ff-c70e5e5998df","ios":"levelo://app?vid=a47e4c8c-27b0-41a1-b1ff-c70e5e5998df"},"vehicle_type_id":"4","last_reported":1692810241,"current_range_meters":20400,"station_id":"","pricing_plan_id":"free"},{"bike_id":"cde08171-d87e-45a5-a8d0-c519ab926fc6","system_id":"levelo_inurba_marseille","lat":43.33026,"lon":5.38923,"is_reserved":false,"is_disabled":false,"rental_uris":{"android":"levelo://app?vid=cde08171-d87e-45a5-a8d0-c519ab926fc6","ios":"levelo://app?vid=cde08171-d87e-45a5-a8d0-c519ab926fc6"},"vehicle_type_id":"4","last_reported":1692810241,"current_range_meters":1200,"station_id":"ce4bhr92rcd13ifvqhrg","pricing_plan_id":"free"},{"bike_id":"1beaa698-291c-49e4-ba74-5332211fe243","system_id":"levelo_inurba_marseille","lat":43.290104,"lon":5.356111,"is_reserved":false,"is_disabled":false,"rental_uris":{"android":"levelo://app?vid=1beaa698-291c-49e4-ba74-5332211fe243","ios":"levelo://app?vid=1beaa698-291c-49e4-ba74-5332211fe243"},"vehicle_type_id":"4","last_reported":1692810241,"current_range_meters":800,"station_id":"ce4bhb92rcd13ifvqen0","pricing_plan_id":"free"},{"bike_id":"7691d65d-d321-467f-86e8-b26ac6013c5b","system_id":"levelo_inurba_marseille","lat":43.33044,"lon":5.38916,"is_reserved":false,"is_disabled":false,"rental_uris":{"android":"levelo://app?vid=7691d65d-d321-467f-86e8-b26ac6013c5b","ios":"levelo://app?vid=7691d65d-d321-467f-86e8-b26ac6013c5b"},"vehicle_type_id":"4","last_reported":1692810241,"current_range_meters":23600,"station_id":"ce4bhr92rcd13ifvqhrg","pricing_plan_id":"free"},{"bike_id":"f56b3331-eed7-4757-a76c-e9fdbbeef5c7","system_id":"levelo_inurba_marseille","lat":43.290103,"lon":5.356114,"is_reserved":false,"is_disabled":false,"rental_uris":{"android":"levelo://app?vid=f56b3331-eed7-4757-a76c-e9fdbbeef5c7","ios":"levelo://app?vid=f56b3331-eed7-4757-a76c-e9fdbbeef5c7"},"vehicle_type_id":"4","last_reported":1692810241,"current_range_meters":12800,"station_id":"ce4bhb92rcd13ifvqen0","pricing_plan_id":"free"},{"bike_id":"ac423697-96a3-4bd9-ac5a-516edeb89101","system_id":"levelo_inurba_marseille","lat":43.28856,"lon":5.358371,"is_reserved":false,"is_disabled":false,"rental_uris":{"android":"levelo://app?vid=ac423697-96a3-4bd9-ac5a-516edeb89101","ios":"levelo://app?vid=ac423697-96a3-4bd9-ac5a-516edeb89101"},"vehicle_type_id":"4","last_reported":1692810241,"current_range_meters":6800,"station_id":"ce4bhb12rcd13ifvqem0","pricing_plan_id":"free"},{"bike_id":"7ce0b53d-bade-4cf2-a9dc-e0a6d9bb52a7","system_id":"levelo_inurba_marseille","lat":43.28856,"lon":5.358371,"is_reserved":false,"is_disabled":false,"rental_uris":{"android":"levelo://app?vid=7ce0b53d-bade-4cf2-a9dc-e0a6d9bb52a7","ios":"levelo://app?vid=7ce0b53d-bade-4cf2-a9dc-e0a6d9bb52a7"},"vehicle_type_id":"4","last_reported":1692810241,"current_range_meters":29600,"station_id":"ce4bhb12rcd13ifvqem0","pricing_plan_id":"free"},{"bike_id":"8064e2a2-9354-4d9a-9ad8-c1f167344d11","system_id":"levelo_inurba_marseille","lat":43.28856,"lon":5.358371,"is_reserved":false,"is_disabled":false,"rental_uris":{"android":"levelo://app?vid=8064e2a2-9354-4d9a-9ad8-c1f167344d11","ios":"levelo://app?vid=8064e2a2-9354-4d9a-9ad8-c1f167344d11"},"vehicle_type_id":"4","last_reported":1692810241,"current_range_meters":13200,"station_id":"ce4bhb12rcd13ifvqem0","pricing_plan_id":"free"},{"bike_id":"c4c74f50-56ef-485a-b76a-59d94d282d91","system_id":"levelo_inurba_marseille","lat":43.309371,"lon":5.401449,"is_reserved":false,"is_disabled":false,"rental_uris":{"android":"levelo://app?vid=c4c74f50-56ef-485a-b76a-59d94d282d91","ios":"levelo://app?vid=c4c74f50-56ef-485a-b76a-59d94d282d91"},"vehicle_type_id":"4","last_reported":1692810241,"current_range_meters":31200,"station_id":"ce4bgvp2rcd13ifvqct0","pricing_plan_id":"free"},{"bike_id":"f3528d51-a938-49f5-99d1-25c0522965f4","system_id":"levelo_inurba_marseille","lat":43.31275,"lon":5.40178,"is_reserved":false,"is_disabled":false,"rental_uris":{"android":"levelo://app?vid=f3528d51-a938-49f5-99d1-25c0522965f4","ios":"levelo://app?vid=f3528d51-a938-49f5-99d1-25c0522965f4"},"vehicle_type_id":"4","last_reported":1692810241,"current_range_meters":3200,"station_id":"ce4bh092rcd13ifvqd30","pricing_plan_id":"free"},{"bike_id":"6c3ea474-53b8-459c-add1-90bafeff98e1","system_id":"levelo_inurba_marseille","lat":43.302759,"lon":5.400793,"is_reserved":false,"is_disabled":false,"rental_uris":{"android":"levelo://app?vid=6c3ea474-53b8-459c-add1-90bafeff98e1","ios":"levelo://app?vid=6c3ea474-53b8-459c-add1-90bafeff98e1"},"vehicle_type_id":"4","last_reported":1692810241,"current_range_meters":23600,"station_id":"ce4bgvh2rcd13ifvqcs0","pricing_plan_id":"free"},{"bike_id":"4d6117b8-999f-496b-8dca-df920dd59820","system_id":"levelo_inurba_marseille","lat":43.3064,"lon":5.4009,"is_reserved":false,"is_disabled":false,"rental_uris":{"android":"levelo://app?vid=4d6117b8-999f-496b-8dca-df920dd59820","ios":"levelo://app?vid=4d6117b8-999f-496b-8dca-df920dd59820"},"vehicle_type_id":"4","last_reported":1692810241,"current_range_meters":13600,"station_id":"ce4bh112rcd13ifvqda0","pricing_plan_id":"free"},{"bike_id":"e5340a85-e7e1-475f-be6f-d19dec216c13","system_id":"levelo_inurba_marseille","lat":43.306412,"lon":5.401035,"is_reserved":false,"is_disabled":false,"rental_uris":{"android":"levelo://app?vid=e5340a85-e7e1-475f-be6f-d19dec216c13","ios":"levelo://app?vid=e5340a85-e7e1-475f-be6f-d19dec216c13"},"vehicle_type_id":"4","last_reported":1692810241,"current_range_meters":800,"station_id":"ce4bh112rcd13ifvqda0","pricing_plan_id":"free"},{"bike_id":"fb0db41e-62a1-448b-ab29-9e8df205c26d","system_id":"levelo_inurba_marseille","lat":43.33791,"lon":5.37421,"is_reserved":false,"is_disabled":false,"rental_uris":{"android":"levelo://app?vid=fb0db41e-62a1-448b-ab29-9e8df205c26d","ios":"levelo://app?vid=fb0db41e-62a1-448b-ab29-9e8df205c26d"},"vehicle_type_id":"4","last_reported":1692810241,"current_range_meters":24800,"station_id":"","pricing_plan_id":"free"},{"bike_id":"75199276-b705-4ad7-b6a9-49aeaa84628a","system_id":"levelo_inurba_marseille","lat":43.28672,"lon":5.36345,"is_reserved":false,"is_disabled":false,"rental_uris":{"android":"levelo://app?vid=75199276-b705-4ad7-b6a9-49aeaa84628a","ios":"levelo://app?vid=75199276-b705-4ad7-b6a9-49aeaa84628a"},"vehicle_type_id":"4","last_reported":1692810241,"current_range_meters":30000,"station_id":"ce4bhah2rcd13ifvqej0","pricing_plan_id":"free"},{"bike_id":"e8d6e669-5a3d-4734-882a-db041657b3a5","system_id":"levelo_inurba_marseille","lat":43.2987,"lon":5.39728,"is_reserved":false,"is_disabled":false,"rental_uris":{"android":"levelo://app?vid=e8d6e669-5a3d-4734-882a-db041657b3a5","ios":"levelo://app?vid=e8d6e669-5a3d-4734-882a-db041657b3a5"},"vehicle_type_id":"4","last_reported":1692810241,"current_range_meters":22000,"station_id":"","pricing_plan_id":"free"},{"bike_id":"e50bd456-e8ce-4bda-87aa-eba48dd2b4e4","system_id":"levelo_inurba_marseille","lat":43.295196,"lon":5.39397,"is_reserved":false,"is_disabled":false,"rental_uris":{"android":"levelo://app?vid=e50bd456-e8ce-4bda-87aa-eba48dd2b4e4","ios":"levelo://app?vid=e50bd456-e8ce-4bda-87aa-eba48dd2b4e4"},"vehicle_type_id":"4","last_reported":1692810241,"current_range_meters":0,"station_id":"ce4bh292rcd13ifvqdf0","pricing_plan_id":"free"},{"bike_id":"94bdcc02-c3f4-443a-87e1-9ce4ab57badb","system_id":"levelo_inurba_marseille","lat":43.29515,"lon":5.39396,"is_reserved":false,"is_disabled":false,"rental_uris":{"android":"levelo://app?vid=94bdcc02-c3f4-443a-87e1-9ce4ab57badb","ios":"levelo://app?vid=94bdcc02-c3f4-443a-87e1-9ce4ab57badb"},"vehicle_type_id":"4","last_reported":1692810241,"current_range_meters":18400,"station_id":"","pricing_plan_id":"free"},{"bike_id":"11c23f52-7244-4c49-ae7b-39b3c5e7ac06","system_id":"levelo_inurba_marseille","lat":43.290345,"lon":5.38646,"is_reserved":false,"is_disabled":false,"rental_uris":{"android":"levelo://app?vid=11c23f52-7244-4c49-ae7b-39b3c5e7ac06","ios":"levelo://app?vid=11c23f52-7244-4c49-ae7b-39b3c5e7ac06"},"vehicle_type_id":"4","last_reported":1692810241,"current_range_meters":30400,"station_id":"ce4bh4p2rcd13ifvqe0g","pricing_plan_id":"free"},{"bike_id":"5e2ed551-ab8e-41b3-8fb9-3706de05c0ff","system_id":"levelo_inurba_marseille","lat":43.302759,"lon":5.400793,"is_reserved":false,"is_disabled":false,"rental_uris":{"android":"levelo://app?vid=5e2ed551-ab8e-41b3-8fb9-3706de05c0ff","ios":"levelo://app?vid=5e2ed551-ab8e-41b3-8fb9-3706de05c0ff"},"vehicle_type_id":"4","last_reported":1692810241,"current_range_meters":400,"station_id":"ce4bgvh2rcd13ifvqcs0","pricing_plan_id":"free"},{"bike_id":"afd24f0c-8208-4552-8a6a-e595b9f9b53c","system_id":"levelo_inurba_marseille","lat":43.286039,"lon":5.370681,"is_reserved":false,"is_disabled":false,"rental_uris":{"android":"levelo://app?vid=afd24f0c-8208-4552-8a6a-e595b9f9b53c","ios":"levelo://app?vid=afd24f0c-8208-4552-8a6a-e595b9f9b53c"},"vehicle_type_id":"4","last_reported":1692810241,"current_range_meters":8000,"station_id":"ce4bht12rcd13ifvqi60","pricing_plan_id":"free"},{"bike_id":"a5e8233b-eb85-4e10-b680-01814cbf4388","system_id":"levelo_inurba_marseille","lat":43.287184,"lon":5.37937,"is_reserved":false,"is_disabled":false,"rental_uris":{"android":"levelo://app?vid=a5e8233b-eb85-4e10-b680-01814cbf4388","ios":"levelo://app?vid=a5e8233b-eb85-4e10-b680-01814cbf4388"},"vehicle_type_id":"4","last_reported":1692810241,"current_range_meters":0,"station_id":"ce4bh9p2rcd13ifvqec0","pricing_plan_id":"free"},{"bike_id":"7da9e437-1e79-4b5f-9ab0-65254ac17dd7","system_id":"levelo_inurba_marseille","lat":43.31646,"lon":5.40435,"is_reserved":false,"is_disabled":false,"rental_uris":{"android":"levelo://app?vid=7da9e437-1e79-4b5f-9ab0-65254ac17dd7","ios":"levelo://app?vid=7da9e437-1e79-4b5f-9ab0-65254ac17dd7"},"vehicle_type_id":"4","last_reported":1692810241,"current_range_meters":26800,"station_id":"ce4bh012rcd13ifvqd00","pricing_plan_id":"free"},{"bike_id":"37232ae8-c371-4c4a-987c-4df11e39b85d","system_id":"levelo_inurba_marseille","lat":43.291994,"lon":5.392907,"is_reserved":false,"is_disabled":false,"rental_uris":{"android":"levelo://app?vid=37232ae8-c371-4c4a-987c-4df11e39b85d","ios":"levelo://app?vid=37232ae8-c371-4c4a-987c-4df11e39b85d"},"vehicle_type_id":"4","last_reported":1692810241,"current_range_meters":12400,"station_id":"ce4bh192rcd13ifvqdd0","pricing_plan_id":"free"},{"bike_id":"28f805f1-6505-4043-beff-a2183ebe6a87","system_id":"levelo_inurba_marseille","lat":43.28622,"lon":5.35101,"is_reserved":false,"is_disabled":false,"rental_uris":{"android":"levelo://app?vid=28f805f1-6505-4043-beff-a2183ebe6a87","ios":"levelo://app?vid=28f805f1-6505-4043-beff-a2183ebe6a87"},"vehicle_type_id":"4","last_reported":1692810241,"current_range_meters":31200,"station_id":"ce4bhch2rcd13ifvqeug","pricing_plan_id":"free"},{"bike_id":"456f47f8-96c8-49c5-8851-6bae7746ab43","system_id":"levelo_inurba_marseille","lat":43.28618,"lon":5.35109,"is_reserved":false,"is_disabled":false,"rental_uris":{"android":"levelo://app?vid=456f47f8-96c8-49c5-8851-6bae7746ab43","ios":"levelo://app?vid=456f47f8-96c8-49c5-8851-6bae7746ab43"},"vehicle_type_id":"4","last_reported":1692810241,"current_range_meters":10800,"station_id":"ce4bhch2rcd13ifvqeug","pricing_plan_id":"free"},{"bike_id":"473b83e7-5ec1-48b4-b742-9ebb327161f4","system_id":"levelo_inurba_marseille","lat":43.28619,"lon":5.35103,"is_reserved":false,"is_disabled":false,"rental_uris":{"android":"levelo://app?vid=473b83e7-5ec1-48b4-b742-9ebb327161f4","ios":"levelo://app?vid=473b83e7-5ec1-48b4-b742-9ebb327161f4"},"vehicle_type_id":"4","last_reported":1692810241,"current_range_meters":31200,"station_id":"ce4bhch2rcd13ifvqeug","pricing_plan_id":"free"},{"bike_id":"15a47a55-79c4-4327-ba1b-c8b4848de501","system_id":"levelo_inurba_marseille","lat":43.28619,"lon":5.351,"is_reserved":false,"is_disabled":false,"rental_uris":{"android":"levelo://app?vid=15a47a55-79c4-4327-ba1b-c8b4848de501","ios":"levelo://app?vid=15a47a55-79c4-4327-ba1b-c8b4848de501"},"vehicle_type_id":"4","last_reported":1692810241,"current_range_meters":30000,"station_id":"ce4bhch2rcd13ifvqeug","pricing_plan_id":"free"},{"bike_id":"052f150c-d665-4b27-a9ae-2d25ada57dfc","system_id":"levelo_inurba_marseille","lat":43.28619,"lon":5.351,"is_reserved":false,"is_disabled":false,"rental_uris":{"android":"levelo://app?vid=052f150c-d665-4b27-a9ae-2d25ada57dfc","ios":"levelo://app?vid=052f150c-d665-4b27-a9ae-2d25ada57dfc"},"vehicle_type_id":"4","last_reported":1692810241,"current_range_meters":15200,"station_id":"ce4bhch2rcd13ifvqeug","pricing_plan_id":"free"},{"bike_id":"a3ed7390-1a18-4d4e-8f6c-4aa650d81b2a","system_id":"levelo_inurba_marseille","lat":43.28618,"lon":5.35103,"is_reserved":false,"is_disabled":false,"rental_uris":{"android":"levelo://app?vid=a3ed7390-1a18-4d4e-8f6c-4aa650d81b2a","ios":"levelo://app?vid=a3ed7390-1a18-4d4e-8f6c-4aa650d81b2a"},"vehicle_type_id":"4","last_reported":1692810241,"current_range_meters":27600,"station_id":"ce4bhch2rcd13ifvqeug","pricing_plan_id":"free"},{"bike_id":"342a2905-8dc1-45fe-8f4c-ec315385152c","system_id":"levelo_inurba_marseille","lat":43.28617,"lon":5.351,"is_reserved":false,"is_disabled":false,"rental_uris":{"android":"levelo://app?vid=342a2905-8dc1-45fe-8f4c-ec315385152c","ios":"levelo://app?vid=342a2905-8dc1-45fe-8f4c-ec315385152c"},"vehicle_type_id":"4","last_reported":1692810241,"current_range_meters":28400,"station_id":"ce4bhch2rcd13ifvqeug","pricing_plan_id":"free"},{"bike_id":"ad029d1a-656c-4d55-b4e4-01c7980d13ac","system_id":"levelo_inurba_marseille","lat":43.285856,"lon":5.350771,"is_reserved":false,"is_disabled":false,"rental_uris":{"android":"levelo://app?vid=ad029d1a-656c-4d55-b4e4-01c7980d13ac","ios":"levelo://app?vid=ad029d1a-656c-4d55-b4e4-01c7980d13ac"},"vehicle_type_id":"4","last_reported":1692810241,"current_range_meters":29600,"station_id":"ce4bhch2rcd13ifvqeug","pricing_plan_id":"free"},{"bike_id":"23b46c96-b11c-470d-9af8-72dd19b56c59","system_id":"levelo_inurba_marseille","lat":43.28615,"lon":5.35103,"is_reserved":false,"is_disabled":false,"rental_uris":{"android":"levelo://app?vid=23b46c96-b11c-470d-9af8-72dd19b56c59","ios":"levelo://app?vid=23b46c96-b11c-470d-9af8-72dd19b56c59"},"vehicle_type_id":"4","last_reported":1692810241,"current_range_meters":20000,"station_id":"ce4bhch2rcd13ifvqeug","pricing_plan_id":"free"},{"bike_id":"86413dc1-3de2-487d-ad7a-fb08f2add8a2","system_id":"levelo_inurba_marseille","lat":43.285856,"lon":5.350771,"is_reserved":false,"is_disabled":false,"rental_uris":{"android":"levelo://app?vid=86413dc1-3de2-487d-ad7a-fb08f2add8a2","ios":"levelo://app?vid=86413dc1-3de2-487d-ad7a-fb08f2add8a2"},"vehicle_type_id":"4","last_reported":1692810241,"current_range_meters":31200,"station_id":"ce4bhch2rcd13ifvqeug","pricing_plan_id":"free"},{"bike_id":"bfc3a2e6-ecd1-4655-9d75-0269367338f3","system_id":"levelo_inurba_marseille","lat":43.28615,"lon":5.35101,"is_reserved":false,"is_disabled":false,"rental_uris":{"android":"levelo://app?vid=bfc3a2e6-ecd1-4655-9d75-0269367338f3","ios":"levelo://app?vid=bfc3a2e6-ecd1-4655-9d75-0269367338f3"},"vehicle_type_id":"4","last_reported":1692810241,"current_range_meters":0,"station_id":"ce4bhch2rcd13ifvqeug","pricing_plan_id":"free"},{"bike_id":"e1c014ad-1ced-401c-86cc-468bf58d54c3","system_id":"levelo_inurba_marseille","lat":43.28614,"lon":5.35103,"is_reserved":false,"is_disabled":false,"rental_uris":{"android":"levelo://app?vid=e1c014ad-1ced-401c-86cc-468bf58d54c3","ios":"levelo://app?vid=e1c014ad-1ced-401c-86cc-468bf58d54c3"},"vehicle_type_id":"4","last_reported":1692810241,"current_range_meters":25200,"station_id":"ce4bhch2rcd13ifvqeug","pricing_plan_id":"free"},{"bike_id":"a21cec92-087a-453b-ae06-13fd239a31fc","system_id":"levelo_inurba_marseille","lat":43.28613,"lon":5.35106,"is_reserved":false,"is_disabled":false,"rental_uris":{"android":"levelo://app?vid=a21cec92-087a-453b-ae06-13fd239a31fc","ios":"levelo://app?vid=a21cec92-087a-453b-ae06-13fd239a31fc"},"vehicle_type_id":"4","last_reported":1692810241,"current_range_meters":8400,"station_id":"ce4bhch2rcd13ifvqeug","pricing_plan_id":"free"},{"bike_id":"4c6b8e56-7209-42d3-ab83-916583960921","system_id":"levelo_inurba_marseille","lat":43.28611,"lon":5.35106,"is_reserved":false,"is_disabled":false,"rental_uris":{"android":"levelo://app?vid=4c6b8e56-7209-42d3-ab83-916583960921","ios":"levelo://app?vid=4c6b8e56-7209-42d3-ab83-916583960921"},"vehicle_type_id":"4","last_reported":1692810241,"current_range_meters":31200,"station_id":"ce4bhch2rcd13ifvqeug","pricing_plan_id":"free"},{"bike_id":"3ad00b4f-8613-4a4e-86bf-0a89fd428159","system_id":"levelo_inurba_marseille","lat":43.28608,"lon":5.351,"is_reserved":false,"is_disabled":false,"rental_uris":{"android":"levelo://app?vid=3ad00b4f-8613-4a4e-86bf-0a89fd428159","ios":"levelo://app?vid=3ad00b4f-8613-4a4e-86bf-0a89fd428159"},"vehicle_type_id":"4","last_reported":1692810241,"current_range_meters":29200,"station_id":"ce4bhch2rcd13ifvqeug","pricing_plan_id":"free"},{"bike_id":"6b1902e2-ca09-4b63-9516-151f4d77c849","system_id":"levelo_inurba_marseille","lat":43.284166,"lon":5.375036,"is_reserved":false,"is_disabled":false,"rental_uris":{"android":"levelo://app?vid=6b1902e2-ca09-4b63-9516-151f4d77c849","ios":"levelo://app?vid=6b1902e2-ca09-4b63-9516-151f4d77c849"},"vehicle_type_id":"4","last_reported":1692810241,"current_range_meters":26800,"station_id":"","pricing_plan_id":"free"},{"bike_id":"2363d3b5-6c15-401a-a59c-ee80bd4af927","system_id":"levelo_inurba_marseille","lat":43.28415,"lon":5.37522,"is_reserved":false,"is_disabled":false,"rental_uris":{"android":"levelo://app?vid=2363d3b5-6c15-401a-a59c-ee80bd4af927","ios":"levelo://app?vid=2363d3b5-6c15-401a-a59c-ee80bd4af927"},"vehicle_type_id":"4","last_reported":1692810241,"current_range_meters":4800,"station_id":"ce4bh412rcd13ifvqds0","pricing_plan_id":"free"},{"bike_id":"839f8b06-0217-4a12-8b36-ae5384e48b8a","system_id":"levelo_inurba_marseille","lat":43.28374,"lon":5.3753,"is_reserved":false,"is_disabled":false,"rental_uris":{"android":"levelo://app?vid=839f8b06-0217-4a12-8b36-ae5384e48b8a","ios":"levelo://app?vid=839f8b06-0217-4a12-8b36-ae5384e48b8a"},"vehicle_type_id":"4","last_reported":1692810241,"current_range_meters":8000,"station_id":"ce4bh412rcd13ifvqds0","pricing_plan_id":"free"},{"bike_id":"e54ac8bf-03e6-4445-b501-5f2a8496318b","system_id":"levelo_inurba_marseille","lat":43.337168,"lon":5.391825,"is_reserved":false,"is_disabled":false,"rental_uris":{"android":"levelo://app?vid=e54ac8bf-03e6-4445-b501-5f2a8496318b","ios":"levelo://app?vid=e54ac8bf-03e6-4445-b501-5f2a8496318b"},"vehicle_type_id":"4","last_reported":1692810241,"current_range_meters":22000,"station_id":"ce4bhr92rcd13ifvqhsg","pricing_plan_id":"free"},{"bike_id":"73407d5d-ae91-461c-8582-bbf0e6e1ffea","system_id":"levelo_inurba_marseille","lat":43.33729,"lon":5.39182,"is_reserved":false,"is_disabled":false,"rental_uris":{"android":"levelo://app?vid=73407d5d-ae91-461c-8582-bbf0e6e1ffea","ios":"levelo://app?vid=73407d5d-ae91-461c-8582-bbf0e6e1ffea"},"vehicle_type_id":"4","last_reported":1692810241,"current_range_meters":0,"station_id":"ce4bhr92rcd13ifvqhsg","pricing_plan_id":"free"},{"bike_id":"81207e02-e329-4cea-9b6c-33ba9c0267d2","system_id":"levelo_inurba_marseille","lat":43.284787,"lon":5.384116,"is_reserved":false,"is_disabled":false,"rental_uris":{"android":"levelo://app?vid=81207e02-e329-4cea-9b6c-33ba9c0267d2","ios":"levelo://app?vid=81207e02-e329-4cea-9b6c-33ba9c0267d2"},"vehicle_type_id":"4","last_reported":1692810241,"current_range_meters":31200,"station_id":"ce4bh512rcd13ifvqe3g","pricing_plan_id":"free"},{"bike_id":"2ea73967-988f-4f1a-aa76-7f33a11c4098","system_id":"levelo_inurba_marseille","lat":43.30669,"lon":5.40869,"is_reserved":false,"is_disabled":false,"rental_uris":{"android":"levelo://app?vid=2ea73967-988f-4f1a-aa76-7f33a11c4098","ios":"levelo://app?vid=2ea73967-988f-4f1a-aa76-7f33a11c4098"},"vehicle_type_id":"4","last_reported":1692810241,"current_range_meters":13600,"station_id":"","pricing_plan_id":"free"},{"bike_id":"7a4261b7-4135-4c98-9e64-5ee1114b1a22","system_id":"levelo_inurba_marseille","lat":43.282744,"lon":5.350533,"is_reserved":false,"is_disabled":false,"rental_uris":{"android":"levelo://app?vid=7a4261b7-4135-4c98-9e64-5ee1114b1a22","ios":"levelo://app?vid=7a4261b7-4135-4c98-9e64-5ee1114b1a22"},"vehicle_type_id":"4","last_reported":1692810241,"current_range_meters":8800,"station_id":"ce4bhbp2rcd13ifvqerg","pricing_plan_id":"free"},{"bike_id":"116fc1fd-15dc-46c5-a1ce-1a36aa759ee1","system_id":"levelo_inurba_marseille","lat":43.28427,"lon":5.34981,"is_reserved":false,"is_disabled":false,"rental_uris":{"android":"levelo://app?vid=116fc1fd-15dc-46c5-a1ce-1a36aa759ee1","ios":"levelo://app?vid=116fc1fd-15dc-46c5-a1ce-1a36aa759ee1"},"vehicle_type_id":"4","last_reported":1692810241,"current_range_meters":18400,"station_id":"ce4bhbh2rcd13ifvqepg","pricing_plan_id":"free"},{"bike_id":"5f553181-8e14-4530-86b8-d46bb16f63e5","system_id":"levelo_inurba_marseille","lat":43.284219,"lon":5.3497,"is_reserved":false,"is_disabled":false,"rental_uris":{"android":"levelo://app?vid=5f553181-8e14-4530-86b8-d46bb16f63e5","ios":"levelo://app?vid=5f553181-8e14-4530-86b8-d46bb16f63e5"},"vehicle_type_id":"4","last_reported":1692810241,"current_range_meters":31600,"station_id":"ce4bhbh2rcd13ifvqepg","pricing_plan_id":"free"},{"bike_id":"45189842-95d3-49a6-a3fe-11399deed280","system_id":"levelo_inurba_marseille","lat":43.28423,"lon":5.34993,"is_reserved":false,"is_disabled":false,"rental_uris":{"android":"levelo://app?vid=45189842-95d3-49a6-a3fe-11399deed280","ios":"levelo://app?vid=45189842-95d3-49a6-a3fe-11399deed280"},"vehicle_type_id":"4","last_reported":1692810241,"current_range_meters":25600,"station_id":"ce4bhbh2rcd13ifvqepg","pricing_plan_id":"free"},{"bike_id":"145b6026-3106-43ea-880b-90dbaa7ff01a","system_id":"levelo_inurba_marseille","lat":43.28425,"lon":5.34984,"is_reserved":false,"is_disabled":false,"rental_uris":{"android":"levelo://app?vid=145b6026-3106-43ea-880b-90dbaa7ff01a","ios":"levelo://app?vid=145b6026-3106-43ea-880b-90dbaa7ff01a"},"vehicle_type_id":"4","last_reported":1692810241,"current_range_meters":30800,"station_id":"ce4bhbh2rcd13ifvqepg","pricing_plan_id":"free"},{"bike_id":"469e7020-7cc6-40c3-90bb-6cc1d543c163","system_id":"levelo_inurba_marseille","lat":43.28423,"lon":5.34989,"is_reserved":false,"is_disabled":false,"rental_uris":{"android":"levelo://app?vid=469e7020-7cc6-40c3-90bb-6cc1d543c163","ios":"levelo://app?vid=469e7020-7cc6-40c3-90bb-6cc1d543c163"},"vehicle_type_id":"4","last_reported":1692810241,"current_range_meters":31200,"station_id":"ce4bhbh2rcd13ifvqepg","pricing_plan_id":"free"},{"bike_id":"a2f7c480-b9cf-47c9-82e6-dd3eeab212a4","system_id":"levelo_inurba_marseille","lat":43.28425,"lon":5.3498,"is_reserved":false,"is_disabled":false,"rental_uris":{"android":"levelo://app?vid=a2f7c480-b9cf-47c9-82e6-dd3eeab212a4","ios":"levelo://app?vid=a2f7c480-b9cf-47c9-82e6-dd3eeab212a4"},"vehicle_type_id":"4","last_reported":1692810241,"current_range_meters":30800,"station_id":"ce4bhbh2rcd13ifvqepg","pricing_plan_id":"free"},{"bike_id":"b0efa0e7-7c7d-456c-9e71-707671aba0da","system_id":"levelo_inurba_marseille","lat":43.28423,"lon":5.34981,"is_reserved":false,"is_disabled":false,"rental_uris":{"android":"levelo://app?vid=b0efa0e7-7c7d-456c-9e71-707671aba0da","ios":"levelo://app?vid=b0efa0e7-7c7d-456c-9e71-707671aba0da"},"vehicle_type_id":"4","last_reported":1692810241,"current_range_meters":28800,"station_id":"ce4bhbh2rcd13ifvqepg","pricing_plan_id":"free"},{"bike_id":"9ee7f9e3-b0b5-453e-98c7-8c6980418bdd","system_id":"levelo_inurba_marseille","lat":43.28423,"lon":5.34977,"is_reserved":false,"is_disabled":false,"rental_uris":{"android":"levelo://app?vid=9ee7f9e3-b0b5-453e-98c7-8c6980418bdd","ios":"levelo://app?vid=9ee7f9e3-b0b5-453e-98c7-8c6980418bdd"},"vehicle_type_id":"4","last_reported":1692810241,"current_range_meters":29200,"station_id":"ce4bhbh2rcd13ifvqepg","pricing_plan_id":"free"},{"bike_id":"d74e8d7d-cfff-44e1-8625-06cd963a3a7c","system_id":"levelo_inurba_marseille","lat":43.2842,"lon":5.34985,"is_reserved":false,"is_disabled":false,"rental_uris":{"android":"levelo://app?vid=d74e8d7d-cfff-44e1-8625-06cd963a3a7c","ios":"levelo://app?vid=d74e8d7d-cfff-44e1-8625-06cd963a3a7c"},"vehicle_type_id":"4","last_reported":1692810241,"current_range_meters":31200,"station_id":"ce4bhbh2rcd13ifvqepg","pricing_plan_id":"free"},{"bike_id":"1f21480a-1585-4a21-9e20-8904d3a96816","system_id":"levelo_inurba_marseille","lat":43.28417,"lon":5.34989,"is_reserved":false,"is_disabled":false,"rental_uris":{"android":"levelo://app?vid=1f21480a-1585-4a21-9e20-8904d3a96816","ios":"levelo://app?vid=1f21480a-1585-4a21-9e20-8904d3a96816"},"vehicle_type_id":"4","last_reported":1692810241,"current_range_meters":30000,"station_id":"ce4bhbh2rcd13ifvqepg","pricing_plan_id":"free"},{"bike_id":"eca6dfff-3cca-4e84-abfa-32bba78652d1","system_id":"levelo_inurba_marseille","lat":43.28416,"lon":5.34992,"is_reserved":false,"is_disabled":false,"rental_uris":{"android":"levelo://app?vid=eca6dfff-3cca-4e84-abfa-32bba78652d1","ios":"levelo://app?vid=eca6dfff-3cca-4e84-abfa-32bba78652d1"},"vehicle_type_id":"4","last_reported":1692810241,"current_range_meters":28000,"station_id":"ce4bhbh2rcd13ifvqepg","pricing_plan_id":"free"},{"bike_id":"44ce19a8-2e84-4d25-b8b7-6125418a4e83","system_id":"levelo_inurba_marseille","lat":43.28419,"lon":5.34978,"is_reserved":false,"is_disabled":false,"rental_uris":{"android":"levelo://app?vid=44ce19a8-2e84-4d25-b8b7-6125418a4e83","ios":"levelo://app?vid=44ce19a8-2e84-4d25-b8b7-6125418a4e83"},"vehicle_type_id":"4","last_reported":1692810241,"current_range_meters":3200,"station_id":"ce4bhbh2rcd13ifvqepg","pricing_plan_id":"free"},{"bike_id":"2d9f6ed3-4189-40a2-a340-4a848dd1a715","system_id":"levelo_inurba_marseille","lat":43.284217,"lon":5.349697,"is_reserved":false,"is_disabled":false,"rental_uris":{"android":"levelo://app?vid=2d9f6ed3-4189-40a2-a340-4a848dd1a715","ios":"levelo://app?vid=2d9f6ed3-4189-40a2-a340-4a848dd1a715"},"vehicle_type_id":"4","last_reported":1692810241,"current_range_meters":18800,"station_id":"ce4bhbh2rcd13ifvqepg","pricing_plan_id":"free"},{"bike_id":"be2ee17d-26a0-4e95-96c9-ae3b9943fc44","system_id":"levelo_inurba_marseille","lat":43.28418,"lon":5.34973,"is_reserved":false,"is_disabled":false,"rental_uris":{"android":"levelo://app?vid=be2ee17d-26a0-4e95-96c9-ae3b9943fc44","ios":"levelo://app?vid=be2ee17d-26a0-4e95-96c9-ae3b9943fc44"},"vehicle_type_id":"4","last_reported":1692810241,"current_range_meters":2800,"station_id":"ce4bhbh2rcd13ifvqepg","pricing_plan_id":"free"},{"bike_id":"1eaa48f6-cf92-49bd-8476-e1f74d6f25ff","system_id":"levelo_inurba_marseille","lat":43.28416,"lon":5.34973,"is_reserved":false,"is_disabled":false,"rental_uris":{"android":"levelo://app?vid=1eaa48f6-cf92-49bd-8476-e1f74d6f25ff","ios":"levelo://app?vid=1eaa48f6-cf92-49bd-8476-e1f74d6f25ff"},"vehicle_type_id":"4","last_reported":1692810241,"current_range_meters":11200,"station_id":"ce4bhbh2rcd13ifvqepg","pricing_plan_id":"free"},{"bike_id":"e8012816-b255-4f8b-ab38-da475ec12187","system_id":"levelo_inurba_marseille","lat":43.28326,"lon":5.38107,"is_reserved":false,"is_disabled":false,"rental_uris":{"android":"levelo://app?vid=e8012816-b255-4f8b-ab38-da475ec12187","ios":"levelo://app?vid=e8012816-b255-4f8b-ab38-da475ec12187"},"vehicle_type_id":"4","last_reported":1692810241,"current_range_meters":2800,"station_id":"","pricing_plan_id":"free"},{"bike_id":"f50aca5f-cf5b-4020-925f-826a2e34874f","system_id":"levelo_inurba_marseille","lat":43.289363,"lon":5.396322,"is_reserved":false,"is_disabled":false,"rental_uris":{"android":"levelo://app?vid=f50aca5f-cf5b-4020-925f-826a2e34874f","ios":"levelo://app?vid=f50aca5f-cf5b-4020-925f-826a2e34874f"},"vehicle_type_id":"4","last_reported":1692810241,"current_range_meters":31200,"station_id":"ce4bh3h2rcd13ifvqdn0","pricing_plan_id":"free"},{"bike_id":"79ae07f7-3d9b-456b-927e-8e880eafedba","system_id":"levelo_inurba_marseille","lat":43.32572,"lon":5.40673,"is_reserved":false,"is_disabled":false,"rental_uris":{"android":"levelo://app?vid=79ae07f7-3d9b-456b-927e-8e880eafedba","ios":"levelo://app?vid=79ae07f7-3d9b-456b-927e-8e880eafedba"},"vehicle_type_id":"4","last_reported":1692810241,"current_range_meters":800,"station_id":"","pricing_plan_id":"free"},{"bike_id":"88940920-727e-47f8-bee6-24feedff1167","system_id":"levelo_inurba_marseille","lat":43.282754,"lon":5.350519,"is_reserved":false,"is_disabled":false,"rental_uris":{"android":"levelo://app?vid=88940920-727e-47f8-bee6-24feedff1167","ios":"levelo://app?vid=88940920-727e-47f8-bee6-24feedff1167"},"vehicle_type_id":"4","last_reported":1692810241,"current_range_meters":30000,"station_id":"ce4bhbp2rcd13ifvqerg","pricing_plan_id":"free"},{"bike_id":"73982735-15b2-4292-b0d2-30ca9cb18516","system_id":"levelo_inurba_marseille","lat":43.282754,"lon":5.350519,"is_reserved":false,"is_disabled":false,"rental_uris":{"android":"levelo://app?vid=73982735-15b2-4292-b0d2-30ca9cb18516","ios":"levelo://app?vid=73982735-15b2-4292-b0d2-30ca9cb18516"},"vehicle_type_id":"4","last_reported":1692810241,"current_range_meters":13200,"station_id":"ce4bhbp2rcd13ifvqerg","pricing_plan_id":"free"},{"bike_id":"56ae6326-3b8e-4b54-bf2f-68db53fe6a93","system_id":"levelo_inurba_marseille","lat":43.28266,"lon":5.35068,"is_reserved":false,"is_disabled":false,"rental_uris":{"android":"levelo://app?vid=56ae6326-3b8e-4b54-bf2f-68db53fe6a93","ios":"levelo://app?vid=56ae6326-3b8e-4b54-bf2f-68db53fe6a93"},"vehicle_type_id":"4","last_reported":1692810241,"current_range_meters":31200,"station_id":"ce4bhbp2rcd13ifvqerg","pricing_plan_id":"free"},{"bike_id":"3638a3c3-2e01-40e5-b38c-172daf4a79e9","system_id":"levelo_inurba_marseille","lat":43.28267,"lon":5.35059,"is_reserved":false,"is_disabled":false,"rental_uris":{"android":"levelo://app?vid=3638a3c3-2e01-40e5-b38c-172daf4a79e9","ios":"levelo://app?vid=3638a3c3-2e01-40e5-b38c-172daf4a79e9"},"vehicle_type_id":"4","last_reported":1692810241,"current_range_meters":0,"station_id":"ce4bhbp2rcd13ifvqerg","pricing_plan_id":"free"},{"bike_id":"366e24ca-0c2e-4b1c-8075-fdec7078acb7","system_id":"levelo_inurba_marseille","lat":43.282744,"lon":5.350533,"is_reserved":false,"is_disabled":false,"rental_uris":{"android":"levelo://app?vid=366e24ca-0c2e-4b1c-8075-fdec7078acb7","ios":"levelo://app?vid=366e24ca-0c2e-4b1c-8075-fdec7078acb7"},"vehicle_type_id":"4","last_reported":1692810241,"current_range_meters":4400,"station_id":"ce4bhbp2rcd13ifvqerg","pricing_plan_id":"free"},{"bike_id":"9c481e60-a580-4700-881c-2f26ad133f65","system_id":"levelo_inurba_marseille","lat":43.28263,"lon":5.35056,"is_reserved":false,"is_disabled":false,"rental_uris":{"android":"levelo://app?vid=9c481e60-a580-4700-881c-2f26ad133f65","ios":"levelo://app?vid=9c481e60-a580-4700-881c-2f26ad133f65"},"vehicle_type_id":"4","last_reported":1692810241,"current_range_meters":16400,"station_id":"ce4bhbp2rcd13ifvqerg","pricing_plan_id":"free"},{"bike_id":"9f46cfde-4f76-4076-bade-5765c2d3d473","system_id":"levelo_inurba_marseille","lat":43.28039,"lon":5.369297,"is_reserved":false,"is_disabled":false,"rental_uris":{"android":"levelo://app?vid=9f46cfde-4f76-4076-bade-5765c2d3d473","ios":"levelo://app?vid=9f46cfde-4f76-4076-bade-5765c2d3d473"},"vehicle_type_id":"4","last_reported":1692810241,"current_range_meters":31200,"station_id":"ce4bha12rcd13ifvqef0","pricing_plan_id":"free"},{"bike_id":"5328b331-a439-40f3-8f54-0e6f57983ded","system_id":"levelo_inurba_marseille","lat":43.28102,"lon":5.37834,"is_reserved":false,"is_disabled":false,"rental_uris":{"android":"levelo://app?vid=5328b331-a439-40f3-8f54-0e6f57983ded","ios":"levelo://app?vid=5328b331-a439-40f3-8f54-0e6f57983ded"},"vehicle_type_id":"4","last_reported":1692810241,"current_range_meters":21600,"station_id":"ce4bha12rcd13ifvqee0","pricing_plan_id":"free"},{"bike_id":"8eaf47f6-dfbd-475c-a3d1-11d7ac30afd1","system_id":"levelo_inurba_marseille","lat":43.28101,"lon":5.37836,"is_reserved":false,"is_disabled":false,"rental_uris":{"android":"levelo://app?vid=8eaf47f6-dfbd-475c-a3d1-11d7ac30afd1","ios":"levelo://app?vid=8eaf47f6-dfbd-475c-a3d1-11d7ac30afd1"},"vehicle_type_id":"4","last_reported":1692810241,"current_range_meters":8800,"station_id":"ce4bha12rcd13ifvqee0","pricing_plan_id":"free"},{"bike_id":"ac972da7-1a3a-4aa3-bf37-1beb75d32b7a","system_id":"levelo_inurba_marseille","lat":43.28272,"lon":5.34872,"is_reserved":false,"is_disabled":false,"rental_uris":{"android":"levelo://app?vid=ac972da7-1a3a-4aa3-bf37-1beb75d32b7a","ios":"levelo://app?vid=ac972da7-1a3a-4aa3-bf37-1beb75d32b7a"},"vehicle_type_id":"4","last_reported":1692810241,"current_range_meters":22800,"station_id":"","pricing_plan_id":"free"},{"bike_id":"7b514a04-4442-46b2-9eb6-05565bafc046","system_id":"levelo_inurba_marseille","lat":43.28125,"lon":5.35166,"is_reserved":false,"is_disabled":false,"rental_uris":{"android":"levelo://app?vid=7b514a04-4442-46b2-9eb6-05565bafc046","ios":"levelo://app?vid=7b514a04-4442-46b2-9eb6-05565bafc046"},"vehicle_type_id":"4","last_reported":1692810241,"current_range_meters":31200,"station_id":"","pricing_plan_id":"free"},{"bike_id":"90cd8e7c-519a-4c55-800d-2ef07960a36c","system_id":"levelo_inurba_marseille","lat":43.284462,"lon":5.392121,"is_reserved":false,"is_disabled":false,"rental_uris":{"android":"levelo://app?vid=90cd8e7c-519a-4c55-800d-2ef07960a36c","ios":"levelo://app?vid=90cd8e7c-519a-4c55-800d-2ef07960a36c"},"vehicle_type_id":"4","last_reported":1692810241,"current_range_meters":16000,"station_id":"ce4bhoh2rcd13ifvqh5g","pricing_plan_id":"free"},{"bike_id":"657b5d1c-73bf-48f3-8053-bc9187453602","system_id":"levelo_inurba_marseille","lat":43.279087,"lon":5.380114,"is_reserved":false,"is_disabled":false,"rental_uris":{"android":"levelo://app?vid=657b5d1c-73bf-48f3-8053-bc9187453602","ios":"levelo://app?vid=657b5d1c-73bf-48f3-8053-bc9187453602"},"vehicle_type_id":"4","last_reported":1692810241,"current_range_meters":19600,"station_id":"ce4bhf92rcd13ifvqf50","pricing_plan_id":"free"},{"bike_id":"9fa915ba-ab45-477f-9d4d-e9cceaf0429f","system_id":"levelo_inurba_marseille","lat":43.279087,"lon":5.380114,"is_reserved":false,"is_disabled":false,"rental_uris":{"android":"levelo://app?vid=9fa915ba-ab45-477f-9d4d-e9cceaf0429f","ios":"levelo://app?vid=9fa915ba-ab45-477f-9d4d-e9cceaf0429f"},"vehicle_type_id":"4","last_reported":1692810241,"current_range_meters":7600,"station_id":"ce4bhf92rcd13ifvqf50","pricing_plan_id":"free"},{"bike_id":"e282bee9-fb22-4089-8027-c306fe4caeb7","system_id":"levelo_inurba_marseille","lat":43.320045,"lon":5.415048,"is_reserved":false,"is_disabled":false,"rental_uris":{"android":"levelo://app?vid=e282bee9-fb22-4089-8027-c306fe4caeb7","ios":"levelo://app?vid=e282bee9-fb22-4089-8027-c306fe4caeb7"},"vehicle_type_id":"4","last_reported":1692810241,"current_range_meters":15200,"station_id":"ce4bhq92rcd13ifvqhkg","pricing_plan_id":"free"},{"bike_id":"b6c8fc88-61ab-4e23-b0b7-8f9f0c8bf683","system_id":"levelo_inurba_marseille","lat":43.320045,"lon":5.415046,"is_reserved":false,"is_disabled":false,"rental_uris":{"android":"levelo://app?vid=b6c8fc88-61ab-4e23-b0b7-8f9f0c8bf683","ios":"levelo://app?vid=b6c8fc88-61ab-4e23-b0b7-8f9f0c8bf683"},"vehicle_type_id":"4","last_reported":1692810241,"current_range_meters":13200,"station_id":"ce4bhq92rcd13ifvqhkg","pricing_plan_id":"free"},{"bike_id":"1f5e3677-0282-4548-848b-20a341456899","system_id":"levelo_inurba_marseille","lat":43.32047,"lon":5.41542,"is_reserved":false,"is_disabled":false,"rental_uris":{"android":"levelo://app?vid=1f5e3677-0282-4548-848b-20a341456899","ios":"levelo://app?vid=1f5e3677-0282-4548-848b-20a341456899"},"vehicle_type_id":"4","last_reported":1692810241,"current_range_meters":14800,"station_id":"ce4bhq92rcd13ifvqhkg","pricing_plan_id":"free"},{"bike_id":"a0a0fc11-0993-4b38-9635-10fee00c1b23","system_id":"levelo_inurba_marseille","lat":43.320045,"lon":5.415046,"is_reserved":false,"is_disabled":false,"rental_uris":{"android":"levelo://app?vid=a0a0fc11-0993-4b38-9635-10fee00c1b23","ios":"levelo://app?vid=a0a0fc11-0993-4b38-9635-10fee00c1b23"},"vehicle_type_id":"4","last_reported":1692810241,"current_range_meters":31600,"station_id":"ce4bhq92rcd13ifvqhkg","pricing_plan_id":"free"},{"bike_id":"059a4e39-2819-4197-9694-04131dddb4b4","system_id":"levelo_inurba_marseille","lat":43.320045,"lon":5.415048,"is_reserved":false,"is_disabled":false,"rental_uris":{"android":"levelo://app?vid=059a4e39-2819-4197-9694-04131dddb4b4","ios":"levelo://app?vid=059a4e39-2819-4197-9694-04131dddb4b4"},"vehicle_type_id":"4","last_reported":1692810241,"current_range_meters":26400,"station_id":"ce4bhq92rcd13ifvqhkg","pricing_plan_id":"free"},{"bike_id":"4fd1dd7c-6da4-4214-8083-3ae983f17297","system_id":"levelo_inurba_marseille","lat":43.320045,"lon":5.415048,"is_reserved":false,"is_disabled":false,"rental_uris":{"android":"levelo://app?vid=4fd1dd7c-6da4-4214-8083-3ae983f17297","ios":"levelo://app?vid=4fd1dd7c-6da4-4214-8083-3ae983f17297"},"vehicle_type_id":"4","last_reported":1692810241,"current_range_meters":9600,"station_id":"ce4bhq92rcd13ifvqhkg","pricing_plan_id":"free"},{"bike_id":"e85807de-5e0e-463d-a9f0-c8a8f6a61d70","system_id":"levelo_inurba_marseille","lat":43.320045,"lon":5.415048,"is_reserved":false,"is_disabled":false,"rental_uris":{"android":"levelo://app?vid=e85807de-5e0e-463d-a9f0-c8a8f6a61d70","ios":"levelo://app?vid=e85807de-5e0e-463d-a9f0-c8a8f6a61d70"},"vehicle_type_id":"4","last_reported":1692810241,"current_range_meters":18400,"station_id":"ce4bhq92rcd13ifvqhkg","pricing_plan_id":"free"},{"bike_id":"4b126a55-abe4-44b7-8e34-6d2a05d3687d","system_id":"levelo_inurba_marseille","lat":43.320045,"lon":5.415048,"is_reserved":false,"is_disabled":false,"rental_uris":{"android":"levelo://app?vid=4b126a55-abe4-44b7-8e34-6d2a05d3687d","ios":"levelo://app?vid=4b126a55-abe4-44b7-8e34-6d2a05d3687d"},"vehicle_type_id":"4","last_reported":1692810241,"current_range_meters":26400,"station_id":"ce4bhq92rcd13ifvqhkg","pricing_plan_id":"free"},{"bike_id":"c327718a-8fe6-4791-a349-aba0f8f94e82","system_id":"levelo_inurba_marseille","lat":43.279742,"lon":5.38744,"is_reserved":false,"is_disabled":false,"rental_uris":{"android":"levelo://app?vid=c327718a-8fe6-4791-a349-aba0f8f94e82","ios":"levelo://app?vid=c327718a-8fe6-4791-a349-aba0f8f94e82"},"vehicle_type_id":"4","last_reported":1692810241,"current_range_meters":25600,"station_id":"ce4bhg12rcd13ifvqf80","pricing_plan_id":"free"},{"bike_id":"45c38ac2-099d-44b2-a973-f8411dc0591c","system_id":"levelo_inurba_marseille","lat":43.320045,"lon":5.415048,"is_reserved":false,"is_disabled":false,"rental_uris":{"android":"levelo://app?vid=45c38ac2-099d-44b2-a973-f8411dc0591c","ios":"levelo://app?vid=45c38ac2-099d-44b2-a973-f8411dc0591c"},"vehicle_type_id":"4","last_reported":1692810241,"current_range_meters":30800,"station_id":"ce4bhq92rcd13ifvqhkg","pricing_plan_id":"free"},{"bike_id":"35f67a6c-ea14-4757-8b08-9ca870c214d4","system_id":"levelo_inurba_marseille","lat":43.320045,"lon":5.415046,"is_reserved":false,"is_disabled":false,"rental_uris":{"android":"levelo://app?vid=35f67a6c-ea14-4757-8b08-9ca870c214d4","ios":"levelo://app?vid=35f67a6c-ea14-4757-8b08-9ca870c214d4"},"vehicle_type_id":"4","last_reported":1692810241,"current_range_meters":32000,"station_id":"ce4bhq92rcd13ifvqhkg","pricing_plan_id":"free"},{"bike_id":"4753502f-3868-4b19-9875-d3e533b02670","system_id":"levelo_inurba_marseille","lat":43.320045,"lon":5.415048,"is_reserved":false,"is_disabled":false,"rental_uris":{"android":"levelo://app?vid=4753502f-3868-4b19-9875-d3e533b02670","ios":"levelo://app?vid=4753502f-3868-4b19-9875-d3e533b02670"},"vehicle_type_id":"4","last_reported":1692810241,"current_range_meters":31600,"station_id":"ce4bhq92rcd13ifvqhkg","pricing_plan_id":"free"},{"bike_id":"045850f6-c2c8-4cdc-a661-c08d43503440","system_id":"levelo_inurba_marseille","lat":43.27625,"lon":5.36108,"is_reserved":false,"is_disabled":false,"rental_uris":{"android":"levelo://app?vid=045850f6-c2c8-4cdc-a661-c08d43503440","ios":"levelo://app?vid=045850f6-c2c8-4cdc-a661-c08d43503440"},"vehicle_type_id":"4","last_reported":1692810241,"current_range_meters":31200,"station_id":"ce4bgj92rcd13ifvqbe0","pricing_plan_id":"free"},{"bike_id":"d32561c1-90e2-4403-a729-f653c5cffad5","system_id":"levelo_inurba_marseille","lat":43.27622,"lon":5.3611,"is_reserved":false,"is_disabled":false,"rental_uris":{"android":"levelo://app?vid=d32561c1-90e2-4403-a729-f653c5cffad5","ios":"levelo://app?vid=d32561c1-90e2-4403-a729-f653c5cffad5"},"vehicle_type_id":"4","last_reported":1692810241,"current_range_meters":22400,"station_id":"ce4bgj92rcd13ifvqbe0","pricing_plan_id":"free"},{"bike_id":"4627597a-93a9-44c4-883a-d663f14cd280","system_id":"levelo_inurba_marseille","lat":43.27621,"lon":5.36105,"is_reserved":false,"is_disabled":false,"rental_uris":{"android":"levelo://app?vid=4627597a-93a9-44c4-883a-d663f14cd280","ios":"levelo://app?vid=4627597a-93a9-44c4-883a-d663f14cd280"},"vehicle_type_id":"4","last_reported":1692810241,"current_range_meters":22800,"station_id":"ce4bgj92rcd13ifvqbe0","pricing_plan_id":"free"},{"bike_id":"583332fd-3e9f-4dd2-b94b-9678881493cf","system_id":"levelo_inurba_marseille","lat":43.32553,"lon":5.41433,"is_reserved":false,"is_disabled":false,"rental_uris":{"android":"levelo://app?vid=583332fd-3e9f-4dd2-b94b-9678881493cf","ios":"levelo://app?vid=583332fd-3e9f-4dd2-b94b-9678881493cf"},"vehicle_type_id":"4","last_reported":1692810241,"current_range_meters":21600,"station_id":"ce4bhq12rcd13ifvqhhg","pricing_plan_id":"free"},{"bike_id":"91bcd023-ed5f-4c9b-9a3e-0ddc21f39e52","system_id":"levelo_inurba_marseille","lat":43.32544,"lon":5.41439,"is_reserved":false,"is_disabled":false,"rental_uris":{"android":"levelo://app?vid=91bcd023-ed5f-4c9b-9a3e-0ddc21f39e52","ios":"levelo://app?vid=91bcd023-ed5f-4c9b-9a3e-0ddc21f39e52"},"vehicle_type_id":"4","last_reported":1692810241,"current_range_meters":30000,"station_id":"ce4bhq12rcd13ifvqhhg","pricing_plan_id":"free"},{"bike_id":"87c71637-450f-465c-8daf-f2a19c970f88","system_id":"levelo_inurba_marseille","lat":43.276189,"lon":5.361054,"is_reserved":false,"is_disabled":false,"rental_uris":{"android":"levelo://app?vid=87c71637-450f-465c-8daf-f2a19c970f88","ios":"levelo://app?vid=87c71637-450f-465c-8daf-f2a19c970f88"},"vehicle_type_id":"4","last_reported":1692810241,"current_range_meters":10000,"station_id":"ce4bgj92rcd13ifvqbe0","pricing_plan_id":"free"},{"bike_id":"4ed1b5f1-f229-4b98-8a7d-0a6b7a866def","system_id":"levelo_inurba_marseille","lat":43.282744,"lon":5.350533,"is_reserved":false,"is_disabled":false,"rental_uris":{"android":"levelo://app?vid=4ed1b5f1-f229-4b98-8a7d-0a6b7a866def","ios":"levelo://app?vid=4ed1b5f1-f229-4b98-8a7d-0a6b7a866def"},"vehicle_type_id":"4","last_reported":1692810241,"current_range_meters":14400,"station_id":"ce4bhbp2rcd13ifvqerg","pricing_plan_id":"free"},{"bike_id":"f513f3b9-8a78-403c-a285-7208e64eef9c","system_id":"levelo_inurba_marseille","lat":43.280784,"lon":5.396622,"is_reserved":false,"is_disabled":false,"rental_uris":{"android":"levelo://app?vid=f513f3b9-8a78-403c-a285-7208e64eef9c","ios":"levelo://app?vid=f513f3b9-8a78-403c-a285-7208e64eef9c"},"vehicle_type_id":"4","last_reported":1692810241,"current_range_meters":12400,"station_id":"ce4bho12rcd13ifvqh2g","pricing_plan_id":"free"},{"bike_id":"2dda6de4-c276-49e7-979c-f9a7bfa55536","system_id":"levelo_inurba_marseille","lat":43.280784,"lon":5.396622,"is_reserved":false,"is_disabled":false,"rental_uris":{"android":"levelo://app?vid=2dda6de4-c276-49e7-979c-f9a7bfa55536","ios":"levelo://app?vid=2dda6de4-c276-49e7-979c-f9a7bfa55536"},"vehicle_type_id":"4","last_reported":1692810241,"current_range_meters":9600,"station_id":"ce4bho12rcd13ifvqh2g","pricing_plan_id":"free"},{"bike_id":"7435dc6b-d8fd-4eea-bfd7-1653a188c663","system_id":"levelo_inurba_marseille","lat":43.27384,"lon":5.36252,"is_reserved":false,"is_disabled":false,"rental_uris":{"android":"levelo://app?vid=7435dc6b-d8fd-4eea-bfd7-1653a188c663","ios":"levelo://app?vid=7435dc6b-d8fd-4eea-bfd7-1653a188c663"},"vehicle_type_id":"4","last_reported":1692810241,"current_range_meters":29200,"station_id":"ce4bhbh2rcd13ifvqeo0","pricing_plan_id":"free"},{"bike_id":"51f0bd0d-fc09-4b14-882d-402aab5943a0","system_id":"levelo_inurba_marseille","lat":43.27383,"lon":5.36263,"is_reserved":false,"is_disabled":false,"rental_uris":{"android":"levelo://app?vid=51f0bd0d-fc09-4b14-882d-402aab5943a0","ios":"levelo://app?vid=51f0bd0d-fc09-4b14-882d-402aab5943a0"},"vehicle_type_id":"4","last_reported":1692810241,"current_range_meters":31200,"station_id":"ce4bhbh2rcd13ifvqeo0","pricing_plan_id":"free"},{"bike_id":"be6c933f-752c-42e8-bafa-60deea806a02","system_id":"levelo_inurba_marseille","lat":43.273609,"lon":5.362708,"is_reserved":false,"is_disabled":false,"rental_uris":{"android":"levelo://app?vid=be6c933f-752c-42e8-bafa-60deea806a02","ios":"levelo://app?vid=be6c933f-752c-42e8-bafa-60deea806a02"},"vehicle_type_id":"4","last_reported":1692810241,"current_range_meters":13600,"station_id":"ce4bhbh2rcd13ifvqeo0","pricing_plan_id":"free"},{"bike_id":"a24e7fb2-f003-4cd4-a63f-e6947be2a8af","system_id":"levelo_inurba_marseille","lat":43.273613,"lon":5.362705,"is_reserved":false,"is_disabled":false,"rental_uris":{"android":"levelo://app?vid=a24e7fb2-f003-4cd4-a63f-e6947be2a8af","ios":"levelo://app?vid=a24e7fb2-f003-4cd4-a63f-e6947be2a8af"},"vehicle_type_id":"4","last_reported":1692810241,"current_range_meters":2800,"station_id":"ce4bhbh2rcd13ifvqeo0","pricing_plan_id":"free"},{"bike_id":"c7f09c85-f43f-439f-a990-ecf06164ad87","system_id":"levelo_inurba_marseille","lat":43.273613,"lon":5.362705,"is_reserved":false,"is_disabled":false,"rental_uris":{"android":"levelo://app?vid=c7f09c85-f43f-439f-a990-ecf06164ad87","ios":"levelo://app?vid=c7f09c85-f43f-439f-a990-ecf06164ad87"},"vehicle_type_id":"4","last_reported":1692810241,"current_range_meters":31600,"station_id":"ce4bhbh2rcd13ifvqeo0","pricing_plan_id":"free"},{"bike_id":"14350f0c-21d0-4964-b7f8-81fb85ad7ea0","system_id":"levelo_inurba_marseille","lat":43.27378,"lon":5.36255,"is_reserved":false,"is_disabled":false,"rental_uris":{"android":"levelo://app?vid=14350f0c-21d0-4964-b7f8-81fb85ad7ea0","ios":"levelo://app?vid=14350f0c-21d0-4964-b7f8-81fb85ad7ea0"},"vehicle_type_id":"4","last_reported":1692810241,"current_range_meters":31200,"station_id":"ce4bhbh2rcd13ifvqeo0","pricing_plan_id":"free"},{"bike_id":"15da2705-a676-402c-aac0-c6a5fe536b98","system_id":"levelo_inurba_marseille","lat":43.27377,"lon":5.36256,"is_reserved":false,"is_disabled":false,"rental_uris":{"android":"levelo://app?vid=15da2705-a676-402c-aac0-c6a5fe536b98","ios":"levelo://app?vid=15da2705-a676-402c-aac0-c6a5fe536b98"},"vehicle_type_id":"4","last_reported":1692810241,"current_range_meters":18000,"station_id":"ce4bhbh2rcd13ifvqeo0","pricing_plan_id":"free"},{"bike_id":"15b20cf5-f445-45db-a7fe-00693f148c5f","system_id":"levelo_inurba_marseille","lat":43.27377,"lon":5.3624,"is_reserved":false,"is_disabled":false,"rental_uris":{"android":"levelo://app?vid=15b20cf5-f445-45db-a7fe-00693f148c5f","ios":"levelo://app?vid=15b20cf5-f445-45db-a7fe-00693f148c5f"},"vehicle_type_id":"4","last_reported":1692810241,"current_range_meters":5600,"station_id":"ce4bhbh2rcd13ifvqeo0","pricing_plan_id":"free"},{"bike_id":"c30d0f86-7231-49dd-851a-42c177328daa","system_id":"levelo_inurba_marseille","lat":43.273613,"lon":5.362705,"is_reserved":false,"is_disabled":false,"rental_uris":{"android":"levelo://app?vid=c30d0f86-7231-49dd-851a-42c177328daa","ios":"levelo://app?vid=c30d0f86-7231-49dd-851a-42c177328daa"},"vehicle_type_id":"4","last_reported":1692810241,"current_range_meters":24400,"station_id":"ce4bhbh2rcd13ifvqeo0","pricing_plan_id":"free"},{"bike_id":"3d4065ef-cc8e-4ba7-b627-f4ba8627050e","system_id":"levelo_inurba_marseille","lat":43.273609,"lon":5.362708,"is_reserved":false,"is_disabled":false,"rental_uris":{"android":"levelo://app?vid=3d4065ef-cc8e-4ba7-b627-f4ba8627050e","ios":"levelo://app?vid=3d4065ef-cc8e-4ba7-b627-f4ba8627050e"},"vehicle_type_id":"4","last_reported":1692810241,"current_range_meters":6000,"station_id":"ce4bhbh2rcd13ifvqeo0","pricing_plan_id":"free"},{"bike_id":"f4b43769-230c-40f0-865a-4e61a4557b46","system_id":"levelo_inurba_marseille","lat":43.27371,"lon":5.36254,"is_reserved":false,"is_disabled":false,"rental_uris":{"android":"levelo://app?vid=f4b43769-230c-40f0-865a-4e61a4557b46","ios":"levelo://app?vid=f4b43769-230c-40f0-865a-4e61a4557b46"},"vehicle_type_id":"4","last_reported":1692810241,"current_range_meters":31200,"station_id":"ce4bhbh2rcd13ifvqeo0","pricing_plan_id":"free"},{"bike_id":"dbef8b90-e557-4bc8-a231-eb93f03cc2f2","system_id":"levelo_inurba_marseille","lat":43.275625,"lon":5.384392,"is_reserved":false,"is_disabled":false,"rental_uris":{"android":"levelo://app?vid=dbef8b90-e557-4bc8-a231-eb93f03cc2f2","ios":"levelo://app?vid=dbef8b90-e557-4bc8-a231-eb93f03cc2f2"},"vehicle_type_id":"4","last_reported":1692810241,"current_range_meters":0,"station_id":"ce4bhh92rcd13ifvqfi0","pricing_plan_id":"free"},{"bike_id":"f47efe41-01fc-441f-bbb5-1e0ce4ffe13a","system_id":"levelo_inurba_marseille","lat":43.2737,"lon":5.36253,"is_reserved":false,"is_disabled":false,"rental_uris":{"android":"levelo://app?vid=f47efe41-01fc-441f-bbb5-1e0ce4ffe13a","ios":"levelo://app?vid=f47efe41-01fc-441f-bbb5-1e0ce4ffe13a"},"vehicle_type_id":"4","last_reported":1692810241,"current_range_meters":12000,"station_id":"ce4bhbh2rcd13ifvqeo0","pricing_plan_id":"free"},{"bike_id":"51231aa4-5631-4c6b-956c-edd3792465c6","system_id":"levelo_inurba_marseille","lat":43.273613,"lon":5.362705,"is_reserved":false,"is_disabled":false,"rental_uris":{"android":"levelo://app?vid=51231aa4-5631-4c6b-956c-edd3792465c6","ios":"levelo://app?vid=51231aa4-5631-4c6b-956c-edd3792465c6"},"vehicle_type_id":"4","last_reported":1692810241,"current_range_meters":23600,"station_id":"ce4bhbh2rcd13ifvqeo0","pricing_plan_id":"free"},{"bike_id":"9278726e-fbb6-4d1c-afd8-9bbbcc5e3810","system_id":"levelo_inurba_marseille","lat":43.33609,"lon":5.41024,"is_reserved":false,"is_disabled":false,"rental_uris":{"android":"levelo://app?vid=9278726e-fbb6-4d1c-afd8-9bbbcc5e3810","ios":"levelo://app?vid=9278726e-fbb6-4d1c-afd8-9bbbcc5e3810"},"vehicle_type_id":"4","last_reported":1692810241,"current_range_meters":18400,"station_id":"ce4bhqh2rcd13ifvqhmg","pricing_plan_id":"free"},{"bike_id":"a8effd03-d396-44e7-9fb8-9ea96c9bb95c","system_id":"levelo_inurba_marseille","lat":43.273609,"lon":5.362708,"is_reserved":false,"is_disabled":false,"rental_uris":{"android":"levelo://app?vid=a8effd03-d396-44e7-9fb8-9ea96c9bb95c","ios":"levelo://app?vid=a8effd03-d396-44e7-9fb8-9ea96c9bb95c"},"vehicle_type_id":"4","last_reported":1692810241,"current_range_meters":32000,"station_id":"ce4bhbh2rcd13ifvqeo0","pricing_plan_id":"free"},{"bike_id":"2c002134-e4d2-41d1-b436-28e8e2ea24ca","system_id":"levelo_inurba_marseille","lat":43.276771,"lon":5.388799,"is_reserved":false,"is_disabled":false,"rental_uris":{"android":"levelo://app?vid=2c002134-e4d2-41d1-b436-28e8e2ea24ca","ios":"levelo://app?vid=2c002134-e4d2-41d1-b436-28e8e2ea24ca"},"vehicle_type_id":"4","last_reported":1692810241,"current_range_meters":28800,"station_id":"ce4bhi12rcd13ifvqfo0","pricing_plan_id":"free"},{"bike_id":"32311984-6a6d-4f39-b317-b34733056f59","system_id":"levelo_inurba_marseille","lat":43.310785,"lon":5.424305,"is_reserved":false,"is_disabled":false,"rental_uris":{"android":"levelo://app?vid=32311984-6a6d-4f39-b317-b34733056f59","ios":"levelo://app?vid=32311984-6a6d-4f39-b317-b34733056f59"},"vehicle_type_id":"4","last_reported":1692810241,"current_range_meters":20000,"station_id":"ce4bhp92rcd13ifvqhag","pricing_plan_id":"free"},{"bike_id":"801e658c-22b6-4860-b168-f3f426fceb08","system_id":"levelo_inurba_marseille","lat":43.28451,"lon":5.41006,"is_reserved":false,"is_disabled":false,"rental_uris":{"android":"levelo://app?vid=801e658c-22b6-4860-b168-f3f426fceb08","ios":"levelo://app?vid=801e658c-22b6-4860-b168-f3f426fceb08"},"vehicle_type_id":"4","last_reported":1692810241,"current_range_meters":24800,"station_id":"","pricing_plan_id":"free"},{"bike_id":"d53415c5-c8a5-4594-9a0d-79106882a428","system_id":"levelo_inurba_marseille","lat":43.27778,"lon":5.39952,"is_reserved":false,"is_disabled":false,"rental_uris":{"android":"levelo://app?vid=d53415c5-c8a5-4594-9a0d-79106882a428","ios":"levelo://app?vid=d53415c5-c8a5-4594-9a0d-79106882a428"},"vehicle_type_id":"4","last_reported":1692810241,"current_range_meters":24800,"station_id":"","pricing_plan_id":"free"},{"bike_id":"433a1dc5-961d-42e9-88a9-081a0a5a55c0","system_id":"levelo_inurba_marseille","lat":43.27324,"lon":5.39077,"is_reserved":false,"is_disabled":false,"rental_uris":{"android":"levelo://app?vid=433a1dc5-961d-42e9-88a9-081a0a5a55c0","ios":"levelo://app?vid=433a1dc5-961d-42e9-88a9-081a0a5a55c0"},"vehicle_type_id":"4","last_reported":1692810241,"current_range_meters":28400,"station_id":"","pricing_plan_id":"free"},{"bike_id":"3c161cba-f257-482e-a5eb-9b93e4636f13","system_id":"levelo_inurba_marseille","lat":43.274103,"lon":5.394016,"is_reserved":false,"is_disabled":false,"rental_uris":{"android":"levelo://app?vid=3c161cba-f257-482e-a5eb-9b93e4636f13","ios":"levelo://app?vid=3c161cba-f257-482e-a5eb-9b93e4636f13"},"vehicle_type_id":"4","last_reported":1692810241,"current_range_meters":5200,"station_id":"ce4bhdp2rcd13ifvqf20","pricing_plan_id":"free"},{"bike_id":"32eb377d-8c5a-4e65-a8b6-db208000ef3b","system_id":"levelo_inurba_marseille","lat":43.295511,"lon":5.422926,"is_reserved":false,"is_disabled":false,"rental_uris":{"android":"levelo://app?vid=32eb377d-8c5a-4e65-a8b6-db208000ef3b","ios":"levelo://app?vid=32eb377d-8c5a-4e65-a8b6-db208000ef3b"},"vehicle_type_id":"4","last_reported":1692810241,"current_range_meters":23200,"station_id":"ce4bhph2rcd13ifvqhdg","pricing_plan_id":"free"},{"bike_id":"03c1730a-f589-413d-967f-429de4cb5f96","system_id":"levelo_inurba_marseille","lat":43.295523,"lon":5.422926,"is_reserved":false,"is_disabled":false,"rental_uris":{"android":"levelo://app?vid=03c1730a-f589-413d-967f-429de4cb5f96","ios":"levelo://app?vid=03c1730a-f589-413d-967f-429de4cb5f96"},"vehicle_type_id":"4","last_reported":1692810241,"current_range_meters":14000,"station_id":"ce4bhph2rcd13ifvqhdg","pricing_plan_id":"free"},{"bike_id":"9e3092de-cb30-4c97-96a4-c26552645611","system_id":"levelo_inurba_marseille","lat":43.295511,"lon":5.422926,"is_reserved":false,"is_disabled":false,"rental_uris":{"android":"levelo://app?vid=9e3092de-cb30-4c97-96a4-c26552645611","ios":"levelo://app?vid=9e3092de-cb30-4c97-96a4-c26552645611"},"vehicle_type_id":"4","last_reported":1692810241,"current_range_meters":21600,"station_id":"ce4bhph2rcd13ifvqhdg","pricing_plan_id":"free"},{"bike_id":"ea32736e-db8d-49c8-8782-6a4d278e246f","system_id":"levelo_inurba_marseille","lat":43.295511,"lon":5.422926,"is_reserved":false,"is_disabled":false,"rental_uris":{"android":"levelo://app?vid=ea32736e-db8d-49c8-8782-6a4d278e246f","ios":"levelo://app?vid=ea32736e-db8d-49c8-8782-6a4d278e246f"},"vehicle_type_id":"4","last_reported":1692810241,"current_range_meters":12000,"station_id":"ce4bhph2rcd13ifvqhdg","pricing_plan_id":"free"},{"bike_id":"5c5d9781-5a0f-4c4a-a037-96bcf432fc75","system_id":"levelo_inurba_marseille","lat":43.295511,"lon":5.422926,"is_reserved":false,"is_disabled":false,"rental_uris":{"android":"levelo://app?vid=5c5d9781-5a0f-4c4a-a037-96bcf432fc75","ios":"levelo://app?vid=5c5d9781-5a0f-4c4a-a037-96bcf432fc75"},"vehicle_type_id":"4","last_reported":1692810241,"current_range_meters":16000,"station_id":"ce4bhph2rcd13ifvqhdg","pricing_plan_id":"free"},{"bike_id":"42a211fa-9ea7-4852-871a-8e5cbf995705","system_id":"levelo_inurba_marseille","lat":43.27946,"lon":5.41047,"is_reserved":false,"is_disabled":false,"rental_uris":{"android":"levelo://app?vid=42a211fa-9ea7-4852-871a-8e5cbf995705","ios":"levelo://app?vid=42a211fa-9ea7-4852-871a-8e5cbf995705"},"vehicle_type_id":"4","last_reported":1692810241,"current_range_meters":0,"station_id":"ce4bhnp2rcd13ifvqh0g","pricing_plan_id":"free"},{"bike_id":"1f0d1895-89a0-4c2e-b5bb-1e5d33c25fe1","system_id":"levelo_inurba_marseille","lat":43.279465,"lon":5.410561,"is_reserved":false,"is_disabled":false,"rental_uris":{"android":"levelo://app?vid=1f0d1895-89a0-4c2e-b5bb-1e5d33c25fe1","ios":"levelo://app?vid=1f0d1895-89a0-4c2e-b5bb-1e5d33c25fe1"},"vehicle_type_id":"4","last_reported":1692810241,"current_range_meters":13600,"station_id":"ce4bhnp2rcd13ifvqh0g","pricing_plan_id":"free"},{"bike_id":"89f08270-2580-4ae4-94a6-5b6d0bab4650","system_id":"levelo_inurba_marseille","lat":43.26934,"lon":5.38921,"is_reserved":false,"is_disabled":false,"rental_uris":{"android":"levelo://app?vid=89f08270-2580-4ae4-94a6-5b6d0bab4650","ios":"levelo://app?vid=89f08270-2580-4ae4-94a6-5b6d0bab4650"},"vehicle_type_id":"4","last_reported":1692810241,"current_range_meters":22800,"station_id":"ce4bhhh2rcd13ifvqfl0","pricing_plan_id":"free"},{"bike_id":"6e3ab586-a51c-4e6f-80fa-0b2ff07afb5e","system_id":"levelo_inurba_marseille","lat":43.2709,"lon":5.40031,"is_reserved":false,"is_disabled":false,"rental_uris":{"android":"levelo://app?vid=6e3ab586-a51c-4e6f-80fa-0b2ff07afb5e","ios":"levelo://app?vid=6e3ab586-a51c-4e6f-80fa-0b2ff07afb5e"},"vehicle_type_id":"4","last_reported":1692810241,"current_range_meters":18000,"station_id":"","pricing_plan_id":"free"},{"bike_id":"8e9c6bad-124d-457c-a56e-73e457b61839","system_id":"levelo_inurba_marseille","lat":43.265727,"lon":5.390089,"is_reserved":false,"is_disabled":false,"rental_uris":{"android":"levelo://app?vid=8e9c6bad-124d-457c-a56e-73e457b61839","ios":"levelo://app?vid=8e9c6bad-124d-457c-a56e-73e457b61839"},"vehicle_type_id":"4","last_reported":1692810241,"current_range_meters":13600,"station_id":"ce4bhe12rcd13ifvqf30","pricing_plan_id":"free"},{"bike_id":"e30811a0-683d-43dd-8e09-15eb50673b60","system_id":"levelo_inurba_marseille","lat":43.26563,"lon":5.39012,"is_reserved":false,"is_disabled":false,"rental_uris":{"android":"levelo://app?vid=e30811a0-683d-43dd-8e09-15eb50673b60","ios":"levelo://app?vid=e30811a0-683d-43dd-8e09-15eb50673b60"},"vehicle_type_id":"4","last_reported":1692810241,"current_range_meters":0,"station_id":"","pricing_plan_id":"free"},{"bike_id":"6ae727a2-5ae3-4f66-8d90-ef5e42d95ec9","system_id":"levelo_inurba_marseille","lat":43.26199,"lon":5.3744,"is_reserved":false,"is_disabled":false,"rental_uris":{"android":"levelo://app?vid=6ae727a2-5ae3-4f66-8d90-ef5e42d95ec9","ios":"levelo://app?vid=6ae727a2-5ae3-4f66-8d90-ef5e42d95ec9"},"vehicle_type_id":"4","last_reported":1692810241,"current_range_meters":23200,"station_id":"","pricing_plan_id":"free"},{"bike_id":"b929a262-6c5f-48c8-81d5-aa03c1b4a37c","system_id":"levelo_inurba_marseille","lat":43.26197,"lon":5.37439,"is_reserved":false,"is_disabled":false,"rental_uris":{"android":"levelo://app?vid=b929a262-6c5f-48c8-81d5-aa03c1b4a37c","ios":"levelo://app?vid=b929a262-6c5f-48c8-81d5-aa03c1b4a37c"},"vehicle_type_id":"4","last_reported":1692810241,"current_range_meters":23600,"station_id":"","pricing_plan_id":"free"},{"bike_id":"2b8753b3-b226-4da7-9ec0-d5ba7d1767c9","system_id":"levelo_inurba_marseille","lat":43.26196,"lon":5.37438,"is_reserved":false,"is_disabled":false,"rental_uris":{"android":"levelo://app?vid=2b8753b3-b226-4da7-9ec0-d5ba7d1767c9","ios":"levelo://app?vid=2b8753b3-b226-4da7-9ec0-d5ba7d1767c9"},"vehicle_type_id":"4","last_reported":1692810241,"current_range_meters":24000,"station_id":"","pricing_plan_id":"free"},{"bike_id":"2abd92dd-c711-4c21-b13a-3fe1e759cde2","system_id":"levelo_inurba_marseille","lat":43.26195,"lon":5.37437,"is_reserved":false,"is_disabled":false,"rental_uris":{"android":"levelo://app?vid=2abd92dd-c711-4c21-b13a-3fe1e759cde2","ios":"levelo://app?vid=2abd92dd-c711-4c21-b13a-3fe1e759cde2"},"vehicle_type_id":"4","last_reported":1692810241,"current_range_meters":24800,"station_id":"","pricing_plan_id":"free"},{"bike_id":"7e0a2d0d-4298-4a70-ab31-ae0752dbc14d","system_id":"levelo_inurba_marseille","lat":43.26195,"lon":5.37437,"is_reserved":false,"is_disabled":false,"rental_uris":{"android":"levelo://app?vid=7e0a2d0d-4298-4a70-ab31-ae0752dbc14d","ios":"levelo://app?vid=7e0a2d0d-4298-4a70-ab31-ae0752dbc14d"},"vehicle_type_id":"4","last_reported":1692810241,"current_range_meters":30800,"station_id":"","pricing_plan_id":"free"},{"bike_id":"a66d4037-d071-41c5-8e9c-864a8f15cbfe","system_id":"levelo_inurba_marseille","lat":43.261954,"lon":5.374425,"is_reserved":false,"is_disabled":false,"rental_uris":{"android":"levelo://app?vid=a66d4037-d071-41c5-8e9c-864a8f15cbfe","ios":"levelo://app?vid=a66d4037-d071-41c5-8e9c-864a8f15cbfe"},"vehicle_type_id":"4","last_reported":1692810241,"current_range_meters":0,"station_id":"","pricing_plan_id":"free"},{"bike_id":"5d50ebee-ad96-4241-b24d-91920d5d7799","system_id":"levelo_inurba_marseille","lat":43.26195,"lon":5.37438,"is_reserved":false,"is_disabled":false,"rental_uris":{"android":"levelo://app?vid=5d50ebee-ad96-4241-b24d-91920d5d7799","ios":"levelo://app?vid=5d50ebee-ad96-4241-b24d-91920d5d7799"},"vehicle_type_id":"4","last_reported":1692810241,"current_range_meters":31200,"station_id":"","pricing_plan_id":"free"},{"bike_id":"8064145f-97db-4f5c-9650-c1e699d53779","system_id":"levelo_inurba_marseille","lat":43.26195,"lon":5.37441,"is_reserved":false,"is_disabled":false,"rental_uris":{"android":"levelo://app?vid=8064145f-97db-4f5c-9650-c1e699d53779","ios":"levelo://app?vid=8064145f-97db-4f5c-9650-c1e699d53779"},"vehicle_type_id":"4","last_reported":1692810241,"current_range_meters":28000,"station_id":"","pricing_plan_id":"free"},{"bike_id":"fd871611-78a3-44e8-b8ea-2aaab5f67078","system_id":"levelo_inurba_marseille","lat":43.26194,"lon":5.37439,"is_reserved":false,"is_disabled":false,"rental_uris":{"android":"levelo://app?vid=fd871611-78a3-44e8-b8ea-2aaab5f67078","ios":"levelo://app?vid=fd871611-78a3-44e8-b8ea-2aaab5f67078"},"vehicle_type_id":"4","last_reported":1692810241,"current_range_meters":26000,"station_id":"","pricing_plan_id":"free"},{"bike_id":"33a74228-ed2d-4fd0-bf1b-8fb5bd373a96","system_id":"levelo_inurba_marseille","lat":43.26194,"lon":5.37439,"is_reserved":false,"is_disabled":false,"rental_uris":{"android":"levelo://app?vid=33a74228-ed2d-4fd0-bf1b-8fb5bd373a96","ios":"levelo://app?vid=33a74228-ed2d-4fd0-bf1b-8fb5bd373a96"},"vehicle_type_id":"4","last_reported":1692810241,"current_range_meters":31200,"station_id":"","pricing_plan_id":"free"},{"bike_id":"780c0f6d-397c-48bd-b61b-7f4437de1a33","system_id":"levelo_inurba_marseille","lat":43.26194,"lon":5.37442,"is_reserved":false,"is_disabled":false,"rental_uris":{"android":"levelo://app?vid=780c0f6d-397c-48bd-b61b-7f4437de1a33","ios":"levelo://app?vid=780c0f6d-397c-48bd-b61b-7f4437de1a33"},"vehicle_type_id":"4","last_reported":1692810241,"current_range_meters":10400,"station_id":"","pricing_plan_id":"free"},{"bike_id":"0d9f8705-5d8e-455b-a395-c0ee6fb27320","system_id":"levelo_inurba_marseille","lat":43.26194,"lon":5.37442,"is_reserved":false,"is_disabled":false,"rental_uris":{"android":"levelo://app?vid=0d9f8705-5d8e-455b-a395-c0ee6fb27320","ios":"levelo://app?vid=0d9f8705-5d8e-455b-a395-c0ee6fb27320"},"vehicle_type_id":"4","last_reported":1692810241,"current_range_meters":15600,"station_id":"","pricing_plan_id":"free"},{"bike_id":"0c088409-ae42-4703-9f1e-1cf55024e01e","system_id":"levelo_inurba_marseille","lat":43.26193,"lon":5.37441,"is_reserved":false,"is_disabled":false,"rental_uris":{"android":"levelo://app?vid=0c088409-ae42-4703-9f1e-1cf55024e01e","ios":"levelo://app?vid=0c088409-ae42-4703-9f1e-1cf55024e01e"},"vehicle_type_id":"4","last_reported":1692810241,"current_range_meters":7600,"station_id":"","pricing_plan_id":"free"},{"bike_id":"4b78bda1-d2bf-4449-ae73-42a1de2b4a0b","system_id":"levelo_inurba_marseille","lat":43.26193,"lon":5.37443,"is_reserved":false,"is_disabled":false,"rental_uris":{"android":"levelo://app?vid=4b78bda1-d2bf-4449-ae73-42a1de2b4a0b","ios":"levelo://app?vid=4b78bda1-d2bf-4449-ae73-42a1de2b4a0b"},"vehicle_type_id":"4","last_reported":1692810241,"current_range_meters":25600,"station_id":"","pricing_plan_id":"free"},{"bike_id":"3c07f78b-8dde-4179-a945-4b22cb96675a","system_id":"levelo_inurba_marseille","lat":43.26192,"lon":5.37439,"is_reserved":false,"is_disabled":false,"rental_uris":{"android":"levelo://app?vid=3c07f78b-8dde-4179-a945-4b22cb96675a","ios":"levelo://app?vid=3c07f78b-8dde-4179-a945-4b22cb96675a"},"vehicle_type_id":"4","last_reported":1692810241,"current_range_meters":30800,"station_id":"","pricing_plan_id":"free"},{"bike_id":"165a796c-a566-411e-b065-ae6f88409351","system_id":"levelo_inurba_marseille","lat":43.26192,"lon":5.3744,"is_reserved":false,"is_disabled":false,"rental_uris":{"android":"levelo://app?vid=165a796c-a566-411e-b065-ae6f88409351","ios":"levelo://app?vid=165a796c-a566-411e-b065-ae6f88409351"},"vehicle_type_id":"4","last_reported":1692810241,"current_range_meters":31200,"station_id":"","pricing_plan_id":"free"},{"bike_id":"776ec1ba-2194-4ce3-b3cb-823ed878d018","system_id":"levelo_inurba_marseille","lat":43.26192,"lon":5.37441,"is_reserved":false,"is_disabled":false,"rental_uris":{"android":"levelo://app?vid=776ec1ba-2194-4ce3-b3cb-823ed878d018","ios":"levelo://app?vid=776ec1ba-2194-4ce3-b3cb-823ed878d018"},"vehicle_type_id":"4","last_reported":1692810241,"current_range_meters":31200,"station_id":"","pricing_plan_id":"free"},{"bike_id":"d7190fce-6914-49ed-b3f4-19a46d8636c9","system_id":"levelo_inurba_marseille","lat":43.26191,"lon":5.37437,"is_reserved":false,"is_disabled":false,"rental_uris":{"android":"levelo://app?vid=d7190fce-6914-49ed-b3f4-19a46d8636c9","ios":"levelo://app?vid=d7190fce-6914-49ed-b3f4-19a46d8636c9"},"vehicle_type_id":"4","last_reported":1692810241,"current_range_meters":29600,"station_id":"","pricing_plan_id":"free"},{"bike_id":"929ba268-49f5-40ff-9f1c-f4fab1c80d69","system_id":"levelo_inurba_marseille","lat":43.26191,"lon":5.3744,"is_reserved":false,"is_disabled":false,"rental_uris":{"android":"levelo://app?vid=929ba268-49f5-40ff-9f1c-f4fab1c80d69","ios":"levelo://app?vid=929ba268-49f5-40ff-9f1c-f4fab1c80d69"},"vehicle_type_id":"4","last_reported":1692810241,"current_range_meters":25200,"station_id":"","pricing_plan_id":"free"},{"bike_id":"5f4f9907-0787-4bf8-8a56-fcaa0a043375","system_id":"levelo_inurba_marseille","lat":43.26191,"lon":5.37442,"is_reserved":false,"is_disabled":false,"rental_uris":{"android":"levelo://app?vid=5f4f9907-0787-4bf8-8a56-fcaa0a043375","ios":"levelo://app?vid=5f4f9907-0787-4bf8-8a56-fcaa0a043375"},"vehicle_type_id":"4","last_reported":1692810241,"current_range_meters":20400,"station_id":"","pricing_plan_id":"free"},{"bike_id":"883002d6-96d7-4961-a7c4-8d902095e50b","system_id":"levelo_inurba_marseille","lat":43.2619,"lon":5.37439,"is_reserved":false,"is_disabled":false,"rental_uris":{"android":"levelo://app?vid=883002d6-96d7-4961-a7c4-8d902095e50b","ios":"levelo://app?vid=883002d6-96d7-4961-a7c4-8d902095e50b"},"vehicle_type_id":"4","last_reported":1692810241,"current_range_meters":0,"station_id":"","pricing_plan_id":"free"},{"bike_id":"49918631-0b92-4e68-b5df-8b84f602cd2a","system_id":"levelo_inurba_marseille","lat":43.2619,"lon":5.37441,"is_reserved":false,"is_disabled":false,"rental_uris":{"android":"levelo://app?vid=49918631-0b92-4e68-b5df-8b84f602cd2a","ios":"levelo://app?vid=49918631-0b92-4e68-b5df-8b84f602cd2a"},"vehicle_type_id":"4","last_reported":1692810241,"current_range_meters":2000,"station_id":"","pricing_plan_id":"free"},{"bike_id":"0be778fa-45c1-4a36-9460-4bd942612e39","system_id":"levelo_inurba_marseille","lat":43.26189,"lon":5.37435,"is_reserved":false,"is_disabled":false,"rental_uris":{"android":"levelo://app?vid=0be778fa-45c1-4a36-9460-4bd942612e39","ios":"levelo://app?vid=0be778fa-45c1-4a36-9460-4bd942612e39"},"vehicle_type_id":"4","last_reported":1692810241,"current_range_meters":23200,"station_id":"","pricing_plan_id":"free"},{"bike_id":"bda25328-9178-4b9e-8a66-d331aaecaa51","system_id":"levelo_inurba_marseille","lat":43.26189,"lon":5.37436,"is_reserved":false,"is_disabled":false,"rental_uris":{"android":"levelo://app?vid=bda25328-9178-4b9e-8a66-d331aaecaa51","ios":"levelo://app?vid=bda25328-9178-4b9e-8a66-d331aaecaa51"},"vehicle_type_id":"4","last_reported":1692810241,"current_range_meters":4400,"station_id":"","pricing_plan_id":"free"},{"bike_id":"73e30c8d-1fec-42fa-994e-db63cd20ad16","system_id":"levelo_inurba_marseille","lat":43.26189,"lon":5.37438,"is_reserved":false,"is_disabled":false,"rental_uris":{"android":"levelo://app?vid=73e30c8d-1fec-42fa-994e-db63cd20ad16","ios":"levelo://app?vid=73e30c8d-1fec-42fa-994e-db63cd20ad16"},"vehicle_type_id":"4","last_reported":1692810241,"current_range_meters":24400,"station_id":"","pricing_plan_id":"free"},{"bike_id":"c490d561-97e3-4841-8d68-2486ab419e48","system_id":"levelo_inurba_marseille","lat":43.26189,"lon":5.3744,"is_reserved":false,"is_disabled":false,"rental_uris":{"android":"levelo://app?vid=c490d561-97e3-4841-8d68-2486ab419e48","ios":"levelo://app?vid=c490d561-97e3-4841-8d68-2486ab419e48"},"vehicle_type_id":"4","last_reported":1692810241,"current_range_meters":21200,"station_id":"","pricing_plan_id":"free"},{"bike_id":"445f1742-128a-4304-8386-1636732e78c1","system_id":"levelo_inurba_marseille","lat":43.26189,"lon":5.3744,"is_reserved":false,"is_disabled":false,"rental_uris":{"android":"levelo://app?vid=445f1742-128a-4304-8386-1636732e78c1","ios":"levelo://app?vid=445f1742-128a-4304-8386-1636732e78c1"},"vehicle_type_id":"4","last_reported":1692810241,"current_range_meters":14000,"station_id":"","pricing_plan_id":"free"},{"bike_id":"1c6436cd-22b2-49ca-9a69-752ef47182c7","system_id":"levelo_inurba_marseille","lat":43.26188,"lon":5.37439,"is_reserved":false,"is_disabled":false,"rental_uris":{"android":"levelo://app?vid=1c6436cd-22b2-49ca-9a69-752ef47182c7","ios":"levelo://app?vid=1c6436cd-22b2-49ca-9a69-752ef47182c7"},"vehicle_type_id":"4","last_reported":1692810241,"current_range_meters":19600,"station_id":"","pricing_plan_id":"free"},{"bike_id":"f76f08f6-c538-4c7f-b809-06889c40169d","system_id":"levelo_inurba_marseille","lat":43.26188,"lon":5.37443,"is_reserved":false,"is_disabled":false,"rental_uris":{"android":"levelo://app?vid=f76f08f6-c538-4c7f-b809-06889c40169d","ios":"levelo://app?vid=f76f08f6-c538-4c7f-b809-06889c40169d"},"vehicle_type_id":"4","last_reported":1692810241,"current_range_meters":23600,"station_id":"","pricing_plan_id":"free"},{"bike_id":"8b9f9b54-2e03-4d4e-bfd8-a7cfda03648a","system_id":"levelo_inurba_marseille","lat":43.26187,"lon":5.37437,"is_reserved":false,"is_disabled":false,"rental_uris":{"android":"levelo://app?vid=8b9f9b54-2e03-4d4e-bfd8-a7cfda03648a","ios":"levelo://app?vid=8b9f9b54-2e03-4d4e-bfd8-a7cfda03648a"},"vehicle_type_id":"4","last_reported":1692810241,"current_range_meters":26800,"station_id":"","pricing_plan_id":"free"},{"bike_id":"f6af8b19-cf40-4d67-ab03-bf043a6f702d","system_id":"levelo_inurba_marseille","lat":43.26187,"lon":5.37447,"is_reserved":false,"is_disabled":false,"rental_uris":{"android":"levelo://app?vid=f6af8b19-cf40-4d67-ab03-bf043a6f702d","ios":"levelo://app?vid=f6af8b19-cf40-4d67-ab03-bf043a6f702d"},"vehicle_type_id":"4","last_reported":1692810241,"current_range_meters":400,"station_id":"","pricing_plan_id":"free"},{"bike_id":"fb89495e-96fa-4a50-a791-01c261478274","system_id":"levelo_inurba_marseille","lat":43.26186,"lon":5.3744,"is_reserved":false,"is_disabled":false,"rental_uris":{"android":"levelo://app?vid=fb89495e-96fa-4a50-a791-01c261478274","ios":"levelo://app?vid=fb89495e-96fa-4a50-a791-01c261478274"},"vehicle_type_id":"4","last_reported":1692810241,"current_range_meters":0,"station_id":"","pricing_plan_id":"free"},{"bike_id":"2f8a7043-a224-47f6-8be9-57a58d8e34c6","system_id":"levelo_inurba_marseille","lat":43.26186,"lon":5.37442,"is_reserved":false,"is_disabled":false,"rental_uris":{"android":"levelo://app?vid=2f8a7043-a224-47f6-8be9-57a58d8e34c6","ios":"levelo://app?vid=2f8a7043-a224-47f6-8be9-57a58d8e34c6"},"vehicle_type_id":"4","last_reported":1692810241,"current_range_meters":22800,"station_id":"","pricing_plan_id":"free"},{"bike_id":"0de3ccad-8a12-4b7c-9826-8f2cc5b7ccbf","system_id":"levelo_inurba_marseille","lat":43.26186,"lon":5.37444,"is_reserved":false,"is_disabled":false,"rental_uris":{"android":"levelo://app?vid=0de3ccad-8a12-4b7c-9826-8f2cc5b7ccbf","ios":"levelo://app?vid=0de3ccad-8a12-4b7c-9826-8f2cc5b7ccbf"},"vehicle_type_id":"4","last_reported":1692810241,"current_range_meters":17600,"station_id":"","pricing_plan_id":"free"},{"bike_id":"44975547-283a-4a33-aca0-7f9ee9b3fde9","system_id":"levelo_inurba_marseille","lat":43.26185,"lon":5.37441,"is_reserved":false,"is_disabled":false,"rental_uris":{"android":"levelo://app?vid=44975547-283a-4a33-aca0-7f9ee9b3fde9","ios":"levelo://app?vid=44975547-283a-4a33-aca0-7f9ee9b3fde9"},"vehicle_type_id":"4","last_reported":1692810241,"current_range_meters":10000,"station_id":"","pricing_plan_id":"free"},