{"last_updated":1753622676,"ttl":60,"version":"2.2","data":{"bikes":[{"bike_id":"659696a2-3854-4019-bdd0-5ad56ba4750d","system_id":"levelo_inurba_marseille","lat":43.2814,"lon":5.42651,"is_reserved":false,"is_disabled":true,"rental_uris":{"android":"levelo://app?vid=659696a2-3854-4019-bdd0-5ad56ba4750d","ios":"levelo://app?vid=659696a2-3854-4019-bdd0-5ad56ba4750d"},"vehicle_type_id":"4","last_reported":1753622677,"current_range_meters":2800,"station_id":"ce4bhnh2rcd13ifvqgug","pricing_plan_id":"cebpf4jnsgd1na2vs0mg"},{"bike_id":"7ee974a4-7c95-4430-af53-8e474eb417ed","system_id":"levelo_inurba_marseille","lat":43.289448,"lon":5.364086,"is_reserved":false,"is_disabled":false,"rental_uris":{"android":"levelo://app?vid=7ee974a4-7c95-4430-af53-8e474eb417ed","ios":"levelo://app?vid=7ee974a4-7c95-4430-af53-8e474eb417ed"},"vehicle_type_id":"4","last_reported":1753622677,"current_range_meters":2800,"station_id":"ce4bhc92rcd13ifvqetg","pricing_plan_id":"cebpf4jnsgd1na2vs0mg"},{"bike_id":"3880f549-e9a8-4e14-91a6-528ce8b1c22a","system_id":"levelo_inurba_marseille","lat":43.33016,"lon":5.39034,"is_reserved":false,"is_disabled":false,"rental_uris":{"android":"levelo://app?vid=3880f549-e9a8-4e14-91a6-528ce8b1c22a","ios":"levelo://app?vid=3880f549-e9a8-4e14-91a6-528ce8b1c22a"},"vehicle_type_id":"4","last_reported":1753622677,"current_range_meters":2800,"station_id":"ce4bhr92rcd13ifvqhrg","pricing_plan_id":"cebpf4jnsgd1na2vs0mg"},{"bike_id":"8cac4b93-27e2-4b72-9c5b-2d42535dfa4e","system_id":"levelo_inurba_marseille","lat":43.23966,"lon":5.36622,"is_reserved":false,"is_disabled":false,"rental_uris":{"android":"levelo://app?vid=8cac4b93-27e2-4b72-9c5b-2d42535dfa4e","ios":"levelo://app?vid=8cac4b93-27e2-4b72-9c5b-2d42535dfa4e"},"vehicle_type_id":"4","last_reported":1753622677,"current_range_meters":2800,"station_id":"ce4bhi12rcd13ifvqfp0","pricing_plan_id":"cebpf4jnsgd1na2vs0mg"},{"bike_id":"49e4708a-6230-4554-bc79-fcb385d0ce06","system_id":"levelo_inurba_marseille","lat":43.28411,"lon":5.34987,"is_reserved":false,"is_disabled":false,"rental_uris":{"android":"levelo://app?vid=49e4708a-6230-4554-bc79-fcb385d0ce06","ios":"levelo://app?vid=49e4708a-6230-4554-bc79-fcb385d0ce06"},"vehicle_type_id":"4","last_reported":1753622677,"current_range_meters":2800,"station_id":"ce4bhbh2rcd13ifvqepg","pricing_plan_id":"cebpf4jnsgd1na2vs0mg"},{"bike_id":"0084990f-cb89-4171-890e-b82be0f8be64","system_id":"levelo_inurba_marseille","lat":43.23191,"lon":5.35551,"is_reserved":false,"is_disabled":false,"rental_uris":{"android":"levelo://app?vid=0084990f-cb89-4171-890e-b82be0f8be64","ios":"levelo://app?vid=0084990f-cb89-4171-890e-b82be0f8be64"},"vehicle_type_id":"4","last_reported":1753622677,"current_range_meters":3200,"station_id":"ce4bhu92rcd13ifvqi70","pricing_plan_id":"cebpf4jnsgd1na2vs0mg"},{"bike_id":"8b454f8e-a2cc-4f8a-9b75-defe6a01169e","system_id":"levelo_inurba_marseille","lat":43.28715,"lon":5.375184,"is_reserved":false,"is_disabled":false,"rental_uris":{"android":"levelo://app?vid=8b454f8e-a2cc-4f8a-9b75-defe6a01169e","ios":"levelo://app?vid=8b454f8e-a2cc-4f8a-9b75-defe6a01169e"},"vehicle_type_id":"4","last_reported":1753622677,"current_range_meters":3200,"station_id":"","pricing_plan_id":"cebpf4jnsgd1na2vs0mg"},{"bike_id":"5a7350cb-fe71-4997-918a-55e856afd336","system_id":"levelo_inurba_marseille","lat":43.26207,"lon":5.37443,"is_reserved":false,"is_disabled":false,"rental_uris":{"android":"levelo://app?vid=5a7350cb-fe71-4997-918a-55e856afd336","ios":"levelo://app?vid=5a7350cb-fe71-4997-918a-55e856afd336"},"vehicle_type_id":"4","last_reported":1753622677,"current_range_meters":3200,"station_id":"ce4bhgp2rcd13ifvqfc0","pricing_plan_id":"cebpf4jnsgd1na2vs0mg"},{"bike_id":"1901169b-9d4f-478f-8b49-34345dad8ae8","system_id":"levelo_inurba_marseille","lat":43.26028,"lon":5.37547,"is_reserved":false,"is_disabled":false,"rental_uris":{"android":"levelo://app?vid=1901169b-9d4f-478f-8b49-34345dad8ae8","ios":"levelo://app?vid=1901169b-9d4f-478f-8b49-34345dad8ae8"},"vehicle_type_id":"4","last_reported":1753622677,"current_range_meters":3200,"station_id":"ce4bhgh2rcd13ifvqfa0","pricing_plan_id":"cebpf4jnsgd1na2vs0mg"},{"bike_id":"d4906127-016c-4a18-bd10-866a0d4642db","system_id":"levelo_inurba_marseille","lat":43.29252,"lon":5.37605,"is_reserved":false,"is_disabled":false,"rental_uris":{"android":"levelo://app?vid=d4906127-016c-4a18-bd10-866a0d4642db","ios":"levelo://app?vid=d4906127-016c-4a18-bd10-866a0d4642db"},"vehicle_type_id":"4","last_reported":1753622677,"current_range_meters":4000,"station_id":"ce4bgi12rcd13ifvqb80","pricing_plan_id":"cebpf4jnsgd1na2vs0mg"},{"bike_id":"84cf687d-5463-402c-b67d-dac9936ef079","system_id":"levelo_inurba_marseille","lat":43.29074,"lon":5.37155,"is_reserved":false,"is_disabled":false,"rental_uris":{"android":"levelo://app?vid=84cf687d-5463-402c-b67d-dac9936ef079","ios":"levelo://app?vid=84cf687d-5463-402c-b67d-dac9936ef079"},"vehicle_type_id":"4","last_reported":1753622677,"current_range_meters":4000,"station_id":"ce4bh5p2rcd13ifvqe4g","pricing_plan_id":"cebpf4jnsgd1na2vs0mg"},{"bike_id":"078febbd-6d49-4abf-8b46-d33f87f8da46","system_id":"levelo_inurba_marseille","lat":43.25452,"lon":5.38007,"is_reserved":false,"is_disabled":true,"rental_uris":{"android":"levelo://app?vid=078febbd-6d49-4abf-8b46-d33f87f8da46","ios":"levelo://app?vid=078febbd-6d49-4abf-8b46-d33f87f8da46"},"vehicle_type_id":"4","last_reported":1753622677,"current_range_meters":4400,"station_id":"","pricing_plan_id":"cebpf4jnsgd1na2vs0mg"},{"bike_id":"6a1c66b7-9846-4741-acd4-fda9cfed8fbf","system_id":"levelo_inurba_marseille","lat":43.23194,"lon":5.35549,"is_reserved":false,"is_disabled":false,"rental_uris":{"android":"levelo://app?vid=6a1c66b7-9846-4741-acd4-fda9cfed8fbf","ios":"levelo://app?vid=6a1c66b7-9846-4741-acd4-fda9cfed8fbf"},"vehicle_type_id":"4","last_reported":1753622677,"current_range_meters":4400,"station_id":"ce4bhu92rcd13ifvqi70","pricing_plan_id":"cebpf4jnsgd1na2vs0mg"},{"bike_id":"2805eec2-9662-4638-aa76-827667e26bbb","system_id":"levelo_inurba_marseille","lat":43.28654,"lon":5.36338,"is_reserved":false,"is_disabled":false,"rental_uris":{"android":"levelo://app?vid=2805eec2-9662-4638-aa76-827667e26bbb","ios":"levelo://app?vid=2805eec2-9662-4638-aa76-827667e26bbb"},"vehicle_type_id":"4","last_reported":1753622677,"current_range_meters":4400,"station_id":"ce4bhah2rcd13ifvqej0","pricing_plan_id":"cebpf4jnsgd1na2vs0mg"},{"bike_id":"81641063-f17b-4df2-9503-412f35273415","system_id":"levelo_inurba_marseille","lat":43.31684,"lon":5.40475,"is_reserved":false,"is_disabled":false,"rental_uris":{"android":"levelo://app?vid=81641063-f17b-4df2-9503-412f35273415","ios":"levelo://app?vid=81641063-f17b-4df2-9503-412f35273415"},"vehicle_type_id":"4","last_reported":1753622677,"current_range_meters":4800,"station_id":"ce4bh012rcd13ifvqd00","pricing_plan_id":"cebpf4jnsgd1na2vs0mg"},{"bike_id":"f123af25-f5e1-4535-bf9a-e453fb7322cc","system_id":"levelo_inurba_marseille","lat":43.27543,"lon":5.40915,"is_reserved":false,"is_disabled":true,"rental_uris":{"android":"levelo://app?vid=f123af25-f5e1-4535-bf9a-e453fb7322cc","ios":"levelo://app?vid=f123af25-f5e1-4535-bf9a-e453fb7322cc"},"vehicle_type_id":"4","last_reported":1753622677,"current_range_meters":4800,"station_id":"","pricing_plan_id":"cebpf4jnsgd1na2vs0mg"},{"bike_id":"c0ebe6e3-4066-4497-b62b-60abafa7c4ad","system_id":"levelo_inurba_marseille","lat":43.27441,"lon":5.39415,"is_reserved":false,"is_disabled":false,"rental_uris":{"android":"levelo://app?vid=c0ebe6e3-4066-4497-b62b-60abafa7c4ad","ios":"levelo://app?vid=c0ebe6e3-4066-4497-b62b-60abafa7c4ad"},"vehicle_type_id":"4","last_reported":1753622677,"current_range_meters":4400,"station_id":"ce4bhdp2rcd13ifvqf20","pricing_plan_id":"cebpf4jnsgd1na2vs0mg"},{"bike_id":"ca5cbce0-cd91-4d84-96a7-fb8a367a4189","system_id":"levelo_inurba_marseille","lat":43.275663,"lon":5.384277,"is_reserved":false,"is_disabled":false,"rental_uris":{"android":"levelo://app?vid=ca5cbce0-cd91-4d84-96a7-fb8a367a4189","ios":"levelo://app?vid=ca5cbce0-cd91-4d84-96a7-fb8a367a4189"},"vehicle_type_id":"4","last_reported":1753622677,"current_range_meters":5600,"station_id":"ce4bhh92rcd13ifvqfi0","pricing_plan_id":"cebpf4jnsgd1na2vs0mg"},{"bike_id":"2267b071-8a99-4fc9-8784-a49cf740930b","system_id":"levelo_inurba_marseille","lat":43.28956,"lon":5.36624,"is_reserved":false,"is_disabled":false,"rental_uris":{"android":"levelo://app?vid=2267b071-8a99-4fc9-8784-a49cf740930b","ios":"levelo://app?vid=2267b071-8a99-4fc9-8784-a49cf740930b"},"vehicle_type_id":"4","last_reported":1753622677,"current_range_meters":5600,"station_id":"ce4bhap2rcd13ifvqek0","pricing_plan_id":"cebpf4jnsgd1na2vs0mg"},{"bike_id":"acdc15f3-f881-4795-bd43-7b1b297ebaa4","system_id":"levelo_inurba_marseille","lat":43.27072,"lon":5.42276,"is_reserved":false,"is_disabled":true,"rental_uris":{"android":"levelo://app?vid=acdc15f3-f881-4795-bd43-7b1b297ebaa4","ios":"levelo://app?vid=acdc15f3-f881-4795-bd43-7b1b297ebaa4"},"vehicle_type_id":"4","last_reported":1753622677,"current_range_meters":5600,"station_id":"ce4bhk92rcd13ifvqgb0","pricing_plan_id":"cebpf4jnsgd1na2vs0mg"},{"bike_id":"b7ed9571-0d35-4df5-9ba8-fcfa0cd8d52b","system_id":"levelo_inurba_marseille","lat":43.32656,"lon":5.37876,"is_reserved":false,"is_disabled":false,"rental_uris":{"android":"levelo://app?vid=b7ed9571-0d35-4df5-9ba8-fcfa0cd8d52b","ios":"levelo://app?vid=b7ed9571-0d35-4df5-9ba8-fcfa0cd8d52b"},"vehicle_type_id":"4","last_reported":1753622677,"current_range_meters":5600,"station_id":"","pricing_plan_id":"cebpf4jnsgd1na2vs0mg"},{"bike_id":"53b018bb-ec68-40f7-9b97-c65958bc8827","system_id":"levelo_inurba_marseille","lat":43.25724,"lon":5.41108,"is_reserved":false,"is_disabled":false,"rental_uris":{"android":"levelo://app?vid=53b018bb-ec68-40f7-9b97-c65958bc8827","ios":"levelo://app?vid=53b018bb-ec68-40f7-9b97-c65958bc8827"},"vehicle_type_id":"4","last_reported":1753622677,"current_range_meters":4800,"station_id":"ce4bhkp2rcd13ifvqgd0","pricing_plan_id":"cebpf4jnsgd1na2vs0mg"},{"bike_id":"ce3e8efb-1564-4d85-b036-62dd778a6064","system_id":"levelo_inurba_marseille","lat":43.29536,"lon":5.3749,"is_reserved":false,"is_disabled":false,"rental_uris":{"android":"levelo://app?vid=ce3e8efb-1564-4d85-b036-62dd778a6064","ios":"levelo://app?vid=ce3e8efb-1564-4d85-b036-62dd778a6064"},"vehicle_type_id":"4","last_reported":1753622677,"current_range_meters":4800,"station_id":"ce4bgkp2rcd13ifvqbmg","pricing_plan_id":"cebpf4jnsgd1na2vs0mg"},{"bike_id":"bec63a49-cc51-445b-af1f-6a0c5dbcc83d","system_id":"levelo_inurba_marseille","lat":43.29841,"lon":5.36267,"is_reserved":false,"is_disabled":false,"rental_uris":{"android":"levelo://app?vid=bec63a49-cc51-445b-af1f-6a0c5dbcc83d","ios":"levelo://app?vid=bec63a49-cc51-445b-af1f-6a0c5dbcc83d"},"vehicle_type_id":"4","last_reported":1753622677,"current_range_meters":6000,"station_id":"ce4bgpp2rcd13ifvqc3g","pricing_plan_id":"cebpf4jnsgd1na2vs0mg"},{"bike_id":"83a67c65-7f9b-4a81-a80c-c007cd448d24","system_id":"levelo_inurba_marseille","lat":43.292531,"lon":5.384314,"is_reserved":false,"is_disabled":false,"rental_uris":{"android":"levelo://app?vid=83a67c65-7f9b-4a81-a80c-c007cd448d24","ios":"levelo://app?vid=83a67c65-7f9b-4a81-a80c-c007cd448d24"},"vehicle_type_id":"4","last_reported":1753622677,"current_range_meters":6000,"station_id":"","pricing_plan_id":"cebpf4jnsgd1na2vs0mg"},{"bike_id":"8414c65a-e2b6-4cab-b8f8-536a15b6717a","system_id":"levelo_inurba_marseille","lat":43.27623,"lon":5.36098,"is_reserved":false,"is_disabled":true,"rental_uris":{"android":"levelo://app?vid=8414c65a-e2b6-4cab-b8f8-536a15b6717a","ios":"levelo://app?vid=8414c65a-e2b6-4cab-b8f8-536a15b6717a"},"vehicle_type_id":"4","last_reported":1753622677,"current_range_meters":6400,"station_id":"ce4bgj92rcd13ifvqbe0","pricing_plan_id":"cebpf4jnsgd1na2vs0mg"},{"bike_id":"75a52d90-a84e-49e8-9197-7fd3f8d0259a","system_id":"levelo_inurba_marseille","lat":43.26172,"lon":5.37439,"is_reserved":false,"is_disabled":true,"rental_uris":{"android":"levelo://app?vid=75a52d90-a84e-49e8-9197-7fd3f8d0259a","ios":"levelo://app?vid=75a52d90-a84e-49e8-9197-7fd3f8d0259a"},"vehicle_type_id":"4","last_reported":1753622677,"current_range_meters":6400,"station_id":"ce4bhgp2rcd13ifvqfc0","pricing_plan_id":"cebpf4jnsgd1na2vs0mg"},{"bike_id":"882324de-ecb4-47b9-9b40-3e90562e25cd","system_id":"levelo_inurba_marseille","lat":43.24176,"lon":5.36378,"is_reserved":false,"is_disabled":false,"rental_uris":{"android":"levelo://app?vid=882324de-ecb4-47b9-9b40-3e90562e25cd","ios":"levelo://app?vid=882324de-ecb4-47b9-9b40-3e90562e25cd"},"vehicle_type_id":"4","last_reported":1753622677,"current_range_meters":6400,"station_id":"cpo36qri1sfpv3e86is0","pricing_plan_id":"cebpf4jnsgd1na2vs0mg"},{"bike_id":"01a8e307-f9de-4eb5-a307-55559ca42c36","system_id":"levelo_inurba_marseille","lat":43.22485,"lon":5.34779,"is_reserved":false,"is_disabled":false,"rental_uris":{"android":"levelo://app?vid=01a8e307-f9de-4eb5-a307-55559ca42c36","ios":"levelo://app?vid=01a8e307-f9de-4eb5-a307-55559ca42c36"},"vehicle_type_id":"4","last_reported":1753622677,"current_range_meters":6400,"station_id":"st_cvj5dfep6f1abm77gieg","pricing_plan_id":"cebpf4jnsgd1na2vs0mg"},{"bike_id":"95e7488f-2257-439b-9bfb-bd5286c785dd","system_id":"levelo_inurba_marseille","lat":43.282623,"lon":5.350627,"is_reserved":false,"is_disabled":false,"rental_uris":{"android":"levelo://app?vid=95e7488f-2257-439b-9bfb-bd5286c785dd","ios":"levelo://app?vid=95e7488f-2257-439b-9bfb-bd5286c785dd"},"vehicle_type_id":"4","last_reported":1753622677,"current_range_meters":6800,"station_id":"ce4bhbp2rcd13ifvqerg","pricing_plan_id":"cebpf4jnsgd1na2vs0mg"},{"bike_id":"a3fe9995-2e3e-423b-9540-429a92fa997e","system_id":"levelo_inurba_marseille","lat":43.301833,"lon":5.371701,"is_reserved":false,"is_disabled":false,"rental_uris":{"android":"levelo://app?vid=a3fe9995-2e3e-423b-9540-429a92fa997e","ios":"levelo://app?vid=a3fe9995-2e3e-423b-9540-429a92fa997e"},"vehicle_type_id":"4","last_reported":1753622677,"current_range_meters":6800,"station_id":"","pricing_plan_id":"cebpf4jnsgd1na2vs0mg"},{"bike_id":"22dca147-1260-44d8-822d-d9d1d50cce31","system_id":"levelo_inurba_marseille","lat":43.27478,"lon":5.39572,"is_reserved":false,"is_disabled":true,"rental_uris":{"android":"levelo://app?vid=22dca147-1260-44d8-822d-d9d1d50cce31","ios":"levelo://app?vid=22dca147-1260-44d8-822d-d9d1d50cce31"},"vehicle_type_id":"4","last_reported":1753622677,"current_range_meters":7200,"station_id":"","pricing_plan_id":"cebpf4jnsgd1na2vs0mg"},{"bike_id":"b12dbb31-5c75-4551-bc03-29f3c4082217","system_id":"levelo_inurba_marseille","lat":43.211919,"lon":5.350706,"is_reserved":false,"is_disabled":false,"rental_uris":{"android":"levelo://app?vid=b12dbb31-5c75-4551-bc03-29f3c4082217","ios":"levelo://app?vid=b12dbb31-5c75-4551-bc03-29f3c4082217"},"vehicle_type_id":"4","last_reported":1753622677,"current_range_meters":7200,"station_id":"","pricing_plan_id":"cebpf4jnsgd1na2vs0mg"},{"bike_id":"0b6e37e1-db39-4d64-9941-7e484c9ea038","system_id":"levelo_inurba_marseille","lat":43.30148,"lon":5.38097,"is_reserved":false,"is_disabled":true,"rental_uris":{"android":"levelo://app?vid=0b6e37e1-db39-4d64-9941-7e484c9ea038","ios":"levelo://app?vid=0b6e37e1-db39-4d64-9941-7e484c9ea038"},"vehicle_type_id":"4","last_reported":1753622677,"current_range_meters":7200,"station_id":"","pricing_plan_id":"cebpf4jnsgd1na2vs0mg"},{"bike_id":"594a08be-f547-4590-8a47-acac8e22bf65","system_id":"levelo_inurba_marseille","lat":43.23964,"lon":5.36626,"is_reserved":false,"is_disabled":false,"rental_uris":{"android":"levelo://app?vid=594a08be-f547-4590-8a47-acac8e22bf65","ios":"levelo://app?vid=594a08be-f547-4590-8a47-acac8e22bf65"},"vehicle_type_id":"4","last_reported":1753622677,"current_range_meters":7200,"station_id":"ce4bhi12rcd13ifvqfp0","pricing_plan_id":"cebpf4jnsgd1na2vs0mg"},{"bike_id":"f00b32cb-fa20-41b9-aacb-0278209e8837","system_id":"levelo_inurba_marseille","lat":43.24387,"lon":5.37063,"is_reserved":false,"is_disabled":false,"rental_uris":{"android":"levelo://app?vid=f00b32cb-fa20-41b9-aacb-0278209e8837","ios":"levelo://app?vid=f00b32cb-fa20-41b9-aacb-0278209e8837"},"vehicle_type_id":"4","last_reported":1753622677,"current_range_meters":7200,"station_id":"ce4bhhh2rcd13ifvqfk0","pricing_plan_id":"cebpf4jnsgd1na2vs0mg"},{"bike_id":"6ab0b13c-2ff1-417a-acfd-489d6800d4c9","system_id":"levelo_inurba_marseille","lat":43.273828,"lon":5.362513,"is_reserved":false,"is_disabled":true,"rental_uris":{"android":"levelo://app?vid=6ab0b13c-2ff1-417a-acfd-489d6800d4c9","ios":"levelo://app?vid=6ab0b13c-2ff1-417a-acfd-489d6800d4c9"},"vehicle_type_id":"4","last_reported":1753622677,"current_range_meters":7200,"station_id":"ce4bhbh2rcd13ifvqeo0","pricing_plan_id":"cebpf4jnsgd1na2vs0mg"},{"bike_id":"f5039fc5-a9d8-4e58-9904-b16abee29b81","system_id":"levelo_inurba_marseille","lat":43.23234,"lon":5.3552,"is_reserved":false,"is_disabled":false,"rental_uris":{"android":"levelo://app?vid=f5039fc5-a9d8-4e58-9904-b16abee29b81","ios":"levelo://app?vid=f5039fc5-a9d8-4e58-9904-b16abee29b81"},"vehicle_type_id":"4","last_reported":1753622677,"current_range_meters":8000,"station_id":"","pricing_plan_id":"cebpf4jnsgd1na2vs0mg"},{"bike_id":"5fe21bc8-aff8-479d-8a18-158bbbe005f6","system_id":"levelo_inurba_marseille","lat":43.2841,"lon":5.34975,"is_reserved":false,"is_disabled":false,"rental_uris":{"android":"levelo://app?vid=5fe21bc8-aff8-479d-8a18-158bbbe005f6","ios":"levelo://app?vid=5fe21bc8-aff8-479d-8a18-158bbbe005f6"},"vehicle_type_id":"4","last_reported":1753622677,"current_range_meters":8000,"station_id":"ce4bhbh2rcd13ifvqepg","pricing_plan_id":"cebpf4jnsgd1na2vs0mg"},{"bike_id":"de99b14c-9afd-4bdd-bc56-50354c110c3d","system_id":"levelo_inurba_marseille","lat":43.25467,"lon":5.37687,"is_reserved":false,"is_disabled":false,"rental_uris":{"android":"levelo://app?vid=de99b14c-9afd-4bdd-bc56-50354c110c3d","ios":"levelo://app?vid=de99b14c-9afd-4bdd-bc56-50354c110c3d"},"vehicle_type_id":"4","last_reported":1753622677,"current_range_meters":8000,"station_id":"","pricing_plan_id":"cebpf4jnsgd1na2vs0mg"},{"bike_id":"a520741a-dcb6-494d-9d43-0ad113907acb","system_id":"levelo_inurba_marseille","lat":43.29124,"lon":5.4008,"is_reserved":false,"is_disabled":false,"rental_uris":{"android":"levelo://app?vid=a520741a-dcb6-494d-9d43-0ad113907acb","ios":"levelo://app?vid=a520741a-dcb6-494d-9d43-0ad113907acb"},"vehicle_type_id":"4","last_reported":1753622677,"current_range_meters":8000,"station_id":"","pricing_plan_id":"cebpf4jnsgd1na2vs0mg"},{"bike_id":"f6e429a2-ba9d-4751-b5e4-f375540ef150","system_id":"levelo_inurba_marseille","lat":43.22924,"lon":5.35374,"is_reserved":false,"is_disabled":false,"rental_uris":{"android":"levelo://app?vid=f6e429a2-ba9d-4751-b5e4-f375540ef150","ios":"levelo://app?vid=f6e429a2-ba9d-4751-b5e4-f375540ef150"},"vehicle_type_id":"4","last_reported":1753622677,"current_range_meters":8000,"station_id":"cpo3532slgdg3j2ikp40","pricing_plan_id":"cebpf4jnsgd1na2vs0mg"},{"bike_id":"8d6017c0-cf66-4635-9f9f-18bb75ba889d","system_id":"levelo_inurba_marseille","lat":43.27618,"lon":5.36102,"is_reserved":false,"is_disabled":false,"rental_uris":{"android":"levelo://app?vid=8d6017c0-cf66-4635-9f9f-18bb75ba889d","ios":"levelo://app?vid=8d6017c0-cf66-4635-9f9f-18bb75ba889d"},"vehicle_type_id":"4","last_reported":1753622677,"current_range_meters":8000,"station_id":"ce4bgj92rcd13ifvqbe0","pricing_plan_id":"cebpf4jnsgd1na2vs0mg"},{"bike_id":"57755280-973c-4ff3-9c25-8f15e2c5b510","system_id":"levelo_inurba_marseille","lat":43.31872,"lon":5.37373,"is_reserved":false,"is_disabled":true,"rental_uris":{"android":"levelo://app?vid=57755280-973c-4ff3-9c25-8f15e2c5b510","ios":"levelo://app?vid=57755280-973c-4ff3-9c25-8f15e2c5b510"},"vehicle_type_id":"4","last_reported":1753622677,"current_range_meters":8000,"station_id":"","pricing_plan_id":"cebpf4jnsgd1na2vs0mg"},{"bike_id":"8e878e8f-5d80-490d-b86c-324c23d42717","system_id":"levelo_inurba_marseille","lat":43.29186,"lon":5.4076,"is_reserved":false,"is_disabled":false,"rental_uris":{"android":"levelo://app?vid=8e878e8f-5d80-490d-b86c-324c23d42717","ios":"levelo://app?vid=8e878e8f-5d80-490d-b86c-324c23d42717"},"vehicle_type_id":"4","last_reported":1753622677,"current_range_meters":8400,"station_id":"","pricing_plan_id":"cebpf4jnsgd1na2vs0mg"},{"bike_id":"76874c93-4196-48c1-b4ce-9dc79e3034f2","system_id":"levelo_inurba_marseille","lat":43.31754,"lon":5.39016,"is_reserved":false,"is_disabled":false,"rental_uris":{"android":"levelo://app?vid=76874c93-4196-48c1-b4ce-9dc79e3034f2","ios":"levelo://app?vid=76874c93-4196-48c1-b4ce-9dc79e3034f2"},"vehicle_type_id":"4","last_reported":1753622677,"current_range_meters":8800,"station_id":"ce4bhqp2rcd13ifvqhng","pricing_plan_id":"cebpf4jnsgd1na2vs0mg"},{"bike_id":"1e555c6b-044c-4bd1-a690-5b7bdd1ff5ab","system_id":"levelo_inurba_marseille","lat":43.30958,"lon":5.39014,"is_reserved":false,"is_disabled":true,"rental_uris":{"android":"levelo://app?vid=1e555c6b-044c-4bd1-a690-5b7bdd1ff5ab","ios":"levelo://app?vid=1e555c6b-044c-4bd1-a690-5b7bdd1ff5ab"},"vehicle_type_id":"4","last_reported":1753622677,"current_range_meters":8800,"station_id":"ce4bgup2rcd13ifvqco0","pricing_plan_id":"cebpf4jnsgd1na2vs0mg"},{"bike_id":"aab2b815-9d82-4f79-b9c3-4af935e3549c","system_id":"levelo_inurba_marseille","lat":43.28265,"lon":5.35071,"is_reserved":false,"is_disabled":false,"rental_uris":{"android":"levelo://app?vid=aab2b815-9d82-4f79-b9c3-4af935e3549c","ios":"levelo://app?vid=aab2b815-9d82-4f79-b9c3-4af935e3549c"},"vehicle_type_id":"4","last_reported":1753622677,"current_range_meters":8800,"station_id":"","pricing_plan_id":"cebpf4jnsgd1na2vs0mg"},{"bike_id":"f2c0d178-a474-46a0-b002-379a7a30c411","system_id":"levelo_inurba_marseille","lat":43.29359,"lon":5.37564,"is_reserved":false,"is_disabled":false,"rental_uris":{"android":"levelo://app?vid=f2c0d178-a474-46a0-b002-379a7a30c411","ios":"levelo://app?vid=f2c0d178-a474-46a0-b002-379a7a30c411"},"vehicle_type_id":"4","last_reported":1753622677,"current_range_meters":9200,"station_id":"","pricing_plan_id":"cebpf4jnsgd1na2vs0mg"},{"bike_id":"3d386717-1249-4a94-b26e-53992c039cc5","system_id":"levelo_inurba_marseille","lat":43.21193,"lon":5.35074,"is_reserved":false,"is_disabled":false,"rental_uris":{"android":"levelo://app?vid=3d386717-1249-4a94-b26e-53992c039cc5","ios":"levelo://app?vid=3d386717-1249-4a94-b26e-53992c039cc5"},"vehicle_type_id":"4","last_reported":1753622677,"current_range_meters":9200,"station_id":"st_cvj6sg6p6f1abm77japg","pricing_plan_id":"cebpf4jnsgd1na2vs0mg"},{"bike_id":"38f4d757-bd04-4d69-a504-cf28401761f8","system_id":"levelo_inurba_marseille","lat":43.276174,"lon":5.361042,"is_reserved":false,"is_disabled":false,"rental_uris":{"android":"levelo://app?vid=38f4d757-bd04-4d69-a504-cf28401761f8","ios":"levelo://app?vid=38f4d757-bd04-4d69-a504-cf28401761f8"},"vehicle_type_id":"4","last_reported":1753622677,"current_range_meters":9200,"station_id":"ce4bgj92rcd13ifvqbe0","pricing_plan_id":"cebpf4jnsgd1na2vs0mg"},{"bike_id":"dd5b3db2-62f9-4716-992d-435138b6493d","system_id":"levelo_inurba_marseille","lat":43.30835,"lon":5.38137,"is_reserved":false,"is_disabled":true,"rental_uris":{"android":"levelo://app?vid=dd5b3db2-62f9-4716-992d-435138b6493d","ios":"levelo://app?vid=dd5b3db2-62f9-4716-992d-435138b6493d"},"vehicle_type_id":"4","last_reported":1753622677,"current_range_meters":9200,"station_id":"ce4bgt12rcd13ifvqce0","pricing_plan_id":"cebpf4jnsgd1na2vs0mg"},{"bike_id":"80cda384-a0de-4854-88d7-81c5eb0a10d1","system_id":"levelo_inurba_marseille","lat":43.289416,"lon":5.364093,"is_reserved":false,"is_disabled":true,"rental_uris":{"android":"levelo://app?vid=80cda384-a0de-4854-88d7-81c5eb0a10d1","ios":"levelo://app?vid=80cda384-a0de-4854-88d7-81c5eb0a10d1"},"vehicle_type_id":"4","last_reported":1753622677,"current_range_meters":9200,"station_id":"ce4bhc92rcd13ifvqetg","pricing_plan_id":"cebpf4jnsgd1na2vs0mg"},{"bike_id":"2698940b-2307-49a3-9232-a2845e2c80bf","system_id":"levelo_inurba_marseille","lat":43.29959,"lon":5.39747,"is_reserved":false,"is_disabled":false,"rental_uris":{"android":"levelo://app?vid=2698940b-2307-49a3-9232-a2845e2c80bf","ios":"levelo://app?vid=2698940b-2307-49a3-9232-a2845e2c80bf"},"vehicle_type_id":"4","last_reported":1753622677,"current_range_meters":9200,"station_id":"","pricing_plan_id":"cebpf4jnsgd1na2vs0mg"},{"bike_id":"cd0d4afa-9de1-4afb-923d-b45a4942c9a1","system_id":"levelo_inurba_marseille","lat":43.22501,"lon":5.34773,"is_reserved":false,"is_disabled":false,"rental_uris":{"android":"levelo://app?vid=cd0d4afa-9de1-4afb-923d-b45a4942c9a1","ios":"levelo://app?vid=cd0d4afa-9de1-4afb-923d-b45a4942c9a1"},"vehicle_type_id":"4","last_reported":1753622677,"current_range_meters":9200,"station_id":"st_cvj5dfep6f1abm77gieg","pricing_plan_id":"cebpf4jnsgd1na2vs0mg"},{"bike_id":"d00b6abc-174d-48a1-8e37-47955a519e3f","system_id":"levelo_inurba_marseille","lat":43.229368,"lon":5.353753,"is_reserved":false,"is_disabled":false,"rental_uris":{"android":"levelo://app?vid=d00b6abc-174d-48a1-8e37-47955a519e3f","ios":"levelo://app?vid=d00b6abc-174d-48a1-8e37-47955a519e3f"},"vehicle_type_id":"4","last_reported":1753622677,"current_range_meters":9600,"station_id":"cpo3532slgdg3j2ikp40","pricing_plan_id":"cebpf4jnsgd1na2vs0mg"},{"bike_id":"c3c2652b-f2d7-4ed4-89ec-9559feb01451","system_id":"levelo_inurba_marseille","lat":43.29226,"lon":5.360481,"is_reserved":false,"is_disabled":true,"rental_uris":{"android":"levelo://app?vid=c3c2652b-f2d7-4ed4-89ec-9559feb01451","ios":"levelo://app?vid=c3c2652b-f2d7-4ed4-89ec-9559feb01451"},"vehicle_type_id":"4","last_reported":1753622677,"current_range_meters":9600,"station_id":"ce4bhbh2rcd13ifvqeqg","pricing_plan_id":"cebpf4jnsgd1na2vs0mg"},{"bike_id":"ad676354-5f32-402a-ace7-3af7e2297b05","system_id":"levelo_inurba_marseille","lat":43.32359,"lon":5.36735,"is_reserved":false,"is_disabled":false,"rental_uris":{"android":"levelo://app?vid=ad676354-5f32-402a-ace7-3af7e2297b05","ios":"levelo://app?vid=ad676354-5f32-402a-ace7-3af7e2297b05"},"vehicle_type_id":"4","last_reported":1753622677,"current_range_meters":9600,"station_id":"ce4bhsh2rcd13ifvqi2g","pricing_plan_id":"cebpf4jnsgd1na2vs0mg"},{"bike_id":"06355ea8-f926-4843-9b23-709031a65864","system_id":"levelo_inurba_marseille","lat":43.28263,"lon":5.35066,"is_reserved":false,"is_disabled":false,"rental_uris":{"android":"levelo://app?vid=06355ea8-f926-4843-9b23-709031a65864","ios":"levelo://app?vid=06355ea8-f926-4843-9b23-709031a65864"},"vehicle_type_id":"4","last_reported":1753622677,"current_range_meters":9600,"station_id":"ce4bhbp2rcd13ifvqerg","pricing_plan_id":"cebpf4jnsgd1na2vs0mg"},{"bike_id":"664eeea2-fac3-47d1-b753-0e9fe23ca0ca","system_id":"levelo_inurba_marseille","lat":43.26485,"lon":5.39552,"is_reserved":false,"is_disabled":false,"rental_uris":{"android":"levelo://app?vid=664eeea2-fac3-47d1-b753-0e9fe23ca0ca","ios":"levelo://app?vid=664eeea2-fac3-47d1-b753-0e9fe23ca0ca"},"vehicle_type_id":"4","last_reported":1753622677,"current_range_meters":9600,"station_id":"ce4bhi12rcd13ifvqfq0","pricing_plan_id":"cebpf4jnsgd1na2vs0mg"},{"bike_id":"9377d52d-7c04-4205-81e5-05265b3eabff","system_id":"levelo_inurba_marseille","lat":43.28708,"lon":5.37958,"is_reserved":false,"is_disabled":true,"rental_uris":{"android":"levelo://app?vid=9377d52d-7c04-4205-81e5-05265b3eabff","ios":"levelo://app?vid=9377d52d-7c04-4205-81e5-05265b3eabff"},"vehicle_type_id":"4","last_reported":1753622677,"current_range_meters":10000,"station_id":"ce4bh9p2rcd13ifvqec0","pricing_plan_id":"cebpf4jnsgd1na2vs0mg"},{"bike_id":"f09e4e9f-5150-4df0-b6c4-591c74c5bc85","system_id":"levelo_inurba_marseille","lat":43.22514,"lon":5.34774,"is_reserved":false,"is_disabled":false,"rental_uris":{"android":"levelo://app?vid=f09e4e9f-5150-4df0-b6c4-591c74c5bc85","ios":"levelo://app?vid=f09e4e9f-5150-4df0-b6c4-591c74c5bc85"},"vehicle_type_id":"4","last_reported":1753622677,"current_range_meters":10000,"station_id":"st_cvj5dfep6f1abm77gieg","pricing_plan_id":"cebpf4jnsgd1na2vs0mg"},{"bike_id":"43cf4049-15dd-4e8c-88a8-61cd8dc10bf5","system_id":"levelo_inurba_marseille","lat":43.33267,"lon":5.38001,"is_reserved":false,"is_disabled":true,"rental_uris":{"android":"levelo://app?vid=43cf4049-15dd-4e8c-88a8-61cd8dc10bf5","ios":"levelo://app?vid=43cf4049-15dd-4e8c-88a8-61cd8dc10bf5"},"vehicle_type_id":"4","last_reported":1753622677,"current_range_meters":10000,"station_id":"","pricing_plan_id":"cebpf4jnsgd1na2vs0mg"},{"bike_id":"61cd7fe3-237f-4708-afc7-dd8a81b4454c","system_id":"levelo_inurba_marseille","lat":43.22929,"lon":5.3537,"is_reserved":false,"is_disabled":false,"rental_uris":{"android":"levelo://app?vid=61cd7fe3-237f-4708-afc7-dd8a81b4454c","ios":"levelo://app?vid=61cd7fe3-237f-4708-afc7-dd8a81b4454c"},"vehicle_type_id":"4","last_reported":1753622677,"current_range_meters":10000,"station_id":"cpo3532slgdg3j2ikp40","pricing_plan_id":"cebpf4jnsgd1na2vs0mg"},{"bike_id":"02cab979-ccb2-40ce-bd89-cd624415fc04","system_id":"levelo_inurba_marseille","lat":43.2778,"lon":5.39927,"is_reserved":false,"is_disabled":false,"rental_uris":{"android":"levelo://app?vid=02cab979-ccb2-40ce-bd89-cd624415fc04","ios":"levelo://app?vid=02cab979-ccb2-40ce-bd89-cd624415fc04"},"vehicle_type_id":"4","last_reported":1753622677,"current_range_meters":10000,"station_id":"","pricing_plan_id":"cebpf4jnsgd1na2vs0mg"},{"bike_id":"ac959bc4-bbf9-4292-9183-2b986e983442","system_id":"levelo_inurba_marseille","lat":43.28587,"lon":5.35124,"is_reserved":false,"is_disabled":false,"rental_uris":{"android":"levelo://app?vid=ac959bc4-bbf9-4292-9183-2b986e983442","ios":"levelo://app?vid=ac959bc4-bbf9-4292-9183-2b986e983442"},"vehicle_type_id":"4","last_reported":1753622677,"current_range_meters":10000,"station_id":"ce4bhch2rcd13ifvqeug","pricing_plan_id":"cebpf4jnsgd1na2vs0mg"},{"bike_id":"4e97a19b-88ac-4646-bb67-c4e1763b513d","system_id":"levelo_inurba_marseille","lat":43.29249,"lon":5.3844,"is_reserved":false,"is_disabled":true,"rental_uris":{"android":"levelo://app?vid=4e97a19b-88ac-4646-bb67-c4e1763b513d","ios":"levelo://app?vid=4e97a19b-88ac-4646-bb67-c4e1763b513d"},"vehicle_type_id":"4","last_reported":1753622677,"current_range_meters":10000,"station_id":"ce4bh692rcd13ifvqea0","pricing_plan_id":"cebpf4jnsgd1na2vs0mg"},{"bike_id":"2fa9dd39-7ea8-42db-9ead-ca5e3675e815","system_id":"levelo_inurba_marseille","lat":43.302249,"lon":5.394602,"is_reserved":false,"is_disabled":true,"rental_uris":{"android":"levelo://app?vid=2fa9dd39-7ea8-42db-9ead-ca5e3675e815","ios":"levelo://app?vid=2fa9dd39-7ea8-42db-9ead-ca5e3675e815"},"vehicle_type_id":"4","last_reported":1753622677,"current_range_meters":10000,"station_id":"ce4bh0p2rcd13ifvqd70","pricing_plan_id":"cebpf4jnsgd1na2vs0mg"},{"bike_id":"573c51cb-3b97-449b-8cf3-83f1cf30fc4b","system_id":"levelo_inurba_marseille","lat":43.24138,"lon":5.36403,"is_reserved":false,"is_disabled":false,"rental_uris":{"android":"levelo://app?vid=573c51cb-3b97-449b-8cf3-83f1cf30fc4b","ios":"levelo://app?vid=573c51cb-3b97-449b-8cf3-83f1cf30fc4b"},"vehicle_type_id":"4","last_reported":1753622677,"current_range_meters":10000,"station_id":"cpo36qri1sfpv3e86is0","pricing_plan_id":"cebpf4jnsgd1na2vs0mg"},{"bike_id":"7e65c5ea-0429-45f5-a396-bd32e67f0744","system_id":"levelo_inurba_marseille","lat":43.334615,"lon":5.400454,"is_reserved":false,"is_disabled":false,"rental_uris":{"android":"levelo://app?vid=7e65c5ea-0429-45f5-a396-bd32e67f0744","ios":"levelo://app?vid=7e65c5ea-0429-45f5-a396-bd32e67f0744"},"vehicle_type_id":"4","last_reported":1753622677,"current_range_meters":10000,"station_id":"","pricing_plan_id":"cebpf4jnsgd1na2vs0mg"},{"bike_id":"9c7aeaec-5df9-4ed5-9a45-96fac68c60c5","system_id":"levelo_inurba_marseille","lat":43.22506,"lon":5.34785,"is_reserved":false,"is_disabled":false,"rental_uris":{"android":"levelo://app?vid=9c7aeaec-5df9-4ed5-9a45-96fac68c60c5","ios":"levelo://app?vid=9c7aeaec-5df9-4ed5-9a45-96fac68c60c5"},"vehicle_type_id":"4","last_reported":1753622677,"current_range_meters":10800,"station_id":"st_cvj5dfep6f1abm77gieg","pricing_plan_id":"cebpf4jnsgd1na2vs0mg"},{"bike_id":"76b619aa-af9b-4282-ae0c-b99676e9c71a","system_id":"levelo_inurba_marseille","lat":43.23196,"lon":5.35549,"is_reserved":false,"is_disabled":false,"rental_uris":{"android":"levelo://app?vid=76b619aa-af9b-4282-ae0c-b99676e9c71a","ios":"levelo://app?vid=76b619aa-af9b-4282-ae0c-b99676e9c71a"},"vehicle_type_id":"4","last_reported":1753622677,"current_range_meters":10800,"station_id":"ce4bhu92rcd13ifvqi70","pricing_plan_id":"cebpf4jnsgd1na2vs0mg"},{"bike_id":"d5a63dee-a415-40f6-88a8-f1d25d6ddaa1","system_id":"levelo_inurba_marseille","lat":43.290311,"lon":5.399895,"is_reserved":false,"is_disabled":true,"rental_uris":{"android":"levelo://app?vid=d5a63dee-a415-40f6-88a8-f1d25d6ddaa1","ios":"levelo://app?vid=d5a63dee-a415-40f6-88a8-f1d25d6ddaa1"},"vehicle_type_id":"4","last_reported":1753622677,"current_range_meters":10800,"station_id":"ce4bh392rcd13ifvqdm0","pricing_plan_id":"cebpf4jnsgd1na2vs0mg"},{"bike_id":"f3d9f4e3-18e1-46b0-943e-1414afeca2da","system_id":"levelo_inurba_marseille","lat":43.22956,"lon":5.35396,"is_reserved":false,"is_disabled":false,"rental_uris":{"android":"levelo://app?vid=f3d9f4e3-18e1-46b0-943e-1414afeca2da","ios":"levelo://app?vid=f3d9f4e3-18e1-46b0-943e-1414afeca2da"},"vehicle_type_id":"4","last_reported":1753622677,"current_range_meters":10800,"station_id":"cpo3532slgdg3j2ikp40","pricing_plan_id":"cebpf4jnsgd1na2vs0mg"},{"bike_id":"30ef95d2-54bc-481f-ab7a-7520889dc3ef","system_id":"levelo_inurba_marseille","lat":43.33029,"lon":5.39048,"is_reserved":false,"is_disabled":false,"rental_uris":{"android":"levelo://app?vid=30ef95d2-54bc-481f-ab7a-7520889dc3ef","ios":"levelo://app?vid=30ef95d2-54bc-481f-ab7a-7520889dc3ef"},"vehicle_type_id":"4","last_reported":1753622677,"current_range_meters":10800,"station_id":"ce4bhr92rcd13ifvqhrg","pricing_plan_id":"cebpf4jnsgd1na2vs0mg"},{"bike_id":"1e44bfa9-7954-4d7f-9fef-e3ab22aee0cf","system_id":"levelo_inurba_marseille","lat":43.30423,"lon":5.4129,"is_reserved":false,"is_disabled":false,"rental_uris":{"android":"levelo://app?vid=1e44bfa9-7954-4d7f-9fef-e3ab22aee0cf","ios":"levelo://app?vid=1e44bfa9-7954-4d7f-9fef-e3ab22aee0cf"},"vehicle_type_id":"4","last_reported":1753622677,"current_range_meters":10000,"station_id":"ce4bhop2rcd13ifvqh8g","pricing_plan_id":"cebpf4jnsgd1na2vs0mg"},{"bike_id":"9188366a-c6a3-4354-b558-553177316347","system_id":"levelo_inurba_marseille","lat":43.26224,"lon":5.37435,"is_reserved":false,"is_disabled":true,"rental_uris":{"android":"levelo://app?vid=9188366a-c6a3-4354-b558-553177316347","ios":"levelo://app?vid=9188366a-c6a3-4354-b558-553177316347"},"vehicle_type_id":"4","last_reported":1753622677,"current_range_meters":10800,"station_id":"","pricing_plan_id":"cebpf4jnsgd1na2vs0mg"},{"bike_id":"01be8c69-8f11-4b88-83fb-531a72f6e8c4","system_id":"levelo_inurba_marseille","lat":43.23059,"lon":5.35489,"is_reserved":false,"is_disabled":false,"rental_uris":{"android":"levelo://app?vid=01be8c69-8f11-4b88-83fb-531a72f6e8c4","ios":"levelo://app?vid=01be8c69-8f11-4b88-83fb-531a72f6e8c4"},"vehicle_type_id":"4","last_reported":1753622677,"current_range_meters":10800,"station_id":"cpo3342slgdg3j2ifvpg","pricing_plan_id":"cebpf4jnsgd1na2vs0mg"},{"bike_id":"2aed3c9e-e3c8-4480-9b5a-5c5c7d6b18f6","system_id":"levelo_inurba_marseille","lat":43.28626,"lon":5.35102,"is_reserved":false,"is_disabled":false,"rental_uris":{"android":"levelo://app?vid=2aed3c9e-e3c8-4480-9b5a-5c5c7d6b18f6","ios":"levelo://app?vid=2aed3c9e-e3c8-4480-9b5a-5c5c7d6b18f6"},"vehicle_type_id":"4","last_reported":1753622677,"current_range_meters":10800,"station_id":"ce4bhch2rcd13ifvqeug","pricing_plan_id":"cebpf4jnsgd1na2vs0mg"},{"bike_id":"6600efeb-3deb-4adf-8a5d-7e6b4b1138bd","system_id":"levelo_inurba_marseille","lat":43.2737,"lon":5.3626,"is_reserved":false,"is_disabled":false,"rental_uris":{"android":"levelo://app?vid=6600efeb-3deb-4adf-8a5d-7e6b4b1138bd","ios":"levelo://app?vid=6600efeb-3deb-4adf-8a5d-7e6b4b1138bd"},"vehicle_type_id":"4","last_reported":1753622677,"current_range_meters":10800,"station_id":"ce4bhbh2rcd13ifvqeo0","pricing_plan_id":"cebpf4jnsgd1na2vs0mg"},{"bike_id":"3e67f28e-f301-4d5f-a72e-ff6f13faf05d","system_id":"levelo_inurba_marseille","lat":43.29028,"lon":5.38645,"is_reserved":false,"is_disabled":false,"rental_uris":{"android":"levelo://app?vid=3e67f28e-f301-4d5f-a72e-ff6f13faf05d","ios":"levelo://app?vid=3e67f28e-f301-4d5f-a72e-ff6f13faf05d"},"vehicle_type_id":"4","last_reported":1753622677,"current_range_meters":10800,"station_id":"ce4bh4p2rcd13ifvqe0g","pricing_plan_id":"cebpf4jnsgd1na2vs0mg"},{"bike_id":"898d1f8e-e261-4f25-9386-a6825028d102","system_id":"levelo_inurba_marseille","lat":43.29042,"lon":5.47376,"is_reserved":false,"is_disabled":false,"rental_uris":{"android":"levelo://app?vid=898d1f8e-e261-4f25-9386-a6825028d102","ios":"levelo://app?vid=898d1f8e-e261-4f25-9386-a6825028d102"},"vehicle_type_id":"4","last_reported":1753622677,"current_range_meters":11200,"station_id":"","pricing_plan_id":"cebpf4jnsgd1na2vs0mg"},{"bike_id":"9dfdeb8a-ee13-4931-94b4-ad2b5f23aa4b","system_id":"levelo_inurba_marseille","lat":43.23182,"lon":5.39984,"is_reserved":false,"is_disabled":true,"rental_uris":{"android":"levelo://app?vid=9dfdeb8a-ee13-4931-94b4-ad2b5f23aa4b","ios":"levelo://app?vid=9dfdeb8a-ee13-4931-94b4-ad2b5f23aa4b"},"vehicle_type_id":"4","last_reported":1753622677,"current_range_meters":11200,"station_id":"ce4bhn12rcd13ifvqgqg","pricing_plan_id":"cebpf4jnsgd1na2vs0mg"},{"bike_id":"f26497c6-1103-4d36-93d4-48dfd96ca3dc","system_id":"levelo_inurba_marseille","lat":43.28608,"lon":5.35095,"is_reserved":false,"is_disabled":false,"rental_uris":{"android":"levelo://app?vid=f26497c6-1103-4d36-93d4-48dfd96ca3dc","ios":"levelo://app?vid=f26497c6-1103-4d36-93d4-48dfd96ca3dc"},"vehicle_type_id":"4","last_reported":1753622677,"current_range_meters":11200,"station_id":"ce4bhch2rcd13ifvqeug","pricing_plan_id":"cebpf4jnsgd1na2vs0mg"},{"bike_id":"a05343f6-5345-451e-92c9-8d14b4ec04eb","system_id":"levelo_inurba_marseille","lat":43.314919,"lon":5.373082,"is_reserved":false,"is_disabled":false,"rental_uris":{"android":"levelo://app?vid=a05343f6-5345-451e-92c9-8d14b4ec04eb","ios":"levelo://app?vid=a05343f6-5345-451e-92c9-8d14b4ec04eb"},"vehicle_type_id":"4","last_reported":1753622677,"current_range_meters":11200,"station_id":"","pricing_plan_id":"cebpf4jnsgd1na2vs0mg"},{"bike_id":"d3bc0a39-be9e-44a6-87a7-db92e94629d3","system_id":"levelo_inurba_marseille","lat":43.23192,"lon":5.35551,"is_reserved":false,"is_disabled":false,"rental_uris":{"android":"levelo://app?vid=d3bc0a39-be9e-44a6-87a7-db92e94629d3","ios":"levelo://app?vid=d3bc0a39-be9e-44a6-87a7-db92e94629d3"},"vehicle_type_id":"4","last_reported":1753622677,"current_range_meters":11200,"station_id":"ce4bhu92rcd13ifvqi70","pricing_plan_id":"cebpf4jnsgd1na2vs0mg"},{"bike_id":"a1d5115b-997f-44a5-8b4b-21cb29757407","system_id":"levelo_inurba_marseille","lat":43.312163,"lon":5.373094,"is_reserved":false,"is_disabled":false,"rental_uris":{"android":"levelo://app?vid=a1d5115b-997f-44a5-8b4b-21cb29757407","ios":"levelo://app?vid=a1d5115b-997f-44a5-8b4b-21cb29757407"},"vehicle_type_id":"4","last_reported":1753622677,"current_range_meters":11200,"station_id":"","pricing_plan_id":"cebpf4jnsgd1na2vs0mg"},{"bike_id":"e9471bb9-5984-4162-acf7-bd69c2d3f921","system_id":"levelo_inurba_marseille","lat":43.28426,"lon":5.35005,"is_reserved":false,"is_disabled":false,"rental_uris":{"android":"levelo://app?vid=e9471bb9-5984-4162-acf7-bd69c2d3f921","ios":"levelo://app?vid=e9471bb9-5984-4162-acf7-bd69c2d3f921"},"vehicle_type_id":"4","last_reported":1753622677,"current_range_meters":11200,"station_id":"ce4bhbh2rcd13ifvqepg","pricing_plan_id":"cebpf4jnsgd1na2vs0mg"},{"bike_id":"f49b853f-8322-48a8-8197-ee97b22c4347","system_id":"levelo_inurba_marseille","lat":43.23964,"lon":5.36642,"is_reserved":false,"is_disabled":false,"rental_uris":{"android":"levelo://app?vid=f49b853f-8322-48a8-8197-ee97b22c4347","ios":"levelo://app?vid=f49b853f-8322-48a8-8197-ee97b22c4347"},"vehicle_type_id":"4","last_reported":1753622677,"current_range_meters":11200,"station_id":"ce4bhi12rcd13ifvqfp0","pricing_plan_id":"cebpf4jnsgd1na2vs0mg"},{"bike_id":"416acd6b-072a-494f-b869-b2b61f9cc9d7","system_id":"levelo_inurba_marseille","lat":43.224945,"lon":5.347846,"is_reserved":false,"is_disabled":false,"rental_uris":{"android":"levelo://app?vid=416acd6b-072a-494f-b869-b2b61f9cc9d7","ios":"levelo://app?vid=416acd6b-072a-494f-b869-b2b61f9cc9d7"},"vehicle_type_id":"4","last_reported":1753622677,"current_range_meters":11200,"station_id":"st_cvj5dfep6f1abm77gieg","pricing_plan_id":"cebpf4jnsgd1na2vs0mg"},{"bike_id":"bdc8ef21-146d-46ff-9c91-249dba0037c7","system_id":"levelo_inurba_marseille","lat":43.2293,"lon":5.35381,"is_reserved":false,"is_disabled":false,"rental_uris":{"android":"levelo://app?vid=bdc8ef21-146d-46ff-9c91-249dba0037c7","ios":"levelo://app?vid=bdc8ef21-146d-46ff-9c91-249dba0037c7"},"vehicle_type_id":"4","last_reported":1753622677,"current_range_meters":11600,"station_id":"cpo3532slgdg3j2ikp40","pricing_plan_id":"cebpf4jnsgd1na2vs0mg"},{"bike_id":"8afe29e1-e03f-4016-811b-7b5c86bee588","system_id":"levelo_inurba_marseille","lat":43.26953,"lon":5.38628,"is_reserved":false,"is_disabled":false,"rental_uris":{"android":"levelo://app?vid=8afe29e1-e03f-4016-811b-7b5c86bee588","ios":"levelo://app?vid=8afe29e1-e03f-4016-811b-7b5c86bee588"},"vehicle_type_id":"4","last_reported":1753622677,"current_range_meters":11600,"station_id":"ce4bhh92rcd13ifvqfh0","pricing_plan_id":"cebpf4jnsgd1na2vs0mg"},{"bike_id":"7fe8107c-aa92-49b9-a3d4-b0180595b13e","system_id":"levelo_inurba_marseille","lat":43.298235,"lon":5.376573,"is_reserved":false,"is_disabled":false,"rental_uris":{"android":"levelo://app?vid=7fe8107c-aa92-49b9-a3d4-b0180595b13e","ios":"levelo://app?vid=7fe8107c-aa92-49b9-a3d4-b0180595b13e"},"vehicle_type_id":"4","last_reported":1753622677,"current_range_meters":11600,"station_id":"","pricing_plan_id":"cebpf4jnsgd1na2vs0mg"},{"bike_id":"1e5c96a6-9d0f-4d5f-85ef-5a5f8ac0317a","system_id":"levelo_inurba_marseille","lat":43.334198,"lon":5.39113,"is_reserved":false,"is_disabled":false,"rental_uris":{"android":"levelo://app?vid=1e5c96a6-9d0f-4d5f-85ef-5a5f8ac0317a","ios":"levelo://app?vid=1e5c96a6-9d0f-4d5f-85ef-5a5f8ac0317a"},"vehicle_type_id":"4","last_reported":1753622677,"current_range_meters":11600,"station_id":"","pricing_plan_id":"cebpf4jnsgd1na2vs0mg"},{"bike_id":"43dbc09e-d0e4-4ddb-bafe-4f55874d23a9","system_id":"levelo_inurba_marseille","lat":43.30235,"lon":5.38232,"is_reserved":false,"is_disabled":false,"rental_uris":{"android":"levelo://app?vid=43dbc09e-d0e4-4ddb-bafe-4f55874d23a9","ios":"levelo://app?vid=43dbc09e-d0e4-4ddb-bafe-4f55874d23a9"},"vehicle_type_id":"4","last_reported":1753622677,"current_range_meters":11600,"station_id":"","pricing_plan_id":"cebpf4jnsgd1na2vs0mg"},{"bike_id":"3855a60e-b941-4f32-9775-f01fa2f4ac60","system_id":"levelo_inurba_marseille","lat":43.28038,"lon":5.3694,"is_reserved":false,"is_disabled":false,"rental_uris":{"android":"levelo://app?vid=3855a60e-b941-4f32-9775-f01fa2f4ac60","ios":"levelo://app?vid=3855a60e-b941-4f32-9775-f01fa2f4ac60"},"vehicle_type_id":"4","last_reported":1753622677,"current_range_meters":11600,"station_id":"ce4bha12rcd13ifvqef0","pricing_plan_id":"cebpf4jnsgd1na2vs0mg"},{"bike_id":"b6122faa-2119-4970-8c95-30fbb786e399","system_id":"levelo_inurba_marseille","lat":43.28043,"lon":5.36945,"is_reserved":false,"is_disabled":false,"rental_uris":{"android":"levelo://app?vid=b6122faa-2119-4970-8c95-30fbb786e399","ios":"levelo://app?vid=b6122faa-2119-4970-8c95-30fbb786e399"},"vehicle_type_id":"4","last_reported":1753622677,"current_range_meters":12000,"station_id":"ce4bha12rcd13ifvqef0","pricing_plan_id":"cebpf4jnsgd1na2vs0mg"},{"bike_id":"5ac0a0d1-bc6d-4c10-858b-1dee94df74e4","system_id":"levelo_inurba_marseille","lat":43.30528,"lon":5.36719,"is_reserved":false,"is_disabled":false,"rental_uris":{"android":"levelo://app?vid=5ac0a0d1-bc6d-4c10-858b-1dee94df74e4","ios":"levelo://app?vid=5ac0a0d1-bc6d-4c10-858b-1dee94df74e4"},"vehicle_type_id":"4","last_reported":1753622677,"current_range_meters":11600,"station_id":"ce4bgrp2rcd13ifvqc9g","pricing_plan_id":"cebpf4jnsgd1na2vs0mg"},{"bike_id":"cbd3c835-3646-48da-a31a-110bb275e07a","system_id":"levelo_inurba_marseille","lat":43.286025,"lon":5.3708,"is_reserved":false,"is_disabled":false,"rental_uris":{"android":"levelo://app?vid=cbd3c835-3646-48da-a31a-110bb275e07a","ios":"levelo://app?vid=cbd3c835-3646-48da-a31a-110bb275e07a"},"vehicle_type_id":"4","last_reported":1753622677,"current_range_meters":12400,"station_id":"ce4bht12rcd13ifvqi60","pricing_plan_id":"cebpf4jnsgd1na2vs0mg"},{"bike_id":"8f785e69-82ae-4e1d-82c1-f85cc3f67788","system_id":"levelo_inurba_marseille","lat":43.29098,"lon":5.38147,"is_reserved":false,"is_disabled":true,"rental_uris":{"android":"levelo://app?vid=8f785e69-82ae-4e1d-82c1-f85cc3f67788","ios":"levelo://app?vid=8f785e69-82ae-4e1d-82c1-f85cc3f67788"},"vehicle_type_id":"4","last_reported":1753622677,"current_range_meters":12400,"station_id":"ce4bh512rcd13ifvqe2g","pricing_plan_id":"cebpf4jnsgd1na2vs0mg"},{"bike_id":"f7666a02-d01b-430d-af50-72d577e4dc63","system_id":"levelo_inurba_marseille","lat":43.27373,"lon":5.36254,"is_reserved":false,"is_disabled":false,"rental_uris":{"android":"levelo://app?vid=f7666a02-d01b-430d-af50-72d577e4dc63","ios":"levelo://app?vid=f7666a02-d01b-430d-af50-72d577e4dc63"},"vehicle_type_id":"4","last_reported":1753622677,"current_range_meters":12400,"station_id":"ce4bhbh2rcd13ifvqeo0","pricing_plan_id":"cebpf4jnsgd1na2vs0mg"},{"bike_id":"2775510b-569a-4ae7-a1d0-e94f552f3a0a","system_id":"levelo_inurba_marseille","lat":43.29627,"lon":5.40595,"is_reserved":false,"is_disabled":false,"rental_uris":{"android":"levelo://app?vid=2775510b-569a-4ae7-a1d0-e94f552f3a0a","ios":"levelo://app?vid=2775510b-569a-4ae7-a1d0-e94f552f3a0a"},"vehicle_type_id":"4","last_reported":1753622677,"current_range_meters":12400,"station_id":"ce4bh0h2rcd13ifvqd60","pricing_plan_id":"cebpf4jnsgd1na2vs0mg"},{"bike_id":"9f5543b8-8f45-4b07-b495-a9a0f2a356ab","system_id":"levelo_inurba_marseille","lat":43.3017,"lon":5.38093,"is_reserved":false,"is_disabled":false,"rental_uris":{"android":"levelo://app?vid=9f5543b8-8f45-4b07-b495-a9a0f2a356ab","ios":"levelo://app?vid=9f5543b8-8f45-4b07-b495-a9a0f2a356ab"},"vehicle_type_id":"4","last_reported":1753622677,"current_range_meters":12400,"station_id":"ce4bgjp2rcd13ifvqbh0","pricing_plan_id":"cebpf4jnsgd1na2vs0mg"},{"bike_id":"f282b4fd-71a1-49ab-9735-c0669a9a192d","system_id":"levelo_inurba_marseille","lat":43.29796,"lon":5.38093,"is_reserved":false,"is_disabled":false,"rental_uris":{"android":"levelo://app?vid=f282b4fd-71a1-49ab-9735-c0669a9a192d","ios":"levelo://app?vid=f282b4fd-71a1-49ab-9735-c0669a9a192d"},"vehicle_type_id":"4","last_reported":1753622677,"current_range_meters":12400,"station_id":"ce4bgip2rcd13ifvqbb0","pricing_plan_id":"cebpf4jnsgd1na2vs0mg"},{"bike_id":"202f6e01-d530-4428-8066-8e1822076768","system_id":"levelo_inurba_marseille","lat":43.29036,"lon":5.37564,"is_reserved":false,"is_disabled":false,"rental_uris":{"android":"levelo://app?vid=202f6e01-d530-4428-8066-8e1822076768","ios":"levelo://app?vid=202f6e01-d530-4428-8066-8e1822076768"},"vehicle_type_id":"4","last_reported":1753622677,"current_range_meters":12400,"station_id":"","pricing_plan_id":"cebpf4jnsgd1na2vs0mg"},{"bike_id":"743a6248-f8f0-46e1-aabd-23c4ce301c3b","system_id":"levelo_inurba_marseille","lat":43.28273,"lon":5.3507,"is_reserved":false,"is_disabled":false,"rental_uris":{"android":"levelo://app?vid=743a6248-f8f0-46e1-aabd-23c4ce301c3b","ios":"levelo://app?vid=743a6248-f8f0-46e1-aabd-23c4ce301c3b"},"vehicle_type_id":"4","last_reported":1753622677,"current_range_meters":12400,"station_id":"ce4bhbp2rcd13ifvqerg","pricing_plan_id":"cebpf4jnsgd1na2vs0mg"},{"bike_id":"bb0db1a8-1b0c-444a-bb9a-ea686810084f","system_id":"levelo_inurba_marseille","lat":43.22503,"lon":5.3478,"is_reserved":false,"is_disabled":false,"rental_uris":{"android":"levelo://app?vid=bb0db1a8-1b0c-444a-bb9a-ea686810084f","ios":"levelo://app?vid=bb0db1a8-1b0c-444a-bb9a-ea686810084f"},"vehicle_type_id":"4","last_reported":1753622677,"current_range_meters":12400,"station_id":"st_cvj5dfep6f1abm77gieg","pricing_plan_id":"cebpf4jnsgd1na2vs0mg"},{"bike_id":"aebdf431-3b97-428a-a9b4-1e35e4b29383","system_id":"levelo_inurba_marseille","lat":43.31707,"lon":5.40459,"is_reserved":false,"is_disabled":false,"rental_uris":{"android":"levelo://app?vid=aebdf431-3b97-428a-a9b4-1e35e4b29383","ios":"levelo://app?vid=aebdf431-3b97-428a-a9b4-1e35e4b29383"},"vehicle_type_id":"4","last_reported":1753622677,"current_range_meters":12800,"station_id":"ce4bh012rcd13ifvqd00","pricing_plan_id":"cebpf4jnsgd1na2vs0mg"},{"bike_id":"c9fcf720-9aa1-454f-a5fe-0fef884d4245","system_id":"levelo_inurba_marseille","lat":43.31713,"lon":5.40446,"is_reserved":false,"is_disabled":false,"rental_uris":{"android":"levelo://app?vid=c9fcf720-9aa1-454f-a5fe-0fef884d4245","ios":"levelo://app?vid=c9fcf720-9aa1-454f-a5fe-0fef884d4245"},"vehicle_type_id":"4","last_reported":1753622677,"current_range_meters":12800,"station_id":"ce4bh012rcd13ifvqd00","pricing_plan_id":"cebpf4jnsgd1na2vs0mg"},{"bike_id":"e3ed80d3-1465-4162-918b-d2972cea9615","system_id":"levelo_inurba_marseille","lat":43.28254,"lon":5.35073,"is_reserved":false,"is_disabled":false,"rental_uris":{"android":"levelo://app?vid=e3ed80d3-1465-4162-918b-d2972cea9615","ios":"levelo://app?vid=e3ed80d3-1465-4162-918b-d2972cea9615"},"vehicle_type_id":"4","last_reported":1753622677,"current_range_meters":12800,"station_id":"ce4bhbp2rcd13ifvqerg","pricing_plan_id":"cebpf4jnsgd1na2vs0mg"},{"bike_id":"2a02250a-de91-4daa-93be-c3f8c00af0bb","system_id":"levelo_inurba_marseille","lat":43.28597,"lon":5.35139,"is_reserved":false,"is_disabled":false,"rental_uris":{"android":"levelo://app?vid=2a02250a-de91-4daa-93be-c3f8c00af0bb","ios":"levelo://app?vid=2a02250a-de91-4daa-93be-c3f8c00af0bb"},"vehicle_type_id":"4","last_reported":1753622677,"current_range_meters":12800,"station_id":"ce4bhch2rcd13ifvqeug","pricing_plan_id":"cebpf4jnsgd1na2vs0mg"},{"bike_id":"da0dea9a-07a2-4249-aa7c-2489e28d40de","system_id":"levelo_inurba_marseille","lat":43.29673,"lon":5.3622,"is_reserved":false,"is_disabled":false,"rental_uris":{"android":"levelo://app?vid=da0dea9a-07a2-4249-aa7c-2489e28d40de","ios":"levelo://app?vid=da0dea9a-07a2-4249-aa7c-2489e28d40de"},"vehicle_type_id":"4","last_reported":1753622677,"current_range_meters":13600,"station_id":"","pricing_plan_id":"cebpf4jnsgd1na2vs0mg"},{"bike_id":"905576ef-66ce-426e-9600-566828c3b671","system_id":"levelo_inurba_marseille","lat":43.21743,"lon":5.34605,"is_reserved":false,"is_disabled":true,"rental_uris":{"android":"levelo://app?vid=905576ef-66ce-426e-9600-566828c3b671","ios":"levelo://app?vid=905576ef-66ce-426e-9600-566828c3b671"},"vehicle_type_id":"4","last_reported":1753622677,"current_range_meters":13600,"station_id":"","pricing_plan_id":"cebpf4jnsgd1na2vs0mg"},{"bike_id":"f2e73ed9-a948-43ea-ab9d-32368cf8a475","system_id":"levelo_inurba_marseille","lat":43.26196,"lon":5.37448,"is_reserved":false,"is_disabled":true,"rental_uris":{"android":"levelo://app?vid=f2e73ed9-a948-43ea-ab9d-32368cf8a475","ios":"levelo://app?vid=f2e73ed9-a948-43ea-ab9d-32368cf8a475"},"vehicle_type_id":"4","last_reported":1753622677,"current_range_meters":13600,"station_id":"ce4bhgp2rcd13ifvqfc0","pricing_plan_id":"cebpf4jnsgd1na2vs0mg"},{"bike_id":"7045e80f-5939-4c03-8cd7-38468d6a9365","system_id":"levelo_inurba_marseille","lat":43.25578,"lon":5.38228,"is_reserved":false,"is_disabled":false,"rental_uris":{"android":"levelo://app?vid=7045e80f-5939-4c03-8cd7-38468d6a9365","ios":"levelo://app?vid=7045e80f-5939-4c03-8cd7-38468d6a9365"},"vehicle_type_id":"4","last_reported":1753622677,"current_range_meters":13600,"station_id":"ce4bhih2rcd13ifvqfs0","pricing_plan_id":"cebpf4jnsgd1na2vs0mg"},{"bike_id":"87517f6b-f773-4f55-8e98-ac1995c56b84","system_id":"levelo_inurba_marseille","lat":43.28416,"lon":5.34977,"is_reserved":false,"is_disabled":false,"rental_uris":{"android":"levelo://app?vid=87517f6b-f773-4f55-8e98-ac1995c56b84","ios":"levelo://app?vid=87517f6b-f773-4f55-8e98-ac1995c56b84"},"vehicle_type_id":"4","last_reported":1753622677,"current_range_meters":13600,"station_id":"ce4bhbh2rcd13ifvqepg","pricing_plan_id":"cebpf4jnsgd1na2vs0mg"},{"bike_id":"9031029c-e9ce-4c06-b077-337e822ed40d","system_id":"levelo_inurba_marseille","lat":43.29782,"lon":5.37099,"is_reserved":false,"is_disabled":false,"rental_uris":{"android":"levelo://app?vid=9031029c-e9ce-4c06-b077-337e822ed40d","ios":"levelo://app?vid=9031029c-e9ce-4c06-b077-337e822ed40d"},"vehicle_type_id":"4","last_reported":1753622677,"current_range_meters":13600,"station_id":"ce4bgop2rcd13ifvqc1g","pricing_plan_id":"cebpf4jnsgd1na2vs0mg"},{"bike_id":"860ec3be-f404-4d5b-9e32-d60aefe57cd2","system_id":"levelo_inurba_marseille","lat":43.30151,"lon":5.38097,"is_reserved":false,"is_disabled":false,"rental_uris":{"android":"levelo://app?vid=860ec3be-f404-4d5b-9e32-d60aefe57cd2","ios":"levelo://app?vid=860ec3be-f404-4d5b-9e32-d60aefe57cd2"},"vehicle_type_id":"4","last_reported":1753622677,"current_range_meters":13600,"station_id":"ce4bgjp2rcd13ifvqbh0","pricing_plan_id":"cebpf4jnsgd1na2vs0mg"},{"bike_id":"04cdc577-2314-4af7-8160-e02ad6872966","system_id":"levelo_inurba_marseille","lat":43.28428,"lon":5.35005,"is_reserved":false,"is_disabled":false,"rental_uris":{"android":"levelo://app?vid=04cdc577-2314-4af7-8160-e02ad6872966","ios":"levelo://app?vid=04cdc577-2314-4af7-8160-e02ad6872966"},"vehicle_type_id":"4","last_reported":1753622677,"current_range_meters":13600,"station_id":"ce4bhbh2rcd13ifvqepg","pricing_plan_id":"cebpf4jnsgd1na2vs0mg"},{"bike_id":"51ad7dd7-88ab-4eb9-87b7-6c1197faf725","system_id":"levelo_inurba_marseille","lat":43.28617,"lon":5.351,"is_reserved":false,"is_disabled":false,"rental_uris":{"android":"levelo://app?vid=51ad7dd7-88ab-4eb9-87b7-6c1197faf725","ios":"levelo://app?vid=51ad7dd7-88ab-4eb9-87b7-6c1197faf725"},"vehicle_type_id":"4","last_reported":1753622677,"current_range_meters":13600,"station_id":"ce4bhch2rcd13ifvqeug","pricing_plan_id":"cebpf4jnsgd1na2vs0mg"},{"bike_id":"bf375091-1981-4c86-94e2-591610b870d3","system_id":"levelo_inurba_marseille","lat":43.26209,"lon":5.37445,"is_reserved":false,"is_disabled":false,"rental_uris":{"android":"levelo://app?vid=bf375091-1981-4c86-94e2-591610b870d3","ios":"levelo://app?vid=bf375091-1981-4c86-94e2-591610b870d3"},"vehicle_type_id":"4","last_reported":1753622677,"current_range_meters":13600,"station_id":"ce4bhgp2rcd13ifvqfc0","pricing_plan_id":"cebpf4jnsgd1na2vs0mg"},{"bike_id":"fa5db2ef-4cec-4bf2-b8b6-3cc78cda6559","system_id":"levelo_inurba_marseille","lat":43.27373,"lon":5.36259,"is_reserved":false,"is_disabled":false,"rental_uris":{"android":"levelo://app?vid=fa5db2ef-4cec-4bf2-b8b6-3cc78cda6559","ios":"levelo://app?vid=fa5db2ef-4cec-4bf2-b8b6-3cc78cda6559"},"vehicle_type_id":"4","last_reported":1753622677,"current_range_meters":13600,"station_id":"ce4bhbh2rcd13ifvqeo0","pricing_plan_id":"cebpf4jnsgd1na2vs0mg"},{"bike_id":"ee8227a9-b8da-44bd-9ae9-e44a6604d558","system_id":"levelo_inurba_marseille","lat":43.25587,"lon":5.38246,"is_reserved":false,"is_disabled":false,"rental_uris":{"android":"levelo://app?vid=ee8227a9-b8da-44bd-9ae9-e44a6604d558","ios":"levelo://app?vid=ee8227a9-b8da-44bd-9ae9-e44a6604d558"},"vehicle_type_id":"4","last_reported":1753622677,"current_range_meters":13600,"station_id":"ce4bhih2rcd13ifvqfs0","pricing_plan_id":"cebpf4jnsgd1na2vs0mg"},{"bike_id":"f52d9f58-d806-4eb0-a974-5a105b41c266","system_id":"levelo_inurba_marseille","lat":43.28263,"lon":5.35062,"is_reserved":false,"is_disabled":false,"rental_uris":{"android":"levelo://app?vid=f52d9f58-d806-4eb0-a974-5a105b41c266","ios":"levelo://app?vid=f52d9f58-d806-4eb0-a974-5a105b41c266"},"vehicle_type_id":"4","last_reported":1753622677,"current_range_meters":14000,"station_id":"ce4bhbp2rcd13ifvqerg","pricing_plan_id":"cebpf4jnsgd1na2vs0mg"},{"bike_id":"ffa1f981-cb5d-4c32-a0ef-e884572fffc1","system_id":"levelo_inurba_marseille","lat":43.28419,"lon":5.34974,"is_reserved":false,"is_disabled":false,"rental_uris":{"android":"levelo://app?vid=ffa1f981-cb5d-4c32-a0ef-e884572fffc1","ios":"levelo://app?vid=ffa1f981-cb5d-4c32-a0ef-e884572fffc1"},"vehicle_type_id":"4","last_reported":1753622677,"current_range_meters":14000,"station_id":"ce4bhbh2rcd13ifvqepg","pricing_plan_id":"cebpf4jnsgd1na2vs0mg"},{"bike_id":"8512b265-75e1-49d7-bb7d-bd988c357d7c","system_id":"levelo_inurba_marseille","lat":43.28692,"lon":5.39971,"is_reserved":false,"is_disabled":true,"rental_uris":{"android":"levelo://app?vid=8512b265-75e1-49d7-bb7d-bd988c357d7c","ios":"levelo://app?vid=8512b265-75e1-49d7-bb7d-bd988c357d7c"},"vehicle_type_id":"4","last_reported":1753622677,"current_range_meters":14000,"station_id":"ce4bho92rcd13ifvqh3g","pricing_plan_id":"cebpf4jnsgd1na2vs0mg"},{"bike_id":"1ccbbc53-d7f3-4628-90f4-41d8793df8ee","system_id":"levelo_inurba_marseille","lat":43.28656,"lon":5.35061,"is_reserved":false,"is_disabled":false,"rental_uris":{"android":"levelo://app?vid=1ccbbc53-d7f3-4628-90f4-41d8793df8ee","ios":"levelo://app?vid=1ccbbc53-d7f3-4628-90f4-41d8793df8ee"},"vehicle_type_id":"4","last_reported":1753622677,"current_range_meters":14000,"station_id":"","pricing_plan_id":"cebpf4jnsgd1na2vs0mg"},{"bike_id":"484ce80f-12be-41fa-9586-784b84db2ffe","system_id":"levelo_inurba_marseille","lat":43.248125,"lon":5.374598,"is_reserved":false,"is_disabled":false,"rental_uris":{"android":"levelo://app?vid=484ce80f-12be-41fa-9586-784b84db2ffe","ios":"levelo://app?vid=484ce80f-12be-41fa-9586-784b84db2ffe"},"vehicle_type_id":"4","last_reported":1753622677,"current_range_meters":14400,"station_id":"ce4bhgh2rcd13ifvqfb0","pricing_plan_id":"cebpf4jnsgd1na2vs0mg"},{"bike_id":"1421954a-a4c7-4344-953f-9285416697bd","system_id":"levelo_inurba_marseille","lat":43.299683,"lon":5.386239,"is_reserved":false,"is_disabled":false,"rental_uris":{"android":"levelo://app?vid=1421954a-a4c7-4344-953f-9285416697bd","ios":"levelo://app?vid=1421954a-a4c7-4344-953f-9285416697bd"},"vehicle_type_id":"4","last_reported":1753622677,"current_range_meters":14400,"station_id":"","pricing_plan_id":"cebpf4jnsgd1na2vs0mg"},{"bike_id":"1fea57ae-02ee-4b8a-a680-33a915f16f2c","system_id":"levelo_inurba_marseille","lat":43.27373,"lon":5.36259,"is_reserved":false,"is_disabled":false,"rental_uris":{"android":"levelo://app?vid=1fea57ae-02ee-4b8a-a680-33a915f16f2c","ios":"levelo://app?vid=1fea57ae-02ee-4b8a-a680-33a915f16f2c"},"vehicle_type_id":"4","last_reported":1753622677,"current_range_meters":14400,"station_id":"ce4bhbh2rcd13ifvqeo0","pricing_plan_id":"cebpf4jnsgd1na2vs0mg"},{"bike_id":"81e10fae-2a77-4a7b-8854-0a052d187d88","system_id":"levelo_inurba_marseille","lat":43.2978,"lon":5.37015,"is_reserved":false,"is_disabled":false,"rental_uris":{"android":"levelo://app?vid=81e10fae-2a77-4a7b-8854-0a052d187d88","ios":"levelo://app?vid=81e10fae-2a77-4a7b-8854-0a052d187d88"},"vehicle_type_id":"4","last_reported":1753622677,"current_range_meters":14400,"station_id":"","pricing_plan_id":"cebpf4jnsgd1na2vs0mg"},{"bike_id":"be956771-4164-4493-9b77-3a55fe642a5b","system_id":"levelo_inurba_marseille","lat":43.29175,"lon":5.35801,"is_reserved":false,"is_disabled":false,"rental_uris":{"android":"levelo://app?vid=be956771-4164-4493-9b77-3a55fe642a5b","ios":"levelo://app?vid=be956771-4164-4493-9b77-3a55fe642a5b"},"vehicle_type_id":"4","last_reported":1753622677,"current_range_meters":14400,"station_id":"ce4bhb12rcd13ifvqel0","pricing_plan_id":"cebpf4jnsgd1na2vs0mg"},{"bike_id":"e666153e-0d94-49fc-a285-a6a2347ef6ad","system_id":"levelo_inurba_marseille","lat":43.26961,"lon":5.3863,"is_reserved":false,"is_disabled":true,"rental_uris":{"android":"levelo://app?vid=e666153e-0d94-49fc-a285-a6a2347ef6ad","ios":"levelo://app?vid=e666153e-0d94-49fc-a285-a6a2347ef6ad"},"vehicle_type_id":"4","last_reported":1753622677,"current_range_meters":14400,"station_id":"ce4bhh92rcd13ifvqfh0","pricing_plan_id":"cebpf4jnsgd1na2vs0mg"},{"bike_id":"6767cc8c-12bd-4345-b89c-dccfd8bf5eac","system_id":"levelo_inurba_marseille","lat":43.282584,"lon":5.350578,"is_reserved":false,"is_disabled":false,"rental_uris":{"android":"levelo://app?vid=6767cc8c-12bd-4345-b89c-dccfd8bf5eac","ios":"levelo://app?vid=6767cc8c-12bd-4345-b89c-dccfd8bf5eac"},"vehicle_type_id":"4","last_reported":1753622677,"current_range_meters":14400,"station_id":"ce4bhbp2rcd13ifvqerg","pricing_plan_id":"cebpf4jnsgd1na2vs0mg"},{"bike_id":"1de2a2d6-faaf-48f3-9009-b0c9d211b087","system_id":"levelo_inurba_marseille","lat":43.24809,"lon":5.37459,"is_reserved":false,"is_disabled":false,"rental_uris":{"android":"levelo://app?vid=1de2a2d6-faaf-48f3-9009-b0c9d211b087","ios":"levelo://app?vid=1de2a2d6-faaf-48f3-9009-b0c9d211b087"},"vehicle_type_id":"4","last_reported":1753622677,"current_range_meters":14400,"station_id":"ce4bhgh2rcd13ifvqfb0","pricing_plan_id":"cebpf4jnsgd1na2vs0mg"},{"bike_id":"b926e480-8440-4de2-9ea4-f1d4b4be2901","system_id":"levelo_inurba_marseille","lat":43.23952,"lon":5.36638,"is_reserved":false,"is_disabled":false,"rental_uris":{"android":"levelo://app?vid=b926e480-8440-4de2-9ea4-f1d4b4be2901","ios":"levelo://app?vid=b926e480-8440-4de2-9ea4-f1d4b4be2901"},"vehicle_type_id":"4","last_reported":1753622677,"current_range_meters":16000,"station_id":"ce4bhi12rcd13ifvqfp0","pricing_plan_id":"cebpf4jnsgd1na2vs0mg"},{"bike_id":"8d801f83-3686-49fa-a7fd-3701c57be20d","system_id":"levelo_inurba_marseille","lat":43.24037,"lon":5.37765,"is_reserved":false,"is_disabled":false,"rental_uris":{"android":"levelo://app?vid=8d801f83-3686-49fa-a7fd-3701c57be20d","ios":"levelo://app?vid=8d801f83-3686-49fa-a7fd-3701c57be20d"},"vehicle_type_id":"4","last_reported":1753622677,"current_range_meters":14400,"station_id":"ce4bhnp2rcd13ifvqgvg","pricing_plan_id":"cebpf4jnsgd1na2vs0mg"},{"bike_id":"1417443d-0df7-41d1-96f3-9df4c4d24ab4","system_id":"levelo_inurba_marseille","lat":43.28616,"lon":5.35102,"is_reserved":false,"is_disabled":false,"rental_uris":{"android":"levelo://app?vid=1417443d-0df7-41d1-96f3-9df4c4d24ab4","ios":"levelo://app?vid=1417443d-0df7-41d1-96f3-9df4c4d24ab4"},"vehicle_type_id":"4","last_reported":1753622677,"current_range_meters":14400,"station_id":"ce4bhch2rcd13ifvqeug","pricing_plan_id":"cebpf4jnsgd1na2vs0mg"},{"bike_id":"f9999ec6-9371-4e85-b7d5-6a9f0024b861","system_id":"levelo_inurba_marseille","lat":43.31399,"lon":5.37103,"is_reserved":false,"is_disabled":false,"rental_uris":{"android":"levelo://app?vid=f9999ec6-9371-4e85-b7d5-6a9f0024b861","ios":"levelo://app?vid=f9999ec6-9371-4e85-b7d5-6a9f0024b861"},"vehicle_type_id":"4","last_reported":1753622677,"current_range_meters":14800,"station_id":"","pricing_plan_id":"cebpf4jnsgd1na2vs0mg"},{"bike_id":"608ecc5c-8a83-4f8b-aeda-9ddb96bb8238","system_id":"levelo_inurba_marseille","lat":43.284177,"lon":5.34973,"is_reserved":false,"is_disabled":false,"rental_uris":{"android":"levelo://app?vid=608ecc5c-8a83-4f8b-aeda-9ddb96bb8238","ios":"levelo://app?vid=608ecc5c-8a83-4f8b-aeda-9ddb96bb8238"},"vehicle_type_id":"4","last_reported":1753622677,"current_range_meters":14800,"station_id":"ce4bhbh2rcd13ifvqepg","pricing_plan_id":"cebpf4jnsgd1na2vs0mg"},{"bike_id":"489fe243-b481-47e6-8b5b-8c66fdb7f5d4","system_id":"levelo_inurba_marseille","lat":43.301305,"lon":5.374049,"is_reserved":false,"is_disabled":false,"rental_uris":{"android":"levelo://app?vid=489fe243-b481-47e6-8b5b-8c66fdb7f5d4","ios":"levelo://app?vid=489fe243-b481-47e6-8b5b-8c66fdb7f5d4"},"vehicle_type_id":"4","last_reported":1753622677,"current_range_meters":14800,"station_id":"","pricing_plan_id":"cebpf4jnsgd1na2vs0mg"},{"bike_id":"b64dad25-8e0d-4258-bfd2-304c64c6d313","system_id":"levelo_inurba_marseille","lat":43.31699,"lon":5.37761,"is_reserved":false,"is_disabled":false,"rental_uris":{"android":"levelo://app?vid=b64dad25-8e0d-4258-bfd2-304c64c6d313","ios":"levelo://app?vid=b64dad25-8e0d-4258-bfd2-304c64c6d313"},"vehicle_type_id":"4","last_reported":1753622677,"current_range_meters":14800,"station_id":"ce4bgth2rcd13ifvqch0","pricing_plan_id":"cebpf4jnsgd1na2vs0mg"},{"bike_id":"6cfef057-225a-4e1d-9fdb-23323f65a424","system_id":"levelo_inurba_marseille","lat":43.305405,"lon":5.365554,"is_reserved":false,"is_disabled":false,"rental_uris":{"android":"levelo://app?vid=6cfef057-225a-4e1d-9fdb-23323f65a424","ios":"levelo://app?vid=6cfef057-225a-4e1d-9fdb-23323f65a424"},"vehicle_type_id":"4","last_reported":1753622677,"current_range_meters":14800,"station_id":"ce4bgs12rcd13ifvqcag","pricing_plan_id":"cebpf4jnsgd1na2vs0mg"},{"bike_id":"f0beafc6-4f1d-406d-9b81-bf9ae37556b7","system_id":"levelo_inurba_marseille","lat":43.229261,"lon":5.353769,"is_reserved":false,"is_disabled":false,"rental_uris":{"android":"levelo://app?vid=f0beafc6-4f1d-406d-9b81-bf9ae37556b7","ios":"levelo://app?vid=f0beafc6-4f1d-406d-9b81-bf9ae37556b7"},"vehicle_type_id":"4","last_reported":1753622677,"current_range_meters":15200,"station_id":"cpo3532slgdg3j2ikp40","pricing_plan_id":"cebpf4jnsgd1na2vs0mg"},{"bike_id":"8c34af0e-81b7-4a30-b4de-d8a70ca0f51f","system_id":"levelo_inurba_marseille","lat":43.30306,"lon":5.36901,"is_reserved":false,"is_disabled":false,"rental_uris":{"android":"levelo://app?vid=8c34af0e-81b7-4a30-b4de-d8a70ca0f51f","ios":"levelo://app?vid=8c34af0e-81b7-4a30-b4de-d8a70ca0f51f"},"vehicle_type_id":"4","last_reported":1753622677,"current_range_meters":15200,"station_id":"","pricing_plan_id":"cebpf4jnsgd1na2vs0mg"},{"bike_id":"70381b97-b2ee-4f26-8f16-caf046608e7f","system_id":"levelo_inurba_marseille","lat":43.27965,"lon":5.40014,"is_reserved":false,"is_disabled":true,"rental_uris":{"android":"levelo://app?vid=70381b97-b2ee-4f26-8f16-caf046608e7f","ios":"levelo://app?vid=70381b97-b2ee-4f26-8f16-caf046608e7f"},"vehicle_type_id":"4","last_reported":1753622677,"current_range_meters":15200,"station_id":"ce4bho92rcd13ifvqh4g","pricing_plan_id":"cebpf4jnsgd1na2vs0mg"},{"bike_id":"c4be592e-f4c5-458f-96cb-d398b622ab67","system_id":"levelo_inurba_marseille","lat":43.225,"lon":5.34779,"is_reserved":false,"is_disabled":false,"rental_uris":{"android":"levelo://app?vid=c4be592e-f4c5-458f-96cb-d398b622ab67","ios":"levelo://app?vid=c4be592e-f4c5-458f-96cb-d398b622ab67"},"vehicle_type_id":"4","last_reported":1753622677,"current_range_meters":15200,"station_id":"st_cvj5dfep6f1abm77gieg","pricing_plan_id":"cebpf4jnsgd1na2vs0mg"},{"bike_id":"87b4fe08-274b-4f7a-8a38-1af3046886c8","system_id":"levelo_inurba_marseille","lat":43.282478,"lon":5.351597,"is_reserved":false,"is_disabled":false,"rental_uris":{"android":"levelo://app?vid=87b4fe08-274b-4f7a-8a38-1af3046886c8","ios":"levelo://app?vid=87b4fe08-274b-4f7a-8a38-1af3046886c8"},"vehicle_type_id":"4","last_reported":1753622677,"current_range_meters":15200,"station_id":"","pricing_plan_id":"cebpf4jnsgd1na2vs0mg"},{"bike_id":"6f4f77f3-f698-45c8-b168-3bd095af11b2","system_id":"levelo_inurba_marseille","lat":43.29926,"lon":5.37536,"is_reserved":false,"is_disabled":false,"rental_uris":{"android":"levelo://app?vid=6f4f77f3-f698-45c8-b168-3bd095af11b2","ios":"levelo://app?vid=6f4f77f3-f698-45c8-b168-3bd095af11b2"},"vehicle_type_id":"4","last_reported":1753622677,"current_range_meters":15200,"station_id":"ce4bgjh2rcd13ifvqbg0","pricing_plan_id":"cebpf4jnsgd1na2vs0mg"},{"bike_id":"3152576e-d602-4c3f-980e-717f41aed773","system_id":"levelo_inurba_marseille","lat":43.33737,"lon":5.37465,"is_reserved":false,"is_disabled":false,"rental_uris":{"android":"levelo://app?vid=3152576e-d602-4c3f-980e-717f41aed773","ios":"levelo://app?vid=3152576e-d602-4c3f-980e-717f41aed773"},"vehicle_type_id":"4","last_reported":1753622677,"current_range_meters":15200,"station_id":"","pricing_plan_id":"cebpf4jnsgd1na2vs0mg"},{"bike_id":"bdb761b3-4a4b-4696-8fa6-cdc15c04cb68","system_id":"levelo_inurba_marseille","lat":43.28271,"lon":5.35076,"is_reserved":false,"is_disabled":false,"rental_uris":{"android":"levelo://app?vid=bdb761b3-4a4b-4696-8fa6-cdc15c04cb68","ios":"levelo://app?vid=bdb761b3-4a4b-4696-8fa6-cdc15c04cb68"},"vehicle_type_id":"4","last_reported":1753622677,"current_range_meters":16000,"station_id":"ce4bhbp2rcd13ifvqerg","pricing_plan_id":"cebpf4jnsgd1na2vs0mg"},{"bike_id":"fbf3d65a-08f2-4260-b2eb-9ad87e238303","system_id":"levelo_inurba_marseille","lat":43.24165,"lon":5.36395,"is_reserved":false,"is_disabled":false,"rental_uris":{"android":"levelo://app?vid=fbf3d65a-08f2-4260-b2eb-9ad87e238303","ios":"levelo://app?vid=fbf3d65a-08f2-4260-b2eb-9ad87e238303"},"vehicle_type_id":"4","last_reported":1753622677,"current_range_meters":16000,"station_id":"cpo36qri1sfpv3e86is0","pricing_plan_id":"cebpf4jnsgd1na2vs0mg"},{"bike_id":"a7342703-adc4-4231-abe6-2645a7031070","system_id":"levelo_inurba_marseille","lat":43.301512,"lon":5.374756,"is_reserved":false,"is_disabled":false,"rental_uris":{"android":"levelo://app?vid=a7342703-adc4-4231-abe6-2645a7031070","ios":"levelo://app?vid=a7342703-adc4-4231-abe6-2645a7031070"},"vehicle_type_id":"4","last_reported":1753622677,"current_range_meters":16000,"station_id":"ce4bgs92rcd13ifvqcc0","pricing_plan_id":"cebpf4jnsgd1na2vs0mg"},{"bike_id":"48538135-5d0a-49ee-9320-155fbd091354","system_id":"levelo_inurba_marseille","lat":43.25959,"lon":5.40884,"is_reserved":false,"is_disabled":false,"rental_uris":{"android":"levelo://app?vid=48538135-5d0a-49ee-9320-155fbd091354","ios":"levelo://app?vid=48538135-5d0a-49ee-9320-155fbd091354"},"vehicle_type_id":"4","last_reported":1753622677,"current_range_meters":16000,"station_id":"ce4bhm92rcd13ifvqglg","pricing_plan_id":"cebpf4jnsgd1na2vs0mg"},{"bike_id":"e3fced23-4228-43ef-87c4-16b2ed232bec","system_id":"levelo_inurba_marseille","lat":43.28628,"lon":5.35093,"is_reserved":false,"is_disabled":false,"rental_uris":{"android":"levelo://app?vid=e3fced23-4228-43ef-87c4-16b2ed232bec","ios":"levelo://app?vid=e3fced23-4228-43ef-87c4-16b2ed232bec"},"vehicle_type_id":"4","last_reported":1753622677,"current_range_meters":16000,"station_id":"ce4bhch2rcd13ifvqeug","pricing_plan_id":"cebpf4jnsgd1na2vs0mg"},{"bike_id":"d8cd6055-23c8-4622-a5bf-68f9b9ebfe53","system_id":"levelo_inurba_marseille","lat":43.27077,"lon":5.42271,"is_reserved":false,"is_disabled":true,"rental_uris":{"android":"levelo://app?vid=d8cd6055-23c8-4622-a5bf-68f9b9ebfe53","ios":"levelo://app?vid=d8cd6055-23c8-4622-a5bf-68f9b9ebfe53"},"vehicle_type_id":"4","last_reported":1753622677,"current_range_meters":16000,"station_id":"ce4bhk92rcd13ifvqgb0","pricing_plan_id":"cebpf4jnsgd1na2vs0mg"},{"bike_id":"56ec8761-dee0-49c1-aba7-a69ac65d386f","system_id":"levelo_inurba_marseille","lat":43.229299,"lon":5.353877,"is_reserved":false,"is_disabled":false,"rental_uris":{"android":"levelo://app?vid=56ec8761-dee0-49c1-aba7-a69ac65d386f","ios":"levelo://app?vid=56ec8761-dee0-49c1-aba7-a69ac65d386f"},"vehicle_type_id":"4","last_reported":1753622677,"current_range_meters":16000,"station_id":"cpo3532slgdg3j2ikp40","pricing_plan_id":"cebpf4jnsgd1na2vs0mg"},{"bike_id":"327b90e8-a9fb-44cd-8e32-40bae742daef","system_id":"levelo_inurba_marseille","lat":43.28333,"lon":5.3506,"is_reserved":false,"is_disabled":false,"rental_uris":{"android":"levelo://app?vid=327b90e8-a9fb-44cd-8e32-40bae742daef","ios":"levelo://app?vid=327b90e8-a9fb-44cd-8e32-40bae742daef"},"vehicle_type_id":"4","last_reported":1753622677,"current_range_meters":16000,"station_id":"","pricing_plan_id":"cebpf4jnsgd1na2vs0mg"},{"bike_id":"9306cb98-ff63-47ed-9064-9c9a8b611a79","system_id":"levelo_inurba_marseille","lat":43.29616,"lon":5.37358,"is_reserved":false,"is_disabled":false,"rental_uris":{"android":"levelo://app?vid=9306cb98-ff63-47ed-9064-9c9a8b611a79","ios":"levelo://app?vid=9306cb98-ff63-47ed-9064-9c9a8b611a79"},"vehicle_type_id":"4","last_reported":1753622677,"current_range_meters":16000,"station_id":"","pricing_plan_id":"cebpf4jnsgd1na2vs0mg"},{"bike_id":"a9504c9d-7518-4bac-b2a8-fec9ea3d9cd0","system_id":"levelo_inurba_marseille","lat":43.23071,"lon":5.35481,"is_reserved":false,"is_disabled":false,"rental_uris":{"android":"levelo://app?vid=a9504c9d-7518-4bac-b2a8-fec9ea3d9cd0","ios":"levelo://app?vid=a9504c9d-7518-4bac-b2a8-fec9ea3d9cd0"},"vehicle_type_id":"4","last_reported":1753622677,"current_range_meters":16000,"station_id":"cpo3342slgdg3j2ifvpg","pricing_plan_id":"cebpf4jnsgd1na2vs0mg"},{"bike_id":"0bcd7894-6f17-4131-b9c0-3c5cb7124a86","system_id":"levelo_inurba_marseille","lat":43.28416,"lon":5.34982,"is_reserved":false,"is_disabled":false,"rental_uris":{"android":"levelo://app?vid=0bcd7894-6f17-4131-b9c0-3c5cb7124a86","ios":"levelo://app?vid=0bcd7894-6f17-4131-b9c0-3c5cb7124a86"},"vehicle_type_id":"4","last_reported":1753622677,"current_range_meters":16000,"station_id":"ce4bhbh2rcd13ifvqepg","pricing_plan_id":"cebpf4jnsgd1na2vs0mg"},{"bike_id":"52da4f5d-b3bc-4bd8-b70b-f6339b32463b","system_id":"levelo_inurba_marseille","lat":43.2417,"lon":5.36388,"is_reserved":false,"is_disabled":false,"rental_uris":{"android":"levelo://app?vid=52da4f5d-b3bc-4bd8-b70b-f6339b32463b","ios":"levelo://app?vid=52da4f5d-b3bc-4bd8-b70b-f6339b32463b"},"vehicle_type_id":"4","last_reported":1753622677,"current_range_meters":16000,"station_id":"cpo36qri1sfpv3e86is0","pricing_plan_id":"cebpf4jnsgd1na2vs0mg"},{"bike_id":"1a944114-8e5f-494d-b4a8-2e5ee319d486","system_id":"levelo_inurba_marseille","lat":43.24076,"lon":5.37772,"is_reserved":false,"is_disabled":false,"rental_uris":{"android":"levelo://app?vid=1a944114-8e5f-494d-b4a8-2e5ee319d486","ios":"levelo://app?vid=1a944114-8e5f-494d-b4a8-2e5ee319d486"},"vehicle_type_id":"4","last_reported":1753622677,"current_range_meters":16000,"station_id":"ce4bhnp2rcd13ifvqgvg","pricing_plan_id":"cebpf4jnsgd1na2vs0mg"},{"bike_id":"d3427e83-f406-44c5-9310-56f36b96824d","system_id":"levelo_inurba_marseille","lat":43.2117,"lon":5.35078,"is_reserved":false,"is_disabled":false,"rental_uris":{"android":"levelo://app?vid=d3427e83-f406-44c5-9310-56f36b96824d","ios":"levelo://app?vid=d3427e83-f406-44c5-9310-56f36b96824d"},"vehicle_type_id":"4","last_reported":1753622677,"current_range_meters":16400,"station_id":"st_cvj6sg6p6f1abm77japg","pricing_plan_id":"cebpf4jnsgd1na2vs0mg"},{"bike_id":"3051ab08-83e2-4a81-b16b-95a093d5b716","system_id":"levelo_inurba_marseille","lat":43.2849,"lon":5.38565,"is_reserved":false,"is_disabled":false,"rental_uris":{"android":"levelo://app?vid=3051ab08-83e2-4a81-b16b-95a093d5b716","ios":"levelo://app?vid=3051ab08-83e2-4a81-b16b-95a093d5b716"},"vehicle_type_id":"4","last_reported":1753622677,"current_range_meters":16400,"station_id":"ce4bh8p2rcd13ifvqeb0","pricing_plan_id":"cebpf4jnsgd1na2vs0mg"},{"bike_id":"958aa463-afc5-440d-9ab9-11010e4639e7","system_id":"levelo_inurba_marseille","lat":43.28629,"lon":5.35076,"is_reserved":false,"is_disabled":false,"rental_uris":{"android":"levelo://app?vid=958aa463-afc5-440d-9ab9-11010e4639e7","ios":"levelo://app?vid=958aa463-afc5-440d-9ab9-11010e4639e7"},"vehicle_type_id":"4","last_reported":1753622677,"current_range_meters":16400,"station_id":"ce4bhch2rcd13ifvqeug","pricing_plan_id":"cebpf4jnsgd1na2vs0mg"},{"bike_id":"87a4d710-c859-4883-a056-db27db09862e","system_id":"levelo_inurba_marseille","lat":43.277585,"lon":5.355971,"is_reserved":false,"is_disabled":false,"rental_uris":{"android":"levelo://app?vid=87a4d710-c859-4883-a056-db27db09862e","ios":"levelo://app?vid=87a4d710-c859-4883-a056-db27db09862e"},"vehicle_type_id":"4","last_reported":1753622677,"current_range_meters":16400,"station_id":"","pricing_plan_id":"cebpf4jnsgd1na2vs0mg"},{"bike_id":"20b2993f-2d7d-4ea7-8f0a-38958a8bb82a","system_id":"levelo_inurba_marseille","lat":43.27917,"lon":5.39578,"is_reserved":false,"is_disabled":false,"rental_uris":{"android":"levelo://app?vid=20b2993f-2d7d-4ea7-8f0a-38958a8bb82a","ios":"levelo://app?vid=20b2993f-2d7d-4ea7-8f0a-38958a8bb82a"},"vehicle_type_id":"4","last_reported":1753622677,"current_range_meters":16400,"station_id":"ce4bhf92rcd13ifvqf40","pricing_plan_id":"cebpf4jnsgd1na2vs0mg"},{"bike_id":"a591545e-2b41-4298-a6a7-8e4c88bde821","system_id":"levelo_inurba_marseille","lat":43.28608,"lon":5.37061,"is_reserved":false,"is_disabled":false,"rental_uris":{"android":"levelo://app?vid=a591545e-2b41-4298-a6a7-8e4c88bde821","ios":"levelo://app?vid=a591545e-2b41-4298-a6a7-8e4c88bde821"},"vehicle_type_id":"4","last_reported":1753622677,"current_range_meters":16400,"station_id":"ce4bht12rcd13ifvqi60","pricing_plan_id":"cebpf4jnsgd1na2vs0mg"},{"bike_id":"aa76f094-4e9f-480a-95f6-3d13f4f6f00b","system_id":"levelo_inurba_marseille","lat":43.286222,"lon":5.350909,"is_reserved":false,"is_disabled":false,"rental_uris":{"android":"levelo://app?vid=aa76f094-4e9f-480a-95f6-3d13f4f6f00b","ios":"levelo://app?vid=aa76f094-4e9f-480a-95f6-3d13f4f6f00b"},"vehicle_type_id":"4","last_reported":1753622677,"current_range_meters":16400,"station_id":"ce4bhch2rcd13ifvqeug","pricing_plan_id":"cebpf4jnsgd1na2vs0mg"},{"bike_id":"d6e67ec9-36a2-4615-bfd1-7c7dad1d0674","system_id":"levelo_inurba_marseille","lat":43.23818,"lon":5.38352,"is_reserved":false,"is_disabled":false,"rental_uris":{"android":"levelo://app?vid=d6e67ec9-36a2-4615-bfd1-7c7dad1d0674","ios":"levelo://app?vid=d6e67ec9-36a2-4615-bfd1-7c7dad1d0674"},"vehicle_type_id":"4","last_reported":1753622677,"current_range_meters":16400,"station_id":"","pricing_plan_id":"cebpf4jnsgd1na2vs0mg"},{"bike_id":"264fbea3-2c7f-4636-bd2b-32e60faed0d5","system_id":"levelo_inurba_marseille","lat":43.2251,"lon":5.34772,"is_reserved":false,"is_disabled":false,"rental_uris":{"android":"levelo://app?vid=264fbea3-2c7f-4636-bd2b-32e60faed0d5","ios":"levelo://app?vid=264fbea3-2c7f-4636-bd2b-32e60faed0d5"},"vehicle_type_id":"4","last_reported":1753622677,"current_range_meters":16400,"station_id":"st_cvj5dfep6f1abm77gieg","pricing_plan_id":"cebpf4jnsgd1na2vs0mg"},{"bike_id":"4b65c03e-4dc0-40b2-b753-964fd8917b96","system_id":"levelo_inurba_marseille","lat":43.29211,"lon":5.35798,"is_reserved":false,"is_disabled":false,"rental_uris":{"android":"levelo://app?vid=4b65c03e-4dc0-40b2-b753-964fd8917b96","ios":"levelo://app?vid=4b65c03e-4dc0-40b2-b753-964fd8917b96"},"vehicle_type_id":"4","last_reported":1753622677,"current_range_meters":16400,"station_id":"ce4bhb12rcd13ifvqel0","pricing_plan_id":"cebpf4jnsgd1na2vs0mg"},{"bike_id":"ac1ee147-5b6f-4fc1-b203-d8c314321fb1","system_id":"levelo_inurba_marseille","lat":43.27375,"lon":5.36262,"is_reserved":false,"is_disabled":false,"rental_uris":{"android":"levelo://app?vid=ac1ee147-5b6f-4fc1-b203-d8c314321fb1","ios":"levelo://app?vid=ac1ee147-5b6f-4fc1-b203-d8c314321fb1"},"vehicle_type_id":"4","last_reported":1753622677,"current_range_meters":16400,"station_id":"ce4bhbh2rcd13ifvqeo0","pricing_plan_id":"cebpf4jnsgd1na2vs0mg"},{"bike_id":"bdc77a41-48d7-4937-ada0-dc78a13b1697","system_id":"levelo_inurba_marseille","lat":43.30592,"lon":5.39357,"is_reserved":false,"is_disabled":false,"rental_uris":{"android":"levelo://app?vid=bdc77a41-48d7-4937-ada0-dc78a13b1697","ios":"levelo://app?vid=bdc77a41-48d7-4937-ada0-dc78a13b1697"},"vehicle_type_id":"4","last_reported":1753622677,"current_range_meters":16000,"station_id":"ce4bh0p2rcd13ifvqd80","pricing_plan_id":"cebpf4jnsgd1na2vs0mg"},{"bike_id":"046ae688-7de8-4e2e-9606-5481ae050f96","system_id":"levelo_inurba_marseille","lat":43.27062,"lon":5.40255,"is_reserved":false,"is_disabled":false,"rental_uris":{"android":"levelo://app?vid=046ae688-7de8-4e2e-9606-5481ae050f96","ios":"levelo://app?vid=046ae688-7de8-4e2e-9606-5481ae050f96"},"vehicle_type_id":"4","last_reported":1753622677,"current_range_meters":16400,"station_id":"ce4bhk92rcd13ifvqgc0","pricing_plan_id":"cebpf4jnsgd1na2vs0mg"},{"bike_id":"4e9c03a5-ff01-4726-ad17-7cf4328a1179","system_id":"levelo_inurba_marseille","lat":43.28262,"lon":5.35063,"is_reserved":false,"is_disabled":false,"rental_uris":{"android":"levelo://app?vid=4e9c03a5-ff01-4726-ad17-7cf4328a1179","ios":"levelo://app?vid=4e9c03a5-ff01-4726-ad17-7cf4328a1179"},"vehicle_type_id":"4","last_reported":1753622677,"current_range_meters":16400,"station_id":"ce4bhbp2rcd13ifvqerg","pricing_plan_id":"cebpf4jnsgd1na2vs0mg"},{"bike_id":"56d59053-15ae-4511-bb5f-e06609fd4728","system_id":"levelo_inurba_marseille","lat":43.241629,"lon":5.364027,"is_reserved":false,"is_disabled":false,"rental_uris":{"android":"levelo://app?vid=56d59053-15ae-4511-bb5f-e06609fd4728","ios":"levelo://app?vid=56d59053-15ae-4511-bb5f-e06609fd4728"},"vehicle_type_id":"4","last_reported":1753622677,"current_range_meters":16400,"station_id":"cpo36qri1sfpv3e86is0","pricing_plan_id":"cebpf4jnsgd1na2vs0mg"},{"bike_id":"6280b0d7-5f4a-4f88-bcea-3498e3707b6b","system_id":"levelo_inurba_marseille","lat":43.23065,"lon":5.35493,"is_reserved":false,"is_disabled":false,"rental_uris":{"android":"levelo://app?vid=6280b0d7-5f4a-4f88-bcea-3498e3707b6b","ios":"levelo://app?vid=6280b0d7-5f4a-4f88-bcea-3498e3707b6b"},"vehicle_type_id":"4","last_reported":1753622677,"current_range_meters":16400,"station_id":"cpo3342slgdg3j2ifvpg","pricing_plan_id":"cebpf4jnsgd1na2vs0mg"},{"bike_id":"176ddfce-f9eb-477d-a60e-742c2dbd03a8","system_id":"levelo_inurba_marseille","lat":43.29614,"lon":5.38081,"is_reserved":false,"is_disabled":false,"rental_uris":{"android":"levelo://app?vid=176ddfce-f9eb-477d-a60e-742c2dbd03a8","ios":"levelo://app?vid=176ddfce-f9eb-477d-a60e-742c2dbd03a8"},"vehicle_type_id":"4","last_reported":1753622677,"current_range_meters":16800,"station_id":"ce4bgl12rcd13ifvqbo0","pricing_plan_id":"cebpf4jnsgd1na2vs0mg"},{"bike_id":"b483d5bd-474f-4f28-9f83-27c8fd9da858","system_id":"levelo_inurba_marseille","lat":43.28265,"lon":5.35066,"is_reserved":false,"is_disabled":false,"rental_uris":{"android":"levelo://app?vid=b483d5bd-474f-4f28-9f83-27c8fd9da858","ios":"levelo://app?vid=b483d5bd-474f-4f28-9f83-27c8fd9da858"},"vehicle_type_id":"4","last_reported":1753622677,"current_range_meters":16800,"station_id":"ce4bhbp2rcd13ifvqerg","pricing_plan_id":"cebpf4jnsgd1na2vs0mg"},{"bike_id":"d6f576dc-ffe7-4ab5-bc96-13103d0759e3","system_id":"levelo_inurba_marseille","lat":43.23963,"lon":5.36623,"is_reserved":false,"is_disabled":false,"rental_uris":{"android":"levelo://app?vid=d6f576dc-ffe7-4ab5-bc96-13103d0759e3","ios":"levelo://app?vid=d6f576dc-ffe7-4ab5-bc96-13103d0759e3"},"vehicle_type_id":"4","last_reported":1753622677,"current_range_meters":16800,"station_id":"ce4bhi12rcd13ifvqfp0","pricing_plan_id":"cebpf4jnsgd1na2vs0mg"},{"bike_id":"153b15eb-4396-47c8-841e-6206c70fa4c1","system_id":"levelo_inurba_marseille","lat":43.30458,"lon":5.37914,"is_reserved":false,"is_disabled":false,"rental_uris":{"android":"levelo://app?vid=153b15eb-4396-47c8-841e-6206c70fa4c1","ios":"levelo://app?vid=153b15eb-4396-47c8-841e-6206c70fa4c1"},"vehicle_type_id":"4","last_reported":1753622677,"current_range_meters":16400,"station_id":"ce4bgup2rcd13ifvqcn0","pricing_plan_id":"cebpf4jnsgd1na2vs0mg"},{"bike_id":"f843fcb4-7cb9-4195-8cf9-1ecbe360cf0a","system_id":"levelo_inurba_marseille","lat":43.28417,"lon":5.3501,"is_reserved":false,"is_disabled":false,"rental_uris":{"android":"levelo://app?vid=f843fcb4-7cb9-4195-8cf9-1ecbe360cf0a","ios":"levelo://app?vid=f843fcb4-7cb9-4195-8cf9-1ecbe360cf0a"},"vehicle_type_id":"4","last_reported":1753622677,"current_range_meters":16800,"station_id":"ce4bhbh2rcd13ifvqepg","pricing_plan_id":"cebpf4jnsgd1na2vs0mg"},{"bike_id":"c9fbf5f1-bf2d-4595-93b3-32a9bfb5ebc9","system_id":"levelo_inurba_marseille","lat":43.21745,"lon":5.34604,"is_reserved":false,"is_disabled":false,"rental_uris":{"android":"levelo://app?vid=c9fbf5f1-bf2d-4595-93b3-32a9bfb5ebc9","ios":"levelo://app?vid=c9fbf5f1-bf2d-4595-93b3-32a9bfb5ebc9"},"vehicle_type_id":"4","last_reported":1753622677,"current_range_meters":16800,"station_id":"st_cvj6r9ubvosntc0bgbag","pricing_plan_id":"cebpf4jnsgd1na2vs0mg"},{"bike_id":"d70613a2-027e-4ce6-8023-62349a7a4277","system_id":"levelo_inurba_marseille","lat":43.225053,"lon":5.347837,"is_reserved":false,"is_disabled":false,"rental_uris":{"android":"levelo://app?vid=d70613a2-027e-4ce6-8023-62349a7a4277","ios":"levelo://app?vid=d70613a2-027e-4ce6-8023-62349a7a4277"},"vehicle_type_id":"4","last_reported":1753622677,"current_range_meters":16800,"station_id":"st_cvj5dfep6f1abm77gieg","pricing_plan_id":"cebpf4jnsgd1na2vs0mg"},{"bike_id":"2eb0b72e-0017-45e6-8937-df08be68d3e5","system_id":"levelo_inurba_marseille","lat":43.28004,"lon":5.41665,"is_reserved":false,"is_disabled":false,"rental_uris":{"android":"levelo://app?vid=2eb0b72e-0017-45e6-8937-df08be68d3e5","ios":"levelo://app?vid=2eb0b72e-0017-45e6-8937-df08be68d3e5"},"vehicle_type_id":"4","last_reported":1753622677,"current_range_meters":16800,"station_id":"ce4bho12rcd13ifvqh1g","pricing_plan_id":"cebpf4jnsgd1na2vs0mg"},{"bike_id":"220cf17f-9c61-468f-af88-f24ca56003a4","system_id":"levelo_inurba_marseille","lat":43.30592,"lon":5.37226,"is_reserved":false,"is_disabled":false,"rental_uris":{"android":"levelo://app?vid=220cf17f-9c61-468f-af88-f24ca56003a4","ios":"levelo://app?vid=220cf17f-9c61-468f-af88-f24ca56003a4"},"vehicle_type_id":"4","last_reported":1753622677,"current_range_meters":16800,"station_id":"ce4bgqh2rcd13ifvqc4g","pricing_plan_id":"cebpf4jnsgd1na2vs0mg"},{"bike_id":"329681ee-4b7c-4b42-a093-9c4985b10282","system_id":"levelo_inurba_marseille","lat":43.28411,"lon":5.35004,"is_reserved":false,"is_disabled":true,"rental_uris":{"android":"levelo://app?vid=329681ee-4b7c-4b42-a093-9c4985b10282","ios":"levelo://app?vid=329681ee-4b7c-4b42-a093-9c4985b10282"},"vehicle_type_id":"4","last_reported":1753622677,"current_range_meters":16800,"station_id":"ce4bhbh2rcd13ifvqepg","pricing_plan_id":"cebpf4jnsgd1na2vs0mg"},{"bike_id":"feb40379-0815-4a68-aadb-305942f11d04","system_id":"levelo_inurba_marseille","lat":43.24997,"lon":5.3894,"is_reserved":false,"is_disabled":false,"rental_uris":{"android":"levelo://app?vid=feb40379-0815-4a68-aadb-305942f11d04","ios":"levelo://app?vid=feb40379-0815-4a68-aadb-305942f11d04"},"vehicle_type_id":"4","last_reported":1753622677,"current_range_meters":16800,"station_id":"ce4bhgp2rcd13ifvqfd0","pricing_plan_id":"cebpf4jnsgd1na2vs0mg"},{"bike_id":"2edf8151-cb92-46cc-9321-24e397aeed28","system_id":"levelo_inurba_marseille","lat":43.230541,"lon":5.354972,"is_reserved":false,"is_disabled":false,"rental_uris":{"android":"levelo://app?vid=2edf8151-cb92-46cc-9321-24e397aeed28","ios":"levelo://app?vid=2edf8151-cb92-46cc-9321-24e397aeed28"},"vehicle_type_id":"4","last_reported":1753622677,"current_range_meters":17200,"station_id":"cpo3342slgdg3j2ifvpg","pricing_plan_id":"cebpf4jnsgd1na2vs0mg"},{"bike_id":"b38a98ba-83e9-4a4d-b9ec-e9da9364beed","system_id":"levelo_inurba_marseille","lat":43.225075,"lon":5.347822,"is_reserved":false,"is_disabled":false,"rental_uris":{"android":"levelo://app?vid=b38a98ba-83e9-4a4d-b9ec-e9da9364beed","ios":"levelo://app?vid=b38a98ba-83e9-4a4d-b9ec-e9da9364beed"},"vehicle_type_id":"4","last_reported":1753622677,"current_range_meters":17200,"station_id":"st_cvj5dfep6f1abm77gieg","pricing_plan_id":"cebpf4jnsgd1na2vs0mg"},{"bike_id":"893a047a-0703-434d-9b25-4f820455263b","system_id":"levelo_inurba_marseille","lat":43.30322,"lon":5.40436,"is_reserved":false,"is_disabled":false,"rental_uris":{"android":"levelo://app?vid=893a047a-0703-434d-9b25-4f820455263b","ios":"levelo://app?vid=893a047a-0703-434d-9b25-4f820455263b"},"vehicle_type_id":"4","last_reported":1753622677,"current_range_meters":17200,"station_id":"ce4bh012rcd13ifvqd10","pricing_plan_id":"cebpf4jnsgd1na2vs0mg"},{"bike_id":"850ae75d-7a41-48aa-b87b-13c171529e02","system_id":"levelo_inurba_marseille","lat":43.29798,"lon":5.38083,"is_reserved":false,"is_disabled":false,"rental_uris":{"android":"levelo://app?vid=850ae75d-7a41-48aa-b87b-13c171529e02","ios":"levelo://app?vid=850ae75d-7a41-48aa-b87b-13c171529e02"},"vehicle_type_id":"4","last_reported":1753622677,"current_range_meters":16800,"station_id":"ce4bgip2rcd13ifvqbb0","pricing_plan_id":"cebpf4jnsgd1na2vs0mg"},{"bike_id":"96cb9b33-e675-4586-9193-9f0a3309af58","system_id":"levelo_inurba_marseille","lat":43.24814,"lon":5.374598,"is_reserved":false,"is_disabled":true,"rental_uris":{"android":"levelo://app?vid=96cb9b33-e675-4586-9193-9f0a3309af58","ios":"levelo://app?vid=96cb9b33-e675-4586-9193-9f0a3309af58"},"vehicle_type_id":"4","last_reported":1753622677,"current_range_meters":17200,"station_id":"ce4bhgh2rcd13ifvqfb0","pricing_plan_id":"cebpf4jnsgd1na2vs0mg"},{"bike_id":"21119b74-9092-450b-a780-dc3f5e5aa101","system_id":"levelo_inurba_marseille","lat":43.24073,"lon":5.37764,"is_reserved":false,"is_disabled":false,"rental_uris":{"android":"levelo://app?vid=21119b74-9092-450b-a780-dc3f5e5aa101","ios":"levelo://app?vid=21119b74-9092-450b-a780-dc3f5e5aa101"},"vehicle_type_id":"4","last_reported":1753622677,"current_range_meters":17200,"station_id":"ce4bhnp2rcd13ifvqgvg","pricing_plan_id":"cebpf4jnsgd1na2vs0mg"},{"bike_id":"098b018e-2607-4af2-bc10-8758893e88ea","system_id":"levelo_inurba_marseille","lat":43.24085,"lon":5.37751,"is_reserved":false,"is_disabled":false,"rental_uris":{"android":"levelo://app?vid=098b018e-2607-4af2-bc10-8758893e88ea","ios":"levelo://app?vid=098b018e-2607-4af2-bc10-8758893e88ea"},"vehicle_type_id":"4","last_reported":1753622677,"current_range_meters":17200,"station_id":"ce4bhnp2rcd13ifvqgvg","pricing_plan_id":"cebpf4jnsgd1na2vs0mg"},{"bike_id":"7fd76c9e-4d33-4b7e-95bd-222e0d10502e","system_id":"levelo_inurba_marseille","lat":43.30447,"lon":5.3974,"is_reserved":false,"is_disabled":false,"rental_uris":{"android":"levelo://app?vid=7fd76c9e-4d33-4b7e-95bd-222e0d10502e","ios":"levelo://app?vid=7fd76c9e-4d33-4b7e-95bd-222e0d10502e"},"vehicle_type_id":"4","last_reported":1753622677,"current_range_meters":17200,"station_id":"ce4bh092rcd13ifvqd20","pricing_plan_id":"cebpf4jnsgd1na2vs0mg"},{"bike_id":"33e2c202-62f9-4aec-9348-add733ea8131","system_id":"levelo_inurba_marseille","lat":43.30181,"lon":5.38079,"is_reserved":false,"is_disabled":false,"rental_uris":{"android":"levelo://app?vid=33e2c202-62f9-4aec-9348-add733ea8131","ios":"levelo://app?vid=33e2c202-62f9-4aec-9348-add733ea8131"},"vehicle_type_id":"4","last_reported":1753622677,"current_range_meters":17200,"station_id":"ce4bgjp2rcd13ifvqbh0","pricing_plan_id":"cebpf4jnsgd1na2vs0mg"},{"bike_id":"e654f7b5-b68c-4101-bd0e-ce5bd6c3a45d","system_id":"levelo_inurba_marseille","lat":43.28267,"lon":5.35075,"is_reserved":false,"is_disabled":false,"rental_uris":{"android":"levelo://app?vid=e654f7b5-b68c-4101-bd0e-ce5bd6c3a45d","ios":"levelo://app?vid=e654f7b5-b68c-4101-bd0e-ce5bd6c3a45d"},"vehicle_type_id":"4","last_reported":1753622677,"current_range_meters":17200,"station_id":"ce4bhbp2rcd13ifvqerg","pricing_plan_id":"cebpf4jnsgd1na2vs0mg"},{"bike_id":"86596e7b-3065-43f9-a99a-1a6fd85925c4","system_id":"levelo_inurba_marseille","lat":43.24174,"lon":5.36394,"is_reserved":false,"is_disabled":false,"rental_uris":{"android":"levelo://app?vid=86596e7b-3065-43f9-a99a-1a6fd85925c4","ios":"levelo://app?vid=86596e7b-3065-43f9-a99a-1a6fd85925c4"},"vehicle_type_id":"4","last_reported":1753622677,"current_range_meters":17200,"station_id":"cpo36qri1sfpv3e86is0","pricing_plan_id":"cebpf4jnsgd1na2vs0mg"},{"bike_id":"06b37b78-75ad-42cc-bf01-6fceceed78c5","system_id":"levelo_inurba_marseille","lat":43.2396,"lon":5.36615,"is_reserved":false,"is_disabled":false,"rental_uris":{"android":"levelo://app?vid=06b37b78-75ad-42cc-bf01-6fceceed78c5","ios":"levelo://app?vid=06b37b78-75ad-42cc-bf01-6fceceed78c5"},"vehicle_type_id":"4","last_reported":1753622677,"current_range_meters":17600,"station_id":"ce4bhi12rcd13ifvqfp0","pricing_plan_id":"cebpf4jnsgd1na2vs0mg"},{"bike_id":"f0cdf0c8-bc5a-4d40-b028-109d2b47cbb8","system_id":"levelo_inurba_marseille","lat":43.317209,"lon":5.404747,"is_reserved":false,"is_disabled":false,"rental_uris":{"android":"levelo://app?vid=f0cdf0c8-bc5a-4d40-b028-109d2b47cbb8","ios":"levelo://app?vid=f0cdf0c8-bc5a-4d40-b028-109d2b47cbb8"},"vehicle_type_id":"4","last_reported":1753622677,"current_range_meters":17600,"station_id":"ce4bh012rcd13ifvqd00","pricing_plan_id":"cebpf4jnsgd1na2vs0mg"},{"bike_id":"1d664a0a-857a-4808-b4ea-1b46c06cdfc9","system_id":"levelo_inurba_marseille","lat":43.28611,"lon":5.35115,"is_reserved":false,"is_disabled":false,"rental_uris":{"android":"levelo://app?vid=1d664a0a-857a-4808-b4ea-1b46c06cdfc9","ios":"levelo://app?vid=1d664a0a-857a-4808-b4ea-1b46c06cdfc9"},"vehicle_type_id":"4","last_reported":1753622677,"current_range_meters":17600,"station_id":"ce4bhch2rcd13ifvqeug","pricing_plan_id":"cebpf4jnsgd1na2vs0mg"},{"bike_id":"95dd70e4-879c-49e7-b318-a6c71b22a43e","system_id":"levelo_inurba_marseille","lat":43.2703,"lon":5.39295,"is_reserved":false,"is_disabled":false,"rental_uris":{"android":"levelo://app?vid=95dd70e4-879c-49e7-b318-a6c71b22a43e","ios":"levelo://app?vid=95dd70e4-879c-49e7-b318-a6c71b22a43e"},"vehicle_type_id":"4","last_reported":1753622677,"current_range_meters":17600,"station_id":"","pricing_plan_id":"cebpf4jnsgd1na2vs0mg"},{"bike_id":"363860ed-6d0c-40e8-91e3-2c5053026ca7","system_id":"levelo_inurba_marseille","lat":43.22931,"lon":5.35372,"is_reserved":false,"is_disabled":false,"rental_uris":{"android":"levelo://app?vid=363860ed-6d0c-40e8-91e3-2c5053026ca7","ios":"levelo://app?vid=363860ed-6d0c-40e8-91e3-2c5053026ca7"},"vehicle_type_id":"4","last_reported":1753622677,"current_range_meters":17600,"station_id":"cpo3532slgdg3j2ikp40","pricing_plan_id":"cebpf4jnsgd1na2vs0mg"},{"bike_id":"f0d6b728-6c9b-40df-9b58-7909e5007a63","system_id":"levelo_inurba_marseille","lat":43.29355,"lon":5.37855,"is_reserved":false,"is_disabled":true,"rental_uris":{"android":"levelo://app?vid=f0d6b728-6c9b-40df-9b58-7909e5007a63","ios":"levelo://app?vid=f0d6b728-6c9b-40df-9b58-7909e5007a63"},"vehicle_type_id":"4","last_reported":1753622677,"current_range_meters":17600,"station_id":"ce4bgjh2rcd13ifvqbf0","pricing_plan_id":"cebpf4jnsgd1na2vs0mg"},{"bike_id":"209c73e6-1f69-4d13-9fed-77cb46eecd05","system_id":"levelo_inurba_marseille","lat":43.34681,"lon":5.38065,"is_reserved":false,"is_disabled":false,"rental_uris":{"android":"levelo://app?vid=209c73e6-1f69-4d13-9fed-77cb46eecd05","ios":"levelo://app?vid=209c73e6-1f69-4d13-9fed-77cb46eecd05"},"vehicle_type_id":"4","last_reported":1753622677,"current_range_meters":17600,"station_id":"","pricing_plan_id":"cebpf4jnsgd1na2vs0mg"},{"bike_id":"bf17dbc6-069f-4dd2-87b0-ef5f576d5c54","system_id":"levelo_inurba_marseille","lat":43.28396,"lon":5.37548,"is_reserved":false,"is_disabled":false,"rental_uris":{"android":"levelo://app?vid=bf17dbc6-069f-4dd2-87b0-ef5f576d5c54","ios":"levelo://app?vid=bf17dbc6-069f-4dd2-87b0-ef5f576d5c54"},"vehicle_type_id":"4","last_reported":1753622677,"current_range_meters":18000,"station_id":"ce4bh412rcd13ifvqds0","pricing_plan_id":"cebpf4jnsgd1na2vs0mg"},{"bike_id":"e4ccd62f-9c0c-4a17-9f2f-ad5532811420","system_id":"levelo_inurba_marseille","lat":43.21736,"lon":5.3461,"is_reserved":false,"is_disabled":false,"rental_uris":{"android":"levelo://app?vid=e4ccd62f-9c0c-4a17-9f2f-ad5532811420","ios":"levelo://app?vid=e4ccd62f-9c0c-4a17-9f2f-ad5532811420"},"vehicle_type_id":"4","last_reported":1753622677,"current_range_meters":18000,"station_id":"st_cvj6r9ubvosntc0bgbag","pricing_plan_id":"cebpf4jnsgd1na2vs0mg"},{"bike_id":"370636ac-f04f-462b-8596-88232943766f","system_id":"levelo_inurba_marseille","lat":43.29508,"lon":5.37493,"is_reserved":false,"is_disabled":true,"rental_uris":{"android":"levelo://app?vid=370636ac-f04f-462b-8596-88232943766f","ios":"levelo://app?vid=370636ac-f04f-462b-8596-88232943766f"},"vehicle_type_id":"4","last_reported":1753622677,"current_range_meters":18000,"station_id":"ce4bgkp2rcd13ifvqbmg","pricing_plan_id":"cebpf4jnsgd1na2vs0mg"},{"bike_id":"588ed169-59cf-4374-8c65-758328f5360e","system_id":"levelo_inurba_marseille","lat":43.24145,"lon":5.36404,"is_reserved":false,"is_disabled":false,"rental_uris":{"android":"levelo://app?vid=588ed169-59cf-4374-8c65-758328f5360e","ios":"levelo://app?vid=588ed169-59cf-4374-8c65-758328f5360e"},"vehicle_type_id":"4","last_reported":1753622677,"current_range_meters":18000,"station_id":"cpo36qri1sfpv3e86is0","pricing_plan_id":"cebpf4jnsgd1na2vs0mg"},{"bike_id":"931da353-e595-4728-b13f-5d864284a366","system_id":"levelo_inurba_marseille","lat":43.27374,"lon":5.36258,"is_reserved":false,"is_disabled":false,"rental_uris":{"android":"levelo://app?vid=931da353-e595-4728-b13f-5d864284a366","ios":"levelo://app?vid=931da353-e595-4728-b13f-5d864284a366"},"vehicle_type_id":"4","last_reported":1753622677,"current_range_meters":18000,"station_id":"ce4bhbh2rcd13ifvqeo0","pricing_plan_id":"cebpf4jnsgd1na2vs0mg"},{"bike_id":"91422cf9-d176-4a14-8124-f31e506a19e9","system_id":"levelo_inurba_marseille","lat":43.2293,"lon":5.35375,"is_reserved":false,"is_disabled":false,"rental_uris":{"android":"levelo://app?vid=91422cf9-d176-4a14-8124-f31e506a19e9","ios":"levelo://app?vid=91422cf9-d176-4a14-8124-f31e506a19e9"},"vehicle_type_id":"4","last_reported":1753622677,"current_range_meters":18000,"station_id":"cpo3532slgdg3j2ikp40","pricing_plan_id":"cebpf4jnsgd1na2vs0mg"},{"bike_id":"62f0adcc-1f39-4436-99c8-3e0814d46c2f","system_id":"levelo_inurba_marseille","lat":43.25596,"lon":5.37666,"is_reserved":false,"is_disabled":false,"rental_uris":{"android":"levelo://app?vid=62f0adcc-1f39-4436-99c8-3e0814d46c2f","ios":"levelo://app?vid=62f0adcc-1f39-4436-99c8-3e0814d46c2f"},"vehicle_type_id":"4","last_reported":1753622677,"current_range_meters":18000,"station_id":"","pricing_plan_id":"cebpf4jnsgd1na2vs0mg"},{"bike_id":"149fbe11-3bce-47a0-b584-c7c7bd6bb12f","system_id":"levelo_inurba_marseille","lat":43.21623,"lon":5.34443,"is_reserved":false,"is_disabled":false,"rental_uris":{"android":"levelo://app?vid=149fbe11-3bce-47a0-b584-c7c7bd6bb12f","ios":"levelo://app?vid=149fbe11-3bce-47a0-b584-c7c7bd6bb12f"},"vehicle_type_id":"4","last_reported":1753622677,"current_range_meters":18000,"station_id":"","pricing_plan_id":"cebpf4jnsgd1na2vs0mg"},{"bike_id":"9d6f4d9f-a761-4ae2-9e4b-00f8fda461c4","system_id":"levelo_inurba_marseille","lat":43.285671,"lon":5.395068,"is_reserved":false,"is_disabled":true,"rental_uris":{"android":"levelo://app?vid=9d6f4d9f-a761-4ae2-9e4b-00f8fda461c4","ios":"levelo://app?vid=9d6f4d9f-a761-4ae2-9e4b-00f8fda461c4"},"vehicle_type_id":"4","last_reported":1753622677,"current_range_meters":18000,"station_id":"ce4bh292rcd13ifvqdg0","pricing_plan_id":"cebpf4jnsgd1na2vs0mg"},{"bike_id":"809799fd-62e7-4135-968b-efb69e3831e0","system_id":"levelo_inurba_marseille","lat":43.31277,"lon":5.36827,"is_reserved":false,"is_disabled":false,"rental_uris":{"android":"levelo://app?vid=809799fd-62e7-4135-968b-efb69e3831e0","ios":"levelo://app?vid=809799fd-62e7-4135-968b-efb69e3831e0"},"vehicle_type_id":"4","last_reported":1753622677,"current_range_meters":18000,"station_id":"ce4bgl92rcd13ifvqbq0","pricing_plan_id":"cebpf4jnsgd1na2vs0mg"},{"bike_id":"1d06510b-649d-4067-ae8a-926afce22555","system_id":"levelo_inurba_marseille","lat":43.28484,"lon":5.38556,"is_reserved":false,"is_disabled":false,"rental_uris":{"android":"levelo://app?vid=1d06510b-649d-4067-ae8a-926afce22555","ios":"levelo://app?vid=1d06510b-649d-4067-ae8a-926afce22555"},"vehicle_type_id":"4","last_reported":1753622677,"current_range_meters":18000,"station_id":"ce4bh8p2rcd13ifvqeb0","pricing_plan_id":"cebpf4jnsgd1na2vs0mg"},{"bike_id":"a7d896f9-ed90-400f-b521-60f094bf2ab7","system_id":"levelo_inurba_marseille","lat":43.21189,"lon":5.35076,"is_reserved":false,"is_disabled":false,"rental_uris":{"android":"levelo://app?vid=a7d896f9-ed90-400f-b521-60f094bf2ab7","ios":"levelo://app?vid=a7d896f9-ed90-400f-b521-60f094bf2ab7"},"vehicle_type_id":"4","last_reported":1753622677,"current_range_meters":18800,"station_id":"st_cvj6sg6p6f1abm77japg","pricing_plan_id":"cebpf4jnsgd1na2vs0mg"},{"bike_id":"8142408b-84ea-4577-9728-f52c3a5f16f1","system_id":"levelo_inurba_marseille","lat":43.241624,"lon":5.364117,"is_reserved":false,"is_disabled":true,"rental_uris":{"android":"levelo://app?vid=8142408b-84ea-4577-9728-f52c3a5f16f1","ios":"levelo://app?vid=8142408b-84ea-4577-9728-f52c3a5f16f1"},