{"last_updated":1716412065,"ttl":30,"version":"2.2","data":{"bikes":[{"bike_id":"3f88288c-9603-4a84-bee9-0b3d3751db0e","system_id":"levelo_inurba_marseille","lat":43.31341,"lon":5.367098,"is_reserved":false,"is_disabled":false,"rental_uris":{"android":"levelo://app?vid=3f88288c-9603-4a84-bee9-0b3d3751db0e","ios":"levelo://app?vid=3f88288c-9603-4a84-bee9-0b3d3751db0e"},"vehicle_type_id":"4","last_reported":1716412065,"current_range_meters":8000,"station_id":"ce4bgr92rcd13ifvqc6g","pricing_plan_id":"cebpf4jnsgd1na2vs0mg"},{"bike_id":"728c3478-e4e2-4764-a3f5-583c43899a3d","system_id":"levelo_inurba_marseille","lat":43.312196,"lon":5.36855,"is_reserved":false,"is_disabled":false,"rental_uris":{"android":"levelo://app?vid=728c3478-e4e2-4764-a3f5-583c43899a3d","ios":"levelo://app?vid=728c3478-e4e2-4764-a3f5-583c43899a3d"},"vehicle_type_id":"4","last_reported":1716412065,"current_range_meters":0,"station_id":"ce4bgl92rcd13ifvqbq0","pricing_plan_id":"cebpf4jnsgd1na2vs0mg"},{"bike_id":"b3ea3652-76d3-421c-a80e-0d8074c790a1","system_id":"levelo_inurba_marseille","lat":43.309076,"lon":5.368465,"is_reserved":false,"is_disabled":false,"rental_uris":{"android":"levelo://app?vid=b3ea3652-76d3-421c-a80e-0d8074c790a1","ios":"levelo://app?vid=b3ea3652-76d3-421c-a80e-0d8074c790a1"},"vehicle_type_id":"4","last_reported":1716412065,"current_range_meters":19600,"station_id":"ce4bgn92rcd13ifvqbvg","pricing_plan_id":"cebpf4jnsgd1na2vs0mg"},{"bike_id":"3436a6f4-0ad9-4de1-8441-b7bb978056b4","system_id":"levelo_inurba_marseille","lat":43.309076,"lon":5.368465,"is_reserved":false,"is_disabled":false,"rental_uris":{"android":"levelo://app?vid=3436a6f4-0ad9-4de1-8441-b7bb978056b4","ios":"levelo://app?vid=3436a6f4-0ad9-4de1-8441-b7bb978056b4"},"vehicle_type_id":"4","last_reported":1716412065,"current_range_meters":20800,"station_id":"ce4bgn92rcd13ifvqbvg","pricing_plan_id":"cebpf4jnsgd1na2vs0mg"},{"bike_id":"7c13d0be-00aa-446a-a25a-3ae3d278f208","system_id":"levelo_inurba_marseille","lat":43.314811,"lon":5.373103,"is_reserved":false,"is_disabled":false,"rental_uris":{"android":"levelo://app?vid=7c13d0be-00aa-446a-a25a-3ae3d278f208","ios":"levelo://app?vid=7c13d0be-00aa-446a-a25a-3ae3d278f208"},"vehicle_type_id":"4","last_reported":1716412065,"current_range_meters":23600,"station_id":"ce4bgt12rcd13ifvqcd0","pricing_plan_id":"cebpf4jnsgd1na2vs0mg"},{"bike_id":"db073015-85f5-479b-be68-a63ec54a34ba","system_id":"levelo_inurba_marseille","lat":43.314811,"lon":5.373103,"is_reserved":false,"is_disabled":false,"rental_uris":{"android":"levelo://app?vid=db073015-85f5-479b-be68-a63ec54a34ba","ios":"levelo://app?vid=db073015-85f5-479b-be68-a63ec54a34ba"},"vehicle_type_id":"4","last_reported":1716412065,"current_range_meters":31200,"station_id":"ce4bgt12rcd13ifvqcd0","pricing_plan_id":"cebpf4jnsgd1na2vs0mg"},{"bike_id":"4f9033ff-faf7-4e68-b77f-e46adfb2f8a5","system_id":"levelo_inurba_marseille","lat":43.314811,"lon":5.373103,"is_reserved":false,"is_disabled":false,"rental_uris":{"android":"levelo://app?vid=4f9033ff-faf7-4e68-b77f-e46adfb2f8a5","ios":"levelo://app?vid=4f9033ff-faf7-4e68-b77f-e46adfb2f8a5"},"vehicle_type_id":"4","last_reported":1716412065,"current_range_meters":400,"station_id":"ce4bgt12rcd13ifvqcd0","pricing_plan_id":"cebpf4jnsgd1na2vs0mg"},{"bike_id":"3ee5dedb-8d46-43bb-8fe2-84c32e019f78","system_id":"levelo_inurba_marseille","lat":43.314811,"lon":5.373103,"is_reserved":false,"is_disabled":false,"rental_uris":{"android":"levelo://app?vid=3ee5dedb-8d46-43bb-8fe2-84c32e019f78","ios":"levelo://app?vid=3ee5dedb-8d46-43bb-8fe2-84c32e019f78"},"vehicle_type_id":"4","last_reported":1716412065,"current_range_meters":11200,"station_id":"ce4bgt12rcd13ifvqcd0","pricing_plan_id":"cebpf4jnsgd1na2vs0mg"},{"bike_id":"90153fd9-e52f-466b-890d-344ab8d32210","system_id":"levelo_inurba_marseille","lat":43.31498,"lon":5.37302,"is_reserved":false,"is_disabled":false,"rental_uris":{"android":"levelo://app?vid=90153fd9-e52f-466b-890d-344ab8d32210","ios":"levelo://app?vid=90153fd9-e52f-466b-890d-344ab8d32210"},"vehicle_type_id":"4","last_reported":1716412065,"current_range_meters":0,"station_id":"ce4bgt12rcd13ifvqcd0","pricing_plan_id":"cebpf4jnsgd1na2vs0mg"},{"bike_id":"e95175e6-4e8b-4eec-9899-7528756f9d85","system_id":"levelo_inurba_marseille","lat":43.314811,"lon":5.373103,"is_reserved":false,"is_disabled":false,"rental_uris":{"android":"levelo://app?vid=e95175e6-4e8b-4eec-9899-7528756f9d85","ios":"levelo://app?vid=e95175e6-4e8b-4eec-9899-7528756f9d85"},"vehicle_type_id":"4","last_reported":1716412065,"current_range_meters":27600,"station_id":"ce4bgt12rcd13ifvqcd0","pricing_plan_id":"cebpf4jnsgd1na2vs0mg"},{"bike_id":"3c32ab13-ea2e-48a9-8a2b-64a87ecd4a63","system_id":"levelo_inurba_marseille","lat":43.314811,"lon":5.373104,"is_reserved":false,"is_disabled":false,"rental_uris":{"android":"levelo://app?vid=3c32ab13-ea2e-48a9-8a2b-64a87ecd4a63","ios":"levelo://app?vid=3c32ab13-ea2e-48a9-8a2b-64a87ecd4a63"},"vehicle_type_id":"4","last_reported":1716412065,"current_range_meters":18400,"station_id":"ce4bgt12rcd13ifvqcd0","pricing_plan_id":"cebpf4jnsgd1na2vs0mg"},{"bike_id":"0fa0522a-c830-4143-81dc-5c32a82e4117","system_id":"levelo_inurba_marseille","lat":43.309034,"lon":5.371783,"is_reserved":false,"is_disabled":false,"rental_uris":{"android":"levelo://app?vid=0fa0522a-c830-4143-81dc-5c32a82e4117","ios":"levelo://app?vid=0fa0522a-c830-4143-81dc-5c32a82e4117"},"vehicle_type_id":"4","last_reported":1716412065,"current_range_meters":5600,"station_id":"ce4bguh2rcd13ifvqckg","pricing_plan_id":"cebpf4jnsgd1na2vs0mg"},{"bike_id":"3a152d7b-5ae9-4c8a-8914-80c8c997baa6","system_id":"levelo_inurba_marseille","lat":43.309039,"lon":5.371797,"is_reserved":false,"is_disabled":false,"rental_uris":{"android":"levelo://app?vid=3a152d7b-5ae9-4c8a-8914-80c8c997baa6","ios":"levelo://app?vid=3a152d7b-5ae9-4c8a-8914-80c8c997baa6"},"vehicle_type_id":"4","last_reported":1716412065,"current_range_meters":25200,"station_id":"ce4bguh2rcd13ifvqckg","pricing_plan_id":"cebpf4jnsgd1na2vs0mg"},{"bike_id":"2d822ced-0c70-4bcf-b381-266945655302","system_id":"levelo_inurba_marseille","lat":43.308949,"lon":5.371879,"is_reserved":false,"is_disabled":false,"rental_uris":{"android":"levelo://app?vid=2d822ced-0c70-4bcf-b381-266945655302","ios":"levelo://app?vid=2d822ced-0c70-4bcf-b381-266945655302"},"vehicle_type_id":"4","last_reported":1716412065,"current_range_meters":16400,"station_id":"ce4bguh2rcd13ifvqckg","pricing_plan_id":"cebpf4jnsgd1na2vs0mg"},{"bike_id":"e05dfb6b-6a60-4bba-ac11-dbafeecc2c23","system_id":"levelo_inurba_marseille","lat":43.309034,"lon":5.371783,"is_reserved":false,"is_disabled":false,"rental_uris":{"android":"levelo://app?vid=e05dfb6b-6a60-4bba-ac11-dbafeecc2c23","ios":"levelo://app?vid=e05dfb6b-6a60-4bba-ac11-dbafeecc2c23"},"vehicle_type_id":"4","last_reported":1716412065,"current_range_meters":18400,"station_id":"ce4bguh2rcd13ifvqckg","pricing_plan_id":"cebpf4jnsgd1na2vs0mg"},{"bike_id":"e4632e7a-2deb-48a7-808d-6c5307f12802","system_id":"levelo_inurba_marseille","lat":43.31672,"lon":5.3722,"is_reserved":false,"is_disabled":false,"rental_uris":{"android":"levelo://app?vid=e4632e7a-2deb-48a7-808d-6c5307f12802","ios":"levelo://app?vid=e4632e7a-2deb-48a7-808d-6c5307f12802"},"vehicle_type_id":"4","last_reported":1716412065,"current_range_meters":9600,"station_id":"","pricing_plan_id":"cebpf4jnsgd1na2vs0mg"},{"bike_id":"49c1cb98-f316-400e-8aa2-0fb99cde76d2","system_id":"levelo_inurba_marseille","lat":43.30543,"lon":5.36538,"is_reserved":false,"is_disabled":false,"rental_uris":{"android":"levelo://app?vid=49c1cb98-f316-400e-8aa2-0fb99cde76d2","ios":"levelo://app?vid=49c1cb98-f316-400e-8aa2-0fb99cde76d2"},"vehicle_type_id":"4","last_reported":1716412065,"current_range_meters":0,"station_id":"ce4bgs12rcd13ifvqcag","pricing_plan_id":"cebpf4jnsgd1na2vs0mg"},{"bike_id":"f6c87fb2-a06a-46c3-98b8-de82dede2adc","system_id":"levelo_inurba_marseille","lat":43.30537,"lon":5.367345,"is_reserved":false,"is_disabled":false,"rental_uris":{"android":"levelo://app?vid=f6c87fb2-a06a-46c3-98b8-de82dede2adc","ios":"levelo://app?vid=f6c87fb2-a06a-46c3-98b8-de82dede2adc"},"vehicle_type_id":"4","last_reported":1716412065,"current_range_meters":15200,"station_id":"ce4bgrp2rcd13ifvqc9g","pricing_plan_id":"cebpf4jnsgd1na2vs0mg"},{"bike_id":"b79a9427-366e-4c33-9803-b9d402017541","system_id":"levelo_inurba_marseille","lat":43.30537,"lon":5.367345,"is_reserved":false,"is_disabled":false,"rental_uris":{"android":"levelo://app?vid=b79a9427-366e-4c33-9803-b9d402017541","ios":"levelo://app?vid=b79a9427-366e-4c33-9803-b9d402017541"},"vehicle_type_id":"4","last_reported":1716412065,"current_range_meters":20400,"station_id":"ce4bgrp2rcd13ifvqc9g","pricing_plan_id":"cebpf4jnsgd1na2vs0mg"},{"bike_id":"9210b458-9ccf-47f9-afce-c705c9c6fd5c","system_id":"levelo_inurba_marseille","lat":43.305989,"lon":5.37225,"is_reserved":false,"is_disabled":false,"rental_uris":{"android":"levelo://app?vid=9210b458-9ccf-47f9-afce-c705c9c6fd5c","ios":"levelo://app?vid=9210b458-9ccf-47f9-afce-c705c9c6fd5c"},"vehicle_type_id":"4","last_reported":1716412065,"current_range_meters":19600,"station_id":"ce4bgqh2rcd13ifvqc4g","pricing_plan_id":"cebpf4jnsgd1na2vs0mg"},{"bike_id":"7592a66e-4409-4b55-b3b5-a5d1137daf0e","system_id":"levelo_inurba_marseille","lat":43.305989,"lon":5.37225,"is_reserved":false,"is_disabled":false,"rental_uris":{"android":"levelo://app?vid=7592a66e-4409-4b55-b3b5-a5d1137daf0e","ios":"levelo://app?vid=7592a66e-4409-4b55-b3b5-a5d1137daf0e"},"vehicle_type_id":"4","last_reported":1716412065,"current_range_meters":19200,"station_id":"ce4bgqh2rcd13ifvqc4g","pricing_plan_id":"cebpf4jnsgd1na2vs0mg"},{"bike_id":"72997219-c558-46e7-b11c-9f6b80ebdd7e","system_id":"levelo_inurba_marseille","lat":43.30537,"lon":5.367345,"is_reserved":false,"is_disabled":false,"rental_uris":{"android":"levelo://app?vid=72997219-c558-46e7-b11c-9f6b80ebdd7e","ios":"levelo://app?vid=72997219-c558-46e7-b11c-9f6b80ebdd7e"},"vehicle_type_id":"4","last_reported":1716412065,"current_range_meters":24000,"station_id":"ce4bgrp2rcd13ifvqc9g","pricing_plan_id":"cebpf4jnsgd1na2vs0mg"},{"bike_id":"949e5843-f1d9-430b-a96c-c7b2c54c7f37","system_id":"levelo_inurba_marseille","lat":43.305989,"lon":5.37225,"is_reserved":false,"is_disabled":false,"rental_uris":{"android":"levelo://app?vid=949e5843-f1d9-430b-a96c-c7b2c54c7f37","ios":"levelo://app?vid=949e5843-f1d9-430b-a96c-c7b2c54c7f37"},"vehicle_type_id":"4","last_reported":1716412065,"current_range_meters":15200,"station_id":"ce4bgqh2rcd13ifvqc4g","pricing_plan_id":"cebpf4jnsgd1na2vs0mg"},{"bike_id":"5dbfea03-18e4-4b0c-b9ef-e4b475540054","system_id":"levelo_inurba_marseille","lat":43.305989,"lon":5.37225,"is_reserved":false,"is_disabled":false,"rental_uris":{"android":"levelo://app?vid=5dbfea03-18e4-4b0c-b9ef-e4b475540054","ios":"levelo://app?vid=5dbfea03-18e4-4b0c-b9ef-e4b475540054"},"vehicle_type_id":"4","last_reported":1716412065,"current_range_meters":18800,"station_id":"ce4bgqh2rcd13ifvqc4g","pricing_plan_id":"cebpf4jnsgd1na2vs0mg"},{"bike_id":"3a1efb75-80ff-4f22-9dc4-de14cef7c5d0","system_id":"levelo_inurba_marseille","lat":43.30602,"lon":5.37227,"is_reserved":false,"is_disabled":false,"rental_uris":{"android":"levelo://app?vid=3a1efb75-80ff-4f22-9dc4-de14cef7c5d0","ios":"levelo://app?vid=3a1efb75-80ff-4f22-9dc4-de14cef7c5d0"},"vehicle_type_id":"4","last_reported":1716412065,"current_range_meters":17200,"station_id":"","pricing_plan_id":"cebpf4jnsgd1na2vs0mg"},{"bike_id":"085f8808-1d82-4a31-a42a-8e58df7e3717","system_id":"levelo_inurba_marseille","lat":43.305989,"lon":5.37225,"is_reserved":false,"is_disabled":false,"rental_uris":{"android":"levelo://app?vid=085f8808-1d82-4a31-a42a-8e58df7e3717","ios":"levelo://app?vid=085f8808-1d82-4a31-a42a-8e58df7e3717"},"vehicle_type_id":"4","last_reported":1716412065,"current_range_meters":28400,"station_id":"ce4bgqh2rcd13ifvqc4g","pricing_plan_id":"cebpf4jnsgd1na2vs0mg"},{"bike_id":"131628ca-c27b-4612-89d5-a7037e31f540","system_id":"levelo_inurba_marseille","lat":43.305989,"lon":5.37225,"is_reserved":false,"is_disabled":false,"rental_uris":{"android":"levelo://app?vid=131628ca-c27b-4612-89d5-a7037e31f540","ios":"levelo://app?vid=131628ca-c27b-4612-89d5-a7037e31f540"},"vehicle_type_id":"4","last_reported":1716412065,"current_range_meters":0,"station_id":"ce4bgqh2rcd13ifvqc4g","pricing_plan_id":"cebpf4jnsgd1na2vs0mg"},{"bike_id":"576f828e-7b33-4968-bccc-b33fe67f29d9","system_id":"levelo_inurba_marseille","lat":43.30537,"lon":5.367345,"is_reserved":false,"is_disabled":false,"rental_uris":{"android":"levelo://app?vid=576f828e-7b33-4968-bccc-b33fe67f29d9","ios":"levelo://app?vid=576f828e-7b33-4968-bccc-b33fe67f29d9"},"vehicle_type_id":"4","last_reported":1716412065,"current_range_meters":13600,"station_id":"ce4bgrp2rcd13ifvqc9g","pricing_plan_id":"cebpf4jnsgd1na2vs0mg"},{"bike_id":"dab58d29-3e4f-4df6-bacb-c9952994739e","system_id":"levelo_inurba_marseille","lat":43.305989,"lon":5.37225,"is_reserved":false,"is_disabled":false,"rental_uris":{"android":"levelo://app?vid=dab58d29-3e4f-4df6-bacb-c9952994739e","ios":"levelo://app?vid=dab58d29-3e4f-4df6-bacb-c9952994739e"},"vehicle_type_id":"4","last_reported":1716412065,"current_range_meters":3200,"station_id":"ce4bgqh2rcd13ifvqc4g","pricing_plan_id":"cebpf4jnsgd1na2vs0mg"},{"bike_id":"7b1ba721-ea6b-4f6d-9e24-a552b15e36d3","system_id":"levelo_inurba_marseille","lat":43.311125,"lon":5.377624,"is_reserved":false,"is_disabled":false,"rental_uris":{"android":"levelo://app?vid=7b1ba721-ea6b-4f6d-9e24-a552b15e36d3","ios":"levelo://app?vid=7b1ba721-ea6b-4f6d-9e24-a552b15e36d3"},"vehicle_type_id":"4","last_reported":1716412065,"current_range_meters":14800,"station_id":"ce4bgt92rcd13ifvqcg0","pricing_plan_id":"cebpf4jnsgd1na2vs0mg"},{"bike_id":"34689786-6a54-4fcb-b211-7f910d474e8b","system_id":"levelo_inurba_marseille","lat":43.311125,"lon":5.377624,"is_reserved":false,"is_disabled":false,"rental_uris":{"android":"levelo://app?vid=34689786-6a54-4fcb-b211-7f910d474e8b","ios":"levelo://app?vid=34689786-6a54-4fcb-b211-7f910d474e8b"},"vehicle_type_id":"4","last_reported":1716412065,"current_range_meters":1600,"station_id":"ce4bgt92rcd13ifvqcg0","pricing_plan_id":"cebpf4jnsgd1na2vs0mg"},{"bike_id":"06eac011-e07e-42f8-9513-625eaa5eaec1","system_id":"levelo_inurba_marseille","lat":43.311213,"lon":5.377633,"is_reserved":false,"is_disabled":false,"rental_uris":{"android":"levelo://app?vid=06eac011-e07e-42f8-9513-625eaa5eaec1","ios":"levelo://app?vid=06eac011-e07e-42f8-9513-625eaa5eaec1"},"vehicle_type_id":"4","last_reported":1716412065,"current_range_meters":18800,"station_id":"ce4bgt92rcd13ifvqcg0","pricing_plan_id":"cebpf4jnsgd1na2vs0mg"},{"bike_id":"d69e24d6-d328-45e1-a90a-20099ddae76f","system_id":"levelo_inurba_marseille","lat":43.311125,"lon":5.377624,"is_reserved":false,"is_disabled":false,"rental_uris":{"android":"levelo://app?vid=d69e24d6-d328-45e1-a90a-20099ddae76f","ios":"levelo://app?vid=d69e24d6-d328-45e1-a90a-20099ddae76f"},"vehicle_type_id":"4","last_reported":1716412065,"current_range_meters":20800,"station_id":"ce4bgt92rcd13ifvqcg0","pricing_plan_id":"cebpf4jnsgd1na2vs0mg"},{"bike_id":"09360167-51bb-4f46-a156-67cd739339be","system_id":"levelo_inurba_marseille","lat":43.307945,"lon":5.376487,"is_reserved":false,"is_disabled":false,"rental_uris":{"android":"levelo://app?vid=09360167-51bb-4f46-a156-67cd739339be","ios":"levelo://app?vid=09360167-51bb-4f46-a156-67cd739339be"},"vehicle_type_id":"4","last_reported":1716412065,"current_range_meters":6800,"station_id":"ce4bgv92rcd13ifvqcq0","pricing_plan_id":"cebpf4jnsgd1na2vs0mg"},{"bike_id":"b3f3bd88-f43c-49c4-85f6-221c6de8c71e","system_id":"levelo_inurba_marseille","lat":43.307945,"lon":5.376487,"is_reserved":false,"is_disabled":false,"rental_uris":{"android":"levelo://app?vid=b3f3bd88-f43c-49c4-85f6-221c6de8c71e","ios":"levelo://app?vid=b3f3bd88-f43c-49c4-85f6-221c6de8c71e"},"vehicle_type_id":"4","last_reported":1716412065,"current_range_meters":30400,"station_id":"ce4bgv92rcd13ifvqcq0","pricing_plan_id":"cebpf4jnsgd1na2vs0mg"},{"bike_id":"0b0cf110-04bf-4d36-8a8c-fbc56a47ab0d","system_id":"levelo_inurba_marseille","lat":43.307945,"lon":5.376487,"is_reserved":false,"is_disabled":false,"rental_uris":{"android":"levelo://app?vid=0b0cf110-04bf-4d36-8a8c-fbc56a47ab0d","ios":"levelo://app?vid=0b0cf110-04bf-4d36-8a8c-fbc56a47ab0d"},"vehicle_type_id":"4","last_reported":1716412065,"current_range_meters":4400,"station_id":"ce4bgv92rcd13ifvqcq0","pricing_plan_id":"cebpf4jnsgd1na2vs0mg"},{"bike_id":"18a03f07-2484-44d5-9cae-011dafa05e8b","system_id":"levelo_inurba_marseille","lat":43.307945,"lon":5.376487,"is_reserved":false,"is_disabled":false,"rental_uris":{"android":"levelo://app?vid=18a03f07-2484-44d5-9cae-011dafa05e8b","ios":"levelo://app?vid=18a03f07-2484-44d5-9cae-011dafa05e8b"},"vehicle_type_id":"4","last_reported":1716412065,"current_range_meters":30400,"station_id":"ce4bgv92rcd13ifvqcq0","pricing_plan_id":"cebpf4jnsgd1na2vs0mg"},{"bike_id":"3f08b46d-8c2e-4961-883e-4c4231b2a3ae","system_id":"levelo_inurba_marseille","lat":43.30788,"lon":5.37651,"is_reserved":false,"is_disabled":false,"rental_uris":{"android":"levelo://app?vid=3f08b46d-8c2e-4961-883e-4c4231b2a3ae","ios":"levelo://app?vid=3f08b46d-8c2e-4961-883e-4c4231b2a3ae"},"vehicle_type_id":"4","last_reported":1716412065,"current_range_meters":26800,"station_id":"ce4bgv92rcd13ifvqcq0","pricing_plan_id":"cebpf4jnsgd1na2vs0mg"},{"bike_id":"5804666e-c784-4d0f-b8a5-f907adaa47c1","system_id":"levelo_inurba_marseille","lat":43.307945,"lon":5.376487,"is_reserved":false,"is_disabled":false,"rental_uris":{"android":"levelo://app?vid=5804666e-c784-4d0f-b8a5-f907adaa47c1","ios":"levelo://app?vid=5804666e-c784-4d0f-b8a5-f907adaa47c1"},"vehicle_type_id":"4","last_reported":1716412065,"current_range_meters":11200,"station_id":"ce4bgv92rcd13ifvqcq0","pricing_plan_id":"cebpf4jnsgd1na2vs0mg"},{"bike_id":"8ab3b5fd-7334-4d86-a35d-79433b90f79c","system_id":"levelo_inurba_marseille","lat":43.307945,"lon":5.376487,"is_reserved":false,"is_disabled":false,"rental_uris":{"android":"levelo://app?vid=8ab3b5fd-7334-4d86-a35d-79433b90f79c","ios":"levelo://app?vid=8ab3b5fd-7334-4d86-a35d-79433b90f79c"},"vehicle_type_id":"4","last_reported":1716412065,"current_range_meters":25600,"station_id":"ce4bgv92rcd13ifvqcq0","pricing_plan_id":"cebpf4jnsgd1na2vs0mg"},{"bike_id":"56e35a3b-473f-4c6a-bd1e-7cbc9ca294c2","system_id":"levelo_inurba_marseille","lat":43.307945,"lon":5.376487,"is_reserved":false,"is_disabled":false,"rental_uris":{"android":"levelo://app?vid=56e35a3b-473f-4c6a-bd1e-7cbc9ca294c2","ios":"levelo://app?vid=56e35a3b-473f-4c6a-bd1e-7cbc9ca294c2"},"vehicle_type_id":"4","last_reported":1716412065,"current_range_meters":12000,"station_id":"ce4bgv92rcd13ifvqcq0","pricing_plan_id":"cebpf4jnsgd1na2vs0mg"},{"bike_id":"c941dabd-ed26-47a5-91d7-3e6a94834601","system_id":"levelo_inurba_marseille","lat":43.307945,"lon":5.376487,"is_reserved":false,"is_disabled":false,"rental_uris":{"android":"levelo://app?vid=c941dabd-ed26-47a5-91d7-3e6a94834601","ios":"levelo://app?vid=c941dabd-ed26-47a5-91d7-3e6a94834601"},"vehicle_type_id":"4","last_reported":1716412065,"current_range_meters":17600,"station_id":"ce4bgv92rcd13ifvqcq0","pricing_plan_id":"cebpf4jnsgd1na2vs0mg"},{"bike_id":"ac2cdb93-b8db-4fff-a9c1-fa9da5c1f6a0","system_id":"levelo_inurba_marseille","lat":43.307945,"lon":5.376487,"is_reserved":false,"is_disabled":false,"rental_uris":{"android":"levelo://app?vid=ac2cdb93-b8db-4fff-a9c1-fa9da5c1f6a0","ios":"levelo://app?vid=ac2cdb93-b8db-4fff-a9c1-fa9da5c1f6a0"},"vehicle_type_id":"4","last_reported":1716412065,"current_range_meters":26000,"station_id":"ce4bgv92rcd13ifvqcq0","pricing_plan_id":"cebpf4jnsgd1na2vs0mg"},{"bike_id":"1c03a72e-bad3-47eb-9ee2-37330ac613ab","system_id":"levelo_inurba_marseille","lat":43.30784,"lon":5.37659,"is_reserved":false,"is_disabled":false,"rental_uris":{"android":"levelo://app?vid=1c03a72e-bad3-47eb-9ee2-37330ac613ab","ios":"levelo://app?vid=1c03a72e-bad3-47eb-9ee2-37330ac613ab"},"vehicle_type_id":"4","last_reported":1716412065,"current_range_meters":21200,"station_id":"ce4bgv92rcd13ifvqcq0","pricing_plan_id":"cebpf4jnsgd1na2vs0mg"},{"bike_id":"fa791f0f-ec03-4040-be01-8901a3c8ae9e","system_id":"levelo_inurba_marseille","lat":43.30774,"lon":5.37653,"is_reserved":false,"is_disabled":false,"rental_uris":{"android":"levelo://app?vid=fa791f0f-ec03-4040-be01-8901a3c8ae9e","ios":"levelo://app?vid=fa791f0f-ec03-4040-be01-8901a3c8ae9e"},"vehicle_type_id":"4","last_reported":1716412065,"current_range_meters":20400,"station_id":"ce4bgv92rcd13ifvqcq0","pricing_plan_id":"cebpf4jnsgd1na2vs0mg"},{"bike_id":"7c263895-7405-4510-9aee-301c703057eb","system_id":"levelo_inurba_marseille","lat":43.317075,"lon":5.377367,"is_reserved":false,"is_disabled":false,"rental_uris":{"android":"levelo://app?vid=7c263895-7405-4510-9aee-301c703057eb","ios":"levelo://app?vid=7c263895-7405-4510-9aee-301c703057eb"},"vehicle_type_id":"4","last_reported":1716412065,"current_range_meters":20400,"station_id":"ce4bgth2rcd13ifvqch0","pricing_plan_id":"cebpf4jnsgd1na2vs0mg"},{"bike_id":"e91146eb-061e-4b8f-afe2-3a2dbf87e5f3","system_id":"levelo_inurba_marseille","lat":43.317075,"lon":5.377367,"is_reserved":false,"is_disabled":false,"rental_uris":{"android":"levelo://app?vid=e91146eb-061e-4b8f-afe2-3a2dbf87e5f3","ios":"levelo://app?vid=e91146eb-061e-4b8f-afe2-3a2dbf87e5f3"},"vehicle_type_id":"4","last_reported":1716412065,"current_range_meters":4800,"station_id":"ce4bgth2rcd13ifvqch0","pricing_plan_id":"cebpf4jnsgd1na2vs0mg"},{"bike_id":"e6c1cde1-54a4-4bf9-99ac-24637ed7e6b4","system_id":"levelo_inurba_marseille","lat":43.317075,"lon":5.377367,"is_reserved":false,"is_disabled":false,"rental_uris":{"android":"levelo://app?vid=e6c1cde1-54a4-4bf9-99ac-24637ed7e6b4","ios":"levelo://app?vid=e6c1cde1-54a4-4bf9-99ac-24637ed7e6b4"},"vehicle_type_id":"4","last_reported":1716412065,"current_range_meters":12000,"station_id":"ce4bgth2rcd13ifvqch0","pricing_plan_id":"cebpf4jnsgd1na2vs0mg"},{"bike_id":"cb9e0a05-a3ae-4541-a394-a8747f3fd49d","system_id":"levelo_inurba_marseille","lat":43.315289,"lon":5.380349,"is_reserved":false,"is_disabled":false,"rental_uris":{"android":"levelo://app?vid=cb9e0a05-a3ae-4541-a394-a8747f3fd49d","ios":"levelo://app?vid=cb9e0a05-a3ae-4541-a394-a8747f3fd49d"},"vehicle_type_id":"4","last_reported":1716412065,"current_range_meters":19200,"station_id":"ce4bhsp2rcd13ifvqi50","pricing_plan_id":"cebpf4jnsgd1na2vs0mg"},{"bike_id":"7623df22-6163-4e3c-ab15-1eb6811cac47","system_id":"levelo_inurba_marseille","lat":43.315289,"lon":5.380349,"is_reserved":false,"is_disabled":false,"rental_uris":{"android":"levelo://app?vid=7623df22-6163-4e3c-ab15-1eb6811cac47","ios":"levelo://app?vid=7623df22-6163-4e3c-ab15-1eb6811cac47"},"vehicle_type_id":"4","last_reported":1716412065,"current_range_meters":3200,"station_id":"ce4bhsp2rcd13ifvqi50","pricing_plan_id":"cebpf4jnsgd1na2vs0mg"},{"bike_id":"92fe09f8-a9fb-484f-af22-30de7cb94602","system_id":"levelo_inurba_marseille","lat":43.31533,"lon":5.38028,"is_reserved":false,"is_disabled":false,"rental_uris":{"android":"levelo://app?vid=92fe09f8-a9fb-484f-af22-30de7cb94602","ios":"levelo://app?vid=92fe09f8-a9fb-484f-af22-30de7cb94602"},"vehicle_type_id":"4","last_reported":1716412065,"current_range_meters":800,"station_id":"ce4bhsp2rcd13ifvqi50","pricing_plan_id":"cebpf4jnsgd1na2vs0mg"},{"bike_id":"3ad0ce14-1709-4d77-8a7e-1f9a4f75d02a","system_id":"levelo_inurba_marseille","lat":43.315289,"lon":5.380349,"is_reserved":false,"is_disabled":false,"rental_uris":{"android":"levelo://app?vid=3ad0ce14-1709-4d77-8a7e-1f9a4f75d02a","ios":"levelo://app?vid=3ad0ce14-1709-4d77-8a7e-1f9a4f75d02a"},"vehicle_type_id":"4","last_reported":1716412065,"current_range_meters":3600,"station_id":"ce4bhsp2rcd13ifvqi50","pricing_plan_id":"cebpf4jnsgd1na2vs0mg"},{"bike_id":"b23e6566-5d55-424c-999b-c19bef3e73de","system_id":"levelo_inurba_marseille","lat":43.315289,"lon":5.380349,"is_reserved":false,"is_disabled":false,"rental_uris":{"android":"levelo://app?vid=b23e6566-5d55-424c-999b-c19bef3e73de","ios":"levelo://app?vid=b23e6566-5d55-424c-999b-c19bef3e73de"},"vehicle_type_id":"4","last_reported":1716412065,"current_range_meters":8800,"station_id":"ce4bhsp2rcd13ifvqi50","pricing_plan_id":"cebpf4jnsgd1na2vs0mg"},{"bike_id":"7bd6058d-3a49-4665-ba7c-97431b20a04a","system_id":"levelo_inurba_marseille","lat":43.301939,"lon":5.366286,"is_reserved":false,"is_disabled":false,"rental_uris":{"android":"levelo://app?vid=7bd6058d-3a49-4665-ba7c-97431b20a04a","ios":"levelo://app?vid=7bd6058d-3a49-4665-ba7c-97431b20a04a"},"vehicle_type_id":"4","last_reported":1716412065,"current_range_meters":14800,"station_id":"ce4bgrh2rcd13ifvqc8g","pricing_plan_id":"cebpf4jnsgd1na2vs0mg"},{"bike_id":"b4032789-6204-47b3-a11b-b1a777946933","system_id":"levelo_inurba_marseille","lat":43.257079,"lon":5.411051,"is_reserved":false,"is_disabled":false,"rental_uris":{"android":"levelo://app?vid=b4032789-6204-47b3-a11b-b1a777946933","ios":"levelo://app?vid=b4032789-6204-47b3-a11b-b1a777946933"},"vehicle_type_id":"4","last_reported":1716412065,"current_range_meters":13600,"station_id":"ce4bhkp2rcd13ifvqgd0","pricing_plan_id":"cebpf4jnsgd1na2vs0mg"},{"bike_id":"02c69231-6261-43c8-833f-4e821a89da42","system_id":"levelo_inurba_marseille","lat":43.308012,"lon":5.381511,"is_reserved":false,"is_disabled":false,"rental_uris":{"android":"levelo://app?vid=02c69231-6261-43c8-833f-4e821a89da42","ios":"levelo://app?vid=02c69231-6261-43c8-833f-4e821a89da42"},"vehicle_type_id":"4","last_reported":1716412065,"current_range_meters":18400,"station_id":"ce4bgt12rcd13ifvqce0","pricing_plan_id":"cebpf4jnsgd1na2vs0mg"},{"bike_id":"e8b5b6ae-d49b-4d23-a165-fcee6df852ba","system_id":"levelo_inurba_marseille","lat":43.308012,"lon":5.381511,"is_reserved":false,"is_disabled":false,"rental_uris":{"android":"levelo://app?vid=e8b5b6ae-d49b-4d23-a165-fcee6df852ba","ios":"levelo://app?vid=e8b5b6ae-d49b-4d23-a165-fcee6df852ba"},"vehicle_type_id":"4","last_reported":1716412065,"current_range_meters":4000,"station_id":"ce4bgt12rcd13ifvqce0","pricing_plan_id":"cebpf4jnsgd1na2vs0mg"},{"bike_id":"d80b242f-007b-413b-be86-57293010f777","system_id":"levelo_inurba_marseille","lat":43.308012,"lon":5.381511,"is_reserved":false,"is_disabled":false,"rental_uris":{"android":"levelo://app?vid=d80b242f-007b-413b-be86-57293010f777","ios":"levelo://app?vid=d80b242f-007b-413b-be86-57293010f777"},"vehicle_type_id":"4","last_reported":1716412065,"current_range_meters":24400,"station_id":"ce4bgt12rcd13ifvqce0","pricing_plan_id":"cebpf4jnsgd1na2vs0mg"},{"bike_id":"8233513f-85a0-45c2-98d6-2d3d58de645b","system_id":"levelo_inurba_marseille","lat":43.308012,"lon":5.381511,"is_reserved":false,"is_disabled":false,"rental_uris":{"android":"levelo://app?vid=8233513f-85a0-45c2-98d6-2d3d58de645b","ios":"levelo://app?vid=8233513f-85a0-45c2-98d6-2d3d58de645b"},"vehicle_type_id":"4","last_reported":1716412065,"current_range_meters":3200,"station_id":"ce4bgt12rcd13ifvqce0","pricing_plan_id":"cebpf4jnsgd1na2vs0mg"},{"bike_id":"20237130-3c0d-4019-94dd-d36d41cab711","system_id":"levelo_inurba_marseille","lat":43.308012,"lon":5.381511,"is_reserved":false,"is_disabled":false,"rental_uris":{"android":"levelo://app?vid=20237130-3c0d-4019-94dd-d36d41cab711","ios":"levelo://app?vid=20237130-3c0d-4019-94dd-d36d41cab711"},"vehicle_type_id":"4","last_reported":1716412065,"current_range_meters":12400,"station_id":"ce4bgt12rcd13ifvqce0","pricing_plan_id":"cebpf4jnsgd1na2vs0mg"},{"bike_id":"8c0de7d7-9ae8-4e3d-aa46-11a7652ca29d","system_id":"levelo_inurba_marseille","lat":43.308012,"lon":5.381511,"is_reserved":false,"is_disabled":false,"rental_uris":{"android":"levelo://app?vid=8c0de7d7-9ae8-4e3d-aa46-11a7652ca29d","ios":"levelo://app?vid=8c0de7d7-9ae8-4e3d-aa46-11a7652ca29d"},"vehicle_type_id":"4","last_reported":1716412065,"current_range_meters":8400,"station_id":"ce4bgt12rcd13ifvqce0","pricing_plan_id":"cebpf4jnsgd1na2vs0mg"},{"bike_id":"899f0f06-7cab-4362-9911-83232f350568","system_id":"levelo_inurba_marseille","lat":43.308012,"lon":5.381511,"is_reserved":false,"is_disabled":false,"rental_uris":{"android":"levelo://app?vid=899f0f06-7cab-4362-9911-83232f350568","ios":"levelo://app?vid=899f0f06-7cab-4362-9911-83232f350568"},"vehicle_type_id":"4","last_reported":1716412065,"current_range_meters":1600,"station_id":"ce4bgt12rcd13ifvqce0","pricing_plan_id":"cebpf4jnsgd1na2vs0mg"},{"bike_id":"9e9f4578-ba61-4aa0-83ee-09b509cd2a76","system_id":"levelo_inurba_marseille","lat":43.308012,"lon":5.381511,"is_reserved":false,"is_disabled":false,"rental_uris":{"android":"levelo://app?vid=9e9f4578-ba61-4aa0-83ee-09b509cd2a76","ios":"levelo://app?vid=9e9f4578-ba61-4aa0-83ee-09b509cd2a76"},"vehicle_type_id":"4","last_reported":1716412065,"current_range_meters":16400,"station_id":"ce4bgt12rcd13ifvqce0","pricing_plan_id":"cebpf4jnsgd1na2vs0mg"},{"bike_id":"0d823595-36b8-4cdd-aff9-943eb0e102d4","system_id":"levelo_inurba_marseille","lat":43.308017,"lon":5.381623,"is_reserved":false,"is_disabled":false,"rental_uris":{"android":"levelo://app?vid=0d823595-36b8-4cdd-aff9-943eb0e102d4","ios":"levelo://app?vid=0d823595-36b8-4cdd-aff9-943eb0e102d4"},"vehicle_type_id":"4","last_reported":1716412065,"current_range_meters":13600,"station_id":"ce4bgt12rcd13ifvqce0","pricing_plan_id":"cebpf4jnsgd1na2vs0mg"},{"bike_id":"0f82bab9-2c5c-41d5-a523-b03decbfe3f9","system_id":"levelo_inurba_marseille","lat":43.304606,"lon":5.379026,"is_reserved":false,"is_disabled":false,"rental_uris":{"android":"levelo://app?vid=0f82bab9-2c5c-41d5-a523-b03decbfe3f9","ios":"levelo://app?vid=0f82bab9-2c5c-41d5-a523-b03decbfe3f9"},"vehicle_type_id":"4","last_reported":1716412065,"current_range_meters":1600,"station_id":"ce4bgup2rcd13ifvqcn0","pricing_plan_id":"cebpf4jnsgd1na2vs0mg"},{"bike_id":"03b2d0ac-4855-463a-a2f0-be21041dc802","system_id":"levelo_inurba_marseille","lat":43.304606,"lon":5.379026,"is_reserved":false,"is_disabled":false,"rental_uris":{"android":"levelo://app?vid=03b2d0ac-4855-463a-a2f0-be21041dc802","ios":"levelo://app?vid=03b2d0ac-4855-463a-a2f0-be21041dc802"},"vehicle_type_id":"4","last_reported":1716412065,"current_range_meters":31200,"station_id":"ce4bgup2rcd13ifvqcn0","pricing_plan_id":"cebpf4jnsgd1na2vs0mg"},{"bike_id":"52a560ad-700b-48a4-b728-6d4bfc11c6f4","system_id":"levelo_inurba_marseille","lat":43.304606,"lon":5.379026,"is_reserved":false,"is_disabled":false,"rental_uris":{"android":"levelo://app?vid=52a560ad-700b-48a4-b728-6d4bfc11c6f4","ios":"levelo://app?vid=52a560ad-700b-48a4-b728-6d4bfc11c6f4"},"vehicle_type_id":"4","last_reported":1716412065,"current_range_meters":16400,"station_id":"ce4bgup2rcd13ifvqcn0","pricing_plan_id":"cebpf4jnsgd1na2vs0mg"},{"bike_id":"2c9db741-5027-4aae-ab30-917163cd1dbb","system_id":"levelo_inurba_marseille","lat":43.304606,"lon":5.379026,"is_reserved":false,"is_disabled":false,"rental_uris":{"android":"levelo://app?vid=2c9db741-5027-4aae-ab30-917163cd1dbb","ios":"levelo://app?vid=2c9db741-5027-4aae-ab30-917163cd1dbb"},"vehicle_type_id":"4","last_reported":1716412065,"current_range_meters":2400,"station_id":"ce4bgup2rcd13ifvqcn0","pricing_plan_id":"cebpf4jnsgd1na2vs0mg"},{"bike_id":"a1b866c6-b223-41d8-95ff-6c6281ba0eef","system_id":"levelo_inurba_marseille","lat":43.304606,"lon":5.379026,"is_reserved":false,"is_disabled":false,"rental_uris":{"android":"levelo://app?vid=a1b866c6-b223-41d8-95ff-6c6281ba0eef","ios":"levelo://app?vid=a1b866c6-b223-41d8-95ff-6c6281ba0eef"},"vehicle_type_id":"4","last_reported":1716412065,"current_range_meters":29200,"station_id":"ce4bgup2rcd13ifvqcn0","pricing_plan_id":"cebpf4jnsgd1na2vs0mg"},{"bike_id":"62da71e0-3aa2-4b09-ba3a-b88de15900be","system_id":"levelo_inurba_marseille","lat":43.324717,"lon":5.365633,"is_reserved":false,"is_disabled":false,"rental_uris":{"android":"levelo://app?vid=62da71e0-3aa2-4b09-ba3a-b88de15900be","ios":"levelo://app?vid=62da71e0-3aa2-4b09-ba3a-b88de15900be"},"vehicle_type_id":"4","last_reported":1716412065,"current_range_meters":2800,"station_id":"ce4bhs12rcd13ifvqhvg","pricing_plan_id":"cebpf4jnsgd1na2vs0mg"},{"bike_id":"29e05dd3-3d96-4eaf-bb5c-1a601a38ac5d","system_id":"levelo_inurba_marseille","lat":43.324771,"lon":5.36557,"is_reserved":false,"is_disabled":false,"rental_uris":{"android":"levelo://app?vid=29e05dd3-3d96-4eaf-bb5c-1a601a38ac5d","ios":"levelo://app?vid=29e05dd3-3d96-4eaf-bb5c-1a601a38ac5d"},"vehicle_type_id":"4","last_reported":1716412065,"current_range_meters":17600,"station_id":"ce4bhs12rcd13ifvqhvg","pricing_plan_id":"cebpf4jnsgd1na2vs0mg"},{"bike_id":"277b6c98-023c-4acf-82e5-bb6fb5956f95","system_id":"levelo_inurba_marseille","lat":43.310804,"lon":5.38359,"is_reserved":false,"is_disabled":false,"rental_uris":{"android":"levelo://app?vid=277b6c98-023c-4acf-82e5-bb6fb5956f95","ios":"levelo://app?vid=277b6c98-023c-4acf-82e5-bb6fb5956f95"},"vehicle_type_id":"4","last_reported":1716412065,"current_range_meters":8800,"station_id":"ce4bgv92rcd13ifvqcr0","pricing_plan_id":"cebpf4jnsgd1na2vs0mg"},{"bike_id":"e29c06f2-e1b0-46e4-831e-9742ba6f3f27","system_id":"levelo_inurba_marseille","lat":43.310804,"lon":5.38359,"is_reserved":false,"is_disabled":false,"rental_uris":{"android":"levelo://app?vid=e29c06f2-e1b0-46e4-831e-9742ba6f3f27","ios":"levelo://app?vid=e29c06f2-e1b0-46e4-831e-9742ba6f3f27"},"vehicle_type_id":"4","last_reported":1716412065,"current_range_meters":7600,"station_id":"ce4bgv92rcd13ifvqcr0","pricing_plan_id":"cebpf4jnsgd1na2vs0mg"},{"bike_id":"c389f962-e11c-476b-9553-2cb0624ed741","system_id":"levelo_inurba_marseille","lat":43.31071,"lon":5.38348,"is_reserved":false,"is_disabled":false,"rental_uris":{"android":"levelo://app?vid=c389f962-e11c-476b-9553-2cb0624ed741","ios":"levelo://app?vid=c389f962-e11c-476b-9553-2cb0624ed741"},"vehicle_type_id":"4","last_reported":1716412065,"current_range_meters":28800,"station_id":"ce4bgv92rcd13ifvqcr0","pricing_plan_id":"cebpf4jnsgd1na2vs0mg"},{"bike_id":"a143e2ac-e786-4a15-80ab-196c7595b732","system_id":"levelo_inurba_marseille","lat":43.310804,"lon":5.38359,"is_reserved":false,"is_disabled":false,"rental_uris":{"android":"levelo://app?vid=a143e2ac-e786-4a15-80ab-196c7595b732","ios":"levelo://app?vid=a143e2ac-e786-4a15-80ab-196c7595b732"},"vehicle_type_id":"4","last_reported":1716412065,"current_range_meters":13200,"station_id":"ce4bgv92rcd13ifvqcr0","pricing_plan_id":"cebpf4jnsgd1na2vs0mg"},{"bike_id":"6c01bbd4-bc28-40ed-9133-e1ffa4f9f252","system_id":"levelo_inurba_marseille","lat":43.302784,"lon":5.377158,"is_reserved":false,"is_disabled":false,"rental_uris":{"android":"levelo://app?vid=6c01bbd4-bc28-40ed-9133-e1ffa4f9f252","ios":"levelo://app?vid=6c01bbd4-bc28-40ed-9133-e1ffa4f9f252"},"vehicle_type_id":"4","last_reported":1716412065,"current_range_meters":22800,"station_id":"ce4bguh2rcd13ifvqcj0","pricing_plan_id":"cebpf4jnsgd1na2vs0mg"},{"bike_id":"65707558-eb4e-43c8-9d67-2000e732a76f","system_id":"levelo_inurba_marseille","lat":43.310804,"lon":5.38359,"is_reserved":false,"is_disabled":false,"rental_uris":{"android":"levelo://app?vid=65707558-eb4e-43c8-9d67-2000e732a76f","ios":"levelo://app?vid=65707558-eb4e-43c8-9d67-2000e732a76f"},"vehicle_type_id":"4","last_reported":1716412065,"current_range_meters":23600,"station_id":"ce4bgv92rcd13ifvqcr0","pricing_plan_id":"cebpf4jnsgd1na2vs0mg"},{"bike_id":"b3bc3562-e576-43c4-8bd5-3772dd73d5b4","system_id":"levelo_inurba_marseille","lat":43.310804,"lon":5.38359,"is_reserved":false,"is_disabled":false,"rental_uris":{"android":"levelo://app?vid=b3bc3562-e576-43c4-8bd5-3772dd73d5b4","ios":"levelo://app?vid=b3bc3562-e576-43c4-8bd5-3772dd73d5b4"},"vehicle_type_id":"4","last_reported":1716412065,"current_range_meters":21200,"station_id":"ce4bgv92rcd13ifvqcr0","pricing_plan_id":"cebpf4jnsgd1na2vs0mg"},{"bike_id":"adb6f786-903d-4ffa-b7bc-0633c8bf71cd","system_id":"levelo_inurba_marseille","lat":43.31055,"lon":5.38359,"is_reserved":false,"is_disabled":false,"rental_uris":{"android":"levelo://app?vid=adb6f786-903d-4ffa-b7bc-0633c8bf71cd","ios":"levelo://app?vid=adb6f786-903d-4ffa-b7bc-0633c8bf71cd"},"vehicle_type_id":"4","last_reported":1716412065,"current_range_meters":31200,"station_id":"ce4bgv92rcd13ifvqcr0","pricing_plan_id":"cebpf4jnsgd1na2vs0mg"},{"bike_id":"6fb5ee2e-f14e-4c6a-9bcf-3e2a5cc38f5a","system_id":"levelo_inurba_marseille","lat":43.302784,"lon":5.377158,"is_reserved":false,"is_disabled":false,"rental_uris":{"android":"levelo://app?vid=6fb5ee2e-f14e-4c6a-9bcf-3e2a5cc38f5a","ios":"levelo://app?vid=6fb5ee2e-f14e-4c6a-9bcf-3e2a5cc38f5a"},"vehicle_type_id":"4","last_reported":1716412065,"current_range_meters":25200,"station_id":"ce4bguh2rcd13ifvqcj0","pricing_plan_id":"cebpf4jnsgd1na2vs0mg"},{"bike_id":"ed5bd31d-9532-4aad-8a2a-fafc601d88a8","system_id":"levelo_inurba_marseille","lat":43.301429,"lon":5.37413,"is_reserved":false,"is_disabled":false,"rental_uris":{"android":"levelo://app?vid=ed5bd31d-9532-4aad-8a2a-fafc601d88a8","ios":"levelo://app?vid=ed5bd31d-9532-4aad-8a2a-fafc601d88a8"},"vehicle_type_id":"4","last_reported":1716412065,"current_range_meters":14400,"station_id":"ce4bgs92rcd13ifvqcc0","pricing_plan_id":"cebpf4jnsgd1na2vs0mg"},{"bike_id":"4cf53eb2-2d21-4a1d-8524-eae38f801b7a","system_id":"levelo_inurba_marseille","lat":43.319912,"lon":5.381452,"is_reserved":false,"is_disabled":false,"rental_uris":{"android":"levelo://app?vid=4cf53eb2-2d21-4a1d-8524-eae38f801b7a","ios":"levelo://app?vid=4cf53eb2-2d21-4a1d-8524-eae38f801b7a"},"vehicle_type_id":"4","last_reported":1716412065,"current_range_meters":28400,"station_id":"ce4bhr12rcd13ifvqhpg","pricing_plan_id":"cebpf4jnsgd1na2vs0mg"},{"bike_id":"ade148de-1c2d-42eb-83af-fe2776419b36","system_id":"levelo_inurba_marseille","lat":43.319937,"lon":5.381472,"is_reserved":false,"is_disabled":false,"rental_uris":{"android":"levelo://app?vid=ade148de-1c2d-42eb-83af-fe2776419b36","ios":"levelo://app?vid=ade148de-1c2d-42eb-83af-fe2776419b36"},"vehicle_type_id":"4","last_reported":1716412065,"current_range_meters":4800,"station_id":"ce4bhr12rcd13ifvqhpg","pricing_plan_id":"cebpf4jnsgd1na2vs0mg"},{"bike_id":"94202880-0274-4691-8380-53ef2bfd0f12","system_id":"levelo_inurba_marseille","lat":43.31995,"lon":5.38151,"is_reserved":false,"is_disabled":false,"rental_uris":{"android":"levelo://app?vid=94202880-0274-4691-8380-53ef2bfd0f12","ios":"levelo://app?vid=94202880-0274-4691-8380-53ef2bfd0f12"},"vehicle_type_id":"4","last_reported":1716412065,"current_range_meters":0,"station_id":"ce4bhr12rcd13ifvqhpg","pricing_plan_id":"cebpf4jnsgd1na2vs0mg"},{"bike_id":"82c94e2e-d6fd-442e-aed9-097b41c0f6ef","system_id":"levelo_inurba_marseille","lat":43.31999,"lon":5.38152,"is_reserved":false,"is_disabled":false,"rental_uris":{"android":"levelo://app?vid=82c94e2e-d6fd-442e-aed9-097b41c0f6ef","ios":"levelo://app?vid=82c94e2e-d6fd-442e-aed9-097b41c0f6ef"},"vehicle_type_id":"4","last_reported":1716412065,"current_range_meters":4400,"station_id":"ce4bhr12rcd13ifvqhpg","pricing_plan_id":"cebpf4jnsgd1na2vs0mg"},{"bike_id":"e48fe419-3584-4256-8dd4-0563341db911","system_id":"levelo_inurba_marseille","lat":43.319943,"lon":5.381569,"is_reserved":false,"is_disabled":false,"rental_uris":{"android":"levelo://app?vid=e48fe419-3584-4256-8dd4-0563341db911","ios":"levelo://app?vid=e48fe419-3584-4256-8dd4-0563341db911"},"vehicle_type_id":"4","last_reported":1716412065,"current_range_meters":2000,"station_id":"ce4bhr12rcd13ifvqhpg","pricing_plan_id":"cebpf4jnsgd1na2vs0mg"},{"bike_id":"880e81c8-01e5-4433-8183-13a0353e1e1c","system_id":"levelo_inurba_marseille","lat":43.31998,"lon":5.38154,"is_reserved":false,"is_disabled":false,"rental_uris":{"android":"levelo://app?vid=880e81c8-01e5-4433-8183-13a0353e1e1c","ios":"levelo://app?vid=880e81c8-01e5-4433-8183-13a0353e1e1c"},"vehicle_type_id":"4","last_reported":1716412065,"current_range_meters":0,"station_id":"ce4bhr12rcd13ifvqhpg","pricing_plan_id":"cebpf4jnsgd1na2vs0mg"},{"bike_id":"a529d11e-1eca-4530-a97e-63571bbf4097","system_id":"levelo_inurba_marseille","lat":43.32001,"lon":5.38152,"is_reserved":false,"is_disabled":false,"rental_uris":{"android":"levelo://app?vid=a529d11e-1eca-4530-a97e-63571bbf4097","ios":"levelo://app?vid=a529d11e-1eca-4530-a97e-63571bbf4097"},"vehicle_type_id":"4","last_reported":1716412065,"current_range_meters":6400,"station_id":"ce4bhr12rcd13ifvqhpg","pricing_plan_id":"cebpf4jnsgd1na2vs0mg"},{"bike_id":"ca550ec4-54a7-4951-83a1-9cb51362b939","system_id":"levelo_inurba_marseille","lat":43.319935,"lon":5.381699,"is_reserved":false,"is_disabled":false,"rental_uris":{"android":"levelo://app?vid=ca550ec4-54a7-4951-83a1-9cb51362b939","ios":"levelo://app?vid=ca550ec4-54a7-4951-83a1-9cb51362b939"},"vehicle_type_id":"4","last_reported":1716412065,"current_range_meters":5200,"station_id":"ce4bhr12rcd13ifvqhpg","pricing_plan_id":"cebpf4jnsgd1na2vs0mg"},{"bike_id":"4581891e-87d1-4f54-841f-e4cb209b48df","system_id":"levelo_inurba_marseille","lat":43.31998,"lon":5.3816,"is_reserved":false,"is_disabled":false,"rental_uris":{"android":"levelo://app?vid=4581891e-87d1-4f54-841f-e4cb209b48df","ios":"levelo://app?vid=4581891e-87d1-4f54-841f-e4cb209b48df"},"vehicle_type_id":"4","last_reported":1716412065,"current_range_meters":0,"station_id":"ce4bhr12rcd13ifvqhpg","pricing_plan_id":"cebpf4jnsgd1na2vs0mg"},{"bike_id":"4b880df4-1ce2-4b9b-b0bc-c3e1da03b1ac","system_id":"levelo_inurba_marseille","lat":43.32,"lon":5.38164,"is_reserved":false,"is_disabled":false,"rental_uris":{"android":"levelo://app?vid=4b880df4-1ce2-4b9b-b0bc-c3e1da03b1ac","ios":"levelo://app?vid=4b880df4-1ce2-4b9b-b0bc-c3e1da03b1ac"},"vehicle_type_id":"4","last_reported":1716412065,"current_range_meters":0,"station_id":"ce4bhr12rcd13ifvqhpg","pricing_plan_id":"cebpf4jnsgd1na2vs0mg"},{"bike_id":"f84b20fe-2e65-4a11-95a6-aaf70b9ba496","system_id":"levelo_inurba_marseille","lat":43.313571,"lon":5.384829,"is_reserved":false,"is_disabled":false,"rental_uris":{"android":"levelo://app?vid=f84b20fe-2e65-4a11-95a6-aaf70b9ba496","ios":"levelo://app?vid=f84b20fe-2e65-4a11-95a6-aaf70b9ba496"},"vehicle_type_id":"4","last_reported":1716412065,"current_range_meters":25600,"station_id":"ce4bgt92rcd13ifvqcf0","pricing_plan_id":"cebpf4jnsgd1na2vs0mg"},{"bike_id":"72c4e3c0-3f4f-436d-8dc7-53ba09287ebd","system_id":"levelo_inurba_marseille","lat":43.31366,"lon":5.38486,"is_reserved":false,"is_disabled":false,"rental_uris":{"android":"levelo://app?vid=72c4e3c0-3f4f-436d-8dc7-53ba09287ebd","ios":"levelo://app?vid=72c4e3c0-3f4f-436d-8dc7-53ba09287ebd"},"vehicle_type_id":"4","last_reported":1716412065,"current_range_meters":23200,"station_id":"ce4bgt92rcd13ifvqcf0","pricing_plan_id":"cebpf4jnsgd1na2vs0mg"},{"bike_id":"bdf12392-f368-4a43-b14a-7ddf28e9cead","system_id":"levelo_inurba_marseille","lat":43.313571,"lon":5.384829,"is_reserved":false,"is_disabled":false,"rental_uris":{"android":"levelo://app?vid=bdf12392-f368-4a43-b14a-7ddf28e9cead","ios":"levelo://app?vid=bdf12392-f368-4a43-b14a-7ddf28e9cead"},"vehicle_type_id":"4","last_reported":1716412065,"current_range_meters":1200,"station_id":"ce4bgt92rcd13ifvqcf0","pricing_plan_id":"cebpf4jnsgd1na2vs0mg"},{"bike_id":"4a2f9379-14d5-41aa-9bd1-2600b216cab8","system_id":"levelo_inurba_marseille","lat":43.313571,"lon":5.384829,"is_reserved":false,"is_disabled":false,"rental_uris":{"android":"levelo://app?vid=4a2f9379-14d5-41aa-9bd1-2600b216cab8","ios":"levelo://app?vid=4a2f9379-14d5-41aa-9bd1-2600b216cab8"},"vehicle_type_id":"4","last_reported":1716412065,"current_range_meters":22400,"station_id":"ce4bgt92rcd13ifvqcf0","pricing_plan_id":"cebpf4jnsgd1na2vs0mg"},{"bike_id":"81a8b69b-2a15-43c8-b1be-066e74520d54","system_id":"levelo_inurba_marseille","lat":43.313571,"lon":5.384829,"is_reserved":false,"is_disabled":false,"rental_uris":{"android":"levelo://app?vid=81a8b69b-2a15-43c8-b1be-066e74520d54","ios":"levelo://app?vid=81a8b69b-2a15-43c8-b1be-066e74520d54"},"vehicle_type_id":"4","last_reported":1716412065,"current_range_meters":28800,"station_id":"ce4bgt92rcd13ifvqcf0","pricing_plan_id":"cebpf4jnsgd1na2vs0mg"},{"bike_id":"8cd3215e-7291-4eec-a7c5-675d44d956a1","system_id":"levelo_inurba_marseille","lat":43.313571,"lon":5.384829,"is_reserved":false,"is_disabled":false,"rental_uris":{"android":"levelo://app?vid=8cd3215e-7291-4eec-a7c5-675d44d956a1","ios":"levelo://app?vid=8cd3215e-7291-4eec-a7c5-675d44d956a1"},"vehicle_type_id":"4","last_reported":1716412065,"current_range_meters":6000,"station_id":"ce4bgt92rcd13ifvqcf0","pricing_plan_id":"cebpf4jnsgd1na2vs0mg"},{"bike_id":"6ca26fc6-6d32-4d20-8de0-3969e4b795b0","system_id":"levelo_inurba_marseille","lat":43.313571,"lon":5.384829,"is_reserved":false,"is_disabled":false,"rental_uris":{"android":"levelo://app?vid=6ca26fc6-6d32-4d20-8de0-3969e4b795b0","ios":"levelo://app?vid=6ca26fc6-6d32-4d20-8de0-3969e4b795b0"},"vehicle_type_id":"4","last_reported":1716412065,"current_range_meters":12800,"station_id":"ce4bgt92rcd13ifvqcf0","pricing_plan_id":"cebpf4jnsgd1na2vs0mg"},{"bike_id":"542c93f4-4648-4461-8313-b9fda27d67c4","system_id":"levelo_inurba_marseille","lat":43.313571,"lon":5.384829,"is_reserved":false,"is_disabled":false,"rental_uris":{"android":"levelo://app?vid=542c93f4-4648-4461-8313-b9fda27d67c4","ios":"levelo://app?vid=542c93f4-4648-4461-8313-b9fda27d67c4"},"vehicle_type_id":"4","last_reported":1716412065,"current_range_meters":3600,"station_id":"ce4bgt92rcd13ifvqcf0","pricing_plan_id":"cebpf4jnsgd1na2vs0mg"},{"bike_id":"e985a1f1-1f05-4d96-9f92-e02550bde73c","system_id":"levelo_inurba_marseille","lat":43.313546,"lon":5.384971,"is_reserved":false,"is_disabled":false,"rental_uris":{"android":"levelo://app?vid=e985a1f1-1f05-4d96-9f92-e02550bde73c","ios":"levelo://app?vid=e985a1f1-1f05-4d96-9f92-e02550bde73c"},"vehicle_type_id":"4","last_reported":1716412065,"current_range_meters":30400,"station_id":"","pricing_plan_id":"cebpf4jnsgd1na2vs0mg"},{"bike_id":"42dba520-4644-4408-bc19-3ee0b8c50f0c","system_id":"levelo_inurba_marseille","lat":43.313571,"lon":5.384829,"is_reserved":false,"is_disabled":false,"rental_uris":{"android":"levelo://app?vid=42dba520-4644-4408-bc19-3ee0b8c50f0c","ios":"levelo://app?vid=42dba520-4644-4408-bc19-3ee0b8c50f0c"},"vehicle_type_id":"4","last_reported":1716412065,"current_range_meters":8800,"station_id":"ce4bgt92rcd13ifvqcf0","pricing_plan_id":"cebpf4jnsgd1na2vs0mg"},{"bike_id":"5c34a637-7613-4a96-b157-aa5db5df6c90","system_id":"levelo_inurba_marseille","lat":43.31356,"lon":5.38502,"is_reserved":false,"is_disabled":false,"rental_uris":{"android":"levelo://app?vid=5c34a637-7613-4a96-b157-aa5db5df6c90","ios":"levelo://app?vid=5c34a637-7613-4a96-b157-aa5db5df6c90"},"vehicle_type_id":"4","last_reported":1716412065,"current_range_meters":26000,"station_id":"ce4bgt92rcd13ifvqcf0","pricing_plan_id":"cebpf4jnsgd1na2vs0mg"},{"bike_id":"1bbbb0d8-2360-46d2-8d84-40d727173c40","system_id":"levelo_inurba_marseille","lat":43.3136,"lon":5.38503,"is_reserved":false,"is_disabled":false,"rental_uris":{"android":"levelo://app?vid=1bbbb0d8-2360-46d2-8d84-40d727173c40","ios":"levelo://app?vid=1bbbb0d8-2360-46d2-8d84-40d727173c40"},"vehicle_type_id":"4","last_reported":1716412065,"current_range_meters":13600,"station_id":"ce4bgt92rcd13ifvqcf0","pricing_plan_id":"cebpf4jnsgd1na2vs0mg"},{"bike_id":"b62baa19-b737-4750-ab19-8a11c197dcf9","system_id":"levelo_inurba_marseille","lat":43.299222,"lon":5.365554,"is_reserved":false,"is_disabled":false,"rental_uris":{"android":"levelo://app?vid=b62baa19-b737-4750-ab19-8a11c197dcf9","ios":"levelo://app?vid=b62baa19-b737-4750-ab19-8a11c197dcf9"},"vehicle_type_id":"4","last_reported":1716412065,"current_range_meters":1200,"station_id":"ce4bgm92rcd13ifvqbr0","pricing_plan_id":"cebpf4jnsgd1na2vs0mg"},{"bike_id":"408b2b65-4a30-4608-b3c2-805f2d2fd9d3","system_id":"levelo_inurba_marseille","lat":43.299222,"lon":5.365554,"is_reserved":false,"is_disabled":false,"rental_uris":{"android":"levelo://app?vid=408b2b65-4a30-4608-b3c2-805f2d2fd9d3","ios":"levelo://app?vid=408b2b65-4a30-4608-b3c2-805f2d2fd9d3"},"vehicle_type_id":"4","last_reported":1716412065,"current_range_meters":7600,"station_id":"ce4bgm92rcd13ifvqbr0","pricing_plan_id":"cebpf4jnsgd1na2vs0mg"},{"bike_id":"6c920697-f627-4977-951e-5202e7bf0d55","system_id":"levelo_inurba_marseille","lat":43.299724,"lon":5.371829,"is_reserved":false,"is_disabled":false,"rental_uris":{"android":"levelo://app?vid=6c920697-f627-4977-951e-5202e7bf0d55","ios":"levelo://app?vid=6c920697-f627-4977-951e-5202e7bf0d55"},"vehicle_type_id":"4","last_reported":1716412065,"current_range_meters":20400,"station_id":"ce4bgr92rcd13ifvqc7g","pricing_plan_id":"cebpf4jnsgd1na2vs0mg"},{"bike_id":"88e75dad-9283-43fd-9d6b-2c7dd77fcb4d","system_id":"levelo_inurba_marseille","lat":43.2998,"lon":5.37181,"is_reserved":false,"is_disabled":false,"rental_uris":{"android":"levelo://app?vid=88e75dad-9283-43fd-9d6b-2c7dd77fcb4d","ios":"levelo://app?vid=88e75dad-9283-43fd-9d6b-2c7dd77fcb4d"},"vehicle_type_id":"4","last_reported":1716412065,"current_range_meters":0,"station_id":"ce4bgr92rcd13ifvqc7g","pricing_plan_id":"cebpf4jnsgd1na2vs0mg"},{"bike_id":"d6b713e8-05b0-4306-819d-2951415bd369","system_id":"levelo_inurba_marseille","lat":43.299222,"lon":5.365554,"is_reserved":false,"is_disabled":false,"rental_uris":{"android":"levelo://app?vid=d6b713e8-05b0-4306-819d-2951415bd369","ios":"levelo://app?vid=d6b713e8-05b0-4306-819d-2951415bd369"},"vehicle_type_id":"4","last_reported":1716412065,"current_range_meters":0,"station_id":"ce4bgm92rcd13ifvqbr0","pricing_plan_id":"cebpf4jnsgd1na2vs0mg"},{"bike_id":"c7301d44-c9e4-4b0d-859e-708bc842b081","system_id":"levelo_inurba_marseille","lat":43.299222,"lon":5.365554,"is_reserved":false,"is_disabled":false,"rental_uris":{"android":"levelo://app?vid=c7301d44-c9e4-4b0d-859e-708bc842b081","ios":"levelo://app?vid=c7301d44-c9e4-4b0d-859e-708bc842b081"},"vehicle_type_id":"4","last_reported":1716412065,"current_range_meters":4800,"station_id":"ce4bgm92rcd13ifvqbr0","pricing_plan_id":"cebpf4jnsgd1na2vs0mg"},{"bike_id":"578796c7-be37-4cd0-b7ce-bf0e7ee39536","system_id":"levelo_inurba_marseille","lat":43.313571,"lon":5.384829,"is_reserved":false,"is_disabled":false,"rental_uris":{"android":"levelo://app?vid=578796c7-be37-4cd0-b7ce-bf0e7ee39536","ios":"levelo://app?vid=578796c7-be37-4cd0-b7ce-bf0e7ee39536"},"vehicle_type_id":"4","last_reported":1716412065,"current_range_meters":16800,"station_id":"ce4bgt92rcd13ifvqcf0","pricing_plan_id":"cebpf4jnsgd1na2vs0mg"},{"bike_id":"fd1d9eb6-f479-4025-8c74-7aeb7437b050","system_id":"levelo_inurba_marseille","lat":43.299222,"lon":5.365554,"is_reserved":false,"is_disabled":false,"rental_uris":{"android":"levelo://app?vid=fd1d9eb6-f479-4025-8c74-7aeb7437b050","ios":"levelo://app?vid=fd1d9eb6-f479-4025-8c74-7aeb7437b050"},"vehicle_type_id":"4","last_reported":1716412065,"current_range_meters":0,"station_id":"ce4bgm92rcd13ifvqbr0","pricing_plan_id":"cebpf4jnsgd1na2vs0mg"},{"bike_id":"1449cf92-8e51-417a-b507-270fb657ca44","system_id":"levelo_inurba_marseille","lat":43.299724,"lon":5.371829,"is_reserved":false,"is_disabled":false,"rental_uris":{"android":"levelo://app?vid=1449cf92-8e51-417a-b507-270fb657ca44","ios":"levelo://app?vid=1449cf92-8e51-417a-b507-270fb657ca44"},"vehicle_type_id":"4","last_reported":1716412065,"current_range_meters":2000,"station_id":"ce4bgr92rcd13ifvqc7g","pricing_plan_id":"cebpf4jnsgd1na2vs0mg"},{"bike_id":"46fa3d19-cbb8-4ff3-ae8e-e5b841ce07dd","system_id":"levelo_inurba_marseille","lat":43.29973,"lon":5.37177,"is_reserved":false,"is_disabled":false,"rental_uris":{"android":"levelo://app?vid=46fa3d19-cbb8-4ff3-ae8e-e5b841ce07dd","ios":"levelo://app?vid=46fa3d19-cbb8-4ff3-ae8e-e5b841ce07dd"},"vehicle_type_id":"4","last_reported":1716412065,"current_range_meters":19200,"station_id":"ce4bgr92rcd13ifvqc7g","pricing_plan_id":"cebpf4jnsgd1na2vs0mg"},{"bike_id":"0e70a635-d046-497a-975d-ad4dcd2dbb2e","system_id":"levelo_inurba_marseille","lat":43.2997,"lon":5.37165,"is_reserved":false,"is_disabled":false,"rental_uris":{"android":"levelo://app?vid=0e70a635-d046-497a-975d-ad4dcd2dbb2e","ios":"levelo://app?vid=0e70a635-d046-497a-975d-ad4dcd2dbb2e"},"vehicle_type_id":"4","last_reported":1716412065,"current_range_meters":19600,"station_id":"ce4bgr92rcd13ifvqc7g","pricing_plan_id":"cebpf4jnsgd1na2vs0mg"},{"bike_id":"a332e94b-1554-48c1-afca-ce888501c9e9","system_id":"levelo_inurba_marseille","lat":43.300745,"lon":5.378017,"is_reserved":false,"is_disabled":false,"rental_uris":{"android":"levelo://app?vid=a332e94b-1554-48c1-afca-ce888501c9e9","ios":"levelo://app?vid=a332e94b-1554-48c1-afca-ce888501c9e9"},"vehicle_type_id":"4","last_reported":1716412065,"current_range_meters":2800,"station_id":"","pricing_plan_id":"cebpf4jnsgd1na2vs0mg"},{"bike_id":"33c5212a-8b24-4e63-82eb-06f87579f85a","system_id":"levelo_inurba_marseille","lat":43.298538,"lon":5.362912,"is_reserved":false,"is_disabled":false,"rental_uris":{"android":"levelo://app?vid=33c5212a-8b24-4e63-82eb-06f87579f85a","ios":"levelo://app?vid=33c5212a-8b24-4e63-82eb-06f87579f85a"},"vehicle_type_id":"4","last_reported":1716412065,"current_range_meters":2400,"station_id":"ce4bgpp2rcd13ifvqc3g","pricing_plan_id":"cebpf4jnsgd1na2vs0mg"},{"bike_id":"515b4461-5e4c-4556-b17c-56b01585b55c","system_id":"levelo_inurba_marseille","lat":43.298487,"lon":5.362843,"is_reserved":false,"is_disabled":false,"rental_uris":{"android":"levelo://app?vid=515b4461-5e4c-4556-b17c-56b01585b55c","ios":"levelo://app?vid=515b4461-5e4c-4556-b17c-56b01585b55c"},"vehicle_type_id":"4","last_reported":1716412065,"current_range_meters":13600,"station_id":"","pricing_plan_id":"cebpf4jnsgd1na2vs0mg"},{"bike_id":"3ee7d586-e3a7-4a45-a4be-9fe328997b91","system_id":"levelo_inurba_marseille","lat":43.298433,"lon":5.362774,"is_reserved":false,"is_disabled":false,"rental_uris":{"android":"levelo://app?vid=3ee7d586-e3a7-4a45-a4be-9fe328997b91","ios":"levelo://app?vid=3ee7d586-e3a7-4a45-a4be-9fe328997b91"},"vehicle_type_id":"4","last_reported":1716412065,"current_range_meters":20800,"station_id":"ce4bgpp2rcd13ifvqc3g","pricing_plan_id":"cebpf4jnsgd1na2vs0mg"},{"bike_id":"6c6af372-4cf2-4f5b-bf75-f3f9537b3f17","system_id":"levelo_inurba_marseille","lat":43.311722,"lon":5.387247,"is_reserved":false,"is_disabled":false,"rental_uris":{"android":"levelo://app?vid=6c6af372-4cf2-4f5b-bf75-f3f9537b3f17","ios":"levelo://app?vid=6c6af372-4cf2-4f5b-bf75-f3f9537b3f17"},"vehicle_type_id":"4","last_reported":1716412065,"current_range_meters":1600,"station_id":"ce4bgv12rcd13ifvqcp0","pricing_plan_id":"cebpf4jnsgd1na2vs0mg"},{"bike_id":"8f4e1254-9407-4c0a-80d8-e587049cff4c","system_id":"levelo_inurba_marseille","lat":43.299243,"lon":5.37481,"is_reserved":false,"is_disabled":false,"rental_uris":{"android":"levelo://app?vid=8f4e1254-9407-4c0a-80d8-e587049cff4c","ios":"levelo://app?vid=8f4e1254-9407-4c0a-80d8-e587049cff4c"},"vehicle_type_id":"4","last_reported":1716412065,"current_range_meters":24400,"station_id":"ce4bgjh2rcd13ifvqbg0","pricing_plan_id":"cebpf4jnsgd1na2vs0mg"},{"bike_id":"e53da5b8-4ff3-40e7-93e5-c1077415891c","system_id":"levelo_inurba_marseille","lat":43.299243,"lon":5.374807,"is_reserved":false,"is_disabled":false,"rental_uris":{"android":"levelo://app?vid=e53da5b8-4ff3-40e7-93e5-c1077415891c","ios":"levelo://app?vid=e53da5b8-4ff3-40e7-93e5-c1077415891c"},"vehicle_type_id":"4","last_reported":1716412065,"current_range_meters":14800,"station_id":"ce4bgjh2rcd13ifvqbg0","pricing_plan_id":"cebpf4jnsgd1na2vs0mg"},{"bike_id":"2adcd069-838b-4598-a5b3-c8fbd2df0dc0","system_id":"levelo_inurba_marseille","lat":43.299243,"lon":5.374807,"is_reserved":false,"is_disabled":false,"rental_uris":{"android":"levelo://app?vid=2adcd069-838b-4598-a5b3-c8fbd2df0dc0","ios":"levelo://app?vid=2adcd069-838b-4598-a5b3-c8fbd2df0dc0"},"vehicle_type_id":"4","last_reported":1716412065,"current_range_meters":31200,"station_id":"ce4bgjh2rcd13ifvqbg0","pricing_plan_id":"cebpf4jnsgd1na2vs0mg"},{"bike_id":"ae4b2fa5-ccad-4958-8c78-a6c530c0eabc","system_id":"levelo_inurba_marseille","lat":43.311722,"lon":5.387247,"is_reserved":false,"is_disabled":false,"rental_uris":{"android":"levelo://app?vid=ae4b2fa5-ccad-4958-8c78-a6c530c0eabc","ios":"levelo://app?vid=ae4b2fa5-ccad-4958-8c78-a6c530c0eabc"},"vehicle_type_id":"4","last_reported":1716412065,"current_range_meters":28800,"station_id":"ce4bgv12rcd13ifvqcp0","pricing_plan_id":"cebpf4jnsgd1na2vs0mg"},{"bike_id":"4b9ddfbd-c71a-4fff-ba35-6e4674ef8467","system_id":"levelo_inurba_marseille","lat":43.311722,"lon":5.387247,"is_reserved":false,"is_disabled":false,"rental_uris":{"android":"levelo://app?vid=4b9ddfbd-c71a-4fff-ba35-6e4674ef8467","ios":"levelo://app?vid=4b9ddfbd-c71a-4fff-ba35-6e4674ef8467"},"vehicle_type_id":"4","last_reported":1716412065,"current_range_meters":21600,"station_id":"ce4bgv12rcd13ifvqcp0","pricing_plan_id":"cebpf4jnsgd1na2vs0mg"},{"bike_id":"58e7815a-97e2-4498-aaf2-259e7cee1d01","system_id":"levelo_inurba_marseille","lat":43.311684,"lon":5.387085,"is_reserved":false,"is_disabled":false,"rental_uris":{"android":"levelo://app?vid=58e7815a-97e2-4498-aaf2-259e7cee1d01","ios":"levelo://app?vid=58e7815a-97e2-4498-aaf2-259e7cee1d01"},"vehicle_type_id":"4","last_reported":1716412065,"current_range_meters":30800,"station_id":"ce4bgv12rcd13ifvqcp0","pricing_plan_id":"cebpf4jnsgd1na2vs0mg"},{"bike_id":"aa9a658f-a8a7-4073-b2f2-a318fe992265","system_id":"levelo_inurba_marseille","lat":43.311722,"lon":5.387247,"is_reserved":false,"is_disabled":false,"rental_uris":{"android":"levelo://app?vid=aa9a658f-a8a7-4073-b2f2-a318fe992265","ios":"levelo://app?vid=aa9a658f-a8a7-4073-b2f2-a318fe992265"},"vehicle_type_id":"4","last_reported":1716412065,"current_range_meters":20000,"station_id":"ce4bgv12rcd13ifvqcp0","pricing_plan_id":"cebpf4jnsgd1na2vs0mg"},{"bike_id":"692257fe-f58c-48d8-9e4e-53aa022263a0","system_id":"levelo_inurba_marseille","lat":43.311722,"lon":5.387247,"is_reserved":false,"is_disabled":false,"rental_uris":{"android":"levelo://app?vid=692257fe-f58c-48d8-9e4e-53aa022263a0","ios":"levelo://app?vid=692257fe-f58c-48d8-9e4e-53aa022263a0"},"vehicle_type_id":"4","last_reported":1716412065,"current_range_meters":29200,"station_id":"ce4bgv12rcd13ifvqcp0","pricing_plan_id":"cebpf4jnsgd1na2vs0mg"},{"bike_id":"3f9e2d58-4661-4edf-b393-3ec74bdb2254","system_id":"levelo_inurba_marseille","lat":43.311722,"lon":5.387247,"is_reserved":false,"is_disabled":false,"rental_uris":{"android":"levelo://app?vid=3f9e2d58-4661-4edf-b393-3ec74bdb2254","ios":"levelo://app?vid=3f9e2d58-4661-4edf-b393-3ec74bdb2254"},"vehicle_type_id":"4","last_reported":1716412065,"current_range_meters":15600,"station_id":"ce4bgv12rcd13ifvqcp0","pricing_plan_id":"cebpf4jnsgd1na2vs0mg"},{"bike_id":"d8b77e54-6695-43d1-b7b4-789dfe2f384e","system_id":"levelo_inurba_marseille","lat":43.311722,"lon":5.387247,"is_reserved":false,"is_disabled":false,"rental_uris":{"android":"levelo://app?vid=d8b77e54-6695-43d1-b7b4-789dfe2f384e","ios":"levelo://app?vid=d8b77e54-6695-43d1-b7b4-789dfe2f384e"},"vehicle_type_id":"4","last_reported":1716412065,"current_range_meters":31200,"station_id":"ce4bgv12rcd13ifvqcp0","pricing_plan_id":"cebpf4jnsgd1na2vs0mg"},{"bike_id":"246d6bac-1fda-4239-841b-6424f90a8791","system_id":"levelo_inurba_marseille","lat":43.311722,"lon":5.387247,"is_reserved":false,"is_disabled":false,"rental_uris":{"android":"levelo://app?vid=246d6bac-1fda-4239-841b-6424f90a8791","ios":"levelo://app?vid=246d6bac-1fda-4239-841b-6424f90a8791"},"vehicle_type_id":"4","last_reported":1716412065,"current_range_meters":4400,"station_id":"ce4bgv12rcd13ifvqcp0","pricing_plan_id":"cebpf4jnsgd1na2vs0mg"},{"bike_id":"786ee11a-968d-4a50-a7b2-caf1a9459bde","system_id":"levelo_inurba_marseille","lat":43.311722,"lon":5.387247,"is_reserved":false,"is_disabled":false,"rental_uris":{"android":"levelo://app?vid=786ee11a-968d-4a50-a7b2-caf1a9459bde","ios":"levelo://app?vid=786ee11a-968d-4a50-a7b2-caf1a9459bde"},"vehicle_type_id":"4","last_reported":1716412065,"current_range_meters":4000,"station_id":"ce4bgv12rcd13ifvqcp0","pricing_plan_id":"cebpf4jnsgd1na2vs0mg"},{"bike_id":"6f6693f2-506c-482d-94ad-5e95107563b3","system_id":"levelo_inurba_marseille","lat":43.311722,"lon":5.387247,"is_reserved":false,"is_disabled":false,"rental_uris":{"android":"levelo://app?vid=6f6693f2-506c-482d-94ad-5e95107563b3","ios":"levelo://app?vid=6f6693f2-506c-482d-94ad-5e95107563b3"},"vehicle_type_id":"4","last_reported":1716412065,"current_range_meters":23200,"station_id":"ce4bgv12rcd13ifvqcp0","pricing_plan_id":"cebpf4jnsgd1na2vs0mg"},{"bike_id":"d4072f1b-6232-4251-9fa5-6ac60b1fee09","system_id":"levelo_inurba_marseille","lat":43.311722,"lon":5.387247,"is_reserved":false,"is_disabled":false,"rental_uris":{"android":"levelo://app?vid=d4072f1b-6232-4251-9fa5-6ac60b1fee09","ios":"levelo://app?vid=d4072f1b-6232-4251-9fa5-6ac60b1fee09"},"vehicle_type_id":"4","last_reported":1716412065,"current_range_meters":19200,"station_id":"ce4bgv12rcd13ifvqcp0","pricing_plan_id":"cebpf4jnsgd1na2vs0mg"},{"bike_id":"f164151b-cbd8-434f-b75d-e159f8fa2ad5","system_id":"levelo_inurba_marseille","lat":43.3118,"lon":5.38719,"is_reserved":false,"is_disabled":false,"rental_uris":{"android":"levelo://app?vid=f164151b-cbd8-434f-b75d-e159f8fa2ad5","ios":"levelo://app?vid=f164151b-cbd8-434f-b75d-e159f8fa2ad5"},"vehicle_type_id":"4","last_reported":1716412065,"current_range_meters":8800,"station_id":"ce4bgv12rcd13ifvqcp0","pricing_plan_id":"cebpf4jnsgd1na2vs0mg"},{"bike_id":"6aceb10a-8763-483b-b65a-593014235b06","system_id":"levelo_inurba_marseille","lat":43.311722,"lon":5.387247,"is_reserved":false,"is_disabled":false,"rental_uris":{"android":"levelo://app?vid=6aceb10a-8763-483b-b65a-593014235b06","ios":"levelo://app?vid=6aceb10a-8763-483b-b65a-593014235b06"},"vehicle_type_id":"4","last_reported":1716412065,"current_range_meters":26400,"station_id":"ce4bgv12rcd13ifvqcp0","pricing_plan_id":"cebpf4jnsgd1na2vs0mg"},{"bike_id":"876edf29-9c07-4b01-986f-7a8ea8eeb205","system_id":"levelo_inurba_marseille","lat":43.31176,"lon":5.3872,"is_reserved":false,"is_disabled":false,"rental_uris":{"android":"levelo://app?vid=876edf29-9c07-4b01-986f-7a8ea8eeb205","ios":"levelo://app?vid=876edf29-9c07-4b01-986f-7a8ea8eeb205"},"vehicle_type_id":"4","last_reported":1716412065,"current_range_meters":12000,"station_id":"ce4bgv12rcd13ifvqcp0","pricing_plan_id":"cebpf4jnsgd1na2vs0mg"},{"bike_id":"f1bff6a6-c2fb-4707-a40e-48d2a3b4092e","system_id":"levelo_inurba_marseille","lat":43.31176,"lon":5.38721,"is_reserved":false,"is_disabled":false,"rental_uris":{"android":"levelo://app?vid=f1bff6a6-c2fb-4707-a40e-48d2a3b4092e","ios":"levelo://app?vid=f1bff6a6-c2fb-4707-a40e-48d2a3b4092e"},"vehicle_type_id":"4","last_reported":1716412065,"current_range_meters":7200,"station_id":"ce4bgv12rcd13ifvqcp0","pricing_plan_id":"cebpf4jnsgd1na2vs0mg"},{"bike_id":"2350d35e-e839-4788-b151-10259b531bbb","system_id":"levelo_inurba_marseille","lat":43.298433,"lon":5.362774,"is_reserved":false,"is_disabled":false,"rental_uris":{"android":"levelo://app?vid=2350d35e-e839-4788-b151-10259b531bbb","ios":"levelo://app?vid=2350d35e-e839-4788-b151-10259b531bbb"},"vehicle_type_id":"4","last_reported":1716412065,"current_range_meters":10800,"station_id":"ce4bgpp2rcd13ifvqc3g","pricing_plan_id":"cebpf4jnsgd1na2vs0mg"},{"bike_id":"a945d55a-1343-428b-a475-81ee48c22051","system_id":"levelo_inurba_marseille","lat":43.322441,"lon":5.382844,"is_reserved":false,"is_disabled":false,"rental_uris":{"android":"levelo://app?vid=a945d55a-1343-428b-a475-81ee48c22051","ios":"levelo://app?vid=a945d55a-1343-428b-a475-81ee48c22051"},"vehicle_type_id":"4","last_reported":1716412065,"current_range_meters":0,"station_id":"ce4bhr12rcd13ifvqhqg","pricing_plan_id":"cebpf4jnsgd1na2vs0mg"},{"bike_id":"ed492a4e-944e-43b3-bd26-4581a8e6f7a8","system_id":"levelo_inurba_marseille","lat":43.297794,"lon":5.370888,"is_reserved":false,"is_disabled":false,"rental_uris":{"android":"levelo://app?vid=ed492a4e-944e-43b3-bd26-4581a8e6f7a8","ios":"levelo://app?vid=ed492a4e-944e-43b3-bd26-4581a8e6f7a8"},"vehicle_type_id":"4","last_reported":1716412065,"current_range_meters":27600,"station_id":"ce4bgop2rcd13ifvqc1g","pricing_plan_id":"cebpf4jnsgd1na2vs0mg"},{"bike_id":"4db12bb2-047c-428a-addf-22fa2d72f822","system_id":"levelo_inurba_marseille","lat":43.297774,"lon":5.370875,"is_reserved":false,"is_disabled":false,"rental_uris":{"android":"levelo://app?vid=4db12bb2-047c-428a-addf-22fa2d72f822","ios":"levelo://app?vid=4db12bb2-047c-428a-addf-22fa2d72f822"},"vehicle_type_id":"4","last_reported":1716412065,"current_range_meters":30400,"station_id":"ce4bgop2rcd13ifvqc1g","pricing_plan_id":"cebpf4jnsgd1na2vs0mg"},{"bike_id":"506153f1-c4db-41c3-9597-ed6edd5ff36e","system_id":"levelo_inurba_marseille","lat":43.297794,"lon":5.370888,"is_reserved":false,"is_disabled":false,"rental_uris":{"android":"levelo://app?vid=506153f1-c4db-41c3-9597-ed6edd5ff36e","ios":"levelo://app?vid=506153f1-c4db-41c3-9597-ed6edd5ff36e"},"vehicle_type_id":"4","last_reported":1716412065,"current_range_meters":13600,"station_id":"ce4bgop2rcd13ifvqc1g","pricing_plan_id":"cebpf4jnsgd1na2vs0mg"},{"bike_id":"27bd0fd1-655f-47b6-aa9e-b06b2a118575","system_id":"levelo_inurba_marseille","lat":43.297774,"lon":5.370875,"is_reserved":false,"is_disabled":false,"rental_uris":{"android":"levelo://app?vid=27bd0fd1-655f-47b6-aa9e-b06b2a118575","ios":"levelo://app?vid=27bd0fd1-655f-47b6-aa9e-b06b2a118575"},"vehicle_type_id":"4","last_reported":1716412065,"current_range_meters":25200,"station_id":"ce4bgop2rcd13ifvqc1g","pricing_plan_id":"cebpf4jnsgd1na2vs0mg"},{"bike_id":"145e684e-608f-4fa2-a8c7-90456673c16b","system_id":"levelo_inurba_marseille","lat":43.32281,"lon":5.38277,"is_reserved":false,"is_disabled":false,"rental_uris":{"android":"levelo://app?vid=145e684e-608f-4fa2-a8c7-90456673c16b","ios":"levelo://app?vid=145e684e-608f-4fa2-a8c7-90456673c16b"},"vehicle_type_id":"4","last_reported":1716412065,"current_range_meters":6800,"station_id":"ce4bhr12rcd13ifvqhqg","pricing_plan_id":"cebpf4jnsgd1na2vs0mg"},{"bike_id":"3eb3d9d4-440c-4fc9-96ac-c8516721b2ab","system_id":"levelo_inurba_marseille","lat":43.32292,"lon":5.38264,"is_reserved":false,"is_disabled":false,"rental_uris":{"android":"levelo://app?vid=3eb3d9d4-440c-4fc9-96ac-c8516721b2ab","ios":"levelo://app?vid=3eb3d9d4-440c-4fc9-96ac-c8516721b2ab"},"vehicle_type_id":"4","last_reported":1716412065,"current_range_meters":0,"station_id":"ce4bhr12rcd13ifvqhqg","pricing_plan_id":"cebpf4jnsgd1na2vs0mg"},{"bike_id":"79f33001-a651-4b0f-b82e-f19ee71b8d0f","system_id":"levelo_inurba_marseille","lat":43.32292,"lon":5.38268,"is_reserved":false,"is_disabled":false,"rental_uris":{"android":"levelo://app?vid=79f33001-a651-4b0f-b82e-f19ee71b8d0f","ios":"levelo://app?vid=79f33001-a651-4b0f-b82e-f19ee71b8d0f"},"vehicle_type_id":"4","last_reported":1716412065,"current_range_meters":29200,"station_id":"ce4bhr12rcd13ifvqhqg","pricing_plan_id":"cebpf4jnsgd1na2vs0mg"},{"bike_id":"d8bd1bbc-a9d4-4bcd-9973-a789946fec5c","system_id":"levelo_inurba_marseille","lat":43.32288,"lon":5.38279,"is_reserved":false,"is_disabled":false,"rental_uris":{"android":"levelo://app?vid=d8bd1bbc-a9d4-4bcd-9973-a789946fec5c","ios":"levelo://app?vid=d8bd1bbc-a9d4-4bcd-9973-a789946fec5c"},"vehicle_type_id":"4","last_reported":1716412065,"current_range_meters":22800,"station_id":"ce4bhr12rcd13ifvqhqg","pricing_plan_id":"cebpf4jnsgd1na2vs0mg"},{"bike_id":"637a09c9-f5ae-455f-b667-fdb623226209","system_id":"levelo_inurba_marseille","lat":43.297163,"lon":5.365866,"is_reserved":false,"is_disabled":false,"rental_uris":{"android":"levelo://app?vid=637a09c9-f5ae-455f-b667-fdb623226209","ios":"levelo://app?vid=637a09c9-f5ae-455f-b667-fdb623226209"},"vehicle_type_id":"4","last_reported":1716412065,"current_range_meters":30400,"station_id":"ce4bgn12rcd13ifvqbt0","pricing_plan_id":"cebpf4jnsgd1na2vs0mg"},{"bike_id":"fef19b85-e841-42d1-9cad-a8ea3c9523a5","system_id":"levelo_inurba_marseille","lat":43.29851,"lon":5.37698,"is_reserved":false,"is_disabled":false,"rental_uris":{"android":"levelo://app?vid=fef19b85-e841-42d1-9cad-a8ea3c9523a5","ios":"levelo://app?vid=fef19b85-e841-42d1-9cad-a8ea3c9523a5"},"vehicle_type_id":"4","last_reported":1716412065,"current_range_meters":18800,"station_id":"","pricing_plan_id":"cebpf4jnsgd1na2vs0mg"},{"bike_id":"2f6804c8-95c5-4bdd-9edb-4e672b9ee457","system_id":"levelo_inurba_marseille","lat":43.2968,"lon":5.37291,"is_reserved":false,"is_disabled":false,"rental_uris":{"android":"levelo://app?vid=2f6804c8-95c5-4bdd-9edb-4e672b9ee457","ios":"levelo://app?vid=2f6804c8-95c5-4bdd-9edb-4e672b9ee457"},"vehicle_type_id":"4","last_reported":1716412065,"current_range_meters":17200,"station_id":"ce4bgk12rcd13ifvqbj0","pricing_plan_id":"cebpf4jnsgd1na2vs0mg"},{"bike_id":"b0181dbd-d16d-4347-9382-b450da867146","system_id":"levelo_inurba_marseille","lat":43.29657,"lon":5.36162,"is_reserved":false,"is_disabled":false,"rental_uris":{"android":"levelo://app?vid=b0181dbd-d16d-4347-9382-b450da867146","ios":"levelo://app?vid=b0181dbd-d16d-4347-9382-b450da867146"},"vehicle_type_id":"4","last_reported":1716412065,"current_range_meters":18800,"station_id":"","pricing_plan_id":"cebpf4jnsgd1na2vs0mg"},{"bike_id":"190d28f6-ce29-46b2-b95d-d9c5adc36818","system_id":"levelo_inurba_marseille","lat":43.29733,"lon":5.37682,"is_reserved":false,"is_disabled":false,"rental_uris":{"android":"levelo://app?vid=190d28f6-ce29-46b2-b95d-d9c5adc36818","ios":"levelo://app?vid=190d28f6-ce29-46b2-b95d-d9c5adc36818"},"vehicle_type_id":"4","last_reported":1716412065,"current_range_meters":0,"station_id":"ce4bgkh2rcd13ifvqbl0","pricing_plan_id":"cebpf4jnsgd1na2vs0mg"},{"bike_id":"3eb546d3-4c7c-48d7-9783-c0dd69a57dfc","system_id":"levelo_inurba_marseille","lat":43.299028,"lon":5.381509,"is_reserved":false,"is_disabled":false,"rental_uris":{"android":"levelo://app?vid=3eb546d3-4c7c-48d7-9783-c0dd69a57dfc","ios":"levelo://app?vid=3eb546d3-4c7c-48d7-9783-c0dd69a57dfc"},"vehicle_type_id":"4","last_reported":1716412065,"current_range_meters":19200,"station_id":"ce4bgj12rcd13ifvqbc0","pricing_plan_id":"cebpf4jnsgd1na2vs0mg"},{"bike_id":"00c1b34d-ef21-4cd5-a4e5-2aff9a38f19f","system_id":"levelo_inurba_marseille","lat":43.296935,"lon":5.376544,"is_reserved":false,"is_disabled":false,"rental_uris":{"android":"levelo://app?vid=00c1b34d-ef21-4cd5-a4e5-2aff9a38f19f","ios":"levelo://app?vid=00c1b34d-ef21-4cd5-a4e5-2aff9a38f19f"},"vehicle_type_id":"4","last_reported":1716412065,"current_range_meters":22800,"station_id":"ce4bgkh2rcd13ifvqbl0","pricing_plan_id":"cebpf4jnsgd1na2vs0mg"},{"bike_id":"b6a7f4bd-2ff9-4bd5-8b5e-04fbbeff5f64","system_id":"levelo_inurba_marseille","lat":43.296921,"lon":5.376579,"is_reserved":false,"is_disabled":false,"rental_uris":{"android":"levelo://app?vid=b6a7f4bd-2ff9-4bd5-8b5e-04fbbeff5f64","ios":"levelo://app?vid=b6a7f4bd-2ff9-4bd5-8b5e-04fbbeff5f64"},"vehicle_type_id":"4","last_reported":1716412065,"current_range_meters":24800,"station_id":"ce4bgkh2rcd13ifvqbl0","pricing_plan_id":"cebpf4jnsgd1na2vs0mg"},{"bike_id":"0a0b43fe-a962-4939-ba8f-735e260f9923","system_id":"levelo_inurba_marseille","lat":43.3176,"lon":5.3901,"is_reserved":false,"is_disabled":false,"rental_uris":{"android":"levelo://app?vid=0a0b43fe-a962-4939-ba8f-735e260f9923","ios":"levelo://app?vid=0a0b43fe-a962-4939-ba8f-735e260f9923"},"vehicle_type_id":"4","last_reported":1716412065,"current_range_meters":9600,"station_id":"ce4bhqp2rcd13ifvqhng","pricing_plan_id":"cebpf4jnsgd1na2vs0mg"},{"bike_id":"49fc2701-24cf-4fcf-9974-8e4a18804520","system_id":"levelo_inurba_marseille","lat":43.31763,"lon":5.39013,"is_reserved":false,"is_disabled":false,"rental_uris":{"android":"levelo://app?vid=49fc2701-24cf-4fcf-9974-8e4a18804520","ios":"levelo://app?vid=49fc2701-24cf-4fcf-9974-8e4a18804520"},"vehicle_type_id":"4","last_reported":1716412065,"current_range_meters":4000,"station_id":"ce4bhqp2rcd13ifvqhng","pricing_plan_id":"cebpf4jnsgd1na2vs0mg"},{"bike_id":"a40c36d6-7e8d-4acf-a32b-7e713b32264b","system_id":"levelo_inurba_marseille","lat":43.317656,"lon":5.390134,"is_reserved":false,"is_disabled":false,"rental_uris":{"android":"levelo://app?vid=a40c36d6-7e8d-4acf-a32b-7e713b32264b","ios":"levelo://app?vid=a40c36d6-7e8d-4acf-a32b-7e713b32264b"},"vehicle_type_id":"4","last_reported":1716412065,"current_range_meters":0,"station_id":"ce4bhqp2rcd13ifvqhng","pricing_plan_id":"cebpf4jnsgd1na2vs0mg"},{"bike_id":"44bc996b-c216-44a5-83e4-517cc1a70aa4","system_id":"levelo_inurba_marseille","lat":43.32262,"lon":5.387373,"is_reserved":false,"is_disabled":false,"rental_uris":{"android":"levelo://app?vid=44bc996b-c216-44a5-83e4-517cc1a70aa4","ios":"levelo://app?vid=44bc996b-c216-44a5-83e4-517cc1a70aa4"},"vehicle_type_id":"4","last_reported":1716412065,"current_range_meters":30000,"station_id":"","pricing_plan_id":"cebpf4jnsgd1na2vs0mg"},{"bike_id":"1e038c18-2bb5-440a-b73e-5060ce25fbc6","system_id":"levelo_inurba_marseille","lat":43.298037,"lon":5.381066,"is_reserved":false,"is_disabled":false,"rental_uris":{"android":"levelo://app?vid=1e038c18-2bb5-440a-b73e-5060ce25fbc6","ios":"levelo://app?vid=1e038c18-2bb5-440a-b73e-5060ce25fbc6"},"vehicle_type_id":"4","last_reported":1716412065,"current_range_meters":0,"station_id":"ce4bgip2rcd13ifvqbb0","pricing_plan_id":"cebpf4jnsgd1na2vs0mg"},{"bike_id":"06cbb78a-490e-422a-bbd5-fa02eb924605","system_id":"levelo_inurba_marseille","lat":43.30435,"lon":5.38884,"is_reserved":false,"is_disabled":false,"rental_uris":{"android":"levelo://app?vid=06cbb78a-490e-422a-bbd5-fa02eb924605","ios":"levelo://app?vid=06cbb78a-490e-422a-bbd5-fa02eb924605"},"vehicle_type_id":"4","last_reported":1716412065,"current_range_meters":25600,"station_id":"ce4bgk12rcd13ifvqbi0","pricing_plan_id":"cebpf4jnsgd1na2vs0mg"},{"bike_id":"e1c8bd6c-5108-4add-a24a-0d84312fc961","system_id":"levelo_inurba_marseille","lat":43.304278,"lon":5.388868,"is_reserved":false,"is_disabled":false,"rental_uris":{"android":"levelo://app?vid=e1c8bd6c-5108-4add-a24a-0d84312fc961","ios":"levelo://app?vid=e1c8bd6c-5108-4add-a24a-0d84312fc961"},"vehicle_type_id":"4","last_reported":1716412065,"current_range_meters":10400,"station_id":"ce4bgk12rcd13ifvqbi0","pricing_plan_id":"cebpf4jnsgd1na2vs0mg"},{"bike_id":"f0bb9cc9-2832-432c-a2f9-80fcc535209c","system_id":"levelo_inurba_marseille","lat":43.30438,"lon":5.3889,"is_reserved":false,"is_disabled":false,"rental_uris":{"android":"levelo://app?vid=f0bb9cc9-2832-432c-a2f9-80fcc535209c","ios":"levelo://app?vid=f0bb9cc9-2832-432c-a2f9-80fcc535209c"},"vehicle_type_id":"4","last_reported":1716412065,"current_range_meters":15600,"station_id":"ce4bgk12rcd13ifvqbi0","pricing_plan_id":"cebpf4jnsgd1na2vs0mg"},{"bike_id":"8ebeaff6-83cb-4eeb-b17a-c5030fe2cc4f","system_id":"levelo_inurba_marseille","lat":43.30432,"lon":5.38886,"is_reserved":false,"is_disabled":false,"rental_uris":{"android":"levelo://app?vid=8ebeaff6-83cb-4eeb-b17a-c5030fe2cc4f","ios":"levelo://app?vid=8ebeaff6-83cb-4eeb-b17a-c5030fe2cc4f"},"vehicle_type_id":"4","last_reported":1716412065,"current_range_meters":15200,"station_id":"ce4bgk12rcd13ifvqbi0","pricing_plan_id":"cebpf4jnsgd1na2vs0mg"},{"bike_id":"d592aa0e-7074-43fe-9432-a881f783ff5e","system_id":"levelo_inurba_marseille","lat":43.30429,"lon":5.38884,"is_reserved":false,"is_disabled":false,"rental_uris":{"android":"levelo://app?vid=d592aa0e-7074-43fe-9432-a881f783ff5e","ios":"levelo://app?vid=d592aa0e-7074-43fe-9432-a881f783ff5e"},"vehicle_type_id":"4","last_reported":1716412065,"current_range_meters":20400,"station_id":"ce4bgk12rcd13ifvqbi0","pricing_plan_id":"cebpf4jnsgd1na2vs0mg"},{"bike_id":"09bee0f1-18eb-4c3b-9398-1b370b7b458c","system_id":"levelo_inurba_marseille","lat":43.30428,"lon":5.38885,"is_reserved":false,"is_disabled":false,"rental_uris":{"android":"levelo://app?vid=09bee0f1-18eb-4c3b-9398-1b370b7b458c","ios":"levelo://app?vid=09bee0f1-18eb-4c3b-9398-1b370b7b458c"},"vehicle_type_id":"4","last_reported":1716412065,"current_range_meters":25600,"station_id":"ce4bgk12rcd13ifvqbi0","pricing_plan_id":"cebpf4jnsgd1na2vs0mg"},{"bike_id":"ae35da67-94b1-4a72-a6de-5fdba117b7d8","system_id":"levelo_inurba_marseille","lat":43.304278,"lon":5.388868,"is_reserved":false,"is_disabled":false,"rental_uris":{"android":"levelo://app?vid=ae35da67-94b1-4a72-a6de-5fdba117b7d8","ios":"levelo://app?vid=ae35da67-94b1-4a72-a6de-5fdba117b7d8"},"vehicle_type_id":"4","last_reported":1716412065,"current_range_meters":9600,"station_id":"ce4bgk12rcd13ifvqbi0","pricing_plan_id":"cebpf4jnsgd1na2vs0mg"},{"bike_id":"900cbeda-50c0-43aa-a444-30b53dd9da0a","system_id":"levelo_inurba_marseille","lat":43.304313,"lon":5.388884,"is_reserved":false,"is_disabled":false,"rental_uris":{"android":"levelo://app?vid=900cbeda-50c0-43aa-a444-30b53dd9da0a","ios":"levelo://app?vid=900cbeda-50c0-43aa-a444-30b53dd9da0a"},"vehicle_type_id":"4","last_reported":1716412065,"current_range_meters":28800,"station_id":"","pricing_plan_id":"cebpf4jnsgd1na2vs0mg"},{"bike_id":"d9cbece1-16f6-47fb-95a9-85c4219a1141","system_id":"levelo_inurba_marseille","lat":43.304278,"lon":5.388868,"is_reserved":false,"is_disabled":false,"rental_uris":{"android":"levelo://app?vid=d9cbece1-16f6-47fb-95a9-85c4219a1141","ios":"levelo://app?vid=d9cbece1-16f6-47fb-95a9-85c4219a1141"},"vehicle_type_id":"4","last_reported":1716412065,"current_range_meters":30800,"station_id":"ce4bgk12rcd13ifvqbi0","pricing_plan_id":"cebpf4jnsgd1na2vs0mg"},{"bike_id":"7b65b3f2-d84b-449c-a04e-76310bf47040","system_id":"levelo_inurba_marseille","lat":43.304274,"lon":5.388873,"is_reserved":false,"is_disabled":false,"rental_uris":{"android":"levelo://app?vid=7b65b3f2-d84b-449c-a04e-76310bf47040","ios":"levelo://app?vid=7b65b3f2-d84b-449c-a04e-76310bf47040"},"vehicle_type_id":"4","last_reported":1716412065,"current_range_meters":28000,"station_id":"ce4bgk12rcd13ifvqbi0","pricing_plan_id":"cebpf4jnsgd1na2vs0mg"},{"bike_id":"270619a3-e8ff-4234-8073-e1d077350bb3","system_id":"levelo_inurba_marseille","lat":43.304278,"lon":5.388868,"is_reserved":false,"is_disabled":false,"rental_uris":{"android":"levelo://app?vid=270619a3-e8ff-4234-8073-e1d077350bb3","ios":"levelo://app?vid=270619a3-e8ff-4234-8073-e1d077350bb3"},"vehicle_type_id":"4","last_reported":1716412065,"current_range_meters":5600,"station_id":"ce4bgk12rcd13ifvqbi0","pricing_plan_id":"cebpf4jnsgd1na2vs0mg"},{"bike_id":"4dd28d4a-b419-4130-80cf-1a46b0ef2b4d","system_id":"levelo_inurba_marseille","lat":43.304278,"lon":5.388868,"is_reserved":false,"is_disabled":false,"rental_uris":{"android":"levelo://app?vid=4dd28d4a-b419-4130-80cf-1a46b0ef2b4d","ios":"levelo://app?vid=4dd28d4a-b419-4130-80cf-1a46b0ef2b4d"},"vehicle_type_id":"4","last_reported":1716412065,"current_range_meters":6800,"station_id":"ce4bgk12rcd13ifvqbi0","pricing_plan_id":"cebpf4jnsgd1na2vs0mg"},{"bike_id":"48daa850-17fd-4e2f-bdb2-fb3e12ae42a6","system_id":"levelo_inurba_marseille","lat":43.304274,"lon":5.388873,"is_reserved":false,"is_disabled":false,"rental_uris":{"android":"levelo://app?vid=48daa850-17fd-4e2f-bdb2-fb3e12ae42a6","ios":"levelo://app?vid=48daa850-17fd-4e2f-bdb2-fb3e12ae42a6"},"vehicle_type_id":"4","last_reported":1716412065,"current_range_meters":24800,"station_id":"ce4bgk12rcd13ifvqbi0","pricing_plan_id":"cebpf4jnsgd1na2vs0mg"},{"bike_id":"e0c902af-8d3d-4108-9101-c33722045de7","system_id":"levelo_inurba_marseille","lat":43.304278,"lon":5.388868,"is_reserved":false,"is_disabled":false,"rental_uris":{"android":"levelo://app?vid=e0c902af-8d3d-4108-9101-c33722045de7","ios":"levelo://app?vid=e0c902af-8d3d-4108-9101-c33722045de7"},"vehicle_type_id":"4","last_reported":1716412065,"current_range_meters":27600,"station_id":"ce4bgk12rcd13ifvqbi0","pricing_plan_id":"cebpf4jnsgd1na2vs0mg"},{"bike_id":"8ac29c15-b72d-42ee-ae23-a2e4ed9a00ad","system_id":"levelo_inurba_marseille","lat":43.298037,"lon":5.381066,"is_reserved":false,"is_disabled":false,"rental_uris":{"android":"levelo://app?vid=8ac29c15-b72d-42ee-ae23-a2e4ed9a00ad","ios":"levelo://app?vid=8ac29c15-b72d-42ee-ae23-a2e4ed9a00ad"},"vehicle_type_id":"4","last_reported":1716412065,"current_range_meters":6800,"station_id":"ce4bgip2rcd13ifvqbb0","pricing_plan_id":"cebpf4jnsgd1na2vs0mg"},{"bike_id":"56e634ae-3e48-4ca9-b4c0-5a498bf13f8f","system_id":"levelo_inurba_marseille","lat":43.295287,"lon":5.375009,"is_reserved":false,"is_disabled":false,"rental_uris":{"android":"levelo://app?vid=56e634ae-3e48-4ca9-b4c0-5a498bf13f8f","ios":"levelo://app?vid=56e634ae-3e48-4ca9-b4c0-5a498bf13f8f"},"vehicle_type_id":"4","last_reported":1716412065,"current_range_meters":0,"station_id":"ce4bgkp2rcd13ifvqbmg","pricing_plan_id":"cebpf4jnsgd1na2vs0mg"},{"bike_id":"d014cf3e-048b-41f0-8f75-4b7171a47831","system_id":"levelo_inurba_marseille","lat":43.299707,"lon":5.384859,"is_reserved":false,"is_disabled":false,"rental_uris":{"android":"levelo://app?vid=d014cf3e-048b-41f0-8f75-4b7171a47831","ios":"levelo://app?vid=d014cf3e-048b-41f0-8f75-4b7171a47831"},"vehicle_type_id":"4","last_reported":1716412065,"current_range_meters":31200,"station_id":"ce4bgj92rcd13ifvqbd0","pricing_plan_id":"cebpf4jnsgd1na2vs0mg"},{"bike_id":"7a88e02b-edbd-4f0c-84b5-0ba1e0040d8b","system_id":"levelo_inurba_marseille","lat":43.299724,"lon":5.384848,"is_reserved":false,"is_disabled":false,"rental_uris":{"android":"levelo://app?vid=7a88e02b-edbd-4f0c-84b5-0ba1e0040d8b","ios":"levelo://app?vid=7a88e02b-edbd-4f0c-84b5-0ba1e0040d8b"},"vehicle_type_id":"4","last_reported":1716412065,"current_range_meters":12400,"station_id":"ce4bgj92rcd13ifvqbd0","pricing_plan_id":"cebpf4jnsgd1na2vs0mg"},{"bike_id":"63f84179-8f39-4c8b-a46f-ca1c3f79ac12","system_id":"levelo_inurba_marseille","lat":43.299702,"lon":5.384883,"is_reserved":false,"is_disabled":false,"rental_uris":{"android":"levelo://app?vid=63f84179-8f39-4c8b-a46f-ca1c3f79ac12","ios":"levelo://app?vid=63f84179-8f39-4c8b-a46f-ca1c3f79ac12"},"vehicle_type_id":"4","last_reported":1716412065,"current_range_meters":24800,"station_id":"ce4bgj92rcd13ifvqbd0","pricing_plan_id":"cebpf4jnsgd1na2vs0mg"},{"bike_id":"272ee11f-b051-4e63-939a-fe0a60a48fa7","system_id":"levelo_inurba_marseille","lat":43.299724,"lon":5.384848,"is_reserved":false,"is_disabled":false,"rental_uris":{"android":"levelo://app?vid=272ee11f-b051-4e63-939a-fe0a60a48fa7","ios":"levelo://app?vid=272ee11f-b051-4e63-939a-fe0a60a48fa7"},"vehicle_type_id":"4","last_reported":1716412065,"current_range_meters":21200,"station_id":"ce4bgj92rcd13ifvqbd0","pricing_plan_id":"cebpf4jnsgd1na2vs0mg"},{"bike_id":"1191ba42-c5c1-4439-8358-d3884032ae1b","system_id":"levelo_inurba_marseille","lat":43.299717,"lon":5.384845,"is_reserved":false,"is_disabled":false,"rental_uris":{"android":"levelo://app?vid=1191ba42-c5c1-4439-8358-d3884032ae1b","ios":"levelo://app?vid=1191ba42-c5c1-4439-8358-d3884032ae1b"},"vehicle_type_id":"4","last_reported":1716412065,"current_range_meters":0,"station_id":"ce4bgj92rcd13ifvqbd0","pricing_plan_id":"cebpf4jnsgd1na2vs0mg"},{"bike_id":"749bd82f-1447-4848-a728-b070f8ee8356","system_id":"levelo_inurba_marseille","lat":43.29966,"lon":5.38496,"is_reserved":false,"is_disabled":false,"rental_uris":{"android":"levelo://app?vid=749bd82f-1447-4848-a728-b070f8ee8356","ios":"levelo://app?vid=749bd82f-1447-4848-a728-b070f8ee8356"},"vehicle_type_id":"4","last_reported":1716412065,"current_range_meters":0,"station_id":"ce4bgj92rcd13ifvqbd0","pricing_plan_id":"cebpf4jnsgd1na2vs0mg"},{"bike_id":"78252e3e-8eff-4ccb-a142-6526e4cc39f4","system_id":"levelo_inurba_marseille","lat":43.30089,"lon":5.38729,"is_reserved":false,"is_disabled":false,"rental_uris":{"android":"levelo://app?vid=78252e3e-8eff-4ccb-a142-6526e4cc39f4","ios":"levelo://app?vid=78252e3e-8eff-4ccb-a142-6526e4cc39f4"},"vehicle_type_id":"4","last_reported":1716412065,"current_range_meters":10800,"station_id":"","pricing_plan_id":"cebpf4jnsgd1na2vs0mg"},{"bike_id":"69ade453-1d42-4a71-8709-57ff8ced735b","system_id":"levelo_inurba_marseille","lat":43.29486,"lon":5.3761,"is_reserved":false,"is_disabled":false,"rental_uris":{"android":"levelo://app?vid=69ade453-1d42-4a71-8709-57ff8ced735b","ios":"levelo://app?vid=69ade453-1d42-4a71-8709-57ff8ced735b"},"vehicle_type_id":"4","last_reported":1716412065,"current_range_meters":21600,"station_id":"","pricing_plan_id":"cebpf4jnsgd1na2vs0mg"},{"bike_id":"784da014-490f-44d4-a518-b5990c01203f","system_id":"levelo_inurba_marseille","lat":43.32367,"lon":5.388836,"is_reserved":false,"is_disabled":false,"rental_uris":{"android":"levelo://app?vid=784da014-490f-44d4-a518-b5990c01203f","ios":"levelo://app?vid=784da014-490f-44d4-a518-b5990c01203f"},"vehicle_type_id":"4","last_reported":1716412065,"current_range_meters":0,"station_id":"ce4bhqp2rcd13ifvqhog","pricing_plan_id":"cebpf4jnsgd1na2vs0mg"},{"bike_id":"26a2b57b-3711-4923-a3a9-0ab9df44db2c","system_id":"levelo_inurba_marseille","lat":43.32366,"lon":5.38878,"is_reserved":false,"is_disabled":false,"rental_uris":{"android":"levelo://app?vid=26a2b57b-3711-4923-a3a9-0ab9df44db2c","ios":"levelo://app?vid=26a2b57b-3711-4923-a3a9-0ab9df44db2c"},"vehicle_type_id":"4","last_reported":1716412065,"current_range_meters":8800,"station_id":"ce4bhqp2rcd13ifvqhog","pricing_plan_id":"cebpf4jnsgd1na2vs0mg"},{"bike_id":"19c0329d-89e4-44c6-9ae4-5221645bc69e","system_id":"levelo_inurba_marseille","lat":43.32368,"lon":5.388805,"is_reserved":false,"is_disabled":false,"rental_uris":{"android":"levelo://app?vid=19c0329d-89e4-44c6-9ae4-5221645bc69e","ios":"levelo://app?vid=19c0329d-89e4-44c6-9ae4-5221645bc69e"},"vehicle_type_id":"4","last_reported":1716412065,"current_range_meters":17600,"station_id":"ce4bhqp2rcd13ifvqhog","pricing_plan_id":"cebpf4jnsgd1na2vs0mg"},{"bike_id":"f2b1928f-d00d-429f-b030-f29948fdd1bf","system_id":"levelo_inurba_marseille","lat":43.32367,"lon":5.388836,"is_reserved":false,"is_disabled":false,"rental_uris":{"android":"levelo://app?vid=f2b1928f-d00d-429f-b030-f29948fdd1bf","ios":"levelo://app?vid=f2b1928f-d00d-429f-b030-f29948fdd1bf"},"vehicle_type_id":"4","last_reported":1716412065,"current_range_meters":22800,"station_id":"ce4bhqp2rcd13ifvqhog","pricing_plan_id":"cebpf4jnsgd1na2vs0mg"},{"bike_id":"7154147b-2101-4a26-aa81-2d1411af62c5","system_id":"levelo_inurba_marseille","lat":43.32366,"lon":5.38884,"is_reserved":false,"is_disabled":false,"rental_uris":{"android":"levelo://app?vid=7154147b-2101-4a26-aa81-2d1411af62c5","ios":"levelo://app?vid=7154147b-2101-4a26-aa81-2d1411af62c5"},"vehicle_type_id":"4","last_reported":1716412065,"current_range_meters":22400,"station_id":"ce4bhqp2rcd13ifvqhog","pricing_plan_id":"cebpf4jnsgd1na2vs0mg"},{"bike_id":"9c89e3af-deb8-43a3-bd8f-1e5be81d69f3","system_id":"levelo_inurba_marseille","lat":43.32367,"lon":5.388836,"is_reserved":false,"is_disabled":false,"rental_uris":{"android":"levelo://app?vid=9c89e3af-deb8-43a3-bd8f-1e5be81d69f3","ios":"levelo://app?vid=9c89e3af-deb8-43a3-bd8f-1e5be81d69f3"},"vehicle_type_id":"4","last_reported":1716412065,"current_range_meters":4800,"station_id":"ce4bhqp2rcd13ifvqhog","pricing_plan_id":"cebpf4jnsgd1na2vs0mg"},{"bike_id":"7b70dfad-9b19-4aee-833a-e62b09d5d46d","system_id":"levelo_inurba_marseille","lat":43.311207,"lon":5.393447,"is_reserved":false,"is_disabled":false,"rental_uris":{"android":"levelo://app?vid=7b70dfad-9b19-4aee-833a-e62b09d5d46d","ios":"levelo://app?vid=7b70dfad-9b19-4aee-833a-e62b09d5d46d"},"vehicle_type_id":"4","last_reported":1716412065,"current_range_meters":12400,"station_id":"","pricing_plan_id":"cebpf4jnsgd1na2vs0mg"},{"bike_id":"a37113cc-2f33-48b2-8d3c-aab2304d5194","system_id":"levelo_inurba_marseille","lat":43.29405,"lon":5.37411,"is_reserved":false,"is_disabled":false,"rental_uris":{"android":"levelo://app?vid=a37113cc-2f33-48b2-8d3c-aab2304d5194","ios":"levelo://app?vid=a37113cc-2f33-48b2-8d3c-aab2304d5194"},"vehicle_type_id":"4","last_reported":1716412065,"current_range_meters":0,"station_id":"ce4bgop2rcd13ifvqc1g","pricing_plan_id":"cebpf4jnsgd1na2vs0mg"},{"bike_id":"d67f62b5-787c-4bf0-a444-7ea06bcfe6ba","system_id":"levelo_inurba_marseille","lat":43.29602,"lon":5.381084,"is_reserved":false,"is_disabled":false,"rental_uris":{"android":"levelo://app?vid=d67f62b5-787c-4bf0-a444-7ea06bcfe6ba","ios":"levelo://app?vid=d67f62b5-787c-4bf0-a444-7ea06bcfe6ba"},"vehicle_type_id":"4","last_reported":1716412065,"current_range_meters":21200,"station_id":"ce4bgl12rcd13ifvqbo0","pricing_plan_id":"cebpf4jnsgd1na2vs0mg"},{"bike_id":"d987e0b4-58cf-40f9-b65b-0136a10defbb","system_id":"levelo_inurba_marseille","lat":43.295796,"lon":5.380578,"is_reserved":false,"is_disabled":false,"rental_uris":{"android":"levelo://app?vid=d987e0b4-58cf-40f9-b65b-0136a10defbb","ios":"levelo://app?vid=d987e0b4-58cf-40f9-b65b-0136a10defbb"},"vehicle_type_id":"4","last_reported":1716412065,"current_range_meters":8800,"station_id":"ce4bgl12rcd13ifvqbo0","pricing_plan_id":"cebpf4jnsgd1na2vs0mg"},{"bike_id":"9bfa9f93-bcbb-4141-bb2a-6dfe0a76f16b","system_id":"levelo_inurba_marseille","lat":43.29602,"lon":5.381084,"is_reserved":false,"is_disabled":false,"rental_uris":{"android":"levelo://app?vid=9bfa9f93-bcbb-4141-bb2a-6dfe0a76f16b","ios":"levelo://app?vid=9bfa9f93-bcbb-4141-bb2a-6dfe0a76f16b"},"vehicle_type_id":"4","last_reported":1716412065,"current_range_meters":25600,"station_id":"ce4bgl12rcd13ifvqbo0","pricing_plan_id":"cebpf4jnsgd1na2vs0mg"},{"bike_id":"0fb0662c-27a4-4af5-bb25-bce4abf70113","system_id":"levelo_inurba_marseille","lat":43.31591,"lon":5.39376,"is_reserved":false,"is_disabled":false,"rental_uris":{"android":"levelo://app?vid=0fb0662c-27a4-4af5-bb25-bce4abf70113","ios":"levelo://app?vid=0fb0662c-27a4-4af5-bb25-bce4abf70113"},"vehicle_type_id":"4","last_reported":1716412065,"current_range_meters":17200,"station_id":"","pricing_plan_id":"cebpf4jnsgd1na2vs0mg"},{"bike_id":"68b15ea0-d460-4858-8466-c8140cd7d2d0","system_id":"levelo_inurba_marseille","lat":43.293083,"lon":5.371857,"is_reserved":false,"is_disabled":false,"rental_uris":{"android":"levelo://app?vid=68b15ea0-d460-4858-8466-c8140cd7d2d0","ios":"levelo://app?vid=68b15ea0-d460-4858-8466-c8140cd7d2d0"},"vehicle_type_id":"4","last_reported":1716412065,"current_range_meters":0,"station_id":"ce4bgh92rcd13ifvqb40","pricing_plan_id":"cebpf4jnsgd1na2vs0mg"},{"bike_id":"811e5492-227c-42af-97cc-9cff95a15d8f","system_id":"levelo_inurba_marseille","lat":43.305994,"lon":5.393687,"is_reserved":false,"is_disabled":false,"rental_uris":{"android":"levelo://app?vid=811e5492-227c-42af-97cc-9cff95a15d8f","ios":"levelo://app?vid=811e5492-227c-42af-97cc-9cff95a15d8f"},"vehicle_type_id":"4","last_reported":1716412065,"current_range_meters":16000,"station_id":"ce4bh0p2rcd13ifvqd80","pricing_plan_id":"cebpf4jnsgd1na2vs0mg"},{"bike_id":"0e249feb-6fb5-47db-8bb7-9c11143199ba","system_id":"levelo_inurba_marseille","lat":43.30591,"lon":5.39351,"is_reserved":false,"is_disabled":false,"rental_uris":{"android":"levelo://app?vid=0e249feb-6fb5-47db-8bb7-9c11143199ba","ios":"levelo://app?vid=0e249feb-6fb5-47db-8bb7-9c11143199ba"},"vehicle_type_id":"4","last_reported":1716412065,"current_range_meters":0,"station_id":"ce4bh0p2rcd13ifvqd80","pricing_plan_id":"cebpf4jnsgd1na2vs0mg"},{"bike_id":"b7114c9c-b2fd-47e0-91d3-cccee2dfbd5b","system_id":"levelo_inurba_marseille","lat":43.305994,"lon":5.393687,"is_reserved":false,"is_disabled":false,"rental_uris":{"android":"levelo://app?vid=b7114c9c-b2fd-47e0-91d3-cccee2dfbd5b","ios":"levelo://app?vid=b7114c9c-b2fd-47e0-91d3-cccee2dfbd5b"},"vehicle_type_id":"4","last_reported":1716412065,"current_range_meters":14000,"station_id":"ce4bh0p2rcd13ifvqd80","pricing_plan_id":"cebpf4jnsgd1na2vs0mg"},{"bike_id":"41866f69-d2dc-4334-bf29-3b3a3bac4e85","system_id":"levelo_inurba_marseille","lat":43.305994,"lon":5.393687,"is_reserved":false,"is_disabled":false,"rental_uris":{"android":"levelo://app?vid=41866f69-d2dc-4334-bf29-3b3a3bac4e85","ios":"levelo://app?vid=41866f69-d2dc-4334-bf29-3b3a3bac4e85"},"vehicle_type_id":"4","last_reported":1716412065,"current_range_meters":19600,"station_id":"ce4bh0p2rcd13ifvqd80","pricing_plan_id":"cebpf4jnsgd1na2vs0mg"},{"bike_id":"b7102823-ba94-4b6d-8656-e4a7fb02b67b","system_id":"levelo_inurba_marseille","lat":43.303002,"lon":5.392142,"is_reserved":false,"is_disabled":false,"rental_uris":{"android":"levelo://app?vid=b7102823-ba94-4b6d-8656-e4a7fb02b67b","ios":"levelo://app?vid=b7102823-ba94-4b6d-8656-e4a7fb02b67b"},"vehicle_type_id":"4","last_reported":1716412065,"current_range_meters":6000,"station_id":"ce4bgkh2rcd13ifvqbk0","pricing_plan_id":"cebpf4jnsgd1na2vs0mg"},{"bike_id":"f755e27d-41cf-47c8-81d6-fa5eca3ccce3","system_id":"levelo_inurba_marseille","lat":43.303041,"lon":5.392081,"is_reserved":false,"is_disabled":false,"rental_uris":{"android":"levelo://app?vid=f755e27d-41cf-47c8-81d6-fa5eca3ccce3","ios":"levelo://app?vid=f755e27d-41cf-47c8-81d6-fa5eca3ccce3"},"vehicle_type_id":"4","last_reported":1716412065,"current_range_meters":12800,"station_id":"ce4bgkh2rcd13ifvqbk0","pricing_plan_id":"cebpf4jnsgd1na2vs0mg"},{"bike_id":"78f7ad5c-fa2e-4f51-9f75-f77dbcf4036e","system_id":"levelo_inurba_marseille","lat":43.302971,"lon":5.39206,"is_reserved":false,"is_disabled":false,"rental_uris":{"android":"levelo://app?vid=78f7ad5c-fa2e-4f51-9f75-f77dbcf4036e","ios":"levelo://app?vid=78f7ad5c-fa2e-4f51-9f75-f77dbcf4036e"},"vehicle_type_id":"4","last_reported":1716412065,"current_range_meters":0,"station_id":"ce4bgkh2rcd13ifvqbk0","pricing_plan_id":"cebpf4jnsgd1na2vs0mg"},{"bike_id":"3ce90836-056b-4041-a507-8b24d53b109d","system_id":"levelo_inurba_marseille","lat":43.302992,"lon":5.392136,"is_reserved":false,"is_disabled":false,"rental_uris":{"android":"levelo://app?vid=3ce90836-056b-4041-a507-8b24d53b109d","ios":"levelo://app?vid=3ce90836-056b-4041-a507-8b24d53b109d"},"vehicle_type_id":"4","last_reported":1716412065,"current_range_meters":0,"station_id":"ce4bgkh2rcd13ifvqbk0","pricing_plan_id":"cebpf4jnsgd1na2vs0mg"},{"bike_id":"3e7ada21-500d-4aed-ab51-2444687c3dbf","system_id":"levelo_inurba_marseille","lat":43.302992,"lon":5.392136,"is_reserved":false,"is_disabled":false,"rental_uris":{"android":"levelo://app?vid=3e7ada21-500d-4aed-ab51-2444687c3dbf","ios":"levelo://app?vid=3e7ada21-500d-4aed-ab51-2444687c3dbf"},"vehicle_type_id":"4","last_reported":1716412065,"current_range_meters":28000,"station_id":"ce4bgkh2rcd13ifvqbk0","pricing_plan_id":"cebpf4jnsgd1na2vs0mg"},{"bike_id":"cd363a1e-e4ba-4f31-bd4a-5e9f4a73caa3","system_id":"levelo_inurba_marseille","lat":43.302992,"lon":5.392136,"is_reserved":false,"is_disabled":false,"rental_uris":{"android":"levelo://app?vid=cd363a1e-e4ba-4f31-bd4a-5e9f4a73caa3","ios":"levelo://app?vid=cd363a1e-e4ba-4f31-bd4a-5e9f4a73caa3"},"vehicle_type_id":"4","last_reported":1716412065,"current_range_meters":25200,"station_id":"ce4bgkh2rcd13ifvqbk0","pricing_plan_id":"cebpf4jnsgd1na2vs0mg"},{"bike_id":"1e069ce7-49d5-4a09-b8aa-f952c6561b74","system_id":"levelo_inurba_marseille","lat":43.302992,"lon":5.392136,"is_reserved":false,"is_disabled":false,"rental_uris":{"android":"levelo://app?vid=1e069ce7-49d5-4a09-b8aa-f952c6561b74","ios":"levelo://app?vid=1e069ce7-49d5-4a09-b8aa-f952c6561b74"},"vehicle_type_id":"4","last_reported":1716412065,"current_range_meters":0,"station_id":"ce4bgkh2rcd13ifvqbk0","pricing_plan_id":"cebpf4jnsgd1na2vs0mg"},{"bike_id":"f860269b-a62e-4f84-a2bd-b63946316b94","system_id":"levelo_inurba_marseille","lat":43.301055,"lon":5.390785,"is_reserved":false,"is_disabled":false,"rental_uris":{"android":"levelo://app?vid=f860269b-a62e-4f84-a2bd-b63946316b94","ios":"levelo://app?vid=f860269b-a62e-4f84-a2bd-b63946316b94"},"vehicle_type_id":"4","last_reported":1716412065,"current_range_meters":0,"station_id":"ce4bh192rcd13ifvqdb0","pricing_plan_id":"cebpf4jnsgd1na2vs0mg"},{"bike_id":"aec3e497-1f31-41e6-a308-a372f241e7e4","system_id":"levelo_inurba_marseille","lat":43.2936,"lon":5.37835,"is_reserved":false,"is_disabled":false,"rental_uris":{"android":"levelo://app?vid=aec3e497-1f31-41e6-a308-a372f241e7e4","ios":"levelo://app?vid=aec3e497-1f31-41e6-a308-a372f241e7e4"},"vehicle_type_id":"4","last_reported":1716412065,"current_range_meters":18000,"station_id":"ce4bgjh2rcd13ifvqbf0","pricing_plan_id":"cebpf4jnsgd1na2vs0mg"},{"bike_id":"f6aa9de0-81c6-4814-a858-1fb3b0347475","system_id":"levelo_inurba_marseille","lat":43.298764,"lon":5.388973,"is_reserved":false,"is_disabled":false,"rental_uris":{"android":"levelo://app?vid=f6aa9de0-81c6-4814-a858-1fb3b0347475","ios":"levelo://app?vid=f6aa9de0-81c6-4814-a858-1fb3b0347475"},"vehicle_type_id":"4","last_reported":1716412065,"current_range_meters":24800,"station_id":"ce4bh392rcd13ifvqdl0","pricing_plan_id":"cebpf4jnsgd1na2vs0mg"},{"bike_id":"473140b6-35df-4714-b49f-428a823fe5a5","system_id":"levelo_inurba_marseille","lat":43.3008,"lon":5.39097,"is_reserved":false,"is_disabled":false,"rental_uris":{"android":"levelo://app?vid=473140b6-35df-4714-b49f-428a823fe5a5","ios":"levelo://app?vid=473140b6-35df-4714-b49f-428a823fe5a5"},"vehicle_type_id":"4","last_reported":1716412065,"current_range_meters":25200,"station_id":"ce4bh192rcd13ifvqdb0","pricing_plan_id":"cebpf4jnsgd1na2vs0mg"},{"bike_id":"749136a6-67a0-4f24-b2e6-c36d8c262499","system_id":"levelo_inurba_marseille","lat":43.298764,"lon":5.388973,"is_reserved":false,"is_disabled":false,"rental_uris":{"android":"levelo://app?vid=749136a6-67a0-4f24-b2e6-c36d8c262499","ios":"levelo://app?vid=749136a6-67a0-4f24-b2e6-c36d8c262499"},"vehicle_type_id":"4","last_reported":1716412065,"current_range_meters":18800,"station_id":"ce4bh392rcd13ifvqdl0","pricing_plan_id":"cebpf4jnsgd1na2vs0mg"},{"bike_id":"4a554a9a-2da0-45be-acd6-0fcac35e2031","system_id":"levelo_inurba_marseille","lat":43.298764,"lon":5.388973,"is_reserved":false,"is_disabled":false,"rental_uris":{"android":"levelo://app?vid=4a554a9a-2da0-45be-acd6-0fcac35e2031","ios":"levelo://app?vid=4a554a9a-2da0-45be-acd6-0fcac35e2031"},"vehicle_type_id":"4","last_reported":1716412065,"current_range_meters":22400,"station_id":"ce4bh392rcd13ifvqdl0","pricing_plan_id":"cebpf4jnsgd1na2vs0mg"},{"bike_id":"0b423c28-3d77-4d4f-b470-bc2dbd7b4f19","system_id":"levelo_inurba_marseille","lat":43.298728,"lon":5.389068,"is_reserved":false,"is_disabled":false,"rental_uris":{"android":"levelo://app?vid=0b423c28-3d77-4d4f-b470-bc2dbd7b4f19","ios":"levelo://app?vid=0b423c28-3d77-4d4f-b470-bc2dbd7b4f19"},"vehicle_type_id":"4","last_reported":1716412065,"current_range_meters":28400,"station_id":"ce4bh392rcd13ifvqdl0","pricing_plan_id":"cebpf4jnsgd1na2vs0mg"},{"bike_id":"125a5923-86d4-4c2f-9fea-7a1f464c922f","system_id":"levelo_inurba_marseille","lat":43.29874,"lon":5.38913,"is_reserved":false,"is_disabled":false,"rental_uris":{"android":"levelo://app?vid=125a5923-86d4-4c2f-9fea-7a1f464c922f","ios":"levelo://app?vid=125a5923-86d4-4c2f-9fea-7a1f464c922f"},"vehicle_type_id":"4","last_reported":1716412065,"current_range_meters":0,"station_id":"ce4bh392rcd13ifvqdl0","pricing_plan_id":"cebpf4jnsgd1na2vs0mg"},{"bike_id":"73076940-a716-43ae-84b1-2133cad75c6a","system_id":"levelo_inurba_marseille","lat":43.309038,"lon":5.396546,"is_reserved":false,"is_disabled":false,"rental_uris":{"android":"levelo://app?vid=73076940-a716-43ae-84b1-2133cad75c6a","ios":"levelo://app?vid=73076940-a716-43ae-84b1-2133cad75c6a"},"vehicle_type_id":"4","last_reported":1716412065,"current_range_meters":22400,"station_id":"ce4bh012rcd13ifvqcv0","pricing_plan_id":"cebpf4jnsgd1na2vs0mg"},{"bike_id":"70242e25-c61d-4247-b77d-a82dc4095939","system_id":"levelo_inurba_marseille","lat":43.30895,"lon":5.39635,"is_reserved":false,"is_disabled":false,"rental_uris":{"android":"levelo://app?vid=70242e25-c61d-4247-b77d-a82dc4095939","ios":"levelo://app?vid=70242e25-c61d-4247-b77d-a82dc4095939"},"vehicle_type_id":"4","last_reported":1716412065,"current_range_meters":6800,"station_id":"ce4bh012rcd13ifvqcv0","pricing_plan_id":"cebpf4jnsgd1na2vs0mg"},{"bike_id":"393ebeeb-1366-42ac-a979-948692078dd8","system_id":"levelo_inurba_marseille","lat":43.309047,"lon":5.396551,"is_reserved":false,"is_disabled":false,"rental_uris":{"android":"levelo://app?vid=393ebeeb-1366-42ac-a979-948692078dd8","ios":"levelo://app?vid=393ebeeb-1366-42ac-a979-948692078dd8"},