{"last_updated":1701968826,"ttl":30,"version":"2.2","data":{"bikes":[{"bike_id":"3f08c902-cac6-445e-8035-47cc0f0a5dd5","system_id":"levelo_inurba_marseille","lat":43.312239,"lon":5.368562,"is_reserved":false,"is_disabled":false,"rental_uris":{"android":"levelo://app?vid=3f08c902-cac6-445e-8035-47cc0f0a5dd5","ios":"levelo://app?vid=3f08c902-cac6-445e-8035-47cc0f0a5dd5"},"vehicle_type_id":"4","last_reported":1701968826,"current_range_meters":26400,"station_id":"ce4bgl92rcd13ifvqbq0","pricing_plan_id":"free"},{"bike_id":"11d8537f-50f9-495f-962b-cf8752602e33","system_id":"levelo_inurba_marseille","lat":43.30926,"lon":5.36856,"is_reserved":false,"is_disabled":false,"rental_uris":{"android":"levelo://app?vid=11d8537f-50f9-495f-962b-cf8752602e33","ios":"levelo://app?vid=11d8537f-50f9-495f-962b-cf8752602e33"},"vehicle_type_id":"4","last_reported":1701968826,"current_range_meters":7200,"station_id":"ce4bgn92rcd13ifvqbvg","pricing_plan_id":"free"},{"bike_id":"2f400565-7458-42d8-aa2d-47e59a2d4997","system_id":"levelo_inurba_marseille","lat":43.314811,"lon":5.373103,"is_reserved":false,"is_disabled":false,"rental_uris":{"android":"levelo://app?vid=2f400565-7458-42d8-aa2d-47e59a2d4997","ios":"levelo://app?vid=2f400565-7458-42d8-aa2d-47e59a2d4997"},"vehicle_type_id":"4","last_reported":1701968826,"current_range_meters":23200,"station_id":"ce4bgt12rcd13ifvqcd0","pricing_plan_id":"free"},{"bike_id":"1a923f68-c891-43b8-a979-2e780dd34b13","system_id":"levelo_inurba_marseille","lat":43.314811,"lon":5.373103,"is_reserved":false,"is_disabled":false,"rental_uris":{"android":"levelo://app?vid=1a923f68-c891-43b8-a979-2e780dd34b13","ios":"levelo://app?vid=1a923f68-c891-43b8-a979-2e780dd34b13"},"vehicle_type_id":"4","last_reported":1701968826,"current_range_meters":23600,"station_id":"ce4bgt12rcd13ifvqcd0","pricing_plan_id":"free"},{"bike_id":"9b5eb57b-71e9-4a40-bb2b-e78cf0c4439a","system_id":"levelo_inurba_marseille","lat":43.307945,"lon":5.376487,"is_reserved":false,"is_disabled":false,"rental_uris":{"android":"levelo://app?vid=9b5eb57b-71e9-4a40-bb2b-e78cf0c4439a","ios":"levelo://app?vid=9b5eb57b-71e9-4a40-bb2b-e78cf0c4439a"},"vehicle_type_id":"4","last_reported":1701968826,"current_range_meters":10000,"station_id":"ce4bgv92rcd13ifvqcq0","pricing_plan_id":"free"},{"bike_id":"037895b8-2c27-438f-b8b9-e46c4e4b0ff9","system_id":"levelo_inurba_marseille","lat":43.307945,"lon":5.376487,"is_reserved":false,"is_disabled":false,"rental_uris":{"android":"levelo://app?vid=037895b8-2c27-438f-b8b9-e46c4e4b0ff9","ios":"levelo://app?vid=037895b8-2c27-438f-b8b9-e46c4e4b0ff9"},"vehicle_type_id":"4","last_reported":1701968826,"current_range_meters":24400,"station_id":"ce4bgv92rcd13ifvqcq0","pricing_plan_id":"free"},{"bike_id":"adf146c5-e4e1-4668-9a33-042940925130","system_id":"levelo_inurba_marseille","lat":43.31351,"lon":5.37909,"is_reserved":false,"is_disabled":false,"rental_uris":{"android":"levelo://app?vid=adf146c5-e4e1-4668-9a33-042940925130","ios":"levelo://app?vid=adf146c5-e4e1-4668-9a33-042940925130"},"vehicle_type_id":"4","last_reported":1701968826,"current_range_meters":2000,"station_id":"","pricing_plan_id":"free"},{"bike_id":"1ea60f58-75f7-4484-b705-1156df4b02ad","system_id":"levelo_inurba_marseille","lat":43.302784,"lon":5.373452,"is_reserved":false,"is_disabled":false,"rental_uris":{"android":"levelo://app?vid=1ea60f58-75f7-4484-b705-1156df4b02ad","ios":"levelo://app?vid=1ea60f58-75f7-4484-b705-1156df4b02ad"},"vehicle_type_id":"4","last_reported":1701968826,"current_range_meters":4800,"station_id":"","pricing_plan_id":"free"},{"bike_id":"18ef7610-3d8d-43f8-8321-421ded9a9f4b","system_id":"levelo_inurba_marseille","lat":43.30463,"lon":5.37906,"is_reserved":false,"is_disabled":false,"rental_uris":{"android":"levelo://app?vid=18ef7610-3d8d-43f8-8321-421ded9a9f4b","ios":"levelo://app?vid=18ef7610-3d8d-43f8-8321-421ded9a9f4b"},"vehicle_type_id":"4","last_reported":1701968826,"current_range_meters":8000,"station_id":"ce4bgup2rcd13ifvqcn0","pricing_plan_id":"free"},{"bike_id":"2ac6538c-776e-48b7-9392-82158f322822","system_id":"levelo_inurba_marseille","lat":43.304606,"lon":5.379026,"is_reserved":false,"is_disabled":false,"rental_uris":{"android":"levelo://app?vid=2ac6538c-776e-48b7-9392-82158f322822","ios":"levelo://app?vid=2ac6538c-776e-48b7-9392-82158f322822"},"vehicle_type_id":"4","last_reported":1701968826,"current_range_meters":21200,"station_id":"ce4bgup2rcd13ifvqcn0","pricing_plan_id":"free"},{"bike_id":"8e6bcc22-26a3-4f21-b99e-ec3014f3e345","system_id":"levelo_inurba_marseille","lat":43.31999,"lon":5.38158,"is_reserved":false,"is_disabled":false,"rental_uris":{"android":"levelo://app?vid=8e6bcc22-26a3-4f21-b99e-ec3014f3e345","ios":"levelo://app?vid=8e6bcc22-26a3-4f21-b99e-ec3014f3e345"},"vehicle_type_id":"4","last_reported":1701968826,"current_range_meters":17600,"station_id":"ce4bhr12rcd13ifvqhpg","pricing_plan_id":"free"},{"bike_id":"9ee0ef7a-8d9c-4d78-8ae5-64e12b708d26","system_id":"levelo_inurba_marseille","lat":43.319997,"lon":5.381594,"is_reserved":false,"is_disabled":false,"rental_uris":{"android":"levelo://app?vid=9ee0ef7a-8d9c-4d78-8ae5-64e12b708d26","ios":"levelo://app?vid=9ee0ef7a-8d9c-4d78-8ae5-64e12b708d26"},"vehicle_type_id":"4","last_reported":1701968826,"current_range_meters":0,"station_id":"ce4bhr12rcd13ifvqhpg","pricing_plan_id":"free"},{"bike_id":"a49b99ee-38eb-49b5-978d-00cf198fff08","system_id":"levelo_inurba_marseille","lat":43.29976,"lon":5.36636,"is_reserved":false,"is_disabled":false,"rental_uris":{"android":"levelo://app?vid=a49b99ee-38eb-49b5-978d-00cf198fff08","ios":"levelo://app?vid=a49b99ee-38eb-49b5-978d-00cf198fff08"},"vehicle_type_id":"4","last_reported":1701968826,"current_range_meters":22800,"station_id":"","pricing_plan_id":"free"},{"bike_id":"a4a2755c-60f4-4492-935f-662a0fad8443","system_id":"levelo_inurba_marseille","lat":43.299222,"lon":5.365554,"is_reserved":false,"is_disabled":false,"rental_uris":{"android":"levelo://app?vid=a4a2755c-60f4-4492-935f-662a0fad8443","ios":"levelo://app?vid=a4a2755c-60f4-4492-935f-662a0fad8443"},"vehicle_type_id":"4","last_reported":1701968826,"current_range_meters":0,"station_id":"ce4bgm92rcd13ifvqbr0","pricing_plan_id":"free"},{"bike_id":"866f0c7f-3cac-4620-903d-b15064f4b9f5","system_id":"levelo_inurba_marseille","lat":43.29933,"lon":5.3746,"is_reserved":false,"is_disabled":false,"rental_uris":{"android":"levelo://app?vid=866f0c7f-3cac-4620-903d-b15064f4b9f5","ios":"levelo://app?vid=866f0c7f-3cac-4620-903d-b15064f4b9f5"},"vehicle_type_id":"4","last_reported":1701968826,"current_range_meters":28400,"station_id":"ce4bgjh2rcd13ifvqbg0","pricing_plan_id":"free"},{"bike_id":"041eeb1e-2bf2-4310-a58c-530dfed6d64b","system_id":"levelo_inurba_marseille","lat":43.311722,"lon":5.387247,"is_reserved":false,"is_disabled":false,"rental_uris":{"android":"levelo://app?vid=041eeb1e-2bf2-4310-a58c-530dfed6d64b","ios":"levelo://app?vid=041eeb1e-2bf2-4310-a58c-530dfed6d64b"},"vehicle_type_id":"4","last_reported":1701968826,"current_range_meters":18800,"station_id":"ce4bgv12rcd13ifvqcp0","pricing_plan_id":"free"},{"bike_id":"b67fba65-c7a2-47f0-9f52-5169b2d6706d","system_id":"levelo_inurba_marseille","lat":43.299243,"lon":5.374807,"is_reserved":false,"is_disabled":false,"rental_uris":{"android":"levelo://app?vid=b67fba65-c7a2-47f0-9f52-5169b2d6706d","ios":"levelo://app?vid=b67fba65-c7a2-47f0-9f52-5169b2d6706d"},"vehicle_type_id":"4","last_reported":1701968826,"current_range_meters":13600,"station_id":"ce4bgjh2rcd13ifvqbg0","pricing_plan_id":"free"},{"bike_id":"7363e63f-363d-4972-8938-330194181e7f","system_id":"levelo_inurba_marseille","lat":43.311722,"lon":5.387247,"is_reserved":false,"is_disabled":false,"rental_uris":{"android":"levelo://app?vid=7363e63f-363d-4972-8938-330194181e7f","ios":"levelo://app?vid=7363e63f-363d-4972-8938-330194181e7f"},"vehicle_type_id":"4","last_reported":1701968826,"current_range_meters":26400,"station_id":"ce4bgv12rcd13ifvqcp0","pricing_plan_id":"free"},{"bike_id":"9158dde2-7a54-4f1d-b152-18e79ae986fc","system_id":"levelo_inurba_marseille","lat":43.322872,"lon":5.382756,"is_reserved":false,"is_disabled":false,"rental_uris":{"android":"levelo://app?vid=9158dde2-7a54-4f1d-b152-18e79ae986fc","ios":"levelo://app?vid=9158dde2-7a54-4f1d-b152-18e79ae986fc"},"vehicle_type_id":"4","last_reported":1701968826,"current_range_meters":24800,"station_id":"ce4bhr12rcd13ifvqhqg","pricing_plan_id":"free"},{"bike_id":"0d54d094-e0f1-40b0-976d-4597098b5ddc","system_id":"levelo_inurba_marseille","lat":43.322872,"lon":5.382756,"is_reserved":false,"is_disabled":false,"rental_uris":{"android":"levelo://app?vid=0d54d094-e0f1-40b0-976d-4597098b5ddc","ios":"levelo://app?vid=0d54d094-e0f1-40b0-976d-4597098b5ddc"},"vehicle_type_id":"4","last_reported":1701968826,"current_range_meters":14800,"station_id":"ce4bhr12rcd13ifvqhqg","pricing_plan_id":"free"},{"bike_id":"3dcd4a73-468d-493a-bf11-93ceddd109f8","system_id":"levelo_inurba_marseille","lat":43.322872,"lon":5.382756,"is_reserved":false,"is_disabled":false,"rental_uris":{"android":"levelo://app?vid=3dcd4a73-468d-493a-bf11-93ceddd109f8","ios":"levelo://app?vid=3dcd4a73-468d-493a-bf11-93ceddd109f8"},"vehicle_type_id":"4","last_reported":1701968826,"current_range_meters":12800,"station_id":"ce4bhr12rcd13ifvqhqg","pricing_plan_id":"free"},{"bike_id":"b294c27e-0482-4b86-b2a4-2c4f52b8b9e8","system_id":"levelo_inurba_marseille","lat":43.32836,"lon":5.36688,"is_reserved":false,"is_disabled":false,"rental_uris":{"android":"levelo://app?vid=b294c27e-0482-4b86-b2a4-2c4f52b8b9e8","ios":"levelo://app?vid=b294c27e-0482-4b86-b2a4-2c4f52b8b9e8"},"vehicle_type_id":"4","last_reported":1701968826,"current_range_meters":24800,"station_id":"ce4bhs92rcd13ifvqi0g","pricing_plan_id":"free"},{"bike_id":"ef08f774-2713-46c7-ac61-11066468225e","system_id":"levelo_inurba_marseille","lat":43.295922,"lon":5.367364,"is_reserved":false,"is_disabled":false,"rental_uris":{"android":"levelo://app?vid=ef08f774-2713-46c7-ac61-11066468225e","ios":"levelo://app?vid=ef08f774-2713-46c7-ac61-11066468225e"},"vehicle_type_id":"4","last_reported":1701968826,"current_range_meters":25600,"station_id":"ce4bgph2rcd13ifvqc2g","pricing_plan_id":"free"},{"bike_id":"92dc65d6-6823-4de3-93d4-056f738f090c","system_id":"levelo_inurba_marseille","lat":43.316538,"lon":5.38954,"is_reserved":false,"is_disabled":false,"rental_uris":{"android":"levelo://app?vid=92dc65d6-6823-4de3-93d4-056f738f090c","ios":"levelo://app?vid=92dc65d6-6823-4de3-93d4-056f738f090c"},"vehicle_type_id":"4","last_reported":1701968826,"current_range_meters":4800,"station_id":"","pricing_plan_id":"free"},{"bike_id":"cf313397-efb4-48a1-b02c-f8046fa046c6","system_id":"levelo_inurba_marseille","lat":43.309589,"lon":5.390258,"is_reserved":false,"is_disabled":false,"rental_uris":{"android":"levelo://app?vid=cf313397-efb4-48a1-b02c-f8046fa046c6","ios":"levelo://app?vid=cf313397-efb4-48a1-b02c-f8046fa046c6"},"vehicle_type_id":"4","last_reported":1701968826,"current_range_meters":0,"station_id":"ce4bgup2rcd13ifvqco0","pricing_plan_id":"free"},{"bike_id":"cd877b3e-cae9-4767-b618-93e42398ac39","system_id":"levelo_inurba_marseille","lat":43.317557,"lon":5.390173,"is_reserved":false,"is_disabled":false,"rental_uris":{"android":"levelo://app?vid=cd877b3e-cae9-4767-b618-93e42398ac39","ios":"levelo://app?vid=cd877b3e-cae9-4767-b618-93e42398ac39"},"vehicle_type_id":"4","last_reported":1701968826,"current_range_meters":15600,"station_id":"ce4bhqp2rcd13ifvqhng","pricing_plan_id":"free"},{"bike_id":"26fc0c47-e5ee-49d2-911f-b4135c252acd","system_id":"levelo_inurba_marseille","lat":43.3303,"lon":5.369931,"is_reserved":false,"is_disabled":false,"rental_uris":{"android":"levelo://app?vid=26fc0c47-e5ee-49d2-911f-b4135c252acd","ios":"levelo://app?vid=26fc0c47-e5ee-49d2-911f-b4135c252acd"},"vehicle_type_id":"4","last_reported":1701968826,"current_range_meters":28000,"station_id":"","pricing_plan_id":"free"},{"bike_id":"55311dec-ec61-4646-8d1a-4ddd89532043","system_id":"levelo_inurba_marseille","lat":43.33042,"lon":5.37016,"is_reserved":false,"is_disabled":false,"rental_uris":{"android":"levelo://app?vid=55311dec-ec61-4646-8d1a-4ddd89532043","ios":"levelo://app?vid=55311dec-ec61-4646-8d1a-4ddd89532043"},"vehicle_type_id":"4","last_reported":1701968826,"current_range_meters":24000,"station_id":"","pricing_plan_id":"free"},{"bike_id":"fc264b3f-3320-4cc5-b6c9-33d6dd892c87","system_id":"levelo_inurba_marseille","lat":43.33045,"lon":5.37013,"is_reserved":false,"is_disabled":false,"rental_uris":{"android":"levelo://app?vid=fc264b3f-3320-4cc5-b6c9-33d6dd892c87","ios":"levelo://app?vid=fc264b3f-3320-4cc5-b6c9-33d6dd892c87"},"vehicle_type_id":"4","last_reported":1701968826,"current_range_meters":20400,"station_id":"","pricing_plan_id":"free"},{"bike_id":"3973fcf3-cdb8-4347-83dd-b19dae53d8f5","system_id":"levelo_inurba_marseille","lat":43.295279,"lon":5.375048,"is_reserved":false,"is_disabled":false,"rental_uris":{"android":"levelo://app?vid=3973fcf3-cdb8-4347-83dd-b19dae53d8f5","ios":"levelo://app?vid=3973fcf3-cdb8-4347-83dd-b19dae53d8f5"},"vehicle_type_id":"4","last_reported":1701968826,"current_range_meters":400,"station_id":"ce4bgkp2rcd13ifvqbmg","pricing_plan_id":"free"},{"bike_id":"2531034a-7af4-4a9c-8b1a-2a3385e44100","system_id":"levelo_inurba_marseille","lat":43.302992,"lon":5.392136,"is_reserved":false,"is_disabled":false,"rental_uris":{"android":"levelo://app?vid=2531034a-7af4-4a9c-8b1a-2a3385e44100","ios":"levelo://app?vid=2531034a-7af4-4a9c-8b1a-2a3385e44100"},"vehicle_type_id":"4","last_reported":1701968826,"current_range_meters":0,"station_id":"ce4bgkh2rcd13ifvqbk0","pricing_plan_id":"free"},{"bike_id":"a3148392-00a9-4bad-bc68-ab4ffa9d3d24","system_id":"levelo_inurba_marseille","lat":43.29365,"lon":5.37861,"is_reserved":false,"is_disabled":false,"rental_uris":{"android":"levelo://app?vid=a3148392-00a9-4bad-bc68-ab4ffa9d3d24","ios":"levelo://app?vid=a3148392-00a9-4bad-bc68-ab4ffa9d3d24"},"vehicle_type_id":"4","last_reported":1701968826,"current_range_meters":0,"station_id":"ce4bgjh2rcd13ifvqbf0","pricing_plan_id":"free"},{"bike_id":"a26b4295-1f21-496b-a635-e672f2cd076b","system_id":"levelo_inurba_marseille","lat":43.292663,"lon":5.376394,"is_reserved":false,"is_disabled":false,"rental_uris":{"android":"levelo://app?vid=a26b4295-1f21-496b-a635-e672f2cd076b","ios":"levelo://app?vid=a26b4295-1f21-496b-a635-e672f2cd076b"},"vehicle_type_id":"4","last_reported":1701968826,"current_range_meters":2800,"station_id":"ce4bgi12rcd13ifvqb80","pricing_plan_id":"free"},{"bike_id":"78368c94-4fcc-4a79-8722-d8637e74ee50","system_id":"levelo_inurba_marseille","lat":43.313291,"lon":5.396838,"is_reserved":false,"is_disabled":false,"rental_uris":{"android":"levelo://app?vid=78368c94-4fcc-4a79-8722-d8637e74ee50","ios":"levelo://app?vid=78368c94-4fcc-4a79-8722-d8637e74ee50"},"vehicle_type_id":"4","last_reported":1701968826,"current_range_meters":3200,"station_id":"ce4bgvp2rcd13ifvqcu0","pricing_plan_id":"free"},{"bike_id":"3134bd8b-1f4d-4e00-b3fa-c7bc8df2e245","system_id":"levelo_inurba_marseille","lat":43.313291,"lon":5.396838,"is_reserved":false,"is_disabled":false,"rental_uris":{"android":"levelo://app?vid=3134bd8b-1f4d-4e00-b3fa-c7bc8df2e245","ios":"levelo://app?vid=3134bd8b-1f4d-4e00-b3fa-c7bc8df2e245"},"vehicle_type_id":"4","last_reported":1701968826,"current_range_meters":13200,"station_id":"ce4bgvp2rcd13ifvqcu0","pricing_plan_id":"free"},{"bike_id":"2def678e-fbbc-497d-9923-ed9408bc7097","system_id":"levelo_inurba_marseille","lat":43.309038,"lon":5.396546,"is_reserved":false,"is_disabled":false,"rental_uris":{"android":"levelo://app?vid=2def678e-fbbc-497d-9923-ed9408bc7097","ios":"levelo://app?vid=2def678e-fbbc-497d-9923-ed9408bc7097"},"vehicle_type_id":"4","last_reported":1701968826,"current_range_meters":27200,"station_id":"ce4bh012rcd13ifvqcv0","pricing_plan_id":"free"},{"bike_id":"9896f0ee-c20e-4279-ae97-fc4ae65c84d6","system_id":"levelo_inurba_marseille","lat":43.313291,"lon":5.396838,"is_reserved":false,"is_disabled":false,"rental_uris":{"android":"levelo://app?vid=9896f0ee-c20e-4279-ae97-fc4ae65c84d6","ios":"levelo://app?vid=9896f0ee-c20e-4279-ae97-fc4ae65c84d6"},"vehicle_type_id":"4","last_reported":1701968826,"current_range_meters":28000,"station_id":"ce4bgvp2rcd13ifvqcu0","pricing_plan_id":"free"},{"bike_id":"24b77d57-7813-4ce5-9dd1-b3859905be34","system_id":"levelo_inurba_marseille","lat":43.31326,"lon":5.39701,"is_reserved":false,"is_disabled":false,"rental_uris":{"android":"levelo://app?vid=24b77d57-7813-4ce5-9dd1-b3859905be34","ios":"levelo://app?vid=24b77d57-7813-4ce5-9dd1-b3859905be34"},"vehicle_type_id":"4","last_reported":1701968826,"current_range_meters":3600,"station_id":"ce4bgvp2rcd13ifvqcu0","pricing_plan_id":"free"},{"bike_id":"cca928c2-83a7-43e6-837c-6607c38647da","system_id":"levelo_inurba_marseille","lat":43.309038,"lon":5.396546,"is_reserved":false,"is_disabled":false,"rental_uris":{"android":"levelo://app?vid=cca928c2-83a7-43e6-837c-6607c38647da","ios":"levelo://app?vid=cca928c2-83a7-43e6-837c-6607c38647da"},"vehicle_type_id":"4","last_reported":1701968826,"current_range_meters":18000,"station_id":"ce4bh012rcd13ifvqcv0","pricing_plan_id":"free"},{"bike_id":"d1a97d2d-2440-4a46-a2db-291f4e45c149","system_id":"levelo_inurba_marseille","lat":43.292523,"lon":5.38019,"is_reserved":false,"is_disabled":false,"rental_uris":{"android":"levelo://app?vid=d1a97d2d-2440-4a46-a2db-291f4e45c149","ios":"levelo://app?vid=d1a97d2d-2440-4a46-a2db-291f4e45c149"},"vehicle_type_id":"4","last_reported":1701968826,"current_range_meters":21200,"station_id":"","pricing_plan_id":"free"},{"bike_id":"eb048a6c-c539-4620-a981-7be8a06505b4","system_id":"levelo_inurba_marseille","lat":43.302008,"lon":5.394694,"is_reserved":false,"is_disabled":false,"rental_uris":{"android":"levelo://app?vid=eb048a6c-c539-4620-a981-7be8a06505b4","ios":"levelo://app?vid=eb048a6c-c539-4620-a981-7be8a06505b4"},"vehicle_type_id":"4","last_reported":1701968826,"current_range_meters":13600,"station_id":"ce4bh0p2rcd13ifvqd70","pricing_plan_id":"free"},{"bike_id":"aa318d63-8ee5-4d5f-bdbf-3c2aaf7deec6","system_id":"levelo_inurba_marseille","lat":43.294153,"lon":5.386305,"is_reserved":false,"is_disabled":false,"rental_uris":{"android":"levelo://app?vid=aa318d63-8ee5-4d5f-bdbf-3c2aaf7deec6","ios":"levelo://app?vid=aa318d63-8ee5-4d5f-bdbf-3c2aaf7deec6"},"vehicle_type_id":"4","last_reported":1701968826,"current_range_meters":16400,"station_id":"ce4bh2h2rcd13ifvqdh0","pricing_plan_id":"free"},{"bike_id":"96eceeda-97f4-42c3-bcae-2b589f99361b","system_id":"levelo_inurba_marseille","lat":43.290161,"lon":5.375651,"is_reserved":false,"is_disabled":false,"rental_uris":{"android":"levelo://app?vid=96eceeda-97f4-42c3-bcae-2b589f99361b","ios":"levelo://app?vid=96eceeda-97f4-42c3-bcae-2b589f99361b"},"vehicle_type_id":"4","last_reported":1701968826,"current_range_meters":20400,"station_id":"","pricing_plan_id":"free"},{"bike_id":"a02a1b20-1fb1-4951-988a-77389649024d","system_id":"levelo_inurba_marseille","lat":43.289259,"lon":5.366364,"is_reserved":false,"is_disabled":false,"rental_uris":{"android":"levelo://app?vid=a02a1b20-1fb1-4951-988a-77389649024d","ios":"levelo://app?vid=a02a1b20-1fb1-4951-988a-77389649024d"},"vehicle_type_id":"4","last_reported":1701968826,"current_range_meters":19200,"station_id":"","pricing_plan_id":"free"},{"bike_id":"e5d5a034-dc32-4b72-8dc8-32ffa34ae552","system_id":"levelo_inurba_marseille","lat":43.290104,"lon":5.356111,"is_reserved":false,"is_disabled":false,"rental_uris":{"android":"levelo://app?vid=e5d5a034-dc32-4b72-8dc8-32ffa34ae552","ios":"levelo://app?vid=e5d5a034-dc32-4b72-8dc8-32ffa34ae552"},"vehicle_type_id":"4","last_reported":1701968826,"current_range_meters":20000,"station_id":"ce4bhb92rcd13ifvqen0","pricing_plan_id":"free"},{"bike_id":"a2ab8936-2f7f-4b07-962e-4a9ee65f9307","system_id":"levelo_inurba_marseille","lat":43.33045,"lon":5.38918,"is_reserved":false,"is_disabled":false,"rental_uris":{"android":"levelo://app?vid=a2ab8936-2f7f-4b07-962e-4a9ee65f9307","ios":"levelo://app?vid=a2ab8936-2f7f-4b07-962e-4a9ee65f9307"},"vehicle_type_id":"4","last_reported":1701968826,"current_range_meters":6000,"station_id":"ce4bhr92rcd13ifvqhrg","pricing_plan_id":"free"},{"bike_id":"aee6e058-4134-4bc9-b53c-7e16064ea9e7","system_id":"levelo_inurba_marseille","lat":43.288558,"lon":5.358635,"is_reserved":false,"is_disabled":false,"rental_uris":{"android":"levelo://app?vid=aee6e058-4134-4bc9-b53c-7e16064ea9e7","ios":"levelo://app?vid=aee6e058-4134-4bc9-b53c-7e16064ea9e7"},"vehicle_type_id":"4","last_reported":1701968826,"current_range_meters":27200,"station_id":"","pricing_plan_id":"free"},{"bike_id":"775209e0-a2ea-455e-9c82-4fe0dc7ae488","system_id":"levelo_inurba_marseille","lat":43.309371,"lon":5.401449,"is_reserved":false,"is_disabled":false,"rental_uris":{"android":"levelo://app?vid=775209e0-a2ea-455e-9c82-4fe0dc7ae488","ios":"levelo://app?vid=775209e0-a2ea-455e-9c82-4fe0dc7ae488"},"vehicle_type_id":"4","last_reported":1701968826,"current_range_meters":19200,"station_id":"ce4bgvp2rcd13ifvqct0","pricing_plan_id":"free"},{"bike_id":"a4372249-f4f9-4775-8e34-43803d58d905","system_id":"levelo_inurba_marseille","lat":43.33749,"lon":5.37443,"is_reserved":false,"is_disabled":false,"rental_uris":{"android":"levelo://app?vid=a4372249-f4f9-4775-8e34-43803d58d905","ios":"levelo://app?vid=a4372249-f4f9-4775-8e34-43803d58d905"},"vehicle_type_id":"4","last_reported":1701968826,"current_range_meters":31200,"station_id":"","pricing_plan_id":"free"},{"bike_id":"07839617-05a8-482a-8e9a-a74c93975b17","system_id":"levelo_inurba_marseille","lat":43.306412,"lon":5.401035,"is_reserved":false,"is_disabled":false,"rental_uris":{"android":"levelo://app?vid=07839617-05a8-482a-8e9a-a74c93975b17","ios":"levelo://app?vid=07839617-05a8-482a-8e9a-a74c93975b17"},"vehicle_type_id":"4","last_reported":1701968826,"current_range_meters":27600,"station_id":"ce4bh112rcd13ifvqda0","pricing_plan_id":"free"},{"bike_id":"404d2418-d341-457a-bf88-88fcef739888","system_id":"levelo_inurba_marseille","lat":43.289307,"lon":5.38406,"is_reserved":false,"is_disabled":false,"rental_uris":{"android":"levelo://app?vid=404d2418-d341-457a-bf88-88fcef739888","ios":"levelo://app?vid=404d2418-d341-457a-bf88-88fcef739888"},"vehicle_type_id":"4","last_reported":1701968826,"current_range_meters":22400,"station_id":"ce4bh612rcd13ifvqe6g","pricing_plan_id":"free"},{"bike_id":"c41c8a23-a2a0-4610-b8a9-a1085fcf4745","system_id":"levelo_inurba_marseille","lat":43.290345,"lon":5.38646,"is_reserved":false,"is_disabled":false,"rental_uris":{"android":"levelo://app?vid=c41c8a23-a2a0-4610-b8a9-a1085fcf4745","ios":"levelo://app?vid=c41c8a23-a2a0-4610-b8a9-a1085fcf4745"},"vehicle_type_id":"4","last_reported":1701968826,"current_range_meters":1200,"station_id":"ce4bh4p2rcd13ifvqe0g","pricing_plan_id":"free"},{"bike_id":"25a0aa27-a8d1-4766-868a-cfaf9543fab5","system_id":"levelo_inurba_marseille","lat":43.286039,"lon":5.370681,"is_reserved":false,"is_disabled":false,"rental_uris":{"android":"levelo://app?vid=25a0aa27-a8d1-4766-868a-cfaf9543fab5","ios":"levelo://app?vid=25a0aa27-a8d1-4766-868a-cfaf9543fab5"},"vehicle_type_id":"4","last_reported":1701968826,"current_range_meters":22000,"station_id":"ce4bht12rcd13ifvqi60","pricing_plan_id":"free"},{"bike_id":"a5e851f0-b5ab-4063-ad08-a91932998027","system_id":"levelo_inurba_marseille","lat":43.291994,"lon":5.392907,"is_reserved":false,"is_disabled":false,"rental_uris":{"android":"levelo://app?vid=a5e851f0-b5ab-4063-ad08-a91932998027","ios":"levelo://app?vid=a5e851f0-b5ab-4063-ad08-a91932998027"},"vehicle_type_id":"4","last_reported":1701968826,"current_range_meters":7600,"station_id":"ce4bh192rcd13ifvqdd0","pricing_plan_id":"free"},{"bike_id":"93cccaf1-cd85-4494-8382-b462079240ca","system_id":"levelo_inurba_marseille","lat":43.294314,"lon":5.397498,"is_reserved":false,"is_disabled":false,"rental_uris":{"android":"levelo://app?vid=93cccaf1-cd85-4494-8382-b462079240ca","ios":"levelo://app?vid=93cccaf1-cd85-4494-8382-b462079240ca"},"vehicle_type_id":"4","last_reported":1701968826,"current_range_meters":13600,"station_id":"ce4bh3h2rcd13ifvqdo0","pricing_plan_id":"free"},{"bike_id":"272acb99-3161-44a5-a662-f17a3ecd725f","system_id":"levelo_inurba_marseille","lat":43.28618,"lon":5.35109,"is_reserved":false,"is_disabled":false,"rental_uris":{"android":"levelo://app?vid=272acb99-3161-44a5-a662-f17a3ecd725f","ios":"levelo://app?vid=272acb99-3161-44a5-a662-f17a3ecd725f"},"vehicle_type_id":"4","last_reported":1701968826,"current_range_meters":19200,"station_id":"ce4bhch2rcd13ifvqeug","pricing_plan_id":"free"},{"bike_id":"a61362a7-0845-49d2-bb39-7152691ef324","system_id":"levelo_inurba_marseille","lat":43.283998,"lon":5.375062,"is_reserved":false,"is_disabled":false,"rental_uris":{"android":"levelo://app?vid=a61362a7-0845-49d2-bb39-7152691ef324","ios":"levelo://app?vid=a61362a7-0845-49d2-bb39-7152691ef324"},"vehicle_type_id":"4","last_reported":1701968826,"current_range_meters":29200,"station_id":"ce4bh412rcd13ifvqds0","pricing_plan_id":"free"},{"bike_id":"0b39ce30-0420-407c-9e73-15422b804e30","system_id":"levelo_inurba_marseille","lat":43.283998,"lon":5.375062,"is_reserved":false,"is_disabled":false,"rental_uris":{"android":"levelo://app?vid=0b39ce30-0420-407c-9e73-15422b804e30","ios":"levelo://app?vid=0b39ce30-0420-407c-9e73-15422b804e30"},"vehicle_type_id":"4","last_reported":1701968826,"current_range_meters":30400,"station_id":"ce4bh412rcd13ifvqds0","pricing_plan_id":"free"},{"bike_id":"81cb71ba-1613-41a4-9575-18b8a3ba981b","system_id":"levelo_inurba_marseille","lat":43.319179,"lon":5.407725,"is_reserved":false,"is_disabled":false,"rental_uris":{"android":"levelo://app?vid=81cb71ba-1613-41a4-9575-18b8a3ba981b","ios":"levelo://app?vid=81cb71ba-1613-41a4-9575-18b8a3ba981b"},"vehicle_type_id":"4","last_reported":1701968826,"current_range_meters":12000,"station_id":"ce4bhq12rcd13ifvqhig","pricing_plan_id":"free"},{"bike_id":"06070a5a-4b04-4262-80e6-ef3153c54cac","system_id":"levelo_inurba_marseille","lat":43.319179,"lon":5.407725,"is_reserved":false,"is_disabled":false,"rental_uris":{"android":"levelo://app?vid=06070a5a-4b04-4262-80e6-ef3153c54cac","ios":"levelo://app?vid=06070a5a-4b04-4262-80e6-ef3153c54cac"},"vehicle_type_id":"4","last_reported":1701968826,"current_range_meters":2400,"station_id":"ce4bhq12rcd13ifvqhig","pricing_plan_id":"free"},{"bike_id":"ab35a2f2-f918-4558-963b-805798e7fe1d","system_id":"levelo_inurba_marseille","lat":43.33717,"lon":5.391857,"is_reserved":false,"is_disabled":false,"rental_uris":{"android":"levelo://app?vid=ab35a2f2-f918-4558-963b-805798e7fe1d","ios":"levelo://app?vid=ab35a2f2-f918-4558-963b-805798e7fe1d"},"vehicle_type_id":"4","last_reported":1701968826,"current_range_meters":14800,"station_id":"ce4bhr92rcd13ifvqhsg","pricing_plan_id":"free"},{"bike_id":"b0e7298d-5203-4983-b7f7-60b8fee86899","system_id":"levelo_inurba_marseille","lat":43.33717,"lon":5.391857,"is_reserved":false,"is_disabled":false,"rental_uris":{"android":"levelo://app?vid=b0e7298d-5203-4983-b7f7-60b8fee86899","ios":"levelo://app?vid=b0e7298d-5203-4983-b7f7-60b8fee86899"},"vehicle_type_id":"4","last_reported":1701968826,"current_range_meters":31200,"station_id":"ce4bhr92rcd13ifvqhsg","pricing_plan_id":"free"},{"bike_id":"56ac9cc9-bb61-47d5-bb32-c23299a9fd93","system_id":"levelo_inurba_marseille","lat":43.323464,"lon":5.406297,"is_reserved":false,"is_disabled":false,"rental_uris":{"android":"levelo://app?vid=56ac9cc9-bb61-47d5-bb32-c23299a9fd93","ios":"levelo://app?vid=56ac9cc9-bb61-47d5-bb32-c23299a9fd93"},"vehicle_type_id":"4","last_reported":1701968826,"current_range_meters":27200,"station_id":"ce4bhq92rcd13ifvqhjg","pricing_plan_id":"free"},{"bike_id":"ac9b0f84-2a40-4ed0-a82e-5cff07fd56da","system_id":"levelo_inurba_marseille","lat":43.337168,"lon":5.391825,"is_reserved":false,"is_disabled":false,"rental_uris":{"android":"levelo://app?vid=ac9b0f84-2a40-4ed0-a82e-5cff07fd56da","ios":"levelo://app?vid=ac9b0f84-2a40-4ed0-a82e-5cff07fd56da"},"vehicle_type_id":"4","last_reported":1701968826,"current_range_meters":12800,"station_id":"ce4bhr92rcd13ifvqhsg","pricing_plan_id":"free"},{"bike_id":"d5366284-f18f-4eea-b576-8da2292c9b82","system_id":"levelo_inurba_marseille","lat":43.28039,"lon":5.369297,"is_reserved":false,"is_disabled":false,"rental_uris":{"android":"levelo://app?vid=d5366284-f18f-4eea-b576-8da2292c9b82","ios":"levelo://app?vid=d5366284-f18f-4eea-b576-8da2292c9b82"},"vehicle_type_id":"4","last_reported":1701968826,"current_range_meters":19600,"station_id":"ce4bha12rcd13ifvqef0","pricing_plan_id":"free"},{"bike_id":"56ec9e69-05d9-4b8d-be5c-489a21a1ffd1","system_id":"levelo_inurba_marseille","lat":43.281044,"lon":5.378308,"is_reserved":false,"is_disabled":false,"rental_uris":{"android":"levelo://app?vid=56ec9e69-05d9-4b8d-be5c-489a21a1ffd1","ios":"levelo://app?vid=56ec9e69-05d9-4b8d-be5c-489a21a1ffd1"},"vehicle_type_id":"4","last_reported":1701968826,"current_range_meters":0,"station_id":"ce4bha12rcd13ifvqee0","pricing_plan_id":"free"},{"bike_id":"d5f463f1-42f7-4b4b-beab-188bb98bb28a","system_id":"levelo_inurba_marseille","lat":43.28098,"lon":5.37837,"is_reserved":false,"is_disabled":false,"rental_uris":{"android":"levelo://app?vid=d5f463f1-42f7-4b4b-beab-188bb98bb28a","ios":"levelo://app?vid=d5f463f1-42f7-4b4b-beab-188bb98bb28a"},"vehicle_type_id":"4","last_reported":1701968826,"current_range_meters":0,"station_id":"ce4bha12rcd13ifvqee0","pricing_plan_id":"free"},{"bike_id":"640c1ee2-b081-4534-b755-e1d1dc08df39","system_id":"levelo_inurba_marseille","lat":43.28573,"lon":5.394992,"is_reserved":false,"is_disabled":false,"rental_uris":{"android":"levelo://app?vid=640c1ee2-b081-4534-b755-e1d1dc08df39","ios":"levelo://app?vid=640c1ee2-b081-4534-b755-e1d1dc08df39"},"vehicle_type_id":"4","last_reported":1701968826,"current_range_meters":5600,"station_id":"ce4bh292rcd13ifvqdg0","pricing_plan_id":"free"},{"bike_id":"5479f154-7c1a-47b3-b363-b73a4aa510b6","system_id":"levelo_inurba_marseille","lat":43.279742,"lon":5.38744,"is_reserved":false,"is_disabled":false,"rental_uris":{"android":"levelo://app?vid=5479f154-7c1a-47b3-b363-b73a4aa510b6","ios":"levelo://app?vid=5479f154-7c1a-47b3-b363-b73a4aa510b6"},"vehicle_type_id":"4","last_reported":1701968826,"current_range_meters":12800,"station_id":"ce4bhg12rcd13ifvqf80","pricing_plan_id":"free"},{"bike_id":"a4928f1f-486e-43b8-8be1-eb9935f7af69","system_id":"levelo_inurba_marseille","lat":43.292569,"lon":5.409107,"is_reserved":false,"is_disabled":false,"rental_uris":{"android":"levelo://app?vid=a4928f1f-486e-43b8-8be1-eb9935f7af69","ios":"levelo://app?vid=a4928f1f-486e-43b8-8be1-eb9935f7af69"},"vehicle_type_id":"4","last_reported":1701968826,"current_range_meters":22800,"station_id":"ce4bh192rcd13ifvqdc0","pricing_plan_id":"free"},{"bike_id":"e4d63120-3944-4413-9874-843f90bceae5","system_id":"levelo_inurba_marseille","lat":43.292569,"lon":5.409107,"is_reserved":false,"is_disabled":false,"rental_uris":{"android":"levelo://app?vid=e4d63120-3944-4413-9874-843f90bceae5","ios":"levelo://app?vid=e4d63120-3944-4413-9874-843f90bceae5"},"vehicle_type_id":"4","last_reported":1701968826,"current_range_meters":21200,"station_id":"ce4bh192rcd13ifvqdc0","pricing_plan_id":"free"},{"bike_id":"76b50045-e09d-45f5-a477-58c69bf9d002","system_id":"levelo_inurba_marseille","lat":43.292571,"lon":5.409107,"is_reserved":false,"is_disabled":false,"rental_uris":{"android":"levelo://app?vid=76b50045-e09d-45f5-a477-58c69bf9d002","ios":"levelo://app?vid=76b50045-e09d-45f5-a477-58c69bf9d002"},"vehicle_type_id":"4","last_reported":1701968826,"current_range_meters":27600,"station_id":"ce4bh192rcd13ifvqdc0","pricing_plan_id":"free"},{"bike_id":"fd8cd521-2ecb-4347-a21e-6daaea84ce3c","system_id":"levelo_inurba_marseille","lat":43.292569,"lon":5.409107,"is_reserved":false,"is_disabled":false,"rental_uris":{"android":"levelo://app?vid=fd8cd521-2ecb-4347-a21e-6daaea84ce3c","ios":"levelo://app?vid=fd8cd521-2ecb-4347-a21e-6daaea84ce3c"},"vehicle_type_id":"4","last_reported":1701968826,"current_range_meters":31600,"station_id":"ce4bh192rcd13ifvqdc0","pricing_plan_id":"free"},{"bike_id":"b69e29dc-913e-4adc-83e2-abcb1536e34e","system_id":"levelo_inurba_marseille","lat":43.27618,"lon":5.361009,"is_reserved":false,"is_disabled":false,"rental_uris":{"android":"levelo://app?vid=b69e29dc-913e-4adc-83e2-abcb1536e34e","ios":"levelo://app?vid=b69e29dc-913e-4adc-83e2-abcb1536e34e"},"vehicle_type_id":"4","last_reported":1701968826,"current_range_meters":6400,"station_id":"ce4bgj92rcd13ifvqbe0","pricing_plan_id":"free"},{"bike_id":"d71cdabe-1848-4e7f-82a3-1ca20bdbd7b9","system_id":"levelo_inurba_marseille","lat":43.276111,"lon":5.361118,"is_reserved":false,"is_disabled":false,"rental_uris":{"android":"levelo://app?vid=d71cdabe-1848-4e7f-82a3-1ca20bdbd7b9","ios":"levelo://app?vid=d71cdabe-1848-4e7f-82a3-1ca20bdbd7b9"},"vehicle_type_id":"4","last_reported":1701968826,"current_range_meters":11200,"station_id":"","pricing_plan_id":"free"},{"bike_id":"850d58e6-e581-4631-870b-3400b0d3bf60","system_id":"levelo_inurba_marseille","lat":43.28091,"lon":5.39677,"is_reserved":false,"is_disabled":false,"rental_uris":{"android":"levelo://app?vid=850d58e6-e581-4631-870b-3400b0d3bf60","ios":"levelo://app?vid=850d58e6-e581-4631-870b-3400b0d3bf60"},"vehicle_type_id":"4","last_reported":1701968826,"current_range_meters":11600,"station_id":"ce4bho12rcd13ifvqh2g","pricing_plan_id":"free"},{"bike_id":"6001a8a3-1715-4d67-ae24-1286ec7f5762","system_id":"levelo_inurba_marseille","lat":43.303837,"lon":5.418724,"is_reserved":false,"is_disabled":false,"rental_uris":{"android":"levelo://app?vid=6001a8a3-1715-4d67-ae24-1286ec7f5762","ios":"levelo://app?vid=6001a8a3-1715-4d67-ae24-1286ec7f5762"},"vehicle_type_id":"4","last_reported":1701968826,"current_range_meters":10000,"station_id":"ce4bhop2rcd13ifvqh7g","pricing_plan_id":"free"},{"bike_id":"696ddad4-dd2e-44bb-85fb-5829c68ce654","system_id":"levelo_inurba_marseille","lat":43.273609,"lon":5.362708,"is_reserved":false,"is_disabled":false,"rental_uris":{"android":"levelo://app?vid=696ddad4-dd2e-44bb-85fb-5829c68ce654","ios":"levelo://app?vid=696ddad4-dd2e-44bb-85fb-5829c68ce654"},"vehicle_type_id":"4","last_reported":1701968826,"current_range_meters":26000,"station_id":"ce4bhbh2rcd13ifvqeo0","pricing_plan_id":"free"},{"bike_id":"1959f083-b30b-45b4-9493-7609208fca2f","system_id":"levelo_inurba_marseille","lat":43.276769,"lon":5.388787,"is_reserved":false,"is_disabled":false,"rental_uris":{"android":"levelo://app?vid=1959f083-b30b-45b4-9493-7609208fca2f","ios":"levelo://app?vid=1959f083-b30b-45b4-9493-7609208fca2f"},"vehicle_type_id":"4","last_reported":1701968826,"current_range_meters":22800,"station_id":"ce4bhi12rcd13ifvqfo0","pricing_plan_id":"free"},{"bike_id":"876464a3-64d6-490f-8b66-340384d03407","system_id":"levelo_inurba_marseille","lat":43.340804,"lon":5.410219,"is_reserved":false,"is_disabled":false,"rental_uris":{"android":"levelo://app?vid=876464a3-64d6-490f-8b66-340384d03407","ios":"levelo://app?vid=876464a3-64d6-490f-8b66-340384d03407"},"vehicle_type_id":"4","last_reported":1701968826,"current_range_meters":24400,"station_id":"ce4bhqh2rcd13ifvqhlg","pricing_plan_id":"free"},{"bike_id":"2b7a6143-930a-48c7-926e-629d00d46bab","system_id":"levelo_inurba_marseille","lat":43.30413,"lon":5.42544,"is_reserved":false,"is_disabled":false,"rental_uris":{"android":"levelo://app?vid=2b7a6143-930a-48c7-926e-629d00d46bab","ios":"levelo://app?vid=2b7a6143-930a-48c7-926e-629d00d46bab"},"vehicle_type_id":"4","last_reported":1701968826,"current_range_meters":0,"station_id":"ce4bhoh2rcd13ifvqh6g","pricing_plan_id":"free"},{"bike_id":"244007ef-c228-4bba-82ec-d3e3635b2a31","system_id":"levelo_inurba_marseille","lat":43.29553,"lon":5.42302,"is_reserved":false,"is_disabled":false,"rental_uris":{"android":"levelo://app?vid=244007ef-c228-4bba-82ec-d3e3635b2a31","ios":"levelo://app?vid=244007ef-c228-4bba-82ec-d3e3635b2a31"},"vehicle_type_id":"4","last_reported":1701968826,"current_range_meters":6400,"station_id":"ce4bhph2rcd13ifvqhdg","pricing_plan_id":"free"},{"bike_id":"77e2df1b-d75a-48fe-a6ad-744dfbe91f1d","system_id":"levelo_inurba_marseille","lat":43.27214,"lon":5.3925,"is_reserved":false,"is_disabled":false,"rental_uris":{"android":"levelo://app?vid=77e2df1b-d75a-48fe-a6ad-744dfbe91f1d","ios":"levelo://app?vid=77e2df1b-d75a-48fe-a6ad-744dfbe91f1d"},"vehicle_type_id":"4","last_reported":1701968826,"current_range_meters":8800,"station_id":"","pricing_plan_id":"free"},{"bike_id":"92d93f79-ba02-4715-972f-8712ddf70d6c","system_id":"levelo_inurba_marseille","lat":43.278128,"lon":5.407195,"is_reserved":false,"is_disabled":false,"rental_uris":{"android":"levelo://app?vid=92d93f79-ba02-4715-972f-8712ddf70d6c","ios":"levelo://app?vid=92d93f79-ba02-4715-972f-8712ddf70d6c"},"vehicle_type_id":"4","last_reported":1701968826,"current_range_meters":20400,"station_id":"ce4bhnh2rcd13ifvqgtg","pricing_plan_id":"free"},{"bike_id":"19584510-c460-49fa-be3a-2da6263f375f","system_id":"levelo_inurba_marseille","lat":43.271388,"lon":5.409269,"is_reserved":false,"is_disabled":false,"rental_uris":{"android":"levelo://app?vid=19584510-c460-49fa-be3a-2da6263f375f","ios":"levelo://app?vid=19584510-c460-49fa-be3a-2da6263f375f"},"vehicle_type_id":"4","last_reported":1701968826,"current_range_meters":24800,"station_id":"ce4bhl12rcd13ifvqgf0","pricing_plan_id":"free"},{"bike_id":"8a8bc4d6-0029-4fbf-9728-a692a0316877","system_id":"levelo_inurba_marseille","lat":43.270103,"lon":5.392996,"is_reserved":false,"is_disabled":false,"rental_uris":{"android":"levelo://app?vid=8a8bc4d6-0029-4fbf-9728-a692a0316877","ios":"levelo://app?vid=8a8bc4d6-0029-4fbf-9728-a692a0316877"},"vehicle_type_id":"4","last_reported":1701968826,"current_range_meters":3200,"station_id":"","pricing_plan_id":"free"},{"bike_id":"56025748-ca63-40a9-9182-3cbbed981d76","system_id":"levelo_inurba_marseille","lat":43.26681,"lon":5.382694,"is_reserved":false,"is_disabled":false,"rental_uris":{"android":"levelo://app?vid=56025748-ca63-40a9-9182-3cbbed981d76","ios":"levelo://app?vid=56025748-ca63-40a9-9182-3cbbed981d76"},"vehicle_type_id":"4","last_reported":1701968826,"current_range_meters":0,"station_id":"ce4bhg92rcd13ifvqf90","pricing_plan_id":"free"},{"bike_id":"b3bad145-3ab4-4bd2-9bf5-01699fdf21cb","system_id":"levelo_inurba_marseille","lat":43.279881,"lon":5.416579,"is_reserved":false,"is_disabled":false,"rental_uris":{"android":"levelo://app?vid=b3bad145-3ab4-4bd2-9bf5-01699fdf21cb","ios":"levelo://app?vid=b3bad145-3ab4-4bd2-9bf5-01699fdf21cb"},"vehicle_type_id":"4","last_reported":1701968826,"current_range_meters":9200,"station_id":"ce4bho12rcd13ifvqh1g","pricing_plan_id":"free"},{"bike_id":"8fa8fa6a-61a8-4a88-b474-21e4ff95d63b","system_id":"levelo_inurba_marseille","lat":43.267966,"lon":5.393976,"is_reserved":false,"is_disabled":false,"rental_uris":{"android":"levelo://app?vid=8fa8fa6a-61a8-4a88-b474-21e4ff95d63b","ios":"levelo://app?vid=8fa8fa6a-61a8-4a88-b474-21e4ff95d63b"},"vehicle_type_id":"4","last_reported":1701968826,"current_range_meters":10000,"station_id":"ce4bhh12rcd13ifvqfg0","pricing_plan_id":"free"},{"bike_id":"5c62f0fe-2a68-4f0e-8c5e-1c3be35b64ff","system_id":"levelo_inurba_marseille","lat":43.29176,"lon":5.42793,"is_reserved":false,"is_disabled":false,"rental_uris":{"android":"levelo://app?vid=5c62f0fe-2a68-4f0e-8c5e-1c3be35b64ff","ios":"levelo://app?vid=5c62f0fe-2a68-4f0e-8c5e-1c3be35b64ff"},"vehicle_type_id":"4","last_reported":1701968826,"current_range_meters":14400,"station_id":"","pricing_plan_id":"free"},{"bike_id":"0ddc6a60-59d0-4e16-84d2-6d815ef9873e","system_id":"levelo_inurba_marseille","lat":43.308051,"lon":5.43527,"is_reserved":false,"is_disabled":false,"rental_uris":{"android":"levelo://app?vid=0ddc6a60-59d0-4e16-84d2-6d815ef9873e","ios":"levelo://app?vid=0ddc6a60-59d0-4e16-84d2-6d815ef9873e"},"vehicle_type_id":"4","last_reported":1701968826,"current_range_meters":27600,"station_id":"ce4bhph2rcd13ifvqheg","pricing_plan_id":"free"},{"bike_id":"c14fc43b-4e27-411f-b65d-d319b3191f29","system_id":"levelo_inurba_marseille","lat":43.2607,"lon":5.393983,"is_reserved":false,"is_disabled":false,"rental_uris":{"android":"levelo://app?vid=c14fc43b-4e27-411f-b65d-d319b3191f29","ios":"levelo://app?vid=c14fc43b-4e27-411f-b65d-d319b3191f29"},"vehicle_type_id":"4","last_reported":1701968826,"current_range_meters":23200,"station_id":"ce4bhh92rcd13ifvqfj0","pricing_plan_id":"free"},{"bike_id":"11f4ce89-c871-42cc-8926-578329f64433","system_id":"levelo_inurba_marseille","lat":43.26951,"lon":5.40256,"is_reserved":false,"is_disabled":false,"rental_uris":{"android":"levelo://app?vid=11f4ce89-c871-42cc-8926-578329f64433","ios":"levelo://app?vid=11f4ce89-c871-42cc-8926-578329f64433"},"vehicle_type_id":"4","last_reported":1701968826,"current_range_meters":8000,"station_id":"cjm6bp8fraef2m0cb0m0","pricing_plan_id":"free"},{"bike_id":"dbf3a4ee-76ce-4375-888b-b17b9b9b7805","system_id":"levelo_inurba_marseille","lat":43.2695,"lon":5.40257,"is_reserved":false,"is_disabled":false,"rental_uris":{"android":"levelo://app?vid=dbf3a4ee-76ce-4375-888b-b17b9b9b7805","ios":"levelo://app?vid=dbf3a4ee-76ce-4375-888b-b17b9b9b7805"},"vehicle_type_id":"4","last_reported":1701968826,"current_range_meters":21200,"station_id":"cjm6bp8fraef2m0cb0m0","pricing_plan_id":"free"},{"bike_id":"e8704b21-1a3e-476e-ad0e-e6e4e50a1ae2","system_id":"levelo_inurba_marseille","lat":43.26945,"lon":5.40258,"is_reserved":false,"is_disabled":false,"rental_uris":{"android":"levelo://app?vid=e8704b21-1a3e-476e-ad0e-e6e4e50a1ae2","ios":"levelo://app?vid=e8704b21-1a3e-476e-ad0e-e6e4e50a1ae2"},"vehicle_type_id":"4","last_reported":1701968826,"current_range_meters":12400,"station_id":"cjm6bp8fraef2m0cb0m0","pricing_plan_id":"free"},{"bike_id":"bf83d38a-55dd-4793-9b1d-35f0d91c4a37","system_id":"levelo_inurba_marseille","lat":43.317104,"lon":5.436818,"is_reserved":false,"is_disabled":false,"rental_uris":{"android":"levelo://app?vid=bf83d38a-55dd-4793-9b1d-35f0d91c4a37","ios":"levelo://app?vid=bf83d38a-55dd-4793-9b1d-35f0d91c4a37"},"vehicle_type_id":"4","last_reported":1701968826,"current_range_meters":7200,"station_id":"ce4bhp92rcd13ifvqhcg","pricing_plan_id":"free"},{"bike_id":"c1c633b1-949d-4123-8171-c197a14e353e","system_id":"levelo_inurba_marseille","lat":43.27183,"lon":5.40991,"is_reserved":false,"is_disabled":false,"rental_uris":{"android":"levelo://app?vid=c1c633b1-949d-4123-8171-c197a14e353e","ios":"levelo://app?vid=c1c633b1-949d-4123-8171-c197a14e353e"},"vehicle_type_id":"4","last_reported":1701968826,"current_range_meters":9600,"station_id":"ce4bhl12rcd13ifvqgf0","pricing_plan_id":"free"},{"bike_id":"ed3d39e3-16d0-4193-b5f3-7d15fa62181e","system_id":"levelo_inurba_marseille","lat":43.262012,"lon":5.379307,"is_reserved":false,"is_disabled":false,"rental_uris":{"android":"levelo://app?vid=ed3d39e3-16d0-4193-b5f3-7d15fa62181e","ios":"levelo://app?vid=ed3d39e3-16d0-4193-b5f3-7d15fa62181e"},"vehicle_type_id":"4","last_reported":1701968826,"current_range_meters":16800,"station_id":"ce4bhjp2rcd13ifvqg90","pricing_plan_id":"free"},{"bike_id":"dbb9a97d-c56a-48b7-9b75-2c6ff4ce76db","system_id":"levelo_inurba_marseille","lat":43.271388,"lon":5.409269,"is_reserved":false,"is_disabled":false,"rental_uris":{"android":"levelo://app?vid=dbb9a97d-c56a-48b7-9b75-2c6ff4ce76db","ios":"levelo://app?vid=dbb9a97d-c56a-48b7-9b75-2c6ff4ce76db"},"vehicle_type_id":"4","last_reported":1701968826,"current_range_meters":15600,"station_id":"ce4bhl12rcd13ifvqgf0","pricing_plan_id":"free"},{"bike_id":"5f4b8111-4912-4db6-acf7-d1017b5928ce","system_id":"levelo_inurba_marseille","lat":43.271368,"lon":5.40928,"is_reserved":false,"is_disabled":false,"rental_uris":{"android":"levelo://app?vid=5f4b8111-4912-4db6-acf7-d1017b5928ce","ios":"levelo://app?vid=5f4b8111-4912-4db6-acf7-d1017b5928ce"},"vehicle_type_id":"4","last_reported":1701968826,"current_range_meters":25200,"station_id":"ce4bhl12rcd13ifvqgf0","pricing_plan_id":"free"},{"bike_id":"26d41f51-f5a0-4f69-beca-46f0d64df0a6","system_id":"levelo_inurba_marseille","lat":43.31736,"lon":5.43793,"is_reserved":false,"is_disabled":false,"rental_uris":{"android":"levelo://app?vid=26d41f51-f5a0-4f69-beca-46f0d64df0a6","ios":"levelo://app?vid=26d41f51-f5a0-4f69-beca-46f0d64df0a6"},"vehicle_type_id":"4","last_reported":1701968826,"current_range_meters":2800,"station_id":"","pricing_plan_id":"free"},{"bike_id":"a5125499-1e18-4415-bbe5-5ab936f64e91","system_id":"levelo_inurba_marseille","lat":43.317613,"lon":5.438027,"is_reserved":false,"is_disabled":false,"rental_uris":{"android":"levelo://app?vid=a5125499-1e18-4415-bbe5-5ab936f64e91","ios":"levelo://app?vid=a5125499-1e18-4415-bbe5-5ab936f64e91"},"vehicle_type_id":"4","last_reported":1701968826,"current_range_meters":31200,"station_id":"","pricing_plan_id":"free"},{"bike_id":"4f68f183-a711-4386-a731-e8ea8e2f115e","system_id":"levelo_inurba_marseille","lat":43.298768,"lon":5.43643,"is_reserved":false,"is_disabled":false,"rental_uris":{"android":"levelo://app?vid=4f68f183-a711-4386-a731-e8ea8e2f115e","ios":"levelo://app?vid=4f68f183-a711-4386-a731-e8ea8e2f115e"},"vehicle_type_id":"4","last_reported":1701968826,"current_range_meters":26800,"station_id":"ce4bhpp2rcd13ifvqhfg","pricing_plan_id":"free"},{"bike_id":"83e2018e-7127-4415-8bbf-2e347a9c6750","system_id":"levelo_inurba_marseille","lat":43.29892,"lon":5.43664,"is_reserved":false,"is_disabled":false,"rental_uris":{"android":"levelo://app?vid=83e2018e-7127-4415-8bbf-2e347a9c6750","ios":"levelo://app?vid=83e2018e-7127-4415-8bbf-2e347a9c6750"},"vehicle_type_id":"4","last_reported":1701968826,"current_range_meters":7200,"station_id":"ce4bhpp2rcd13ifvqhfg","pricing_plan_id":"free"},{"bike_id":"ca4db8a8-5b98-4b78-bc3d-514f38028a3d","system_id":"levelo_inurba_marseille","lat":43.298768,"lon":5.43643,"is_reserved":false,"is_disabled":false,"rental_uris":{"android":"levelo://app?vid=ca4db8a8-5b98-4b78-bc3d-514f38028a3d","ios":"levelo://app?vid=ca4db8a8-5b98-4b78-bc3d-514f38028a3d"},"vehicle_type_id":"4","last_reported":1701968826,"current_range_meters":9600,"station_id":"ce4bhpp2rcd13ifvqhfg","pricing_plan_id":"free"},{"bike_id":"0a3af9fe-4495-4765-a364-07e789cdace4","system_id":"levelo_inurba_marseille","lat":43.298768,"lon":5.43643,"is_reserved":false,"is_disabled":false,"rental_uris":{"android":"levelo://app?vid=0a3af9fe-4495-4765-a364-07e789cdace4","ios":"levelo://app?vid=0a3af9fe-4495-4765-a364-07e789cdace4"},"vehicle_type_id":"4","last_reported":1701968826,"current_range_meters":26800,"station_id":"ce4bhpp2rcd13ifvqhfg","pricing_plan_id":"free"},{"bike_id":"78c6b650-d2ed-4585-8294-1e7f5b9a2691","system_id":"levelo_inurba_marseille","lat":43.281548,"lon":5.42643,"is_reserved":false,"is_disabled":false,"rental_uris":{"android":"levelo://app?vid=78c6b650-d2ed-4585-8294-1e7f5b9a2691","ios":"levelo://app?vid=78c6b650-d2ed-4585-8294-1e7f5b9a2691"},"vehicle_type_id":"4","last_reported":1701968826,"current_range_meters":6400,"station_id":"ce4bhnh2rcd13ifvqgug","pricing_plan_id":"free"},{"bike_id":"69101cc6-bf80-4640-9a9d-07d2ed7f1ed3","system_id":"levelo_inurba_marseille","lat":43.281548,"lon":5.42643,"is_reserved":false,"is_disabled":false,"rental_uris":{"android":"levelo://app?vid=69101cc6-bf80-4640-9a9d-07d2ed7f1ed3","ios":"levelo://app?vid=69101cc6-bf80-4640-9a9d-07d2ed7f1ed3"},"vehicle_type_id":"4","last_reported":1701968826,"current_range_meters":4800,"station_id":"ce4bhnh2rcd13ifvqgug","pricing_plan_id":"free"},{"bike_id":"c2edc354-3ba4-477d-8448-4ce787d4af44","system_id":"levelo_inurba_marseille","lat":43.281548,"lon":5.42643,"is_reserved":false,"is_disabled":false,"rental_uris":{"android":"levelo://app?vid=c2edc354-3ba4-477d-8448-4ce787d4af44","ios":"levelo://app?vid=c2edc354-3ba4-477d-8448-4ce787d4af44"},"vehicle_type_id":"4","last_reported":1701968826,"current_range_meters":30400,"station_id":"ce4bhnh2rcd13ifvqgug","pricing_plan_id":"free"},{"bike_id":"6c4a4127-c4de-4571-99d2-c4e93580765c","system_id":"levelo_inurba_marseille","lat":43.281548,"lon":5.42643,"is_reserved":false,"is_disabled":false,"rental_uris":{"android":"levelo://app?vid=6c4a4127-c4de-4571-99d2-c4e93580765c","ios":"levelo://app?vid=6c4a4127-c4de-4571-99d2-c4e93580765c"},"vehicle_type_id":"4","last_reported":1701968826,"current_range_meters":16000,"station_id":"ce4bhnh2rcd13ifvqgug","pricing_plan_id":"free"},{"bike_id":"b13d38ce-5f53-4fd8-a1c9-e1f1d0d516e7","system_id":"levelo_inurba_marseille","lat":43.281548,"lon":5.42643,"is_reserved":false,"is_disabled":false,"rental_uris":{"android":"levelo://app?vid=b13d38ce-5f53-4fd8-a1c9-e1f1d0d516e7","ios":"levelo://app?vid=b13d38ce-5f53-4fd8-a1c9-e1f1d0d516e7"},"vehicle_type_id":"4","last_reported":1701968826,"current_range_meters":24000,"station_id":"ce4bhnh2rcd13ifvqgug","pricing_plan_id":"free"},{"bike_id":"1751bdf2-66b5-4c3a-9691-b9490e972b61","system_id":"levelo_inurba_marseille","lat":43.281548,"lon":5.42643,"is_reserved":false,"is_disabled":false,"rental_uris":{"android":"levelo://app?vid=1751bdf2-66b5-4c3a-9691-b9490e972b61","ios":"levelo://app?vid=1751bdf2-66b5-4c3a-9691-b9490e972b61"},"vehicle_type_id":"4","last_reported":1701968826,"current_range_meters":26400,"station_id":"ce4bhnh2rcd13ifvqgug","pricing_plan_id":"free"},{"bike_id":"3d228cee-8a03-4247-9850-97f4cc1f9c59","system_id":"levelo_inurba_marseille","lat":43.2607,"lon":5.393983,"is_reserved":false,"is_disabled":false,"rental_uris":{"android":"levelo://app?vid=3d228cee-8a03-4247-9850-97f4cc1f9c59","ios":"levelo://app?vid=3d228cee-8a03-4247-9850-97f4cc1f9c59"},"vehicle_type_id":"4","last_reported":1701968826,"current_range_meters":10000,"station_id":"ce4bhh92rcd13ifvqfj0","pricing_plan_id":"free"},{"bike_id":"8de706ce-c796-45f1-aa9f-5738e1941748","system_id":"levelo_inurba_marseille","lat":43.2607,"lon":5.393983,"is_reserved":false,"is_disabled":false,"rental_uris":{"android":"levelo://app?vid=8de706ce-c796-45f1-aa9f-5738e1941748","ios":"levelo://app?vid=8de706ce-c796-45f1-aa9f-5738e1941748"},"vehicle_type_id":"4","last_reported":1701968826,"current_range_meters":0,"station_id":"ce4bhh92rcd13ifvqfj0","pricing_plan_id":"free"},{"bike_id":"7a21e5ef-01dc-4a1f-865a-4f3c002b5f8d","system_id":"levelo_inurba_marseille","lat":43.254947,"lon":5.376454,"is_reserved":false,"is_disabled":false,"rental_uris":{"android":"levelo://app?vid=7a21e5ef-01dc-4a1f-865a-4f3c002b5f8d","ios":"levelo://app?vid=7a21e5ef-01dc-4a1f-865a-4f3c002b5f8d"},"vehicle_type_id":"4","last_reported":1701968826,"current_range_meters":29600,"station_id":"ce4bhh12rcd13ifvqff0","pricing_plan_id":"free"},{"bike_id":"9ba545fa-7030-42a4-8756-179b9a4c15a8","system_id":"levelo_inurba_marseille","lat":43.254947,"lon":5.376454,"is_reserved":false,"is_disabled":false,"rental_uris":{"android":"levelo://app?vid=9ba545fa-7030-42a4-8756-179b9a4c15a8","ios":"levelo://app?vid=9ba545fa-7030-42a4-8756-179b9a4c15a8"},"vehicle_type_id":"4","last_reported":1701968826,"current_range_meters":4800,"station_id":"ce4bhh12rcd13ifvqff0","pricing_plan_id":"free"},{"bike_id":"87cb6371-ae97-4c02-9e83-24cc47114afa","system_id":"levelo_inurba_marseille","lat":43.254947,"lon":5.376454,"is_reserved":false,"is_disabled":false,"rental_uris":{"android":"levelo://app?vid=87cb6371-ae97-4c02-9e83-24cc47114afa","ios":"levelo://app?vid=87cb6371-ae97-4c02-9e83-24cc47114afa"},"vehicle_type_id":"4","last_reported":1701968826,"current_range_meters":26000,"station_id":"ce4bhh12rcd13ifvqff0","pricing_plan_id":"free"},{"bike_id":"015d8c26-9736-4fa4-b30a-f184921ae491","system_id":"levelo_inurba_marseille","lat":43.254947,"lon":5.376454,"is_reserved":false,"is_disabled":false,"rental_uris":{"android":"levelo://app?vid=015d8c26-9736-4fa4-b30a-f184921ae491","ios":"levelo://app?vid=015d8c26-9736-4fa4-b30a-f184921ae491"},"vehicle_type_id":"4","last_reported":1701968826,"current_range_meters":17600,"station_id":"ce4bhh12rcd13ifvqff0","pricing_plan_id":"free"},{"bike_id":"05ba737a-044d-49a0-b3df-df19aa6e3d24","system_id":"levelo_inurba_marseille","lat":43.258633,"lon":5.398955,"is_reserved":false,"is_disabled":false,"rental_uris":{"android":"levelo://app?vid=05ba737a-044d-49a0-b3df-df19aa6e3d24","ios":"levelo://app?vid=05ba737a-044d-49a0-b3df-df19aa6e3d24"},"vehicle_type_id":"4","last_reported":1701968826,"current_range_meters":0,"station_id":"","pricing_plan_id":"free"},{"bike_id":"dfbbe508-e82f-4b9b-8235-50101894da4b","system_id":"levelo_inurba_marseille","lat":43.257079,"lon":5.411051,"is_reserved":false,"is_disabled":false,"rental_uris":{"android":"levelo://app?vid=dfbbe508-e82f-4b9b-8235-50101894da4b","ios":"levelo://app?vid=dfbbe508-e82f-4b9b-8235-50101894da4b"},"vehicle_type_id":"4","last_reported":1701968826,"current_range_meters":21600,"station_id":"ce4bhkp2rcd13ifvqgd0","pricing_plan_id":"free"},{"bike_id":"8886fdc1-9a1b-4e38-bf9d-837cd7cd00b6","system_id":"levelo_inurba_marseille","lat":43.2793,"lon":5.44314,"is_reserved":false,"is_disabled":false,"rental_uris":{"android":"levelo://app?vid=8886fdc1-9a1b-4e38-bf9d-837cd7cd00b6","ios":"levelo://app?vid=8886fdc1-9a1b-4e38-bf9d-837cd7cd00b6"},"vehicle_type_id":"4","last_reported":1701968826,"current_range_meters":17600,"station_id":"","pricing_plan_id":"free"},{"bike_id":"89cbdb38-fc85-462f-ab61-3f14cb0bf193","system_id":"levelo_inurba_marseille","lat":43.25102,"lon":5.403214,"is_reserved":false,"is_disabled":false,"rental_uris":{"android":"levelo://app?vid=89cbdb38-fc85-462f-ab61-3f14cb0bf193","ios":"levelo://app?vid=89cbdb38-fc85-462f-ab61-3f14cb0bf193"},"vehicle_type_id":"4","last_reported":1701968826,"current_range_meters":14800,"station_id":"ce4bhlh2rcd13ifvqgig","pricing_plan_id":"free"},{"bike_id":"f730e9b4-2270-488f-9f80-495a5190f7b7","system_id":"levelo_inurba_marseille","lat":43.24693,"lon":5.382096,"is_reserved":false,"is_disabled":false,"rental_uris":{"android":"levelo://app?vid=f730e9b4-2270-488f-9f80-495a5190f7b7","ios":"levelo://app?vid=f730e9b4-2270-488f-9f80-495a5190f7b7"},"vehicle_type_id":"4","last_reported":1701968826,"current_range_meters":4000,"station_id":"ce4bhih2rcd13ifvqfr0","pricing_plan_id":"free"},{"bike_id":"1b636d97-c1f2-43ef-818b-35d7bd95036e","system_id":"levelo_inurba_marseille","lat":43.243884,"lon":5.370737,"is_reserved":false,"is_disabled":false,"rental_uris":{"android":"levelo://app?vid=1b636d97-c1f2-43ef-818b-35d7bd95036e","ios":"levelo://app?vid=1b636d97-c1f2-43ef-818b-35d7bd95036e"},"vehicle_type_id":"4","last_reported":1701968826,"current_range_meters":13600,"station_id":"ce4bhhh2rcd13ifvqfk0","pricing_plan_id":"free"},{"bike_id":"161c9418-29d7-46f0-bb0b-ec242c61a51f","system_id":"levelo_inurba_marseille","lat":43.245581,"lon":5.395069,"is_reserved":false,"is_disabled":false,"rental_uris":{"android":"levelo://app?vid=161c9418-29d7-46f0-bb0b-ec242c61a51f","ios":"levelo://app?vid=161c9418-29d7-46f0-bb0b-ec242c61a51f"},"vehicle_type_id":"4","last_reported":1701968826,"current_range_meters":29200,"station_id":"ce4bhlp2rcd13ifvqgjg","pricing_plan_id":"free"},{"bike_id":"7ece5855-fe49-46dd-ba3f-2d015925612a","system_id":"levelo_inurba_marseille","lat":43.239588,"lon":5.366238,"is_reserved":false,"is_disabled":false,"rental_uris":{"android":"levelo://app?vid=7ece5855-fe49-46dd-ba3f-2d015925612a","ios":"levelo://app?vid=7ece5855-fe49-46dd-ba3f-2d015925612a"},"vehicle_type_id":"4","last_reported":1701968826,"current_range_meters":29200,"station_id":"ce4bhi12rcd13ifvqfp0","pricing_plan_id":"free"},{"bike_id":"864f56b2-2ce9-4b00-8d3e-c7e21ebad15e","system_id":"levelo_inurba_marseille","lat":43.239588,"lon":5.366238,"is_reserved":false,"is_disabled":false,"rental_uris":{"android":"levelo://app?vid=864f56b2-2ce9-4b00-8d3e-c7e21ebad15e","ios":"levelo://app?vid=864f56b2-2ce9-4b00-8d3e-c7e21ebad15e"},"vehicle_type_id":"4","last_reported":1701968826,"current_range_meters":10400,"station_id":"ce4bhi12rcd13ifvqfp0","pricing_plan_id":"free"},{"bike_id":"1656cc4c-b9b8-48a5-a7ce-d878d4297ec9","system_id":"levelo_inurba_marseille","lat":43.23964,"lon":5.36623,"is_reserved":false,"is_disabled":false,"rental_uris":{"android":"levelo://app?vid=1656cc4c-b9b8-48a5-a7ce-d878d4297ec9","ios":"levelo://app?vid=1656cc4c-b9b8-48a5-a7ce-d878d4297ec9"},"vehicle_type_id":"4","last_reported":1701968826,"current_range_meters":27200,"station_id":"ce4bhi12rcd13ifvqfp0","pricing_plan_id":"free"},{"bike_id":"31f846e2-e6fa-4d94-990e-aa1a19a8ffdf","system_id":"levelo_inurba_marseille","lat":43.241782,"lon":5.397261,"is_reserved":false,"is_disabled":false,"rental_uris":{"android":"levelo://app?vid=31f846e2-e6fa-4d94-990e-aa1a19a8ffdf","ios":"levelo://app?vid=31f846e2-e6fa-4d94-990e-aa1a19a8ffdf"},"vehicle_type_id":"4","last_reported":1701968826,"current_range_meters":0,"station_id":"ce4bhn12rcd13ifvqgpg","pricing_plan_id":"free"},{"bike_id":"7fb0f437-2534-4c82-a071-a834d78df9bc","system_id":"levelo_inurba_marseille","lat":43.232094,"lon":5.355701,"is_reserved":false,"is_disabled":false,"rental_uris":{"android":"levelo://app?vid=7fb0f437-2534-4c82-a071-a834d78df9bc","ios":"levelo://app?vid=7fb0f437-2534-4c82-a071-a834d78df9bc"},"vehicle_type_id":"4","last_reported":1701968826,"current_range_meters":0,"station_id":"ce4bhu92rcd13ifvqi70","pricing_plan_id":"free"},{"bike_id":"7f38349e-7d25-4f3c-b1b1-9b8fde21589e","system_id":"levelo_inurba_marseille","lat":43.231919,"lon":5.355532,"is_reserved":false,"is_disabled":false,"rental_uris":{"android":"levelo://app?vid=7f38349e-7d25-4f3c-b1b1-9b8fde21589e","ios":"levelo://app?vid=7f38349e-7d25-4f3c-b1b1-9b8fde21589e"},"vehicle_type_id":"4","last_reported":1701968826,"current_range_meters":29200,"station_id":"ce4bhu92rcd13ifvqi70","pricing_plan_id":"free"},{"bike_id":"be845917-f52e-4a9f-83ff-909546a09332","system_id":"levelo_inurba_marseille","lat":43.231794,"lon":5.400052,"is_reserved":false,"is_disabled":false,"rental_uris":{"android":"levelo://app?vid=be845917-f52e-4a9f-83ff-909546a09332","ios":"levelo://app?vid=be845917-f52e-4a9f-83ff-909546a09332"},"vehicle_type_id":"4","last_reported":1701968826,"current_range_meters":22800,"station_id":"ce4bhn12rcd13ifvqgqg","pricing_plan_id":"free"},{"bike_id":"6c4620c0-0d4d-493f-9950-4fd3c4457696","system_id":"levelo_inurba_marseille","lat":43.231794,"lon":5.400052,"is_reserved":false,"is_disabled":false,"rental_uris":{"android":"levelo://app?vid=6c4620c0-0d4d-493f-9950-4fd3c4457696","ios":"levelo://app?vid=6c4620c0-0d4d-493f-9950-4fd3c4457696"},"vehicle_type_id":"4","last_reported":1701968826,"current_range_meters":30400,"station_id":"ce4bhn12rcd13ifvqgqg","pricing_plan_id":"free"}]}}