{"last_updated":1733522952,"ttl":60,"version":"2.2","data":{"bikes":[{"bike_id":"c8756871-db35-4a3b-b691-d98d2619e332","system_id":"levelo_inurba_marseille","lat":43.23148,"lon":5.43721,"is_reserved":false,"is_disabled":false,"rental_uris":{"android":"levelo://app?vid=c8756871-db35-4a3b-b691-d98d2619e332","ios":"levelo://app?vid=c8756871-db35-4a3b-b691-d98d2619e332"},"vehicle_type_id":"4","last_reported":1733522953,"current_range_meters":38800,"station_id":"ce4bhmp2rcd13ifvqgog","pricing_plan_id":"cebpf4jnsgd1na2vs0mg"},{"bike_id":"e5ed393d-565f-4e3e-9eba-beea5ba643bf","system_id":"levelo_inurba_marseille","lat":43.29421,"lon":5.38615,"is_reserved":false,"is_disabled":false,"rental_uris":{"android":"levelo://app?vid=e5ed393d-565f-4e3e-9eba-beea5ba643bf","ios":"levelo://app?vid=e5ed393d-565f-4e3e-9eba-beea5ba643bf"},"vehicle_type_id":"4","last_reported":1733522953,"current_range_meters":14800,"station_id":"ce4bh2h2rcd13ifvqdh0","pricing_plan_id":"cebpf4jnsgd1na2vs0mg"},{"bike_id":"df479c2c-35ac-44ad-b9d6-81c89ed769ce","system_id":"levelo_inurba_marseille","lat":43.29699,"lon":5.37054,"is_reserved":false,"is_disabled":true,"rental_uris":{"android":"levelo://app?vid=df479c2c-35ac-44ad-b9d6-81c89ed769ce","ios":"levelo://app?vid=df479c2c-35ac-44ad-b9d6-81c89ed769ce"},"vehicle_type_id":"4","last_reported":1733522953,"current_range_meters":0,"station_id":"","pricing_plan_id":"cebpf4jnsgd1na2vs0mg"},{"bike_id":"8e029eaf-e104-4c5d-858d-6cd39de73d09","system_id":"levelo_inurba_marseille","lat":43.24167,"lon":5.3638,"is_reserved":false,"is_disabled":false,"rental_uris":{"android":"levelo://app?vid=8e029eaf-e104-4c5d-858d-6cd39de73d09","ios":"levelo://app?vid=8e029eaf-e104-4c5d-858d-6cd39de73d09"},"vehicle_type_id":"4","last_reported":1733522953,"current_range_meters":34800,"station_id":"cpo36qri1sfpv3e86is0","pricing_plan_id":"cebpf4jnsgd1na2vs0mg"},{"bike_id":"38d7b96b-ea49-42ac-9547-ee57fecfb84c","system_id":"levelo_inurba_marseille","lat":43.28151,"lon":5.42638,"is_reserved":false,"is_disabled":false,"rental_uris":{"android":"levelo://app?vid=38d7b96b-ea49-42ac-9547-ee57fecfb84c","ios":"levelo://app?vid=38d7b96b-ea49-42ac-9547-ee57fecfb84c"},"vehicle_type_id":"4","last_reported":1733522953,"current_range_meters":28400,"station_id":"ce4bhnh2rcd13ifvqgug","pricing_plan_id":"cebpf4jnsgd1na2vs0mg"},{"bike_id":"b1b358a9-909a-41b5-9d50-574e97fa9ae5","system_id":"levelo_inurba_marseille","lat":43.33609,"lon":5.41001,"is_reserved":false,"is_disabled":false,"rental_uris":{"android":"levelo://app?vid=b1b358a9-909a-41b5-9d50-574e97fa9ae5","ios":"levelo://app?vid=b1b358a9-909a-41b5-9d50-574e97fa9ae5"},"vehicle_type_id":"4","last_reported":1733522953,"current_range_meters":38800,"station_id":"ce4bhqh2rcd13ifvqhmg","pricing_plan_id":"cebpf4jnsgd1na2vs0mg"},{"bike_id":"e769c640-1551-42cd-a5ae-d69865fa3dca","system_id":"levelo_inurba_marseille","lat":43.28923,"lon":5.384,"is_reserved":false,"is_disabled":false,"rental_uris":{"android":"levelo://app?vid=e769c640-1551-42cd-a5ae-d69865fa3dca","ios":"levelo://app?vid=e769c640-1551-42cd-a5ae-d69865fa3dca"},"vehicle_type_id":"4","last_reported":1733522953,"current_range_meters":27600,"station_id":"ce4bh612rcd13ifvqe6g","pricing_plan_id":"cebpf4jnsgd1na2vs0mg"},{"bike_id":"344f5c70-0f85-4aa1-9fae-600bb9b19059","system_id":"levelo_inurba_marseille","lat":43.30142,"lon":5.39877,"is_reserved":false,"is_disabled":true,"rental_uris":{"android":"levelo://app?vid=344f5c70-0f85-4aa1-9fae-600bb9b19059","ios":"levelo://app?vid=344f5c70-0f85-4aa1-9fae-600bb9b19059"},"vehicle_type_id":"4","last_reported":1733522953,"current_range_meters":0,"station_id":"ce4bh0h2rcd13ifvqd40","pricing_plan_id":"cebpf4jnsgd1na2vs0mg"},{"bike_id":"0351a6f5-fa2c-43f4-b93f-29fbb0943695","system_id":"levelo_inurba_marseille","lat":43.2866,"lon":5.36351,"is_reserved":false,"is_disabled":false,"rental_uris":{"android":"levelo://app?vid=0351a6f5-fa2c-43f4-b93f-29fbb0943695","ios":"levelo://app?vid=0351a6f5-fa2c-43f4-b93f-29fbb0943695"},"vehicle_type_id":"4","last_reported":1733522953,"current_range_meters":17600,"station_id":"ce4bhah2rcd13ifvqej0","pricing_plan_id":"cebpf4jnsgd1na2vs0mg"},{"bike_id":"be407bbe-d1ce-48de-8db2-09114af9efd7","system_id":"levelo_inurba_marseille","lat":43.32367,"lon":5.36768,"is_reserved":false,"is_disabled":false,"rental_uris":{"android":"levelo://app?vid=be407bbe-d1ce-48de-8db2-09114af9efd7","ios":"levelo://app?vid=be407bbe-d1ce-48de-8db2-09114af9efd7"},"vehicle_type_id":"4","last_reported":1733522953,"current_range_meters":22800,"station_id":"ce4bhsh2rcd13ifvqi2g","pricing_plan_id":"cebpf4jnsgd1na2vs0mg"},{"bike_id":"8b3071ab-5472-4b84-a0a6-04e190cd77f5","system_id":"levelo_inurba_marseille","lat":43.25118,"lon":5.40325,"is_reserved":false,"is_disabled":false,"rental_uris":{"android":"levelo://app?vid=8b3071ab-5472-4b84-a0a6-04e190cd77f5","ios":"levelo://app?vid=8b3071ab-5472-4b84-a0a6-04e190cd77f5"},"vehicle_type_id":"4","last_reported":1733522953,"current_range_meters":26800,"station_id":"ce4bhlh2rcd13ifvqgig","pricing_plan_id":"cebpf4jnsgd1na2vs0mg"},{"bike_id":"5fd8fda4-5ceb-4e39-b9f4-ea27acda2ce7","system_id":"levelo_inurba_marseille","lat":43.27188,"lon":5.40999,"is_reserved":false,"is_disabled":true,"rental_uris":{"android":"levelo://app?vid=5fd8fda4-5ceb-4e39-b9f4-ea27acda2ce7","ios":"levelo://app?vid=5fd8fda4-5ceb-4e39-b9f4-ea27acda2ce7"},"vehicle_type_id":"4","last_reported":1733522953,"current_range_meters":24800,"station_id":"ce4bhl12rcd13ifvqgf0","pricing_plan_id":"cebpf4jnsgd1na2vs0mg"},{"bike_id":"239545fa-9791-4d6a-8944-4633fd27845c","system_id":"levelo_inurba_marseille","lat":43.33025,"lon":5.39039,"is_reserved":false,"is_disabled":false,"rental_uris":{"android":"levelo://app?vid=239545fa-9791-4d6a-8944-4633fd27845c","ios":"levelo://app?vid=239545fa-9791-4d6a-8944-4633fd27845c"},"vehicle_type_id":"4","last_reported":1733522953,"current_range_meters":38000,"station_id":"ce4bhr92rcd13ifvqhrg","pricing_plan_id":"cebpf4jnsgd1na2vs0mg"},{"bike_id":"8bd642b2-0279-44c7-9ee2-fc3b57332c83","system_id":"levelo_inurba_marseille","lat":43.27455,"lon":5.40073,"is_reserved":false,"is_disabled":true,"rental_uris":{"android":"levelo://app?vid=8bd642b2-0279-44c7-9ee2-fc3b57332c83","ios":"levelo://app?vid=8bd642b2-0279-44c7-9ee2-fc3b57332c83"},"vehicle_type_id":"4","last_reported":1733522953,"current_range_meters":0,"station_id":"","pricing_plan_id":"cebpf4jnsgd1na2vs0mg"},{"bike_id":"06b0db46-e569-43e6-8296-5dbf27333789","system_id":"levelo_inurba_marseille","lat":43.28619,"lon":5.351,"is_reserved":false,"is_disabled":false,"rental_uris":{"android":"levelo://app?vid=06b0db46-e569-43e6-8296-5dbf27333789","ios":"levelo://app?vid=06b0db46-e569-43e6-8296-5dbf27333789"},"vehicle_type_id":"4","last_reported":1733522953,"current_range_meters":38000,"station_id":"ce4bhch2rcd13ifvqeug","pricing_plan_id":"cebpf4jnsgd1na2vs0mg"},{"bike_id":"d74af636-6579-4ab4-b1fa-425c22675376","system_id":"levelo_inurba_marseille","lat":43.29914,"lon":5.3741,"is_reserved":false,"is_disabled":false,"rental_uris":{"android":"levelo://app?vid=d74af636-6579-4ab4-b1fa-425c22675376","ios":"levelo://app?vid=d74af636-6579-4ab4-b1fa-425c22675376"},"vehicle_type_id":"4","last_reported":1733522953,"current_range_meters":5600,"station_id":"","pricing_plan_id":"cebpf4jnsgd1na2vs0mg"},{"bike_id":"7cb89a90-6fcf-41b6-93aa-7dc335325503","system_id":"levelo_inurba_marseille","lat":43.29283,"lon":5.4012,"is_reserved":false,"is_disabled":false,"rental_uris":{"android":"levelo://app?vid=7cb89a90-6fcf-41b6-93aa-7dc335325503","ios":"levelo://app?vid=7cb89a90-6fcf-41b6-93aa-7dc335325503"},"vehicle_type_id":"4","last_reported":1733522953,"current_range_meters":18800,"station_id":"ce4bh312rcd13ifvqdk0","pricing_plan_id":"cebpf4jnsgd1na2vs0mg"},{"bike_id":"2400544c-1704-4a94-9add-0ef061ffa101","system_id":"levelo_inurba_marseille","lat":43.28722,"lon":5.37942,"is_reserved":false,"is_disabled":false,"rental_uris":{"android":"levelo://app?vid=2400544c-1704-4a94-9add-0ef061ffa101","ios":"levelo://app?vid=2400544c-1704-4a94-9add-0ef061ffa101"},"vehicle_type_id":"4","last_reported":1733522953,"current_range_meters":38800,"station_id":"ce4bh9p2rcd13ifvqec0","pricing_plan_id":"cebpf4jnsgd1na2vs0mg"},{"bike_id":"997ca4c6-4b37-45b7-b4c8-d3246d03ecc3","system_id":"levelo_inurba_marseille","lat":43.2354,"lon":5.3799,"is_reserved":false,"is_disabled":true,"rental_uris":{"android":"levelo://app?vid=997ca4c6-4b37-45b7-b4c8-d3246d03ecc3","ios":"levelo://app?vid=997ca4c6-4b37-45b7-b4c8-d3246d03ecc3"},"vehicle_type_id":"4","last_reported":1733522953,"current_range_meters":0,"station_id":"","pricing_plan_id":"cebpf4jnsgd1na2vs0mg"},{"bike_id":"5a8fd8e2-7879-4b58-9148-07b70cbb11c4","system_id":"levelo_inurba_marseille","lat":43.25868,"lon":5.39882,"is_reserved":false,"is_disabled":false,"rental_uris":{"android":"levelo://app?vid=5a8fd8e2-7879-4b58-9148-07b70cbb11c4","ios":"levelo://app?vid=5a8fd8e2-7879-4b58-9148-07b70cbb11c4"},"vehicle_type_id":"4","last_reported":1733522953,"current_range_meters":35200,"station_id":"ce4bhl92rcd13ifvqghg","pricing_plan_id":"cebpf4jnsgd1na2vs0mg"},{"bike_id":"80532cb4-159b-4e7a-a712-21a3b6a1f459","system_id":"levelo_inurba_marseille","lat":43.3248,"lon":5.36562,"is_reserved":false,"is_disabled":false,"rental_uris":{"android":"levelo://app?vid=80532cb4-159b-4e7a-a712-21a3b6a1f459","ios":"levelo://app?vid=80532cb4-159b-4e7a-a712-21a3b6a1f459"},"vehicle_type_id":"4","last_reported":1733522953,"current_range_meters":18000,"station_id":"ce4bhs12rcd13ifvqhvg","pricing_plan_id":"cebpf4jnsgd1na2vs0mg"},{"bike_id":"650aedbd-7fe9-41b2-ab79-4b8450652642","system_id":"levelo_inurba_marseille","lat":43.29189,"lon":5.35803,"is_reserved":false,"is_disabled":true,"rental_uris":{"android":"levelo://app?vid=650aedbd-7fe9-41b2-ab79-4b8450652642","ios":"levelo://app?vid=650aedbd-7fe9-41b2-ab79-4b8450652642"},"vehicle_type_id":"4","last_reported":1733522953,"current_range_meters":14400,"station_id":"ce4bhb12rcd13ifvqel0","pricing_plan_id":"cebpf4jnsgd1na2vs0mg"},{"bike_id":"326b98f2-9177-4469-806e-41793ee3976d","system_id":"levelo_inurba_marseille","lat":43.29254,"lon":5.38436,"is_reserved":false,"is_disabled":false,"rental_uris":{"android":"levelo://app?vid=326b98f2-9177-4469-806e-41793ee3976d","ios":"levelo://app?vid=326b98f2-9177-4469-806e-41793ee3976d"},"vehicle_type_id":"4","last_reported":1733522953,"current_range_meters":16000,"station_id":"ce4bh692rcd13ifvqea0","pricing_plan_id":"cebpf4jnsgd1na2vs0mg"},{"bike_id":"479889bf-dbf3-4abb-926f-bf7556951acc","system_id":"levelo_inurba_marseille","lat":43.29897,"lon":5.43673,"is_reserved":false,"is_disabled":false,"rental_uris":{"android":"levelo://app?vid=479889bf-dbf3-4abb-926f-bf7556951acc","ios":"levelo://app?vid=479889bf-dbf3-4abb-926f-bf7556951acc"},"vehicle_type_id":"4","last_reported":1733522953,"current_range_meters":9600,"station_id":"ce4bhpp2rcd13ifvqhfg","pricing_plan_id":"cebpf4jnsgd1na2vs0mg"},{"bike_id":"b3f478ac-3b05-4edf-bdbf-76399090f8e9","system_id":"levelo_inurba_marseille","lat":43.29994,"lon":5.37639,"is_reserved":false,"is_disabled":true,"rental_uris":{"android":"levelo://app?vid=b3f478ac-3b05-4edf-bdbf-76399090f8e9","ios":"levelo://app?vid=b3f478ac-3b05-4edf-bdbf-76399090f8e9"},"vehicle_type_id":"4","last_reported":1733522953,"current_range_meters":0,"station_id":"","pricing_plan_id":"cebpf4jnsgd1na2vs0mg"},{"bike_id":"fdc62a63-5355-4bd1-a06c-e6106eb23903","system_id":"levelo_inurba_marseille","lat":43.23958,"lon":5.36634,"is_reserved":false,"is_disabled":false,"rental_uris":{"android":"levelo://app?vid=fdc62a63-5355-4bd1-a06c-e6106eb23903","ios":"levelo://app?vid=fdc62a63-5355-4bd1-a06c-e6106eb23903"},"vehicle_type_id":"4","last_reported":1733522953,"current_range_meters":7200,"station_id":"ce4bhi12rcd13ifvqfp0","pricing_plan_id":"cebpf4jnsgd1na2vs0mg"},{"bike_id":"672a4ba1-43a6-4f65-850d-eefc00eb97a8","system_id":"levelo_inurba_marseille","lat":43.30535,"lon":5.36547,"is_reserved":false,"is_disabled":false,"rental_uris":{"android":"levelo://app?vid=672a4ba1-43a6-4f65-850d-eefc00eb97a8","ios":"levelo://app?vid=672a4ba1-43a6-4f65-850d-eefc00eb97a8"},"vehicle_type_id":"4","last_reported":1733522953,"current_range_meters":9600,"station_id":"ce4bgs12rcd13ifvqcag","pricing_plan_id":"cebpf4jnsgd1na2vs0mg"},{"bike_id":"89ceac00-2c22-4cb1-b85d-583fccdb788b","system_id":"levelo_inurba_marseille","lat":43.321059,"lon":5.367708,"is_reserved":false,"is_disabled":false,"rental_uris":{"android":"levelo://app?vid=89ceac00-2c22-4cb1-b85d-583fccdb788b","ios":"levelo://app?vid=89ceac00-2c22-4cb1-b85d-583fccdb788b"},"vehicle_type_id":"4","last_reported":1733522953,"current_range_meters":20800,"station_id":"ce4bhrh2rcd13ifvqhug","pricing_plan_id":"cebpf4jnsgd1na2vs0mg"},{"bike_id":"01ea66f0-0408-48da-a1f2-c28d34e1072c","system_id":"levelo_inurba_marseille","lat":43.32337,"lon":5.40623,"is_reserved":false,"is_disabled":false,"rental_uris":{"android":"levelo://app?vid=01ea66f0-0408-48da-a1f2-c28d34e1072c","ios":"levelo://app?vid=01ea66f0-0408-48da-a1f2-c28d34e1072c"},"vehicle_type_id":"4","last_reported":1733522953,"current_range_meters":38800,"station_id":"ce4bhq92rcd13ifvqhjg","pricing_plan_id":"cebpf4jnsgd1na2vs0mg"},{"bike_id":"7b9afe63-d59c-47db-8bf5-f22d333dd41a","system_id":"levelo_inurba_marseille","lat":43.28856,"lon":5.35856,"is_reserved":false,"is_disabled":false,"rental_uris":{"android":"levelo://app?vid=7b9afe63-d59c-47db-8bf5-f22d333dd41a","ios":"levelo://app?vid=7b9afe63-d59c-47db-8bf5-f22d333dd41a"},"vehicle_type_id":"4","last_reported":1733522953,"current_range_meters":16800,"station_id":"ce4bhb12rcd13ifvqem0","pricing_plan_id":"cebpf4jnsgd1na2vs0mg"},{"bike_id":"786b3983-4353-4c6b-b2a2-4c074e4b7adb","system_id":"levelo_inurba_marseille","lat":43.31708,"lon":5.43709,"is_reserved":false,"is_disabled":true,"rental_uris":{"android":"levelo://app?vid=786b3983-4353-4c6b-b2a2-4c074e4b7adb","ios":"levelo://app?vid=786b3983-4353-4c6b-b2a2-4c074e4b7adb"},"vehicle_type_id":"4","last_reported":1733522953,"current_range_meters":0,"station_id":"ce4bhp92rcd13ifvqhcg","pricing_plan_id":"cebpf4jnsgd1na2vs0mg"},{"bike_id":"9111acf6-e227-430f-9f0e-1678a4016706","system_id":"levelo_inurba_marseille","lat":43.30791,"lon":5.37651,"is_reserved":false,"is_disabled":false,"rental_uris":{"android":"levelo://app?vid=9111acf6-e227-430f-9f0e-1678a4016706","ios":"levelo://app?vid=9111acf6-e227-430f-9f0e-1678a4016706"},"vehicle_type_id":"4","last_reported":1733522953,"current_range_meters":21600,"station_id":"ce4bgv92rcd13ifvqcq0","pricing_plan_id":"cebpf4jnsgd1na2vs0mg"},{"bike_id":"938640b4-f78c-4def-9b16-e6205edb88bc","system_id":"levelo_inurba_marseille","lat":43.28151,"lon":5.42642,"is_reserved":false,"is_disabled":true,"rental_uris":{"android":"levelo://app?vid=938640b4-f78c-4def-9b16-e6205edb88bc","ios":"levelo://app?vid=938640b4-f78c-4def-9b16-e6205edb88bc"},"vehicle_type_id":"4","last_reported":1733522953,"current_range_meters":19200,"station_id":"ce4bhnh2rcd13ifvqgug","pricing_plan_id":"cebpf4jnsgd1na2vs0mg"},{"bike_id":"6f9d32a5-9ec9-4309-9464-608c29d2fea1","system_id":"levelo_inurba_marseille","lat":43.3127,"lon":5.40167,"is_reserved":false,"is_disabled":false,"rental_uris":{"android":"levelo://app?vid=6f9d32a5-9ec9-4309-9464-608c29d2fea1","ios":"levelo://app?vid=6f9d32a5-9ec9-4309-9464-608c29d2fea1"},"vehicle_type_id":"4","last_reported":1733522953,"current_range_meters":38000,"station_id":"ce4bh092rcd13ifvqd30","pricing_plan_id":"cebpf4jnsgd1na2vs0mg"},{"bike_id":"c68093c4-dc1e-4628-81d0-f9e948ab3f75","system_id":"levelo_inurba_marseille","lat":43.275,"lon":5.42446,"is_reserved":false,"is_disabled":false,"rental_uris":{"android":"levelo://app?vid=c68093c4-dc1e-4628-81d0-f9e948ab3f75","ios":"levelo://app?vid=c68093c4-dc1e-4628-81d0-f9e948ab3f75"},"vehicle_type_id":"4","last_reported":1733522953,"current_range_meters":36400,"station_id":"ce4bhn92rcd13ifvqgrg","pricing_plan_id":"cebpf4jnsgd1na2vs0mg"},{"bike_id":"0d76dbf6-5e40-455b-a0e6-70fb0b70c5f9","system_id":"levelo_inurba_marseille","lat":43.32362,"lon":5.38884,"is_reserved":false,"is_disabled":false,"rental_uris":{"android":"levelo://app?vid=0d76dbf6-5e40-455b-a0e6-70fb0b70c5f9","ios":"levelo://app?vid=0d76dbf6-5e40-455b-a0e6-70fb0b70c5f9"},"vehicle_type_id":"4","last_reported":1733522953,"current_range_meters":35200,"station_id":"ce4bhqp2rcd13ifvqhog","pricing_plan_id":"cebpf4jnsgd1na2vs0mg"},{"bike_id":"2cedb421-0da1-457b-ab9c-784436698a0a","system_id":"levelo_inurba_marseille","lat":43.28712,"lon":5.40001,"is_reserved":false,"is_disabled":false,"rental_uris":{"android":"levelo://app?vid=2cedb421-0da1-457b-ab9c-784436698a0a","ios":"levelo://app?vid=2cedb421-0da1-457b-ab9c-784436698a0a"},"vehicle_type_id":"4","last_reported":1733522953,"current_range_meters":32400,"station_id":"ce4bho92rcd13ifvqh3g","pricing_plan_id":"cebpf4jnsgd1na2vs0mg"},{"bike_id":"2f3968e7-9336-4ee4-ba78-8e92c0a818cc","system_id":"levelo_inurba_marseille","lat":43.31322,"lon":5.36647,"is_reserved":false,"is_disabled":true,"rental_uris":{"android":"levelo://app?vid=2f3968e7-9336-4ee4-ba78-8e92c0a818cc","ios":"levelo://app?vid=2f3968e7-9336-4ee4-ba78-8e92c0a818cc"},"vehicle_type_id":"4","last_reported":1733522953,"current_range_meters":0,"station_id":"","pricing_plan_id":"cebpf4jnsgd1na2vs0mg"},{"bike_id":"5ebc19a5-4eab-4ea6-b558-b6d986ab3c2e","system_id":"levelo_inurba_marseille","lat":43.24651,"lon":5.38896,"is_reserved":false,"is_disabled":false,"rental_uris":{"android":"levelo://app?vid=5ebc19a5-4eab-4ea6-b558-b6d986ab3c2e","ios":"levelo://app?vid=5ebc19a5-4eab-4ea6-b558-b6d986ab3c2e"},"vehicle_type_id":"4","last_reported":1733522953,"current_range_meters":35200,"station_id":"ce4bhg12rcd13ifvqf60","pricing_plan_id":"cebpf4jnsgd1na2vs0mg"},{"bike_id":"1af73d12-007b-4323-a123-cb92ce26c75b","system_id":"levelo_inurba_marseille","lat":43.23188,"lon":5.39983,"is_reserved":false,"is_disabled":false,"rental_uris":{"android":"levelo://app?vid=1af73d12-007b-4323-a123-cb92ce26c75b","ios":"levelo://app?vid=1af73d12-007b-4323-a123-cb92ce26c75b"},"vehicle_type_id":"4","last_reported":1733522953,"current_range_meters":38800,"station_id":"ce4bhn12rcd13ifvqgqg","pricing_plan_id":"cebpf4jnsgd1na2vs0mg"},{"bike_id":"95e8faa4-9228-49ad-8cde-d6d446fa8866","system_id":"levelo_inurba_marseille","lat":43.286678,"lon":5.38669,"is_reserved":false,"is_disabled":false,"rental_uris":{"android":"levelo://app?vid=95e8faa4-9228-49ad-8cde-d6d446fa8866","ios":"levelo://app?vid=95e8faa4-9228-49ad-8cde-d6d446fa8866"},"vehicle_type_id":"4","last_reported":1733522953,"current_range_meters":23200,"station_id":"ce4bh492rcd13ifvqdug","pricing_plan_id":"cebpf4jnsgd1na2vs0mg"},{"bike_id":"5ac6f8d7-e2c4-4a00-b789-9917e3ddc96d","system_id":"levelo_inurba_marseille","lat":43.29859,"lon":5.42063,"is_reserved":false,"is_disabled":false,"rental_uris":{"android":"levelo://app?vid=5ac6f8d7-e2c4-4a00-b789-9917e3ddc96d","ios":"levelo://app?vid=5ac6f8d7-e2c4-4a00-b789-9917e3ddc96d"},"vehicle_type_id":"4","last_reported":1733522953,"current_range_meters":26000,"station_id":"","pricing_plan_id":"cebpf4jnsgd1na2vs0mg"},{"bike_id":"b07a6fe6-5e2e-45e3-ba4f-24c9a68ae073","system_id":"levelo_inurba_marseille","lat":43.27993,"lon":5.41668,"is_reserved":false,"is_disabled":false,"rental_uris":{"android":"levelo://app?vid=b07a6fe6-5e2e-45e3-ba4f-24c9a68ae073","ios":"levelo://app?vid=b07a6fe6-5e2e-45e3-ba4f-24c9a68ae073"},"vehicle_type_id":"4","last_reported":1733522953,"current_range_meters":21600,"station_id":"ce4bho12rcd13ifvqh1g","pricing_plan_id":"cebpf4jnsgd1na2vs0mg"},{"bike_id":"636a717a-7652-4041-a603-85f39223fa4c","system_id":"levelo_inurba_marseille","lat":43.25092,"lon":5.39528,"is_reserved":false,"is_disabled":false,"rental_uris":{"android":"levelo://app?vid=636a717a-7652-4041-a603-85f39223fa4c","ios":"levelo://app?vid=636a717a-7652-4041-a603-85f39223fa4c"},"vehicle_type_id":"4","last_reported":1733522953,"current_range_meters":19600,"station_id":"ce4bhm12rcd13ifvqgkg","pricing_plan_id":"cebpf4jnsgd1na2vs0mg"},{"bike_id":"167b24a7-d2dd-4efb-9ec3-cf3300718a2b","system_id":"levelo_inurba_marseille","lat":43.292707,"lon":5.401043,"is_reserved":false,"is_disabled":false,"rental_uris":{"android":"levelo://app?vid=167b24a7-d2dd-4efb-9ec3-cf3300718a2b","ios":"levelo://app?vid=167b24a7-d2dd-4efb-9ec3-cf3300718a2b"},"vehicle_type_id":"4","last_reported":1733522953,"current_range_meters":38000,"station_id":"ce4bh312rcd13ifvqdk0","pricing_plan_id":"cebpf4jnsgd1na2vs0mg"},{"bike_id":"72b33554-99fd-4820-b9cc-9d70cd22dabc","system_id":"levelo_inurba_marseille","lat":43.29597,"lon":5.38102,"is_reserved":false,"is_disabled":false,"rental_uris":{"android":"levelo://app?vid=72b33554-99fd-4820-b9cc-9d70cd22dabc","ios":"levelo://app?vid=72b33554-99fd-4820-b9cc-9d70cd22dabc"},"vehicle_type_id":"4","last_reported":1733522953,"current_range_meters":38800,"station_id":"ce4bgl12rcd13ifvqbo0","pricing_plan_id":"cebpf4jnsgd1na2vs0mg"},{"bike_id":"bb958cbb-2a35-4126-a433-c8f8fcc27a5e","system_id":"levelo_inurba_marseille","lat":43.26212,"lon":5.37446,"is_reserved":false,"is_disabled":false,"rental_uris":{"android":"levelo://app?vid=bb958cbb-2a35-4126-a433-c8f8fcc27a5e","ios":"levelo://app?vid=bb958cbb-2a35-4126-a433-c8f8fcc27a5e"},"vehicle_type_id":"4","last_reported":1733522953,"current_range_meters":38800,"station_id":"ce4bhgp2rcd13ifvqfc0","pricing_plan_id":"cebpf4jnsgd1na2vs0mg"},{"bike_id":"18c465ad-16a0-4d72-a337-11a15929aab8","system_id":"levelo_inurba_marseille","lat":43.239606,"lon":5.366203,"is_reserved":false,"is_disabled":false,"rental_uris":{"android":"levelo://app?vid=18c465ad-16a0-4d72-a337-11a15929aab8","ios":"levelo://app?vid=18c465ad-16a0-4d72-a337-11a15929aab8"},"vehicle_type_id":"4","last_reported":1733522953,"current_range_meters":8800,"station_id":"ce4bhi12rcd13ifvqfp0","pricing_plan_id":"cebpf4jnsgd1na2vs0mg"},{"bike_id":"217e3808-2fa9-42a6-bba8-c5357089053d","system_id":"levelo_inurba_marseille","lat":43.29257,"lon":5.38445,"is_reserved":false,"is_disabled":false,"rental_uris":{"android":"levelo://app?vid=217e3808-2fa9-42a6-bba8-c5357089053d","ios":"levelo://app?vid=217e3808-2fa9-42a6-bba8-c5357089053d"},"vehicle_type_id":"4","last_reported":1733522953,"current_range_meters":24000,"station_id":"ce4bh692rcd13ifvqea0","pricing_plan_id":"cebpf4jnsgd1na2vs0mg"},{"bike_id":"f825a6e3-d202-4ddc-917b-5da49c4114c4","system_id":"levelo_inurba_marseille","lat":43.23195,"lon":5.35553,"is_reserved":false,"is_disabled":false,"rental_uris":{"android":"levelo://app?vid=f825a6e3-d202-4ddc-917b-5da49c4114c4","ios":"levelo://app?vid=f825a6e3-d202-4ddc-917b-5da49c4114c4"},"vehicle_type_id":"4","last_reported":1733522953,"current_range_meters":12400,"station_id":"ce4bhu92rcd13ifvqi70","pricing_plan_id":"cebpf4jnsgd1na2vs0mg"},{"bike_id":"fea94d51-7d26-49ce-bf23-cf5e45e6e839","system_id":"levelo_inurba_marseille","lat":43.25001,"lon":5.38938,"is_reserved":false,"is_disabled":false,"rental_uris":{"android":"levelo://app?vid=fea94d51-7d26-49ce-bf23-cf5e45e6e839","ios":"levelo://app?vid=fea94d51-7d26-49ce-bf23-cf5e45e6e839"},"vehicle_type_id":"4","last_reported":1733522953,"current_range_meters":38800,"station_id":"ce4bhgp2rcd13ifvqfd0","pricing_plan_id":"cebpf4jnsgd1na2vs0mg"},{"bike_id":"9f4bd08d-5a2f-4a0c-b98c-12649cf9a5aa","system_id":"levelo_inurba_marseille","lat":43.31166,"lon":5.38715,"is_reserved":false,"is_disabled":false,"rental_uris":{"android":"levelo://app?vid=9f4bd08d-5a2f-4a0c-b98c-12649cf9a5aa","ios":"levelo://app?vid=9f4bd08d-5a2f-4a0c-b98c-12649cf9a5aa"},"vehicle_type_id":"4","last_reported":1733522953,"current_range_meters":27200,"station_id":"ce4bgv12rcd13ifvqcp0","pricing_plan_id":"cebpf4jnsgd1na2vs0mg"},{"bike_id":"705ff5fb-e997-4717-8307-87ea163310b1","system_id":"levelo_inurba_marseille","lat":43.23177,"lon":5.39986,"is_reserved":false,"is_disabled":false,"rental_uris":{"android":"levelo://app?vid=705ff5fb-e997-4717-8307-87ea163310b1","ios":"levelo://app?vid=705ff5fb-e997-4717-8307-87ea163310b1"},"vehicle_type_id":"4","last_reported":1733522953,"current_range_meters":27600,"station_id":"ce4bhn12rcd13ifvqgqg","pricing_plan_id":"cebpf4jnsgd1na2vs0mg"},{"bike_id":"bfbbced5-5c4a-48b0-949f-9c03cbf14807","system_id":"levelo_inurba_marseille","lat":43.29298,"lon":5.37146,"is_reserved":false,"is_disabled":false,"rental_uris":{"android":"levelo://app?vid=bfbbced5-5c4a-48b0-949f-9c03cbf14807","ios":"levelo://app?vid=bfbbced5-5c4a-48b0-949f-9c03cbf14807"},"vehicle_type_id":"4","last_reported":1733522953,"current_range_meters":38400,"station_id":"ce4bgh92rcd13ifvqb40","pricing_plan_id":"cebpf4jnsgd1na2vs0mg"},{"bike_id":"dcb0c8fd-d11c-4953-ada6-9db09e3f4cec","system_id":"levelo_inurba_marseille","lat":43.262,"lon":5.37928,"is_reserved":false,"is_disabled":false,"rental_uris":{"android":"levelo://app?vid=dcb0c8fd-d11c-4953-ada6-9db09e3f4cec","ios":"levelo://app?vid=dcb0c8fd-d11c-4953-ada6-9db09e3f4cec"},"vehicle_type_id":"4","last_reported":1733522953,"current_range_meters":26000,"station_id":"ce4bhjp2rcd13ifvqg90","pricing_plan_id":"cebpf4jnsgd1na2vs0mg"},{"bike_id":"3c3fc190-d7c5-4a81-8413-a0a07a88f08e","system_id":"levelo_inurba_marseille","lat":43.24803,"lon":5.37457,"is_reserved":false,"is_disabled":false,"rental_uris":{"android":"levelo://app?vid=3c3fc190-d7c5-4a81-8413-a0a07a88f08e","ios":"levelo://app?vid=3c3fc190-d7c5-4a81-8413-a0a07a88f08e"},"vehicle_type_id":"4","last_reported":1733522953,"current_range_meters":7200,"station_id":"ce4bhgh2rcd13ifvqfb0","pricing_plan_id":"cebpf4jnsgd1na2vs0mg"},{"bike_id":"67b37497-4baf-4ea9-9fd6-836c0c2cb525","system_id":"levelo_inurba_marseille","lat":43.31166,"lon":5.38722,"is_reserved":false,"is_disabled":false,"rental_uris":{"android":"levelo://app?vid=67b37497-4baf-4ea9-9fd6-836c0c2cb525","ios":"levelo://app?vid=67b37497-4baf-4ea9-9fd6-836c0c2cb525"},"vehicle_type_id":"4","last_reported":1733522953,"current_range_meters":36800,"station_id":"ce4bgv12rcd13ifvqcp0","pricing_plan_id":"cebpf4jnsgd1na2vs0mg"},{"bike_id":"f10c5e90-601b-4bd4-87e7-4cbb6a13a4fb","system_id":"levelo_inurba_marseille","lat":43.26119,"lon":5.39281,"is_reserved":false,"is_disabled":true,"rental_uris":{"android":"levelo://app?vid=f10c5e90-601b-4bd4-87e7-4cbb6a13a4fb","ios":"levelo://app?vid=f10c5e90-601b-4bd4-87e7-4cbb6a13a4fb"},"vehicle_type_id":"4","last_reported":1733522953,"current_range_meters":0,"station_id":"","pricing_plan_id":"cebpf4jnsgd1na2vs0mg"},{"bike_id":"8c4d45d2-9267-457d-b89f-898dc7d872b2","system_id":"levelo_inurba_marseille","lat":43.32149,"lon":5.3846,"is_reserved":false,"is_disabled":false,"rental_uris":{"android":"levelo://app?vid=8c4d45d2-9267-457d-b89f-898dc7d872b2","ios":"levelo://app?vid=8c4d45d2-9267-457d-b89f-898dc7d872b2"},"vehicle_type_id":"4","last_reported":1733522953,"current_range_meters":24800,"station_id":"","pricing_plan_id":"cebpf4jnsgd1na2vs0mg"},{"bike_id":"4c0c4886-7ce1-4e9b-a3c5-6ae8e88ab40a","system_id":"levelo_inurba_marseille","lat":43.27628,"lon":5.36101,"is_reserved":false,"is_disabled":false,"rental_uris":{"android":"levelo://app?vid=4c0c4886-7ce1-4e9b-a3c5-6ae8e88ab40a","ios":"levelo://app?vid=4c0c4886-7ce1-4e9b-a3c5-6ae8e88ab40a"},"vehicle_type_id":"4","last_reported":1733522953,"current_range_meters":31200,"station_id":"ce4bgj92rcd13ifvqbe0","pricing_plan_id":"cebpf4jnsgd1na2vs0mg"},{"bike_id":"0eaeea19-86a4-49a4-9f3b-89b3560d280e","system_id":"levelo_inurba_marseille","lat":43.31165,"lon":5.38723,"is_reserved":false,"is_disabled":false,"rental_uris":{"android":"levelo://app?vid=0eaeea19-86a4-49a4-9f3b-89b3560d280e","ios":"levelo://app?vid=0eaeea19-86a4-49a4-9f3b-89b3560d280e"},"vehicle_type_id":"4","last_reported":1733522953,"current_range_meters":24000,"station_id":"ce4bgv12rcd13ifvqcp0","pricing_plan_id":"cebpf4jnsgd1na2vs0mg"},{"bike_id":"03bc2d23-234e-4521-97bd-0c3e2fe0a01d","system_id":"levelo_inurba_marseille","lat":43.31723,"lon":5.42404,"is_reserved":false,"is_disabled":false,"rental_uris":{"android":"levelo://app?vid=03bc2d23-234e-4521-97bd-0c3e2fe0a01d","ios":"levelo://app?vid=03bc2d23-234e-4521-97bd-0c3e2fe0a01d"},"vehicle_type_id":"4","last_reported":1733522953,"current_range_meters":30800,"station_id":"ce4bhp92rcd13ifvqhbg","pricing_plan_id":"cebpf4jnsgd1na2vs0mg"},{"bike_id":"7d1cfd90-3854-4815-820f-0be011234719","system_id":"levelo_inurba_marseille","lat":43.27558,"lon":5.38433,"is_reserved":false,"is_disabled":false,"rental_uris":{"android":"levelo://app?vid=7d1cfd90-3854-4815-820f-0be011234719","ios":"levelo://app?vid=7d1cfd90-3854-4815-820f-0be011234719"},"vehicle_type_id":"4","last_reported":1733522953,"current_range_meters":38800,"station_id":"ce4bhh92rcd13ifvqfi0","pricing_plan_id":"cebpf4jnsgd1na2vs0mg"},{"bike_id":"e172db4d-b1b1-43e7-851a-33a0d810e487","system_id":"levelo_inurba_marseille","lat":43.24809,"lon":5.37459,"is_reserved":false,"is_disabled":false,"rental_uris":{"android":"levelo://app?vid=e172db4d-b1b1-43e7-851a-33a0d810e487","ios":"levelo://app?vid=e172db4d-b1b1-43e7-851a-33a0d810e487"},"vehicle_type_id":"4","last_reported":1733522953,"current_range_meters":37600,"station_id":"ce4bhgh2rcd13ifvqfb0","pricing_plan_id":"cebpf4jnsgd1na2vs0mg"},{"bike_id":"39ee2c43-1a3a-4d3c-996b-f628c23212cd","system_id":"levelo_inurba_marseille","lat":43.33611,"lon":5.41036,"is_reserved":false,"is_disabled":false,"rental_uris":{"android":"levelo://app?vid=39ee2c43-1a3a-4d3c-996b-f628c23212cd","ios":"levelo://app?vid=39ee2c43-1a3a-4d3c-996b-f628c23212cd"},"vehicle_type_id":"4","last_reported":1733522953,"current_range_meters":32400,"station_id":"ce4bhqh2rcd13ifvqhmg","pricing_plan_id":"cebpf4jnsgd1na2vs0mg"},{"bike_id":"a368dae7-9369-4bac-8622-b0b8f7957831","system_id":"levelo_inurba_marseille","lat":43.28354,"lon":5.38113,"is_reserved":false,"is_disabled":false,"rental_uris":{"android":"levelo://app?vid=a368dae7-9369-4bac-8622-b0b8f7957831","ios":"levelo://app?vid=a368dae7-9369-4bac-8622-b0b8f7957831"},"vehicle_type_id":"4","last_reported":1733522953,"current_range_meters":37600,"station_id":"ce4bh412rcd13ifvqdr0","pricing_plan_id":"cebpf4jnsgd1na2vs0mg"},{"bike_id":"21d6799f-cd2c-4178-9deb-5bf321a6c020","system_id":"levelo_inurba_marseille","lat":43.293,"lon":5.37463,"is_reserved":false,"is_disabled":false,"rental_uris":{"android":"levelo://app?vid=21d6799f-cd2c-4178-9deb-5bf321a6c020","ios":"levelo://app?vid=21d6799f-cd2c-4178-9deb-5bf321a6c020"},"vehicle_type_id":"4","last_reported":1733522953,"current_range_meters":19200,"station_id":"ce4bgi12rcd13ifvqb70","pricing_plan_id":"cebpf4jnsgd1na2vs0mg"},{"bike_id":"ab55cf7d-3589-4a5d-87b7-5219a8b56d53","system_id":"levelo_inurba_marseille","lat":43.23965,"lon":5.36634,"is_reserved":false,"is_disabled":false,"rental_uris":{"android":"levelo://app?vid=ab55cf7d-3589-4a5d-87b7-5219a8b56d53","ios":"levelo://app?vid=ab55cf7d-3589-4a5d-87b7-5219a8b56d53"},"vehicle_type_id":"4","last_reported":1733522953,"current_range_meters":34800,"station_id":"ce4bhi12rcd13ifvqfp0","pricing_plan_id":"cebpf4jnsgd1na2vs0mg"},{"bike_id":"deef5ee7-83de-42b8-84ba-cbc2ec811066","system_id":"levelo_inurba_marseille","lat":43.2318,"lon":5.39986,"is_reserved":false,"is_disabled":true,"rental_uris":{"android":"levelo://app?vid=deef5ee7-83de-42b8-84ba-cbc2ec811066","ios":"levelo://app?vid=deef5ee7-83de-42b8-84ba-cbc2ec811066"},"vehicle_type_id":"4","last_reported":1733522953,"current_range_meters":1600,"station_id":"ce4bhn12rcd13ifvqgqg","pricing_plan_id":"cebpf4jnsgd1na2vs0mg"},{"bike_id":"f2b0881f-b484-437f-af30-4aa155dbb9bf","system_id":"levelo_inurba_marseille","lat":43.30883,"lon":5.39654,"is_reserved":false,"is_disabled":false,"rental_uris":{"android":"levelo://app?vid=f2b0881f-b484-437f-af30-4aa155dbb9bf","ios":"levelo://app?vid=f2b0881f-b484-437f-af30-4aa155dbb9bf"},"vehicle_type_id":"4","last_reported":1733522953,"current_range_meters":34000,"station_id":"ce4bh012rcd13ifvqcv0","pricing_plan_id":"cebpf4jnsgd1na2vs0mg"},{"bike_id":"25120cff-8460-4bca-ad28-62118929be1b","system_id":"levelo_inurba_marseille","lat":43.3266,"lon":5.40993,"is_reserved":false,"is_disabled":false,"rental_uris":{"android":"levelo://app?vid=25120cff-8460-4bca-ad28-62118929be1b","ios":"levelo://app?vid=25120cff-8460-4bca-ad28-62118929be1b"},"vehicle_type_id":"4","last_reported":1733522953,"current_range_meters":27200,"station_id":"ce4bhpp2rcd13ifvqhgg","pricing_plan_id":"cebpf4jnsgd1na2vs0mg"},{"bike_id":"beaaf9ba-1113-4934-8422-af2184a21740","system_id":"levelo_inurba_marseille","lat":43.28702,"lon":5.37391,"is_reserved":false,"is_disabled":false,"rental_uris":{"android":"levelo://app?vid=beaaf9ba-1113-4934-8422-af2184a21740","ios":"levelo://app?vid=beaaf9ba-1113-4934-8422-af2184a21740"},"vehicle_type_id":"4","last_reported":1733522953,"current_range_meters":19200,"station_id":"ce4bh3p2rcd13ifvqdq0","pricing_plan_id":"cebpf4jnsgd1na2vs0mg"},{"bike_id":"cdfe6590-4984-4014-86c8-6dd70747c27a","system_id":"levelo_inurba_marseille","lat":43.29737,"lon":5.37434,"is_reserved":false,"is_disabled":true,"rental_uris":{"android":"levelo://app?vid=cdfe6590-4984-4014-86c8-6dd70747c27a","ios":"levelo://app?vid=cdfe6590-4984-4014-86c8-6dd70747c27a"},"vehicle_type_id":"4","last_reported":1733522953,"current_range_meters":0,"station_id":"","pricing_plan_id":"cebpf4jnsgd1na2vs0mg"},{"bike_id":"2a022814-f741-4adf-a235-83d4941bf5e2","system_id":"levelo_inurba_marseille","lat":43.28421,"lon":5.34993,"is_reserved":false,"is_disabled":false,"rental_uris":{"android":"levelo://app?vid=2a022814-f741-4adf-a235-83d4941bf5e2","ios":"levelo://app?vid=2a022814-f741-4adf-a235-83d4941bf5e2"},"vehicle_type_id":"4","last_reported":1733522953,"current_range_meters":22400,"station_id":"ce4bhbh2rcd13ifvqepg","pricing_plan_id":"cebpf4jnsgd1na2vs0mg"},{"bike_id":"67ed60f1-26f1-4baf-9768-9be9372ca7a4","system_id":"levelo_inurba_marseille","lat":43.29416,"lon":5.38627,"is_reserved":false,"is_disabled":false,"rental_uris":{"android":"levelo://app?vid=67ed60f1-26f1-4baf-9768-9be9372ca7a4","ios":"levelo://app?vid=67ed60f1-26f1-4baf-9768-9be9372ca7a4"},"vehicle_type_id":"4","last_reported":1733522953,"current_range_meters":28000,"station_id":"ce4bh2h2rcd13ifvqdh0","pricing_plan_id":"cebpf4jnsgd1na2vs0mg"},{"bike_id":"96632faa-9248-44ad-95c7-74be7e778f62","system_id":"levelo_inurba_marseille","lat":43.28264,"lon":5.35072,"is_reserved":false,"is_disabled":false,"rental_uris":{"android":"levelo://app?vid=96632faa-9248-44ad-95c7-74be7e778f62","ios":"levelo://app?vid=96632faa-9248-44ad-95c7-74be7e778f62"},"vehicle_type_id":"4","last_reported":1733522953,"current_range_meters":16000,"station_id":"ce4bhbp2rcd13ifvqerg","pricing_plan_id":"cebpf4jnsgd1na2vs0mg"},{"bike_id":"af2b4385-8fc0-4e0b-a609-751692fa7f99","system_id":"levelo_inurba_marseille","lat":43.30352,"lon":5.41877,"is_reserved":false,"is_disabled":false,"rental_uris":{"android":"levelo://app?vid=af2b4385-8fc0-4e0b-a609-751692fa7f99","ios":"levelo://app?vid=af2b4385-8fc0-4e0b-a609-751692fa7f99"},"vehicle_type_id":"4","last_reported":1733522953,"current_range_meters":37600,"station_id":"ce4bhop2rcd13ifvqh7g","pricing_plan_id":"cebpf4jnsgd1na2vs0mg"},{"bike_id":"45ef2edb-2206-4b25-954e-473e3d81a57b","system_id":"levelo_inurba_marseille","lat":43.26058,"lon":5.39395,"is_reserved":false,"is_disabled":false,"rental_uris":{"android":"levelo://app?vid=45ef2edb-2206-4b25-954e-473e3d81a57b","ios":"levelo://app?vid=45ef2edb-2206-4b25-954e-473e3d81a57b"},"vehicle_type_id":"4","last_reported":1733522953,"current_range_meters":14000,"station_id":"ce4bhh92rcd13ifvqfj0","pricing_plan_id":"cebpf4jnsgd1na2vs0mg"},{"bike_id":"9e02ca9a-2999-4700-acfa-285ba2c0a48c","system_id":"levelo_inurba_marseille","lat":43.32368,"lon":5.38886,"is_reserved":false,"is_disabled":false,"rental_uris":{"android":"levelo://app?vid=9e02ca9a-2999-4700-acfa-285ba2c0a48c","ios":"levelo://app?vid=9e02ca9a-2999-4700-acfa-285ba2c0a48c"},"vehicle_type_id":"4","last_reported":1733522953,"current_range_meters":38800,"station_id":"ce4bhqp2rcd13ifvqhog","pricing_plan_id":"cebpf4jnsgd1na2vs0mg"},{"bike_id":"70421222-5c58-4a1a-b15b-d2abbcefd345","system_id":"levelo_inurba_marseille","lat":43.28947,"lon":5.36394,"is_reserved":false,"is_disabled":false,"rental_uris":{"android":"levelo://app?vid=70421222-5c58-4a1a-b15b-d2abbcefd345","ios":"levelo://app?vid=70421222-5c58-4a1a-b15b-d2abbcefd345"},"vehicle_type_id":"4","last_reported":1733522953,"current_range_meters":38800,"station_id":"ce4bhc92rcd13ifvqetg","pricing_plan_id":"cebpf4jnsgd1na2vs0mg"},{"bike_id":"987a5ab4-d60c-480c-94b6-7cab38975402","system_id":"levelo_inurba_marseille","lat":43.29748,"lon":5.37971,"is_reserved":false,"is_disabled":true,"rental_uris":{"android":"levelo://app?vid=987a5ab4-d60c-480c-94b6-7cab38975402","ios":"levelo://app?vid=987a5ab4-d60c-480c-94b6-7cab38975402"},"vehicle_type_id":"4","last_reported":1733522953,"current_range_meters":0,"station_id":"","pricing_plan_id":"cebpf4jnsgd1na2vs0mg"},{"bike_id":"2c4596ad-0ad9-4016-b92b-0093349de2b4","system_id":"levelo_inurba_marseille","lat":43.30755,"lon":5.38187,"is_reserved":false,"is_disabled":true,"rental_uris":{"android":"levelo://app?vid=2c4596ad-0ad9-4016-b92b-0093349de2b4","ios":"levelo://app?vid=2c4596ad-0ad9-4016-b92b-0093349de2b4"},"vehicle_type_id":"4","last_reported":1733522953,"current_range_meters":0,"station_id":"","pricing_plan_id":"cebpf4jnsgd1na2vs0mg"},{"bike_id":"25a33d2c-2601-4adf-8b03-9c7b44512e72","system_id":"levelo_inurba_marseille","lat":43.29578,"lon":5.37513,"is_reserved":false,"is_disabled":true,"rental_uris":{"android":"levelo://app?vid=25a33d2c-2601-4adf-8b03-9c7b44512e72","ios":"levelo://app?vid=25a33d2c-2601-4adf-8b03-9c7b44512e72"},"vehicle_type_id":"4","last_reported":1733522953,"current_range_meters":0,"station_id":"ce4bgh92rcd13ifvqb50","pricing_plan_id":"cebpf4jnsgd1na2vs0mg"},{"bike_id":"8a696230-0cd8-4e37-adec-e0ada77baafb","system_id":"levelo_inurba_marseille","lat":43.29543,"lon":5.38561,"is_reserved":false,"is_disabled":true,"rental_uris":{"android":"levelo://app?vid=8a696230-0cd8-4e37-adec-e0ada77baafb","ios":"levelo://app?vid=8a696230-0cd8-4e37-adec-e0ada77baafb"},"vehicle_type_id":"4","last_reported":1733522953,"current_range_meters":0,"station_id":"ce4bgih2rcd13ifvqba0","pricing_plan_id":"cebpf4jnsgd1na2vs0mg"},{"bike_id":"b7ab8c01-033f-4395-8276-23c850ad3d02","system_id":"levelo_inurba_marseille","lat":43.30348,"lon":5.36626,"is_reserved":false,"is_disabled":true,"rental_uris":{"android":"levelo://app?vid=b7ab8c01-033f-4395-8276-23c850ad3d02","ios":"levelo://app?vid=b7ab8c01-033f-4395-8276-23c850ad3d02"},"vehicle_type_id":"4","last_reported":1733522953,"current_range_meters":0,"station_id":"","pricing_plan_id":"cebpf4jnsgd1na2vs0mg"},{"bike_id":"b52ab50a-7aa8-484c-81c7-fead67df921c","system_id":"levelo_inurba_marseille","lat":43.31049,"lon":5.37676,"is_reserved":false,"is_disabled":true,"rental_uris":{"android":"levelo://app?vid=b52ab50a-7aa8-484c-81c7-fead67df921c","ios":"levelo://app?vid=b52ab50a-7aa8-484c-81c7-fead67df921c"},"vehicle_type_id":"4","last_reported":1733522953,"current_range_meters":3600,"station_id":"","pricing_plan_id":"cebpf4jnsgd1na2vs0mg"},{"bike_id":"711a5d7b-b2bd-4a20-b042-965e1c619029","system_id":"levelo_inurba_marseille","lat":43.29512,"lon":5.39407,"is_reserved":false,"is_disabled":false,"rental_uris":{"android":"levelo://app?vid=711a5d7b-b2bd-4a20-b042-965e1c619029","ios":"levelo://app?vid=711a5d7b-b2bd-4a20-b042-965e1c619029"},"vehicle_type_id":"4","last_reported":1733522953,"current_range_meters":34000,"station_id":"ce4bh292rcd13ifvqdf0","pricing_plan_id":"cebpf4jnsgd1na2vs0mg"},{"bike_id":"8f8f8869-394a-4138-b7dd-da02c73beaca","system_id":"levelo_inurba_marseille","lat":43.3025,"lon":5.40049,"is_reserved":false,"is_disabled":false,"rental_uris":{"android":"levelo://app?vid=8f8f8869-394a-4138-b7dd-da02c73beaca","ios":"levelo://app?vid=8f8f8869-394a-4138-b7dd-da02c73beaca"},"vehicle_type_id":"4","last_reported":1733522953,"current_range_meters":11200,"station_id":"ce4bgvh2rcd13ifvqcs0","pricing_plan_id":"cebpf4jnsgd1na2vs0mg"},{"bike_id":"f6dac9ca-3231-4e5f-a366-7b9bd9364388","system_id":"levelo_inurba_marseille","lat":43.29306,"lon":5.37188,"is_reserved":false,"is_disabled":false,"rental_uris":{"android":"levelo://app?vid=f6dac9ca-3231-4e5f-a366-7b9bd9364388","ios":"levelo://app?vid=f6dac9ca-3231-4e5f-a366-7b9bd9364388"},"vehicle_type_id":"4","last_reported":1733522953,"current_range_meters":37600,"station_id":"ce4bgh92rcd13ifvqb40","pricing_plan_id":"cebpf4jnsgd1na2vs0mg"},{"bike_id":"2e5d6bd2-ecb3-47ee-a29a-69076bed61ea","system_id":"levelo_inurba_marseille","lat":43.265,"lon":5.39545,"is_reserved":false,"is_disabled":true,"rental_uris":{"android":"levelo://app?vid=2e5d6bd2-ecb3-47ee-a29a-69076bed61ea","ios":"levelo://app?vid=2e5d6bd2-ecb3-47ee-a29a-69076bed61ea"},"vehicle_type_id":"4","last_reported":1733522953,"current_range_meters":38800,"station_id":"ce4bhi12rcd13ifvqfq0","pricing_plan_id":"cebpf4jnsgd1na2vs0mg"},{"bike_id":"11e86528-eb6b-4391-86a5-9b1822d069a4","system_id":"levelo_inurba_marseille","lat":43.278805,"lon":5.388003,"is_reserved":false,"is_disabled":true,"rental_uris":{"android":"levelo://app?vid=11e86528-eb6b-4391-86a5-9b1822d069a4","ios":"levelo://app?vid=11e86528-eb6b-4391-86a5-9b1822d069a4"},"vehicle_type_id":"4","last_reported":1733522953,"current_range_meters":3600,"station_id":"","pricing_plan_id":"cebpf4jnsgd1na2vs0mg"},{"bike_id":"6cc6805f-c0ca-4585-bdf1-b5a0339762b0","system_id":"levelo_inurba_marseille","lat":43.29027,"lon":5.42744,"is_reserved":false,"is_disabled":true,"rental_uris":{"android":"levelo://app?vid=6cc6805f-c0ca-4585-bdf1-b5a0339762b0","ios":"levelo://app?vid=6cc6805f-c0ca-4585-bdf1-b5a0339762b0"},"vehicle_type_id":"4","last_reported":1733522953,"current_range_meters":0,"station_id":"","pricing_plan_id":"cebpf4jnsgd1na2vs0mg"},{"bike_id":"5e13e3f8-8ea5-40bd-9285-ee90f96b0e0d","system_id":"levelo_inurba_marseille","lat":43.30305,"lon":5.39207,"is_reserved":false,"is_disabled":false,"rental_uris":{"android":"levelo://app?vid=5e13e3f8-8ea5-40bd-9285-ee90f96b0e0d","ios":"levelo://app?vid=5e13e3f8-8ea5-40bd-9285-ee90f96b0e0d"},"vehicle_type_id":"4","last_reported":1733522953,"current_range_meters":38000,"station_id":"ce4bgkh2rcd13ifvqbk0","pricing_plan_id":"cebpf4jnsgd1na2vs0mg"},{"bike_id":"4e6fc26f-c1d5-4d84-ac5b-7d384b8c30d5","system_id":"levelo_inurba_marseille","lat":43.32358,"lon":5.36755,"is_reserved":false,"is_disabled":false,"rental_uris":{"android":"levelo://app?vid=4e6fc26f-c1d5-4d84-ac5b-7d384b8c30d5","ios":"levelo://app?vid=4e6fc26f-c1d5-4d84-ac5b-7d384b8c30d5"},"vehicle_type_id":"4","last_reported":1733522953,"current_range_meters":36800,"station_id":"ce4bhsh2rcd13ifvqi2g","pricing_plan_id":"cebpf4jnsgd1na2vs0mg"},{"bike_id":"8d1c8b92-79bb-4181-b0d2-5e94db1a14d0","system_id":"levelo_inurba_marseille","lat":43.29972,"lon":5.3826,"is_reserved":false,"is_disabled":true,"rental_uris":{"android":"levelo://app?vid=8d1c8b92-79bb-4181-b0d2-5e94db1a14d0","ios":"levelo://app?vid=8d1c8b92-79bb-4181-b0d2-5e94db1a14d0"},"vehicle_type_id":"4","last_reported":1733522953,"current_range_meters":0,"station_id":"","pricing_plan_id":"cebpf4jnsgd1na2vs0mg"},{"bike_id":"7dc78839-0e32-4a30-a393-ccc469b72c20","system_id":"levelo_inurba_marseille","lat":43.33614,"lon":5.41036,"is_reserved":false,"is_disabled":false,"rental_uris":{"android":"levelo://app?vid=7dc78839-0e32-4a30-a393-ccc469b72c20","ios":"levelo://app?vid=7dc78839-0e32-4a30-a393-ccc469b72c20"},"vehicle_type_id":"4","last_reported":1733522953,"current_range_meters":17200,"station_id":"ce4bhqh2rcd13ifvqhmg","pricing_plan_id":"cebpf4jnsgd1na2vs0mg"},{"bike_id":"907ae010-d4e9-4e7d-8a68-f6c7eae47728","system_id":"levelo_inurba_marseille","lat":43.2996,"lon":5.41322,"is_reserved":false,"is_disabled":false,"rental_uris":{"android":"levelo://app?vid=907ae010-d4e9-4e7d-8a68-f6c7eae47728","ios":"levelo://app?vid=907ae010-d4e9-4e7d-8a68-f6c7eae47728"},"vehicle_type_id":"4","last_reported":1733522953,"current_range_meters":30000,"station_id":"ce4bhp12rcd13ifvqh9g","pricing_plan_id":"cebpf4jnsgd1na2vs0mg"},{"bike_id":"ec24ea24-e93f-42b5-9ae5-09553c228e67","system_id":"levelo_inurba_marseille","lat":43.28569,"lon":5.39497,"is_reserved":false,"is_disabled":false,"rental_uris":{"android":"levelo://app?vid=ec24ea24-e93f-42b5-9ae5-09553c228e67","ios":"levelo://app?vid=ec24ea24-e93f-42b5-9ae5-09553c228e67"},"vehicle_type_id":"4","last_reported":1733522953,"current_range_meters":12400,"station_id":"ce4bh292rcd13ifvqdg0","pricing_plan_id":"cebpf4jnsgd1na2vs0mg"},{"bike_id":"0b4a63d2-578b-41d8-9f6a-90b7f42bb8e8","system_id":"levelo_inurba_marseille","lat":43.293,"lon":5.37471,"is_reserved":false,"is_disabled":true,"rental_uris":{"android":"levelo://app?vid=0b4a63d2-578b-41d8-9f6a-90b7f42bb8e8","ios":"levelo://app?vid=0b4a63d2-578b-41d8-9f6a-90b7f42bb8e8"},"vehicle_type_id":"4","last_reported":1733522953,"current_range_meters":36000,"station_id":"ce4bgi12rcd13ifvqb70","pricing_plan_id":"cebpf4jnsgd1na2vs0mg"},{"bike_id":"bec118ad-6054-4279-b7c0-4ae9f0db1132","system_id":"levelo_inurba_marseille","lat":43.28657,"lon":5.3636,"is_reserved":false,"is_disabled":false,"rental_uris":{"android":"levelo://app?vid=bec118ad-6054-4279-b7c0-4ae9f0db1132","ios":"levelo://app?vid=bec118ad-6054-4279-b7c0-4ae9f0db1132"},"vehicle_type_id":"4","last_reported":1733522953,"current_range_meters":18000,"station_id":"ce4bhah2rcd13ifvqej0","pricing_plan_id":"cebpf4jnsgd1na2vs0mg"},{"bike_id":"3a1cabfd-7ea0-40e5-ba2a-bc16f7acb1fa","system_id":"levelo_inurba_marseille","lat":43.34332,"lon":5.3582,"is_reserved":false,"is_disabled":true,"rental_uris":{"android":"levelo://app?vid=3a1cabfd-7ea0-40e5-ba2a-bc16f7acb1fa","ios":"levelo://app?vid=3a1cabfd-7ea0-40e5-ba2a-bc16f7acb1fa"},"vehicle_type_id":"4","last_reported":1733522953,"current_range_meters":18000,"station_id":"","pricing_plan_id":"cebpf4jnsgd1na2vs0mg"},{"bike_id":"13c92a0b-ed15-475b-be6b-20c451699fe8","system_id":"levelo_inurba_marseille","lat":43.337444,"lon":5.374475,"is_reserved":false,"is_disabled":true,"rental_uris":{"android":"levelo://app?vid=13c92a0b-ed15-475b-be6b-20c451699fe8","ios":"levelo://app?vid=13c92a0b-ed15-475b-be6b-20c451699fe8"},"vehicle_type_id":"4","last_reported":1733522953,"current_range_meters":1200,"station_id":"ce4bh092rcd13ifvqd30","pricing_plan_id":"cebpf4jnsgd1na2vs0mg"},{"bike_id":"1c1b9d50-0c5b-40c7-ab1f-3eddb8967a5e","system_id":"levelo_inurba_marseille","lat":43.31241,"lon":5.3813,"is_reserved":false,"is_disabled":false,"rental_uris":{"android":"levelo://app?vid=1c1b9d50-0c5b-40c7-ab1f-3eddb8967a5e","ios":"levelo://app?vid=1c1b9d50-0c5b-40c7-ab1f-3eddb8967a5e"},"vehicle_type_id":"4","last_reported":1733522953,"current_range_meters":32400,"station_id":"","pricing_plan_id":"cebpf4jnsgd1na2vs0mg"},{"bike_id":"d37abd32-cabf-441e-9655-11a4cf8daa6d","system_id":"levelo_inurba_marseille","lat":43.29715,"lon":5.36621,"is_reserved":false,"is_disabled":true,"rental_uris":{"android":"levelo://app?vid=d37abd32-cabf-441e-9655-11a4cf8daa6d","ios":"levelo://app?vid=d37abd32-cabf-441e-9655-11a4cf8daa6d"},"vehicle_type_id":"4","last_reported":1733522953,"current_range_meters":38000,"station_id":"ce4bgn12rcd13ifvqbt0","pricing_plan_id":"cebpf4jnsgd1na2vs0mg"},{"bike_id":"d22d71d3-31c7-40a3-b7b3-a96e49436dc6","system_id":"levelo_inurba_marseille","lat":43.28966,"lon":5.37851,"is_reserved":false,"is_disabled":false,"rental_uris":{"android":"levelo://app?vid=d22d71d3-31c7-40a3-b7b3-a96e49436dc6","ios":"levelo://app?vid=d22d71d3-31c7-40a3-b7b3-a96e49436dc6"},"vehicle_type_id":"4","last_reported":1733522953,"current_range_meters":26800,"station_id":"ce4bh9p2rcd13ifvqed0","pricing_plan_id":"cebpf4jnsgd1na2vs0mg"},{"bike_id":"cf315912-6fc6-4c2f-9885-dbef65eb8065","system_id":"levelo_inurba_marseille","lat":43.28826,"lon":5.38805,"is_reserved":false,"is_disabled":false,"rental_uris":{"android":"levelo://app?vid=cf315912-6fc6-4c2f-9885-dbef65eb8065","ios":"levelo://app?vid=cf315912-6fc6-4c2f-9885-dbef65eb8065"},"vehicle_type_id":"4","last_reported":1733522953,"current_range_meters":9200,"station_id":"","pricing_plan_id":"cebpf4jnsgd1na2vs0mg"},{"bike_id":"bbecc9fb-0c7f-470a-8a8c-71ae82194636","system_id":"levelo_inurba_marseille","lat":43.311733,"lon":5.387093,"is_reserved":false,"is_disabled":false,"rental_uris":{"android":"levelo://app?vid=bbecc9fb-0c7f-470a-8a8c-71ae82194636","ios":"levelo://app?vid=bbecc9fb-0c7f-470a-8a8c-71ae82194636"},"vehicle_type_id":"4","last_reported":1733522953,"current_range_meters":22400,"station_id":"ce4bgv12rcd13ifvqcp0","pricing_plan_id":"cebpf4jnsgd1na2vs0mg"},{"bike_id":"c59f1c47-12a6-499e-b761-f98775514feb","system_id":"levelo_inurba_marseille","lat":43.31167,"lon":5.38719,"is_reserved":false,"is_disabled":false,"rental_uris":{"android":"levelo://app?vid=c59f1c47-12a6-499e-b761-f98775514feb","ios":"levelo://app?vid=c59f1c47-12a6-499e-b761-f98775514feb"},"vehicle_type_id":"4","last_reported":1733522953,"current_range_meters":32400,"station_id":"ce4bgv12rcd13ifvqcp0","pricing_plan_id":"cebpf4jnsgd1na2vs0mg"},{"bike_id":"b42d912b-1944-4cc5-a4bf-92545c2f7d24","system_id":"levelo_inurba_marseille","lat":43.28619,"lon":5.35105,"is_reserved":false,"is_disabled":false,"rental_uris":{"android":"levelo://app?vid=b42d912b-1944-4cc5-a4bf-92545c2f7d24","ios":"levelo://app?vid=b42d912b-1944-4cc5-a4bf-92545c2f7d24"},"vehicle_type_id":"4","last_reported":1733522953,"current_range_meters":37600,"station_id":"ce4bhch2rcd13ifvqeug","pricing_plan_id":"cebpf4jnsgd1na2vs0mg"},{"bike_id":"6778df27-59e5-4288-bb63-85598167936a","system_id":"levelo_inurba_marseille","lat":43.31374,"lon":5.3849,"is_reserved":false,"is_disabled":false,"rental_uris":{"android":"levelo://app?vid=6778df27-59e5-4288-bb63-85598167936a","ios":"levelo://app?vid=6778df27-59e5-4288-bb63-85598167936a"},"vehicle_type_id":"4","last_reported":1733522953,"current_range_meters":24000,"station_id":"ce4bgt92rcd13ifvqcf0","pricing_plan_id":"cebpf4jnsgd1na2vs0mg"},{"bike_id":"173fe14a-71a4-4190-8939-0d0016d762ce","system_id":"levelo_inurba_marseille","lat":43.30861,"lon":5.37796,"is_reserved":false,"is_disabled":false,"rental_uris":{"android":"levelo://app?vid=173fe14a-71a4-4190-8939-0d0016d762ce","ios":"levelo://app?vid=173fe14a-71a4-4190-8939-0d0016d762ce"},"vehicle_type_id":"4","last_reported":1733522953,"current_range_meters":38400,"station_id":"","pricing_plan_id":"cebpf4jnsgd1na2vs0mg"},{"bike_id":"9c77a68d-2e99-44e9-b903-950fb6644d35","system_id":"levelo_inurba_marseille","lat":43.25265,"lon":5.39465,"is_reserved":false,"is_disabled":true,"rental_uris":{"android":"levelo://app?vid=9c77a68d-2e99-44e9-b903-950fb6644d35","ios":"levelo://app?vid=9c77a68d-2e99-44e9-b903-950fb6644d35"},"vehicle_type_id":"4","last_reported":1733522953,"current_range_meters":0,"station_id":"","pricing_plan_id":"cebpf4jnsgd1na2vs0mg"},{"bike_id":"787ec39c-3f28-4007-953d-9893250c33a7","system_id":"levelo_inurba_marseille","lat":43.305351,"lon":5.367182,"is_reserved":false,"is_disabled":false,"rental_uris":{"android":"levelo://app?vid=787ec39c-3f28-4007-953d-9893250c33a7","ios":"levelo://app?vid=787ec39c-3f28-4007-953d-9893250c33a7"},"vehicle_type_id":"4","last_reported":1733522953,"current_range_meters":28400,"station_id":"ce4bgrp2rcd13ifvqc9g","pricing_plan_id":"cebpf4jnsgd1na2vs0mg"},{"bike_id":"0f9d0a1d-9e79-4c6c-9673-a73c2282c65e","system_id":"levelo_inurba_marseille","lat":43.29418,"lon":5.38619,"is_reserved":false,"is_disabled":false,"rental_uris":{"android":"levelo://app?vid=0f9d0a1d-9e79-4c6c-9673-a73c2282c65e","ios":"levelo://app?vid=0f9d0a1d-9e79-4c6c-9673-a73c2282c65e"},"vehicle_type_id":"4","last_reported":1733522953,"current_range_meters":28800,"station_id":"ce4bh2h2rcd13ifvqdh0","pricing_plan_id":"cebpf4jnsgd1na2vs0mg"},{"bike_id":"c1059d8c-dfec-43e2-a99c-b18d07955745","system_id":"levelo_inurba_marseille","lat":43.32285,"lon":5.38273,"is_reserved":false,"is_disabled":false,"rental_uris":{"android":"levelo://app?vid=c1059d8c-dfec-43e2-a99c-b18d07955745","ios":"levelo://app?vid=c1059d8c-dfec-43e2-a99c-b18d07955745"},"vehicle_type_id":"4","last_reported":1733522953,"current_range_meters":28400,"station_id":"ce4bhr12rcd13ifvqhqg","pricing_plan_id":"cebpf4jnsgd1na2vs0mg"},{"bike_id":"45a99d3d-18c7-4943-8d60-ad1491c0fa82","system_id":"levelo_inurba_marseille","lat":43.27561,"lon":5.38429,"is_reserved":false,"is_disabled":true,"rental_uris":{"android":"levelo://app?vid=45a99d3d-18c7-4943-8d60-ad1491c0fa82","ios":"levelo://app?vid=45a99d3d-18c7-4943-8d60-ad1491c0fa82"},"vehicle_type_id":"4","last_reported":1733522953,"current_range_meters":37600,"station_id":"ce4bhh92rcd13ifvqfi0","pricing_plan_id":"cebpf4jnsgd1na2vs0mg"},{"bike_id":"83985555-c848-4b28-808f-8a7e7cf8519e","system_id":"levelo_inurba_marseille","lat":43.28115,"lon":5.43955,"is_reserved":false,"is_disabled":true,"rental_uris":{"android":"levelo://app?vid=83985555-c848-4b28-808f-8a7e7cf8519e","ios":"levelo://app?vid=83985555-c848-4b28-808f-8a7e7cf8519e"},"vehicle_type_id":"4","last_reported":1733522953,"current_range_meters":0,"station_id":"","pricing_plan_id":"cebpf4jnsgd1na2vs0mg"},{"bike_id":"ed8cabd1-28b4-4a70-bead-fc1cca50ff24","system_id":"levelo_inurba_marseille","lat":43.296,"lon":5.38101,"is_reserved":false,"is_disabled":false,"rental_uris":{"android":"levelo://app?vid=ed8cabd1-28b4-4a70-bead-fc1cca50ff24","ios":"levelo://app?vid=ed8cabd1-28b4-4a70-bead-fc1cca50ff24"},"vehicle_type_id":"4","last_reported":1733522953,"current_range_meters":5600,"station_id":"ce4bgl12rcd13ifvqbo0","pricing_plan_id":"cebpf4jnsgd1na2vs0mg"},{"bike_id":"84eddd35-4076-462c-b0e4-9c17c748aeff","system_id":"levelo_inurba_marseille","lat":43.33771,"lon":5.37491,"is_reserved":false,"is_disabled":false,"rental_uris":{"android":"levelo://app?vid=84eddd35-4076-462c-b0e4-9c17c748aeff","ios":"levelo://app?vid=84eddd35-4076-462c-b0e4-9c17c748aeff"},"vehicle_type_id":"4","last_reported":1733522953,"current_range_meters":21600,"station_id":"","pricing_plan_id":"cebpf4jnsgd1na2vs0mg"},{"bike_id":"31cddf14-1369-4114-b8f9-989c80a82d66","system_id":"levelo_inurba_marseille","lat":43.31264,"lon":5.4017,"is_reserved":false,"is_disabled":false,"rental_uris":{"android":"levelo://app?vid=31cddf14-1369-4114-b8f9-989c80a82d66","ios":"levelo://app?vid=31cddf14-1369-4114-b8f9-989c80a82d66"},"vehicle_type_id":"4","last_reported":1733522953,"current_range_meters":25600,"station_id":"ce4bh092rcd13ifvqd30","pricing_plan_id":"cebpf4jnsgd1na2vs0mg"},{"bike_id":"22879c43-c2ed-466f-8c6d-20ce42d5b405","system_id":"levelo_inurba_marseille","lat":43.31273,"lon":5.40175,"is_reserved":false,"is_disabled":true,"rental_uris":{"android":"levelo://app?vid=22879c43-c2ed-466f-8c6d-20ce42d5b405","ios":"levelo://app?vid=22879c43-c2ed-466f-8c6d-20ce42d5b405"},"vehicle_type_id":"4","last_reported":1733522953,"current_range_meters":1600,"station_id":"ce4bh092rcd13ifvqd30","pricing_plan_id":"cebpf4jnsgd1na2vs0mg"},{"bike_id":"7590f4b2-6827-42a3-90e8-66664274ba71","system_id":"levelo_inurba_marseille","lat":43.31884,"lon":5.4074,"is_reserved":false,"is_disabled":false,"rental_uris":{"android":"levelo://app?vid=7590f4b2-6827-42a3-90e8-66664274ba71","ios":"levelo://app?vid=7590f4b2-6827-42a3-90e8-66664274ba71"},"vehicle_type_id":"4","last_reported":1733522953,"current_range_meters":12000,"station_id":"ce4bhq12rcd13ifvqhig","pricing_plan_id":"cebpf4jnsgd1na2vs0mg"},{"bike_id":"9ecf6cbe-b18e-4738-99ca-aefcfa53f4eb","system_id":"levelo_inurba_marseille","lat":43.24073,"lon":5.37761,"is_reserved":false,"is_disabled":false,"rental_uris":{"android":"levelo://app?vid=9ecf6cbe-b18e-4738-99ca-aefcfa53f4eb","ios":"levelo://app?vid=9ecf6cbe-b18e-4738-99ca-aefcfa53f4eb"},"vehicle_type_id":"4","last_reported":1733522953,"current_range_meters":22000,"station_id":"ce4bhnp2rcd13ifvqgvg","pricing_plan_id":"cebpf4jnsgd1na2vs0mg"},{"bike_id":"2c562e9c-3210-461e-beb2-380d048f2f11","system_id":"levelo_inurba_marseille","lat":43.29602,"lon":5.38113,"is_reserved":false,"is_disabled":false,"rental_uris":{"android":"levelo://app?vid=2c562e9c-3210-461e-beb2-380d048f2f11","ios":"levelo://app?vid=2c562e9c-3210-461e-beb2-380d048f2f11"},"vehicle_type_id":"4","last_reported":1733522953,"current_range_meters":24400,"station_id":"ce4bgl12rcd13ifvqbo0","pricing_plan_id":"cebpf4jnsgd1na2vs0mg"},{"bike_id":"5d5a7211-9319-4543-a887-e14f0d320e32","system_id":"levelo_inurba_marseille","lat":43.30943,"lon":5.40148,"is_reserved":false,"is_disabled":false,"rental_uris":{"android":"levelo://app?vid=5d5a7211-9319-4543-a887-e14f0d320e32","ios":"levelo://app?vid=5d5a7211-9319-4543-a887-e14f0d320e32"},"vehicle_type_id":"4","last_reported":1733522953,"current_range_meters":11200,"station_id":"ce4bgvp2rcd13ifvqct0","pricing_plan_id":"cebpf4jnsgd1na2vs0mg"},{"bike_id":"a8264fb2-dad4-4c52-9230-cf80b47302d6","system_id":"levelo_inurba_marseille","lat":43.31994,"lon":5.38162,"is_reserved":false,"is_disabled":false,"rental_uris":{"android":"levelo://app?vid=a8264fb2-dad4-4c52-9230-cf80b47302d6","ios":"levelo://app?vid=a8264fb2-dad4-4c52-9230-cf80b47302d6"},"vehicle_type_id":"4","last_reported":1733522953,"current_range_meters":10800,"station_id":"ce4bhr12rcd13ifvqhpg","pricing_plan_id":"cebpf4jnsgd1na2vs0mg"},{"bike_id":"5edf82fa-e9d0-4d1f-98f1-37c98092771a","system_id":"levelo_inurba_marseille","lat":43.23194,"lon":5.35548,"is_reserved":false,"is_disabled":false,"rental_uris":{"android":"levelo://app?vid=5edf82fa-e9d0-4d1f-98f1-37c98092771a","ios":"levelo://app?vid=5edf82fa-e9d0-4d1f-98f1-37c98092771a"},"vehicle_type_id":"4","last_reported":1733522953,"current_range_meters":38800,"station_id":"ce4bhu92rcd13ifvqi70","pricing_plan_id":"cebpf4jnsgd1na2vs0mg"},{"bike_id":"9dc5edb2-b772-4c08-a511-8f6bb4a3cc65","system_id":"levelo_inurba_marseille","lat":43.29199,"lon":5.3931,"is_reserved":false,"is_disabled":false,"rental_uris":{"android":"levelo://app?vid=9dc5edb2-b772-4c08-a511-8f6bb4a3cc65","ios":"levelo://app?vid=9dc5edb2-b772-4c08-a511-8f6bb4a3cc65"},"vehicle_type_id":"4","last_reported":1733522953,"current_range_meters":24400,"station_id":"ce4bh192rcd13ifvqdd0","pricing_plan_id":"cebpf4jnsgd1na2vs0mg"},{"bike_id":"cb4a9db6-7563-4a33-a955-6eb0af1f7b34","system_id":"levelo_inurba_marseille","lat":43.28153,"lon":5.42639,"is_reserved":false,"is_disabled":false,"rental_uris":{"android":"levelo://app?vid=cb4a9db6-7563-4a33-a955-6eb0af1f7b34","ios":"levelo://app?vid=cb4a9db6-7563-4a33-a955-6eb0af1f7b34"},"vehicle_type_id":"4","last_reported":1733522953,"current_range_meters":38800,"station_id":"ce4bhnh2rcd13ifvqgug","pricing_plan_id":"cebpf4jnsgd1na2vs0mg"},{"bike_id":"114f6273-3c81-4bad-b48b-98dd8b928cc0","system_id":"levelo_inurba_marseille","lat":43.30535,"lon":5.38431,"is_reserved":false,"is_disabled":true,"rental_uris":{"android":"levelo://app?vid=114f6273-3c81-4bad-b48b-98dd8b928cc0","ios":"levelo://app?vid=114f6273-3c81-4bad-b48b-98dd8b928cc0"},"vehicle_type_id":"4","last_reported":1733522953,"current_range_meters":38800,"station_id":"ce4bgg92rcd13ifvqb30","pricing_plan_id":"cebpf4jnsgd1na2vs0mg"},{"bike_id":"4ff2b6a8-6e6f-4faa-869c-d90826565ca0","system_id":"levelo_inurba_marseille","lat":43.29958,"lon":5.41324,"is_reserved":false,"is_disabled":true,"rental_uris":{"android":"levelo://app?vid=4ff2b6a8-6e6f-4faa-869c-d90826565ca0","ios":"levelo://app?vid=4ff2b6a8-6e6f-4faa-869c-d90826565ca0"},"vehicle_type_id":"4","last_reported":1733522953,"current_range_meters":0,"station_id":"ce4bhp12rcd13ifvqh9g","pricing_plan_id":"cebpf4jnsgd1na2vs0mg"},{"bike_id":"75683291-5595-4d31-95ca-dee84c3a390c","system_id":"levelo_inurba_marseille","lat":43.25833,"lon":5.39432,"is_reserved":false,"is_disabled":false,"rental_uris":{"android":"levelo://app?vid=75683291-5595-4d31-95ca-dee84c3a390c","ios":"levelo://app?vid=75683291-5595-4d31-95ca-dee84c3a390c"},"vehicle_type_id":"4","last_reported":1733522953,"current_range_meters":38000,"station_id":"ce4bhip2rcd13ifvqft0","pricing_plan_id":"cebpf4jnsgd1na2vs0mg"},{"bike_id":"70c67278-4066-4e72-bcdc-9b0036c0c038","system_id":"levelo_inurba_marseille","lat":43.29781,"lon":5.3933,"is_reserved":false,"is_disabled":false,"rental_uris":{"android":"levelo://app?vid=70c67278-4066-4e72-bcdc-9b0036c0c038","ios":"levelo://app?vid=70c67278-4066-4e72-bcdc-9b0036c0c038"},"vehicle_type_id":"4","last_reported":1733522953,"current_range_meters":32000,"station_id":"chh1huq6cuj3fo74tm60","pricing_plan_id":"cebpf4jnsgd1na2vs0mg"},{"bike_id":"d5d4ca1a-dd8a-4ced-b1e3-fa33b9c3e1e6","system_id":"levelo_inurba_marseille","lat":43.24664,"lon":5.38165,"is_reserved":false,"is_disabled":false,"rental_uris":{"android":"levelo://app?vid=d5d4ca1a-dd8a-4ced-b1e3-fa33b9c3e1e6","ios":"levelo://app?vid=d5d4ca1a-dd8a-4ced-b1e3-fa33b9c3e1e6"},"vehicle_type_id":"4","last_reported":1733522953,"current_range_meters":11600,"station_id":"ce4bhih2rcd13ifvqfr0","pricing_plan_id":"cebpf4jnsgd1na2vs0mg"},{"bike_id":"9202c63e-372c-4469-a5c1-8e35757d1940","system_id":"levelo_inurba_marseille","lat":43.30053,"lon":5.38832,"is_reserved":false,"is_disabled":true,"rental_uris":{"android":"levelo://app?vid=9202c63e-372c-4469-a5c1-8e35757d1940","ios":"levelo://app?vid=9202c63e-372c-4469-a5c1-8e35757d1940"},"vehicle_type_id":"4","last_reported":1733522953,"current_range_meters":0,"station_id":"","pricing_plan_id":"cebpf4jnsgd1na2vs0mg"},{"bike_id":"ca283b66-130d-4415-b753-beba46e46f4c","system_id":"levelo_inurba_marseille","lat":43.31362,"lon":5.3849,"is_reserved":false,"is_disabled":false,"rental_uris":{"android":"levelo://app?vid=ca283b66-130d-4415-b753-beba46e46f4c","ios":"levelo://app?vid=ca283b66-130d-4415-b753-beba46e46f4c"},"vehicle_type_id":"4","last_reported":1733522953,"current_range_meters":13600,"station_id":"ce4bgt92rcd13ifvqcf0","pricing_plan_id":"cebpf4jnsgd1na2vs0mg"},{"bike_id":"46acab1c-b930-43bf-8bcc-35f631109a13","system_id":"levelo_inurba_marseille","lat":43.26743,"lon":5.39439,"is_reserved":false,"is_disabled":true,"rental_uris":{"android":"levelo://app?vid=46acab1c-b930-43bf-8bcc-35f631109a13","ios":"levelo://app?vid=46acab1c-b930-43bf-8bcc-35f631109a13"},"vehicle_type_id":"4","last_reported":1733522953,"current_range_meters":0,"station_id":"","pricing_plan_id":"cebpf4jnsgd1na2vs0mg"},{"bike_id":"4971f746-57b9-4d1d-9a5f-c4562675f638","system_id":"levelo_inurba_marseille","lat":43.30778,"lon":5.37651,"is_reserved":false,"is_disabled":false,"rental_uris":{"android":"levelo://app?vid=4971f746-57b9-4d1d-9a5f-c4562675f638","ios":"levelo://app?vid=4971f746-57b9-4d1d-9a5f-c4562675f638"},"vehicle_type_id":"4","last_reported":1733522953,"current_range_meters":38000,"station_id":"ce4bgv92rcd13ifvqcq0","pricing_plan_id":"cebpf4jnsgd1na2vs0mg"},{"bike_id":"0dacdf37-be46-43ac-a984-0e71b851d77b","system_id":"levelo_inurba_marseille","lat":43.27212,"lon":5.41,"is_reserved":false,"is_disabled":false,"rental_uris":{"android":"levelo://app?vid=0dacdf37-be46-43ac-a984-0e71b851d77b","ios":"levelo://app?vid=0dacdf37-be46-43ac-a984-0e71b851d77b"},"vehicle_type_id":"4","last_reported":1733522953,"current_range_meters":30000,"station_id":"ce4bhl12rcd13ifvqgf0","pricing_plan_id":"cebpf4jnsgd1na2vs0mg"},{"bike_id":"0deb7b46-3bee-4382-87b1-3984fb62457f","system_id":"levelo_inurba_marseille","lat":43.28741,"lon":5.389119,"is_reserved":false,"is_disabled":true,"rental_uris":{"android":"levelo://app?vid=0deb7b46-3bee-4382-87b1-3984fb62457f","ios":"levelo://app?vid=0deb7b46-3bee-4382-87b1-3984fb62457f"},"vehicle_type_id":"4","last_reported":1733522953,"current_range_meters":28800,"station_id":"","pricing_plan_id":"cebpf4jnsgd1na2vs0mg"},{"bike_id":"cf3e6ea0-09ff-406c-b357-28a6a6117f94","system_id":"levelo_inurba_marseille","lat":43.22932,"lon":5.35378,"is_reserved":false,"is_disabled":false,"rental_uris":{"android":"levelo://app?vid=cf3e6ea0-09ff-406c-b357-28a6a6117f94","ios":"levelo://app?vid=cf3e6ea0-09ff-406c-b357-28a6a6117f94"},"vehicle_type_id":"4","last_reported":1733522953,"current_range_meters":38800,"station_id":"cpo3532slgdg3j2ikp40","pricing_plan_id":"cebpf4jnsgd1na2vs0mg"},{"bike_id":"50d57bac-80e8-4fef-a14b-86c094c205cf","system_id":"levelo_inurba_marseille","lat":43.29282,"lon":5.40119,"is_reserved":false,"is_disabled":false,"rental_uris":{"android":"levelo://app?vid=50d57bac-80e8-4fef-a14b-86c094c205cf","ios":"levelo://app?vid=50d57bac-80e8-4fef-a14b-86c094c205cf"},"vehicle_type_id":"4","last_reported":1733522953,"current_range_meters":38000,"station_id":"ce4bh312rcd13ifvqdk0","pricing_plan_id":"cebpf4jnsgd1na2vs0mg"},{"bike_id":"07b8c281-3be1-46fd-bf35-bd455797c16c","system_id":"levelo_inurba_marseille","lat":43.23199,"lon":5.3555,"is_reserved":false,"is_disabled":false,"rental_uris":{"android":"levelo://app?vid=07b8c281-3be1-46fd-bf35-bd455797c16c","ios":"levelo://app?vid=07b8c281-3be1-46fd-bf35-bd455797c16c"},"vehicle_type_id":"4","last_reported":1733522953,"current_range_meters":37600,"station_id":"ce4bhu92rcd13ifvqi70","pricing_plan_id":"cebpf4jnsgd1na2vs0mg"},{"bike_id":"719e509a-25e4-4b1b-9830-f708d85d7593","system_id":"levelo_inurba_marseille","lat":43.29404,"lon":5.37451,"is_reserved":false,"is_disabled":true,"rental_uris":{"android":"levelo://app?vid=719e509a-25e4-4b1b-9830-f708d85d7593","ios":"levelo://app?vid=719e509a-25e4-4b1b-9830-f708d85d7593"},"vehicle_type_id":"4","last_reported":1733522953,"current_range_meters":0,"station_id":"","pricing_plan_id":"cebpf4jnsgd1na2vs0mg"},{"bike_id":"02bdc395-5a5b-4ce7-b7a2-a991ffae725c","system_id":"levelo_inurba_marseille","lat":43.25578,"lon":5.38232,"is_reserved":false,"is_disabled":false,"rental_uris":{"android":"levelo://app?vid=02bdc395-5a5b-4ce7-b7a2-a991ffae725c","ios":"levelo://app?vid=02bdc395-5a5b-4ce7-b7a2-a991ffae725c"},"vehicle_type_id":"4","last_reported":1733522953,"current_range_meters":38800,"station_id":"ce4bhih2rcd13ifvqfs0","pricing_plan_id":"cebpf4jnsgd1na2vs0mg"},{"bike_id":"7a0a2714-105e-4622-8b3e-a7dd62dc6941","system_id":"levelo_inurba_marseille","lat":43.29266,"lon":5.384189,"is_reserved":false,"is_disabled":true,"rental_uris":{"android":"levelo://app?vid=7a0a2714-105e-4622-8b3e-a7dd62dc6941","ios":"levelo://app?vid=7a0a2714-105e-4622-8b3e-a7dd62dc6941"},"vehicle_type_id":"4","last_reported":1733522953,"current_range_meters":0,"station_id":"","pricing_plan_id":"cebpf4jnsgd1na2vs0mg"},{"bike_id":"9f53acdf-b2be-4b69-b01b-87cbf7343be4","system_id":"levelo_inurba_marseille","lat":43.26493,"lon":5.3955,"is_reserved":false,"is_disabled":true,"rental_uris":{"android":"levelo://app?vid=9f53acdf-b2be-4b69-b01b-87cbf7343be4","ios":"levelo://app?vid=9f53acdf-b2be-4b69-b01b-87cbf7343be4"},"vehicle_type_id":"4","last_reported":1733522953,"current_range_meters":24400,"station_id":"ce4bhi12rcd13ifvqfq0","pricing_plan_id":"cebpf4jnsgd1na2vs0mg"},{"bike_id":"4368d2ca-3b2f-4af9-bc73-ddee3f65443d","system_id":"levelo_inurba_marseille","lat":43.28682,"lon":5.3866,"is_reserved":false,"is_disabled":false,"rental_uris":{"android":"levelo://app?vid=4368d2ca-3b2f-4af9-bc73-ddee3f65443d","ios":"levelo://app?vid=4368d2ca-3b2f-4af9-bc73-ddee3f65443d"},"vehicle_type_id":"4","last_reported":1733522953,"current_range_meters":38800,"station_id":"ce4bh492rcd13ifvqdug","pricing_plan_id":"cebpf4jnsgd1na2vs0mg"},{"bike_id":"41aa18eb-2d8c-494f-8bd4-94d9b2ab90ce","system_id":"levelo_inurba_marseille","lat":43.29267,"lon":5.38437,"is_reserved":false,"is_disabled":false,"rental_uris":{"android":"levelo://app?vid=41aa18eb-2d8c-494f-8bd4-94d9b2ab90ce","ios":"levelo://app?vid=41aa18eb-2d8c-494f-8bd4-94d9b2ab90ce"},"vehicle_type_id":"4","last_reported":1733522953,"current_range_meters":19200,"station_id":"ce4bh692rcd13ifvqea0","pricing_plan_id":"cebpf4jnsgd1na2vs0mg"},{"bike_id":"33f1a526-a5a3-4261-b1e0-d90c46ff918d","system_id":"levelo_inurba_marseille","lat":43.28157,"lon":5.42643,"is_reserved":false,"is_disabled":true,"rental_uris":{"android":"levelo://app?vid=33f1a526-a5a3-4261-b1e0-d90c46ff918d","ios":"levelo://app?vid=33f1a526-a5a3-4261-b1e0-d90c46ff918d"},"vehicle_type_id":"4","last_reported":1733522953,"current_range_meters":35600,"station_id":"ce4bhnh2rcd13ifvqgug","pricing_plan_id":"cebpf4jnsgd1na2vs0mg"},{"bike_id":"3711959c-f975-4be3-b941-128cec9c8007","system_id":"levelo_inurba_marseille","lat":43.3029,"lon":5.39207,"is_reserved":false,"is_disabled":false,"rental_uris":{"android":"levelo://app?vid=3711959c-f975-4be3-b941-128cec9c8007","ios":"levelo://app?vid=3711959c-f975-4be3-b941-128cec9c8007"},"vehicle_type_id":"4","last_reported":1733522953,"current_range_meters":36000,"station_id":"ce4bgkh2rcd13ifvqbk0","pricing_plan_id":"cebpf4jnsgd1na2vs0mg"},{"bike_id":"c406c82f-4434-48f7-a192-ebc857381c66","system_id":"levelo_inurba_marseille","lat":43.29539,"lon":5.38545,"is_reserved":false,"is_disabled":false,"rental_uris":{"android":"levelo://app?vid=c406c82f-4434-48f7-a192-ebc857381c66","ios":"levelo://app?vid=c406c82f-4434-48f7-a192-ebc857381c66"},"vehicle_type_id":"4","last_reported":1733522953,"current_range_meters":28000,"station_id":"ce4bgih2rcd13ifvqba0","pricing_plan_id":"cebpf4jnsgd1na2vs0mg"},{"bike_id":"5b135f0b-55ae-4064-aacb-86482514ac4f","system_id":"levelo_inurba_marseille","lat":43.28569,"lon":5.39505,"is_reserved":false,"is_disabled":false,"rental_uris":{"android":"levelo://app?vid=5b135f0b-55ae-4064-aacb-86482514ac4f","ios":"levelo://app?vid=5b135f0b-55ae-4064-aacb-86482514ac4f"},"vehicle_type_id":"4","last_reported":1733522953,"current_range_meters":22000,"station_id":"ce4bh292rcd13ifvqdg0","pricing_plan_id":"cebpf4jnsgd1na2vs0mg"},{"bike_id":"7ac0a9db-2ca6-488d-ba70-f84d0c992956","system_id":"levelo_inurba_marseille","lat":43.246614,"lon":5.381645,"is_reserved":false,"is_disabled":false,"rental_uris":{"android":"levelo://app?vid=7ac0a9db-2ca6-488d-ba70-f84d0c992956","ios":"levelo://app?vid=7ac0a9db-2ca6-488d-ba70-f84d0c992956"},"vehicle_type_id":"4","last_reported":1733522953,"current_range_meters":6000,"station_id":"ce4bhih2rcd13ifvqfr0","pricing_plan_id":"cebpf4jnsgd1na2vs0mg"},{"bike_id":"b01ba929-1580-401b-973d-e4a15d746d4a","system_id":"levelo_inurba_marseille","lat":43.22928,"lon":5.35377,"is_reserved":false,"is_disabled":false,"rental_uris":{"android":"levelo://app?vid=b01ba929-1580-401b-973d-e4a15d746d4a","ios":"levelo://app?vid=b01ba929-1580-401b-973d-e4a15d746d4a"},"vehicle_type_id":"4","last_reported":1733522953,"current_range_meters":7200,"station_id":"cpo3532slgdg3j2ikp40","pricing_plan_id":"cebpf4jnsgd1na2vs0mg"},{"bike_id":"8c1e28b4-904f-48d7-ba6d-d3b5b5d05922","system_id":"levelo_inurba_marseille","lat":43.29387,"lon":5.40107,"is_reserved":false,"is_disabled":true,"rental_uris":{"android":"levelo://app?vid=8c1e28b4-904f-48d7-ba6d-d3b5b5d05922","ios":"levelo://app?vid=8c1e28b4-904f-48d7-ba6d-d3b5b5d05922"},"vehicle_type_id":"4","last_reported":1733522953,"current_range_meters":0,"station_id":"","pricing_plan_id":"cebpf4jnsgd1na2vs0mg"},{"bike_id":"0a43f817-3d21-4907-aab1-172705ef3170","system_id":"levelo_inurba_marseille","lat":43.27819,"lon":5.40721,"is_reserved":false,"is_disabled":false,"rental_uris":{"android":"levelo://app?vid=0a43f817-3d21-4907-aab1-172705ef3170","ios":"levelo://app?vid=0a43f817-3d21-4907-aab1-172705ef3170"},"vehicle_type_id":"4","last_reported":1733522953,"current_range_meters":27600,"station_id":"ce4bhnh2rcd13ifvqgtg","pricing_plan_id":"cebpf4jnsgd1na2vs0mg"},{"bike_id":"7b9b3679-8df0-485d-a17a-ac62ea96167a","system_id":"levelo_inurba_marseille","lat":43.27997,"lon":5.38644,"is_reserved":false,"is_disabled":true,"rental_uris":{"android":"levelo://app?vid=7b9b3679-8df0-485d-a17a-ac62ea96167a","ios":"levelo://app?vid=7b9b3679-8df0-485d-a17a-ac62ea96167a"},"vehicle_type_id":"4","last_reported":1733522953,"current_range_meters":12400,"station_id":"","pricing_plan_id":"cebpf4jnsgd1na2vs0mg"},{"bike_id":"704b7f91-c44b-4253-9491-46c217e82307","system_id":"levelo_inurba_marseille","lat":43.29301,"lon":5.37417,"is_reserved":false,"is_disabled":true,"rental_uris":{"android":"levelo://app?vid=704b7f91-c44b-4253-9491-46c217e82307","ios":"levelo://app?vid=704b7f91-c44b-4253-9491-46c217e82307"},"vehicle_type_id":"4","last_reported":1733522953,"current_range_meters":27600,"station_id":"ce4bgi12rcd13ifvqb70","pricing_plan_id":"cebpf4jnsgd1na2vs0mg"},{"bike_id":"25f4ddb9-ba04-4cb2-a9fb-3248e0dc743c","system_id":"levelo_inurba_marseille","lat":43.27812,"lon":5.40717,"is_reserved":false,"is_disabled":false,"rental_uris":{"android":"levelo://app?vid=25f4ddb9-ba04-4cb2-a9fb-3248e0dc743c","ios":"levelo://app?vid=25f4ddb9-ba04-4cb2-a9fb-3248e0dc743c"},"vehicle_type_id":"4","last_reported":1733522953,"current_range_meters":27200,"station_id":"ce4bhnh2rcd13ifvqgtg","pricing_plan_id":"cebpf4jnsgd1na2vs0mg"},{"bike_id":"45bc84bb-f1e4-4f85-b306-007bc83319f8","system_id":"levelo_inurba_marseille","lat":43.29782,"lon":5.39335,"is_reserved":false,"is_disabled":false,"rental_uris":{"android":"levelo://app?vid=45bc84bb-f1e4-4f85-b306-007bc83319f8","ios":"levelo://app?vid=45bc84bb-f1e4-4f85-b306-007bc83319f8"},"vehicle_type_id":"4","last_reported":1733522953,"current_range_meters":36800,"station_id":"chh1huq6cuj3fo74tm60","pricing_plan_id":"cebpf4jnsgd1na2vs0mg"},{"bike_id":"3b89085e-245e-4a7c-80c1-de81adb94245","system_id":"levelo_inurba_marseille","lat":43.29527,"lon":5.3855,"is_reserved":false,"is_disabled":false,"rental_uris":{"android":"levelo://app?vid=3b89085e-245e-4a7c-80c1-de81adb94245","ios":"levelo://app?vid=3b89085e-245e-4a7c-80c1-de81adb94245"},"vehicle_type_id":"4","last_reported":1733522953,"current_range_meters":6000,"station_id":"ce4bgih2rcd13ifvqba0","pricing_plan_id":"cebpf4jnsgd1na2vs0mg"},{"bike_id":"71e12d8a-8240-4421-924b-a139a8139c6c","system_id":"levelo_inurba_marseille","lat":43.33612,"lon":5.41026,"is_reserved":false,"is_disabled":false,"rental_uris":{"android":"levelo://app?vid=71e12d8a-8240-4421-924b-a139a8139c6c","ios":"levelo://app?vid=71e12d8a-8240-4421-924b-a139a8139c6c"},"vehicle_type_id":"4","last_reported":1733522953,"current_range_meters":38800,"station_id":"ce4bhqh2rcd13ifvqhmg","pricing_plan_id":"cebpf4jnsgd1na2vs0mg"},{"bike_id":"282caff4-02c7-46cf-a9dc-fa558154bfc1","system_id":"levelo_inurba_marseille","lat":43.28156,"lon":5.42643,"is_reserved":false,"is_disabled":false,"rental_uris":{"android":"levelo://app?vid=282caff4-02c7-46cf-a9dc-fa558154bfc1","ios":"levelo://app?vid=282caff4-02c7-46cf-a9dc-fa558154bfc1"},"vehicle_type_id":"4","last_reported":1733522953,"current_range_meters":31200,"station_id":"ce4bhnh2rcd13ifvqgug","pricing_plan_id":"cebpf4jnsgd1na2vs0mg"},{"bike_id":"15d483c9-d89c-4455-ab4a-12989d765bc7","system_id":"levelo_inurba_marseille","lat":43.29204,"lon":5.39328,"is_reserved":false,"is_disabled":false,"rental_uris":{"android":"levelo://app?vid=15d483c9-d89c-4455-ab4a-12989d765bc7","ios":"levelo://app?vid=15d483c9-d89c-4455-ab4a-12989d765bc7"},"vehicle_type_id":"4","last_reported":1733522953,"current_range_meters":29600,"station_id":"ce4bh192rcd13ifvqdd0","pricing_plan_id":"cebpf4jnsgd1na2vs0mg"},{"bike_id":"6ad8fff5-6505-40fc-8922-2acdd3c82e7b","system_id":"levelo_inurba_marseille","lat":43.29791,"lon":5.38125,"is_reserved":false,"is_disabled":true,"rental_uris":{"android":"levelo://app?vid=6ad8fff5-6505-40fc-8922-2acdd3c82e7b","ios":"levelo://app?vid=6ad8fff5-6505-40fc-8922-2acdd3c82e7b"},"vehicle_type_id":"4","last_reported":1733522953,"current_range_meters":22400,"station_id":"ce4bgip2rcd13ifvqbb0","pricing_plan_id":"cebpf4jnsgd1na2vs0mg"},{"bike_id":"642fe74c-56ea-4af8-b120-97a44fc41b1d","system_id":"levelo_inurba_marseille","lat":43.2587,"lon":5.399,"is_reserved":false,"is_disabled":false,"rental_uris":{"android":"levelo://app?vid=642fe74c-56ea-4af8-b120-97a44fc41b1d","ios":"levelo://app?vid=642fe74c-56ea-4af8-b120-97a44fc41b1d"},"vehicle_type_id":"4","last_reported":1733522953,"current_range_meters":27600,"station_id":"ce4bhl92rcd13ifvqghg","pricing_plan_id":"cebpf4jnsgd1na2vs0mg"},{"bike_id":"ba8ee62b-e1f8-4737-a62b-c2c4e1c22f92","system_id":"levelo_inurba_marseille","lat":43.260592,"lon":5.393963,"is_reserved":false,"is_disabled":false,"rental_uris":{"android":"levelo://app?vid=ba8ee62b-e1f8-4737-a62b-c2c4e1c22f92","ios":"levelo://app?vid=ba8ee62b-e1f8-4737-a62b-c2c4e1c22f92"},"vehicle_type_id":"4","last_reported":1733522953,"current_range_meters":30000,"station_id":"","pricing_plan_id":"cebpf4jnsgd1na2vs0mg"},{"bike_id":"bbecf83f-a31c-4eab-8c84-16c4f2fc6ae3","system_id":"levelo_inurba_marseille","lat":43.24662,"lon":5.38171,"is_reserved":false,"is_disabled":false,"rental_uris":{"android":"levelo://app?vid=bbecf83f-a31c-4eab-8c84-16c4f2fc6ae3","ios":"levelo://app?vid=bbecf83f-a31c-4eab-8c84-16c4f2fc6ae3"},"vehicle_type_id":"4","last_reported":1733522953,"current_range_meters":22400,"station_id":"ce4bhih2rcd13ifvqfr0","pricing_plan_id":"cebpf4jnsgd1na2vs0mg"},{"bike_id":"c4802827-68a1-4daf-a934-fc0e931fd8b8","system_id":"levelo_inurba_marseille","lat":43.27625,"lon":5.361,"is_reserved":false,"is_disabled":false,"rental_uris":{"android":"levelo://app?vid=c4802827-68a1-4daf-a934-fc0e931fd8b8","ios":"levelo://app?vid=c4802827-68a1-4daf-a934-fc0e931fd8b8"},"vehicle_type_id":"4","last_reported":1733522953,"current_range_meters":39200,"station_id":"ce4bgj92rcd13ifvqbe0","pricing_plan_id":"cebpf4jnsgd1na2vs0mg"},{"bike_id":"9a1b638e-8673-4af6-ae46-791d1ec9da6e","system_id":"levelo_inurba_marseille","lat":43.28098,"lon":5.37829,"is_reserved":false,"is_disabled":true,"rental_uris":{"android":"levelo://app?vid=9a1b638e-8673-4af6-ae46-791d1ec9da6e","ios":"levelo://app?vid=9a1b638e-8673-4af6-ae46-791d1ec9da6e"},"vehicle_type_id":"4","last_reported":1733522953,"current_range_meters":800,"station_id":"ce4bha12rcd13ifvqee0","pricing_plan_id":"cebpf4jnsgd1na2vs0mg"},{"bike_id":"f0fff726-5d30-4073-87af-34eb8ff5d326","system_id":"levelo_inurba_marseille","lat":43.28352,"lon":5.381,"is_reserved":false,"is_disabled":false,"rental_uris":{"android":"levelo://app?vid=f0fff726-5d30-4073-87af-34eb8ff5d326","ios":"levelo://app?vid=f0fff726-5d30-4073-87af-34eb8ff5d326"},"vehicle_type_id":"4","last_reported":1733522953,"current_range_meters":39200,"station_id":"ce4bh412rcd13ifvqdr0","pricing_plan_id":"cebpf4jnsgd1na2vs0mg"},{"bike_id":"99b1ba3d-8d30-4b73-8f3b-408b0fefea6d","system_id":"levelo_inurba_marseille","lat":43.2954,"lon":5.38556,"is_reserved":false,"is_disabled":false,"rental_uris":{"android":"levelo://app?vid=99b1ba3d-8d30-4b73-8f3b-408b0fefea6d","ios":"levelo://app?vid=99b1ba3d-8d30-4b73-8f3b-408b0fefea6d"},"vehicle_type_id":"4","last_reported":1733522953,"current_range_meters":38800,"station_id":"ce4bgih2rcd13ifvqba0","pricing_plan_id":"cebpf4jnsgd1na2vs0mg"},{"bike_id":"33fa1c3e-8b2f-4b4a-86ae-2f664a2cbfce","system_id":"levelo_inurba_marseille","lat":43.32476,"lon":5.36565,"is_reserved":false,"is_disabled":false,"rental_uris":{"android":"levelo://app?vid=33fa1c3e-8b2f-4b4a-86ae-2f664a2cbfce","ios":"levelo://app?vid=33fa1c3e-8b2f-4b4a-86ae-2f664a2cbfce"},"vehicle_type_id":"4","last_reported":1733522953,"current_range_meters":8000,"station_id":"ce4bhs12rcd13ifvqhvg","pricing_plan_id":"cebpf4jnsgd1na2vs0mg"},{"bike_id":"fdfa7343-2268-48e5-80f7-2cc9ddbbf4d5","system_id":"levelo_inurba_marseille","lat":43.29524,"lon":5.39042,"is_reserved":false,"is_disabled":false,"rental_uris":{"android":"levelo://app?vid=fdfa7343-2268-48e5-80f7-2cc9ddbbf4d5","ios":"levelo://app?vid=fdfa7343-2268-48e5-80f7-2cc9ddbbf4d5"},"vehicle_type_id":"4","last_reported":1733522953,"current_range_meters":27200,"station_id":"ce4bh3p2rcd13ifvqdp0","pricing_plan_id":"cebpf4jnsgd1na2vs0mg"},{"bike_id":"4013f548-bd7d-4226-b87c-0ebbe8ddee6c","system_id":"levelo_inurba_marseille","lat":43.31275,"lon":5.40177,"is_reserved":false,"is_disabled":false,"rental_uris":{"android":"levelo://app?vid=4013f548-bd7d-4226-b87c-0ebbe8ddee6c","ios":"levelo://app?vid=4013f548-bd7d-4226-b87c-0ebbe8ddee6c"},"vehicle_type_id":"4","last_reported":1733522953,"current_range_meters":28000,"station_id":"ce4bh092rcd13ifvqd30","pricing_plan_id":"cebpf4jnsgd1na2vs0mg"},{"bike_id":"c33a3681-6741-4209-9566-0b28a63b6525","system_id":"levelo_inurba_marseille","lat":43.312754,"lon":5.40174,"is_reserved":false,"is_disabled":false,"rental_uris":{"android":"levelo://app?vid=c33a3681-6741-4209-9566-0b28a63b6525","ios":"levelo://app?vid=c33a3681-6741-4209-9566-0b28a63b6525"},"vehicle_type_id":"4","last_reported":1733522953,"current_range_meters":26800,"station_id":"ce4bh092rcd13ifvqd30","pricing_plan_id":"cebpf4jnsgd1na2vs0mg"},{"bike_id":"fd98eaa9-4d55-4e7b-aa90-0d14707466d9","system_id":"levelo_inurba_marseille","lat":43.337444,"lon":5.374475,"is_reserved":false,"is_disabled":true,"rental_uris":{"android":"levelo://app?vid=fd98eaa9-4d55-4e7b-aa90-0d14707466d9","ios":"levelo://app?vid=fd98eaa9-4d55-4e7b-aa90-0d14707466d9"},"vehicle_type_id":"4","last_reported":1733522953,"current_range_meters":0,"station_id":"","pricing_plan_id":"cebpf4jnsgd1na2vs0mg"},{"bike_id":"b2bb7dcd-fcc3-454a-9506-7fc343389f30","system_id":"levelo_inurba_marseille","lat":43.28272,"lon":5.35071,"is_reserved":false,"is_disabled":false,"rental_uris":{"android":"levelo://app?vid=b2bb7dcd-fcc3-454a-9506-7fc343389f30","ios":"levelo://app?vid=b2bb7dcd-fcc3-454a-9506-7fc343389f30"},"vehicle_type_id":"4","last_reported":1733522953,"current_range_meters":32800,"station_id":"ce4bhbp2rcd13ifvqerg","pricing_plan_id":"cebpf4jnsgd1na2vs0mg"},{"bike_id":"f868856d-a20e-4dbd-990b-70582cc132b9","system_id":"levelo_inurba_marseille","lat":43.24994,"lon":5.38939,"is_reserved":false,"is_disabled":false,"rental_uris":{"android":"levelo://app?vid=f868856d-a20e-4dbd-990b-70582cc132b9","ios":"levelo://app?vid=f868856d-a20e-4dbd-990b-70582cc132b9"},"vehicle_type_id":"4","last_reported":1733522953,"current_range_meters":37600,"station_id":"ce4bhgp2rcd13ifvqfd0","pricing_plan_id":"cebpf4jnsgd1na2vs0mg"},{"bike_id":"9326376e-00de-40c2-a064-6a3939b119f0","system_id":"levelo_inurba_marseille","lat":43.26681,"lon":5.3827,"is_reserved":false,"is_disabled":false,"rental_uris":{"android":"levelo://app?vid=9326376e-00de-40c2-a064-6a3939b119f0","ios":"levelo://app?vid=9326376e-00de-40c2-a064-6a3939b119f0"},"vehicle_type_id":"4","last_reported":1733522953,"current_range_meters":38000,"station_id":"ce4bhg92rcd13ifvqf90","pricing_plan_id":"cebpf4jnsgd1na2vs0mg"},{"bike_id":"b1c4eb48-3657-4b66-b5ed-53507d84fe46","system_id":"levelo_inurba_marseille","lat":43.29794,"lon":5.39351,"is_reserved":false,"is_disabled":true,"rental_uris":{"android":"levelo://app?vid=b1c4eb48-3657-4b66-b5ed-53507d84fe46","ios":"levelo://app?vid=b1c4eb48-3657-4b66-b5ed-53507d84fe46"},"vehicle_type_id":"4","last_reported":1733522953,"current_range_meters":0,"station_id":"chh1huq6cuj3fo74tm60","pricing_plan_id":"cebpf4jnsgd1na2vs0mg"},{"bike_id":"a23ed081-f92b-4496-b256-77a531661e88","system_id":"levelo_inurba_marseille","lat":43.28273,"lon":5.35068,"is_reserved":false,"is_disabled":false,"rental_uris":{"android":"levelo://app?vid=a23ed081-f92b-4496-b256-77a531661e88","ios":"levelo://app?vid=a23ed081-f92b-4496-b256-77a531661e88"},"vehicle_type_id":"4","last_reported":1733522953,"current_range_meters":38800,"station_id":"ce4bhbp2rcd13ifvqerg","pricing_plan_id":"cebpf4jnsgd1na2vs0mg"},{"bike_id":"1505fbfb-8e3b-4f0f-a1cc-003e44beeacb","system_id":"levelo_inurba_marseille","lat":43.3266,"lon":5.41002,"is_reserved":false,"is_disabled":false,"rental_uris":{"android":"levelo://app?vid=1505fbfb-8e3b-4f0f-a1cc-003e44beeacb","ios":"levelo://app?vid=1505fbfb-8e3b-4f0f-a1cc-003e44beeacb"},"vehicle_type_id":"4","last_reported":1733522953,"current_range_meters":39200,"station_id":"ce4bhpp2rcd13ifvqhgg","pricing_plan_id":"cebpf4jnsgd1na2vs0mg"},{"bike_id":"4566eeb6-977d-42bf-87a0-cde54400907a","system_id":"levelo_inurba_marseille","lat":43.27986,"lon":5.41651,"is_reserved":false,"is_disabled":false,"rental_uris":{"android":"levelo://app?vid=4566eeb6-977d-42bf-87a0-cde54400907a","ios":"levelo://app?vid=4566eeb6-977d-42bf-87a0-cde54400907a"},"vehicle_type_id":"4","last_reported":1733522953,"current_range_meters":15200,"station_id":"ce4bho12rcd13ifvqh1g","pricing_plan_id":"cebpf4jnsgd1na2vs0mg"},{"bike_id":"c2d8a1c2-d166-4a36-b32f-beec95c93bd5","system_id":"levelo_inurba_marseille","lat":43.33756,"lon":5.37459,"is_reserved":false,"is_disabled":false,"rental_uris":{"android":"levelo://app?vid=c2d8a1c2-d166-4a36-b32f-beec95c93bd5","ios":"levelo://app?vid=c2d8a1c2-d166-4a36-b32f-beec95c93bd5"},"vehicle_type_id":"4","last_reported":1733522953,"current_range_meters":3200,"station_id":"","pricing_plan_id":"cebpf4jnsgd1na2vs0mg"},{"bike_id":"b31740ba-31e3-4310-858d-71d9c7b26f3a","system_id":"levelo_inurba_marseille","lat":43.29258,"lon":5.38438,"is_reserved":false,"is_disabled":true,"rental_uris":{"android":"levelo://app?vid=b31740ba-31e3-4310-858d-71d9c7b26f3a","ios":"levelo://app?vid=b31740ba-31e3-4310-858d-71d9c7b26f3a"},"vehicle_type_id":"4","last_reported":1733522953,"current_range_meters":38800,"station_id":"ce4bh692rcd13ifvqea0","pricing_plan_id":"cebpf4jnsgd1na2vs0mg"},{"bike_id":"7a7888d2-4b0b-4186-8376-568c3b2ce15a","system_id":"levelo_inurba_marseille","lat":43.29435,"lon":5.38631,"is_reserved":false,"is_disabled":true,"rental_uris":{"android":"levelo://app?vid=7a7888d2-4b0b-4186-8376-568c3b2ce15a","ios":"levelo://app?vid=7a7888d2-4b0b-4186-8376-568c3b2ce15a"},"vehicle_type_id":"4","last_reported":1733522953,"current_range_meters":0,"station_id":"ce4bh2h2rcd13ifvqdh0","pricing_plan_id":"cebpf4jnsgd1na2vs0mg"},{"bike_id":"417618d8-db3f-4039-95f4-2f088c5f4155","system_id":"levelo_inurba_marseille","lat":43.27495,"lon":5.4245,"is_reserved":false,"is_disabled":false,"rental_uris":{"android":"levelo://app?vid=417618d8-db3f-4039-95f4-2f088c5f4155","ios":"levelo://app?vid=417618d8-db3f-4039-95f4-2f088c5f4155"},"vehicle_type_id":"4","last_reported":1733522953,"current_range_meters":28800,"station_id":"ce4bhn92rcd13ifvqgrg","pricing_plan_id":"cebpf4jnsgd1na2vs0mg"},{"bike_id":"f86ac28e-ca50-41ff-94b9-22727c68aecb","system_id":"levelo_inurba_marseille","lat":43.27175,"lon":5.409906,"is_reserved":false,"is_disabled":false,"rental_uris":{"android":"levelo://app?vid=f86ac28e-ca50-41ff-94b9-22727c68aecb","ios":"levelo://app?vid=f86ac28e-ca50-41ff-94b9-22727c68aecb"},"vehicle_type_id":"4","last_reported":1733522953,"current_range_meters":38400,"station_id":"ce4bhl12rcd13ifvqgf0","pricing_plan_id":"cebpf4jnsgd1na2vs0mg"},{"bike_id":"c0d7fdb4-b085-4eab-9986-a67b37b05d88","system_id":"levelo_inurba_marseille","lat":43.30862,"lon":5.39635,"is_reserved":false,"is_disabled":false,"rental_uris":{"android":"levelo://app?vid=c0d7fdb4-b085-4eab-9986-a67b37b05d88","ios":"levelo://app?vid=c0d7fdb4-b085-4eab-9986-a67b37b05d88"},"vehicle_type_id":"4","last_reported":1733522953,"current_range_meters":10000,"station_id":"ce4bh012rcd13ifvqcv0","pricing_plan_id":"cebpf4jnsgd1na2vs0mg"},{"bike_id":"374b48ab-8dfc-421b-8293-02e82eaeda9a","system_id":"levelo_inurba_marseille","lat":43.2928,"lon":5.4011,"is_reserved":false,"is_disabled":false,"rental_uris":{"android":"levelo://app?vid=374b48ab-8dfc-421b-8293-02e82eaeda9a","ios":"levelo://app?vid=374b48ab-8dfc-421b-8293-02e82eaeda9a"},"vehicle_type_id":"4","last_reported":1733522953,"current_range_meters":28800,"station_id":"ce4bh312rcd13ifvqdk0","pricing_plan_id":"cebpf4jnsgd1na2vs0mg"},{"bike_id":"5f931423-c6d4-4ccd-bb36-72de1fa269ee","system_id":"levelo_inurba_marseille","lat":43.29529,"lon":5.3904,"is_reserved":false,"is_disabled":false,"rental_uris":{"android":"levelo://app?vid=5f931423-c6d4-4ccd-bb36-72de1fa269ee","ios":"levelo://app?vid=5f931423-c6d4-4ccd-bb36-72de1fa269ee"},"vehicle_type_id":"4","last_reported":1733522953,"current_range_meters":38800,"station_id":"ce4bh3p2rcd13ifvqdp0","pricing_plan_id":"cebpf4jnsgd1na2vs0mg"},{"bike_id":"d9d2038e-960e-46bf-bc8e-b074c4cd1a18","system_id":"levelo_inurba_marseille","lat":43.29422,"lon":5.3863,"is_reserved":false,"is_disabled":false,"rental_uris":{"android":"levelo://app?vid=d9d2038e-960e-46bf-bc8e-b074c4cd1a18","ios":"levelo://app?vid=d9d2038e-960e-46bf-bc8e-b074c4cd1a18"},"vehicle_type_id":"4","last_reported":1733522953,"current_range_meters":27200,"station_id":"ce4bh2h2rcd13ifvqdh0","pricing_plan_id":"cebpf4jnsgd1na2vs0mg"},{"bike_id":"4bbde7cd-beec-4986-9046-7e5b1a9c455c","system_id":"levelo_inurba_marseille","lat":43.30594,"lon":5.3718,"is_reserved":false,"is_disabled":false,"rental_uris":{"android":"levelo://app?vid=4bbde7cd-beec-4986-9046-7e5b1a9c455c","ios":"levelo://app?vid=4bbde7cd-beec-4986-9046-7e5b1a9c455c"},"vehicle_type_id":"4","last_reported":1733522953,"current_range_meters":8000,"station_id":"","pricing_plan_id":"cebpf4jnsgd1na2vs0mg"},{"bike_id":"37727576-2d28-4525-b065-40affdaee0f8","system_id":"levelo_inurba_marseille","lat":43.32363,"lon":5.38879,"is_reserved":false,"is_disabled":false,"rental_uris":{"android":"levelo://app?vid=37727576-2d28-4525-b065-40affdaee0f8","ios":"levelo://app?vid=37727576-2d28-4525-b065-40affdaee0f8"},"vehicle_type_id":"4","last_reported":1733522953,"current_range_meters":34800,"station_id":"ce4bhqp2rcd13ifvqhog","pricing_plan_id":"cebpf4jnsgd1na2vs0mg"},{"bike_id":"97884a7a-e895-4fd6-9da3-4992de1fbd62","system_id":"levelo_inurba_marseille","lat":43.31271,"lon":5.4017,"is_reserved":false,"is_disabled":false,"rental_uris":{"android":"levelo://app?vid=97884a7a-e895-4fd6-9da3-4992de1fbd62","ios":"levelo://app?vid=97884a7a-e895-4fd6-9da3-4992de1fbd62"},"vehicle_type_id":"4","last_reported":1733522953,"current_range_meters":39200,"station_id":"ce4bh092rcd13ifvqd30","pricing_plan_id":"cebpf4jnsgd1na2vs0mg"},{"bike_id":"f5561434-0740-4a3c-abc2-013f37687b8d","system_id":"levelo_inurba_marseille","lat":43.24819,"lon":5.3746,"is_reserved":false,"is_disabled":true,"rental_uris":{"android":"levelo://app?vid=f5561434-0740-4a3c-abc2-013f37687b8d","ios":"levelo://app?vid=f5561434-0740-4a3c-abc2-013f37687b8d"},"vehicle_type_id":"4","last_reported":1733522953,"current_range_meters":38800,"station_id":"ce4bhgh2rcd13ifvqfb0","pricing_plan_id":"cebpf4jnsgd1na2vs0mg"},{"bike_id":"9a75aec2-4c05-4f1f-9fe7-c8697c3944da","system_id":"levelo_inurba_marseille","lat":43.29441,"lon":5.39755,"is_reserved":false,"is_disabled":false,"rental_uris":{"android":"levelo://app?vid=9a75aec2-4c05-4f1f-9fe7-c8697c3944da","ios":"levelo://app?vid=9a75aec2-4c05-4f1f-9fe7-c8697c3944da"},"vehicle_type_id":"4","last_reported":1733522953,"current_range_meters":35600,"station_id":"ce4bh3h2rcd13ifvqdo0","pricing_plan_id":"cebpf4jnsgd1na2vs0mg"},{"bike_id":"d0f7cf12-d262-4a8b-bc2c-9dac312ac5fe","system_id":"levelo_inurba_marseille","lat":43.30295,"lon":5.39207,"is_reserved":false,"is_disabled":false,"rental_uris":{"android":"levelo://app?vid=d0f7cf12-d262-4a8b-bc2c-9dac312ac5fe","ios":"levelo://app?vid=d0f7cf12-d262-4a8b-bc2c-9dac312ac5fe"},"vehicle_type_id":"4","last_reported":1733522953,"current_range_meters":38800,"station_id":"ce4bgkh2rcd13ifvqbk0","pricing_plan_id":"cebpf4jnsgd1na2vs0mg"},{"bike_id":"2f58fc96-8b8a-4bf1-ba03-dc15dd9ec024","system_id":"levelo_inurba_marseille","lat":43.29623,"lon":5.3702,"is_reserved":false,"is_disabled":true,"rental_uris":{"android":"levelo://app?vid=2f58fc96-8b8a-4bf1-ba03-dc15dd9ec024","ios":"levelo://app?vid=2f58fc96-8b8a-4bf1-ba03-dc15dd9ec024"},"vehicle_type_id":"4","last_reported":1733522953,"current_range_meters":800,"station_id":"","pricing_plan_id":"cebpf4jnsgd1na2vs0mg"},{"bike_id":"319d512d-220d-4495-913c-e3953810d0ee","system_id":"levelo_inurba_marseille","lat":43.29524,"lon":5.37509,"is_reserved":false,"is_disabled":false,"rental_uris":{"android":"levelo://app?vid=319d512d-220d-4495-913c-e3953810d0ee","ios":"levelo://app?vid=319d512d-220d-4495-913c-e3953810d0ee"},"vehicle_type_id":"4","last_reported":1733522953,"current_range_meters":35600,"station_id":"ce4bgkp2rcd13ifvqbmg","pricing_plan_id":"cebpf4jnsgd1na2vs0mg"},{"bike_id":"72e29cff-f685-43b0-a2f9-babaa1c44344","system_id":"levelo_inurba_marseille","lat":43.23959,"lon":5.3664,"is_reserved":false,"is_disabled":false,"rental_uris":{"android":"levelo://app?vid=72e29cff-f685-43b0-a2f9-babaa1c44344","ios":"levelo://app?vid=72e29cff-f685-43b0-a2f9-babaa1c44344"},"vehicle_type_id":"4","last_reported":1733522953,"current_range_meters":24400,"station_id":"ce4bhi12rcd13ifvqfp0","pricing_plan_id":"cebpf4jnsgd1na2vs0mg"},{"bike_id":"79fdcfe0-c070-4055-82fa-9b214f88285b","system_id":"levelo_inurba_marseille","lat":43.29911,"lon":5.37472,"is_reserved":false,"is_disabled":false,"rental_uris":{"android":"levelo://app?vid=79fdcfe0-c070-4055-82fa-9b214f88285b","ios":"levelo://app?vid=79fdcfe0-c070-4055-82fa-9b214f88285b"},"vehicle_type_id":"4","last_reported":1733522953,"current_range_meters":26000,"station_id":"ce4bgjh2rcd13ifvqbg0","pricing_plan_id":"cebpf4jnsgd1na2vs0mg"},{"bike_id":"e3c47c26-d8fb-473d-90b5-080460f315d8","system_id":"levelo_inurba_marseille","lat":43.28268,"lon":5.35062,"is_reserved":false,"is_disabled":false,"rental_uris":{"android":"levelo://app?vid=e3c47c26-d8fb-473d-90b5-080460f315d8","ios":"levelo://app?vid=e3c47c26-d8fb-473d-90b5-080460f315d8"},"vehicle_type_id":"4","last_reported":1733522953,"current_range_meters":2800,"station_id":"ce4bhbp2rcd13ifvqerg","pricing_plan_id":"cebpf4jnsgd1na2vs0mg"},{"bike_id":"ef2fc74e-d5d5-442a-9728-8c95cb21eb49","system_id":"levelo_inurba_marseille","lat":43.27814,"lon":5.40725,"is_reserved":false,"is_disabled":false,"rental_uris":{"android":"levelo://app?vid=ef2fc74e-d5d5-442a-9728-8c95cb21eb49","ios":"levelo://app?vid=ef2fc74e-d5d5-442a-9728-8c95cb21eb49"},"vehicle_type_id":"4","last_reported":1733522953,"current_range_meters":30000,"station_id":"ce4bhnh2rcd13ifvqgtg","pricing_plan_id":"cebpf4jnsgd1na2vs0mg"},{"bike_id":"28121aa3-7c19-4b1b-a44a-d17aed6b8d94","system_id":"levelo_inurba_marseille","lat":43.337444,"lon":5.374475,"is_reserved":false,"is_disabled":false,"rental_uris":{"android":"levelo://app?vid=28121aa3-7c19-4b1b-a44a-d17aed6b8d94","ios":"levelo://app?vid=28121aa3-7c19-4b1b-a44a-d17aed6b8d94"},"vehicle_type_id":"4","last_reported":1733522953,"current_range_meters":32000,"station_id":"","pricing_plan_id":"cebpf4jnsgd1na2vs0mg"},{"bike_id":"62dddee1-1100-4d8c-839c-64951e09afde","system_id":"levelo_inurba_marseille","lat":43.25252,"lon":5.40521,"is_reserved":false,"is_disabled":true,"rental_uris":{"android":"levelo://app?vid=62dddee1-1100-4d8c-839c-64951e09afde","ios":"levelo://app?vid=62dddee1-1100-4d8c-839c-64951e09afde"},"vehicle_type_id":"4","last_reported":1733522953,"current_range_meters":19600,"station_id":"","pricing_plan_id":"cebpf4jnsgd1na2vs0mg"},{"bike_id":"b57ac3ac-1cb9-4a0e-9880-d76a5f5fa301","system_id":"levelo_inurba_marseille","lat":43.26209,"lon":5.37926,"is_reserved":false,"is_disabled":false,"rental_uris":{"android":"levelo://app?vid=b57ac3ac-1cb9-4a0e-9880-d76a5f5fa301","ios":"levelo://app?vid=b57ac3ac-1cb9-4a0e-9880-d76a5f5fa301"},"vehicle_type_id":"4","last_reported":1733522953,"current_range_meters":38800,"station_id":"ce4bhjp2rcd13ifvqg90","pricing_plan_id":"cebpf4jnsgd1na2vs0mg"},{"bike_id":"f3f8a736-97f0-478a-bf1d-83917568f7df","system_id":"levelo_inurba_marseille","lat":43.30565,"lon":5.36491,"is_reserved":false,"is_disabled":true,"rental_uris":{"android":"levelo://app?vid=f3f8a736-97f0-478a-bf1d-83917568f7df","ios":"levelo://app?vid=f3f8a736-97f0-478a-bf1d-83917568f7df"},"vehicle_type_id":"4","last_reported":1733522953,"current_range_meters":38800,"station_id":"ce4bgs12rcd13ifvqcag","pricing_plan_id":"cebpf4jnsgd1na2vs0mg"},{"bike_id":"66d282cd-c91b-426f-8fa1-8ecb86db9de0","system_id":"levelo_inurba_marseille","lat":43.28274,"lon":5.35076,"is_reserved":false,"is_disabled":false,"rental_uris":{"android":"levelo://app?vid=66d282cd-c91b-426f-8fa1-8ecb86db9de0","ios":"levelo://app?vid=66d282cd-c91b-426f-8fa1-8ecb86db9de0"},"vehicle_type_id":"4","last_reported":1733522953,"current_range_meters":6800,"station_id":"ce4bhbp2rcd13ifvqerg","pricing_plan_id":"cebpf4jnsgd1na2vs0mg"},{"bike_id":"080fcb1c-52b8-42d7-b477-4dbab7fa601d","system_id":"levelo_inurba_marseille","lat":43.33021,"lon":5.39041,"is_reserved":false,"is_disabled":false,"rental_uris":{"android":"levelo://app?vid=080fcb1c-52b8-42d7-b477-4dbab7fa601d","ios":"levelo://app?vid=080fcb1c-52b8-42d7-b477-4dbab7fa601d"},"vehicle_type_id":"4","last_reported":1733522953,"current_range_meters":32800,"station_id":"ce4bhr92rcd13ifvqhrg","pricing_plan_id":"cebpf4jnsgd1na2vs0mg"},{"bike_id":"21c61b3f-2ae1-41ed-96e8-21fc1b01a387","system_id":"levelo_inurba_marseille","lat":43.3014,"lon":5.37212,"is_reserved":false,"is_disabled":false,"rental_uris":{"android":"levelo://app?vid=21c61b3f-2ae1-41ed-96e8-21fc1b01a387","ios":"levelo://app?vid=21c61b3f-2ae1-41ed-96e8-21fc1b01a387"},"vehicle_type_id":"4","last_reported":1733522953,"current_range_meters":8800,"station_id":"","pricing_plan_id":"cebpf4jnsgd1na2vs0mg"},{"bike_id":"03b3ee01-18a9-4c73-b801-1ab10360df20","system_id":"levelo_inurba_marseille","lat":43.313263,"lon":5.396903,"is_reserved":false,"is_disabled":false,"rental_uris":{"android":"levelo://app?vid=03b3ee01-18a9-4c73-b801-1ab10360df20","ios":"levelo://app?vid=03b3ee01-18a9-4c73-b801-1ab10360df20"},"vehicle_type_id":"4","last_reported":1733522953,"current_range_meters":38000,"station_id":"ce4bgvp2rcd13ifvqcu0","pricing_plan_id":"cebpf4jnsgd1na2vs0mg"},{"bike_id":"3a9149f3-357c-4d0a-859b-18382ef024a5","system_id":"levelo_inurba_marseille","lat":43.32112,"lon":5.3677,"is_reserved":false,"is_disabled":false,"rental_uris":{"android":"levelo://app?vid=3a9149f3-357c-4d0a-859b-18382ef024a5","ios":"levelo://app?vid=3a9149f3-357c-4d0a-859b-18382ef024a5"},"vehicle_type_id":"4","last_reported":1733522953,"current_range_meters":16400,"station_id":"ce4bhrh2rcd13ifvqhug","pricing_plan_id":"cebpf4jnsgd1na2vs0mg"},{"bike_id":"ba9b377d-d729-4b0b-907a-ebe75ea09cdc","system_id":"levelo_inurba_marseille","lat":43.30874,"lon":5.39639,"is_reserved":false,"is_disabled":false,"rental_uris":{"android":"levelo://app?vid=ba9b377d-d729-4b0b-907a-ebe75ea09cdc","ios":"levelo://app?vid=ba9b377d-d729-4b0b-907a-ebe75ea09cdc"},"vehicle_type_id":"4","last_reported":1733522953,"current_range_meters":39200,"station_id":"ce4bh012rcd13ifvqcv0","pricing_plan_id":"cebpf4jnsgd1na2vs0mg"},{"bike_id":"868a434e-7c11-4b20-84c6-7ecdbf24c83b","system_id":"levelo_inurba_marseille","lat":43.33022,"lon":5.39037,"is_reserved":false,"is_disabled":false,"rental_uris":{"android":"levelo://app?vid=868a434e-7c11-4b20-84c6-7ecdbf24c83b","ios":"levelo://app?vid=868a434e-7c11-4b20-84c6-7ecdbf24c83b"},"vehicle_type_id":"4","last_reported":1733522953,"current_range_meters":27200,"station_id":"ce4bhr92rcd13ifvqhrg","pricing_plan_id":"cebpf4jnsgd1na2vs0mg"},{"bike_id":"0d00447d-4842-46d3-8716-2521032845e7","system_id":"levelo_inurba_marseille","lat":43.29527,"lon":5.39036,"is_reserved":false,"is_disabled":true,"rental_uris":{"android":"levelo://app?vid=0d00447d-4842-46d3-8716-2521032845e7","ios":"levelo://app?vid=0d00447d-4842-46d3-8716-2521032845e7"},"vehicle_type_id":"4","last_reported":1733522953,"current_range_meters":4800,"station_id":"ce4bh3p2rcd13ifvqdp0","pricing_plan_id":"cebpf4jnsgd1na2vs0mg"},{"bike_id":"3da0a195-fcf3-418e-89f7-f0b73396c5c7","system_id":"levelo_inurba_marseille","lat":43.2867,"lon":5.38661,"is_reserved":false,"is_disabled":false,"rental_uris":{"android":"levelo://app?vid=3da0a195-fcf3-418e-89f7-f0b73396c5c7","ios":"levelo://app?vid=3da0a195-fcf3-418e-89f7-f0b73396c5c7"},"vehicle_type_id":"4","last_reported":1733522953,"current_range_meters":32400,"station_id":"ce4bh492rcd13ifvqdug","pricing_plan_id":"cebpf4jnsgd1na2vs0mg"},{"bike_id":"98df377c-5b46-4a4e-a80e-95ded7d1b7b9","system_id":"levelo_inurba_marseille","lat":43.29022,"lon":5.38641,"is_reserved":false,"is_disabled":true,"rental_uris":{"android":"levelo://app?vid=98df377c-5b46-4a4e-a80e-95ded7d1b7b9","ios":"levelo://app?vid=98df377c-5b46-4a4e-a80e-95ded7d1b7b9"},"vehicle_type_id":"4","last_reported":1733522953,"current_range_meters":22000,"station_id":"ce4bh4p2rcd13ifvqe0g","pricing_plan_id":"cebpf4jnsgd1na2vs0mg"},{"bike_id":"6c0188ce-85bf-4949-8478-25f429529633","system_id":"levelo_inurba_marseille","lat":43.27385,"lon":5.36274,"is_reserved":false,"is_disabled":false,"rental_uris":{"android":"levelo://app?vid=6c0188ce-85bf-4949-8478-25f429529633","ios":"levelo://app?vid=6c0188ce-85bf-4949-8478-25f429529633"},