{"last_updated":1741104737,"ttl":60,"version":"2.2","data":{"bikes":[{"bike_id":"945f0113-3916-4d3e-bb1e-984bce53b50c","system_id":"levelo_inurba_marseille","lat":43.26208,"lon":5.37434,"is_reserved":false,"is_disabled":false,"rental_uris":{"android":"levelo://app?vid=945f0113-3916-4d3e-bb1e-984bce53b50c","ios":"levelo://app?vid=945f0113-3916-4d3e-bb1e-984bce53b50c"},"vehicle_type_id":"4","last_reported":1741104737,"current_range_meters":2800,"station_id":"ce4bhgp2rcd13ifvqfc0","pricing_plan_id":"cebpf4jnsgd1na2vs0mg"},{"bike_id":"4655d0fe-d7b1-464a-ac30-f369294b9dde","system_id":"levelo_inurba_marseille","lat":43.30952,"lon":5.39041,"is_reserved":false,"is_disabled":false,"rental_uris":{"android":"levelo://app?vid=4655d0fe-d7b1-464a-ac30-f369294b9dde","ios":"levelo://app?vid=4655d0fe-d7b1-464a-ac30-f369294b9dde"},"vehicle_type_id":"4","last_reported":1741104737,"current_range_meters":3200,"station_id":"ce4bgup2rcd13ifvqco0","pricing_plan_id":"cebpf4jnsgd1na2vs0mg"},{"bike_id":"a6a6df31-d311-4d3b-9bc5-e6d87e0f92e5","system_id":"levelo_inurba_marseille","lat":43.31267,"lon":5.40169,"is_reserved":false,"is_disabled":false,"rental_uris":{"android":"levelo://app?vid=a6a6df31-d311-4d3b-9bc5-e6d87e0f92e5","ios":"levelo://app?vid=a6a6df31-d311-4d3b-9bc5-e6d87e0f92e5"},"vehicle_type_id":"4","last_reported":1741104737,"current_range_meters":2800,"station_id":"ce4bh092rcd13ifvqd30","pricing_plan_id":"cebpf4jnsgd1na2vs0mg"},{"bike_id":"73681137-6538-4684-87ec-aa9b29720d1e","system_id":"levelo_inurba_marseille","lat":43.23193,"lon":5.35554,"is_reserved":false,"is_disabled":true,"rental_uris":{"android":"levelo://app?vid=73681137-6538-4684-87ec-aa9b29720d1e","ios":"levelo://app?vid=73681137-6538-4684-87ec-aa9b29720d1e"},"vehicle_type_id":"4","last_reported":1741104737,"current_range_meters":3200,"station_id":"ce4bhu92rcd13ifvqi70","pricing_plan_id":"cebpf4jnsgd1na2vs0mg"},{"bike_id":"66ee13bf-a5cf-4055-85c6-22d30ce3aaa1","system_id":"levelo_inurba_marseille","lat":43.28038,"lon":5.36944,"is_reserved":false,"is_disabled":false,"rental_uris":{"android":"levelo://app?vid=66ee13bf-a5cf-4055-85c6-22d30ce3aaa1","ios":"levelo://app?vid=66ee13bf-a5cf-4055-85c6-22d30ce3aaa1"},"vehicle_type_id":"4","last_reported":1741104737,"current_range_meters":3200,"station_id":"ce4bha12rcd13ifvqef0","pricing_plan_id":"cebpf4jnsgd1na2vs0mg"},{"bike_id":"687bcaf9-e6d3-45a2-bc8a-ff96337e0adc","system_id":"levelo_inurba_marseille","lat":43.28151,"lon":5.42644,"is_reserved":false,"is_disabled":false,"rental_uris":{"android":"levelo://app?vid=687bcaf9-e6d3-45a2-bc8a-ff96337e0adc","ios":"levelo://app?vid=687bcaf9-e6d3-45a2-bc8a-ff96337e0adc"},"vehicle_type_id":"4","last_reported":1741104737,"current_range_meters":3200,"station_id":"ce4bhnh2rcd13ifvqgug","pricing_plan_id":"cebpf4jnsgd1na2vs0mg"},{"bike_id":"c5811f98-73bc-447c-816b-a30a747e4e23","system_id":"levelo_inurba_marseille","lat":43.3023,"lon":5.4009,"is_reserved":false,"is_disabled":false,"rental_uris":{"android":"levelo://app?vid=c5811f98-73bc-447c-816b-a30a747e4e23","ios":"levelo://app?vid=c5811f98-73bc-447c-816b-a30a747e4e23"},"vehicle_type_id":"4","last_reported":1741104737,"current_range_meters":3600,"station_id":"","pricing_plan_id":"cebpf4jnsgd1na2vs0mg"},{"bike_id":"5b291eaa-eb8a-47c0-ad2d-0380f7d6971f","system_id":"levelo_inurba_marseille","lat":43.28659,"lon":5.36357,"is_reserved":false,"is_disabled":false,"rental_uris":{"android":"levelo://app?vid=5b291eaa-eb8a-47c0-ad2d-0380f7d6971f","ios":"levelo://app?vid=5b291eaa-eb8a-47c0-ad2d-0380f7d6971f"},"vehicle_type_id":"4","last_reported":1741104737,"current_range_meters":3600,"station_id":"ce4bhah2rcd13ifvqej0","pricing_plan_id":"cebpf4jnsgd1na2vs0mg"},{"bike_id":"8c96df38-13af-45fd-9a5b-afe73c4c8c1f","system_id":"levelo_inurba_marseille","lat":43.25873,"lon":5.399,"is_reserved":false,"is_disabled":false,"rental_uris":{"android":"levelo://app?vid=8c96df38-13af-45fd-9a5b-afe73c4c8c1f","ios":"levelo://app?vid=8c96df38-13af-45fd-9a5b-afe73c4c8c1f"},"vehicle_type_id":"4","last_reported":1741104737,"current_range_meters":3600,"station_id":"ce4bhl92rcd13ifvqghg","pricing_plan_id":"cebpf4jnsgd1na2vs0mg"},{"bike_id":"742d93f0-14bf-43b5-8a98-278ba705c075","system_id":"levelo_inurba_marseille","lat":43.30538,"lon":5.36552,"is_reserved":false,"is_disabled":false,"rental_uris":{"android":"levelo://app?vid=742d93f0-14bf-43b5-8a98-278ba705c075","ios":"levelo://app?vid=742d93f0-14bf-43b5-8a98-278ba705c075"},"vehicle_type_id":"4","last_reported":1741104737,"current_range_meters":3600,"station_id":"ce4bgs12rcd13ifvqcag","pricing_plan_id":"cebpf4jnsgd1na2vs0mg"},{"bike_id":"d23e94e8-b2fb-404b-b049-607ee3514f8a","system_id":"levelo_inurba_marseille","lat":43.31722,"lon":5.42392,"is_reserved":false,"is_disabled":false,"rental_uris":{"android":"levelo://app?vid=d23e94e8-b2fb-404b-b049-607ee3514f8a","ios":"levelo://app?vid=d23e94e8-b2fb-404b-b049-607ee3514f8a"},"vehicle_type_id":"4","last_reported":1741104737,"current_range_meters":4000,"station_id":"ce4bhp92rcd13ifvqhbg","pricing_plan_id":"cebpf4jnsgd1na2vs0mg"},{"bike_id":"0214c811-f692-4f72-a79e-216ce8955174","system_id":"levelo_inurba_marseille","lat":43.2767,"lon":5.38936,"is_reserved":false,"is_disabled":false,"rental_uris":{"android":"levelo://app?vid=0214c811-f692-4f72-a79e-216ce8955174","ios":"levelo://app?vid=0214c811-f692-4f72-a79e-216ce8955174"},"vehicle_type_id":"4","last_reported":1741104737,"current_range_meters":3600,"station_id":"ce4bhi12rcd13ifvqfo0","pricing_plan_id":"cebpf4jnsgd1na2vs0mg"},{"bike_id":"f11f6193-f1bd-4c19-afdd-7d337281460a","system_id":"levelo_inurba_marseille","lat":43.27809,"lon":5.40717,"is_reserved":false,"is_disabled":false,"rental_uris":{"android":"levelo://app?vid=f11f6193-f1bd-4c19-afdd-7d337281460a","ios":"levelo://app?vid=f11f6193-f1bd-4c19-afdd-7d337281460a"},"vehicle_type_id":"4","last_reported":1741104737,"current_range_meters":4400,"station_id":"ce4bhnh2rcd13ifvqgtg","pricing_plan_id":"cebpf4jnsgd1na2vs0mg"},{"bike_id":"6443d907-dde4-4c96-8090-056958af6ac2","system_id":"levelo_inurba_marseille","lat":43.26032,"lon":5.37548,"is_reserved":false,"is_disabled":false,"rental_uris":{"android":"levelo://app?vid=6443d907-dde4-4c96-8090-056958af6ac2","ios":"levelo://app?vid=6443d907-dde4-4c96-8090-056958af6ac2"},"vehicle_type_id":"4","last_reported":1741104737,"current_range_meters":4800,"station_id":"ce4bhgh2rcd13ifvqfa0","pricing_plan_id":"cebpf4jnsgd1na2vs0mg"},{"bike_id":"c7c25978-e089-40dc-9219-957674662a71","system_id":"levelo_inurba_marseille","lat":43.27617,"lon":5.36118,"is_reserved":false,"is_disabled":false,"rental_uris":{"android":"levelo://app?vid=c7c25978-e089-40dc-9219-957674662a71","ios":"levelo://app?vid=c7c25978-e089-40dc-9219-957674662a71"},"vehicle_type_id":"4","last_reported":1741104737,"current_range_meters":4800,"station_id":"ce4bgj92rcd13ifvqbe0","pricing_plan_id":"cebpf4jnsgd1na2vs0mg"},{"bike_id":"396a685e-b967-414f-b788-29f30886cd1c","system_id":"levelo_inurba_marseille","lat":43.23158,"lon":5.43722,"is_reserved":false,"is_disabled":false,"rental_uris":{"android":"levelo://app?vid=396a685e-b967-414f-b788-29f30886cd1c","ios":"levelo://app?vid=396a685e-b967-414f-b788-29f30886cd1c"},"vehicle_type_id":"4","last_reported":1741104737,"current_range_meters":5600,"station_id":"ce4bhmp2rcd13ifvqgog","pricing_plan_id":"cebpf4jnsgd1na2vs0mg"},{"bike_id":"2153cca3-a190-4982-9370-a46f24ffe4b0","system_id":"levelo_inurba_marseille","lat":43.27064,"lon":5.40261,"is_reserved":false,"is_disabled":false,"rental_uris":{"android":"levelo://app?vid=2153cca3-a190-4982-9370-a46f24ffe4b0","ios":"levelo://app?vid=2153cca3-a190-4982-9370-a46f24ffe4b0"},"vehicle_type_id":"4","last_reported":1741104737,"current_range_meters":6000,"station_id":"ce4bhk92rcd13ifvqgc0","pricing_plan_id":"cebpf4jnsgd1na2vs0mg"},{"bike_id":"1d3594c6-fcd8-433b-b080-af01678405e7","system_id":"levelo_inurba_marseille","lat":43.30091,"lon":5.39085,"is_reserved":false,"is_disabled":false,"rental_uris":{"android":"levelo://app?vid=1d3594c6-fcd8-433b-b080-af01678405e7","ios":"levelo://app?vid=1d3594c6-fcd8-433b-b080-af01678405e7"},"vehicle_type_id":"4","last_reported":1741104737,"current_range_meters":6000,"station_id":"ce4bh192rcd13ifvqdb0","pricing_plan_id":"cebpf4jnsgd1na2vs0mg"},{"bike_id":"6d9c795d-d4b3-409e-8997-4d7f32b530d0","system_id":"levelo_inurba_marseille","lat":43.2846,"lon":5.38424,"is_reserved":false,"is_disabled":false,"rental_uris":{"android":"levelo://app?vid=6d9c795d-d4b3-409e-8997-4d7f32b530d0","ios":"levelo://app?vid=6d9c795d-d4b3-409e-8997-4d7f32b530d0"},"vehicle_type_id":"4","last_reported":1741104737,"current_range_meters":6400,"station_id":"ce4bh512rcd13ifvqe3g","pricing_plan_id":"cebpf4jnsgd1na2vs0mg"},{"bike_id":"ed4cfbcd-f461-4bd0-80e3-33142a1e4214","system_id":"levelo_inurba_marseille","lat":43.31068,"lon":5.3836,"is_reserved":false,"is_disabled":false,"rental_uris":{"android":"levelo://app?vid=ed4cfbcd-f461-4bd0-80e3-33142a1e4214","ios":"levelo://app?vid=ed4cfbcd-f461-4bd0-80e3-33142a1e4214"},"vehicle_type_id":"4","last_reported":1741104737,"current_range_meters":6400,"station_id":"ce4bgv92rcd13ifvqcr0","pricing_plan_id":"cebpf4jnsgd1na2vs0mg"},{"bike_id":"445221fc-d87b-4bd1-879d-555e9282b449","system_id":"levelo_inurba_marseille","lat":43.23957,"lon":5.36635,"is_reserved":false,"is_disabled":false,"rental_uris":{"android":"levelo://app?vid=445221fc-d87b-4bd1-879d-555e9282b449","ios":"levelo://app?vid=445221fc-d87b-4bd1-879d-555e9282b449"},"vehicle_type_id":"4","last_reported":1741104737,"current_range_meters":6400,"station_id":"ce4bgvp2rcd13ifvqct0","pricing_plan_id":"cebpf4jnsgd1na2vs0mg"},{"bike_id":"3fdc9a7e-2885-4db2-b302-c77e590b4771","system_id":"levelo_inurba_marseille","lat":43.31034,"lon":5.37544,"is_reserved":false,"is_disabled":false,"rental_uris":{"android":"levelo://app?vid=3fdc9a7e-2885-4db2-b302-c77e590b4771","ios":"levelo://app?vid=3fdc9a7e-2885-4db2-b302-c77e590b4771"},"vehicle_type_id":"4","last_reported":1741104737,"current_range_meters":6400,"station_id":"","pricing_plan_id":"cebpf4jnsgd1na2vs0mg"},{"bike_id":"60b944e8-2e26-4a9b-856b-ed89daabaa07","system_id":"levelo_inurba_marseille","lat":43.23193,"lon":5.35553,"is_reserved":false,"is_disabled":false,"rental_uris":{"android":"levelo://app?vid=60b944e8-2e26-4a9b-856b-ed89daabaa07","ios":"levelo://app?vid=60b944e8-2e26-4a9b-856b-ed89daabaa07"},"vehicle_type_id":"4","last_reported":1741104737,"current_range_meters":6400,"station_id":"ce4bhu92rcd13ifvqi70","pricing_plan_id":"cebpf4jnsgd1na2vs0mg"},{"bike_id":"ce8ef3d2-07e3-4512-8813-bcde53a01429","system_id":"levelo_inurba_marseille","lat":43.24172,"lon":5.36395,"is_reserved":false,"is_disabled":false,"rental_uris":{"android":"levelo://app?vid=ce8ef3d2-07e3-4512-8813-bcde53a01429","ios":"levelo://app?vid=ce8ef3d2-07e3-4512-8813-bcde53a01429"},"vehicle_type_id":"4","last_reported":1741104737,"current_range_meters":6800,"station_id":"cpo36qri1sfpv3e86is0","pricing_plan_id":"cebpf4jnsgd1na2vs0mg"},{"bike_id":"79687e17-5ece-4f9c-9252-898196d1c2cb","system_id":"levelo_inurba_marseille","lat":43.29892,"lon":5.38506,"is_reserved":false,"is_disabled":false,"rental_uris":{"android":"levelo://app?vid=79687e17-5ece-4f9c-9252-898196d1c2cb","ios":"levelo://app?vid=79687e17-5ece-4f9c-9252-898196d1c2cb"},"vehicle_type_id":"4","last_reported":1741104737,"current_range_meters":6800,"station_id":"","pricing_plan_id":"cebpf4jnsgd1na2vs0mg"},{"bike_id":"95642c88-d454-4476-a108-6036dd2e73a2","system_id":"levelo_inurba_marseille","lat":43.28698,"lon":5.37387,"is_reserved":false,"is_disabled":false,"rental_uris":{"android":"levelo://app?vid=95642c88-d454-4476-a108-6036dd2e73a2","ios":"levelo://app?vid=95642c88-d454-4476-a108-6036dd2e73a2"},"vehicle_type_id":"4","last_reported":1741104737,"current_range_meters":6800,"station_id":"ce4bh3p2rcd13ifvqdq0","pricing_plan_id":"cebpf4jnsgd1na2vs0mg"},{"bike_id":"9803a8ea-c9b7-4416-ae39-b232d3fea1f4","system_id":"levelo_inurba_marseille","lat":43.25874,"lon":5.39898,"is_reserved":false,"is_disabled":false,"rental_uris":{"android":"levelo://app?vid=9803a8ea-c9b7-4416-ae39-b232d3fea1f4","ios":"levelo://app?vid=9803a8ea-c9b7-4416-ae39-b232d3fea1f4"},"vehicle_type_id":"4","last_reported":1741104737,"current_range_meters":6400,"station_id":"ce4bhl92rcd13ifvqghg","pricing_plan_id":"cebpf4jnsgd1na2vs0mg"},{"bike_id":"0f181aae-efea-4aeb-b55c-faaf29d9cdf6","system_id":"levelo_inurba_marseille","lat":43.26789,"lon":5.39411,"is_reserved":false,"is_disabled":false,"rental_uris":{"android":"levelo://app?vid=0f181aae-efea-4aeb-b55c-faaf29d9cdf6","ios":"levelo://app?vid=0f181aae-efea-4aeb-b55c-faaf29d9cdf6"},"vehicle_type_id":"4","last_reported":1741104737,"current_range_meters":6800,"station_id":"ce4bhh12rcd13ifvqfg0","pricing_plan_id":"cebpf4jnsgd1na2vs0mg"},{"bike_id":"8a7f7dec-8ac4-4ac7-9f33-b53621825235","system_id":"levelo_inurba_marseille","lat":43.27818,"lon":5.4071,"is_reserved":false,"is_disabled":false,"rental_uris":{"android":"levelo://app?vid=8a7f7dec-8ac4-4ac7-9f33-b53621825235","ios":"levelo://app?vid=8a7f7dec-8ac4-4ac7-9f33-b53621825235"},"vehicle_type_id":"4","last_reported":1741104737,"current_range_meters":6800,"station_id":"ce4bhnh2rcd13ifvqgtg","pricing_plan_id":"cebpf4jnsgd1na2vs0mg"},{"bike_id":"853e9f93-6f18-4242-b269-d87025e7bb93","system_id":"levelo_inurba_marseille","lat":43.30589,"lon":5.37221,"is_reserved":false,"is_disabled":false,"rental_uris":{"android":"levelo://app?vid=853e9f93-6f18-4242-b269-d87025e7bb93","ios":"levelo://app?vid=853e9f93-6f18-4242-b269-d87025e7bb93"},"vehicle_type_id":"4","last_reported":1741104737,"current_range_meters":7200,"station_id":"ce4bgqh2rcd13ifvqc4g","pricing_plan_id":"cebpf4jnsgd1na2vs0mg"},{"bike_id":"e7ec1ac1-2323-47bd-a2b5-7cd3afb282cf","system_id":"levelo_inurba_marseille","lat":43.25478,"lon":5.37518,"is_reserved":false,"is_disabled":false,"rental_uris":{"android":"levelo://app?vid=e7ec1ac1-2323-47bd-a2b5-7cd3afb282cf","ios":"levelo://app?vid=e7ec1ac1-2323-47bd-a2b5-7cd3afb282cf"},"vehicle_type_id":"4","last_reported":1741104737,"current_range_meters":7200,"station_id":"","pricing_plan_id":"cebpf4jnsgd1na2vs0mg"},{"bike_id":"9537049b-3948-46e1-b6a4-8281d1077dec","system_id":"levelo_inurba_marseille","lat":43.2923,"lon":5.36069,"is_reserved":false,"is_disabled":false,"rental_uris":{"android":"levelo://app?vid=9537049b-3948-46e1-b6a4-8281d1077dec","ios":"levelo://app?vid=9537049b-3948-46e1-b6a4-8281d1077dec"},"vehicle_type_id":"4","last_reported":1741104737,"current_range_meters":7200,"station_id":"ce4bhbh2rcd13ifvqeqg","pricing_plan_id":"cebpf4jnsgd1na2vs0mg"},{"bike_id":"10d61af2-a218-4397-b179-939c5dec9f2f","system_id":"levelo_inurba_marseille","lat":43.26487,"lon":5.39551,"is_reserved":false,"is_disabled":false,"rental_uris":{"android":"levelo://app?vid=10d61af2-a218-4397-b179-939c5dec9f2f","ios":"levelo://app?vid=10d61af2-a218-4397-b179-939c5dec9f2f"},"vehicle_type_id":"4","last_reported":1741104737,"current_range_meters":7200,"station_id":"ce4bhi12rcd13ifvqfq0","pricing_plan_id":"cebpf4jnsgd1na2vs0mg"},{"bike_id":"2babff75-a9bc-4867-aa55-cb49dfd17524","system_id":"levelo_inurba_marseille","lat":43.29265,"lon":5.38439,"is_reserved":false,"is_disabled":false,"rental_uris":{"android":"levelo://app?vid=2babff75-a9bc-4867-aa55-cb49dfd17524","ios":"levelo://app?vid=2babff75-a9bc-4867-aa55-cb49dfd17524"},"vehicle_type_id":"4","last_reported":1741104737,"current_range_meters":7200,"station_id":"ce4bh692rcd13ifvqea0","pricing_plan_id":"cebpf4jnsgd1na2vs0mg"},{"bike_id":"e030ff64-37ba-4d8a-9670-1a68db0432ff","system_id":"levelo_inurba_marseille","lat":43.248,"lon":5.37455,"is_reserved":false,"is_disabled":false,"rental_uris":{"android":"levelo://app?vid=e030ff64-37ba-4d8a-9670-1a68db0432ff","ios":"levelo://app?vid=e030ff64-37ba-4d8a-9670-1a68db0432ff"},"vehicle_type_id":"4","last_reported":1741104737,"current_range_meters":7200,"station_id":"ce4bhgh2rcd13ifvqfb0","pricing_plan_id":"cebpf4jnsgd1na2vs0mg"},{"bike_id":"13c44e5e-5463-4505-ba1b-c0544af7d8ca","system_id":"levelo_inurba_marseille","lat":43.23196,"lon":5.35557,"is_reserved":false,"is_disabled":false,"rental_uris":{"android":"levelo://app?vid=13c44e5e-5463-4505-ba1b-c0544af7d8ca","ios":"levelo://app?vid=13c44e5e-5463-4505-ba1b-c0544af7d8ca"},"vehicle_type_id":"4","last_reported":1741104737,"current_range_meters":8000,"station_id":"ce4bhu92rcd13ifvqi70","pricing_plan_id":"cebpf4jnsgd1na2vs0mg"},{"bike_id":"c8eadf63-55f6-4818-b468-98db3056edac","system_id":"levelo_inurba_marseille","lat":43.26933,"lon":5.40256,"is_reserved":false,"is_disabled":false,"rental_uris":{"android":"levelo://app?vid=c8eadf63-55f6-4818-b468-98db3056edac","ios":"levelo://app?vid=c8eadf63-55f6-4818-b468-98db3056edac"},"vehicle_type_id":"4","last_reported":1741104737,"current_range_meters":8000,"station_id":"cjm6bp8fraef2m0cb0m0","pricing_plan_id":"cebpf4jnsgd1na2vs0mg"},{"bike_id":"0ed20be4-93ad-471d-b64a-3899a68d5262","system_id":"levelo_inurba_marseille","lat":43.28941,"lon":5.36401,"is_reserved":false,"is_disabled":false,"rental_uris":{"android":"levelo://app?vid=0ed20be4-93ad-471d-b64a-3899a68d5262","ios":"levelo://app?vid=0ed20be4-93ad-471d-b64a-3899a68d5262"},"vehicle_type_id":"4","last_reported":1741104737,"current_range_meters":8400,"station_id":"ce4bhc92rcd13ifvqetg","pricing_plan_id":"cebpf4jnsgd1na2vs0mg"},{"bike_id":"0b818497-4d97-451b-b637-cef3d02b5c9d","system_id":"levelo_inurba_marseille","lat":43.31707,"lon":5.43682,"is_reserved":false,"is_disabled":false,"rental_uris":{"android":"levelo://app?vid=0b818497-4d97-451b-b637-cef3d02b5c9d","ios":"levelo://app?vid=0b818497-4d97-451b-b637-cef3d02b5c9d"},"vehicle_type_id":"4","last_reported":1741104737,"current_range_meters":8400,"station_id":"ce4bhp92rcd13ifvqhcg","pricing_plan_id":"cebpf4jnsgd1na2vs0mg"},{"bike_id":"573e1e91-9e51-46aa-aad1-f69c3d6814f7","system_id":"levelo_inurba_marseille","lat":43.30251,"lon":5.40063,"is_reserved":false,"is_disabled":false,"rental_uris":{"android":"levelo://app?vid=573e1e91-9e51-46aa-aad1-f69c3d6814f7","ios":"levelo://app?vid=573e1e91-9e51-46aa-aad1-f69c3d6814f7"},"vehicle_type_id":"4","last_reported":1741104737,"current_range_meters":8400,"station_id":"ce4bgvh2rcd13ifvqcs0","pricing_plan_id":"cebpf4jnsgd1na2vs0mg"},{"bike_id":"2deb4843-5298-4825-b3db-fde631d9ab0e","system_id":"levelo_inurba_marseille","lat":43.29894,"lon":5.39735,"is_reserved":false,"is_disabled":false,"rental_uris":{"android":"levelo://app?vid=2deb4843-5298-4825-b3db-fde631d9ab0e","ios":"levelo://app?vid=2deb4843-5298-4825-b3db-fde631d9ab0e"},"vehicle_type_id":"4","last_reported":1741104737,"current_range_meters":8400,"station_id":"ce4bh0h2rcd13ifvqd50","pricing_plan_id":"cebpf4jnsgd1na2vs0mg"},{"bike_id":"9d16cf9b-58e8-4570-ab67-ce27f1d98cb8","system_id":"levelo_inurba_marseille","lat":43.29698,"lon":5.36606,"is_reserved":false,"is_disabled":false,"rental_uris":{"android":"levelo://app?vid=9d16cf9b-58e8-4570-ab67-ce27f1d98cb8","ios":"levelo://app?vid=9d16cf9b-58e8-4570-ab67-ce27f1d98cb8"},"vehicle_type_id":"4","last_reported":1741104737,"current_range_meters":8400,"station_id":"ce4bgn12rcd13ifvqbt0","pricing_plan_id":"cebpf4jnsgd1na2vs0mg"},{"bike_id":"64953142-7637-42b4-b0d1-c449e63f1db7","system_id":"levelo_inurba_marseille","lat":43.29637,"lon":5.36017,"is_reserved":false,"is_disabled":false,"rental_uris":{"android":"levelo://app?vid=64953142-7637-42b4-b0d1-c449e63f1db7","ios":"levelo://app?vid=64953142-7637-42b4-b0d1-c449e63f1db7"},"vehicle_type_id":"4","last_reported":1741104737,"current_range_meters":8400,"station_id":"","pricing_plan_id":"cebpf4jnsgd1na2vs0mg"},{"bike_id":"7938c4fe-a6f2-49b0-b35f-d49878bbfc26","system_id":"levelo_inurba_marseille","lat":43.25821,"lon":5.39436,"is_reserved":false,"is_disabled":false,"rental_uris":{"android":"levelo://app?vid=7938c4fe-a6f2-49b0-b35f-d49878bbfc26","ios":"levelo://app?vid=7938c4fe-a6f2-49b0-b35f-d49878bbfc26"},"vehicle_type_id":"4","last_reported":1741104737,"current_range_meters":8400,"station_id":"ce4bhip2rcd13ifvqft0","pricing_plan_id":"cebpf4jnsgd1na2vs0mg"},{"bike_id":"7e74727a-ef8d-48af-9a29-2b5e8178b411","system_id":"levelo_inurba_marseille","lat":43.265,"lon":5.39539,"is_reserved":false,"is_disabled":false,"rental_uris":{"android":"levelo://app?vid=7e74727a-ef8d-48af-9a29-2b5e8178b411","ios":"levelo://app?vid=7e74727a-ef8d-48af-9a29-2b5e8178b411"},"vehicle_type_id":"4","last_reported":1741104737,"current_range_meters":8800,"station_id":"ce4bhi12rcd13ifvqfq0","pricing_plan_id":"cebpf4jnsgd1na2vs0mg"},{"bike_id":"de87bedb-4880-4135-a597-ff32c124fa98","system_id":"levelo_inurba_marseille","lat":43.29569,"lon":5.37527,"is_reserved":false,"is_disabled":false,"rental_uris":{"android":"levelo://app?vid=de87bedb-4880-4135-a597-ff32c124fa98","ios":"levelo://app?vid=de87bedb-4880-4135-a597-ff32c124fa98"},"vehicle_type_id":"4","last_reported":1741104737,"current_range_meters":8800,"station_id":"ce4bgh92rcd13ifvqb50","pricing_plan_id":"cebpf4jnsgd1na2vs0mg"},{"bike_id":"38a794bf-44e8-45f4-9ca2-7a9e7a319cc9","system_id":"levelo_inurba_marseille","lat":43.25584,"lon":5.38231,"is_reserved":false,"is_disabled":false,"rental_uris":{"android":"levelo://app?vid=38a794bf-44e8-45f4-9ca2-7a9e7a319cc9","ios":"levelo://app?vid=38a794bf-44e8-45f4-9ca2-7a9e7a319cc9"},"vehicle_type_id":"4","last_reported":1741104737,"current_range_meters":8800,"station_id":"ce4bhih2rcd13ifvqfs0","pricing_plan_id":"cebpf4jnsgd1na2vs0mg"},{"bike_id":"aceccace-d1be-4d9c-abd2-2f78560287bf","system_id":"levelo_inurba_marseille","lat":43.23181,"lon":5.39985,"is_reserved":false,"is_disabled":false,"rental_uris":{"android":"levelo://app?vid=aceccace-d1be-4d9c-abd2-2f78560287bf","ios":"levelo://app?vid=aceccace-d1be-4d9c-abd2-2f78560287bf"},"vehicle_type_id":"4","last_reported":1741104737,"current_range_meters":8800,"station_id":"ce4bhn12rcd13ifvqgqg","pricing_plan_id":"cebpf4jnsgd1na2vs0mg"},{"bike_id":"76022163-600a-4cff-acf5-e60af1506fd5","system_id":"levelo_inurba_marseille","lat":43.26781,"lon":5.39431,"is_reserved":false,"is_disabled":false,"rental_uris":{"android":"levelo://app?vid=76022163-600a-4cff-acf5-e60af1506fd5","ios":"levelo://app?vid=76022163-600a-4cff-acf5-e60af1506fd5"},"vehicle_type_id":"4","last_reported":1741104737,"current_range_meters":8800,"station_id":"ce4bhh12rcd13ifvqfg0","pricing_plan_id":"cebpf4jnsgd1na2vs0mg"},{"bike_id":"37136b9d-d954-4f06-909e-cb45a13faab4","system_id":"levelo_inurba_marseille","lat":43.294406,"lon":5.374512,"is_reserved":false,"is_disabled":false,"rental_uris":{"android":"levelo://app?vid=37136b9d-d954-4f06-909e-cb45a13faab4","ios":"levelo://app?vid=37136b9d-d954-4f06-909e-cb45a13faab4"},"vehicle_type_id":"4","last_reported":1741104737,"current_range_meters":8400,"station_id":"ce4bgh92rcd13ifvqb40","pricing_plan_id":"cebpf4jnsgd1na2vs0mg"},{"bike_id":"b1ac49be-b33f-4f69-b362-4775c4ca5949","system_id":"levelo_inurba_marseille","lat":43.23147,"lon":5.43722,"is_reserved":false,"is_disabled":false,"rental_uris":{"android":"levelo://app?vid=b1ac49be-b33f-4f69-b362-4775c4ca5949","ios":"levelo://app?vid=b1ac49be-b33f-4f69-b362-4775c4ca5949"},"vehicle_type_id":"4","last_reported":1741104737,"current_range_meters":8800,"station_id":"ce4bhmp2rcd13ifvqgog","pricing_plan_id":"cebpf4jnsgd1na2vs0mg"},{"bike_id":"ba3418ab-a798-47d6-b15c-af0809f87b4f","system_id":"levelo_inurba_marseille","lat":43.2396,"lon":5.36637,"is_reserved":false,"is_disabled":false,"rental_uris":{"android":"levelo://app?vid=ba3418ab-a798-47d6-b15c-af0809f87b4f","ios":"levelo://app?vid=ba3418ab-a798-47d6-b15c-af0809f87b4f"},"vehicle_type_id":"4","last_reported":1741104737,"current_range_meters":8800,"station_id":"ce4bhi12rcd13ifvqfp0","pricing_plan_id":"cebpf4jnsgd1na2vs0mg"},{"bike_id":"3b73d8d4-923a-4308-81e5-52ed233d2804","system_id":"levelo_inurba_marseille","lat":43.23157,"lon":5.43733,"is_reserved":false,"is_disabled":false,"rental_uris":{"android":"levelo://app?vid=3b73d8d4-923a-4308-81e5-52ed233d2804","ios":"levelo://app?vid=3b73d8d4-923a-4308-81e5-52ed233d2804"},"vehicle_type_id":"4","last_reported":1741104737,"current_range_meters":9200,"station_id":"ce4bhmp2rcd13ifvqgog","pricing_plan_id":"cebpf4jnsgd1na2vs0mg"},{"bike_id":"4cfe2497-5e58-4d9d-a981-5d78a59d3e71","system_id":"levelo_inurba_marseille","lat":43.29277,"lon":5.36852,"is_reserved":false,"is_disabled":false,"rental_uris":{"android":"levelo://app?vid=4cfe2497-5e58-4d9d-a981-5d78a59d3e71","ios":"levelo://app?vid=4cfe2497-5e58-4d9d-a981-5d78a59d3e71"},"vehicle_type_id":"4","last_reported":1741104737,"current_range_meters":9600,"station_id":"ce4bhbp2rcd13ifvqesg","pricing_plan_id":"cebpf4jnsgd1na2vs0mg"},{"bike_id":"5e2361ef-3c72-4305-8c4a-6d061391a1b6","system_id":"levelo_inurba_marseille","lat":43.29251,"lon":5.40899,"is_reserved":false,"is_disabled":false,"rental_uris":{"android":"levelo://app?vid=5e2361ef-3c72-4305-8c4a-6d061391a1b6","ios":"levelo://app?vid=5e2361ef-3c72-4305-8c4a-6d061391a1b6"},"vehicle_type_id":"4","last_reported":1741104737,"current_range_meters":9600,"station_id":"ce4bh192rcd13ifvqdc0","pricing_plan_id":"cebpf4jnsgd1na2vs0mg"},{"bike_id":"7290e1b9-6c22-48bd-b38f-b858e7f3cb95","system_id":"levelo_inurba_marseille","lat":43.3171,"lon":5.43705,"is_reserved":false,"is_disabled":false,"rental_uris":{"android":"levelo://app?vid=7290e1b9-6c22-48bd-b38f-b858e7f3cb95","ios":"levelo://app?vid=7290e1b9-6c22-48bd-b38f-b858e7f3cb95"},"vehicle_type_id":"4","last_reported":1741104737,"current_range_meters":9200,"station_id":"ce4bhp92rcd13ifvqhcg","pricing_plan_id":"cebpf4jnsgd1na2vs0mg"},{"bike_id":"71c11f46-2ec5-467e-99ab-da693e2996ba","system_id":"levelo_inurba_marseille","lat":43.29005,"lon":5.35613,"is_reserved":false,"is_disabled":false,"rental_uris":{"android":"levelo://app?vid=71c11f46-2ec5-467e-99ab-da693e2996ba","ios":"levelo://app?vid=71c11f46-2ec5-467e-99ab-da693e2996ba"},"vehicle_type_id":"4","last_reported":1741104737,"current_range_meters":9600,"station_id":"ce4bhb92rcd13ifvqen0","pricing_plan_id":"cebpf4jnsgd1na2vs0mg"},{"bike_id":"b8dacfd7-6aa1-4cb2-ac25-dfdf82e53218","system_id":"levelo_inurba_marseille","lat":43.32367,"lon":5.38888,"is_reserved":false,"is_disabled":false,"rental_uris":{"android":"levelo://app?vid=b8dacfd7-6aa1-4cb2-ac25-dfdf82e53218","ios":"levelo://app?vid=b8dacfd7-6aa1-4cb2-ac25-dfdf82e53218"},"vehicle_type_id":"4","last_reported":1741104737,"current_range_meters":9600,"station_id":"ce4bhqp2rcd13ifvqhog","pricing_plan_id":"cebpf4jnsgd1na2vs0mg"},{"bike_id":"4aeb8d54-ca9f-42d1-962c-f4d94620b833","system_id":"levelo_inurba_marseille","lat":43.28702,"lon":5.37393,"is_reserved":false,"is_disabled":false,"rental_uris":{"android":"levelo://app?vid=4aeb8d54-ca9f-42d1-962c-f4d94620b833","ios":"levelo://app?vid=4aeb8d54-ca9f-42d1-962c-f4d94620b833"},"vehicle_type_id":"4","last_reported":1741104737,"current_range_meters":10000,"station_id":"ce4bh3p2rcd13ifvqdq0","pricing_plan_id":"cebpf4jnsgd1na2vs0mg"},{"bike_id":"7d5ac60b-01a8-4c3d-bb7d-6ea8977fb608","system_id":"levelo_inurba_marseille","lat":43.279038,"lon":5.380184,"is_reserved":false,"is_disabled":false,"rental_uris":{"android":"levelo://app?vid=7d5ac60b-01a8-4c3d-bb7d-6ea8977fb608","ios":"levelo://app?vid=7d5ac60b-01a8-4c3d-bb7d-6ea8977fb608"},"vehicle_type_id":"4","last_reported":1741104737,"current_range_meters":10000,"station_id":"ce4bhf92rcd13ifvqf50","pricing_plan_id":"cebpf4jnsgd1na2vs0mg"},{"bike_id":"dcbeedf0-4e32-4740-8255-691d887be7cd","system_id":"levelo_inurba_marseille","lat":43.29032,"lon":5.37637,"is_reserved":false,"is_disabled":false,"rental_uris":{"android":"levelo://app?vid=dcbeedf0-4e32-4740-8255-691d887be7cd","ios":"levelo://app?vid=dcbeedf0-4e32-4740-8255-691d887be7cd"},"vehicle_type_id":"4","last_reported":1741104737,"current_range_meters":10000,"station_id":"ce4bh5p2rcd13ifvqe4g","pricing_plan_id":"cebpf4jnsgd1na2vs0mg"},{"bike_id":"37c38bc4-7c30-4d1e-929a-00a809f7a3cf","system_id":"levelo_inurba_marseille","lat":43.2962,"lon":5.40597,"is_reserved":false,"is_disabled":false,"rental_uris":{"android":"levelo://app?vid=37c38bc4-7c30-4d1e-929a-00a809f7a3cf","ios":"levelo://app?vid=37c38bc4-7c30-4d1e-929a-00a809f7a3cf"},"vehicle_type_id":"4","last_reported":1741104737,"current_range_meters":10000,"station_id":"ce4bh0h2rcd13ifvqd60","pricing_plan_id":"cebpf4jnsgd1na2vs0mg"},{"bike_id":"cc1b0622-9eac-4afa-b5e4-cbbb0098ebd4","system_id":"levelo_inurba_marseille","lat":43.29868,"lon":5.39738,"is_reserved":false,"is_disabled":false,"rental_uris":{"android":"levelo://app?vid=cc1b0622-9eac-4afa-b5e4-cbbb0098ebd4","ios":"levelo://app?vid=cc1b0622-9eac-4afa-b5e4-cbbb0098ebd4"},"vehicle_type_id":"4","last_reported":1741104737,"current_range_meters":9600,"station_id":"ce4bh0h2rcd13ifvqd50","pricing_plan_id":"cebpf4jnsgd1na2vs0mg"},{"bike_id":"435b1578-4e05-4e77-9d95-87fc9f4cdcc3","system_id":"levelo_inurba_marseille","lat":43.2998,"lon":5.371892,"is_reserved":false,"is_disabled":false,"rental_uris":{"android":"levelo://app?vid=435b1578-4e05-4e77-9d95-87fc9f4cdcc3","ios":"levelo://app?vid=435b1578-4e05-4e77-9d95-87fc9f4cdcc3"},"vehicle_type_id":"4","last_reported":1741104737,"current_range_meters":10000,"station_id":"ce4bh2p2rcd13ifvqdi0","pricing_plan_id":"cebpf4jnsgd1na2vs0mg"},{"bike_id":"ebdd20df-967d-4d62-9608-54006cfcb6fa","system_id":"levelo_inurba_marseille","lat":43.26488,"lon":5.39557,"is_reserved":false,"is_disabled":false,"rental_uris":{"android":"levelo://app?vid=ebdd20df-967d-4d62-9608-54006cfcb6fa","ios":"levelo://app?vid=ebdd20df-967d-4d62-9608-54006cfcb6fa"},"vehicle_type_id":"4","last_reported":1741104737,"current_range_meters":10000,"station_id":"ce4bhi12rcd13ifvqfq0","pricing_plan_id":"cebpf4jnsgd1na2vs0mg"},{"bike_id":"130c8734-9bc7-4a8f-9c95-59a80e2f0ced","system_id":"levelo_inurba_marseille","lat":43.29283,"lon":5.36852,"is_reserved":false,"is_disabled":false,"rental_uris":{"android":"levelo://app?vid=130c8734-9bc7-4a8f-9c95-59a80e2f0ced","ios":"levelo://app?vid=130c8734-9bc7-4a8f-9c95-59a80e2f0ced"},"vehicle_type_id":"4","last_reported":1741104737,"current_range_meters":10000,"station_id":"ce4bhbp2rcd13ifvqesg","pricing_plan_id":"cebpf4jnsgd1na2vs0mg"},{"bike_id":"1c92c0ae-d690-4435-b59d-8e08d680f547","system_id":"levelo_inurba_marseille","lat":43.2925,"lon":5.40901,"is_reserved":false,"is_disabled":false,"rental_uris":{"android":"levelo://app?vid=1c92c0ae-d690-4435-b59d-8e08d680f547","ios":"levelo://app?vid=1c92c0ae-d690-4435-b59d-8e08d680f547"},"vehicle_type_id":"4","last_reported":1741104737,"current_range_meters":10000,"station_id":"ce4bh192rcd13ifvqdc0","pricing_plan_id":"cebpf4jnsgd1na2vs0mg"},{"bike_id":"d397688b-ab73-448f-92b9-a2a9588b40a4","system_id":"levelo_inurba_marseille","lat":43.23979,"lon":5.39691,"is_reserved":false,"is_disabled":false,"rental_uris":{"android":"levelo://app?vid=d397688b-ab73-448f-92b9-a2a9588b40a4","ios":"levelo://app?vid=d397688b-ab73-448f-92b9-a2a9588b40a4"},"vehicle_type_id":"4","last_reported":1741104737,"current_range_meters":10000,"station_id":"","pricing_plan_id":"cebpf4jnsgd1na2vs0mg"},{"bike_id":"44a7153b-0fd7-4509-836b-676bbf84fb06","system_id":"levelo_inurba_marseille","lat":43.23194,"lon":5.3556,"is_reserved":false,"is_disabled":false,"rental_uris":{"android":"levelo://app?vid=44a7153b-0fd7-4509-836b-676bbf84fb06","ios":"levelo://app?vid=44a7153b-0fd7-4509-836b-676bbf84fb06"},"vehicle_type_id":"4","last_reported":1741104737,"current_range_meters":10000,"station_id":"ce4bhu92rcd13ifvqi70","pricing_plan_id":"cebpf4jnsgd1na2vs0mg"},{"bike_id":"7c2e9277-4903-4421-8909-4084106b3d11","system_id":"levelo_inurba_marseille","lat":43.268,"lon":5.40253,"is_reserved":false,"is_disabled":false,"rental_uris":{"android":"levelo://app?vid=7c2e9277-4903-4421-8909-4084106b3d11","ios":"levelo://app?vid=7c2e9277-4903-4421-8909-4084106b3d11"},"vehicle_type_id":"4","last_reported":1741104737,"current_range_meters":10800,"station_id":"ce501612rcd8frsf0b60","pricing_plan_id":"cebpf4jnsgd1na2vs0mg"},{"bike_id":"ee1d2ad1-36ca-49dd-a328-f2a9a9994ecb","system_id":"levelo_inurba_marseille","lat":43.31083,"lon":5.38144,"is_reserved":false,"is_disabled":false,"rental_uris":{"android":"levelo://app?vid=ee1d2ad1-36ca-49dd-a328-f2a9a9994ecb","ios":"levelo://app?vid=ee1d2ad1-36ca-49dd-a328-f2a9a9994ecb"},"vehicle_type_id":"4","last_reported":1741104737,"current_range_meters":10800,"station_id":"","pricing_plan_id":"cebpf4jnsgd1na2vs0mg"},{"bike_id":"6ea8ab5c-65c2-4db6-8cb6-dfdbe5b30189","system_id":"levelo_inurba_marseille","lat":43.32369,"lon":5.38887,"is_reserved":false,"is_disabled":false,"rental_uris":{"android":"levelo://app?vid=6ea8ab5c-65c2-4db6-8cb6-dfdbe5b30189","ios":"levelo://app?vid=6ea8ab5c-65c2-4db6-8cb6-dfdbe5b30189"},"vehicle_type_id":"4","last_reported":1741104737,"current_range_meters":10800,"station_id":"ce4bhqp2rcd13ifvqhog","pricing_plan_id":"cebpf4jnsgd1na2vs0mg"},{"bike_id":"9537c606-cecb-45bd-8d77-3e311d6fc780","system_id":"levelo_inurba_marseille","lat":43.30939,"lon":5.40165,"is_reserved":false,"is_disabled":false,"rental_uris":{"android":"levelo://app?vid=9537c606-cecb-45bd-8d77-3e311d6fc780","ios":"levelo://app?vid=9537c606-cecb-45bd-8d77-3e311d6fc780"},"vehicle_type_id":"4","last_reported":1741104737,"current_range_meters":10800,"station_id":"ce4bgvp2rcd13ifvqct0","pricing_plan_id":"cebpf4jnsgd1na2vs0mg"},{"bike_id":"35482dac-1312-4f0e-90ed-4aea1d786cf7","system_id":"levelo_inurba_marseille","lat":43.2315,"lon":5.4374,"is_reserved":false,"is_disabled":false,"rental_uris":{"android":"levelo://app?vid=35482dac-1312-4f0e-90ed-4aea1d786cf7","ios":"levelo://app?vid=35482dac-1312-4f0e-90ed-4aea1d786cf7"},"vehicle_type_id":"4","last_reported":1741104737,"current_range_meters":10800,"station_id":"ce4bhmp2rcd13ifvqgog","pricing_plan_id":"cebpf4jnsgd1na2vs0mg"},{"bike_id":"aefa45b4-fd8b-4f95-b53a-120ce4247bc8","system_id":"levelo_inurba_marseille","lat":43.2951,"lon":5.39399,"is_reserved":false,"is_disabled":false,"rental_uris":{"android":"levelo://app?vid=aefa45b4-fd8b-4f95-b53a-120ce4247bc8","ios":"levelo://app?vid=aefa45b4-fd8b-4f95-b53a-120ce4247bc8"},"vehicle_type_id":"4","last_reported":1741104737,"current_range_meters":11200,"station_id":"ce4bh292rcd13ifvqdf0","pricing_plan_id":"cebpf4jnsgd1na2vs0mg"},{"bike_id":"7858ba22-393d-47be-9185-1cd032c74098","system_id":"levelo_inurba_marseille","lat":43.30416,"lon":5.41295,"is_reserved":false,"is_disabled":false,"rental_uris":{"android":"levelo://app?vid=7858ba22-393d-47be-9185-1cd032c74098","ios":"levelo://app?vid=7858ba22-393d-47be-9185-1cd032c74098"},"vehicle_type_id":"4","last_reported":1741104737,"current_range_meters":11200,"station_id":"ce4bhop2rcd13ifvqh8g","pricing_plan_id":"cebpf4jnsgd1na2vs0mg"},{"bike_id":"dd031907-9190-4c57-aab5-31ab3d579e20","system_id":"levelo_inurba_marseille","lat":43.27374,"lon":5.36254,"is_reserved":false,"is_disabled":false,"rental_uris":{"android":"levelo://app?vid=dd031907-9190-4c57-aab5-31ab3d579e20","ios":"levelo://app?vid=dd031907-9190-4c57-aab5-31ab3d579e20"},"vehicle_type_id":"4","last_reported":1741104737,"current_range_meters":11200,"station_id":"ce4bhbh2rcd13ifvqeo0","pricing_plan_id":"cebpf4jnsgd1na2vs0mg"},{"bike_id":"a2e9312b-d692-42a0-9823-fe0aab56075b","system_id":"levelo_inurba_marseille","lat":43.23136,"lon":5.43722,"is_reserved":false,"is_disabled":true,"rental_uris":{"android":"levelo://app?vid=a2e9312b-d692-42a0-9823-fe0aab56075b","ios":"levelo://app?vid=a2e9312b-d692-42a0-9823-fe0aab56075b"},"vehicle_type_id":"4","last_reported":1741104737,"current_range_meters":11200,"station_id":"ce4bhmp2rcd13ifvqgog","pricing_plan_id":"cebpf4jnsgd1na2vs0mg"},{"bike_id":"03cb83d0-50ea-447c-a07c-e86708983e0b","system_id":"levelo_inurba_marseille","lat":43.30542,"lon":5.36547,"is_reserved":false,"is_disabled":false,"rental_uris":{"android":"levelo://app?vid=03cb83d0-50ea-447c-a07c-e86708983e0b","ios":"levelo://app?vid=03cb83d0-50ea-447c-a07c-e86708983e0b"},"vehicle_type_id":"4","last_reported":1741104737,"current_range_meters":11200,"station_id":"ce4bgs12rcd13ifvqcag","pricing_plan_id":"cebpf4jnsgd1na2vs0mg"},{"bike_id":"747e6a55-8759-472d-8f95-89029c0cefcf","system_id":"levelo_inurba_marseille","lat":43.31165,"lon":5.38718,"is_reserved":false,"is_disabled":false,"rental_uris":{"android":"levelo://app?vid=747e6a55-8759-472d-8f95-89029c0cefcf","ios":"levelo://app?vid=747e6a55-8759-472d-8f95-89029c0cefcf"},"vehicle_type_id":"4","last_reported":1741104737,"current_range_meters":11200,"station_id":"ce4bgv12rcd13ifvqcp0","pricing_plan_id":"cebpf4jnsgd1na2vs0mg"},{"bike_id":"98ef14dd-b2a1-4f31-95cb-187e347b871a","system_id":"levelo_inurba_marseille","lat":43.28462,"lon":5.35884,"is_reserved":false,"is_disabled":false,"rental_uris":{"android":"levelo://app?vid=98ef14dd-b2a1-4f31-95cb-187e347b871a","ios":"levelo://app?vid=98ef14dd-b2a1-4f31-95cb-187e347b871a"},"vehicle_type_id":"4","last_reported":1741104737,"current_range_meters":11200,"station_id":"ce4bhah2rcd13ifvqei0","pricing_plan_id":"cebpf4jnsgd1na2vs0mg"},{"bike_id":"21b19842-9ad9-4db0-bc46-3d2827c0069e","system_id":"levelo_inurba_marseille","lat":43.23191,"lon":5.3556,"is_reserved":false,"is_disabled":false,"rental_uris":{"android":"levelo://app?vid=21b19842-9ad9-4db0-bc46-3d2827c0069e","ios":"levelo://app?vid=21b19842-9ad9-4db0-bc46-3d2827c0069e"},"vehicle_type_id":"4","last_reported":1741104737,"current_range_meters":11200,"station_id":"ce4bhu92rcd13ifvqi70","pricing_plan_id":"cebpf4jnsgd1na2vs0mg"},{"bike_id":"f90b2db5-3823-4bda-95e0-ecd3cd8e6439","system_id":"levelo_inurba_marseille","lat":43.3014,"lon":5.37415,"is_reserved":false,"is_disabled":false,"rental_uris":{"android":"levelo://app?vid=f90b2db5-3823-4bda-95e0-ecd3cd8e6439","ios":"levelo://app?vid=f90b2db5-3823-4bda-95e0-ecd3cd8e6439"},"vehicle_type_id":"4","last_reported":1741104737,"current_range_meters":11200,"station_id":"ce4bgs92rcd13ifvqcc0","pricing_plan_id":"cebpf4jnsgd1na2vs0mg"},{"bike_id":"96534ab7-4f6f-4c1c-9eeb-a2113adfd031","system_id":"levelo_inurba_marseille","lat":43.27164,"lon":5.41008,"is_reserved":false,"is_disabled":false,"rental_uris":{"android":"levelo://app?vid=96534ab7-4f6f-4c1c-9eeb-a2113adfd031","ios":"levelo://app?vid=96534ab7-4f6f-4c1c-9eeb-a2113adfd031"},"vehicle_type_id":"4","last_reported":1741104737,"current_range_meters":11600,"station_id":"ce4bhl12rcd13ifvqgf0","pricing_plan_id":"cebpf4jnsgd1na2vs0mg"},{"bike_id":"9b3c58d8-4cab-43d3-ac68-f63688f83bc0","system_id":"levelo_inurba_marseille","lat":43.26796,"lon":5.39415,"is_reserved":false,"is_disabled":false,"rental_uris":{"android":"levelo://app?vid=9b3c58d8-4cab-43d3-ac68-f63688f83bc0","ios":"levelo://app?vid=9b3c58d8-4cab-43d3-ac68-f63688f83bc0"},"vehicle_type_id":"4","last_reported":1741104737,"current_range_meters":11600,"station_id":"ce4bhh12rcd13ifvqfg0","pricing_plan_id":"cebpf4jnsgd1na2vs0mg"},{"bike_id":"0596970d-6eb4-4331-8d1d-96c25a649f4a","system_id":"levelo_inurba_marseille","lat":43.286676,"lon":5.363416,"is_reserved":false,"is_disabled":false,"rental_uris":{"android":"levelo://app?vid=0596970d-6eb4-4331-8d1d-96c25a649f4a","ios":"levelo://app?vid=0596970d-6eb4-4331-8d1d-96c25a649f4a"},"vehicle_type_id":"4","last_reported":1741104737,"current_range_meters":11600,"station_id":"ce4bhah2rcd13ifvqej0","pricing_plan_id":"cebpf4jnsgd1na2vs0mg"},{"bike_id":"bf0e41f4-39a8-4ddc-875b-cec51847f387","system_id":"levelo_inurba_marseille","lat":43.23136,"lon":5.43713,"is_reserved":false,"is_disabled":false,"rental_uris":{"android":"levelo://app?vid=bf0e41f4-39a8-4ddc-875b-cec51847f387","ios":"levelo://app?vid=bf0e41f4-39a8-4ddc-875b-cec51847f387"},"vehicle_type_id":"4","last_reported":1741104737,"current_range_meters":11600,"station_id":"ce4bhmp2rcd13ifvqgog","pricing_plan_id":"cebpf4jnsgd1na2vs0mg"},{"bike_id":"212be3cc-09ae-4063-9d09-83b8b6c708f5","system_id":"levelo_inurba_marseille","lat":43.27059,"lon":5.40267,"is_reserved":false,"is_disabled":false,"rental_uris":{"android":"levelo://app?vid=212be3cc-09ae-4063-9d09-83b8b6c708f5","ios":"levelo://app?vid=212be3cc-09ae-4063-9d09-83b8b6c708f5"},"vehicle_type_id":"4","last_reported":1741104737,"current_range_meters":11600,"station_id":"ce4bhk92rcd13ifvqgc0","pricing_plan_id":"cebpf4jnsgd1na2vs0mg"},{"bike_id":"913bb55b-2edb-4434-9d82-fe796f8d08f1","system_id":"levelo_inurba_marseille","lat":43.28621,"lon":5.35106,"is_reserved":false,"is_disabled":false,"rental_uris":{"android":"levelo://app?vid=913bb55b-2edb-4434-9d82-fe796f8d08f1","ios":"levelo://app?vid=913bb55b-2edb-4434-9d82-fe796f8d08f1"},"vehicle_type_id":"4","last_reported":1741104737,"current_range_meters":11600,"station_id":"ce4bhch2rcd13ifvqeug","pricing_plan_id":"cebpf4jnsgd1na2vs0mg"},{"bike_id":"46092b38-fd21-4477-9698-fb82636c56e4","system_id":"levelo_inurba_marseille","lat":43.28448,"lon":5.39179,"is_reserved":false,"is_disabled":false,"rental_uris":{"android":"levelo://app?vid=46092b38-fd21-4477-9698-fb82636c56e4","ios":"levelo://app?vid=46092b38-fd21-4477-9698-fb82636c56e4"},"vehicle_type_id":"4","last_reported":1741104737,"current_range_meters":11200,"station_id":"ce4bhoh2rcd13ifvqh5g","pricing_plan_id":"cebpf4jnsgd1na2vs0mg"},{"bike_id":"cd3ca9db-0af6-427f-b7a4-bfa6abafc013","system_id":"levelo_inurba_marseille","lat":43.24673,"lon":5.38152,"is_reserved":false,"is_disabled":false,"rental_uris":{"android":"levelo://app?vid=cd3ca9db-0af6-427f-b7a4-bfa6abafc013","ios":"levelo://app?vid=cd3ca9db-0af6-427f-b7a4-bfa6abafc013"},"vehicle_type_id":"4","last_reported":1741104737,"current_range_meters":11600,"station_id":"ce4bhih2rcd13ifvqfr0","pricing_plan_id":"cebpf4jnsgd1na2vs0mg"},{"bike_id":"a9a39d64-9222-4189-90e2-a13368e983ae","system_id":"levelo_inurba_marseille","lat":43.302263,"lon":5.364579,"is_reserved":false,"is_disabled":false,"rental_uris":{"android":"levelo://app?vid=a9a39d64-9222-4189-90e2-a13368e983ae","ios":"levelo://app?vid=a9a39d64-9222-4189-90e2-a13368e983ae"},"vehicle_type_id":"4","last_reported":1741104737,"current_range_meters":12000,"station_id":"ce4bgl92rcd13ifvqbq0","pricing_plan_id":"cebpf4jnsgd1na2vs0mg"},{"bike_id":"9747368a-1f80-409b-8b2c-bee64829bc86","system_id":"levelo_inurba_marseille","lat":43.30249,"lon":5.39667,"is_reserved":false,"is_disabled":false,"rental_uris":{"android":"levelo://app?vid=9747368a-1f80-409b-8b2c-bee64829bc86","ios":"levelo://app?vid=9747368a-1f80-409b-8b2c-bee64829bc86"},"vehicle_type_id":"4","last_reported":1741104737,"current_range_meters":12000,"station_id":"","pricing_plan_id":"cebpf4jnsgd1na2vs0mg"},{"bike_id":"8abc21d7-e2e7-41e2-9df2-1be351360480","system_id":"levelo_inurba_marseille","lat":43.26061,"lon":5.39397,"is_reserved":false,"is_disabled":false,"rental_uris":{"android":"levelo://app?vid=8abc21d7-e2e7-41e2-9df2-1be351360480","ios":"levelo://app?vid=8abc21d7-e2e7-41e2-9df2-1be351360480"},"vehicle_type_id":"4","last_reported":1741104737,"current_range_meters":11600,"station_id":"ce4bhh92rcd13ifvqfj0","pricing_plan_id":"cebpf4jnsgd1na2vs0mg"},{"bike_id":"18ffc8ee-572f-4f9f-aea0-f99d011c795b","system_id":"levelo_inurba_marseille","lat":43.27059,"lon":5.40267,"is_reserved":false,"is_disabled":false,"rental_uris":{"android":"levelo://app?vid=18ffc8ee-572f-4f9f-aea0-f99d011c795b","ios":"levelo://app?vid=18ffc8ee-572f-4f9f-aea0-f99d011c795b"},"vehicle_type_id":"4","last_reported":1741104737,"current_range_meters":12000,"station_id":"ce4bhk92rcd13ifvqgc0","pricing_plan_id":"cebpf4jnsgd1na2vs0mg"},{"bike_id":"ea51c01f-48c5-4a4c-8d2a-918b5a7a916b","system_id":"levelo_inurba_marseille","lat":43.27635,"lon":5.36112,"is_reserved":false,"is_disabled":false,"rental_uris":{"android":"levelo://app?vid=ea51c01f-48c5-4a4c-8d2a-918b5a7a916b","ios":"levelo://app?vid=ea51c01f-48c5-4a4c-8d2a-918b5a7a916b"},"vehicle_type_id":"4","last_reported":1741104737,"current_range_meters":12000,"station_id":"ce4bgj92rcd13ifvqbe0","pricing_plan_id":"cebpf4jnsgd1na2vs0mg"},{"bike_id":"95e78016-f0c4-493e-a34d-250e6be396b3","system_id":"levelo_inurba_marseille","lat":43.23196,"lon":5.35557,"is_reserved":false,"is_disabled":false,"rental_uris":{"android":"levelo://app?vid=95e78016-f0c4-493e-a34d-250e6be396b3","ios":"levelo://app?vid=95e78016-f0c4-493e-a34d-250e6be396b3"},"vehicle_type_id":"4","last_reported":1741104737,"current_range_meters":12000,"station_id":"ce4bhu92rcd13ifvqi70","pricing_plan_id":"cebpf4jnsgd1na2vs0mg"},{"bike_id":"e84f5011-59e6-4187-a21c-bbc7c963d003","system_id":"levelo_inurba_marseille","lat":43.30813,"lon":5.38161,"is_reserved":false,"is_disabled":false,"rental_uris":{"android":"levelo://app?vid=e84f5011-59e6-4187-a21c-bbc7c963d003","ios":"levelo://app?vid=e84f5011-59e6-4187-a21c-bbc7c963d003"},"vehicle_type_id":"4","last_reported":1741104737,"current_range_meters":12000,"station_id":"ce4bgt12rcd13ifvqce0","pricing_plan_id":"cebpf4jnsgd1na2vs0mg"},{"bike_id":"c39e2295-e7a5-4c5b-833a-007e71b3658e","system_id":"levelo_inurba_marseille","lat":43.30799,"lon":5.43522,"is_reserved":false,"is_disabled":false,"rental_uris":{"android":"levelo://app?vid=c39e2295-e7a5-4c5b-833a-007e71b3658e","ios":"levelo://app?vid=c39e2295-e7a5-4c5b-833a-007e71b3658e"},"vehicle_type_id":"4","last_reported":1741104737,"current_range_meters":12400,"station_id":"ce4bhph2rcd13ifvqheg","pricing_plan_id":"cebpf4jnsgd1na2vs0mg"},{"bike_id":"6d9d7d9f-8b97-4e39-b709-6dd1493b639e","system_id":"levelo_inurba_marseille","lat":43.25105,"lon":5.40322,"is_reserved":false,"is_disabled":false,"rental_uris":{"android":"levelo://app?vid=6d9d7d9f-8b97-4e39-b709-6dd1493b639e","ios":"levelo://app?vid=6d9d7d9f-8b97-4e39-b709-6dd1493b639e"},"vehicle_type_id":"4","last_reported":1741104737,"current_range_meters":12400,"station_id":"ce4bhlh2rcd13ifvqgig","pricing_plan_id":"cebpf4jnsgd1na2vs0mg"},{"bike_id":"2f6bb5ff-cac8-467c-9e7d-b7c0dd886a05","system_id":"levelo_inurba_marseille","lat":43.29258,"lon":5.37635,"is_reserved":false,"is_disabled":false,"rental_uris":{"android":"levelo://app?vid=2f6bb5ff-cac8-467c-9e7d-b7c0dd886a05","ios":"levelo://app?vid=2f6bb5ff-cac8-467c-9e7d-b7c0dd886a05"},"vehicle_type_id":"4","last_reported":1741104737,"current_range_meters":12400,"station_id":"ce4bgi12rcd13ifvqb80","pricing_plan_id":"cebpf4jnsgd1na2vs0mg"},{"bike_id":"4c0e314a-87e2-48f0-a7b0-ec6605046de8","system_id":"levelo_inurba_marseille","lat":43.32109,"lon":5.36767,"is_reserved":false,"is_disabled":false,"rental_uris":{"android":"levelo://app?vid=4c0e314a-87e2-48f0-a7b0-ec6605046de8","ios":"levelo://app?vid=4c0e314a-87e2-48f0-a7b0-ec6605046de8"},"vehicle_type_id":"4","last_reported":1741104737,"current_range_meters":12400,"station_id":"ce4bhrh2rcd13ifvqhug","pricing_plan_id":"cebpf4jnsgd1na2vs0mg"},{"bike_id":"32e1fb87-d1ba-4660-bf7d-0d23f4235b84","system_id":"levelo_inurba_marseille","lat":43.28939,"lon":5.36639,"is_reserved":false,"is_disabled":false,"rental_uris":{"android":"levelo://app?vid=32e1fb87-d1ba-4660-bf7d-0d23f4235b84","ios":"levelo://app?vid=32e1fb87-d1ba-4660-bf7d-0d23f4235b84"},"vehicle_type_id":"4","last_reported":1741104737,"current_range_meters":12800,"station_id":"ce4bhap2rcd13ifvqek0","pricing_plan_id":"cebpf4jnsgd1na2vs0mg"},{"bike_id":"a0c29a23-2a1a-45ba-ba86-311986804f33","system_id":"levelo_inurba_marseille","lat":43.3043,"lon":5.38887,"is_reserved":false,"is_disabled":false,"rental_uris":{"android":"levelo://app?vid=a0c29a23-2a1a-45ba-ba86-311986804f33","ios":"levelo://app?vid=a0c29a23-2a1a-45ba-ba86-311986804f33"},"vehicle_type_id":"4","last_reported":1741104737,"current_range_meters":12800,"station_id":"ce4bgk12rcd13ifvqbi0","pricing_plan_id":"cebpf4jnsgd1na2vs0mg"},{"bike_id":"0122c1c3-b417-4093-9107-12ae15086493","system_id":"levelo_inurba_marseille","lat":43.31326,"lon":5.39705,"is_reserved":false,"is_disabled":false,"rental_uris":{"android":"levelo://app?vid=0122c1c3-b417-4093-9107-12ae15086493","ios":"levelo://app?vid=0122c1c3-b417-4093-9107-12ae15086493"},"vehicle_type_id":"4","last_reported":1741104737,"current_range_meters":12800,"station_id":"ce4bgvp2rcd13ifvqcu0","pricing_plan_id":"cebpf4jnsgd1na2vs0mg"},{"bike_id":"d0be2225-3bb6-417e-b9c5-ea757d6c6af0","system_id":"levelo_inurba_marseille","lat":43.31359,"lon":5.38494,"is_reserved":false,"is_disabled":false,"rental_uris":{"android":"levelo://app?vid=d0be2225-3bb6-417e-b9c5-ea757d6c6af0","ios":"levelo://app?vid=d0be2225-3bb6-417e-b9c5-ea757d6c6af0"},"vehicle_type_id":"4","last_reported":1741104737,"current_range_meters":12800,"station_id":"ce4bgt92rcd13ifvqcf0","pricing_plan_id":"cebpf4jnsgd1na2vs0mg"},{"bike_id":"51f6f578-8898-487a-9da7-ff3d6d379d1b","system_id":"levelo_inurba_marseille","lat":43.32109,"lon":5.36793,"is_reserved":false,"is_disabled":false,"rental_uris":{"android":"levelo://app?vid=51f6f578-8898-487a-9da7-ff3d6d379d1b","ios":"levelo://app?vid=51f6f578-8898-487a-9da7-ff3d6d379d1b"},"vehicle_type_id":"4","last_reported":1741104737,"current_range_meters":12800,"station_id":"ce4bhrh2rcd13ifvqhug","pricing_plan_id":"cebpf4jnsgd1na2vs0mg"},{"bike_id":"902782f9-76e9-469d-aa52-e9c564ffcf05","system_id":"levelo_inurba_marseille","lat":43.30548,"lon":5.38398,"is_reserved":false,"is_disabled":false,"rental_uris":{"android":"levelo://app?vid=902782f9-76e9-469d-aa52-e9c564ffcf05","ios":"levelo://app?vid=902782f9-76e9-469d-aa52-e9c564ffcf05"},"vehicle_type_id":"4","last_reported":1741104737,"current_range_meters":14800,"station_id":"ce4bh692rcd13ifvqea0","pricing_plan_id":"cebpf4jnsgd1na2vs0mg"},{"bike_id":"53b35001-fee4-4ffd-9b8c-e9c7a76700c3","system_id":"levelo_inurba_marseille","lat":43.23145,"lon":5.4372,"is_reserved":false,"is_disabled":false,"rental_uris":{"android":"levelo://app?vid=53b35001-fee4-4ffd-9b8c-e9c7a76700c3","ios":"levelo://app?vid=53b35001-fee4-4ffd-9b8c-e9c7a76700c3"},"vehicle_type_id":"4","last_reported":1741104737,"current_range_meters":13600,"station_id":"ce4bhmp2rcd13ifvqgog","pricing_plan_id":"cebpf4jnsgd1na2vs0mg"},{"bike_id":"fdc62e9a-4efd-4eca-b1fa-78f735a5602d","system_id":"levelo_inurba_marseille","lat":43.31165,"lon":5.38718,"is_reserved":false,"is_disabled":false,"rental_uris":{"android":"levelo://app?vid=fdc62e9a-4efd-4eca-b1fa-78f735a5602d","ios":"levelo://app?vid=fdc62e9a-4efd-4eca-b1fa-78f735a5602d"},"vehicle_type_id":"4","last_reported":1741104737,"current_range_meters":13600,"station_id":"ce4bgv12rcd13ifvqcp0","pricing_plan_id":"cebpf4jnsgd1na2vs0mg"},{"bike_id":"54ce4aef-9c07-4d24-aa50-20dcaeae984a","system_id":"levelo_inurba_marseille","lat":43.27569,"lon":5.38434,"is_reserved":false,"is_disabled":false,"rental_uris":{"android":"levelo://app?vid=54ce4aef-9c07-4d24-aa50-20dcaeae984a","ios":"levelo://app?vid=54ce4aef-9c07-4d24-aa50-20dcaeae984a"},"vehicle_type_id":"4","last_reported":1741104737,"current_range_meters":13600,"station_id":"ce4bhh92rcd13ifvqfi0","pricing_plan_id":"cebpf4jnsgd1na2vs0mg"},{"bike_id":"3b1a2be8-40b6-4fdb-934d-2f6321c06e93","system_id":"levelo_inurba_marseille","lat":43.26489,"lon":5.39551,"is_reserved":false,"is_disabled":false,"rental_uris":{"android":"levelo://app?vid=3b1a2be8-40b6-4fdb-934d-2f6321c06e93","ios":"levelo://app?vid=3b1a2be8-40b6-4fdb-934d-2f6321c06e93"},"vehicle_type_id":"4","last_reported":1741104737,"current_range_meters":14000,"station_id":"ce4bhi12rcd13ifvqfq0","pricing_plan_id":"cebpf4jnsgd1na2vs0mg"},{"bike_id":"e2209c83-9753-471e-8780-4906735741c8","system_id":"levelo_inurba_marseille","lat":43.262089,"lon":5.374429,"is_reserved":false,"is_disabled":false,"rental_uris":{"android":"levelo://app?vid=e2209c83-9753-471e-8780-4906735741c8","ios":"levelo://app?vid=e2209c83-9753-471e-8780-4906735741c8"},"vehicle_type_id":"4","last_reported":1741104737,"current_range_meters":14000,"station_id":"ce4bh492rcd13ifvqdug","pricing_plan_id":"cebpf4jnsgd1na2vs0mg"},{"bike_id":"4c78b1dd-9fab-4d1a-be99-1b8e7c1237f6","system_id":"levelo_inurba_marseille","lat":43.28682,"lon":5.38664,"is_reserved":false,"is_disabled":false,"rental_uris":{"android":"levelo://app?vid=4c78b1dd-9fab-4d1a-be99-1b8e7c1237f6","ios":"levelo://app?vid=4c78b1dd-9fab-4d1a-be99-1b8e7c1237f6"},"vehicle_type_id":"4","last_reported":1741104737,"current_range_meters":14000,"station_id":"ce4bh492rcd13ifvqdug","pricing_plan_id":"cebpf4jnsgd1na2vs0mg"},{"bike_id":"8ce98dda-f735-4c4f-b968-cb091a44a68c","system_id":"levelo_inurba_marseille","lat":43.281,"lon":5.37857,"is_reserved":false,"is_disabled":false,"rental_uris":{"android":"levelo://app?vid=8ce98dda-f735-4c4f-b968-cb091a44a68c","ios":"levelo://app?vid=8ce98dda-f735-4c4f-b968-cb091a44a68c"},"vehicle_type_id":"4","last_reported":1741104737,"current_range_meters":14000,"station_id":"ce4bha12rcd13ifvqee0","pricing_plan_id":"cebpf4jnsgd1na2vs0mg"},{"bike_id":"a6e9f3c7-17c9-4fc3-9563-9a97a1a29acc","system_id":"levelo_inurba_marseille","lat":43.30175,"lon":5.36637,"is_reserved":false,"is_disabled":false,"rental_uris":{"android":"levelo://app?vid=a6e9f3c7-17c9-4fc3-9563-9a97a1a29acc","ios":"levelo://app?vid=a6e9f3c7-17c9-4fc3-9563-9a97a1a29acc"},"vehicle_type_id":"4","last_reported":1741104737,"current_range_meters":13600,"station_id":"ce4bgrh2rcd13ifvqc8g","pricing_plan_id":"cebpf4jnsgd1na2vs0mg"},{"bike_id":"0d05bc73-c4d3-4eed-b32a-2596c3198aa1","system_id":"levelo_inurba_marseille","lat":43.30549,"lon":5.36524,"is_reserved":false,"is_disabled":false,"rental_uris":{"android":"levelo://app?vid=0d05bc73-c4d3-4eed-b32a-2596c3198aa1","ios":"levelo://app?vid=0d05bc73-c4d3-4eed-b32a-2596c3198aa1"},"vehicle_type_id":"4","last_reported":1741104737,"current_range_meters":14000,"station_id":"ce4bgs12rcd13ifvqcag","pricing_plan_id":"cebpf4jnsgd1na2vs0mg"},{"bike_id":"a1862942-e671-4b23-b2a6-7d6664d60cde","system_id":"levelo_inurba_marseille","lat":43.31235,"lon":5.36867,"is_reserved":false,"is_disabled":false,"rental_uris":{"android":"levelo://app?vid=a1862942-e671-4b23-b2a6-7d6664d60cde","ios":"levelo://app?vid=a1862942-e671-4b23-b2a6-7d6664d60cde"},"vehicle_type_id":"4","last_reported":1741104737,"current_range_meters":14000,"station_id":"ce4bgl92rcd13ifvqbq0","pricing_plan_id":"cebpf4jnsgd1na2vs0mg"},{"bike_id":"2dccb468-c79a-4964-bfca-1d104aecfaa2","system_id":"levelo_inurba_marseille","lat":43.265562,"lon":5.372843,"is_reserved":false,"is_disabled":false,"rental_uris":{"android":"levelo://app?vid=2dccb468-c79a-4964-bfca-1d104aecfaa2","ios":"levelo://app?vid=2dccb468-c79a-4964-bfca-1d104aecfaa2"},"vehicle_type_id":"4","last_reported":1741104737,"current_range_meters":14000,"station_id":"ce4bhg12rcd13ifvqf70","pricing_plan_id":"cebpf4jnsgd1na2vs0mg"},{"bike_id":"4167f6bd-40b7-45c1-950d-68f467926bd6","system_id":"levelo_inurba_marseille","lat":43.28984,"lon":5.37833,"is_reserved":false,"is_disabled":true,"rental_uris":{"android":"levelo://app?vid=4167f6bd-40b7-45c1-950d-68f467926bd6","ios":"levelo://app?vid=4167f6bd-40b7-45c1-950d-68f467926bd6"},"vehicle_type_id":"4","last_reported":1741104737,"current_range_meters":14000,"station_id":"ce4bh9p2rcd13ifvqed0","pricing_plan_id":"cebpf4jnsgd1na2vs0mg"},{"bike_id":"4f942337-a9fc-4a89-abb4-78d632fa11b1","system_id":"levelo_inurba_marseille","lat":43.28615,"lon":5.37058,"is_reserved":false,"is_disabled":false,"rental_uris":{"android":"levelo://app?vid=4f942337-a9fc-4a89-abb4-78d632fa11b1","ios":"levelo://app?vid=4f942337-a9fc-4a89-abb4-78d632fa11b1"},"vehicle_type_id":"4","last_reported":1741104737,"current_range_meters":14000,"station_id":"ce4bht12rcd13ifvqi60","pricing_plan_id":"cebpf4jnsgd1na2vs0mg"},{"bike_id":"aa606a8b-ed0e-43a8-bffb-bedbaa3d3d5f","system_id":"levelo_inurba_marseille","lat":43.24541,"lon":5.39517,"is_reserved":false,"is_disabled":false,"rental_uris":{"android":"levelo://app?vid=aa606a8b-ed0e-43a8-bffb-bedbaa3d3d5f","ios":"levelo://app?vid=aa606a8b-ed0e-43a8-bffb-bedbaa3d3d5f"},"vehicle_type_id":"4","last_reported":1741104737,"current_range_meters":14000,"station_id":"ce4bhlp2rcd13ifvqgjg","pricing_plan_id":"cebpf4jnsgd1na2vs0mg"},{"bike_id":"f8b34b05-3ce8-4023-b46a-493d367bd4f6","system_id":"levelo_inurba_marseille","lat":43.27185,"lon":5.40987,"is_reserved":false,"is_disabled":false,"rental_uris":{"android":"levelo://app?vid=f8b34b05-3ce8-4023-b46a-493d367bd4f6","ios":"levelo://app?vid=f8b34b05-3ce8-4023-b46a-493d367bd4f6"},"vehicle_type_id":"4","last_reported":1741104737,"current_range_meters":14000,"station_id":"ce4bhl12rcd13ifvqgf0","pricing_plan_id":"cebpf4jnsgd1na2vs0mg"},{"bike_id":"eb2c257e-12a4-4c27-8ced-fdace9c46ce4","system_id":"levelo_inurba_marseille","lat":43.24388,"lon":5.37056,"is_reserved":false,"is_disabled":false,"rental_uris":{"android":"levelo://app?vid=eb2c257e-12a4-4c27-8ced-fdace9c46ce4","ios":"levelo://app?vid=eb2c257e-12a4-4c27-8ced-fdace9c46ce4"},"vehicle_type_id":"4","last_reported":1741104737,"current_range_meters":14400,"station_id":"ce4bhhh2rcd13ifvqfk0","pricing_plan_id":"cebpf4jnsgd1na2vs0mg"},{"bike_id":"aa54c9ac-e15e-41a9-83cd-b10a5f15e37b","system_id":"levelo_inurba_marseille","lat":43.26505,"lon":5.39565,"is_reserved":false,"is_disabled":false,"rental_uris":{"android":"levelo://app?vid=aa54c9ac-e15e-41a9-83cd-b10a5f15e37b","ios":"levelo://app?vid=aa54c9ac-e15e-41a9-83cd-b10a5f15e37b"},"vehicle_type_id":"4","last_reported":1741104737,"current_range_meters":12800,"station_id":"ce4bhi12rcd13ifvqfq0","pricing_plan_id":"cebpf4jnsgd1na2vs0mg"},{"bike_id":"3e7808f3-0c04-4991-9bad-c2eb66a1ffd3","system_id":"levelo_inurba_marseille","lat":43.231493,"lon":5.437193,"is_reserved":false,"is_disabled":false,"rental_uris":{"android":"levelo://app?vid=3e7808f3-0c04-4991-9bad-c2eb66a1ffd3","ios":"levelo://app?vid=3e7808f3-0c04-4991-9bad-c2eb66a1ffd3"},"vehicle_type_id":"4","last_reported":1741104737,"current_range_meters":14400,"station_id":"ce4bhmp2rcd13ifvqgog","pricing_plan_id":"cebpf4jnsgd1na2vs0mg"},{"bike_id":"53370df7-9791-4141-8ab6-479eee9f8d86","system_id":"levelo_inurba_marseille","lat":43.2989,"lon":5.43653,"is_reserved":false,"is_disabled":false,"rental_uris":{"android":"levelo://app?vid=53370df7-9791-4141-8ab6-479eee9f8d86","ios":"levelo://app?vid=53370df7-9791-4141-8ab6-479eee9f8d86"},"vehicle_type_id":"4","last_reported":1741104737,"current_range_meters":14400,"station_id":"ce4bhpp2rcd13ifvqhfg","pricing_plan_id":"cebpf4jnsgd1na2vs0mg"},{"bike_id":"0eb9fef3-83c8-47c8-ad9e-cfe2998c47d1","system_id":"levelo_inurba_marseille","lat":43.31072,"lon":5.37534,"is_reserved":false,"is_disabled":false,"rental_uris":{"android":"levelo://app?vid=0eb9fef3-83c8-47c8-ad9e-cfe2998c47d1","ios":"levelo://app?vid=0eb9fef3-83c8-47c8-ad9e-cfe2998c47d1"},"vehicle_type_id":"4","last_reported":1741104737,"current_range_meters":14800,"station_id":"","pricing_plan_id":"cebpf4jnsgd1na2vs0mg"},{"bike_id":"02a6fb8a-1be2-4829-b1fe-f78315ca77e8","system_id":"levelo_inurba_marseille","lat":43.28274,"lon":5.35073,"is_reserved":false,"is_disabled":false,"rental_uris":{"android":"levelo://app?vid=02a6fb8a-1be2-4829-b1fe-f78315ca77e8","ios":"levelo://app?vid=02a6fb8a-1be2-4829-b1fe-f78315ca77e8"},"vehicle_type_id":"4","last_reported":1741104737,"current_range_meters":14800,"station_id":"ce4bhbp2rcd13ifvqerg","pricing_plan_id":"cebpf4jnsgd1na2vs0mg"},{"bike_id":"b8306310-f180-4c4c-ae8f-1400c0b90e3b","system_id":"levelo_inurba_marseille","lat":43.26499,"lon":5.39536,"is_reserved":false,"is_disabled":false,"rental_uris":{"android":"levelo://app?vid=b8306310-f180-4c4c-ae8f-1400c0b90e3b","ios":"levelo://app?vid=b8306310-f180-4c4c-ae8f-1400c0b90e3b"},"vehicle_type_id":"4","last_reported":1741104737,"current_range_meters":14800,"station_id":"ce4bhi12rcd13ifvqfq0","pricing_plan_id":"cebpf4jnsgd1na2vs0mg"},{"bike_id":"6dcbfb2b-4676-4562-8867-6903e4380b81","system_id":"levelo_inurba_marseille","lat":43.29885,"lon":5.39731,"is_reserved":false,"is_disabled":false,"rental_uris":{"android":"levelo://app?vid=6dcbfb2b-4676-4562-8867-6903e4380b81","ios":"levelo://app?vid=6dcbfb2b-4676-4562-8867-6903e4380b81"},"vehicle_type_id":"4","last_reported":1741104737,"current_range_meters":14800,"station_id":"ce4bh0h2rcd13ifvqd50","pricing_plan_id":"cebpf4jnsgd1na2vs0mg"},{"bike_id":"7cd5e07c-ad2a-4af8-99d9-77c41335ce79","system_id":"levelo_inurba_marseille","lat":43.241683,"lon":5.363918,"is_reserved":false,"is_disabled":false,"rental_uris":{"android":"levelo://app?vid=7cd5e07c-ad2a-4af8-99d9-77c41335ce79","ios":"levelo://app?vid=7cd5e07c-ad2a-4af8-99d9-77c41335ce79"},"vehicle_type_id":"4","last_reported":1741104737,"current_range_meters":14800,"station_id":"cpo36qri1sfpv3e86is0","pricing_plan_id":"cebpf4jnsgd1na2vs0mg"},{"bike_id":"107da2fa-378b-40c3-acc1-f577c82629ad","system_id":"levelo_inurba_marseille","lat":43.30596,"lon":5.39354,"is_reserved":false,"is_disabled":false,"rental_uris":{"android":"levelo://app?vid=107da2fa-378b-40c3-acc1-f577c82629ad","ios":"levelo://app?vid=107da2fa-378b-40c3-acc1-f577c82629ad"},"vehicle_type_id":"4","last_reported":1741104737,"current_range_meters":14800,"station_id":"ce4bh0p2rcd13ifvqd80","pricing_plan_id":"cebpf4jnsgd1na2vs0mg"},{"bike_id":"d571166c-77a4-4a91-b051-9cc34ad31336","system_id":"levelo_inurba_marseille","lat":43.30201,"lon":5.39338,"is_reserved":false,"is_disabled":false,"rental_uris":{"android":"levelo://app?vid=d571166c-77a4-4a91-b051-9cc34ad31336","ios":"levelo://app?vid=d571166c-77a4-4a91-b051-9cc34ad31336"},"vehicle_type_id":"4","last_reported":1741104737,"current_range_meters":14800,"station_id":"","pricing_plan_id":"cebpf4jnsgd1na2vs0mg"},{"bike_id":"94fb1cc4-47f2-400a-bd11-75deb527bd72","system_id":"levelo_inurba_marseille","lat":43.28184,"lon":5.42662,"is_reserved":false,"is_disabled":false,"rental_uris":{"android":"levelo://app?vid=94fb1cc4-47f2-400a-bd11-75deb527bd72","ios":"levelo://app?vid=94fb1cc4-47f2-400a-bd11-75deb527bd72"},"vehicle_type_id":"4","last_reported":1741104737,"current_range_meters":14800,"station_id":"ce4bhnh2rcd13ifvqgug","pricing_plan_id":"cebpf4jnsgd1na2vs0mg"},{"bike_id":"cd1c999a-7ba3-4d7b-aa86-8e172fbb89dc","system_id":"levelo_inurba_marseille","lat":43.28439,"lon":5.39188,"is_reserved":false,"is_disabled":false,"rental_uris":{"android":"levelo://app?vid=cd1c999a-7ba3-4d7b-aa86-8e172fbb89dc","ios":"levelo://app?vid=cd1c999a-7ba3-4d7b-aa86-8e172fbb89dc"},"vehicle_type_id":"4","last_reported":1741104737,"current_range_meters":14800,"station_id":"ce4bhoh2rcd13ifvqh5g","pricing_plan_id":"cebpf4jnsgd1na2vs0mg"},{"bike_id":"4fc6e71c-d012-4f69-b598-c961f4c7820c","system_id":"levelo_inurba_marseille","lat":43.26495,"lon":5.395478,"is_reserved":false,"is_disabled":false,"rental_uris":{"android":"levelo://app?vid=4fc6e71c-d012-4f69-b598-c961f4c7820c","ios":"levelo://app?vid=4fc6e71c-d012-4f69-b598-c961f4c7820c"},"vehicle_type_id":"4","last_reported":1741104737,"current_range_meters":15200,"station_id":"ce4bhi12rcd13ifvqfq0","pricing_plan_id":"cebpf4jnsgd1na2vs0mg"},{"bike_id":"08e28076-e4cc-4bb3-b2d6-53a65e282a52","system_id":"levelo_inurba_marseille","lat":43.23144,"lon":5.43695,"is_reserved":false,"is_disabled":false,"rental_uris":{"android":"levelo://app?vid=08e28076-e4cc-4bb3-b2d6-53a65e282a52","ios":"levelo://app?vid=08e28076-e4cc-4bb3-b2d6-53a65e282a52"},"vehicle_type_id":"4","last_reported":1741104737,"current_range_meters":15200,"station_id":"ce4bhmp2rcd13ifvqgog","pricing_plan_id":"cebpf4jnsgd1na2vs0mg"},{"bike_id":"41ab90ab-3caa-418b-b020-1773db6db3b1","system_id":"levelo_inurba_marseille","lat":43.25005,"lon":5.38927,"is_reserved":false,"is_disabled":false,"rental_uris":{"android":"levelo://app?vid=41ab90ab-3caa-418b-b020-1773db6db3b1","ios":"levelo://app?vid=41ab90ab-3caa-418b-b020-1773db6db3b1"},"vehicle_type_id":"4","last_reported":1741104737,"current_range_meters":15200,"station_id":"ce4bhgp2rcd13ifvqfd0","pricing_plan_id":"cebpf4jnsgd1na2vs0mg"},{"bike_id":"03d5bd23-db2c-4a3d-9573-a1403447f741","system_id":"levelo_inurba_marseille","lat":43.27812,"lon":5.40712,"is_reserved":false,"is_disabled":false,"rental_uris":{"android":"levelo://app?vid=03d5bd23-db2c-4a3d-9573-a1403447f741","ios":"levelo://app?vid=03d5bd23-db2c-4a3d-9573-a1403447f741"},"vehicle_type_id":"4","last_reported":1741104737,"current_range_meters":15200,"station_id":"ce4bhnh2rcd13ifvqgtg","pricing_plan_id":"cebpf4jnsgd1na2vs0mg"},{"bike_id":"d1dfb0b4-7760-400b-b437-85c24c17b5f7","system_id":"levelo_inurba_marseille","lat":43.23961,"lon":5.36643,"is_reserved":false,"is_disabled":false,"rental_uris":{"android":"levelo://app?vid=d1dfb0b4-7760-400b-b437-85c24c17b5f7","ios":"levelo://app?vid=d1dfb0b4-7760-400b-b437-85c24c17b5f7"},"vehicle_type_id":"4","last_reported":1741104737,"current_range_meters":15200,"station_id":"ce4bhi12rcd13ifvqfp0","pricing_plan_id":"cebpf4jnsgd1na2vs0mg"},{"bike_id":"38178cec-d94f-410e-885a-f31f98c92e3d","system_id":"levelo_inurba_marseille","lat":43.28454,"lon":5.359,"is_reserved":false,"is_disabled":false,"rental_uris":{"android":"levelo://app?vid=38178cec-d94f-410e-885a-f31f98c92e3d","ios":"levelo://app?vid=38178cec-d94f-410e-885a-f31f98c92e3d"},"vehicle_type_id":"4","last_reported":1741104737,"current_range_meters":16000,"station_id":"ce4bhah2rcd13ifvqei0","pricing_plan_id":"cebpf4jnsgd1na2vs0mg"},{"bike_id":"cb496853-36b1-44cf-ae52-f62222f24638","system_id":"levelo_inurba_marseille","lat":43.31514,"lon":5.3729,"is_reserved":false,"is_disabled":false,"rental_uris":{"android":"levelo://app?vid=cb496853-36b1-44cf-ae52-f62222f24638","ios":"levelo://app?vid=cb496853-36b1-44cf-ae52-f62222f24638"},"vehicle_type_id":"4","last_reported":1741104737,"current_range_meters":16000,"station_id":"ce4bgt12rcd13ifvqcd0","pricing_plan_id":"cebpf4jnsgd1na2vs0mg"},{"bike_id":"f9850ae9-b2e9-40ca-9a36-dbfb56b098c4","system_id":"levelo_inurba_marseille","lat":43.29523,"lon":5.39403,"is_reserved":false,"is_disabled":false,"rental_uris":{"android":"levelo://app?vid=f9850ae9-b2e9-40ca-9a36-dbfb56b098c4","ios":"levelo://app?vid=f9850ae9-b2e9-40ca-9a36-dbfb56b098c4"},"vehicle_type_id":"4","last_reported":1741104737,"current_range_meters":16000,"station_id":"ce4bh292rcd13ifvqdf0","pricing_plan_id":"cebpf4jnsgd1na2vs0mg"},{"bike_id":"28096b7f-96ae-4ea2-8ceb-2396385a6306","system_id":"levelo_inurba_marseille","lat":43.24647,"lon":5.38891,"is_reserved":false,"is_disabled":true,"rental_uris":{"android":"levelo://app?vid=28096b7f-96ae-4ea2-8ceb-2396385a6306","ios":"levelo://app?vid=28096b7f-96ae-4ea2-8ceb-2396385a6306"},"vehicle_type_id":"4","last_reported":1741104737,"current_range_meters":16000,"station_id":"ce4bhg12rcd13ifvqf60","pricing_plan_id":"cebpf4jnsgd1na2vs0mg"},{"bike_id":"0b4b9c2b-084e-49f5-8266-9b0d07be699f","system_id":"levelo_inurba_marseille","lat":43.27679,"lon":5.38876,"is_reserved":false,"is_disabled":false,"rental_uris":{"android":"levelo://app?vid=0b4b9c2b-084e-49f5-8266-9b0d07be699f","ios":"levelo://app?vid=0b4b9c2b-084e-49f5-8266-9b0d07be699f"},"vehicle_type_id":"4","last_reported":1741104737,"current_range_meters":16000,"station_id":"ce4bhi12rcd13ifvqfo0","pricing_plan_id":"cebpf4jnsgd1na2vs0mg"},{"bike_id":"df1ea98d-4ee0-437d-8acd-b93d741206e7","system_id":"levelo_inurba_marseille","lat":43.251094,"lon":5.403201,"is_reserved":false,"is_disabled":false,"rental_uris":{"android":"levelo://app?vid=df1ea98d-4ee0-437d-8acd-b93d741206e7","ios":"levelo://app?vid=df1ea98d-4ee0-437d-8acd-b93d741206e7"},"vehicle_type_id":"4","last_reported":1741104737,"current_range_meters":16000,"station_id":"ce4bhlh2rcd13ifvqgig","pricing_plan_id":"cebpf4jnsgd1na2vs0mg"},{"bike_id":"a47a13a9-c176-4f2b-bca1-9dd7e5a64881","system_id":"levelo_inurba_marseille","lat":43.30929,"lon":5.40143,"is_reserved":false,"is_disabled":true,"rental_uris":{"android":"levelo://app?vid=a47a13a9-c176-4f2b-bca1-9dd7e5a64881","ios":"levelo://app?vid=a47a13a9-c176-4f2b-bca1-9dd7e5a64881"},"vehicle_type_id":"4","last_reported":1741104737,"current_range_meters":16000,"station_id":"ce4bgvp2rcd13ifvqct0","pricing_plan_id":"cebpf4jnsgd1na2vs0mg"},{"bike_id":"a7a69572-f205-4b76-93df-127e4a41cd83","system_id":"levelo_inurba_marseille","lat":43.30473,"lon":5.3821,"is_reserved":false,"is_disabled":false,"rental_uris":{"android":"levelo://app?vid=a7a69572-f205-4b76-93df-127e4a41cd83","ios":"levelo://app?vid=a7a69572-f205-4b76-93df-127e4a41cd83"},"vehicle_type_id":"4","last_reported":1741104737,"current_range_meters":16000,"station_id":"","pricing_plan_id":"cebpf4jnsgd1na2vs0mg"},{"bike_id":"cc8c19e4-c510-4992-a774-9d644f0af5e9","system_id":"levelo_inurba_marseille","lat":43.25119,"lon":5.40318,"is_reserved":false,"is_disabled":false,"rental_uris":{"android":"levelo://app?vid=cc8c19e4-c510-4992-a774-9d644f0af5e9","ios":"levelo://app?vid=cc8c19e4-c510-4992-a774-9d644f0af5e9"},"vehicle_type_id":"4","last_reported":1741104737,"current_range_meters":16000,"station_id":"ce4bhlh2rcd13ifvqgig","pricing_plan_id":"cebpf4jnsgd1na2vs0mg"},{"bike_id":"22b507dc-75c6-49d7-b84b-513dedaad7cf","system_id":"levelo_inurba_marseille","lat":43.23152,"lon":5.43727,"is_reserved":false,"is_disabled":false,"rental_uris":{"android":"levelo://app?vid=22b507dc-75c6-49d7-b84b-513dedaad7cf","ios":"levelo://app?vid=22b507dc-75c6-49d7-b84b-513dedaad7cf"},"vehicle_type_id":"4","last_reported":1741104737,"current_range_meters":16400,"station_id":"ce4bhmp2rcd13ifvqgog","pricing_plan_id":"cebpf4jnsgd1na2vs0mg"},{"bike_id":"0f1d70be-a200-4d49-a257-a6506b1ecc26","system_id":"levelo_inurba_marseille","lat":43.295325,"lon":5.421991,"is_reserved":false,"is_disabled":false,"rental_uris":{"android":"levelo://app?vid=0f1d70be-a200-4d49-a257-a6506b1ecc26","ios":"levelo://app?vid=0f1d70be-a200-4d49-a257-a6506b1ecc26"},"vehicle_type_id":"4","last_reported":1741104737,"current_range_meters":16400,"station_id":"ce4bh292rcd13ifvqdg0","pricing_plan_id":"cebpf4jnsgd1na2vs0mg"},{"bike_id":"2ed11752-9007-443d-acee-5a4071b943ef","system_id":"levelo_inurba_marseille","lat":43.24802,"lon":5.37455,"is_reserved":false,"is_disabled":false,"rental_uris":{"android":"levelo://app?vid=2ed11752-9007-443d-acee-5a4071b943ef","ios":"levelo://app?vid=2ed11752-9007-443d-acee-5a4071b943ef"},"vehicle_type_id":"4","last_reported":1741104737,"current_range_meters":16000,"station_id":"ce4bhgh2rcd13ifvqfb0","pricing_plan_id":"cebpf4jnsgd1na2vs0mg"},{"bike_id":"c166d609-9402-4867-9d00-5a4293ee73b8","system_id":"levelo_inurba_marseille","lat":43.29964,"lon":5.374705,"is_reserved":false,"is_disabled":false,"rental_uris":{"android":"levelo://app?vid=c166d609-9402-4867-9d00-5a4293ee73b8","ios":"levelo://app?vid=c166d609-9402-4867-9d00-5a4293ee73b8"},"vehicle_type_id":"4","last_reported":1741104737,"current_range_meters":16400,"station_id":"ce4bgjh2rcd13ifvqbg0","pricing_plan_id":"cebpf4jnsgd1na2vs0mg"},{"bike_id":"4c318e6f-45ad-4827-bf6b-ffb0059697a8","system_id":"levelo_inurba_marseille","lat":43.32292,"lon":5.40485,"is_reserved":false,"is_disabled":false,"rental_uris":{"android":"levelo://app?vid=4c318e6f-45ad-4827-bf6b-ffb0059697a8","ios":"levelo://app?vid=4c318e6f-45ad-4827-bf6b-ffb0059697a8"},"vehicle_type_id":"4","last_reported":1741104737,"current_range_meters":16400,"station_id":"","pricing_plan_id":"cebpf4jnsgd1na2vs0mg"},{"bike_id":"0887995a-7163-48cf-a17f-e3237da9ea00","system_id":"levelo_inurba_marseille","lat":43.232,"lon":5.39993,"is_reserved":false,"is_disabled":false,"rental_uris":{"android":"levelo://app?vid=0887995a-7163-48cf-a17f-e3237da9ea00","ios":"levelo://app?vid=0887995a-7163-48cf-a17f-e3237da9ea00"},"vehicle_type_id":"4","last_reported":1741104737,"current_range_meters":16400,"station_id":"ce4bhn12rcd13ifvqgqg","pricing_plan_id":"cebpf4jnsgd1na2vs0mg"},{"bike_id":"94c45150-4794-4917-b075-efa6ea9bdc9b","system_id":"levelo_inurba_marseille","lat":43.26587,"lon":5.37248,"is_reserved":false,"is_disabled":false,"rental_uris":{"android":"levelo://app?vid=94c45150-4794-4917-b075-efa6ea9bdc9b","ios":"levelo://app?vid=94c45150-4794-4917-b075-efa6ea9bdc9b"},"vehicle_type_id":"4","last_reported":1741104737,"current_range_meters":16400,"station_id":"ce4bhg12rcd13ifvqf70","pricing_plan_id":"cebpf4jnsgd1na2vs0mg"},{"bike_id":"cdae9b2c-7ab0-4d04-aaab-9d893c1d8df0","system_id":"levelo_inurba_marseille","lat":43.28272,"lon":5.35066,"is_reserved":false,"is_disabled":false,"rental_uris":{"android":"levelo://app?vid=cdae9b2c-7ab0-4d04-aaab-9d893c1d8df0","ios":"levelo://app?vid=cdae9b2c-7ab0-4d04-aaab-9d893c1d8df0"},"vehicle_type_id":"4","last_reported":1741104737,"current_range_meters":16400,"station_id":"ce4bhbp2rcd13ifvqerg","pricing_plan_id":"cebpf4jnsgd1na2vs0mg"},{"bike_id":"3d5374f3-9802-4701-a976-d6bc1115bed8","system_id":"levelo_inurba_marseille","lat":43.33723,"lon":5.39189,"is_reserved":false,"is_disabled":false,"rental_uris":{"android":"levelo://app?vid=3d5374f3-9802-4701-a976-d6bc1115bed8","ios":"levelo://app?vid=3d5374f3-9802-4701-a976-d6bc1115bed8"},"vehicle_type_id":"4","last_reported":1741104737,"current_range_meters":16800,"station_id":"ce4bhr92rcd13ifvqhsg","pricing_plan_id":"cebpf4jnsgd1na2vs0mg"},{"bike_id":"264cfc58-e8d1-4127-98ee-90cc1da4063c","system_id":"levelo_inurba_marseille","lat":43.31329,"lon":5.397,"is_reserved":false,"is_disabled":false,"rental_uris":{"android":"levelo://app?vid=264cfc58-e8d1-4127-98ee-90cc1da4063c","ios":"levelo://app?vid=264cfc58-e8d1-4127-98ee-90cc1da4063c"},"vehicle_type_id":"4","last_reported":1741104737,"current_range_meters":16800,"station_id":"ce4bgvp2rcd13ifvqcu0","pricing_plan_id":"cebpf4jnsgd1na2vs0mg"},{"bike_id":"9a3dc47c-4ce4-470f-8d12-110559ba8b65","system_id":"levelo_inurba_marseille","lat":43.30144,"lon":5.38074,"is_reserved":false,"is_disabled":false,"rental_uris":{"android":"levelo://app?vid=9a3dc47c-4ce4-470f-8d12-110559ba8b65","ios":"levelo://app?vid=9a3dc47c-4ce4-470f-8d12-110559ba8b65"},"vehicle_type_id":"4","last_reported":1741104737,"current_range_meters":16800,"station_id":"ce4bgjp2rcd13ifvqbh0","pricing_plan_id":"cebpf4jnsgd1na2vs0mg"},{"bike_id":"6077a9b4-d2ff-4b90-bb78-3c388c992bfe","system_id":"levelo_inurba_marseille","lat":43.31325,"lon":5.39693,"is_reserved":false,"is_disabled":false,"rental_uris":{"android":"levelo://app?vid=6077a9b4-d2ff-4b90-bb78-3c388c992bfe","ios":"levelo://app?vid=6077a9b4-d2ff-4b90-bb78-3c388c992bfe"},"vehicle_type_id":"4","last_reported":1741104737,"current_range_meters":16800,"station_id":"ce4bgvp2rcd13ifvqcu0","pricing_plan_id":"cebpf4jnsgd1na2vs0mg"},{"bike_id":"330426bc-0af9-4c3e-8e4c-6ec10833df11","system_id":"levelo_inurba_marseille","lat":43.29902,"lon":5.43639,"is_reserved":false,"is_disabled":false,"rental_uris":{"android":"levelo://app?vid=330426bc-0af9-4c3e-8e4c-6ec10833df11","ios":"levelo://app?vid=330426bc-0af9-4c3e-8e4c-6ec10833df11"},"vehicle_type_id":"4","last_reported":1741104737,"current_range_meters":16800,"station_id":"ce4bhpp2rcd13ifvqhfg","pricing_plan_id":"cebpf4jnsgd1na2vs0mg"},{"bike_id":"c6762606-6123-4176-98c0-430a38ac0378","system_id":"levelo_inurba_marseille","lat":43.247473,"lon":5.411703,"is_reserved":false,"is_disabled":false,"rental_uris":{"android":"levelo://app?vid=c6762606-6123-4176-98c0-430a38ac0378","ios":"levelo://app?vid=c6762606-6123-4176-98c0-430a38ac0378"},"vehicle_type_id":"4","last_reported":1741104737,"current_range_meters":16800,"station_id":"","pricing_plan_id":"cebpf4jnsgd1na2vs0mg"},{"bike_id":"b5b77da7-4602-4f9b-9b9f-887dfff16b9f","system_id":"levelo_inurba_marseille","lat":43.30144,"lon":5.365964,"is_reserved":false,"is_disabled":false,"rental_uris":{"android":"levelo://app?vid=b5b77da7-4602-4f9b-9b9f-887dfff16b9f","ios":"levelo://app?vid=b5b77da7-4602-4f9b-9b9f-887dfff16b9f"},"vehicle_type_id":"4","last_reported":1741104737,"current_range_meters":17200,"station_id":"ce4bgs12rcd13ifvqcag","pricing_plan_id":"cebpf4jnsgd1na2vs0mg"},{"bike_id":"ed40ac42-51f5-434e-819d-e17116b90a57","system_id":"levelo_inurba_marseille","lat":43.27621,"lon":5.36106,"is_reserved":false,"is_disabled":false,"rental_uris":{"android":"levelo://app?vid=ed40ac42-51f5-434e-819d-e17116b90a57","ios":"levelo://app?vid=ed40ac42-51f5-434e-819d-e17116b90a57"},"vehicle_type_id":"4","last_reported":1741104737,"current_range_meters":17200,"station_id":"ce4bgj92rcd13ifvqbe0","pricing_plan_id":"cebpf4jnsgd1na2vs0mg"},{"bike_id":"59913f31-a035-4f89-97de-5554ff6a5b2e","system_id":"levelo_inurba_marseille","lat":43.26701,"lon":5.38243,"is_reserved":false,"is_disabled":false,"rental_uris":{"android":"levelo://app?vid=59913f31-a035-4f89-97de-5554ff6a5b2e","ios":"levelo://app?vid=59913f31-a035-4f89-97de-5554ff6a5b2e"},"vehicle_type_id":"4","last_reported":1741104737,"current_range_meters":17200,"station_id":"ce4bhg92rcd13ifvqf90","pricing_plan_id":"cebpf4jnsgd1na2vs0mg"},{"bike_id":"6a2b0cf1-e808-40be-ae07-ac62a48d5b1b","system_id":"levelo_inurba_marseille","lat":43.2821,"lon":5.40255,"is_reserved":false,"is_disabled":false,"rental_uris":{"android":"levelo://app?vid=6a2b0cf1-e808-40be-ae07-ac62a48d5b1b","ios":"levelo://app?vid=6a2b0cf1-e808-40be-ae07-ac62a48d5b1b"},"vehicle_type_id":"4","last_reported":1741104737,"current_range_meters":17200,"station_id":"","pricing_plan_id":"cebpf4jnsgd1na2vs0mg"},{"bike_id":"5af3e5be-f7f6-4918-bac9-968b0797a961","system_id":"levelo_inurba_marseille","lat":43.28423,"lon":5.34985,"is_reserved":false,"is_disabled":false,"rental_uris":{"android":"levelo://app?vid=5af3e5be-f7f6-4918-bac9-968b0797a961","ios":"levelo://app?vid=5af3e5be-f7f6-4918-bac9-968b0797a961"},"vehicle_type_id":"4","last_reported":1741104737,"current_range_meters":17200,"station_id":"ce4bhbh2rcd13ifvqepg","pricing_plan_id":"cebpf4jnsgd1na2vs0mg"},{"bike_id":"e1eaefa0-1b27-429c-8106-1b58c97f5e91","system_id":"levelo_inurba_marseille","lat":43.27061,"lon":5.42272,"is_reserved":false,"is_disabled":false,"rental_uris":{"android":"levelo://app?vid=e1eaefa0-1b27-429c-8106-1b58c97f5e91","ios":"levelo://app?vid=e1eaefa0-1b27-429c-8106-1b58c97f5e91"},"vehicle_type_id":"4","last_reported":1741104737,"current_range_meters":17200,"station_id":"ce4bhk92rcd13ifvqgb0","pricing_plan_id":"cebpf4jnsgd1na2vs0mg"},{"bike_id":"8e67c6c2-1f86-420e-855b-676e159ed831","system_id":"levelo_inurba_marseille","lat":43.23061,"lon":5.35493,"is_reserved":false,"is_disabled":false,"rental_uris":{"android":"levelo://app?vid=8e67c6c2-1f86-420e-855b-676e159ed831","ios":"levelo://app?vid=8e67c6c2-1f86-420e-855b-676e159ed831"},"vehicle_type_id":"4","last_reported":1741104737,"current_range_meters":17600,"station_id":"cpo3342slgdg3j2ifvpg","pricing_plan_id":"cebpf4jnsgd1na2vs0mg"},{"bike_id":"e8fb3957-55aa-4712-b8af-a6da8b77890f","system_id":"levelo_inurba_marseille","lat":43.30154,"lon":5.38123,"is_reserved":false,"is_disabled":false,"rental_uris":{"android":"levelo://app?vid=e8fb3957-55aa-4712-b8af-a6da8b77890f","ios":"levelo://app?vid=e8fb3957-55aa-4712-b8af-a6da8b77890f"},"vehicle_type_id":"4","last_reported":1741104737,"current_range_meters":17600,"station_id":"ce4bgjp2rcd13ifvqbh0","pricing_plan_id":"cebpf4jnsgd1na2vs0mg"},{"bike_id":"628f8358-db3c-45cd-81d1-44f86a63e568","system_id":"levelo_inurba_marseille","lat":43.23204,"lon":5.3555,"is_reserved":false,"is_disabled":false,"rental_uris":{"android":"levelo://app?vid=628f8358-db3c-45cd-81d1-44f86a63e568","ios":"levelo://app?vid=628f8358-db3c-45cd-81d1-44f86a63e568"},"vehicle_type_id":"4","last_reported":1741104737,"current_range_meters":17600,"station_id":"ce4bhu92rcd13ifvqi70","pricing_plan_id":"cebpf4jnsgd1na2vs0mg"},{"bike_id":"6be2d959-3029-43e5-9ca2-a3dfb9eee01b","system_id":"levelo_inurba_marseille","lat":43.30804,"lon":5.43525,"is_reserved":false,"is_disabled":false,"rental_uris":{"android":"levelo://app?vid=6be2d959-3029-43e5-9ca2-a3dfb9eee01b","ios":"levelo://app?vid=6be2d959-3029-43e5-9ca2-a3dfb9eee01b"},"vehicle_type_id":"4","last_reported":1741104737,"current_range_meters":17600,"station_id":"ce4bhph2rcd13ifvqheg","pricing_plan_id":"cebpf4jnsgd1na2vs0mg"},{"bike_id":"ee59b3a3-0f87-489f-91b5-15c91569f1b2","system_id":"levelo_inurba_marseille","lat":43.2417,"lon":5.36394,"is_reserved":false,"is_disabled":false,"rental_uris":{"android":"levelo://app?vid=ee59b3a3-0f87-489f-91b5-15c91569f1b2","ios":"levelo://app?vid=ee59b3a3-0f87-489f-91b5-15c91569f1b2"},"vehicle_type_id":"4","last_reported":1741104737,"current_range_meters":17600,"station_id":"cpo36qri1sfpv3e86is0","pricing_plan_id":"cebpf4jnsgd1na2vs0mg"},{"bike_id":"faba34a5-5170-484c-a414-f6b11608f3d5","system_id":"levelo_inurba_marseille","lat":43.27816,"lon":5.40713,"is_reserved":false,"is_disabled":false,"rental_uris":{"android":"levelo://app?vid=faba34a5-5170-484c-a414-f6b11608f3d5","ios":"levelo://app?vid=faba34a5-5170-484c-a414-f6b11608f3d5"},"vehicle_type_id":"4","last_reported":1741104737,"current_range_meters":17600,"station_id":"ce4bhnh2rcd13ifvqgtg","pricing_plan_id":"cebpf4jnsgd1na2vs0mg"},{"bike_id":"84469720-3c59-40cf-a6be-5e14c2c3151a","system_id":"levelo_inurba_marseille","lat":43.28108,"lon":5.37842,"is_reserved":false,"is_disabled":false,"rental_uris":{"android":"levelo://app?vid=84469720-3c59-40cf-a6be-5e14c2c3151a","ios":"levelo://app?vid=84469720-3c59-40cf-a6be-5e14c2c3151a"},"vehicle_type_id":"4","last_reported":1741104737,"current_range_meters":17600,"station_id":"ce4bha12rcd13ifvqee0","pricing_plan_id":"cebpf4jnsgd1na2vs0mg"},{"bike_id":"f4faa83d-4838-498e-9b42-123d4b4d6bea","system_id":"levelo_inurba_marseille","lat":43.30581,"lon":5.37201,"is_reserved":false,"is_disabled":false,"rental_uris":{"android":"levelo://app?vid=f4faa83d-4838-498e-9b42-123d4b4d6bea","ios":"levelo://app?vid=f4faa83d-4838-498e-9b42-123d4b4d6bea"},"vehicle_type_id":"4","last_reported":1741104737,"current_range_meters":17600,"station_id":"ce4bgqh2rcd13ifvqc4g","pricing_plan_id":"cebpf4jnsgd1na2vs0mg"},{"bike_id":"57cc304b-570e-47e0-b58a-584691de5475","system_id":"levelo_inurba_marseille","lat":43.27992,"lon":5.40012,"is_reserved":false,"is_disabled":false,"rental_uris":{"android":"levelo://app?vid=57cc304b-570e-47e0-b58a-584691de5475","ios":"levelo://app?vid=57cc304b-570e-47e0-b58a-584691de5475"},"vehicle_type_id":"4","last_reported":1741104737,"current_range_meters":17600,"station_id":"ce4bho92rcd13ifvqh4g","pricing_plan_id":"cebpf4jnsgd1na2vs0mg"},{"bike_id":"207655c3-5dc7-4f53-9737-fa7c5725a6f3","system_id":"levelo_inurba_marseille","lat":43.28,"lon":5.40014,"is_reserved":false,"is_disabled":false,"rental_uris":{"android":"levelo://app?vid=207655c3-5dc7-4f53-9737-fa7c5725a6f3","ios":"levelo://app?vid=207655c3-5dc7-4f53-9737-fa7c5725a6f3"},"vehicle_type_id":"4","last_reported":1741104737,"current_range_meters":17600,"station_id":"ce4bho92rcd13ifvqh4g","pricing_plan_id":"cebpf4jnsgd1na2vs0mg"},{"bike_id":"508b988e-5215-41fb-91fa-2f9c6cff83ba","system_id":"levelo_inurba_marseille","lat":43.28455,"lon":5.35893,"is_reserved":false,"is_disabled":false,"rental_uris":{"android":"levelo://app?vid=508b988e-5215-41fb-91fa-2f9c6cff83ba","ios":"levelo://app?vid=508b988e-5215-41fb-91fa-2f9c6cff83ba"},"vehicle_type_id":"4","last_reported":1741104737,"current_range_meters":18000,"station_id":"ce4bhah2rcd13ifvqei0","pricing_plan_id":"cebpf4jnsgd1na2vs0mg"},{"bike_id":"1b9b3116-39e0-4737-86b3-f5f6ffa8d916","system_id":"levelo_inurba_marseille","lat":43.3055,"lon":5.36538,"is_reserved":false,"is_disabled":false,"rental_uris":{"android":"levelo://app?vid=1b9b3116-39e0-4737-86b3-f5f6ffa8d916","ios":"levelo://app?vid=1b9b3116-39e0-4737-86b3-f5f6ffa8d916"},"vehicle_type_id":"4","last_reported":1741104737,"current_range_meters":18000,"station_id":"ce4bgs12rcd13ifvqcag","pricing_plan_id":"cebpf4jnsgd1na2vs0mg"},{"bike_id":"f22cc85c-dde0-42ee-9ef1-81b1228338d4","system_id":"levelo_inurba_marseille","lat":43.292,"lon":5.35808,"is_reserved":false,"is_disabled":false,"rental_uris":{"android":"levelo://app?vid=f22cc85c-dde0-42ee-9ef1-81b1228338d4","ios":"levelo://app?vid=f22cc85c-dde0-42ee-9ef1-81b1228338d4"},"vehicle_type_id":"4","last_reported":1741104737,"current_range_meters":18000,"station_id":"ce4bhb12rcd13ifvqel0","pricing_plan_id":"cebpf4jnsgd1na2vs0mg"},{"bike_id":"23a84f5c-d646-4594-9c7b-9e538c930aed","system_id":"levelo_inurba_marseille","lat":43.29021,"lon":5.38635,"is_reserved":false,"is_disabled":false,"rental_uris":{"android":"levelo://app?vid=23a84f5c-d646-4594-9c7b-9e538c930aed","ios":"levelo://app?vid=23a84f5c-d646-4594-9c7b-9e538c930aed"},"vehicle_type_id":"4","last_reported":1741104737,"current_range_meters":18000,"station_id":"ce4bh4p2rcd13ifvqe0g","pricing_plan_id":"cebpf4jnsgd1na2vs0mg"},{"bike_id":"bf5a7a69-5172-44d0-8e24-c85c512983c7","system_id":"levelo_inurba_marseille","lat":43.294313,"lon":5.386273,"is_reserved":false,"is_disabled":false,"rental_uris":{"android":"levelo://app?vid=bf5a7a69-5172-44d0-8e24-c85c512983c7","ios":"levelo://app?vid=bf5a7a69-5172-44d0-8e24-c85c512983c7"},"vehicle_type_id":"4","last_reported":1741104737,"current_range_meters":18000,"station_id":"ce4bh2h2rcd13ifvqdh0","pricing_plan_id":"cebpf4jnsgd1na2vs0mg"},{"bike_id":"100d50b8-0e09-4bf8-8be3-a71265fa876a","system_id":"levelo_inurba_marseille","lat":43.29885,"lon":5.39728,"is_reserved":false,"is_disabled":false,"rental_uris":{"android":"levelo://app?vid=100d50b8-0e09-4bf8-8be3-a71265fa876a","ios":"levelo://app?vid=100d50b8-0e09-4bf8-8be3-a71265fa876a"},"vehicle_type_id":"4","last_reported":1741104737,"current_range_meters":18000,"station_id":"ce4bh0h2rcd13ifvqd50","pricing_plan_id":"cebpf4jnsgd1na2vs0mg"},{"bike_id":"8dd64568-2e8d-4766-9157-3a44c5f79944","system_id":"levelo_inurba_marseille","lat":43.30555,"lon":5.36539,"is_reserved":false,"is_disabled":false,"rental_uris":{"android":"levelo://app?vid=8dd64568-2e8d-4766-9157-3a44c5f79944","ios":"levelo://app?vid=8dd64568-2e8d-4766-9157-3a44c5f79944"},"vehicle_type_id":"4","last_reported":1741104737,"current_range_meters":18000,"station_id":"ce4bgs12rcd13ifvqcag","pricing_plan_id":"cebpf4jnsgd1na2vs0mg"},{"bike_id":"f336db0e-b34e-4f11-8efc-fa06ab55be00","system_id":"levelo_inurba_marseille","lat":43.28104,"lon":5.37832,"is_reserved":false,"is_disabled":false,"rental_uris":{"android":"levelo://app?vid=f336db0e-b34e-4f11-8efc-fa06ab55be00","ios":"levelo://app?vid=f336db0e-b34e-4f11-8efc-fa06ab55be00"},"vehicle_type_id":"4","last_reported":1741104737,"current_range_meters":17600,"station_id":"ce4bha12rcd13ifvqee0","pricing_plan_id":"cebpf4jnsgd1na2vs0mg"},{"bike_id":"5d6ed9f3-0ec3-49e0-a86e-2dcd531b6aac","system_id":"levelo_inurba_marseille","lat":43.29879,"lon":5.39725,"is_reserved":false,"is_disabled":false,"rental_uris":{"android":"levelo://app?vid=5d6ed9f3-0ec3-49e0-a86e-2dcd531b6aac","ios":"levelo://app?vid=5d6ed9f3-0ec3-49e0-a86e-2dcd531b6aac"},"vehicle_type_id":"4","last_reported":1741104737,"current_range_meters":18000,"station_id":"ce4bh0h2rcd13ifvqd50","pricing_plan_id":"cebpf4jnsgd1na2vs0mg"},{"bike_id":"dbc958c9-b359-4140-80d7-1f164ada71f5","system_id":"levelo_inurba_marseille","lat":43.31505,"lon":5.37307,"is_reserved":false,"is_disabled":false,"rental_uris":{"android":"levelo://app?vid=dbc958c9-b359-4140-80d7-1f164ada71f5","ios":"levelo://app?vid=dbc958c9-b359-4140-80d7-1f164ada71f5"},"vehicle_type_id":"4","last_reported":1741104737,"current_range_meters":18000,"station_id":"ce4bgt12rcd13ifvqcd0","pricing_plan_id":"cebpf4jnsgd1na2vs0mg"},{"bike_id":"eb7580f9-59ed-4123-9333-39b568b98cd2","system_id":"levelo_inurba_marseille","lat":43.262,"lon":5.37927,"is_reserved":false,"is_disabled":false,"rental_uris":{"android":"levelo://app?vid=eb7580f9-59ed-4123-9333-39b568b98cd2","ios":"levelo://app?vid=eb7580f9-59ed-4123-9333-39b568b98cd2"},"vehicle_type_id":"4","last_reported":1741104737,"current_range_meters":17600,"station_id":"ce4bhjp2rcd13ifvqg90","pricing_plan_id":"cebpf4jnsgd1na2vs0mg"},{"bike_id":"7b443748-3853-415f-aa99-5231d54a0a3d","system_id":"levelo_inurba_marseille","lat":43.26556,"lon":5.37285,"is_reserved":false,"is_disabled":false,"rental_uris":{"android":"levelo://app?vid=7b443748-3853-415f-aa99-5231d54a0a3d","ios":"levelo://app?vid=7b443748-3853-415f-aa99-5231d54a0a3d"},"vehicle_type_id":"4","last_reported":1741104737,"current_range_meters":18800,"station_id":"ce4bhg12rcd13ifvqf70","pricing_plan_id":"cebpf4jnsgd1na2vs0mg"},{"bike_id":"d2c6bc69-ed6e-4290-8a0e-6471461adc09","system_id":"levelo_inurba_marseille","lat":43.30547,"lon":5.36531,"is_reserved":false,"is_disabled":false,"rental_uris":{"android":"levelo://app?vid=d2c6bc69-ed6e-4290-8a0e-6471461adc09","ios":"levelo://app?vid=d2c6bc69-ed6e-4290-8a0e-6471461adc09"},"vehicle_type_id":"4","last_reported":1741104737,"current_range_meters":18800,"station_id":"ce4bgs12rcd13ifvqcag","pricing_plan_id":"cebpf4jnsgd1na2vs0mg"},{"bike_id":"09cd31f1-ce90-44d1-885f-9a130df58079","system_id":"levelo_inurba_marseille","lat":43.26556,"lon":5.372853,"is_reserved":false,"is_disabled":false,"rental_uris":{"android":"levelo://app?vid=09cd31f1-ce90-44d1-885f-9a130df58079","ios":"levelo://app?vid=09cd31f1-ce90-44d1-885f-9a130df58079"},"vehicle_type_id":"4","last_reported":1741104737,"current_range_meters":18800,"station_id":"ce4bhg12rcd13ifvqf70","pricing_plan_id":"cebpf4jnsgd1na2vs0mg"},{"bike_id":"b4dcf720-ed17-4bc2-b619-9173c5adcd32","system_id":"levelo_inurba_marseille","lat":43.26057,"lon":5.39398,"is_reserved":false,"is_disabled":false,"rental_uris":{"android":"levelo://app?vid=b4dcf720-ed17-4bc2-b619-9173c5adcd32","ios":"levelo://app?vid=b4dcf720-ed17-4bc2-b619-9173c5adcd32"},"vehicle_type_id":"4","last_reported":1741104737,"current_range_meters":18800,"station_id":"ce4bhh92rcd13ifvqfj0","pricing_plan_id":"cebpf4jnsgd1na2vs0mg"},{"bike_id":"8296fa51-b8f6-4e72-8a9d-2381bf4c761c","system_id":"levelo_inurba_marseille","lat":43.26684,"lon":5.38274,"is_reserved":false,"is_disabled":false,"rental_uris":{"android":"levelo://app?vid=8296fa51-b8f6-4e72-8a9d-2381bf4c761c","ios":"levelo://app?vid=8296fa51-b8f6-4e72-8a9d-2381bf4c761c"},"vehicle_type_id":"4","last_reported":1741104737,"current_range_meters":18800,"station_id":"ce4bhg92rcd13ifvqf90","pricing_plan_id":"cebpf4jnsgd1na2vs0mg"},{"bike_id":"a7fdb7b9-1bc1-4687-abde-015d347a9641","system_id":"levelo_inurba_marseille","lat":43.29901,"lon":5.43673,"is_reserved":false,"is_disabled":false,"rental_uris":{"android":"levelo://app?vid=a7fdb7b9-1bc1-4687-abde-015d347a9641","ios":"levelo://app?vid=a7fdb7b9-1bc1-4687-abde-015d347a9641"},"vehicle_type_id":"4","last_reported":1741104737,"current_range_meters":18800,"station_id":"ce4bhpp2rcd13ifvqhfg","pricing_plan_id":"cebpf4jnsgd1na2vs0mg"},{"bike_id":"c9e6218b-e80f-4165-b8e8-df9d45aac696","system_id":"levelo_inurba_marseille","lat":43.3172,"lon":5.43718,"is_reserved":false,"is_disabled":false,"rental_uris":{"android":"levelo://app?vid=c9e6218b-e80f-4165-b8e8-df9d45aac696","ios":"levelo://app?vid=c9e6218b-e80f-4165-b8e8-df9d45aac696"},"vehicle_type_id":"4","last_reported":1741104737,"current_range_meters":18800,"station_id":"ce4bhp92rcd13ifvqhcg","pricing_plan_id":"cebpf4jnsgd1na2vs0mg"},{"bike_id":"5852d44d-c98b-4c2d-ad7f-21bea669f8ee","system_id":"levelo_inurba_marseille","lat":43.31716,"lon":5.43704,"is_reserved":false,"is_disabled":false,"rental_uris":{"android":"levelo://app?vid=5852d44d-c98b-4c2d-ad7f-21bea669f8ee","ios":"levelo://app?vid=5852d44d-c98b-4c2d-ad7f-21bea669f8ee"},"vehicle_type_id":"4","last_reported":1741104737,"current_range_meters":18800,"station_id":"ce4bhp92rcd13ifvqhcg","pricing_plan_id":"cebpf4jnsgd1na2vs0mg"},{"bike_id":"ffc0798a-7ab5-4ef5-873d-f955e93b9dc5","system_id":"levelo_inurba_marseille","lat":43.3169,"lon":5.40479,"is_reserved":false,"is_disabled":false,"rental_uris":{"android":"levelo://app?vid=ffc0798a-7ab5-4ef5-873d-f955e93b9dc5","ios":"levelo://app?vid=ffc0798a-7ab5-4ef5-873d-f955e93b9dc5"},"vehicle_type_id":"4","last_reported":1741104737,"current_range_meters":19200,"station_id":"ce4bh012rcd13ifvqd00","pricing_plan_id":"cebpf4jnsgd1na2vs0mg"},{"bike_id":"0b797e2c-b233-4bb4-a096-4eda2093229e","system_id":"levelo_inurba_marseille","lat":43.24163,"lon":5.36406,"is_reserved":false,"is_disabled":false,"rental_uris":{"android":"levelo://app?vid=0b797e2c-b233-4bb4-a096-4eda2093229e","ios":"levelo://app?vid=0b797e2c-b233-4bb4-a096-4eda2093229e"},"vehicle_type_id":"4","last_reported":1741104737,"current_range_meters":19200,"station_id":"cpo36qri1sfpv3e86is0","pricing_plan_id":"cebpf4jnsgd1na2vs0mg"},{"bike_id":"c55557ad-1ed5-4997-aee7-ac92107f14b6","system_id":"levelo_inurba_marseille","lat":43.26162,"lon":5.37467,"is_reserved":false,"is_disabled":false,"rental_uris":{"android":"levelo://app?vid=c55557ad-1ed5-4997-aee7-ac92107f14b6","ios":"levelo://app?vid=c55557ad-1ed5-4997-aee7-ac92107f14b6"},"vehicle_type_id":"4","last_reported":1741104737,"current_range_meters":19200,"station_id":"","pricing_plan_id":"cebpf4jnsgd1na2vs0mg"},{"bike_id":"612c3751-e6b1-46f7-80d1-011c1bc3acd8","system_id":"levelo_inurba_marseille","lat":43.27943,"lon":5.4105,"is_reserved":false,"is_disabled":false,"rental_uris":{"android":"levelo://app?vid=612c3751-e6b1-46f7-80d1-011c1bc3acd8","ios":"levelo://app?vid=612c3751-e6b1-46f7-80d1-011c1bc3acd8"},"vehicle_type_id":"4","last_reported":1741104737,"current_range_meters":19200,"station_id":"ce4bhnp2rcd13ifvqh0g","pricing_plan_id":"cebpf4jnsgd1na2vs0mg"},{"bike_id":"3b7b3b5a-e507-4306-adbd-63766edaa866","system_id":"levelo_inurba_marseille","lat":43.26954,"lon":5.38631,"is_reserved":false,"is_disabled":false,"rental_uris":{"android":"levelo://app?vid=3b7b3b5a-e507-4306-adbd-63766edaa866","ios":"levelo://app?vid=3b7b3b5a-e507-4306-adbd-63766edaa866"},"vehicle_type_id":"4","last_reported":1741104737,"current_range_meters":19200,"station_id":"ce4bhh92rcd13ifvqfh0","pricing_plan_id":"cebpf4jnsgd1na2vs0mg"},{"bike_id":"882b8467-813f-4cec-a81c-72dc90387679","system_id":"levelo_inurba_marseille","lat":43.30197,"lon":5.36615,"is_reserved":false,"is_disabled":false,"rental_uris":{"android":"levelo://app?vid=882b8467-813f-4cec-a81c-72dc90387679","ios":"levelo://app?vid=882b8467-813f-4cec-a81c-72dc90387679"},"vehicle_type_id":"4","last_reported":1741104737,"current_range_meters":19200,"station_id":"ce4bgrh2rcd13ifvqc8g","pricing_plan_id":"cebpf4jnsgd1na2vs0mg"},{"bike_id":"dbde6629-5b50-436e-876b-b6df8c1869ad","system_id":"levelo_inurba_marseille","lat":43.27367,"lon":5.36257,"is_reserved":false,"is_disabled":false,"rental_uris":{"android":"levelo://app?vid=dbde6629-5b50-436e-876b-b6df8c1869ad","ios":"levelo://app?vid=dbde6629-5b50-436e-876b-b6df8c1869ad"},"vehicle_type_id":"4","last_reported":1741104737,"current_range_meters":19200,"station_id":"ce4bhbh2rcd13ifvqeo0","pricing_plan_id":"cebpf4jnsgd1na2vs0mg"},{"bike_id":"4ee1e0a9-c034-46a3-aac7-f244d32ddf38","system_id":"levelo_inurba_marseille","lat":43.27356,"lon":5.36239,"is_reserved":false,"is_disabled":false,"rental_uris":{"android":"levelo://app?vid=4ee1e0a9-c034-46a3-aac7-f244d32ddf38","ios":"levelo://app?vid=4ee1e0a9-c034-46a3-aac7-f244d32ddf38"},"vehicle_type_id":"4","last_reported":1741104737,"current_range_meters":19200,"station_id":"ce4bhbh2rcd13ifvqeo0","pricing_plan_id":"cebpf4jnsgd1na2vs0mg"},{"bike_id":"f35e6845-3ec1-47c8-bb33-d016b441dede","system_id":"levelo_inurba_marseille","lat":43.30127,"lon":5.37416,"is_reserved":false,"is_disabled":false,"rental_uris":{"android":"levelo://app?vid=f35e6845-3ec1-47c8-bb33-d016b441dede","ios":"levelo://app?vid=f35e6845-3ec1-47c8-bb33-d016b441dede"},"vehicle_type_id":"4","last_reported":1741104737,"current_range_meters":19200,"station_id":"ce4bgs92rcd13ifvqcc0","pricing_plan_id":"cebpf4jnsgd1na2vs0mg"},{"bike_id":"4a11412c-3d31-4b93-aac8-bba78dee47ad","system_id":"levelo_inurba_marseille","lat":43.30683,"lon":5.40104,"is_reserved":false,"is_disabled":false,"rental_uris":{"android":"levelo://app?vid=4a11412c-3d31-4b93-aac8-bba78dee47ad","ios":"levelo://app?vid=4a11412c-3d31-4b93-aac8-bba78dee47ad"},"vehicle_type_id":"4","last_reported":1741104737,"current_range_meters":19600,"station_id":"ce4bh112rcd13ifvqda0","pricing_plan_id":"cebpf4jnsgd1na2vs0mg"},{"bike_id":"afebba76-e92d-4eca-8b7f-97ae2b2efe26","system_id":"levelo_inurba_marseille","lat":43.32341,"lon":5.40623,"is_reserved":false,"is_disabled":false,"rental_uris":{"android":"levelo://app?vid=afebba76-e92d-4eca-8b7f-97ae2b2efe26","ios":"levelo://app?vid=afebba76-e92d-4eca-8b7f-97ae2b2efe26"},"vehicle_type_id":"4","last_reported":1741104737,"current_range_meters":19600,"station_id":"ce4bhq92rcd13ifvqhjg","pricing_plan_id":"cebpf4jnsgd1na2vs0mg"},{"bike_id":"e393c4f0-9316-491d-8133-59a94bb0f619","system_id":"levelo_inurba_marseille","lat":43.299,"lon":5.4367,"is_reserved":false,"is_disabled":false,"rental_uris":{"android":"levelo://app?vid=e393c4f0-9316-491d-8133-59a94bb0f619","ios":"levelo://app?vid=e393c4f0-9316-491d-8133-59a94bb0f619"},"vehicle_type_id":"4","last_reported":1741104737,"current_range_meters":19600,"station_id":"ce4bhpp2rcd13ifvqhfg","pricing_plan_id":"cebpf4jnsgd1na2vs0mg"},{"bike_id":"20068734-8121-4e48-a7e8-349a362bd068","system_id":"levelo_inurba_marseille","lat":43.29271,"lon":5.38438,"is_reserved":false,"is_disabled":false,"rental_uris":{"android":"levelo://app?vid=20068734-8121-4e48-a7e8-349a362bd068","ios":"levelo://app?vid=20068734-8121-4e48-a7e8-349a362bd068"},"vehicle_type_id":"4","last_reported":1741104737,"current_range_meters":19600,"station_id":"ce4bh692rcd13ifvqea0","pricing_plan_id":"cebpf4jnsgd1na2vs0mg"},{"bike_id":"497f36e6-1b4d-4194-810d-d7a7f9228aa4","system_id":"levelo_inurba_marseille","lat":43.27154,"lon":5.40963,"is_reserved":false,"is_disabled":false,"rental_uris":{"android":"levelo://app?vid=497f36e6-1b4d-4194-810d-d7a7f9228aa4","ios":"levelo://app?vid=497f36e6-1b4d-4194-810d-d7a7f9228aa4"},"vehicle_type_id":"4","last_reported":1741104737,"current_range_meters":19600,"station_id":"ce4bhl12rcd13ifvqgf0","pricing_plan_id":"cebpf4jnsgd1na2vs0mg"},{"bike_id":"03d6ab1b-238d-45bf-a9ae-ed312dd8dff3","system_id":"levelo_inurba_marseille","lat":43.23212,"lon":5.35529,"is_reserved":false,"is_disabled":false,"rental_uris":{"android":"levelo://app?vid=03d6ab1b-238d-45bf-a9ae-ed312dd8dff3","ios":"levelo://app?vid=03d6ab1b-238d-45bf-a9ae-ed312dd8dff3"},"vehicle_type_id":"4","last_reported":1741104737,"current_range_meters":19600,"station_id":"ce4bhu92rcd13ifvqi70","pricing_plan_id":"cebpf4jnsgd1na2vs0mg"},{"bike_id":"72fb7d31-215a-4cec-bd61-85fa306cdbf9","system_id":"levelo_inurba_marseille","lat":43.27942,"lon":5.41055,"is_reserved":false,"is_disabled":false,"rental_uris":{"android":"levelo://app?vid=72fb7d31-215a-4cec-bd61-85fa306cdbf9","ios":"levelo://app?vid=72fb7d31-215a-4cec-bd61-85fa306cdbf9"},"vehicle_type_id":"4","last_reported":1741104737,"current_range_meters":19600,"station_id":"ce4bhnp2rcd13ifvqh0g","pricing_plan_id":"cebpf4jnsgd1na2vs0mg"},{"bike_id":"b8864b7f-3b14-4f97-957e-2632f3ddeb93","system_id":"levelo_inurba_marseille","lat":43.30551,"lon":5.36533,"is_reserved":false,"is_disabled":false,"rental_uris":{"android":"levelo://app?vid=b8864b7f-3b14-4f97-957e-2632f3ddeb93","ios":"levelo://app?vid=b8864b7f-3b14-4f97-957e-2632f3ddeb93"},"vehicle_type_id":"4","last_reported":1741104737,"current_range_meters":19600,"station_id":"ce4bgs12rcd13ifvqcag","pricing_plan_id":"cebpf4jnsgd1na2vs0mg"},{"bike_id":"e6fe985e-506b-437b-b9e9-273d303784d1","system_id":"levelo_inurba_marseille","lat":43.26197,"lon":5.37933,"is_reserved":false,"is_disabled":false,"rental_uris":{"android":"levelo://app?vid=e6fe985e-506b-437b-b9e9-273d303784d1","ios":"levelo://app?vid=e6fe985e-506b-437b-b9e9-273d303784d1"},"vehicle_type_id":"4","last_reported":1741104737,"current_range_meters":20000,"station_id":"ce4bhjp2rcd13ifvqg90","pricing_plan_id":"cebpf4jnsgd1na2vs0mg"},{"bike_id":"20ec722b-0094-47d9-82e0-e3e0a0e9aa2e","system_id":"levelo_inurba_marseille","lat":43.28722,"lon":5.36083,"is_reserved":false,"is_disabled":false,"rental_uris":{"android":"levelo://app?vid=20ec722b-0094-47d9-82e0-e3e0a0e9aa2e","ios":"levelo://app?vid=20ec722b-0094-47d9-82e0-e3e0a0e9aa2e"},"vehicle_type_id":"4","last_reported":1741104737,"current_range_meters":20000,"station_id":"cki0cbj6b192h4jlfktg","pricing_plan_id":"cebpf4jnsgd1na2vs0mg"},{"bike_id":"18ef15fc-e0e5-417d-a7f4-866d9e98febb","system_id":"levelo_inurba_marseille","lat":43.27823,"lon":5.40718,"is_reserved":false,"is_disabled":false,"rental_uris":{"android":"levelo://app?vid=18ef15fc-e0e5-417d-a7f4-866d9e98febb","ios":"levelo://app?vid=18ef15fc-e0e5-417d-a7f4-866d9e98febb"},"vehicle_type_id":"4","last_reported":1741104737,"current_range_meters":20000,"station_id":"ce4bhnh2rcd13ifvqgtg","pricing_plan_id":"cebpf4jnsgd1na2vs0mg"},