{"last_updated":1743786542,"ttl":60,"version":"2.2","data":{"bikes":[{"bike_id":"4466ce54-2b21-4727-a476-b1a378127f60","system_id":"levelo_inurba_marseille","lat":43.31762,"lon":5.39016,"is_reserved":false,"is_disabled":false,"rental_uris":{"android":"levelo://app?vid=4466ce54-2b21-4727-a476-b1a378127f60","ios":"levelo://app?vid=4466ce54-2b21-4727-a476-b1a378127f60"},"vehicle_type_id":"4","last_reported":1743786543,"current_range_meters":2800,"station_id":"ce4bhqp2rcd13ifvqhng","pricing_plan_id":"cebpf4jnsgd1na2vs0mg"},{"bike_id":"79ba0377-09fc-4797-9496-3d4ce23c15e2","system_id":"levelo_inurba_marseille","lat":43.28076,"lon":5.39659,"is_reserved":false,"is_disabled":false,"rental_uris":{"android":"levelo://app?vid=79ba0377-09fc-4797-9496-3d4ce23c15e2","ios":"levelo://app?vid=79ba0377-09fc-4797-9496-3d4ce23c15e2"},"vehicle_type_id":"4","last_reported":1743786543,"current_range_meters":2800,"station_id":"ce4bho12rcd13ifvqh2g","pricing_plan_id":"cebpf4jnsgd1na2vs0mg"},{"bike_id":"aa75a080-15ce-4630-a2f1-2c5c1fe2b7bb","system_id":"levelo_inurba_marseille","lat":43.28291,"lon":5.35117,"is_reserved":false,"is_disabled":true,"rental_uris":{"android":"levelo://app?vid=aa75a080-15ce-4630-a2f1-2c5c1fe2b7bb","ios":"levelo://app?vid=aa75a080-15ce-4630-a2f1-2c5c1fe2b7bb"},"vehicle_type_id":"4","last_reported":1743786543,"current_range_meters":2800,"station_id":"","pricing_plan_id":"cebpf4jnsgd1na2vs0mg"},{"bike_id":"589c3a6f-c653-469b-ab18-36f342baa780","system_id":"levelo_inurba_marseille","lat":43.27065,"lon":5.40253,"is_reserved":false,"is_disabled":false,"rental_uris":{"android":"levelo://app?vid=589c3a6f-c653-469b-ab18-36f342baa780","ios":"levelo://app?vid=589c3a6f-c653-469b-ab18-36f342baa780"},"vehicle_type_id":"4","last_reported":1743786543,"current_range_meters":2800,"station_id":"ce4bhk92rcd13ifvqgc0","pricing_plan_id":"cebpf4jnsgd1na2vs0mg"},{"bike_id":"0da65f6a-145d-4bf2-b764-9ab1906a9e68","system_id":"levelo_inurba_marseille","lat":43.30795,"lon":5.38158,"is_reserved":false,"is_disabled":false,"rental_uris":{"android":"levelo://app?vid=0da65f6a-145d-4bf2-b764-9ab1906a9e68","ios":"levelo://app?vid=0da65f6a-145d-4bf2-b764-9ab1906a9e68"},"vehicle_type_id":"4","last_reported":1743786543,"current_range_meters":2800,"station_id":"ce4bgt12rcd13ifvqce0","pricing_plan_id":"cebpf4jnsgd1na2vs0mg"},{"bike_id":"981df058-9d16-4e31-8d9a-8b39b6ae8644","system_id":"levelo_inurba_marseille","lat":43.276903,"lon":5.383864,"is_reserved":false,"is_disabled":false,"rental_uris":{"android":"levelo://app?vid=981df058-9d16-4e31-8d9a-8b39b6ae8644","ios":"levelo://app?vid=981df058-9d16-4e31-8d9a-8b39b6ae8644"},"vehicle_type_id":"4","last_reported":1743786543,"current_range_meters":2800,"station_id":"ce4bhh92rcd13ifvqfi0","pricing_plan_id":"cebpf4jnsgd1na2vs0mg"},{"bike_id":"188846d1-be4c-45b9-b680-78935dc8106a","system_id":"levelo_inurba_marseille","lat":43.23051,"lon":5.35493,"is_reserved":false,"is_disabled":false,"rental_uris":{"android":"levelo://app?vid=188846d1-be4c-45b9-b680-78935dc8106a","ios":"levelo://app?vid=188846d1-be4c-45b9-b680-78935dc8106a"},"vehicle_type_id":"4","last_reported":1743786543,"current_range_meters":2800,"station_id":"cpo3342slgdg3j2ifvpg","pricing_plan_id":"cebpf4jnsgd1na2vs0mg"},{"bike_id":"dc23dde0-7ae5-449b-af2f-f60b6bcabb87","system_id":"levelo_inurba_marseille","lat":43.30466,"lon":5.37908,"is_reserved":false,"is_disabled":false,"rental_uris":{"android":"levelo://app?vid=dc23dde0-7ae5-449b-af2f-f60b6bcabb87","ios":"levelo://app?vid=dc23dde0-7ae5-449b-af2f-f60b6bcabb87"},"vehicle_type_id":"4","last_reported":1743786543,"current_range_meters":2800,"station_id":"ce4bgup2rcd13ifvqcn0","pricing_plan_id":"cebpf4jnsgd1na2vs0mg"},{"bike_id":"a42483dd-a718-43a4-80b7-bed30f32ff59","system_id":"levelo_inurba_marseille","lat":43.28947,"lon":5.36417,"is_reserved":false,"is_disabled":false,"rental_uris":{"android":"levelo://app?vid=a42483dd-a718-43a4-80b7-bed30f32ff59","ios":"levelo://app?vid=a42483dd-a718-43a4-80b7-bed30f32ff59"},"vehicle_type_id":"4","last_reported":1743786543,"current_range_meters":3200,"station_id":"ce4bhc92rcd13ifvqetg","pricing_plan_id":"cebpf4jnsgd1na2vs0mg"},{"bike_id":"d606062c-5fb7-4387-bc36-8ab002a93840","system_id":"levelo_inurba_marseille","lat":43.28847,"lon":5.35835,"is_reserved":false,"is_disabled":false,"rental_uris":{"android":"levelo://app?vid=d606062c-5fb7-4387-bc36-8ab002a93840","ios":"levelo://app?vid=d606062c-5fb7-4387-bc36-8ab002a93840"},"vehicle_type_id":"4","last_reported":1743786543,"current_range_meters":3200,"station_id":"ce4bhb12rcd13ifvqem0","pricing_plan_id":"cebpf4jnsgd1na2vs0mg"},{"bike_id":"70acd294-c847-4007-b256-6296b09d85de","system_id":"levelo_inurba_marseille","lat":43.22931,"lon":5.35376,"is_reserved":false,"is_disabled":false,"rental_uris":{"android":"levelo://app?vid=70acd294-c847-4007-b256-6296b09d85de","ios":"levelo://app?vid=70acd294-c847-4007-b256-6296b09d85de"},"vehicle_type_id":"4","last_reported":1743786543,"current_range_meters":3200,"station_id":"cpo3532slgdg3j2ikp40","pricing_plan_id":"cebpf4jnsgd1na2vs0mg"},{"bike_id":"78830f8c-bdc9-4dfa-a9cd-8d60b91c706a","system_id":"levelo_inurba_marseille","lat":43.29384,"lon":5.37848,"is_reserved":false,"is_disabled":false,"rental_uris":{"android":"levelo://app?vid=78830f8c-bdc9-4dfa-a9cd-8d60b91c706a","ios":"levelo://app?vid=78830f8c-bdc9-4dfa-a9cd-8d60b91c706a"},"vehicle_type_id":"4","last_reported":1743786543,"current_range_meters":3200,"station_id":"ce4bgjh2rcd13ifvqbf0","pricing_plan_id":"cebpf4jnsgd1na2vs0mg"},{"bike_id":"63b98a49-020a-48d4-ba4a-7da728643834","system_id":"levelo_inurba_marseille","lat":43.26245,"lon":5.40445,"is_reserved":false,"is_disabled":false,"rental_uris":{"android":"levelo://app?vid=63b98a49-020a-48d4-ba4a-7da728643834","ios":"levelo://app?vid=63b98a49-020a-48d4-ba4a-7da728643834"},"vehicle_type_id":"4","last_reported":1743786543,"current_range_meters":3200,"station_id":"ce4bhmh2rcd13ifvqgmg","pricing_plan_id":"cebpf4jnsgd1na2vs0mg"},{"bike_id":"f5a30cd6-82d0-4653-992d-ffb817fa9a31","system_id":"levelo_inurba_marseille","lat":43.32293,"lon":5.38277,"is_reserved":false,"is_disabled":false,"rental_uris":{"android":"levelo://app?vid=f5a30cd6-82d0-4653-992d-ffb817fa9a31","ios":"levelo://app?vid=f5a30cd6-82d0-4653-992d-ffb817fa9a31"},"vehicle_type_id":"4","last_reported":1743786543,"current_range_meters":3200,"station_id":"ce4bhr12rcd13ifvqhqg","pricing_plan_id":"cebpf4jnsgd1na2vs0mg"},{"bike_id":"e422cb83-3aa9-493e-a901-7e82a4a90c1b","system_id":"levelo_inurba_marseille","lat":43.29806,"lon":5.38094,"is_reserved":false,"is_disabled":false,"rental_uris":{"android":"levelo://app?vid=e422cb83-3aa9-493e-a901-7e82a4a90c1b","ios":"levelo://app?vid=e422cb83-3aa9-493e-a901-7e82a4a90c1b"},"vehicle_type_id":"4","last_reported":1743786543,"current_range_meters":3600,"station_id":"ce4bgip2rcd13ifvqbb0","pricing_plan_id":"cebpf4jnsgd1na2vs0mg"},{"bike_id":"e3e8a80b-7ff9-4ac6-9023-5498cfaaf9f5","system_id":"levelo_inurba_marseille","lat":43.304399,"lon":5.388774,"is_reserved":false,"is_disabled":false,"rental_uris":{"android":"levelo://app?vid=e3e8a80b-7ff9-4ac6-9023-5498cfaaf9f5","ios":"levelo://app?vid=e3e8a80b-7ff9-4ac6-9023-5498cfaaf9f5"},"vehicle_type_id":"4","last_reported":1743786543,"current_range_meters":3600,"station_id":"ce4bgk12rcd13ifvqbi0","pricing_plan_id":"cebpf4jnsgd1na2vs0mg"},{"bike_id":"91227471-25b2-4219-a256-9fdb6f527d29","system_id":"levelo_inurba_marseille","lat":43.30788,"lon":5.43568,"is_reserved":false,"is_disabled":false,"rental_uris":{"android":"levelo://app?vid=91227471-25b2-4219-a256-9fdb6f527d29","ios":"levelo://app?vid=91227471-25b2-4219-a256-9fdb6f527d29"},"vehicle_type_id":"4","last_reported":1743786543,"current_range_meters":3600,"station_id":"ce4bhph2rcd13ifvqheg","pricing_plan_id":"cebpf4jnsgd1na2vs0mg"},{"bike_id":"8b5a92be-802d-4ad0-b149-37ee846631fe","system_id":"levelo_inurba_marseille","lat":43.273696,"lon":5.36246,"is_reserved":false,"is_disabled":false,"rental_uris":{"android":"levelo://app?vid=8b5a92be-802d-4ad0-b149-37ee846631fe","ios":"levelo://app?vid=8b5a92be-802d-4ad0-b149-37ee846631fe"},"vehicle_type_id":"4","last_reported":1743786543,"current_range_meters":3600,"station_id":"ce4bhbh2rcd13ifvqeo0","pricing_plan_id":"cebpf4jnsgd1na2vs0mg"},{"bike_id":"06e7ba03-12bb-4f8a-8c6c-e72967c561be","system_id":"levelo_inurba_marseille","lat":43.30895,"lon":5.3685,"is_reserved":false,"is_disabled":true,"rental_uris":{"android":"levelo://app?vid=06e7ba03-12bb-4f8a-8c6c-e72967c561be","ios":"levelo://app?vid=06e7ba03-12bb-4f8a-8c6c-e72967c561be"},"vehicle_type_id":"4","last_reported":1743786543,"current_range_meters":3600,"station_id":"ce4bgn92rcd13ifvqbvg","pricing_plan_id":"cebpf4jnsgd1na2vs0mg"},{"bike_id":"102a95fa-b2a6-4637-955a-47c9b3b80447","system_id":"levelo_inurba_marseille","lat":43.27074,"lon":5.42281,"is_reserved":false,"is_disabled":false,"rental_uris":{"android":"levelo://app?vid=102a95fa-b2a6-4637-955a-47c9b3b80447","ios":"levelo://app?vid=102a95fa-b2a6-4637-955a-47c9b3b80447"},"vehicle_type_id":"4","last_reported":1743786543,"current_range_meters":4000,"station_id":"ce4bhk92rcd13ifvqgb0","pricing_plan_id":"cebpf4jnsgd1na2vs0mg"},{"bike_id":"a35b9255-0753-4d29-af5e-7e41e34d3796","system_id":"levelo_inurba_marseille","lat":43.2757,"lon":5.38397,"is_reserved":false,"is_disabled":false,"rental_uris":{"android":"levelo://app?vid=a35b9255-0753-4d29-af5e-7e41e34d3796","ios":"levelo://app?vid=a35b9255-0753-4d29-af5e-7e41e34d3796"},"vehicle_type_id":"4","last_reported":1743786543,"current_range_meters":4000,"station_id":"ce4bhh92rcd13ifvqfi0","pricing_plan_id":"cebpf4jnsgd1na2vs0mg"},{"bike_id":"79ce1db2-6fe1-4efa-b4fb-5a568e10662b","system_id":"levelo_inurba_marseille","lat":43.26942,"lon":5.40248,"is_reserved":false,"is_disabled":false,"rental_uris":{"android":"levelo://app?vid=79ce1db2-6fe1-4efa-b4fb-5a568e10662b","ios":"levelo://app?vid=79ce1db2-6fe1-4efa-b4fb-5a568e10662b"},"vehicle_type_id":"4","last_reported":1743786543,"current_range_meters":4000,"station_id":"cjm6bp8fraef2m0cb0m0","pricing_plan_id":"cebpf4jnsgd1na2vs0mg"},{"bike_id":"519dffc9-ffcf-48ff-a2e8-2b7c8226062e","system_id":"levelo_inurba_marseille","lat":43.28848,"lon":5.39313,"is_reserved":false,"is_disabled":false,"rental_uris":{"android":"levelo://app?vid=519dffc9-ffcf-48ff-a2e8-2b7c8226062e","ios":"levelo://app?vid=519dffc9-ffcf-48ff-a2e8-2b7c8226062e"},"vehicle_type_id":"4","last_reported":1743786543,"current_range_meters":4000,"station_id":"ce4bh2p2rcd13ifvqdi0","pricing_plan_id":"cebpf4jnsgd1na2vs0mg"},{"bike_id":"8d3294d1-590b-4097-b926-69d2bd056750","system_id":"levelo_inurba_marseille","lat":43.29048,"lon":5.35909,"is_reserved":false,"is_disabled":false,"rental_uris":{"android":"levelo://app?vid=8d3294d1-590b-4097-b926-69d2bd056750","ios":"levelo://app?vid=8d3294d1-590b-4097-b926-69d2bd056750"},"vehicle_type_id":"4","last_reported":1743786543,"current_range_meters":4000,"station_id":"ce4bha92rcd13ifvqeg0","pricing_plan_id":"cebpf4jnsgd1na2vs0mg"},{"bike_id":"d03d149e-ebb0-447f-a03d-34ebda418fda","system_id":"levelo_inurba_marseille","lat":43.28463,"lon":5.35883,"is_reserved":false,"is_disabled":false,"rental_uris":{"android":"levelo://app?vid=d03d149e-ebb0-447f-a03d-34ebda418fda","ios":"levelo://app?vid=d03d149e-ebb0-447f-a03d-34ebda418fda"},"vehicle_type_id":"4","last_reported":1743786543,"current_range_meters":4000,"station_id":"ce4bhah2rcd13ifvqei0","pricing_plan_id":"cebpf4jnsgd1na2vs0mg"},{"bike_id":"0c5bf90d-2daa-42f7-b0f3-0bd8fc1d5660","system_id":"levelo_inurba_marseille","lat":43.27995,"lon":5.41673,"is_reserved":false,"is_disabled":false,"rental_uris":{"android":"levelo://app?vid=0c5bf90d-2daa-42f7-b0f3-0bd8fc1d5660","ios":"levelo://app?vid=0c5bf90d-2daa-42f7-b0f3-0bd8fc1d5660"},"vehicle_type_id":"4","last_reported":1743786543,"current_range_meters":4000,"station_id":"ce4bho12rcd13ifvqh1g","pricing_plan_id":"cebpf4jnsgd1na2vs0mg"},{"bike_id":"cd83c8ac-ed09-4369-9279-b6f36f2bbd3c","system_id":"levelo_inurba_marseille","lat":43.30814,"lon":5.38179,"is_reserved":false,"is_disabled":false,"rental_uris":{"android":"levelo://app?vid=cd83c8ac-ed09-4369-9279-b6f36f2bbd3c","ios":"levelo://app?vid=cd83c8ac-ed09-4369-9279-b6f36f2bbd3c"},"vehicle_type_id":"4","last_reported":1743786543,"current_range_meters":4400,"station_id":"ce4bgt12rcd13ifvqce0","pricing_plan_id":"cebpf4jnsgd1na2vs0mg"},{"bike_id":"c36fccce-a69c-4ab6-b4ba-509f26f1916b","system_id":"levelo_inurba_marseille","lat":43.29029,"lon":5.38129,"is_reserved":false,"is_disabled":false,"rental_uris":{"android":"levelo://app?vid=c36fccce-a69c-4ab6-b4ba-509f26f1916b","ios":"levelo://app?vid=c36fccce-a69c-4ab6-b4ba-509f26f1916b"},"vehicle_type_id":"4","last_reported":1743786543,"current_range_meters":4400,"station_id":"ce4bh4p2rcd13ifvqe1g","pricing_plan_id":"cebpf4jnsgd1na2vs0mg"},{"bike_id":"d8448c94-7851-4d7b-86ea-34c610802b87","system_id":"levelo_inurba_marseille","lat":43.31355,"lon":5.38497,"is_reserved":false,"is_disabled":false,"rental_uris":{"android":"levelo://app?vid=d8448c94-7851-4d7b-86ea-34c610802b87","ios":"levelo://app?vid=d8448c94-7851-4d7b-86ea-34c610802b87"},"vehicle_type_id":"4","last_reported":1743786543,"current_range_meters":4800,"station_id":"ce4bgt92rcd13ifvqcf0","pricing_plan_id":"cebpf4jnsgd1na2vs0mg"},{"bike_id":"a8cc8d6c-d4f9-45a4-8ca5-67cc3f8c6b03","system_id":"levelo_inurba_marseille","lat":43.28708,"lon":5.39994,"is_reserved":false,"is_disabled":false,"rental_uris":{"android":"levelo://app?vid=a8cc8d6c-d4f9-45a4-8ca5-67cc3f8c6b03","ios":"levelo://app?vid=a8cc8d6c-d4f9-45a4-8ca5-67cc3f8c6b03"},"vehicle_type_id":"4","last_reported":1743786543,"current_range_meters":4800,"station_id":"ce4bho92rcd13ifvqh3g","pricing_plan_id":"cebpf4jnsgd1na2vs0mg"},{"bike_id":"82a92165-576e-4c44-9fba-a973623ddb5d","system_id":"levelo_inurba_marseille","lat":43.27843,"lon":5.39201,"is_reserved":false,"is_disabled":false,"rental_uris":{"android":"levelo://app?vid=82a92165-576e-4c44-9fba-a973623ddb5d","ios":"levelo://app?vid=82a92165-576e-4c44-9fba-a973623ddb5d"},"vehicle_type_id":"4","last_reported":1743786543,"current_range_meters":4400,"station_id":"ce4bhjp2rcd13ifvqga0","pricing_plan_id":"cebpf4jnsgd1na2vs0mg"},{"bike_id":"304fb90a-bf2a-4e85-a5a5-c818806033de","system_id":"levelo_inurba_marseille","lat":43.28938,"lon":5.39632,"is_reserved":false,"is_disabled":false,"rental_uris":{"android":"levelo://app?vid=304fb90a-bf2a-4e85-a5a5-c818806033de","ios":"levelo://app?vid=304fb90a-bf2a-4e85-a5a5-c818806033de"},"vehicle_type_id":"4","last_reported":1743786543,"current_range_meters":4800,"station_id":"ce4bh3h2rcd13ifvqdn0","pricing_plan_id":"cebpf4jnsgd1na2vs0mg"},{"bike_id":"e8a629de-1c7a-4f17-8878-e47d88578d04","system_id":"levelo_inurba_marseille","lat":43.27373,"lon":5.36244,"is_reserved":false,"is_disabled":false,"rental_uris":{"android":"levelo://app?vid=e8a629de-1c7a-4f17-8878-e47d88578d04","ios":"levelo://app?vid=e8a629de-1c7a-4f17-8878-e47d88578d04"},"vehicle_type_id":"4","last_reported":1743786543,"current_range_meters":4800,"station_id":"ce4bhbh2rcd13ifvqeo0","pricing_plan_id":"cebpf4jnsgd1na2vs0mg"},{"bike_id":"0cb862ca-7176-4670-89cb-b6b333714c19","system_id":"levelo_inurba_marseille","lat":43.30115,"lon":5.38814,"is_reserved":false,"is_disabled":false,"rental_uris":{"android":"levelo://app?vid=0cb862ca-7176-4670-89cb-b6b333714c19","ios":"levelo://app?vid=0cb862ca-7176-4670-89cb-b6b333714c19"},"vehicle_type_id":"4","last_reported":1743786543,"current_range_meters":4800,"station_id":"ce4bghh2rcd13ifvqb60","pricing_plan_id":"cebpf4jnsgd1na2vs0mg"},{"bike_id":"61d89469-4af3-40f8-9e26-77214dab5f81","system_id":"levelo_inurba_marseille","lat":43.25112,"lon":5.40326,"is_reserved":false,"is_disabled":false,"rental_uris":{"android":"levelo://app?vid=61d89469-4af3-40f8-9e26-77214dab5f81","ios":"levelo://app?vid=61d89469-4af3-40f8-9e26-77214dab5f81"},"vehicle_type_id":"4","last_reported":1743786543,"current_range_meters":4400,"station_id":"ce4bhlh2rcd13ifvqgig","pricing_plan_id":"cebpf4jnsgd1na2vs0mg"},{"bike_id":"a939c5df-88b8-4357-aa68-b8285b385ba8","system_id":"levelo_inurba_marseille","lat":43.25495,"lon":5.37636,"is_reserved":false,"is_disabled":false,"rental_uris":{"android":"levelo://app?vid=a939c5df-88b8-4357-aa68-b8285b385ba8","ios":"levelo://app?vid=a939c5df-88b8-4357-aa68-b8285b385ba8"},"vehicle_type_id":"4","last_reported":1743786543,"current_range_meters":5600,"station_id":"ce4bhh12rcd13ifvqff0","pricing_plan_id":"cebpf4jnsgd1na2vs0mg"},{"bike_id":"dafa3130-2b6d-4768-9255-94c09f0590e4","system_id":"levelo_inurba_marseille","lat":43.2455,"lon":5.39522,"is_reserved":false,"is_disabled":false,"rental_uris":{"android":"levelo://app?vid=dafa3130-2b6d-4768-9255-94c09f0590e4","ios":"levelo://app?vid=dafa3130-2b6d-4768-9255-94c09f0590e4"},"vehicle_type_id":"4","last_reported":1743786543,"current_range_meters":5600,"station_id":"ce4bhlp2rcd13ifvqgjg","pricing_plan_id":"cebpf4jnsgd1na2vs0mg"},{"bike_id":"df8f2f80-b2d8-45f4-97ee-7cb4feacaa74","system_id":"levelo_inurba_marseille","lat":43.25574,"lon":5.38236,"is_reserved":false,"is_disabled":false,"rental_uris":{"android":"levelo://app?vid=df8f2f80-b2d8-45f4-97ee-7cb4feacaa74","ios":"levelo://app?vid=df8f2f80-b2d8-45f4-97ee-7cb4feacaa74"},"vehicle_type_id":"4","last_reported":1743786543,"current_range_meters":5600,"station_id":"ce4bhih2rcd13ifvqfs0","pricing_plan_id":"cebpf4jnsgd1na2vs0mg"},{"bike_id":"d23b317b-404c-4814-a8ce-e02463d44d0c","system_id":"levelo_inurba_marseille","lat":43.233551,"lon":5.358124,"is_reserved":false,"is_disabled":false,"rental_uris":{"android":"levelo://app?vid=d23b317b-404c-4814-a8ce-e02463d44d0c","ios":"levelo://app?vid=d23b317b-404c-4814-a8ce-e02463d44d0c"},"vehicle_type_id":"4","last_reported":1743786543,"current_range_meters":5600,"station_id":"ce4bhu92rcd13ifvqi70","pricing_plan_id":"cebpf4jnsgd1na2vs0mg"},{"bike_id":"71e55f99-90e5-4133-8167-5af8b2b35d7e","system_id":"levelo_inurba_marseille","lat":43.23049,"lon":5.3548,"is_reserved":false,"is_disabled":false,"rental_uris":{"android":"levelo://app?vid=71e55f99-90e5-4133-8167-5af8b2b35d7e","ios":"levelo://app?vid=71e55f99-90e5-4133-8167-5af8b2b35d7e"},"vehicle_type_id":"4","last_reported":1743786543,"current_range_meters":5600,"station_id":"cpo3342slgdg3j2ifvpg","pricing_plan_id":"cebpf4jnsgd1na2vs0mg"},{"bike_id":"9b33541f-e853-4f9d-bbc2-c1f6b0a10edc","system_id":"levelo_inurba_marseille","lat":43.32109,"lon":5.36778,"is_reserved":false,"is_disabled":false,"rental_uris":{"android":"levelo://app?vid=9b33541f-e853-4f9d-bbc2-c1f6b0a10edc","ios":"levelo://app?vid=9b33541f-e853-4f9d-bbc2-c1f6b0a10edc"},"vehicle_type_id":"4","last_reported":1743786543,"current_range_meters":5600,"station_id":"","pricing_plan_id":"cebpf4jnsgd1na2vs0mg"},{"bike_id":"00481a9d-293d-4acf-abbe-6da174480f61","system_id":"levelo_inurba_marseille","lat":43.29529,"lon":5.38543,"is_reserved":false,"is_disabled":false,"rental_uris":{"android":"levelo://app?vid=00481a9d-293d-4acf-abbe-6da174480f61","ios":"levelo://app?vid=00481a9d-293d-4acf-abbe-6da174480f61"},"vehicle_type_id":"4","last_reported":1743786543,"current_range_meters":5600,"station_id":"ce4bgih2rcd13ifvqba0","pricing_plan_id":"cebpf4jnsgd1na2vs0mg"},{"bike_id":"c13336a2-47ce-488c-b5b6-77c01a3ac1d1","system_id":"levelo_inurba_marseille","lat":43.31894,"lon":5.40742,"is_reserved":false,"is_disabled":true,"rental_uris":{"android":"levelo://app?vid=c13336a2-47ce-488c-b5b6-77c01a3ac1d1","ios":"levelo://app?vid=c13336a2-47ce-488c-b5b6-77c01a3ac1d1"},"vehicle_type_id":"4","last_reported":1743786543,"current_range_meters":5600,"station_id":"ce4bhq12rcd13ifvqhig","pricing_plan_id":"cebpf4jnsgd1na2vs0mg"},{"bike_id":"33d000d3-31fe-4430-9fe9-c2ea66dabf55","system_id":"levelo_inurba_marseille","lat":43.28951,"lon":5.36415,"is_reserved":false,"is_disabled":false,"rental_uris":{"android":"levelo://app?vid=33d000d3-31fe-4430-9fe9-c2ea66dabf55","ios":"levelo://app?vid=33d000d3-31fe-4430-9fe9-c2ea66dabf55"},"vehicle_type_id":"4","last_reported":1743786543,"current_range_meters":6000,"station_id":"ce4bhc92rcd13ifvqetg","pricing_plan_id":"cebpf4jnsgd1na2vs0mg"},{"bike_id":"edd1d76f-4ae7-48e4-8ecb-523cd2e19483","system_id":"levelo_inurba_marseille","lat":43.25724,"lon":5.41114,"is_reserved":false,"is_disabled":false,"rental_uris":{"android":"levelo://app?vid=edd1d76f-4ae7-48e4-8ecb-523cd2e19483","ios":"levelo://app?vid=edd1d76f-4ae7-48e4-8ecb-523cd2e19483"},"vehicle_type_id":"4","last_reported":1743786543,"current_range_meters":6000,"station_id":"ce4bhkp2rcd13ifvqgd0","pricing_plan_id":"cebpf4jnsgd1na2vs0mg"},{"bike_id":"e1984c52-b489-4664-80c5-95401afa0ecb","system_id":"levelo_inurba_marseille","lat":43.28376,"lon":5.38624,"is_reserved":false,"is_disabled":false,"rental_uris":{"android":"levelo://app?vid=e1984c52-b489-4664-80c5-95401afa0ecb","ios":"levelo://app?vid=e1984c52-b489-4664-80c5-95401afa0ecb"},"vehicle_type_id":"4","last_reported":1743786543,"current_range_meters":5600,"station_id":"ce4bh492rcd13ifvqdvg","pricing_plan_id":"cebpf4jnsgd1na2vs0mg"},{"bike_id":"16f43421-8363-4a1f-a62b-e45433760532","system_id":"levelo_inurba_marseille","lat":43.296262,"lon":5.377145,"is_reserved":false,"is_disabled":false,"rental_uris":{"android":"levelo://app?vid=16f43421-8363-4a1f-a62b-e45433760532","ios":"levelo://app?vid=16f43421-8363-4a1f-a62b-e45433760532"},"vehicle_type_id":"4","last_reported":1743786543,"current_range_meters":6000,"station_id":"ce4bgrh2rcd13ifvqc8g","pricing_plan_id":"cebpf4jnsgd1na2vs0mg"},{"bike_id":"73d854ad-9eb6-4d68-8878-e9b2295ae65a","system_id":"levelo_inurba_marseille","lat":43.23055,"lon":5.35511,"is_reserved":false,"is_disabled":false,"rental_uris":{"android":"levelo://app?vid=73d854ad-9eb6-4d68-8878-e9b2295ae65a","ios":"levelo://app?vid=73d854ad-9eb6-4d68-8878-e9b2295ae65a"},"vehicle_type_id":"4","last_reported":1743786543,"current_range_meters":6400,"station_id":"cpo3342slgdg3j2ifvpg","pricing_plan_id":"cebpf4jnsgd1na2vs0mg"},{"bike_id":"31b21570-80a5-41b2-9d8a-67193cec5e8d","system_id":"levelo_inurba_marseille","lat":43.29165,"lon":5.37164,"is_reserved":false,"is_disabled":false,"rental_uris":{"android":"levelo://app?vid=31b21570-80a5-41b2-9d8a-67193cec5e8d","ios":"levelo://app?vid=31b21570-80a5-41b2-9d8a-67193cec5e8d"},"vehicle_type_id":"4","last_reported":1743786543,"current_range_meters":6400,"station_id":"ce4bha92rcd13ifvqeh0","pricing_plan_id":"cebpf4jnsgd1na2vs0mg"},{"bike_id":"4189c892-dea3-4bc0-942a-9ead3a19b63c","system_id":"levelo_inurba_marseille","lat":43.29228,"lon":5.36062,"is_reserved":false,"is_disabled":false,"rental_uris":{"android":"levelo://app?vid=4189c892-dea3-4bc0-942a-9ead3a19b63c","ios":"levelo://app?vid=4189c892-dea3-4bc0-942a-9ead3a19b63c"},"vehicle_type_id":"4","last_reported":1743786543,"current_range_meters":6400,"station_id":"ce4bhbh2rcd13ifvqeqg","pricing_plan_id":"cebpf4jnsgd1na2vs0mg"},{"bike_id":"263cca8c-d8ac-477f-aee0-c3b6027341a5","system_id":"levelo_inurba_marseille","lat":43.27498,"lon":5.42449,"is_reserved":false,"is_disabled":false,"rental_uris":{"android":"levelo://app?vid=263cca8c-d8ac-477f-aee0-c3b6027341a5","ios":"levelo://app?vid=263cca8c-d8ac-477f-aee0-c3b6027341a5"},"vehicle_type_id":"4","last_reported":1743786543,"current_range_meters":6400,"station_id":"ce4bhn92rcd13ifvqgrg","pricing_plan_id":"cebpf4jnsgd1na2vs0mg"},{"bike_id":"715eff50-001a-413a-8e2d-3344911b1ca7","system_id":"levelo_inurba_marseille","lat":43.3333,"lon":5.39868,"is_reserved":false,"is_disabled":false,"rental_uris":{"android":"levelo://app?vid=715eff50-001a-413a-8e2d-3344911b1ca7","ios":"levelo://app?vid=715eff50-001a-413a-8e2d-3344911b1ca7"},"vehicle_type_id":"4","last_reported":1743786543,"current_range_meters":6400,"station_id":"","pricing_plan_id":"cebpf4jnsgd1na2vs0mg"},{"bike_id":"8d7eab5b-bc43-48f5-9c97-0948b42ca6cf","system_id":"levelo_inurba_marseille","lat":43.22922,"lon":5.35402,"is_reserved":false,"is_disabled":false,"rental_uris":{"android":"levelo://app?vid=8d7eab5b-bc43-48f5-9c97-0948b42ca6cf","ios":"levelo://app?vid=8d7eab5b-bc43-48f5-9c97-0948b42ca6cf"},"vehicle_type_id":"4","last_reported":1743786543,"current_range_meters":6400,"station_id":"cpo3532slgdg3j2ikp40","pricing_plan_id":"cebpf4jnsgd1na2vs0mg"},{"bike_id":"4c7ebdcc-718c-404e-a856-dd0d12b36448","system_id":"levelo_inurba_marseille","lat":43.29005,"lon":5.35614,"is_reserved":false,"is_disabled":false,"rental_uris":{"android":"levelo://app?vid=4c7ebdcc-718c-404e-a856-dd0d12b36448","ios":"levelo://app?vid=4c7ebdcc-718c-404e-a856-dd0d12b36448"},"vehicle_type_id":"4","last_reported":1743786543,"current_range_meters":6800,"station_id":"ce4bhb92rcd13ifvqen0","pricing_plan_id":"cebpf4jnsgd1na2vs0mg"},{"bike_id":"2f9763d8-fab3-4d97-a3c7-62b2cb079b87","system_id":"levelo_inurba_marseille","lat":43.299932,"lon":5.413471,"is_reserved":false,"is_disabled":false,"rental_uris":{"android":"levelo://app?vid=2f9763d8-fab3-4d97-a3c7-62b2cb079b87","ios":"levelo://app?vid=2f9763d8-fab3-4d97-a3c7-62b2cb079b87"},"vehicle_type_id":"4","last_reported":1743786543,"current_range_meters":6800,"station_id":"ce4bhp12rcd13ifvqh9g","pricing_plan_id":"cebpf4jnsgd1na2vs0mg"},{"bike_id":"b7b758cd-ef7d-4630-8d0b-b7d0ee31d949","system_id":"levelo_inurba_marseille","lat":43.2927,"lon":5.38436,"is_reserved":false,"is_disabled":false,"rental_uris":{"android":"levelo://app?vid=b7b758cd-ef7d-4630-8d0b-b7d0ee31d949","ios":"levelo://app?vid=b7b758cd-ef7d-4630-8d0b-b7d0ee31d949"},"vehicle_type_id":"4","last_reported":1743786543,"current_range_meters":6800,"station_id":"ce4bh692rcd13ifvqea0","pricing_plan_id":"cebpf4jnsgd1na2vs0mg"},{"bike_id":"e3a29d38-a611-4b12-87ef-2fb8a21c41d5","system_id":"levelo_inurba_marseille","lat":43.22923,"lon":5.35389,"is_reserved":false,"is_disabled":false,"rental_uris":{"android":"levelo://app?vid=e3a29d38-a611-4b12-87ef-2fb8a21c41d5","ios":"levelo://app?vid=e3a29d38-a611-4b12-87ef-2fb8a21c41d5"},"vehicle_type_id":"4","last_reported":1743786543,"current_range_meters":6800,"station_id":"cpo3532slgdg3j2ikp40","pricing_plan_id":"cebpf4jnsgd1na2vs0mg"},{"bike_id":"efddeda7-6eb2-4c14-868d-fa0ce0b35ef3","system_id":"levelo_inurba_marseille","lat":43.31304,"lon":5.3829,"is_reserved":false,"is_disabled":false,"rental_uris":{"android":"levelo://app?vid=efddeda7-6eb2-4c14-868d-fa0ce0b35ef3","ios":"levelo://app?vid=efddeda7-6eb2-4c14-868d-fa0ce0b35ef3"},"vehicle_type_id":"4","last_reported":1743786543,"current_range_meters":6800,"station_id":"","pricing_plan_id":"cebpf4jnsgd1na2vs0mg"},{"bike_id":"06df810d-e78e-42ed-9986-d25e51c65635","system_id":"levelo_inurba_marseille","lat":43.28936,"lon":5.36639,"is_reserved":false,"is_disabled":false,"rental_uris":{"android":"levelo://app?vid=06df810d-e78e-42ed-9986-d25e51c65635","ios":"levelo://app?vid=06df810d-e78e-42ed-9986-d25e51c65635"},"vehicle_type_id":"4","last_reported":1743786543,"current_range_meters":6800,"station_id":"ce4bhap2rcd13ifvqek0","pricing_plan_id":"cebpf4jnsgd1na2vs0mg"},{"bike_id":"0e88f134-2423-4b08-bc3c-5f7a38937552","system_id":"levelo_inurba_marseille","lat":43.23183,"lon":5.39983,"is_reserved":false,"is_disabled":false,"rental_uris":{"android":"levelo://app?vid=0e88f134-2423-4b08-bc3c-5f7a38937552","ios":"levelo://app?vid=0e88f134-2423-4b08-bc3c-5f7a38937552"},"vehicle_type_id":"4","last_reported":1743786543,"current_range_meters":7200,"station_id":"ce4bhn12rcd13ifvqgqg","pricing_plan_id":"cebpf4jnsgd1na2vs0mg"},{"bike_id":"7dc7f57b-ef8d-4720-8fe3-06462fcd1761","system_id":"levelo_inurba_marseille","lat":43.22934,"lon":5.35377,"is_reserved":false,"is_disabled":false,"rental_uris":{"android":"levelo://app?vid=7dc7f57b-ef8d-4720-8fe3-06462fcd1761","ios":"levelo://app?vid=7dc7f57b-ef8d-4720-8fe3-06462fcd1761"},"vehicle_type_id":"4","last_reported":1743786543,"current_range_meters":7200,"station_id":"cpo3532slgdg3j2ikp40","pricing_plan_id":"cebpf4jnsgd1na2vs0mg"},{"bike_id":"d76832c4-3604-4de9-b7a5-182f7c6e995c","system_id":"levelo_inurba_marseille","lat":43.31354,"lon":5.38522,"is_reserved":false,"is_disabled":true,"rental_uris":{"android":"levelo://app?vid=d76832c4-3604-4de9-b7a5-182f7c6e995c","ios":"levelo://app?vid=d76832c4-3604-4de9-b7a5-182f7c6e995c"},"vehicle_type_id":"4","last_reported":1743786543,"current_range_meters":7200,"station_id":"ce4bgt92rcd13ifvqcf0","pricing_plan_id":"cebpf4jnsgd1na2vs0mg"},{"bike_id":"6e3a2bdf-eb3f-4348-bcde-ea3b3fe9a7c4","system_id":"levelo_inurba_marseille","lat":43.29417,"lon":5.38629,"is_reserved":false,"is_disabled":false,"rental_uris":{"android":"levelo://app?vid=6e3a2bdf-eb3f-4348-bcde-ea3b3fe9a7c4","ios":"levelo://app?vid=6e3a2bdf-eb3f-4348-bcde-ea3b3fe9a7c4"},"vehicle_type_id":"4","last_reported":1743786543,"current_range_meters":7200,"station_id":"ce4bh2h2rcd13ifvqdh0","pricing_plan_id":"cebpf4jnsgd1na2vs0mg"},{"bike_id":"efc9ea2c-1f58-40b7-816b-87ac4becd308","system_id":"levelo_inurba_marseille","lat":43.28853,"lon":5.35844,"is_reserved":false,"is_disabled":false,"rental_uris":{"android":"levelo://app?vid=efc9ea2c-1f58-40b7-816b-87ac4becd308","ios":"levelo://app?vid=efc9ea2c-1f58-40b7-816b-87ac4becd308"},"vehicle_type_id":"4","last_reported":1743786543,"current_range_meters":7200,"station_id":"ce4bhb12rcd13ifvqem0","pricing_plan_id":"cebpf4jnsgd1na2vs0mg"},{"bike_id":"d3669347-4cf5-4089-9cd2-0c8bed3e4bd2","system_id":"levelo_inurba_marseille","lat":43.30504,"lon":5.36723,"is_reserved":false,"is_disabled":false,"rental_uris":{"android":"levelo://app?vid=d3669347-4cf5-4089-9cd2-0c8bed3e4bd2","ios":"levelo://app?vid=d3669347-4cf5-4089-9cd2-0c8bed3e4bd2"},"vehicle_type_id":"4","last_reported":1743786543,"current_range_meters":7200,"station_id":"ce4bgrp2rcd13ifvqc9g","pricing_plan_id":"cebpf4jnsgd1na2vs0mg"},{"bike_id":"40acb786-7730-4c36-8bde-0a0693f79cac","system_id":"levelo_inurba_marseille","lat":43.29299,"lon":5.37455,"is_reserved":false,"is_disabled":false,"rental_uris":{"android":"levelo://app?vid=40acb786-7730-4c36-8bde-0a0693f79cac","ios":"levelo://app?vid=40acb786-7730-4c36-8bde-0a0693f79cac"},"vehicle_type_id":"4","last_reported":1743786543,"current_range_meters":7200,"station_id":"ce4bgi12rcd13ifvqb70","pricing_plan_id":"cebpf4jnsgd1na2vs0mg"},{"bike_id":"6e5fe51e-80c9-4aab-a956-b3ff36d8e604","system_id":"levelo_inurba_marseille","lat":43.290004,"lon":5.356108,"is_reserved":false,"is_disabled":false,"rental_uris":{"android":"levelo://app?vid=6e5fe51e-80c9-4aab-a956-b3ff36d8e604","ios":"levelo://app?vid=6e5fe51e-80c9-4aab-a956-b3ff36d8e604"},"vehicle_type_id":"4","last_reported":1743786543,"current_range_meters":7200,"station_id":"ce4bhb92rcd13ifvqen0","pricing_plan_id":"cebpf4jnsgd1na2vs0mg"},{"bike_id":"0e2409c3-9dd4-4e84-818d-c492ae4f1d03","system_id":"levelo_inurba_marseille","lat":43.25593,"lon":5.38235,"is_reserved":false,"is_disabled":false,"rental_uris":{"android":"levelo://app?vid=0e2409c3-9dd4-4e84-818d-c492ae4f1d03","ios":"levelo://app?vid=0e2409c3-9dd4-4e84-818d-c492ae4f1d03"},"vehicle_type_id":"4","last_reported":1743786543,"current_range_meters":7200,"station_id":"ce4bhih2rcd13ifvqfs0","pricing_plan_id":"cebpf4jnsgd1na2vs0mg"},{"bike_id":"eccc109c-1b47-4172-8205-51114089adb5","system_id":"levelo_inurba_marseille","lat":43.27995,"lon":5.41683,"is_reserved":false,"is_disabled":false,"rental_uris":{"android":"levelo://app?vid=eccc109c-1b47-4172-8205-51114089adb5","ios":"levelo://app?vid=eccc109c-1b47-4172-8205-51114089adb5"},"vehicle_type_id":"4","last_reported":1743786543,"current_range_meters":7200,"station_id":"ce4bho12rcd13ifvqh1g","pricing_plan_id":"cebpf4jnsgd1na2vs0mg"},{"bike_id":"6e7e8bd0-971a-4bf5-a521-0d1053f36753","system_id":"levelo_inurba_marseille","lat":43.3108,"lon":5.42437,"is_reserved":false,"is_disabled":true,"rental_uris":{"android":"levelo://app?vid=6e7e8bd0-971a-4bf5-a521-0d1053f36753","ios":"levelo://app?vid=6e7e8bd0-971a-4bf5-a521-0d1053f36753"},"vehicle_type_id":"4","last_reported":1743786543,"current_range_meters":7200,"station_id":"ce4bhp92rcd13ifvqhag","pricing_plan_id":"cebpf4jnsgd1na2vs0mg"},{"bike_id":"8a10fca2-82f1-42f5-af65-4cfe92118937","system_id":"levelo_inurba_marseille","lat":43.31118,"lon":5.37793,"is_reserved":false,"is_disabled":false,"rental_uris":{"android":"levelo://app?vid=8a10fca2-82f1-42f5-af65-4cfe92118937","ios":"levelo://app?vid=8a10fca2-82f1-42f5-af65-4cfe92118937"},"vehicle_type_id":"4","last_reported":1743786543,"current_range_meters":7200,"station_id":"ce4bgt92rcd13ifvqcg0","pricing_plan_id":"cebpf4jnsgd1na2vs0mg"},{"bike_id":"05505314-b2b7-49ba-b9b0-90b89e44ca61","system_id":"levelo_inurba_marseille","lat":43.2927,"lon":5.38448,"is_reserved":false,"is_disabled":false,"rental_uris":{"android":"levelo://app?vid=05505314-b2b7-49ba-b9b0-90b89e44ca61","ios":"levelo://app?vid=05505314-b2b7-49ba-b9b0-90b89e44ca61"},"vehicle_type_id":"4","last_reported":1743786543,"current_range_meters":8000,"station_id":"ce4bh692rcd13ifvqea0","pricing_plan_id":"cebpf4jnsgd1na2vs0mg"},{"bike_id":"d046b439-98e0-4e6e-8fe0-7c0053028340","system_id":"levelo_inurba_marseille","lat":43.268,"lon":5.40253,"is_reserved":false,"is_disabled":false,"rental_uris":{"android":"levelo://app?vid=d046b439-98e0-4e6e-8fe0-7c0053028340","ios":"levelo://app?vid=d046b439-98e0-4e6e-8fe0-7c0053028340"},"vehicle_type_id":"4","last_reported":1743786543,"current_range_meters":8000,"station_id":"ce501612rcd8frsf0b60","pricing_plan_id":"cebpf4jnsgd1na2vs0mg"},{"bike_id":"baaad8d5-a220-454a-94cf-c6ba97be5d60","system_id":"levelo_inurba_marseille","lat":43.27213,"lon":5.3918,"is_reserved":false,"is_disabled":false,"rental_uris":{"android":"levelo://app?vid=baaad8d5-a220-454a-94cf-c6ba97be5d60","ios":"levelo://app?vid=baaad8d5-a220-454a-94cf-c6ba97be5d60"},"vehicle_type_id":"4","last_reported":1743786543,"current_range_meters":8000,"station_id":"ce4bhhp2rcd13ifvqfm0","pricing_plan_id":"cebpf4jnsgd1na2vs0mg"},{"bike_id":"1049ba71-fb41-4dc5-8c5a-67fbc6fe8421","system_id":"levelo_inurba_marseille","lat":43.25519,"lon":5.37621,"is_reserved":false,"is_disabled":true,"rental_uris":{"android":"levelo://app?vid=1049ba71-fb41-4dc5-8c5a-67fbc6fe8421","ios":"levelo://app?vid=1049ba71-fb41-4dc5-8c5a-67fbc6fe8421"},"vehicle_type_id":"4","last_reported":1743786543,"current_range_meters":8000,"station_id":"ce4bhh12rcd13ifvqff0","pricing_plan_id":"cebpf4jnsgd1na2vs0mg"},{"bike_id":"c55a0c46-58c0-4499-b21b-ecc280024e5d","system_id":"levelo_inurba_marseille","lat":43.241695,"lon":5.364028,"is_reserved":false,"is_disabled":false,"rental_uris":{"android":"levelo://app?vid=c55a0c46-58c0-4499-b21b-ecc280024e5d","ios":"levelo://app?vid=c55a0c46-58c0-4499-b21b-ecc280024e5d"},"vehicle_type_id":"4","last_reported":1743786543,"current_range_meters":8000,"station_id":"cpo36qri1sfpv3e86is0","pricing_plan_id":"cebpf4jnsgd1na2vs0mg"},{"bike_id":"fd65bd0d-b7ce-4f5a-a73e-9657d5d75f8f","system_id":"levelo_inurba_marseille","lat":43.29005,"lon":5.35668,"is_reserved":false,"is_disabled":false,"rental_uris":{"android":"levelo://app?vid=fd65bd0d-b7ce-4f5a-a73e-9657d5d75f8f","ios":"levelo://app?vid=fd65bd0d-b7ce-4f5a-a73e-9657d5d75f8f"},"vehicle_type_id":"4","last_reported":1743786543,"current_range_meters":8000,"station_id":"ce4bhb92rcd13ifvqen0","pricing_plan_id":"cebpf4jnsgd1na2vs0mg"},{"bike_id":"2a879930-cbd0-43d2-9be0-d71e9c7e3cf9","system_id":"levelo_inurba_marseille","lat":43.26564,"lon":5.39008,"is_reserved":false,"is_disabled":false,"rental_uris":{"android":"levelo://app?vid=2a879930-cbd0-43d2-9be0-d71e9c7e3cf9","ios":"levelo://app?vid=2a879930-cbd0-43d2-9be0-d71e9c7e3cf9"},"vehicle_type_id":"4","last_reported":1743786543,"current_range_meters":8000,"station_id":"ce4bhe12rcd13ifvqf30","pricing_plan_id":"cebpf4jnsgd1na2vs0mg"},{"bike_id":"eb5e871e-54d9-4b86-b615-40cdb7445b1b","system_id":"levelo_inurba_marseille","lat":43.241797,"lon":5.397356,"is_reserved":false,"is_disabled":false,"rental_uris":{"android":"levelo://app?vid=eb5e871e-54d9-4b86-b615-40cdb7445b1b","ios":"levelo://app?vid=eb5e871e-54d9-4b86-b615-40cdb7445b1b"},"vehicle_type_id":"4","last_reported":1743786543,"current_range_meters":8000,"station_id":"ce4bhn12rcd13ifvqgpg","pricing_plan_id":"cebpf4jnsgd1na2vs0mg"},{"bike_id":"ad707a01-b942-4cbb-8387-1610aa262357","system_id":"levelo_inurba_marseille","lat":43.24811,"lon":5.37448,"is_reserved":false,"is_disabled":false,"rental_uris":{"android":"levelo://app?vid=ad707a01-b942-4cbb-8387-1610aa262357","ios":"levelo://app?vid=ad707a01-b942-4cbb-8387-1610aa262357"},"vehicle_type_id":"4","last_reported":1743786543,"current_range_meters":8400,"station_id":"ce4bhgh2rcd13ifvqfb0","pricing_plan_id":"cebpf4jnsgd1na2vs0mg"},{"bike_id":"aec7620d-7b4d-45ae-9307-348c991636c5","system_id":"levelo_inurba_marseille","lat":43.27209,"lon":5.41015,"is_reserved":false,"is_disabled":false,"rental_uris":{"android":"levelo://app?vid=aec7620d-7b4d-45ae-9307-348c991636c5","ios":"levelo://app?vid=aec7620d-7b4d-45ae-9307-348c991636c5"},"vehicle_type_id":"4","last_reported":1743786543,"current_range_meters":8400,"station_id":"ce4bhl12rcd13ifvqgf0","pricing_plan_id":"cebpf4jnsgd1na2vs0mg"},{"bike_id":"fd79d3bd-ef78-4114-9b55-eeff45f2bc27","system_id":"levelo_inurba_marseille","lat":43.28678,"lon":5.36318,"is_reserved":false,"is_disabled":false,"rental_uris":{"android":"levelo://app?vid=fd79d3bd-ef78-4114-9b55-eeff45f2bc27","ios":"levelo://app?vid=fd79d3bd-ef78-4114-9b55-eeff45f2bc27"},"vehicle_type_id":"4","last_reported":1743786543,"current_range_meters":8400,"station_id":"ce4bhah2rcd13ifvqej0","pricing_plan_id":"cebpf4jnsgd1na2vs0mg"},{"bike_id":"408a196c-b900-4fa8-b5b0-949dbf352496","system_id":"levelo_inurba_marseille","lat":43.3171,"lon":5.43715,"is_reserved":false,"is_disabled":false,"rental_uris":{"android":"levelo://app?vid=408a196c-b900-4fa8-b5b0-949dbf352496","ios":"levelo://app?vid=408a196c-b900-4fa8-b5b0-949dbf352496"},"vehicle_type_id":"4","last_reported":1743786543,"current_range_meters":8400,"station_id":"ce4bhp92rcd13ifvqhcg","pricing_plan_id":"cebpf4jnsgd1na2vs0mg"},{"bike_id":"62af7a4a-3351-4bc6-85c8-fbfc1d94f692","system_id":"levelo_inurba_marseille","lat":43.30644,"lon":5.40084,"is_reserved":false,"is_disabled":false,"rental_uris":{"android":"levelo://app?vid=62af7a4a-3351-4bc6-85c8-fbfc1d94f692","ios":"levelo://app?vid=62af7a4a-3351-4bc6-85c8-fbfc1d94f692"},"vehicle_type_id":"4","last_reported":1743786543,"current_range_meters":8000,"station_id":"ce4bh112rcd13ifvqda0","pricing_plan_id":"cebpf4jnsgd1na2vs0mg"},{"bike_id":"015c3595-e3d9-4d5d-ad1e-3d082847bebe","system_id":"levelo_inurba_marseille","lat":43.289465,"lon":5.363948,"is_reserved":false,"is_disabled":false,"rental_uris":{"android":"levelo://app?vid=015c3595-e3d9-4d5d-ad1e-3d082847bebe","ios":"levelo://app?vid=015c3595-e3d9-4d5d-ad1e-3d082847bebe"},"vehicle_type_id":"4","last_reported":1743786543,"current_range_meters":8400,"station_id":"ce4bhc92rcd13ifvqetg","pricing_plan_id":"cebpf4jnsgd1na2vs0mg"},{"bike_id":"229a4587-a3df-4a83-ac7c-2d538a878c52","system_id":"levelo_inurba_marseille","lat":43.32115,"lon":5.36767,"is_reserved":false,"is_disabled":false,"rental_uris":{"android":"levelo://app?vid=229a4587-a3df-4a83-ac7c-2d538a878c52","ios":"levelo://app?vid=229a4587-a3df-4a83-ac7c-2d538a878c52"},"vehicle_type_id":"4","last_reported":1743786543,"current_range_meters":8400,"station_id":"ce4bhrh2rcd13ifvqhug","pricing_plan_id":"cebpf4jnsgd1na2vs0mg"},{"bike_id":"cbd19c68-ac7b-48b5-987f-a659d59b32f1","system_id":"levelo_inurba_marseille","lat":43.29043,"lon":5.375729,"is_reserved":false,"is_disabled":false,"rental_uris":{"android":"levelo://app?vid=cbd19c68-ac7b-48b5-987f-a659d59b32f1","ios":"levelo://app?vid=cbd19c68-ac7b-48b5-987f-a659d59b32f1"},"vehicle_type_id":"4","last_reported":1743786543,"current_range_meters":8400,"station_id":"ce4bh692rcd13ifvqe90","pricing_plan_id":"cebpf4jnsgd1na2vs0mg"},{"bike_id":"69c0db05-6ded-4dc6-9720-2452c83c1020","system_id":"levelo_inurba_marseille","lat":43.22938,"lon":5.35401,"is_reserved":false,"is_disabled":false,"rental_uris":{"android":"levelo://app?vid=69c0db05-6ded-4dc6-9720-2452c83c1020","ios":"levelo://app?vid=69c0db05-6ded-4dc6-9720-2452c83c1020"},"vehicle_type_id":"4","last_reported":1743786543,"current_range_meters":8400,"station_id":"cpo3532slgdg3j2ikp40","pricing_plan_id":"cebpf4jnsgd1na2vs0mg"},{"bike_id":"691b88de-cd01-4ba4-8157-1d48d3682b12","system_id":"levelo_inurba_marseille","lat":43.30131,"lon":5.38801,"is_reserved":false,"is_disabled":false,"rental_uris":{"android":"levelo://app?vid=691b88de-cd01-4ba4-8157-1d48d3682b12","ios":"levelo://app?vid=691b88de-cd01-4ba4-8157-1d48d3682b12"},"vehicle_type_id":"4","last_reported":1743786543,"current_range_meters":8400,"station_id":"ce4bghh2rcd13ifvqb60","pricing_plan_id":"cebpf4jnsgd1na2vs0mg"},{"bike_id":"243cd563-f1ff-448c-9593-af2363f90d9b","system_id":"levelo_inurba_marseille","lat":43.2623,"lon":5.40451,"is_reserved":false,"is_disabled":false,"rental_uris":{"android":"levelo://app?vid=243cd563-f1ff-448c-9593-af2363f90d9b","ios":"levelo://app?vid=243cd563-f1ff-448c-9593-af2363f90d9b"},"vehicle_type_id":"4","last_reported":1743786543,"current_range_meters":8400,"station_id":"ce4bhmh2rcd13ifvqgmg","pricing_plan_id":"cebpf4jnsgd1na2vs0mg"},{"bike_id":"5f46717b-05d1-4f34-a220-8087932d755b","system_id":"levelo_inurba_marseille","lat":43.30102,"lon":5.3694,"is_reserved":false,"is_disabled":false,"rental_uris":{"android":"levelo://app?vid=5f46717b-05d1-4f34-a220-8087932d755b","ios":"levelo://app?vid=5f46717b-05d1-4f34-a220-8087932d755b"},"vehicle_type_id":"4","last_reported":1743786543,"current_range_meters":8400,"station_id":"","pricing_plan_id":"cebpf4jnsgd1na2vs0mg"},{"bike_id":"75718454-6f81-4e6b-89a3-d01df9afe6b6","system_id":"levelo_inurba_marseille","lat":43.27062,"lon":5.40279,"is_reserved":false,"is_disabled":false,"rental_uris":{"android":"levelo://app?vid=75718454-6f81-4e6b-89a3-d01df9afe6b6","ios":"levelo://app?vid=75718454-6f81-4e6b-89a3-d01df9afe6b6"},"vehicle_type_id":"4","last_reported":1743786543,"current_range_meters":8800,"station_id":"ce4bhk92rcd13ifvqgc0","pricing_plan_id":"cebpf4jnsgd1na2vs0mg"},{"bike_id":"36d996d1-147d-4367-84e7-9ff54765b37a","system_id":"levelo_inurba_marseille","lat":43.23192,"lon":5.35557,"is_reserved":false,"is_disabled":false,"rental_uris":{"android":"levelo://app?vid=36d996d1-147d-4367-84e7-9ff54765b37a","ios":"levelo://app?vid=36d996d1-147d-4367-84e7-9ff54765b37a"},"vehicle_type_id":"4","last_reported":1743786543,"current_range_meters":8800,"station_id":"ce4bhu92rcd13ifvqi70","pricing_plan_id":"cebpf4jnsgd1na2vs0mg"},{"bike_id":"0e25d205-69d4-4cd8-9999-c01e72852306","system_id":"levelo_inurba_marseille","lat":43.26807,"lon":5.40265,"is_reserved":false,"is_disabled":false,"rental_uris":{"android":"levelo://app?vid=0e25d205-69d4-4cd8-9999-c01e72852306","ios":"levelo://app?vid=0e25d205-69d4-4cd8-9999-c01e72852306"},"vehicle_type_id":"4","last_reported":1743786543,"current_range_meters":8800,"station_id":"ce501612rcd8frsf0b60","pricing_plan_id":"cebpf4jnsgd1na2vs0mg"},{"bike_id":"f2e70a31-b53c-4370-8123-bd8f8eaa6735","system_id":"levelo_inurba_marseille","lat":43.284058,"lon":5.349906,"is_reserved":false,"is_disabled":false,"rental_uris":{"android":"levelo://app?vid=f2e70a31-b53c-4370-8123-bd8f8eaa6735","ios":"levelo://app?vid=f2e70a31-b53c-4370-8123-bd8f8eaa6735"},"vehicle_type_id":"4","last_reported":1743786543,"current_range_meters":8800,"station_id":"ce4bhbh2rcd13ifvqepg","pricing_plan_id":"cebpf4jnsgd1na2vs0mg"},{"bike_id":"1f82dff0-171d-4721-8a64-b6334379fb4b","system_id":"levelo_inurba_marseille","lat":43.32345,"lon":5.40623,"is_reserved":false,"is_disabled":false,"rental_uris":{"android":"levelo://app?vid=1f82dff0-171d-4721-8a64-b6334379fb4b","ios":"levelo://app?vid=1f82dff0-171d-4721-8a64-b6334379fb4b"},"vehicle_type_id":"4","last_reported":1743786543,"current_range_meters":8800,"station_id":"ce4bhq92rcd13ifvqhjg","pricing_plan_id":"cebpf4jnsgd1na2vs0mg"},{"bike_id":"ed6b419e-f2b9-4a80-8235-3bee53aec75d","system_id":"levelo_inurba_marseille","lat":43.27908,"lon":5.38014,"is_reserved":false,"is_disabled":false,"rental_uris":{"android":"levelo://app?vid=ed6b419e-f2b9-4a80-8235-3bee53aec75d","ios":"levelo://app?vid=ed6b419e-f2b9-4a80-8235-3bee53aec75d"},"vehicle_type_id":"4","last_reported":1743786543,"current_range_meters":8800,"station_id":"ce4bhf92rcd13ifvqf50","pricing_plan_id":"cebpf4jnsgd1na2vs0mg"},{"bike_id":"a25868d9-d4ed-420f-971e-49a73ffc8d83","system_id":"levelo_inurba_marseille","lat":43.29032,"lon":5.37563,"is_reserved":false,"is_disabled":false,"rental_uris":{"android":"levelo://app?vid=a25868d9-d4ed-420f-971e-49a73ffc8d83","ios":"levelo://app?vid=a25868d9-d4ed-420f-971e-49a73ffc8d83"},"vehicle_type_id":"4","last_reported":1743786543,"current_range_meters":8800,"station_id":"ce4bh692rcd13ifvqe90","pricing_plan_id":"cebpf4jnsgd1na2vs0mg"},{"bike_id":"defe925b-0814-4c2c-977d-76b18d627e05","system_id":"levelo_inurba_marseille","lat":43.31116,"lon":5.3777,"is_reserved":false,"is_disabled":false,"rental_uris":{"android":"levelo://app?vid=defe925b-0814-4c2c-977d-76b18d627e05","ios":"levelo://app?vid=defe925b-0814-4c2c-977d-76b18d627e05"},"vehicle_type_id":"4","last_reported":1743786543,"current_range_meters":8800,"station_id":"ce4bgt92rcd13ifvqcg0","pricing_plan_id":"cebpf4jnsgd1na2vs0mg"},{"bike_id":"a8f55a64-a749-4c2a-be05-6318aea80d2e","system_id":"levelo_inurba_marseille","lat":43.29265,"lon":5.37638,"is_reserved":false,"is_disabled":false,"rental_uris":{"android":"levelo://app?vid=a8f55a64-a749-4c2a-be05-6318aea80d2e","ios":"levelo://app?vid=a8f55a64-a749-4c2a-be05-6318aea80d2e"},"vehicle_type_id":"4","last_reported":1743786543,"current_range_meters":8800,"station_id":"ce4bgi12rcd13ifvqb80","pricing_plan_id":"cebpf4jnsgd1na2vs0mg"},{"bike_id":"f07b320c-d050-4a9c-8d66-fffc12b18ec6","system_id":"levelo_inurba_marseille","lat":43.24804,"lon":5.37454,"is_reserved":false,"is_disabled":false,"rental_uris":{"android":"levelo://app?vid=f07b320c-d050-4a9c-8d66-fffc12b18ec6","ios":"levelo://app?vid=f07b320c-d050-4a9c-8d66-fffc12b18ec6"},"vehicle_type_id":"4","last_reported":1743786543,"current_range_meters":8800,"station_id":"ce4bhgh2rcd13ifvqfb0","pricing_plan_id":"cebpf4jnsgd1na2vs0mg"},{"bike_id":"b060c06d-f254-492e-a5a5-1a7c71964e8e","system_id":"levelo_inurba_marseille","lat":43.32345,"lon":5.40612,"is_reserved":false,"is_disabled":false,"rental_uris":{"android":"levelo://app?vid=b060c06d-f254-492e-a5a5-1a7c71964e8e","ios":"levelo://app?vid=b060c06d-f254-492e-a5a5-1a7c71964e8e"},"vehicle_type_id":"4","last_reported":1743786543,"current_range_meters":9200,"station_id":"ce4bhq92rcd13ifvqhjg","pricing_plan_id":"cebpf4jnsgd1na2vs0mg"},{"bike_id":"af3d1bca-64e6-4065-ac9d-b346dffb75c4","system_id":"levelo_inurba_marseille","lat":43.289699,"lon":5.378359,"is_reserved":false,"is_disabled":false,"rental_uris":{"android":"levelo://app?vid=af3d1bca-64e6-4065-ac9d-b346dffb75c4","ios":"levelo://app?vid=af3d1bca-64e6-4065-ac9d-b346dffb75c4"},"vehicle_type_id":"4","last_reported":1743786543,"current_range_meters":9200,"station_id":"ce4bh412rcd13ifvqdr0","pricing_plan_id":"cebpf4jnsgd1na2vs0mg"},{"bike_id":"32dbe70c-c8ad-4db5-84e9-a7abf68df6dd","system_id":"levelo_inurba_marseille","lat":43.27908,"lon":5.38017,"is_reserved":false,"is_disabled":false,"rental_uris":{"android":"levelo://app?vid=32dbe70c-c8ad-4db5-84e9-a7abf68df6dd","ios":"levelo://app?vid=32dbe70c-c8ad-4db5-84e9-a7abf68df6dd"},"vehicle_type_id":"4","last_reported":1743786543,"current_range_meters":9200,"station_id":"ce4bhf92rcd13ifvqf50","pricing_plan_id":"cebpf4jnsgd1na2vs0mg"},{"bike_id":"ec088106-f92d-41de-ba78-177dcb604020","system_id":"levelo_inurba_marseille","lat":43.2318,"lon":5.39993,"is_reserved":false,"is_disabled":false,"rental_uris":{"android":"levelo://app?vid=ec088106-f92d-41de-ba78-177dcb604020","ios":"levelo://app?vid=ec088106-f92d-41de-ba78-177dcb604020"},"vehicle_type_id":"4","last_reported":1743786543,"current_range_meters":9200,"station_id":"ce4bhn12rcd13ifvqgqg","pricing_plan_id":"cebpf4jnsgd1na2vs0mg"},{"bike_id":"f4518ed8-9cff-428b-bb18-4577e72b376b","system_id":"levelo_inurba_marseille","lat":43.30936,"lon":5.40146,"is_reserved":false,"is_disabled":false,"rental_uris":{"android":"levelo://app?vid=f4518ed8-9cff-428b-bb18-4577e72b376b","ios":"levelo://app?vid=f4518ed8-9cff-428b-bb18-4577e72b376b"},"vehicle_type_id":"4","last_reported":1743786543,"current_range_meters":9200,"station_id":"ce4bgvp2rcd13ifvqct0","pricing_plan_id":"cebpf4jnsgd1na2vs0mg"},{"bike_id":"edf50280-a5f1-431a-9546-ccd1201684cc","system_id":"levelo_inurba_marseille","lat":43.30888,"lon":5.39654,"is_reserved":false,"is_disabled":false,"rental_uris":{"android":"levelo://app?vid=edf50280-a5f1-431a-9546-ccd1201684cc","ios":"levelo://app?vid=edf50280-a5f1-431a-9546-ccd1201684cc"},"vehicle_type_id":"4","last_reported":1743786543,"current_range_meters":9200,"station_id":"ce4bh012rcd13ifvqcv0","pricing_plan_id":"cebpf4jnsgd1na2vs0mg"},{"bike_id":"978fbbe2-6d6e-439d-b952-4b6c1fa82c61","system_id":"levelo_inurba_marseille","lat":43.29004,"lon":5.35615,"is_reserved":false,"is_disabled":false,"rental_uris":{"android":"levelo://app?vid=978fbbe2-6d6e-439d-b952-4b6c1fa82c61","ios":"levelo://app?vid=978fbbe2-6d6e-439d-b952-4b6c1fa82c61"},"vehicle_type_id":"4","last_reported":1743786543,"current_range_meters":9200,"station_id":"ce4bhb92rcd13ifvqen0","pricing_plan_id":"cebpf4jnsgd1na2vs0mg"},{"bike_id":"40970201-2360-42af-9107-1afaf1c413f4","system_id":"levelo_inurba_marseille","lat":43.28495,"lon":5.3842,"is_reserved":false,"is_disabled":false,"rental_uris":{"android":"levelo://app?vid=40970201-2360-42af-9107-1afaf1c413f4","ios":"levelo://app?vid=40970201-2360-42af-9107-1afaf1c413f4"},"vehicle_type_id":"4","last_reported":1743786543,"current_range_meters":9200,"station_id":"ce4bh512rcd13ifvqe3g","pricing_plan_id":"cebpf4jnsgd1na2vs0mg"},{"bike_id":"758c2355-846a-4f3d-bcd8-eac4b3145cd6","system_id":"levelo_inurba_marseille","lat":43.2319,"lon":5.35571,"is_reserved":false,"is_disabled":false,"rental_uris":{"android":"levelo://app?vid=758c2355-846a-4f3d-bcd8-eac4b3145cd6","ios":"levelo://app?vid=758c2355-846a-4f3d-bcd8-eac4b3145cd6"},"vehicle_type_id":"4","last_reported":1743786543,"current_range_meters":9200,"station_id":"ce4bhu92rcd13ifvqi70","pricing_plan_id":"cebpf4jnsgd1na2vs0mg"},{"bike_id":"ed034283-1492-4da7-9409-35bdead80f30","system_id":"levelo_inurba_marseille","lat":43.30128,"lon":5.38806,"is_reserved":false,"is_disabled":true,"rental_uris":{"android":"levelo://app?vid=ed034283-1492-4da7-9409-35bdead80f30","ios":"levelo://app?vid=ed034283-1492-4da7-9409-35bdead80f30"},"vehicle_type_id":"4","last_reported":1743786543,"current_range_meters":9200,"station_id":"ce4bghh2rcd13ifvqb60","pricing_plan_id":"cebpf4jnsgd1na2vs0mg"},{"bike_id":"9b5f0620-edab-4df6-ac60-67c85259ad65","system_id":"levelo_inurba_marseille","lat":43.26583,"lon":5.39014,"is_reserved":false,"is_disabled":false,"rental_uris":{"android":"levelo://app?vid=9b5f0620-edab-4df6-ac60-67c85259ad65","ios":"levelo://app?vid=9b5f0620-edab-4df6-ac60-67c85259ad65"},"vehicle_type_id":"4","last_reported":1743786543,"current_range_meters":9200,"station_id":"ce4bhe12rcd13ifvqf30","pricing_plan_id":"cebpf4jnsgd1na2vs0mg"},{"bike_id":"50297066-959d-45c5-a71e-b062cc3724ec","system_id":"levelo_inurba_marseille","lat":43.30804,"lon":5.37352,"is_reserved":false,"is_disabled":false,"rental_uris":{"android":"levelo://app?vid=50297066-959d-45c5-a71e-b062cc3724ec","ios":"levelo://app?vid=50297066-959d-45c5-a71e-b062cc3724ec"},"vehicle_type_id":"4","last_reported":1743786543,"current_range_meters":9200,"station_id":"","pricing_plan_id":"cebpf4jnsgd1na2vs0mg"},{"bike_id":"61b5a2a4-f0f4-4692-8709-a9a716578b90","system_id":"levelo_inurba_marseille","lat":43.28859,"lon":5.35833,"is_reserved":false,"is_disabled":false,"rental_uris":{"android":"levelo://app?vid=61b5a2a4-f0f4-4692-8709-a9a716578b90","ios":"levelo://app?vid=61b5a2a4-f0f4-4692-8709-a9a716578b90"},"vehicle_type_id":"4","last_reported":1743786543,"current_range_meters":9200,"station_id":"ce4bhb12rcd13ifvqem0","pricing_plan_id":"cebpf4jnsgd1na2vs0mg"},{"bike_id":"7dd13f34-15af-4bf5-bb40-dd0a7c6c08b5","system_id":"levelo_inurba_marseille","lat":43.28522,"lon":5.38513,"is_reserved":false,"is_disabled":false,"rental_uris":{"android":"levelo://app?vid=7dd13f34-15af-4bf5-bb40-dd0a7c6c08b5","ios":"levelo://app?vid=7dd13f34-15af-4bf5-bb40-dd0a7c6c08b5"},"vehicle_type_id":"4","last_reported":1743786543,"current_range_meters":9200,"station_id":"","pricing_plan_id":"cebpf4jnsgd1na2vs0mg"},{"bike_id":"cdb7e4b1-8ea1-4a1d-91f3-73a8b3b493a5","system_id":"levelo_inurba_marseille","lat":43.31075,"lon":5.42423,"is_reserved":false,"is_disabled":false,"rental_uris":{"android":"levelo://app?vid=cdb7e4b1-8ea1-4a1d-91f3-73a8b3b493a5","ios":"levelo://app?vid=cdb7e4b1-8ea1-4a1d-91f3-73a8b3b493a5"},"vehicle_type_id":"4","last_reported":1743786543,"current_range_meters":9200,"station_id":"ce4bhp92rcd13ifvqhag","pricing_plan_id":"cebpf4jnsgd1na2vs0mg"},{"bike_id":"74a13a18-430a-4f50-ba26-e7dfbad23482","system_id":"levelo_inurba_marseille","lat":43.23089,"lon":5.35473,"is_reserved":false,"is_disabled":false,"rental_uris":{"android":"levelo://app?vid=74a13a18-430a-4f50-ba26-e7dfbad23482","ios":"levelo://app?vid=74a13a18-430a-4f50-ba26-e7dfbad23482"},"vehicle_type_id":"4","last_reported":1743786543,"current_range_meters":9200,"station_id":"cpo3342slgdg3j2ifvpg","pricing_plan_id":"cebpf4jnsgd1na2vs0mg"},{"bike_id":"01aaa76d-0441-4db0-a93c-85b5552e7436","system_id":"levelo_inurba_marseille","lat":43.27555,"lon":5.38428,"is_reserved":false,"is_disabled":false,"rental_uris":{"android":"levelo://app?vid=01aaa76d-0441-4db0-a93c-85b5552e7436","ios":"levelo://app?vid=01aaa76d-0441-4db0-a93c-85b5552e7436"},"vehicle_type_id":"4","last_reported":1743786543,"current_range_meters":9200,"station_id":"ce4bhh92rcd13ifvqfi0","pricing_plan_id":"cebpf4jnsgd1na2vs0mg"},{"bike_id":"29fdf23e-50e5-46a4-8f03-30cbecdacbfb","system_id":"levelo_inurba_marseille","lat":43.29372,"lon":5.37866,"is_reserved":false,"is_disabled":false,"rental_uris":{"android":"levelo://app?vid=29fdf23e-50e5-46a4-8f03-30cbecdacbfb","ios":"levelo://app?vid=29fdf23e-50e5-46a4-8f03-30cbecdacbfb"},"vehicle_type_id":"4","last_reported":1743786543,"current_range_meters":9600,"station_id":"ce4bgjh2rcd13ifvqbf0","pricing_plan_id":"cebpf4jnsgd1na2vs0mg"},{"bike_id":"e0fad556-5ae8-4117-87ad-f8085a53b82f","system_id":"levelo_inurba_marseille","lat":43.31335,"lon":5.39687,"is_reserved":false,"is_disabled":false,"rental_uris":{"android":"levelo://app?vid=e0fad556-5ae8-4117-87ad-f8085a53b82f","ios":"levelo://app?vid=e0fad556-5ae8-4117-87ad-f8085a53b82f"},"vehicle_type_id":"4","last_reported":1743786543,"current_range_meters":9600,"station_id":"ce4bgvp2rcd13ifvqcu0","pricing_plan_id":"cebpf4jnsgd1na2vs0mg"},{"bike_id":"3ccfe727-71ad-4813-8518-0097c50bee03","system_id":"levelo_inurba_marseille","lat":43.28617,"lon":5.35102,"is_reserved":false,"is_disabled":false,"rental_uris":{"android":"levelo://app?vid=3ccfe727-71ad-4813-8518-0097c50bee03","ios":"levelo://app?vid=3ccfe727-71ad-4813-8518-0097c50bee03"},"vehicle_type_id":"4","last_reported":1743786543,"current_range_meters":9600,"station_id":"ce4bhch2rcd13ifvqeug","pricing_plan_id":"cebpf4jnsgd1na2vs0mg"},{"bike_id":"bf6e036f-b774-4968-aa8b-8907d92826b4","system_id":"levelo_inurba_marseille","lat":43.28124,"lon":5.3784,"is_reserved":false,"is_disabled":false,"rental_uris":{"android":"levelo://app?vid=bf6e036f-b774-4968-aa8b-8907d92826b4","ios":"levelo://app?vid=bf6e036f-b774-4968-aa8b-8907d92826b4"},"vehicle_type_id":"4","last_reported":1743786543,"current_range_meters":9600,"station_id":"ce4bha12rcd13ifvqee0","pricing_plan_id":"cebpf4jnsgd1na2vs0mg"},{"bike_id":"f1e5f20d-e5bb-4349-9a72-f7ab8a004414","system_id":"levelo_inurba_marseille","lat":43.30325,"lon":5.40446,"is_reserved":false,"is_disabled":true,"rental_uris":{"android":"levelo://app?vid=f1e5f20d-e5bb-4349-9a72-f7ab8a004414","ios":"levelo://app?vid=f1e5f20d-e5bb-4349-9a72-f7ab8a004414"},"vehicle_type_id":"4","last_reported":1743786543,"current_range_meters":9600,"station_id":"ce4bh012rcd13ifvqd10","pricing_plan_id":"cebpf4jnsgd1na2vs0mg"},{"bike_id":"3a673a01-13fc-4ed6-b9b1-08a0faf2fd75","system_id":"levelo_inurba_marseille","lat":43.23192,"lon":5.39982,"is_reserved":false,"is_disabled":false,"rental_uris":{"android":"levelo://app?vid=3a673a01-13fc-4ed6-b9b1-08a0faf2fd75","ios":"levelo://app?vid=3a673a01-13fc-4ed6-b9b1-08a0faf2fd75"},"vehicle_type_id":"4","last_reported":1743786543,"current_range_meters":9600,"station_id":"ce4bhn12rcd13ifvqgqg","pricing_plan_id":"cebpf4jnsgd1na2vs0mg"},{"bike_id":"bc9151ba-104c-407b-bea7-88cfc8535563","system_id":"levelo_inurba_marseille","lat":43.29537,"lon":5.38544,"is_reserved":false,"is_disabled":false,"rental_uris":{"android":"levelo://app?vid=bc9151ba-104c-407b-bea7-88cfc8535563","ios":"levelo://app?vid=bc9151ba-104c-407b-bea7-88cfc8535563"},"vehicle_type_id":"4","last_reported":1743786543,"current_range_meters":10000,"station_id":"ce4bgih2rcd13ifvqba0","pricing_plan_id":"cebpf4jnsgd1na2vs0mg"},{"bike_id":"d4bcc027-f5c5-4f7f-8d59-aebfc716c77e","system_id":"levelo_inurba_marseille","lat":43.28486,"lon":5.38467,"is_reserved":false,"is_disabled":false,"rental_uris":{"android":"levelo://app?vid=d4bcc027-f5c5-4f7f-8d59-aebfc716c77e","ios":"levelo://app?vid=d4bcc027-f5c5-4f7f-8d59-aebfc716c77e"},"vehicle_type_id":"4","last_reported":1743786543,"current_range_meters":10000,"station_id":"ce4bh512rcd13ifvqe3g","pricing_plan_id":"cebpf4jnsgd1na2vs0mg"},{"bike_id":"fb348b09-6abb-47a4-a266-91f2eeaee291","system_id":"levelo_inurba_marseille","lat":43.32085,"lon":5.36784,"is_reserved":false,"is_disabled":false,"rental_uris":{"android":"levelo://app?vid=fb348b09-6abb-47a4-a266-91f2eeaee291","ios":"levelo://app?vid=fb348b09-6abb-47a4-a266-91f2eeaee291"},"vehicle_type_id":"4","last_reported":1743786543,"current_range_meters":10000,"station_id":"ce4bhrh2rcd13ifvqhug","pricing_plan_id":"cebpf4jnsgd1na2vs0mg"},{"bike_id":"2483d352-a081-4a73-b71b-2be86761af1e","system_id":"levelo_inurba_marseille","lat":43.28957,"lon":5.36384,"is_reserved":false,"is_disabled":false,"rental_uris":{"android":"levelo://app?vid=2483d352-a081-4a73-b71b-2be86761af1e","ios":"levelo://app?vid=2483d352-a081-4a73-b71b-2be86761af1e"},"vehicle_type_id":"4","last_reported":1743786543,"current_range_meters":11200,"station_id":"ce4bhc92rcd13ifvqetg","pricing_plan_id":"cebpf4jnsgd1na2vs0mg"},{"bike_id":"23d7b10a-0325-42fb-81d1-88d6b5e1e635","system_id":"levelo_inurba_marseille","lat":43.2465,"lon":5.38892,"is_reserved":false,"is_disabled":false,"rental_uris":{"android":"levelo://app?vid=23d7b10a-0325-42fb-81d1-88d6b5e1e635","ios":"levelo://app?vid=23d7b10a-0325-42fb-81d1-88d6b5e1e635"},"vehicle_type_id":"4","last_reported":1743786543,"current_range_meters":10000,"station_id":"ce4bhg12rcd13ifvqf60","pricing_plan_id":"cebpf4jnsgd1na2vs0mg"},{"bike_id":"4e6fcfc1-114f-4255-9bf1-80695c42da2f","system_id":"levelo_inurba_marseille","lat":43.29271,"lon":5.38434,"is_reserved":false,"is_disabled":false,"rental_uris":{"android":"levelo://app?vid=4e6fcfc1-114f-4255-9bf1-80695c42da2f","ios":"levelo://app?vid=4e6fcfc1-114f-4255-9bf1-80695c42da2f"},"vehicle_type_id":"4","last_reported":1743786543,"current_range_meters":10000,"station_id":"","pricing_plan_id":"cebpf4jnsgd1na2vs0mg"},{"bike_id":"d1ec518c-cd7d-470e-99e0-1ad7bd66e7c5","system_id":"levelo_inurba_marseille","lat":43.29033,"lon":5.35592,"is_reserved":false,"is_disabled":false,"rental_uris":{"android":"levelo://app?vid=d1ec518c-cd7d-470e-99e0-1ad7bd66e7c5","ios":"levelo://app?vid=d1ec518c-cd7d-470e-99e0-1ad7bd66e7c5"},"vehicle_type_id":"4","last_reported":1743786543,"current_range_meters":10000,"station_id":"ce4bhb92rcd13ifvqen0","pricing_plan_id":"cebpf4jnsgd1na2vs0mg"},{"bike_id":"d9623a09-0194-4d91-b0bf-2a9cead8c84d","system_id":"levelo_inurba_marseille","lat":43.29008,"lon":5.35611,"is_reserved":false,"is_disabled":false,"rental_uris":{"android":"levelo://app?vid=d9623a09-0194-4d91-b0bf-2a9cead8c84d","ios":"levelo://app?vid=d9623a09-0194-4d91-b0bf-2a9cead8c84d"},"vehicle_type_id":"4","last_reported":1743786543,"current_range_meters":10000,"station_id":"ce4bhb92rcd13ifvqen0","pricing_plan_id":"cebpf4jnsgd1na2vs0mg"},{"bike_id":"d03e965e-1dfb-4891-92fc-37be59828007","system_id":"levelo_inurba_marseille","lat":43.28418,"lon":5.35001,"is_reserved":false,"is_disabled":false,"rental_uris":{"android":"levelo://app?vid=d03e965e-1dfb-4891-92fc-37be59828007","ios":"levelo://app?vid=d03e965e-1dfb-4891-92fc-37be59828007"},"vehicle_type_id":"4","last_reported":1743786543,"current_range_meters":10000,"station_id":"ce4bhbh2rcd13ifvqepg","pricing_plan_id":"cebpf4jnsgd1na2vs0mg"},{"bike_id":"b6cd05b9-a106-4a55-b113-f5266e95738f","system_id":"levelo_inurba_marseille","lat":43.29232,"lon":5.36079,"is_reserved":false,"is_disabled":false,"rental_uris":{"android":"levelo://app?vid=b6cd05b9-a106-4a55-b113-f5266e95738f","ios":"levelo://app?vid=b6cd05b9-a106-4a55-b113-f5266e95738f"},"vehicle_type_id":"4","last_reported":1743786543,"current_range_meters":10000,"station_id":"ce4bhbh2rcd13ifvqeqg","pricing_plan_id":"cebpf4jnsgd1na2vs0mg"},{"bike_id":"d0aae37b-8c71-4ebe-bb22-7bc9174bb75d","system_id":"levelo_inurba_marseille","lat":43.28942,"lon":5.36629,"is_reserved":false,"is_disabled":false,"rental_uris":{"android":"levelo://app?vid=d0aae37b-8c71-4ebe-bb22-7bc9174bb75d","ios":"levelo://app?vid=d0aae37b-8c71-4ebe-bb22-7bc9174bb75d"},"vehicle_type_id":"4","last_reported":1743786543,"current_range_meters":10000,"station_id":"ce4bhap2rcd13ifvqek0","pricing_plan_id":"cebpf4jnsgd1na2vs0mg"},{"bike_id":"09ad7e01-cd35-4cbe-ad6d-695da95696c9","system_id":"levelo_inurba_marseille","lat":43.29007,"lon":5.35612,"is_reserved":false,"is_disabled":false,"rental_uris":{"android":"levelo://app?vid=09ad7e01-cd35-4cbe-ad6d-695da95696c9","ios":"levelo://app?vid=09ad7e01-cd35-4cbe-ad6d-695da95696c9"},"vehicle_type_id":"4","last_reported":1743786543,"current_range_meters":9600,"station_id":"ce4bhb92rcd13ifvqen0","pricing_plan_id":"cebpf4jnsgd1na2vs0mg"},{"bike_id":"1b5de8a5-79e5-4991-9e10-8b02960f09ba","system_id":"levelo_inurba_marseille","lat":43.26927,"lon":5.4027,"is_reserved":false,"is_disabled":false,"rental_uris":{"android":"levelo://app?vid=1b5de8a5-79e5-4991-9e10-8b02960f09ba","ios":"levelo://app?vid=1b5de8a5-79e5-4991-9e10-8b02960f09ba"},"vehicle_type_id":"4","last_reported":1743786543,"current_range_meters":10000,"station_id":"cjm6bp8fraef2m0cb0m0","pricing_plan_id":"cebpf4jnsgd1na2vs0mg"},{"bike_id":"db526bca-5447-4ac0-922d-45ecb017eb78","system_id":"levelo_inurba_marseille","lat":43.3082,"lon":5.43517,"is_reserved":false,"is_disabled":false,"rental_uris":{"android":"levelo://app?vid=db526bca-5447-4ac0-922d-45ecb017eb78","ios":"levelo://app?vid=db526bca-5447-4ac0-922d-45ecb017eb78"},"vehicle_type_id":"4","last_reported":1743786543,"current_range_meters":10000,"station_id":"ce4bhph2rcd13ifvqheg","pricing_plan_id":"cebpf4jnsgd1na2vs0mg"},{"bike_id":"00c37ec6-2e92-45d3-86f1-cfcc4d23d4b9","system_id":"levelo_inurba_marseille","lat":43.33036,"lon":5.39041,"is_reserved":false,"is_disabled":false,"rental_uris":{"android":"levelo://app?vid=00c37ec6-2e92-45d3-86f1-cfcc4d23d4b9","ios":"levelo://app?vid=00c37ec6-2e92-45d3-86f1-cfcc4d23d4b9"},"vehicle_type_id":"4","last_reported":1743786543,"current_range_meters":10800,"station_id":"ce4bhr92rcd13ifvqhrg","pricing_plan_id":"cebpf4jnsgd1na2vs0mg"},{"bike_id":"024d87b3-f676-46ae-aba0-eb2c1d654e14","system_id":"levelo_inurba_marseille","lat":43.266835,"lon":5.394778,"is_reserved":false,"is_disabled":false,"rental_uris":{"android":"levelo://app?vid=024d87b3-f676-46ae-aba0-eb2c1d654e14","ios":"levelo://app?vid=024d87b3-f676-46ae-aba0-eb2c1d654e14"},"vehicle_type_id":"4","last_reported":1743786543,"current_range_meters":10800,"station_id":"ce4bhh12rcd13ifvqfg0","pricing_plan_id":"cebpf4jnsgd1na2vs0mg"},{"bike_id":"569f21ec-d99e-4fd5-89a9-8ced58c357c7","system_id":"levelo_inurba_marseille","lat":43.29101,"lon":5.3814,"is_reserved":false,"is_disabled":false,"rental_uris":{"android":"levelo://app?vid=569f21ec-d99e-4fd5-89a9-8ced58c357c7","ios":"levelo://app?vid=569f21ec-d99e-4fd5-89a9-8ced58c357c7"},"vehicle_type_id":"4","last_reported":1743786543,"current_range_meters":10000,"station_id":"ce4bh512rcd13ifvqe2g","pricing_plan_id":"cebpf4jnsgd1na2vs0mg"},{"bike_id":"477bc420-4333-4079-b188-d07e7d7acdbe","system_id":"levelo_inurba_marseille","lat":43.28461,"lon":5.35898,"is_reserved":false,"is_disabled":false,"rental_uris":{"android":"levelo://app?vid=477bc420-4333-4079-b188-d07e7d7acdbe","ios":"levelo://app?vid=477bc420-4333-4079-b188-d07e7d7acdbe"},"vehicle_type_id":"4","last_reported":1743786543,"current_range_meters":10800,"station_id":"ce4bhah2rcd13ifvqei0","pricing_plan_id":"cebpf4jnsgd1na2vs0mg"},{"bike_id":"1b35752b-344d-4b47-9c7c-df3f31156207","system_id":"levelo_inurba_marseille","lat":43.26942,"lon":5.40279,"is_reserved":false,"is_disabled":false,"rental_uris":{"android":"levelo://app?vid=1b35752b-344d-4b47-9c7c-df3f31156207","ios":"levelo://app?vid=1b35752b-344d-4b47-9c7c-df3f31156207"},"vehicle_type_id":"4","last_reported":1743786543,"current_range_meters":10800,"station_id":"cjm6bp8fraef2m0cb0m0","pricing_plan_id":"cebpf4jnsgd1na2vs0mg"},{"bike_id":"5ad607b1-9177-41ec-91b0-1fd14e526561","system_id":"levelo_inurba_marseille","lat":43.31084,"lon":5.42429,"is_reserved":false,"is_disabled":false,"rental_uris":{"android":"levelo://app?vid=5ad607b1-9177-41ec-91b0-1fd14e526561","ios":"levelo://app?vid=5ad607b1-9177-41ec-91b0-1fd14e526561"},"vehicle_type_id":"4","last_reported":1743786543,"current_range_meters":10800,"station_id":"ce4bhp92rcd13ifvqhag","pricing_plan_id":"cebpf4jnsgd1na2vs0mg"},{"bike_id":"b3091190-24a0-43e2-8bea-f96ec2c8b5de","system_id":"levelo_inurba_marseille","lat":43.2925,"lon":5.37619,"is_reserved":false,"is_disabled":false,"rental_uris":{"android":"levelo://app?vid=b3091190-24a0-43e2-8bea-f96ec2c8b5de","ios":"levelo://app?vid=b3091190-24a0-43e2-8bea-f96ec2c8b5de"},"vehicle_type_id":"4","last_reported":1743786543,"current_range_meters":10800,"station_id":"ce4bgi12rcd13ifvqb80","pricing_plan_id":"cebpf4jnsgd1na2vs0mg"},{"bike_id":"f4dceede-cfb1-4160-a183-751bb97c8e5f","system_id":"levelo_inurba_marseille","lat":43.296228,"lon":5.405986,"is_reserved":false,"is_disabled":false,"rental_uris":{"android":"levelo://app?vid=f4dceede-cfb1-4160-a183-751bb97c8e5f","ios":"levelo://app?vid=f4dceede-cfb1-4160-a183-751bb97c8e5f"},"vehicle_type_id":"4","last_reported":1743786543,"current_range_meters":10800,"station_id":"ce4bh0h2rcd13ifvqd60","pricing_plan_id":"cebpf4jnsgd1na2vs0mg"},{"bike_id":"4d3dad45-4ac6-4efb-ae82-a26704d1950a","system_id":"levelo_inurba_marseille","lat":43.290322,"lon":5.375279,"is_reserved":false,"is_disabled":false,"rental_uris":{"android":"levelo://app?vid=4d3dad45-4ac6-4efb-ae82-a26704d1950a","ios":"levelo://app?vid=4d3dad45-4ac6-4efb-ae82-a26704d1950a"},"vehicle_type_id":"4","last_reported":1743786543,"current_range_meters":11200,"station_id":"ce4bhb92rcd13ifvqen0","pricing_plan_id":"cebpf4jnsgd1na2vs0mg"},{"bike_id":"01acbc74-3994-4f1e-8587-4ea4d070ee32","system_id":"levelo_inurba_marseille","lat":43.289398,"lon":5.364003,"is_reserved":false,"is_disabled":false,"rental_uris":{"android":"levelo://app?vid=01acbc74-3994-4f1e-8587-4ea4d070ee32","ios":"levelo://app?vid=01acbc74-3994-4f1e-8587-4ea4d070ee32"},"vehicle_type_id":"4","last_reported":1743786543,"current_range_meters":10800,"station_id":"ce4bhc92rcd13ifvqetg","pricing_plan_id":"cebpf4jnsgd1na2vs0mg"},{"bike_id":"c71699ff-14ec-4829-9bae-d9d765b1bf37","system_id":"levelo_inurba_marseille","lat":43.27618,"lon":5.36123,"is_reserved":false,"is_disabled":false,"rental_uris":{"android":"levelo://app?vid=c71699ff-14ec-4829-9bae-d9d765b1bf37","ios":"levelo://app?vid=c71699ff-14ec-4829-9bae-d9d765b1bf37"},"vehicle_type_id":"4","last_reported":1743786543,"current_range_meters":11200,"station_id":"ce4bgj92rcd13ifvqbe0","pricing_plan_id":"cebpf4jnsgd1na2vs0mg"},{"bike_id":"2fb84ad4-e70e-4127-95c1-199881d51cb1","system_id":"levelo_inurba_marseille","lat":43.29417,"lon":5.38631,"is_reserved":false,"is_disabled":false,"rental_uris":{"android":"levelo://app?vid=2fb84ad4-e70e-4127-95c1-199881d51cb1","ios":"levelo://app?vid=2fb84ad4-e70e-4127-95c1-199881d51cb1"},"vehicle_type_id":"4","last_reported":1743786543,"current_range_meters":11600,"station_id":"ce4bh2h2rcd13ifvqdh0","pricing_plan_id":"cebpf4jnsgd1na2vs0mg"},{"bike_id":"49b93c84-2936-4986-a7eb-1a187cf3c671","system_id":"levelo_inurba_marseille","lat":43.25089,"lon":5.39524,"is_reserved":false,"is_disabled":false,"rental_uris":{"android":"levelo://app?vid=49b93c84-2936-4986-a7eb-1a187cf3c671","ios":"levelo://app?vid=49b93c84-2936-4986-a7eb-1a187cf3c671"},"vehicle_type_id":"4","last_reported":1743786543,"current_range_meters":11600,"station_id":"ce4bhm12rcd13ifvqgkg","pricing_plan_id":"cebpf4jnsgd1na2vs0mg"},{"bike_id":"c91a6301-d46d-458e-a0a6-5762e813d6dd","system_id":"levelo_inurba_marseille","lat":43.29536,"lon":5.38546,"is_reserved":false,"is_disabled":true,"rental_uris":{"android":"levelo://app?vid=c91a6301-d46d-458e-a0a6-5762e813d6dd","ios":"levelo://app?vid=c91a6301-d46d-458e-a0a6-5762e813d6dd"},"vehicle_type_id":"4","last_reported":1743786543,"current_range_meters":11600,"station_id":"ce4bgih2rcd13ifvqba0","pricing_plan_id":"cebpf4jnsgd1na2vs0mg"},{"bike_id":"32b3fe46-2673-42ef-b07c-a57bff3421b3","system_id":"levelo_inurba_marseille","lat":43.30422,"lon":5.39831,"is_reserved":false,"is_disabled":false,"rental_uris":{"android":"levelo://app?vid=32b3fe46-2673-42ef-b07c-a57bff3421b3","ios":"levelo://app?vid=32b3fe46-2673-42ef-b07c-a57bff3421b3"},"vehicle_type_id":"4","last_reported":1743786543,"current_range_meters":11600,"station_id":"","pricing_plan_id":"cebpf4jnsgd1na2vs0mg"},{"bike_id":"775d1015-0e1f-4d00-9aac-8f9cb6356b29","system_id":"levelo_inurba_marseille","lat":43.24071,"lon":5.37747,"is_reserved":false,"is_disabled":false,"rental_uris":{"android":"levelo://app?vid=775d1015-0e1f-4d00-9aac-8f9cb6356b29","ios":"levelo://app?vid=775d1015-0e1f-4d00-9aac-8f9cb6356b29"},"vehicle_type_id":"4","last_reported":1743786543,"current_range_meters":11600,"station_id":"ce4bhnp2rcd13ifvqgvg","pricing_plan_id":"cebpf4jnsgd1na2vs0mg"},{"bike_id":"f40fc4e8-cfdd-40aa-8507-3bd8857476a8","system_id":"levelo_inurba_marseille","lat":43.30233,"lon":5.40047,"is_reserved":false,"is_disabled":true,"rental_uris":{"android":"levelo://app?vid=f40fc4e8-cfdd-40aa-8507-3bd8857476a8","ios":"levelo://app?vid=f40fc4e8-cfdd-40aa-8507-3bd8857476a8"},"vehicle_type_id":"4","last_reported":1743786543,"current_range_meters":11600,"station_id":"ce4bgvh2rcd13ifvqcs0","pricing_plan_id":"cebpf4jnsgd1na2vs0mg"},{"bike_id":"e96084ca-be96-4a25-95a5-8534af60297e","system_id":"levelo_inurba_marseille","lat":43.295742,"lon":5.382345,"is_reserved":false,"is_disabled":false,"rental_uris":{"android":"levelo://app?vid=e96084ca-be96-4a25-95a5-8534af60297e","ios":"levelo://app?vid=e96084ca-be96-4a25-95a5-8534af60297e"},"vehicle_type_id":"4","last_reported":1743786543,"current_range_meters":11600,"station_id":"ce4bh692rcd13ifvqea0","pricing_plan_id":"cebpf4jnsgd1na2vs0mg"},{"bike_id":"0829c75e-d052-49e9-a07a-817d3d64f6e2","system_id":"levelo_inurba_marseille","lat":43.27492,"lon":5.42458,"is_reserved":false,"is_disabled":false,"rental_uris":{"android":"levelo://app?vid=0829c75e-d052-49e9-a07a-817d3d64f6e2","ios":"levelo://app?vid=0829c75e-d052-49e9-a07a-817d3d64f6e2"},"vehicle_type_id":"4","last_reported":1743786543,"current_range_meters":11200,"station_id":"ce4bhn92rcd13ifvqgrg","pricing_plan_id":"cebpf4jnsgd1na2vs0mg"},{"bike_id":"c9ab5bfd-fa91-4b45-8fa2-52813c43fa45","system_id":"levelo_inurba_marseille","lat":43.23051,"lon":5.35554,"is_reserved":false,"is_disabled":false,"rental_uris":{"android":"levelo://app?vid=c9ab5bfd-fa91-4b45-8fa2-52813c43fa45","ios":"levelo://app?vid=c9ab5bfd-fa91-4b45-8fa2-52813c43fa45"},"vehicle_type_id":"4","last_reported":1743786543,"current_range_meters":11600,"station_id":"cpo3342slgdg3j2ifvpg","pricing_plan_id":"cebpf4jnsgd1na2vs0mg"},{"bike_id":"4dfb45e3-cc8c-4cc7-97c6-cafeb639427b","system_id":"levelo_inurba_marseille","lat":43.27209,"lon":5.39197,"is_reserved":false,"is_disabled":false,"rental_uris":{"android":"levelo://app?vid=4dfb45e3-cc8c-4cc7-97c6-cafeb639427b","ios":"levelo://app?vid=4dfb45e3-cc8c-4cc7-97c6-cafeb639427b"},"vehicle_type_id":"4","last_reported":1743786543,"current_range_meters":11600,"station_id":"ce4bhhp2rcd13ifvqfm0","pricing_plan_id":"cebpf4jnsgd1na2vs0mg"},{"bike_id":"5ffbc8f2-3573-4204-aaba-ba242b8b1586","system_id":"levelo_inurba_marseille","lat":43.28948,"lon":5.36599,"is_reserved":false,"is_disabled":false,"rental_uris":{"android":"levelo://app?vid=5ffbc8f2-3573-4204-aaba-ba242b8b1586","ios":"levelo://app?vid=5ffbc8f2-3573-4204-aaba-ba242b8b1586"},"vehicle_type_id":"4","last_reported":1743786543,"current_range_meters":11600,"station_id":"ce4bhap2rcd13ifvqek0","pricing_plan_id":"cebpf4jnsgd1na2vs0mg"},{"bike_id":"706fc506-2aa0-4db5-833c-3cdac573bb9a","system_id":"levelo_inurba_marseille","lat":43.29031,"lon":5.38657,"is_reserved":false,"is_disabled":true,"rental_uris":{"android":"levelo://app?vid=706fc506-2aa0-4db5-833c-3cdac573bb9a","ios":"levelo://app?vid=706fc506-2aa0-4db5-833c-3cdac573bb9a"},"vehicle_type_id":"4","last_reported":1743786543,"current_range_meters":11600,"station_id":"ce4bh4p2rcd13ifvqe0g","pricing_plan_id":"cebpf4jnsgd1na2vs0mg"},{"bike_id":"346bceeb-5860-423b-ab0e-85a854f2c671","system_id":"levelo_inurba_marseille","lat":43.28106,"lon":5.3783,"is_reserved":false,"is_disabled":false,"rental_uris":{"android":"levelo://app?vid=346bceeb-5860-423b-ab0e-85a854f2c671","ios":"levelo://app?vid=346bceeb-5860-423b-ab0e-85a854f2c671"},"vehicle_type_id":"4","last_reported":1743786543,"current_range_meters":11600,"station_id":"ce4bha12rcd13ifvqee0","pricing_plan_id":"cebpf4jnsgd1na2vs0mg"},{"bike_id":"217d759b-6a17-4ca3-b52a-de3b9c3b9846","system_id":"levelo_inurba_marseille","lat":43.24813,"lon":5.3746,"is_reserved":false,"is_disabled":false,"rental_uris":{"android":"levelo://app?vid=217d759b-6a17-4ca3-b52a-de3b9c3b9846","ios":"levelo://app?vid=217d759b-6a17-4ca3-b52a-de3b9c3b9846"},"vehicle_type_id":"4","last_reported":1743786543,"current_range_meters":11600,"station_id":"ce4bhgh2rcd13ifvqfb0","pricing_plan_id":"cebpf4jnsgd1na2vs0mg"},{"bike_id":"69765911-a657-4873-ab71-1b6674378393","system_id":"levelo_inurba_marseille","lat":43.29309,"lon":5.37497,"is_reserved":false,"is_disabled":true,"rental_uris":{"android":"levelo://app?vid=69765911-a657-4873-ab71-1b6674378393","ios":"levelo://app?vid=69765911-a657-4873-ab71-1b6674378393"},"vehicle_type_id":"4","last_reported":1743786543,"current_range_meters":12000,"station_id":"ce4bgi12rcd13ifvqb70","pricing_plan_id":"cebpf4jnsgd1na2vs0mg"},{"bike_id":"829acafc-221e-41d2-b87e-1eaa511b3313","system_id":"levelo_inurba_marseille","lat":43.29052,"lon":5.39954,"is_reserved":false,"is_disabled":true,"rental_uris":{"android":"levelo://app?vid=829acafc-221e-41d2-b87e-1eaa511b3313","ios":"levelo://app?vid=829acafc-221e-41d2-b87e-1eaa511b3313"},"vehicle_type_id":"4","last_reported":1743786543,"current_range_meters":12000,"station_id":"ce4bh392rcd13ifvqdm0","pricing_plan_id":"cebpf4jnsgd1na2vs0mg"},{"bike_id":"0a21aa20-0c21-4088-b21b-d881f94fe3dc","system_id":"levelo_inurba_marseille","lat":43.29229,"lon":5.36078,"is_reserved":false,"is_disabled":false,"rental_uris":{"android":"levelo://app?vid=0a21aa20-0c21-4088-b21b-d881f94fe3dc","ios":"levelo://app?vid=0a21aa20-0c21-4088-b21b-d881f94fe3dc"},"vehicle_type_id":"4","last_reported":1743786543,"current_range_meters":12000,"station_id":"ce4bhbh2rcd13ifvqeqg","pricing_plan_id":"cebpf4jnsgd1na2vs0mg"},{"bike_id":"ccbaad60-ee1e-4837-a1f8-1af8e79dfa40","system_id":"levelo_inurba_marseille","lat":43.30614,"lon":5.3933,"is_reserved":false,"is_disabled":true,"rental_uris":{"android":"levelo://app?vid=ccbaad60-ee1e-4837-a1f8-1af8e79dfa40","ios":"levelo://app?vid=ccbaad60-ee1e-4837-a1f8-1af8e79dfa40"},"vehicle_type_id":"4","last_reported":1743786543,"current_range_meters":12000,"station_id":"ce4bh0p2rcd13ifvqd80","pricing_plan_id":"cebpf4jnsgd1na2vs0mg"},{"bike_id":"2d586f0e-5888-4ee0-8491-65b33585f7e2","system_id":"levelo_inurba_marseille","lat":43.29873,"lon":5.39735,"is_reserved":false,"is_disabled":false,"rental_uris":{"android":"levelo://app?vid=2d586f0e-5888-4ee0-8491-65b33585f7e2","ios":"levelo://app?vid=2d586f0e-5888-4ee0-8491-65b33585f7e2"},"vehicle_type_id":"4","last_reported":1743786543,"current_range_meters":12000,"station_id":"ce4bh0h2rcd13ifvqd50","pricing_plan_id":"cebpf4jnsgd1na2vs0mg"},{"bike_id":"a1d837ad-09bd-45ea-99a8-6a1e4091bcab","system_id":"levelo_inurba_marseille","lat":43.2885,"lon":5.35881,"is_reserved":false,"is_disabled":false,"rental_uris":{"android":"levelo://app?vid=a1d837ad-09bd-45ea-99a8-6a1e4091bcab","ios":"levelo://app?vid=a1d837ad-09bd-45ea-99a8-6a1e4091bcab"},"vehicle_type_id":"4","last_reported":1743786543,"current_range_meters":12000,"station_id":"ce4bhb12rcd13ifvqem0","pricing_plan_id":"cebpf4jnsgd1na2vs0mg"},{"bike_id":"6e87890a-2514-47e4-99a8-eab7ca73ca7e","system_id":"levelo_inurba_marseille","lat":43.24389,"lon":5.37062,"is_reserved":false,"is_disabled":false,"rental_uris":{"android":"levelo://app?vid=6e87890a-2514-47e4-99a8-eab7ca73ca7e","ios":"levelo://app?vid=6e87890a-2514-47e4-99a8-eab7ca73ca7e"},"vehicle_type_id":"4","last_reported":1743786543,"current_range_meters":12000,"station_id":"ce4bhhh2rcd13ifvqfk0","pricing_plan_id":"cebpf4jnsgd1na2vs0mg"},{"bike_id":"ae85a7a4-7c38-4e25-9e50-a9a925b58789","system_id":"levelo_inurba_marseille","lat":43.31096,"lon":5.42446,"is_reserved":false,"is_disabled":false,"rental_uris":{"android":"levelo://app?vid=ae85a7a4-7c38-4e25-9e50-a9a925b58789","ios":"levelo://app?vid=ae85a7a4-7c38-4e25-9e50-a9a925b58789"},"vehicle_type_id":"4","last_reported":1743786543,"current_range_meters":12000,"station_id":"ce4bhp92rcd13ifvqhag","pricing_plan_id":"cebpf4jnsgd1na2vs0mg"},{"bike_id":"3b4ad8c6-6244-4378-90d7-dac703d1508d","system_id":"levelo_inurba_marseille","lat":43.23193,"lon":5.35599,"is_reserved":false,"is_disabled":false,"rental_uris":{"android":"levelo://app?vid=3b4ad8c6-6244-4378-90d7-dac703d1508d","ios":"levelo://app?vid=3b4ad8c6-6244-4378-90d7-dac703d1508d"},"vehicle_type_id":"4","last_reported":1743786543,"current_range_meters":12400,"station_id":"ce4bhu92rcd13ifvqi70","pricing_plan_id":"cebpf4jnsgd1na2vs0mg"},{"bike_id":"ba49fad1-aae8-4a02-83a9-df939eff7628","system_id":"levelo_inurba_marseille","lat":43.2901,"lon":5.35609,"is_reserved":false,"is_disabled":false,"rental_uris":{"android":"levelo://app?vid=ba49fad1-aae8-4a02-83a9-df939eff7628","ios":"levelo://app?vid=ba49fad1-aae8-4a02-83a9-df939eff7628"},"vehicle_type_id":"4","last_reported":1743786543,"current_range_meters":12400,"station_id":"ce4bhb92rcd13ifvqen0","pricing_plan_id":"cebpf4jnsgd1na2vs0mg"},{"bike_id":"203176fb-52f7-45ec-88b4-caa4115f7b7b","system_id":"levelo_inurba_marseille","lat":43.29637,"lon":5.4004,"is_reserved":false,"is_disabled":false,"rental_uris":{"android":"levelo://app?vid=203176fb-52f7-45ec-88b4-caa4115f7b7b","ios":"levelo://app?vid=203176fb-52f7-45ec-88b4-caa4115f7b7b"},"vehicle_type_id":"4","last_reported":1743786543,"current_range_meters":12400,"station_id":"","pricing_plan_id":"cebpf4jnsgd1na2vs0mg"},{"bike_id":"e7baa6b2-9b10-4fe8-beb6-1825326c4c00","system_id":"levelo_inurba_marseille","lat":43.2942,"lon":5.3863,"is_reserved":false,"is_disabled":false,"rental_uris":{"android":"levelo://app?vid=e7baa6b2-9b10-4fe8-beb6-1825326c4c00","ios":"levelo://app?vid=e7baa6b2-9b10-4fe8-beb6-1825326c4c00"},"vehicle_type_id":"4","last_reported":1743786543,"current_range_meters":12400,"station_id":"ce4bh2h2rcd13ifvqdh0","pricing_plan_id":"cebpf4jnsgd1na2vs0mg"},{"bike_id":"a6303451-5b45-435c-bf0e-748f94cc010d","system_id":"levelo_inurba_marseille","lat":43.23204,"lon":5.35566,"is_reserved":false,"is_disabled":false,"rental_uris":{"android":"levelo://app?vid=a6303451-5b45-435c-bf0e-748f94cc010d","ios":"levelo://app?vid=a6303451-5b45-435c-bf0e-748f94cc010d"},"vehicle_type_id":"4","last_reported":1743786543,"current_range_meters":12400,"station_id":"ce4bhu92rcd13ifvqi70","pricing_plan_id":"cebpf4jnsgd1na2vs0mg"},{"bike_id":"4f52b75d-280c-46b2-856d-c17c1673612e","system_id":"levelo_inurba_marseille","lat":43.28692,"lon":5.37393,"is_reserved":false,"is_disabled":false,"rental_uris":{"android":"levelo://app?vid=4f52b75d-280c-46b2-856d-c17c1673612e","ios":"levelo://app?vid=4f52b75d-280c-46b2-856d-c17c1673612e"},"vehicle_type_id":"4","last_reported":1743786543,"current_range_meters":12400,"station_id":"ce4bh3p2rcd13ifvqdq0","pricing_plan_id":"cebpf4jnsgd1na2vs0mg"},{"bike_id":"82094fca-82b5-45b4-81a5-df2e6ffd6728","system_id":"levelo_inurba_marseille","lat":43.32338,"lon":5.40619,"is_reserved":false,"is_disabled":false,"rental_uris":{"android":"levelo://app?vid=82094fca-82b5-45b4-81a5-df2e6ffd6728","ios":"levelo://app?vid=82094fca-82b5-45b4-81a5-df2e6ffd6728"},"vehicle_type_id":"4","last_reported":1743786543,"current_range_meters":12400,"station_id":"ce4bhq92rcd13ifvqhjg","pricing_plan_id":"cebpf4jnsgd1na2vs0mg"},{"bike_id":"3fc406d3-8ae3-4d88-8a89-4595e7e86634","system_id":"levelo_inurba_marseille","lat":43.29525,"lon":5.375,"is_reserved":false,"is_disabled":false,"rental_uris":{"android":"levelo://app?vid=3fc406d3-8ae3-4d88-8a89-4595e7e86634","ios":"levelo://app?vid=3fc406d3-8ae3-4d88-8a89-4595e7e86634"},"vehicle_type_id":"4","last_reported":1743786543,"current_range_meters":12400,"station_id":"ce4bgkp2rcd13ifvqbmg","pricing_plan_id":"cebpf4jnsgd1na2vs0mg"},{"bike_id":"33bcb0c1-4488-44df-b540-f5c5b8b81298","system_id":"levelo_inurba_marseille","lat":43.31368,"lon":5.38494,"is_reserved":false,"is_disabled":false,"rental_uris":{"android":"levelo://app?vid=33bcb0c1-4488-44df-b540-f5c5b8b81298","ios":"levelo://app?vid=33bcb0c1-4488-44df-b540-f5c5b8b81298"},"vehicle_type_id":"4","last_reported":1743786543,"current_range_meters":12400,"station_id":"ce4bgt92rcd13ifvqcf0","pricing_plan_id":"cebpf4jnsgd1na2vs0mg"},{"bike_id":"0eb30f16-826e-404e-9494-cbd59d704ab7","system_id":"levelo_inurba_marseille","lat":43.29028,"lon":5.38648,"is_reserved":false,"is_disabled":true,"rental_uris":{"android":"levelo://app?vid=0eb30f16-826e-404e-9494-cbd59d704ab7","ios":"levelo://app?vid=0eb30f16-826e-404e-9494-cbd59d704ab7"},"vehicle_type_id":"4","last_reported":1743786543,"current_range_meters":12400,"station_id":"ce4bh4p2rcd13ifvqe0g","pricing_plan_id":"cebpf4jnsgd1na2vs0mg"},{"bike_id":"694da59c-7f76-4f40-9d42-b028491e1572","system_id":"levelo_inurba_marseille","lat":43.28475,"lon":5.3841,"is_reserved":false,"is_disabled":false,"rental_uris":{"android":"levelo://app?vid=694da59c-7f76-4f40-9d42-b028491e1572","ios":"levelo://app?vid=694da59c-7f76-4f40-9d42-b028491e1572"},"vehicle_type_id":"4","last_reported":1743786543,"current_range_meters":12400,"station_id":"ce4bh512rcd13ifvqe3g","pricing_plan_id":"cebpf4jnsgd1na2vs0mg"},{"bike_id":"c2055a2a-1cff-4f19-a52d-9b52baeaa63f","system_id":"levelo_inurba_marseille","lat":43.32059,"lon":5.38121,"is_reserved":false,"is_disabled":true,"rental_uris":{"android":"levelo://app?vid=c2055a2a-1cff-4f19-a52d-9b52baeaa63f","ios":"levelo://app?vid=c2055a2a-1cff-4f19-a52d-9b52baeaa63f"},"vehicle_type_id":"4","last_reported":1743786543,"current_range_meters":12400,"station_id":"","pricing_plan_id":"cebpf4jnsgd1na2vs0mg"},{"bike_id":"43be5df0-7c23-4568-b99e-84ea1238fe2c","system_id":"levelo_inurba_marseille","lat":43.28355,"lon":5.38101,"is_reserved":false,"is_disabled":false,"rental_uris":{"android":"levelo://app?vid=43be5df0-7c23-4568-b99e-84ea1238fe2c","ios":"levelo://app?vid=43be5df0-7c23-4568-b99e-84ea1238fe2c"},"vehicle_type_id":"4","last_reported":1743786543,"current_range_meters":12800,"station_id":"ce4bh412rcd13ifvqdr0","pricing_plan_id":"cebpf4jnsgd1na2vs0mg"},{"bike_id":"a07480da-f5a9-4597-b3e6-cc405effeae7","system_id":"levelo_inurba_marseille","lat":43.28956,"lon":5.39641,"is_reserved":false,"is_disabled":true,"rental_uris":{"android":"levelo://app?vid=a07480da-f5a9-4597-b3e6-cc405effeae7","ios":"levelo://app?vid=a07480da-f5a9-4597-b3e6-cc405effeae7"},"vehicle_type_id":"4","last_reported":1743786543,"current_range_meters":12800,"station_id":"ce4bh3h2rcd13ifvqdn0","pricing_plan_id":"cebpf4jnsgd1na2vs0mg"},{"bike_id":"9df2e517-b618-4d6d-ae3a-3b20dba81f15","system_id":"levelo_inurba_marseille","lat":43.2893,"lon":5.36643,"is_reserved":false,"is_disabled":false,"rental_uris":{"android":"levelo://app?vid=9df2e517-b618-4d6d-ae3a-3b20dba81f15","ios":"levelo://app?vid=9df2e517-b618-4d6d-ae3a-3b20dba81f15"},"vehicle_type_id":"4","last_reported":1743786543,"current_range_meters":12800,"station_id":"ce4bhap2rcd13ifvqek0","pricing_plan_id":"cebpf4jnsgd1na2vs0mg"},{"bike_id":"e001d7cb-92fa-42bb-ad4e-b2d36a33823c","system_id":"levelo_inurba_marseille","lat":43.268088,"lon":5.394445,"is_reserved":false,"is_disabled":false,"rental_uris":{"android":"levelo://app?vid=e001d7cb-92fa-42bb-ad4e-b2d36a33823c","ios":"levelo://app?vid=e001d7cb-92fa-42bb-ad4e-b2d36a33823c"},"vehicle_type_id":"4","last_reported":1743786543,"current_range_meters":12800,"station_id":"ce4bhh12rcd13ifvqfg0","pricing_plan_id":"cebpf4jnsgd1na2vs0mg"},{"bike_id":"b5392220-dcd5-4e08-b18e-cf7c81db963d","system_id":"levelo_inurba_marseille","lat":43.296288,"lon":5.378221,"is_reserved":false,"is_disabled":false,"rental_uris":{"android":"levelo://app?vid=b5392220-dcd5-4e08-b18e-cf7c81db963d","ios":"levelo://app?vid=b5392220-dcd5-4e08-b18e-cf7c81db963d"},"vehicle_type_id":"4","last_reported":1743786543,"current_range_meters":12800,"station_id":"ce4bgih2rcd13ifvqba0","pricing_plan_id":"cebpf4jnsgd1na2vs0mg"},{"bike_id":"6b8df6c6-e69f-416d-869f-6c58b572d426","system_id":"levelo_inurba_marseille","lat":43.23187,"lon":5.39983,"is_reserved":false,"is_disabled":false,"rental_uris":{"android":"levelo://app?vid=6b8df6c6-e69f-416d-869f-6c58b572d426","ios":"levelo://app?vid=6b8df6c6-e69f-416d-869f-6c58b572d426"},"vehicle_type_id":"4","last_reported":1743786543,"current_range_meters":12800,"station_id":"ce4bhn12rcd13ifvqgqg","pricing_plan_id":"cebpf4jnsgd1na2vs0mg"},{"bike_id":"fb0d4993-67fa-4314-9525-ef2ba9197c72","system_id":"levelo_inurba_marseille","lat":43.30264,"lon":5.4063,"is_reserved":false,"is_disabled":false,"rental_uris":{"android":"levelo://app?vid=fb0d4993-67fa-4314-9525-ef2ba9197c72","ios":"levelo://app?vid=fb0d4993-67fa-4314-9525-ef2ba9197c72"},"vehicle_type_id":"4","last_reported":1743786543,"current_range_meters":12800,"station_id":"","pricing_plan_id":"cebpf4jnsgd1na2vs0mg"},{"bike_id":"cccce150-77a7-4565-8ca1-36858ce9e6b0","system_id":"levelo_inurba_marseille","lat":43.32087,"lon":5.36825,"is_reserved":false,"is_disabled":false,"rental_uris":{"android":"levelo://app?vid=cccce150-77a7-4565-8ca1-36858ce9e6b0","ios":"levelo://app?vid=cccce150-77a7-4565-8ca1-36858ce9e6b0"},"vehicle_type_id":"4","last_reported":1743786543,"current_range_meters":12800,"station_id":"ce4bhrh2rcd13ifvqhug","pricing_plan_id":"cebpf4jnsgd1na2vs0mg"},{"bike_id":"1d5ef6d0-a413-45b3-8100-7222d11689f2","system_id":"levelo_inurba_marseille","lat":43.28917,"lon":5.38407,"is_reserved":false,"is_disabled":true,"rental_uris":{"android":"levelo://app?vid=1d5ef6d0-a413-45b3-8100-7222d11689f2","ios":"levelo://app?vid=1d5ef6d0-a413-45b3-8100-7222d11689f2"},"vehicle_type_id":"4","last_reported":1743786543,"current_range_meters":12800,"station_id":"ce4bh612rcd13ifvqe6g","pricing_plan_id":"cebpf4jnsgd1na2vs0mg"},{"bike_id":"5f8a2570-32aa-444b-b6f6-4804db20a610","system_id":"levelo_inurba_marseille","lat":43.31109,"lon":5.37768,"is_reserved":false,"is_disabled":false,"rental_uris":{"android":"levelo://app?vid=5f8a2570-32aa-444b-b6f6-4804db20a610","ios":"levelo://app?vid=5f8a2570-32aa-444b-b6f6-4804db20a610"},"vehicle_type_id":"4","last_reported":1743786543,"current_range_meters":13600,"station_id":"ce4bgt92rcd13ifvqcg0","pricing_plan_id":"cebpf4jnsgd1na2vs0mg"},{"bike_id":"48ec1fe3-fdf4-49a5-977a-526829b4e2e3","system_id":"levelo_inurba_marseille","lat":43.23009,"lon":5.35561,"is_reserved":false,"is_disabled":false,"rental_uris":{"android":"levelo://app?vid=48ec1fe3-fdf4-49a5-977a-526829b4e2e3","ios":"levelo://app?vid=48ec1fe3-fdf4-49a5-977a-526829b4e2e3"},"vehicle_type_id":"4","last_reported":1743786543,"current_range_meters":13600,"station_id":"cpo3342slgdg3j2ifvpg","pricing_plan_id":"cebpf4jnsgd1na2vs0mg"},{"bike_id":"6a89eaae-fd6e-48ef-acf8-124d0b421d9c","system_id":"levelo_inurba_marseille","lat":43.2549,"lon":5.37656,"is_reserved":false,"is_disabled":false,"rental_uris":{"android":"levelo://app?vid=6a89eaae-fd6e-48ef-acf8-124d0b421d9c","ios":"levelo://app?vid=6a89eaae-fd6e-48ef-acf8-124d0b421d9c"},"vehicle_type_id":"4","last_reported":1743786543,"current_range_meters":13600,"station_id":"ce4bhh12rcd13ifvqff0","pricing_plan_id":"cebpf4jnsgd1na2vs0mg"},{"bike_id":"78a0d2dd-f4c0-4939-be63-f33cd2919eed","system_id":"levelo_inurba_marseille","lat":43.2481,"lon":5.37459,"is_reserved":false,"is_disabled":false,"rental_uris":{"android":"levelo://app?vid=78a0d2dd-f4c0-4939-be63-f33cd2919eed","ios":"levelo://app?vid=78a0d2dd-f4c0-4939-be63-f33cd2919eed"},"vehicle_type_id":"4","last_reported":1743786543,"current_range_meters":12800,"station_id":"ce4bhgh2rcd13ifvqfb0","pricing_plan_id":"cebpf4jnsgd1na2vs0mg"},{"bike_id":"b2dd4286-e2a1-4bf6-9558-757f944c9aeb","system_id":"levelo_inurba_marseille","lat":43.29275,"lon":5.3844,"is_reserved":false,"is_disabled":false,"rental_uris":{"android":"levelo://app?vid=b2dd4286-e2a1-4bf6-9558-757f944c9aeb","ios":"levelo://app?vid=b2dd4286-e2a1-4bf6-9558-757f944c9aeb"},"vehicle_type_id":"4","last_reported":1743786543,"current_range_meters":13600,"station_id":"ce4bh692rcd13ifvqea0","pricing_plan_id":"cebpf4jnsgd1na2vs0mg"},{"bike_id":"6d9715e6-045f-417b-844a-144b6e5c1132","system_id":"levelo_inurba_marseille","lat":43.29217,"lon":5.3573,"is_reserved":false,"is_disabled":false,"rental_uris":{"android":"levelo://app?vid=6d9715e6-045f-417b-844a-144b6e5c1132","ios":"levelo://app?vid=6d9715e6-045f-417b-844a-144b6e5c1132"},"vehicle_type_id":"4","last_reported":1743786543,"current_range_meters":13600,"station_id":"","pricing_plan_id":"cebpf4jnsgd1na2vs0mg"},{"bike_id":"36bf1b80-81c0-41f9-b87e-97c0e9f9f9c4","system_id":"levelo_inurba_marseille","lat":43.28108,"lon":5.37854,"is_reserved":false,"is_disabled":false,"rental_uris":{"android":"levelo://app?vid=36bf1b80-81c0-41f9-b87e-97c0e9f9f9c4","ios":"levelo://app?vid=36bf1b80-81c0-41f9-b87e-97c0e9f9f9c4"},"vehicle_type_id":"4","last_reported":1743786543,"current_range_meters":13600,"station_id":"ce4bha12rcd13ifvqee0","pricing_plan_id":"cebpf4jnsgd1na2vs0mg"},{"bike_id":"eb79d1f9-7c91-4ea2-b5f8-796189743e1a","system_id":"levelo_inurba_marseille","lat":43.33685,"lon":5.39191,"is_reserved":false,"is_disabled":false,"rental_uris":{"android":"levelo://app?vid=eb79d1f9-7c91-4ea2-b5f8-796189743e1a","ios":"levelo://app?vid=eb79d1f9-7c91-4ea2-b5f8-796189743e1a"},"vehicle_type_id":"4","last_reported":1743786543,"current_range_meters":14000,"station_id":"ce4bhr92rcd13ifvqhsg","pricing_plan_id":"cebpf4jnsgd1na2vs0mg"},{"bike_id":"44ac6bc0-66a4-4501-af28-17e8526c476f","system_id":"levelo_inurba_marseille","lat":43.24161,"lon":5.36407,"is_reserved":false,"is_disabled":false,"rental_uris":{"android":"levelo://app?vid=44ac6bc0-66a4-4501-af28-17e8526c476f","ios":"levelo://app?vid=44ac6bc0-66a4-4501-af28-17e8526c476f"},"vehicle_type_id":"4","last_reported":1743786543,"current_range_meters":14000,"station_id":"cpo36qri1sfpv3e86is0","pricing_plan_id":"cebpf4jnsgd1na2vs0mg"},{"bike_id":"da2e75c5-9261-4254-b30c-a62fd7d1d5d3","system_id":"levelo_inurba_marseille","lat":43.310811,"lon":5.388995,"is_reserved":false,"is_disabled":false,"rental_uris":{"android":"levelo://app?vid=da2e75c5-9261-4254-b30c-a62fd7d1d5d3","ios":"levelo://app?vid=da2e75c5-9261-4254-b30c-a62fd7d1d5d3"},"vehicle_type_id":"4","last_reported":1743786543,"current_range_meters":14000,"station_id":"ce4bh492rcd13ifvqdvg","pricing_plan_id":"cebpf4jnsgd1na2vs0mg"},{"bike_id":"80235dcf-b352-4532-aed5-30040d3d5e04","system_id":"levelo_inurba_marseille","lat":43.28708,"lon":5.37376,"is_reserved":false,"is_disabled":false,"rental_uris":{"android":"levelo://app?vid=80235dcf-b352-4532-aed5-30040d3d5e04","ios":"levelo://app?vid=80235dcf-b352-4532-aed5-30040d3d5e04"},"vehicle_type_id":"4","last_reported":1743786543,"current_range_meters":14000,"station_id":"ce4bh3p2rcd13ifvqdq0","pricing_plan_id":"cebpf4jnsgd1na2vs0mg"},{"bike_id":"0a7f7006-121f-4243-b244-5dc7cefe6492","system_id":"levelo_inurba_marseille","lat":43.29853,"lon":5.36286,"is_reserved":false,"is_disabled":false,"rental_uris":{"android":"levelo://app?vid=0a7f7006-121f-4243-b244-5dc7cefe6492","ios":"levelo://app?vid=0a7f7006-121f-4243-b244-5dc7cefe6492"},"vehicle_type_id":"4","last_reported":1743786543,"current_range_meters":14000,"station_id":"ce4bgpp2rcd13ifvqc3g","pricing_plan_id":"cebpf4jnsgd1na2vs0mg"},{"bike_id":"03168832-2320-4570-bdd1-2a0227d42e3e","system_id":"levelo_inurba_marseille","lat":43.231811,"lon":5.399933,"is_reserved":false,"is_disabled":false,"rental_uris":{"android":"levelo://app?vid=03168832-2320-4570-bdd1-2a0227d42e3e","ios":"levelo://app?vid=03168832-2320-4570-bdd1-2a0227d42e3e"},"vehicle_type_id":"4","last_reported":1743786543,"current_range_meters":14000,"station_id":"ce4bhn12rcd13ifvqgqg","pricing_plan_id":"cebpf4jnsgd1na2vs0mg"},{"bike_id":"3bb117bf-b02a-46f8-964d-80f760618f2d","system_id":"levelo_inurba_marseille","lat":43.317173,"lon":5.404447,"is_reserved":false,"is_disabled":false,"rental_uris":{"android":"levelo://app?vid=3bb117bf-b02a-46f8-964d-80f760618f2d","ios":"levelo://app?vid=3bb117bf-b02a-46f8-964d-80f760618f2d"},"vehicle_type_id":"4","last_reported":1743786543,"current_range_meters":14000,"station_id":"ce4bh012rcd13ifvqd00","pricing_plan_id":"cebpf4jnsgd1na2vs0mg"},{"bike_id":"340e3872-d18f-48cb-9e03-1ba163ec6337","system_id":"levelo_inurba_marseille","lat":43.2866,"lon":5.36377,"is_reserved":false,"is_disabled":false,"rental_uris":{"android":"levelo://app?vid=340e3872-d18f-48cb-9e03-1ba163ec6337","ios":"levelo://app?vid=340e3872-d18f-48cb-9e03-1ba163ec6337"},"vehicle_type_id":"4","last_reported":1743786543,"current_range_meters":14000,"station_id":"ce4bhah2rcd13ifvqej0","pricing_plan_id":"cebpf4jnsgd1na2vs0mg"},{"bike_id":"47244842-fb18-4d55-a14a-0e25fa1b1478","system_id":"levelo_inurba_marseille","lat":43.25729,"lon":5.41107,"is_reserved":false,"is_disabled":false,"rental_uris":{"android":"levelo://app?vid=47244842-fb18-4d55-a14a-0e25fa1b1478","ios":"levelo://app?vid=47244842-fb18-4d55-a14a-0e25fa1b1478"},"vehicle_type_id":"4","last_reported":1743786543,"current_range_meters":14400,"station_id":"ce4bhkp2rcd13ifvqgd0","pricing_plan_id":"cebpf4jnsgd1na2vs0mg"},{"bike_id":"528313cd-81b7-4a2d-9218-2bdeb09eac55","system_id":"levelo_inurba_marseille","lat":43.29899,"lon":5.43659,"is_reserved":false,"is_disabled":false,"rental_uris":{"android":"levelo://app?vid=528313cd-81b7-4a2d-9218-2bdeb09eac55","ios":"levelo://app?vid=528313cd-81b7-4a2d-9218-2bdeb09eac55"},"vehicle_type_id":"4","last_reported":1743786543,"current_range_meters":14400,"station_id":"ce4bhpp2rcd13ifvqhfg","pricing_plan_id":"cebpf4jnsgd1na2vs0mg"},{"bike_id":"b53018f6-8f1c-41f3-b81a-ce1bc4729d30","system_id":"levelo_inurba_marseille","lat":43.31166,"lon":5.38717,"is_reserved":false,"is_disabled":false,"rental_uris":{"android":"levelo://app?vid=b53018f6-8f1c-41f3-b81a-ce1bc4729d30","ios":"levelo://app?vid=b53018f6-8f1c-41f3-b81a-ce1bc4729d30"},"vehicle_type_id":"4","last_reported":1743786543,"current_range_meters":14400,"station_id":"ce4bgv12rcd13ifvqcp0","pricing_plan_id":"cebpf4jnsgd1na2vs0mg"},{"bike_id":"fe170406-eea7-4a5d-8189-d1a75075cd60","system_id":"levelo_inurba_marseille","lat":43.29869,"lon":5.397306,"is_reserved":false,"is_disabled":false,"rental_uris":{"android":"levelo://app?vid=fe170406-eea7-4a5d-8189-d1a75075cd60","ios":"levelo://app?vid=fe170406-eea7-4a5d-8189-d1a75075cd60"},"vehicle_type_id":"4","last_reported":1743786543,"current_range_meters":14400,"station_id":"ce4bh0h2rcd13ifvqd50","pricing_plan_id":"cebpf4jnsgd1na2vs0mg"},{"bike_id":"7365c7b3-913a-4ece-b372-6388c9e03df4","system_id":"levelo_inurba_marseille","lat":43.25118,"lon":5.40315,"is_reserved":false,"is_disabled":true,"rental_uris":{"android":"levelo://app?vid=7365c7b3-913a-4ece-b372-6388c9e03df4","ios":"levelo://app?vid=7365c7b3-913a-4ece-b372-6388c9e03df4"},"vehicle_type_id":"4","last_reported":1743786543,"current_range_meters":14400,"station_id":"ce4bhlh2rcd13ifvqgig","pricing_plan_id":"cebpf4jnsgd1na2vs0mg"},{"bike_id":"ef26bcb8-dea7-4bdd-8c84-cd8ca6b7c2b4","system_id":"levelo_inurba_marseille","lat":43.29417,"lon":5.38628,"is_reserved":false,"is_disabled":false,"rental_uris":{"android":"levelo://app?vid=ef26bcb8-dea7-4bdd-8c84-cd8ca6b7c2b4","ios":"levelo://app?vid=ef26bcb8-dea7-4bdd-8c84-cd8ca6b7c2b4"},"vehicle_type_id":"4","last_reported":1743786543,"current_range_meters":14800,"station_id":"ce4bh2h2rcd13ifvqdh0","pricing_plan_id":"cebpf4jnsgd1na2vs0mg"},{"bike_id":"193a4e00-9e23-40f9-a937-630e4146d315","system_id":"levelo_inurba_marseille","lat":43.28464,"lon":5.35889,"is_reserved":false,"is_disabled":false,"rental_uris":{"android":"levelo://app?vid=193a4e00-9e23-40f9-a937-630e4146d315","ios":"levelo://app?vid=193a4e00-9e23-40f9-a937-630e4146d315"},"vehicle_type_id":"4","last_reported":1743786543,"current_range_meters":14800,"station_id":"ce4bhah2rcd13ifvqei0","pricing_plan_id":"cebpf4jnsgd1na2vs0mg"},{"bike_id":"dafb0e47-46be-4d27-baed-b7490a64e9e2","system_id":"levelo_inurba_marseille","lat":43.32347,"lon":5.40614,"is_reserved":false,"is_disabled":false,"rental_uris":{"android":"levelo://app?vid=dafb0e47-46be-4d27-baed-b7490a64e9e2","ios":"levelo://app?vid=dafb0e47-46be-4d27-baed-b7490a64e9e2"},"vehicle_type_id":"4","last_reported":1743786543,"current_range_meters":14800,"station_id":"ce4bhq92rcd13ifvqhjg","pricing_plan_id":"cebpf4jnsgd1na2vs0mg"},{"bike_id":"3719d63c-6535-40a3-9206-8644906174c4","system_id":"levelo_inurba_marseille","lat":43.29901,"lon":5.43667,"is_reserved":false,"is_disabled":false,"rental_uris":{"android":"levelo://app?vid=3719d63c-6535-40a3-9206-8644906174c4","ios":"levelo://app?vid=3719d63c-6535-40a3-9206-8644906174c4"},"vehicle_type_id":"4","last_reported":1743786543,"current_range_meters":14800,"station_id":"ce4bhpp2rcd13ifvqhfg","pricing_plan_id":"cebpf4jnsgd1na2vs0mg"},{"bike_id":"0ecc1342-944b-4da0-90d9-f35d0a006bc9","system_id":"levelo_inurba_marseille","lat":43.23183,"lon":5.39991,"is_reserved":false,"is_disabled":false,"rental_uris":{"android":"levelo://app?vid=0ecc1342-944b-4da0-90d9-f35d0a006bc9","ios":"levelo://app?vid=0ecc1342-944b-4da0-90d9-f35d0a006bc9"},"vehicle_type_id":"4","last_reported":1743786543,"current_range_meters":14800,"station_id":"ce4bhn12rcd13ifvqgqg","pricing_plan_id":"cebpf4jnsgd1na2vs0mg"},{"bike_id":"55b4c544-3c74-4c1c-a1e6-fc537c691e60","system_id":"levelo_inurba_marseille","lat":43.29195,"lon":5.35809,"is_reserved":false,"is_disabled":false,"rental_uris":{"android":"levelo://app?vid=55b4c544-3c74-4c1c-a1e6-fc537c691e60","ios":"levelo://app?vid=55b4c544-3c74-4c1c-a1e6-fc537c691e60"},"vehicle_type_id":"4","last_reported":1743786543,"current_range_meters":14800,"station_id":"ce4bhb12rcd13ifvqel0","pricing_plan_id":"cebpf4jnsgd1na2vs0mg"},{"bike_id":"8665207b-ea52-4f71-9db5-6fc34cefc5bb","system_id":"levelo_inurba_marseille","lat":43.29264,"lon":5.4091,"is_reserved":false,"is_disabled":false,"rental_uris":{"android":"levelo://app?vid=8665207b-ea52-4f71-9db5-6fc34cefc5bb","ios":"levelo://app?vid=8665207b-ea52-4f71-9db5-6fc34cefc5bb"},"vehicle_type_id":"4","last_reported":1743786543,"current_range_meters":14800,"station_id":"ce4bh192rcd13ifvqdc0","pricing_plan_id":"cebpf4jnsgd1na2vs0mg"},